{"last_updated":1737356990,"ttl":60,"version":"2.2","data":{"bikes":[{"bike_id":"4ec768c0-7785-44cf-b506-82290a4c1720","system_id":"levelo_inurba_marseille","lat":43.29782,"lon":5.39357,"is_reserved":false,"is_disabled":false,"rental_uris":{"android":"levelo://app?vid=4ec768c0-7785-44cf-b506-82290a4c1720","ios":"levelo://app?vid=4ec768c0-7785-44cf-b506-82290a4c1720"},"vehicle_type_id":"4","last_reported":1737356990,"current_range_meters":33600,"station_id":"chh1huq6cuj3fo74tm60","pricing_plan_id":"cebpf4jnsgd1na2vs0mg"},{"bike_id":"17a6427c-4d22-4e4d-b3c0-28a1908aff44","system_id":"levelo_inurba_marseille","lat":43.2481,"lon":5.37452,"is_reserved":false,"is_disabled":false,"rental_uris":{"android":"levelo://app?vid=17a6427c-4d22-4e4d-b3c0-28a1908aff44","ios":"levelo://app?vid=17a6427c-4d22-4e4d-b3c0-28a1908aff44"},"vehicle_type_id":"4","last_reported":1737356990,"current_range_meters":38800,"station_id":"ce4bhgh2rcd13ifvqfb0","pricing_plan_id":"cebpf4jnsgd1na2vs0mg"},{"bike_id":"54699930-2dbc-4d91-ab1b-41cfe810e817","system_id":"levelo_inurba_marseille","lat":43.29184,"lon":5.39385,"is_reserved":false,"is_disabled":true,"rental_uris":{"android":"levelo://app?vid=54699930-2dbc-4d91-ab1b-41cfe810e817","ios":"levelo://app?vid=54699930-2dbc-4d91-ab1b-41cfe810e817"},"vehicle_type_id":"4","last_reported":1737356990,"current_range_meters":0,"station_id":"","pricing_plan_id":"cebpf4jnsgd1na2vs0mg"},{"bike_id":"d383b76c-b1c5-4112-bf95-e420a42ff72e","system_id":"levelo_inurba_marseille","lat":43.24816,"lon":5.37437,"is_reserved":false,"is_disabled":false,"rental_uris":{"android":"levelo://app?vid=d383b76c-b1c5-4112-bf95-e420a42ff72e","ios":"levelo://app?vid=d383b76c-b1c5-4112-bf95-e420a42ff72e"},"vehicle_type_id":"4","last_reported":1737356990,"current_range_meters":33200,"station_id":"ce4bhgh2rcd13ifvqfb0","pricing_plan_id":"cebpf4jnsgd1na2vs0mg"},{"bike_id":"e841df29-8d21-48cf-a019-18bc26b21d64","system_id":"levelo_inurba_marseille","lat":43.27369,"lon":5.36245,"is_reserved":false,"is_disabled":false,"rental_uris":{"android":"levelo://app?vid=e841df29-8d21-48cf-a019-18bc26b21d64","ios":"levelo://app?vid=e841df29-8d21-48cf-a019-18bc26b21d64"},"vehicle_type_id":"4","last_reported":1737356990,"current_range_meters":39200,"station_id":"ce4bhbh2rcd13ifvqeo0","pricing_plan_id":"cebpf4jnsgd1na2vs0mg"},{"bike_id":"016891d3-d48d-43ea-9d8d-aacd30510a50","system_id":"levelo_inurba_marseille","lat":43.230548,"lon":5.354898,"is_reserved":false,"is_disabled":false,"rental_uris":{"android":"levelo://app?vid=016891d3-d48d-43ea-9d8d-aacd30510a50","ios":"levelo://app?vid=016891d3-d48d-43ea-9d8d-aacd30510a50"},"vehicle_type_id":"4","last_reported":1737356990,"current_range_meters":20000,"station_id":"cpo3342slgdg3j2ifvpg","pricing_plan_id":"cebpf4jnsgd1na2vs0mg"},{"bike_id":"fa45cee9-f964-4ae4-b5e8-98187e4255e3","system_id":"levelo_inurba_marseille","lat":43.2512,"lon":5.40338,"is_reserved":false,"is_disabled":false,"rental_uris":{"android":"levelo://app?vid=fa45cee9-f964-4ae4-b5e8-98187e4255e3","ios":"levelo://app?vid=fa45cee9-f964-4ae4-b5e8-98187e4255e3"},"vehicle_type_id":"4","last_reported":1737356990,"current_range_meters":28400,"station_id":"ce4bhlh2rcd13ifvqgig","pricing_plan_id":"cebpf4jnsgd1na2vs0mg"},{"bike_id":"a5cfd84d-4cae-4412-b199-dcb982d64799","system_id":"levelo_inurba_marseille","lat":43.284438,"lon":5.391856,"is_reserved":false,"is_disabled":true,"rental_uris":{"android":"levelo://app?vid=a5cfd84d-4cae-4412-b199-dcb982d64799","ios":"levelo://app?vid=a5cfd84d-4cae-4412-b199-dcb982d64799"},"vehicle_type_id":"4","last_reported":1737356990,"current_range_meters":0,"station_id":"ce4bhoh2rcd13ifvqh5g","pricing_plan_id":"cebpf4jnsgd1na2vs0mg"},{"bike_id":"70ac5e43-1a65-4943-bf4c-9459b26a7429","system_id":"levelo_inurba_marseille","lat":43.25734,"lon":5.41153,"is_reserved":false,"is_disabled":false,"rental_uris":{"android":"levelo://app?vid=70ac5e43-1a65-4943-bf4c-9459b26a7429","ios":"levelo://app?vid=70ac5e43-1a65-4943-bf4c-9459b26a7429"},"vehicle_type_id":"4","last_reported":1737356990,"current_range_meters":16800,"station_id":"ce4bhkp2rcd13ifvqgd0","pricing_plan_id":"cebpf4jnsgd1na2vs0mg"},{"bike_id":"2b085248-87cc-4c64-b31b-d47cccf2b2a5","system_id":"levelo_inurba_marseille","lat":43.29959,"lon":5.37153,"is_reserved":false,"is_disabled":false,"rental_uris":{"android":"levelo://app?vid=2b085248-87cc-4c64-b31b-d47cccf2b2a5","ios":"levelo://app?vid=2b085248-87cc-4c64-b31b-d47cccf2b2a5"},"vehicle_type_id":"4","last_reported":1737356990,"current_range_meters":38800,"station_id":"ce4bgr92rcd13ifvqc7g","pricing_plan_id":"cebpf4jnsgd1na2vs0mg"},{"bike_id":"7d825a03-ce25-4f10-8b74-9c41af3c3987","system_id":"levelo_inurba_marseille","lat":43.27994,"lon":5.40025,"is_reserved":false,"is_disabled":true,"rental_uris":{"android":"levelo://app?vid=7d825a03-ce25-4f10-8b74-9c41af3c3987","ios":"levelo://app?vid=7d825a03-ce25-4f10-8b74-9c41af3c3987"},"vehicle_type_id":"4","last_reported":1737356990,"current_range_meters":0,"station_id":"ce4bho92rcd13ifvqh4g","pricing_plan_id":"cebpf4jnsgd1na2vs0mg"},{"bike_id":"c981f361-a508-4553-8bc2-435b4c98d6fb","system_id":"levelo_inurba_marseille","lat":43.315036,"lon":5.373011,"is_reserved":false,"is_disabled":false,"rental_uris":{"android":"levelo://app?vid=c981f361-a508-4553-8bc2-435b4c98d6fb","ios":"levelo://app?vid=c981f361-a508-4553-8bc2-435b4c98d6fb"},"vehicle_type_id":"4","last_reported":1737356990,"current_range_meters":12800,"station_id":"ce4bgt12rcd13ifvqcd0","pricing_plan_id":"cebpf4jnsgd1na2vs0mg"},{"bike_id":"e3d5a69f-7604-4ab5-bfce-dc9cf0dd7b56","system_id":"levelo_inurba_marseille","lat":43.29563,"lon":5.39964,"is_reserved":false,"is_disabled":true,"rental_uris":{"android":"levelo://app?vid=e3d5a69f-7604-4ab5-bfce-dc9cf0dd7b56","ios":"levelo://app?vid=e3d5a69f-7604-4ab5-bfce-dc9cf0dd7b56"},"vehicle_type_id":"4","last_reported":1737356990,"current_range_meters":25600,"station_id":"ce4bh312rcd13ifvqdj0","pricing_plan_id":"cebpf4jnsgd1na2vs0mg"},{"bike_id":"85216f81-43f7-4936-8c3d-41db481bc5bd","system_id":"levelo_inurba_marseille","lat":43.31486,"lon":5.37292,"is_reserved":false,"is_disabled":false,"rental_uris":{"android":"levelo://app?vid=85216f81-43f7-4936-8c3d-41db481bc5bd","ios":"levelo://app?vid=85216f81-43f7-4936-8c3d-41db481bc5bd"},"vehicle_type_id":"4","last_reported":1737356990,"current_range_meters":28000,"station_id":"ce4bgt12rcd13ifvqcd0","pricing_plan_id":"cebpf4jnsgd1na2vs0mg"},{"bike_id":"4379514a-276f-4575-9ef7-555d59752766","system_id":"levelo_inurba_marseille","lat":43.25124,"lon":5.40285,"is_reserved":false,"is_disabled":false,"rental_uris":{"android":"levelo://app?vid=4379514a-276f-4575-9ef7-555d59752766","ios":"levelo://app?vid=4379514a-276f-4575-9ef7-555d59752766"},"vehicle_type_id":"4","last_reported":1737356990,"current_range_meters":25200,"station_id":"ce4bhlh2rcd13ifvqgig","pricing_plan_id":"cebpf4jnsgd1na2vs0mg"},{"bike_id":"a15481fc-8117-47fa-8058-02c79ff5be87","system_id":"levelo_inurba_marseille","lat":43.2512,"lon":5.40305,"is_reserved":false,"is_disabled":false,"rental_uris":{"android":"levelo://app?vid=a15481fc-8117-47fa-8058-02c79ff5be87","ios":"levelo://app?vid=a15481fc-8117-47fa-8058-02c79ff5be87"},"vehicle_type_id":"4","last_reported":1737356990,"current_range_meters":39200,"station_id":"ce4bhlh2rcd13ifvqgig","pricing_plan_id":"cebpf4jnsgd1na2vs0mg"},{"bike_id":"7686ade4-3aaf-4ba5-9b29-242cbb3cee7c","system_id":"levelo_inurba_marseille","lat":43.28935,"lon":5.36401,"is_reserved":false,"is_disabled":false,"rental_uris":{"android":"levelo://app?vid=7686ade4-3aaf-4ba5-9b29-242cbb3cee7c","ios":"levelo://app?vid=7686ade4-3aaf-4ba5-9b29-242cbb3cee7c"},"vehicle_type_id":"4","last_reported":1737356990,"current_range_meters":31200,"station_id":"ce4bhc92rcd13ifvqetg","pricing_plan_id":"cebpf4jnsgd1na2vs0mg"},{"bike_id":"88c4ba37-faf9-401e-9192-50634b7cd456","system_id":"levelo_inurba_marseille","lat":43.30124,"lon":5.38736,"is_reserved":false,"is_disabled":false,"rental_uris":{"android":"levelo://app?vid=88c4ba37-faf9-401e-9192-50634b7cd456","ios":"levelo://app?vid=88c4ba37-faf9-401e-9192-50634b7cd456"},"vehicle_type_id":"4","last_reported":1737356990,"current_range_meters":29600,"station_id":"ce4bghh2rcd13ifvqb60","pricing_plan_id":"cebpf4jnsgd1na2vs0mg"},{"bike_id":"365c623b-5ad5-47e2-a231-fb7961d1cced","system_id":"levelo_inurba_marseille","lat":43.30488,"lon":5.37902,"is_reserved":false,"is_disabled":false,"rental_uris":{"android":"levelo://app?vid=365c623b-5ad5-47e2-a231-fb7961d1cced","ios":"levelo://app?vid=365c623b-5ad5-47e2-a231-fb7961d1cced"},"vehicle_type_id":"4","last_reported":1737356990,"current_range_meters":30800,"station_id":"ce4bgup2rcd13ifvqcn0","pricing_plan_id":"cebpf4jnsgd1na2vs0mg"},{"bike_id":"763ed4fc-16fd-47a0-aedf-62c028daa66f","system_id":"levelo_inurba_marseille","lat":43.363905,"lon":5.355689,"is_reserved":false,"is_disabled":false,"rental_uris":{"android":"levelo://app?vid=763ed4fc-16fd-47a0-aedf-62c028daa66f","ios":"levelo://app?vid=763ed4fc-16fd-47a0-aedf-62c028daa66f"},"vehicle_type_id":"4","last_reported":1737356990,"current_range_meters":9600,"station_id":"","pricing_plan_id":"cebpf4jnsgd1na2vs0mg"},{"bike_id":"56855a2d-6aa0-43be-9bd4-39897b793621","system_id":"levelo_inurba_marseille","lat":43.2319,"lon":5.35567,"is_reserved":false,"is_disabled":false,"rental_uris":{"android":"levelo://app?vid=56855a2d-6aa0-43be-9bd4-39897b793621","ios":"levelo://app?vid=56855a2d-6aa0-43be-9bd4-39897b793621"},"vehicle_type_id":"4","last_reported":1737356990,"current_range_meters":4400,"station_id":"ce4bhu92rcd13ifvqi70","pricing_plan_id":"cebpf4jnsgd1na2vs0mg"},{"bike_id":"dd3e648d-0c8b-4027-a5f5-caba6b440753","system_id":"levelo_inurba_marseille","lat":43.23191,"lon":5.39979,"is_reserved":false,"is_disabled":false,"rental_uris":{"android":"levelo://app?vid=dd3e648d-0c8b-4027-a5f5-caba6b440753","ios":"levelo://app?vid=dd3e648d-0c8b-4027-a5f5-caba6b440753"},"vehicle_type_id":"4","last_reported":1737356990,"current_range_meters":38800,"station_id":"ce4bhn12rcd13ifvqgqg","pricing_plan_id":"cebpf4jnsgd1na2vs0mg"},{"bike_id":"ef28c8bd-490b-4bbc-85b9-591c43931390","system_id":"levelo_inurba_marseille","lat":43.30276,"lon":5.37709,"is_reserved":false,"is_disabled":false,"rental_uris":{"android":"levelo://app?vid=ef28c8bd-490b-4bbc-85b9-591c43931390","ios":"levelo://app?vid=ef28c8bd-490b-4bbc-85b9-591c43931390"},"vehicle_type_id":"4","last_reported":1737356990,"current_range_meters":3600,"station_id":"ce4bguh2rcd13ifvqcj0","pricing_plan_id":"cebpf4jnsgd1na2vs0mg"},{"bike_id":"f3c94274-f861-4c89-8bb1-1ebe1a531935","system_id":"levelo_inurba_marseille","lat":43.25022,"lon":5.38903,"is_reserved":false,"is_disabled":false,"rental_uris":{"android":"levelo://app?vid=f3c94274-f861-4c89-8bb1-1ebe1a531935","ios":"levelo://app?vid=f3c94274-f861-4c89-8bb1-1ebe1a531935"},"vehicle_type_id":"4","last_reported":1737356990,"current_range_meters":35600,"station_id":"ce4bhgp2rcd13ifvqfd0","pricing_plan_id":"cebpf4jnsgd1na2vs0mg"},{"bike_id":"51dd6237-96c9-4ee3-841a-f0251f4ee3d1","system_id":"levelo_inurba_marseille","lat":43.25122,"lon":5.40319,"is_reserved":false,"is_disabled":false,"rental_uris":{"android":"levelo://app?vid=51dd6237-96c9-4ee3-841a-f0251f4ee3d1","ios":"levelo://app?vid=51dd6237-96c9-4ee3-841a-f0251f4ee3d1"},"vehicle_type_id":"4","last_reported":1737356990,"current_range_meters":28400,"station_id":"ce4bhlh2rcd13ifvqgig","pricing_plan_id":"cebpf4jnsgd1na2vs0mg"},{"bike_id":"ea820ade-d81d-428e-82b9-7f165f7e8e75","system_id":"levelo_inurba_marseille","lat":43.32355,"lon":5.36646,"is_reserved":false,"is_disabled":false,"rental_uris":{"android":"levelo://app?vid=ea820ade-d81d-428e-82b9-7f165f7e8e75","ios":"levelo://app?vid=ea820ade-d81d-428e-82b9-7f165f7e8e75"},"vehicle_type_id":"4","last_reported":1737356990,"current_range_meters":11600,"station_id":"","pricing_plan_id":"cebpf4jnsgd1na2vs0mg"},{"bike_id":"c29020e0-83ef-4b06-ac4f-c4422257f84a","system_id":"levelo_inurba_marseille","lat":43.36387,"lon":5.35603,"is_reserved":false,"is_disabled":false,"rental_uris":{"android":"levelo://app?vid=c29020e0-83ef-4b06-ac4f-c4422257f84a","ios":"levelo://app?vid=c29020e0-83ef-4b06-ac4f-c4422257f84a"},"vehicle_type_id":"4","last_reported":1737356990,"current_range_meters":15200,"station_id":"","pricing_plan_id":"cebpf4jnsgd1na2vs0mg"},{"bike_id":"9a9f5094-96b5-4ffb-92ab-bc926b485321","system_id":"levelo_inurba_marseille","lat":43.231873,"lon":5.399823,"is_reserved":false,"is_disabled":false,"rental_uris":{"android":"levelo://app?vid=9a9f5094-96b5-4ffb-92ab-bc926b485321","ios":"levelo://app?vid=9a9f5094-96b5-4ffb-92ab-bc926b485321"},"vehicle_type_id":"4","last_reported":1737356990,"current_range_meters":39200,"station_id":"ce4bhn12rcd13ifvqgqg","pricing_plan_id":"cebpf4jnsgd1na2vs0mg"},{"bike_id":"6bf5bd29-3e54-437a-9020-86384919dc04","system_id":"levelo_inurba_marseille","lat":43.322836,"lon":5.382835,"is_reserved":false,"is_disabled":false,"rental_uris":{"android":"levelo://app?vid=6bf5bd29-3e54-437a-9020-86384919dc04","ios":"levelo://app?vid=6bf5bd29-3e54-437a-9020-86384919dc04"},"vehicle_type_id":"4","last_reported":1737356990,"current_range_meters":39200,"station_id":"ce4bhr12rcd13ifvqhqg","pricing_plan_id":"cebpf4jnsgd1na2vs0mg"},{"bike_id":"8038c4d5-2330-4f5f-9158-cd82e016484a","system_id":"levelo_inurba_marseille","lat":43.28441,"lon":5.35005,"is_reserved":false,"is_disabled":false,"rental_uris":{"android":"levelo://app?vid=8038c4d5-2330-4f5f-9158-cd82e016484a","ios":"levelo://app?vid=8038c4d5-2330-4f5f-9158-cd82e016484a"},"vehicle_type_id":"4","last_reported":1737356990,"current_range_meters":28800,"station_id":"ce4bhbh2rcd13ifvqepg","pricing_plan_id":"cebpf4jnsgd1na2vs0mg"},{"bike_id":"b672b566-ae6e-4181-a2cb-0155be334a04","system_id":"levelo_inurba_marseille","lat":43.28944,"lon":5.36614,"is_reserved":false,"is_disabled":true,"rental_uris":{"android":"levelo://app?vid=b672b566-ae6e-4181-a2cb-0155be334a04","ios":"levelo://app?vid=b672b566-ae6e-4181-a2cb-0155be334a04"},"vehicle_type_id":"4","last_reported":1737356990,"current_range_meters":30000,"station_id":"ce4bhap2rcd13ifvqek0","pricing_plan_id":"cebpf4jnsgd1na2vs0mg"},{"bike_id":"8db738e6-b6ce-450c-81e4-f2e6d6c2e790","system_id":"levelo_inurba_marseille","lat":43.29619,"lon":5.37723,"is_reserved":false,"is_disabled":false,"rental_uris":{"android":"levelo://app?vid=8db738e6-b6ce-450c-81e4-f2e6d6c2e790","ios":"levelo://app?vid=8db738e6-b6ce-450c-81e4-f2e6d6c2e790"},"vehicle_type_id":"4","last_reported":1737356990,"current_range_meters":38800,"station_id":"ce4bgi92rcd13ifvqb90","pricing_plan_id":"cebpf4jnsgd1na2vs0mg"},{"bike_id":"8f203545-b095-419b-83e4-2df533a4b0cd","system_id":"levelo_inurba_marseille","lat":43.27209,"lon":5.39175,"is_reserved":false,"is_disabled":false,"rental_uris":{"android":"levelo://app?vid=8f203545-b095-419b-83e4-2df533a4b0cd","ios":"levelo://app?vid=8f203545-b095-419b-83e4-2df533a4b0cd"},"vehicle_type_id":"4","last_reported":1737356990,"current_range_meters":27600,"station_id":"ce4bhhp2rcd13ifvqfm0","pricing_plan_id":"cebpf4jnsgd1na2vs0mg"},{"bike_id":"04e7f6b2-1170-476d-8eb7-54bc6ab7d23c","system_id":"levelo_inurba_marseille","lat":43.243913,"lon":5.370531,"is_reserved":false,"is_disabled":false,"rental_uris":{"android":"levelo://app?vid=04e7f6b2-1170-476d-8eb7-54bc6ab7d23c","ios":"levelo://app?vid=04e7f6b2-1170-476d-8eb7-54bc6ab7d23c"},"vehicle_type_id":"4","last_reported":1737356990,"current_range_meters":35200,"station_id":"ce4bhhh2rcd13ifvqfk0","pricing_plan_id":"cebpf4jnsgd1na2vs0mg"},{"bike_id":"8bde71f8-ead9-4582-b487-2240ddc88826","system_id":"levelo_inurba_marseille","lat":43.29417,"lon":5.38616,"is_reserved":false,"is_disabled":false,"rental_uris":{"android":"levelo://app?vid=8bde71f8-ead9-4582-b487-2240ddc88826","ios":"levelo://app?vid=8bde71f8-ead9-4582-b487-2240ddc88826"},"vehicle_type_id":"4","last_reported":1737356990,"current_range_meters":28800,"station_id":"ce4bh2h2rcd13ifvqdh0","pricing_plan_id":"cebpf4jnsgd1na2vs0mg"},{"bike_id":"c2d5a3c7-fe23-4cfe-ad9f-493754cb0977","system_id":"levelo_inurba_marseille","lat":43.3047,"lon":5.37907,"is_reserved":false,"is_disabled":false,"rental_uris":{"android":"levelo://app?vid=c2d5a3c7-fe23-4cfe-ad9f-493754cb0977","ios":"levelo://app?vid=c2d5a3c7-fe23-4cfe-ad9f-493754cb0977"},"vehicle_type_id":"4","last_reported":1737356990,"current_range_meters":14400,"station_id":"ce4bgup2rcd13ifvqcn0","pricing_plan_id":"cebpf4jnsgd1na2vs0mg"},{"bike_id":"c8fe6bd0-5be5-4ede-8e98-69d8c19fd7cf","system_id":"levelo_inurba_marseille","lat":43.23147,"lon":5.43723,"is_reserved":false,"is_disabled":false,"rental_uris":{"android":"levelo://app?vid=c8fe6bd0-5be5-4ede-8e98-69d8c19fd7cf","ios":"levelo://app?vid=c8fe6bd0-5be5-4ede-8e98-69d8c19fd7cf"},"vehicle_type_id":"4","last_reported":1737356990,"current_range_meters":39200,"station_id":"ce4bhmp2rcd13ifvqgog","pricing_plan_id":"cebpf4jnsgd1na2vs0mg"},{"bike_id":"57b0e606-8fdf-401d-8223-87c7978ca31e","system_id":"levelo_inurba_marseille","lat":43.26217,"lon":5.40456,"is_reserved":false,"is_disabled":false,"rental_uris":{"android":"levelo://app?vid=57b0e606-8fdf-401d-8223-87c7978ca31e","ios":"levelo://app?vid=57b0e606-8fdf-401d-8223-87c7978ca31e"},"vehicle_type_id":"4","last_reported":1737356990,"current_range_meters":32000,"station_id":"","pricing_plan_id":"cebpf4jnsgd1na2vs0mg"},{"bike_id":"d6dda788-2ee0-45e5-a6fd-f8b98f248df1","system_id":"levelo_inurba_marseille","lat":43.23149,"lon":5.43711,"is_reserved":false,"is_disabled":false,"rental_uris":{"android":"levelo://app?vid=d6dda788-2ee0-45e5-a6fd-f8b98f248df1","ios":"levelo://app?vid=d6dda788-2ee0-45e5-a6fd-f8b98f248df1"},"vehicle_type_id":"4","last_reported":1737356990,"current_range_meters":38000,"station_id":"ce4bhmp2rcd13ifvqgog","pricing_plan_id":"cebpf4jnsgd1na2vs0mg"},{"bike_id":"058bfd49-5996-488a-a804-625e14e755ba","system_id":"levelo_inurba_marseille","lat":43.28353,"lon":5.38092,"is_reserved":false,"is_disabled":false,"rental_uris":{"android":"levelo://app?vid=058bfd49-5996-488a-a804-625e14e755ba","ios":"levelo://app?vid=058bfd49-5996-488a-a804-625e14e755ba"},"vehicle_type_id":"4","last_reported":1737356990,"current_range_meters":30800,"station_id":"ce4bh412rcd13ifvqdr0","pricing_plan_id":"cebpf4jnsgd1na2vs0mg"},{"bike_id":"2ab152fd-228b-469c-b9d5-6394ccef9ace","system_id":"levelo_inurba_marseille","lat":43.32519,"lon":5.41466,"is_reserved":false,"is_disabled":false,"rental_uris":{"android":"levelo://app?vid=2ab152fd-228b-469c-b9d5-6394ccef9ace","ios":"levelo://app?vid=2ab152fd-228b-469c-b9d5-6394ccef9ace"},"vehicle_type_id":"4","last_reported":1737356990,"current_range_meters":39200,"station_id":"ce4bhq12rcd13ifvqhhg","pricing_plan_id":"cebpf4jnsgd1na2vs0mg"},{"bike_id":"7d34e5f7-c7b2-4c92-ae08-4780efab0ef9","system_id":"levelo_inurba_marseille","lat":43.29053,"lon":5.3995,"is_reserved":false,"is_disabled":false,"rental_uris":{"android":"levelo://app?vid=7d34e5f7-c7b2-4c92-ae08-4780efab0ef9","ios":"levelo://app?vid=7d34e5f7-c7b2-4c92-ae08-4780efab0ef9"},"vehicle_type_id":"4","last_reported":1737356990,"current_range_meters":38800,"station_id":"ce4bh392rcd13ifvqdm0","pricing_plan_id":"cebpf4jnsgd1na2vs0mg"},{"bike_id":"81112329-1dad-4775-ba9b-1357b51686d0","system_id":"levelo_inurba_marseille","lat":43.313284,"lon":5.373352,"is_reserved":false,"is_disabled":false,"rental_uris":{"android":"levelo://app?vid=81112329-1dad-4775-ba9b-1357b51686d0","ios":"levelo://app?vid=81112329-1dad-4775-ba9b-1357b51686d0"},"vehicle_type_id":"4","last_reported":1737356990,"current_range_meters":33600,"station_id":"","pricing_plan_id":"cebpf4jnsgd1na2vs0mg"},{"bike_id":"d2209cbe-5891-4e53-950a-08fc01a95fa9","system_id":"levelo_inurba_marseille","lat":43.27493,"lon":5.42447,"is_reserved":false,"is_disabled":false,"rental_uris":{"android":"levelo://app?vid=d2209cbe-5891-4e53-950a-08fc01a95fa9","ios":"levelo://app?vid=d2209cbe-5891-4e53-950a-08fc01a95fa9"},"vehicle_type_id":"4","last_reported":1737356990,"current_range_meters":20000,"station_id":"ce4bhn92rcd13ifvqgrg","pricing_plan_id":"cebpf4jnsgd1na2vs0mg"},{"bike_id":"aa58a370-3dfc-419f-ac67-60fe6fa0a1a7","system_id":"levelo_inurba_marseille","lat":43.24665,"lon":5.3817,"is_reserved":false,"is_disabled":false,"rental_uris":{"android":"levelo://app?vid=aa58a370-3dfc-419f-ac67-60fe6fa0a1a7","ios":"levelo://app?vid=aa58a370-3dfc-419f-ac67-60fe6fa0a1a7"},"vehicle_type_id":"4","last_reported":1737356990,"current_range_meters":8000,"station_id":"ce4bhih2rcd13ifvqfr0","pricing_plan_id":"cebpf4jnsgd1na2vs0mg"},{"bike_id":"989683d8-cd1f-443e-bd96-77b49fba450d","system_id":"levelo_inurba_marseille","lat":43.31353,"lon":5.36718,"is_reserved":false,"is_disabled":false,"rental_uris":{"android":"levelo://app?vid=989683d8-cd1f-443e-bd96-77b49fba450d","ios":"levelo://app?vid=989683d8-cd1f-443e-bd96-77b49fba450d"},"vehicle_type_id":"4","last_reported":1737356990,"current_range_meters":27600,"station_id":"ce4bgr92rcd13ifvqc6g","pricing_plan_id":"cebpf4jnsgd1na2vs0mg"},{"bike_id":"f0b4c8b0-e40a-48c3-a4d7-813701fa728c","system_id":"levelo_inurba_marseille","lat":43.26563,"lon":5.38997,"is_reserved":false,"is_disabled":false,"rental_uris":{"android":"levelo://app?vid=f0b4c8b0-e40a-48c3-a4d7-813701fa728c","ios":"levelo://app?vid=f0b4c8b0-e40a-48c3-a4d7-813701fa728c"},"vehicle_type_id":"4","last_reported":1737356990,"current_range_meters":25200,"station_id":"ce4bhe12rcd13ifvqf30","pricing_plan_id":"cebpf4jnsgd1na2vs0mg"},{"bike_id":"25a1483f-1859-4f2a-a274-9eb2c53ccd4c","system_id":"levelo_inurba_marseille","lat":43.27502,"lon":5.4246,"is_reserved":false,"is_disabled":false,"rental_uris":{"android":"levelo://app?vid=25a1483f-1859-4f2a-a274-9eb2c53ccd4c","ios":"levelo://app?vid=25a1483f-1859-4f2a-a274-9eb2c53ccd4c"},"vehicle_type_id":"4","last_reported":1737356990,"current_range_meters":24800,"station_id":"ce4bhn92rcd13ifvqgrg","pricing_plan_id":"cebpf4jnsgd1na2vs0mg"},{"bike_id":"4a4633d1-7b54-4d0b-9929-b2ca596b7e1e","system_id":"levelo_inurba_marseille","lat":43.29794,"lon":5.38084,"is_reserved":false,"is_disabled":false,"rental_uris":{"android":"levelo://app?vid=4a4633d1-7b54-4d0b-9929-b2ca596b7e1e","ios":"levelo://app?vid=4a4633d1-7b54-4d0b-9929-b2ca596b7e1e"},"vehicle_type_id":"4","last_reported":1737356990,"current_range_meters":18800,"station_id":"ce4bgip2rcd13ifvqbb0","pricing_plan_id":"cebpf4jnsgd1na2vs0mg"},{"bike_id":"3860f79b-6390-4baa-9962-103869425bc6","system_id":"levelo_inurba_marseille","lat":43.29899,"lon":5.43666,"is_reserved":false,"is_disabled":false,"rental_uris":{"android":"levelo://app?vid=3860f79b-6390-4baa-9962-103869425bc6","ios":"levelo://app?vid=3860f79b-6390-4baa-9962-103869425bc6"},"vehicle_type_id":"4","last_reported":1737356990,"current_range_meters":18800,"station_id":"ce4bhpp2rcd13ifvqhfg","pricing_plan_id":"cebpf4jnsgd1na2vs0mg"},{"bike_id":"168460d7-c206-43d9-a198-e43a6cb51b01","system_id":"levelo_inurba_marseille","lat":43.330244,"lon":5.390342,"is_reserved":false,"is_disabled":false,"rental_uris":{"android":"levelo://app?vid=168460d7-c206-43d9-a198-e43a6cb51b01","ios":"levelo://app?vid=168460d7-c206-43d9-a198-e43a6cb51b01"},"vehicle_type_id":"4","last_reported":1737356990,"current_range_meters":39200,"station_id":"ce4bhr92rcd13ifvqhrg","pricing_plan_id":"cebpf4jnsgd1na2vs0mg"},{"bike_id":"097a7a3f-811c-4421-864c-117b6ce021ed","system_id":"levelo_inurba_marseille","lat":43.29041,"lon":5.39963,"is_reserved":false,"is_disabled":false,"rental_uris":{"android":"levelo://app?vid=097a7a3f-811c-4421-864c-117b6ce021ed","ios":"levelo://app?vid=097a7a3f-811c-4421-864c-117b6ce021ed"},"vehicle_type_id":"4","last_reported":1737356990,"current_range_meters":32000,"station_id":"ce4bh392rcd13ifvqdm0","pricing_plan_id":"cebpf4jnsgd1na2vs0mg"},{"bike_id":"9e3e75b7-e02c-4faa-a086-72240ba06acd","system_id":"levelo_inurba_marseille","lat":43.26028,"lon":5.37551,"is_reserved":false,"is_disabled":false,"rental_uris":{"android":"levelo://app?vid=9e3e75b7-e02c-4faa-a086-72240ba06acd","ios":"levelo://app?vid=9e3e75b7-e02c-4faa-a086-72240ba06acd"},"vehicle_type_id":"4","last_reported":1737356990,"current_range_meters":38000,"station_id":"ce4bhgh2rcd13ifvqfa0","pricing_plan_id":"cebpf4jnsgd1na2vs0mg"},{"bike_id":"10b8da58-1f12-44b0-8c4c-eff01d48a146","system_id":"levelo_inurba_marseille","lat":43.306629,"lon":5.400884,"is_reserved":false,"is_disabled":true,"rental_uris":{"android":"levelo://app?vid=10b8da58-1f12-44b0-8c4c-eff01d48a146","ios":"levelo://app?vid=10b8da58-1f12-44b0-8c4c-eff01d48a146"},"vehicle_type_id":"4","last_reported":1737356990,"current_range_meters":25200,"station_id":"ce4bh112rcd13ifvqda0","pricing_plan_id":"cebpf4jnsgd1na2vs0mg"},{"bike_id":"018e6ec3-f68a-4719-8d6b-f169fbd23612","system_id":"levelo_inurba_marseille","lat":43.30147,"lon":5.37412,"is_reserved":false,"is_disabled":false,"rental_uris":{"android":"levelo://app?vid=018e6ec3-f68a-4719-8d6b-f169fbd23612","ios":"levelo://app?vid=018e6ec3-f68a-4719-8d6b-f169fbd23612"},"vehicle_type_id":"4","last_reported":1737356990,"current_range_meters":38000,"station_id":"ce4bgs92rcd13ifvqcc0","pricing_plan_id":"cebpf4jnsgd1na2vs0mg"},{"bike_id":"ca8aa51d-4833-4c77-8009-59b7c07323a3","system_id":"levelo_inurba_marseille","lat":43.323659,"lon":5.367586,"is_reserved":false,"is_disabled":false,"rental_uris":{"android":"levelo://app?vid=ca8aa51d-4833-4c77-8009-59b7c07323a3","ios":"levelo://app?vid=ca8aa51d-4833-4c77-8009-59b7c07323a3"},"vehicle_type_id":"4","last_reported":1737356990,"current_range_meters":33200,"station_id":"ce4bhsh2rcd13ifvqi2g","pricing_plan_id":"cebpf4jnsgd1na2vs0mg"},{"bike_id":"ad706739-0435-4fb3-ac63-fcde3e832697","system_id":"levelo_inurba_marseille","lat":43.25109,"lon":5.4032,"is_reserved":false,"is_disabled":false,"rental_uris":{"android":"levelo://app?vid=ad706739-0435-4fb3-ac63-fcde3e832697","ios":"levelo://app?vid=ad706739-0435-4fb3-ac63-fcde3e832697"},"vehicle_type_id":"4","last_reported":1737356990,"current_range_meters":39200,"station_id":"ce4bhlh2rcd13ifvqgig","pricing_plan_id":"cebpf4jnsgd1na2vs0mg"},{"bike_id":"30728142-bc8a-432a-9bb0-8763539075b5","system_id":"levelo_inurba_marseille","lat":43.3048,"lon":5.37909,"is_reserved":false,"is_disabled":false,"rental_uris":{"android":"levelo://app?vid=30728142-bc8a-432a-9bb0-8763539075b5","ios":"levelo://app?vid=30728142-bc8a-432a-9bb0-8763539075b5"},"vehicle_type_id":"4","last_reported":1737356990,"current_range_meters":39200,"station_id":"ce4bgup2rcd13ifvqcn0","pricing_plan_id":"cebpf4jnsgd1na2vs0mg"},{"bike_id":"ce0ee56d-180c-40a7-8ee4-1ff6fa737784","system_id":"levelo_inurba_marseille","lat":43.29898,"lon":5.43658,"is_reserved":false,"is_disabled":false,"rental_uris":{"android":"levelo://app?vid=ce0ee56d-180c-40a7-8ee4-1ff6fa737784","ios":"levelo://app?vid=ce0ee56d-180c-40a7-8ee4-1ff6fa737784"},"vehicle_type_id":"4","last_reported":1737356990,"current_range_meters":39200,"station_id":"ce4bhpp2rcd13ifvqhfg","pricing_plan_id":"cebpf4jnsgd1na2vs0mg"},{"bike_id":"49edd341-1744-445c-b1f6-ec80c4f617c5","system_id":"levelo_inurba_marseille","lat":43.27072,"lon":5.42272,"is_reserved":false,"is_disabled":false,"rental_uris":{"android":"levelo://app?vid=49edd341-1744-445c-b1f6-ec80c4f617c5","ios":"levelo://app?vid=49edd341-1744-445c-b1f6-ec80c4f617c5"},"vehicle_type_id":"4","last_reported":1737356990,"current_range_meters":38800,"station_id":"ce4bhk92rcd13ifvqgb0","pricing_plan_id":"cebpf4jnsgd1na2vs0mg"},{"bike_id":"51379e9f-1ebd-43ee-bd84-6927ab606473","system_id":"levelo_inurba_marseille","lat":43.24164,"lon":5.36392,"is_reserved":false,"is_disabled":false,"rental_uris":{"android":"levelo://app?vid=51379e9f-1ebd-43ee-bd84-6927ab606473","ios":"levelo://app?vid=51379e9f-1ebd-43ee-bd84-6927ab606473"},"vehicle_type_id":"4","last_reported":1737356990,"current_range_meters":24000,"station_id":"cpo36qri1sfpv3e86is0","pricing_plan_id":"cebpf4jnsgd1na2vs0mg"},{"bike_id":"57d9fa47-e597-4ea4-913f-9b45079bd718","system_id":"levelo_inurba_marseille","lat":43.33013,"lon":5.39044,"is_reserved":false,"is_disabled":false,"rental_uris":{"android":"levelo://app?vid=57d9fa47-e597-4ea4-913f-9b45079bd718","ios":"levelo://app?vid=57d9fa47-e597-4ea4-913f-9b45079bd718"},"vehicle_type_id":"4","last_reported":1737356990,"current_range_meters":39200,"station_id":"ce4bhr92rcd13ifvqhrg","pricing_plan_id":"cebpf4jnsgd1na2vs0mg"},{"bike_id":"852f18ed-4f0e-4de5-a458-d3ed9592d34c","system_id":"levelo_inurba_marseille","lat":43.24079,"lon":5.3775,"is_reserved":false,"is_disabled":false,"rental_uris":{"android":"levelo://app?vid=852f18ed-4f0e-4de5-a458-d3ed9592d34c","ios":"levelo://app?vid=852f18ed-4f0e-4de5-a458-d3ed9592d34c"},"vehicle_type_id":"4","last_reported":1737356990,"current_range_meters":30800,"station_id":"ce4bhnp2rcd13ifvqgvg","pricing_plan_id":"cebpf4jnsgd1na2vs0mg"},{"bike_id":"fc676f32-d786-4684-bf3b-38fe5dc40a4f","system_id":"levelo_inurba_marseille","lat":43.2973,"lon":5.37699,"is_reserved":false,"is_disabled":false,"rental_uris":{"android":"levelo://app?vid=fc676f32-d786-4684-bf3b-38fe5dc40a4f","ios":"levelo://app?vid=fc676f32-d786-4684-bf3b-38fe5dc40a4f"},"vehicle_type_id":"4","last_reported":1737356990,"current_range_meters":10800,"station_id":"ce4bgkh2rcd13ifvqbl0","pricing_plan_id":"cebpf4jnsgd1na2vs0mg"},{"bike_id":"d7b57092-5089-4c4a-819e-bef9772d11d8","system_id":"levelo_inurba_marseille","lat":43.31801,"lon":5.37807,"is_reserved":false,"is_disabled":false,"rental_uris":{"android":"levelo://app?vid=d7b57092-5089-4c4a-819e-bef9772d11d8","ios":"levelo://app?vid=d7b57092-5089-4c4a-819e-bef9772d11d8"},"vehicle_type_id":"4","last_reported":1737356990,"current_range_meters":29600,"station_id":"","pricing_plan_id":"cebpf4jnsgd1na2vs0mg"},{"bike_id":"bd00f222-ce0c-4f81-a68c-0edabc3e5f6b","system_id":"levelo_inurba_marseille","lat":43.25079,"lon":5.39514,"is_reserved":false,"is_disabled":false,"rental_uris":{"android":"levelo://app?vid=bd00f222-ce0c-4f81-a68c-0edabc3e5f6b","ios":"levelo://app?vid=bd00f222-ce0c-4f81-a68c-0edabc3e5f6b"},"vehicle_type_id":"4","last_reported":1737356990,"current_range_meters":34000,"station_id":"ce4bhm12rcd13ifvqgkg","pricing_plan_id":"cebpf4jnsgd1na2vs0mg"},{"bike_id":"205e96d2-2167-4d2c-9c9a-35a9b907f5e6","system_id":"levelo_inurba_marseille","lat":43.27812,"lon":5.40713,"is_reserved":false,"is_disabled":false,"rental_uris":{"android":"levelo://app?vid=205e96d2-2167-4d2c-9c9a-35a9b907f5e6","ios":"levelo://app?vid=205e96d2-2167-4d2c-9c9a-35a9b907f5e6"},"vehicle_type_id":"4","last_reported":1737356990,"current_range_meters":38000,"station_id":"ce4bhnh2rcd13ifvqgtg","pricing_plan_id":"cebpf4jnsgd1na2vs0mg"},{"bike_id":"668c326b-f023-4c8e-8d10-efacd61b8026","system_id":"levelo_inurba_marseille","lat":43.30169,"lon":5.38079,"is_reserved":false,"is_disabled":false,"rental_uris":{"android":"levelo://app?vid=668c326b-f023-4c8e-8d10-efacd61b8026","ios":"levelo://app?vid=668c326b-f023-4c8e-8d10-efacd61b8026"},"vehicle_type_id":"4","last_reported":1737356990,"current_range_meters":26800,"station_id":"ce4bgjp2rcd13ifvqbh0","pricing_plan_id":"cebpf4jnsgd1na2vs0mg"},{"bike_id":"690db51c-a7a2-4ecc-b4f4-c069d27e1fc8","system_id":"levelo_inurba_marseille","lat":43.24076,"lon":5.37755,"is_reserved":false,"is_disabled":false,"rental_uris":{"android":"levelo://app?vid=690db51c-a7a2-4ecc-b4f4-c069d27e1fc8","ios":"levelo://app?vid=690db51c-a7a2-4ecc-b4f4-c069d27e1fc8"},"vehicle_type_id":"4","last_reported":1737356990,"current_range_meters":32800,"station_id":"ce4bhnp2rcd13ifvqgvg","pricing_plan_id":"cebpf4jnsgd1na2vs0mg"},{"bike_id":"4104cbba-088f-4383-b2a0-261d17699731","system_id":"levelo_inurba_marseille","lat":43.2396,"lon":5.36637,"is_reserved":false,"is_disabled":false,"rental_uris":{"android":"levelo://app?vid=4104cbba-088f-4383-b2a0-261d17699731","ios":"levelo://app?vid=4104cbba-088f-4383-b2a0-261d17699731"},"vehicle_type_id":"4","last_reported":1737356990,"current_range_meters":33600,"station_id":"ce4bhi12rcd13ifvqfp0","pricing_plan_id":"cebpf4jnsgd1na2vs0mg"},{"bike_id":"7be810f6-d21f-44ca-8f08-d9a4a9e1b082","system_id":"levelo_inurba_marseille","lat":43.32358,"lon":5.36768,"is_reserved":false,"is_disabled":false,"rental_uris":{"android":"levelo://app?vid=7be810f6-d21f-44ca-8f08-d9a4a9e1b082","ios":"levelo://app?vid=7be810f6-d21f-44ca-8f08-d9a4a9e1b082"},"vehicle_type_id":"4","last_reported":1737356990,"current_range_meters":11200,"station_id":"ce4bhsh2rcd13ifvqi2g","pricing_plan_id":"cebpf4jnsgd1na2vs0mg"},{"bike_id":"9e041f10-ce34-46d7-be8a-d31eb7d75693","system_id":"levelo_inurba_marseille","lat":43.29796,"lon":5.38103,"is_reserved":false,"is_disabled":false,"rental_uris":{"android":"levelo://app?vid=9e041f10-ce34-46d7-be8a-d31eb7d75693","ios":"levelo://app?vid=9e041f10-ce34-46d7-be8a-d31eb7d75693"},"vehicle_type_id":"4","last_reported":1737356990,"current_range_meters":33200,"station_id":"ce4bgip2rcd13ifvqbb0","pricing_plan_id":"cebpf4jnsgd1na2vs0mg"},{"bike_id":"e769477c-b503-4bb8-b7d3-b7f7ff9ddf2d","system_id":"levelo_inurba_marseille","lat":43.29213,"lon":5.36891,"is_reserved":false,"is_disabled":false,"rental_uris":{"android":"levelo://app?vid=e769477c-b503-4bb8-b7d3-b7f7ff9ddf2d","ios":"levelo://app?vid=e769477c-b503-4bb8-b7d3-b7f7ff9ddf2d"},"vehicle_type_id":"4","last_reported":1737356990,"current_range_meters":16400,"station_id":"","pricing_plan_id":"cebpf4jnsgd1na2vs0mg"},{"bike_id":"87f748ae-200c-46f9-a87e-58da3bbaecae","system_id":"levelo_inurba_marseille","lat":43.334,"lon":5.42951,"is_reserved":false,"is_disabled":false,"rental_uris":{"android":"levelo://app?vid=87f748ae-200c-46f9-a87e-58da3bbaecae","ios":"levelo://app?vid=87f748ae-200c-46f9-a87e-58da3bbaecae"},"vehicle_type_id":"4","last_reported":1737356990,"current_range_meters":24000,"station_id":"","pricing_plan_id":"cebpf4jnsgd1na2vs0mg"},{"bike_id":"28ef1c1e-dd89-43e8-817b-9b489831397b","system_id":"levelo_inurba_marseille","lat":43.271148,"lon":5.396163,"is_reserved":false,"is_disabled":true,"rental_uris":{"android":"levelo://app?vid=28ef1c1e-dd89-43e8-817b-9b489831397b","ios":"levelo://app?vid=28ef1c1e-dd89-43e8-817b-9b489831397b"},"vehicle_type_id":"4","last_reported":1737356990,"current_range_meters":0,"station_id":"","pricing_plan_id":"cebpf4jnsgd1na2vs0mg"},{"bike_id":"a090d58d-a1fb-4921-bd15-f1d1e2db9ea4","system_id":"levelo_inurba_marseille","lat":43.24168,"lon":5.39735,"is_reserved":false,"is_disabled":false,"rental_uris":{"android":"levelo://app?vid=a090d58d-a1fb-4921-bd15-f1d1e2db9ea4","ios":"levelo://app?vid=a090d58d-a1fb-4921-bd15-f1d1e2db9ea4"},"vehicle_type_id":"4","last_reported":1737356990,"current_range_meters":27600,"station_id":"ce4bhn12rcd13ifvqgpg","pricing_plan_id":"cebpf4jnsgd1na2vs0mg"},{"bike_id":"92bfd272-e2c3-4e35-a36b-b1447bc11603","system_id":"levelo_inurba_marseille","lat":43.24545,"lon":5.39518,"is_reserved":false,"is_disabled":false,"rental_uris":{"android":"levelo://app?vid=92bfd272-e2c3-4e35-a36b-b1447bc11603","ios":"levelo://app?vid=92bfd272-e2c3-4e35-a36b-b1447bc11603"},"vehicle_type_id":"4","last_reported":1737356990,"current_range_meters":32000,"station_id":"ce4bhlp2rcd13ifvqgjg","pricing_plan_id":"cebpf4jnsgd1na2vs0mg"},{"bike_id":"bbd6e56f-1a5f-4813-a7fd-d882eb94346c","system_id":"levelo_inurba_marseille","lat":43.31708,"lon":5.43702,"is_reserved":false,"is_disabled":false,"rental_uris":{"android":"levelo://app?vid=bbd6e56f-1a5f-4813-a7fd-d882eb94346c","ios":"levelo://app?vid=bbd6e56f-1a5f-4813-a7fd-d882eb94346c"},"vehicle_type_id":"4","last_reported":1737356990,"current_range_meters":20800,"station_id":"ce4bhp92rcd13ifvqhcg","pricing_plan_id":"cebpf4jnsgd1na2vs0mg"},{"bike_id":"357eaeda-fef2-41f2-9ad0-621ae2cc5c09","system_id":"levelo_inurba_marseille","lat":43.33753,"lon":5.37518,"is_reserved":false,"is_disabled":false,"rental_uris":{"android":"levelo://app?vid=357eaeda-fef2-41f2-9ad0-621ae2cc5c09","ios":"levelo://app?vid=357eaeda-fef2-41f2-9ad0-621ae2cc5c09"},"vehicle_type_id":"4","last_reported":1737356990,"current_range_meters":28800,"station_id":"","pricing_plan_id":"cebpf4jnsgd1na2vs0mg"},{"bike_id":"9591e31e-6673-4bff-8f50-6b7e82a6b9d7","system_id":"levelo_inurba_marseille","lat":43.240734,"lon":5.377495,"is_reserved":false,"is_disabled":false,"rental_uris":{"android":"levelo://app?vid=9591e31e-6673-4bff-8f50-6b7e82a6b9d7","ios":"levelo://app?vid=9591e31e-6673-4bff-8f50-6b7e82a6b9d7"},"vehicle_type_id":"4","last_reported":1737356990,"current_range_meters":39200,"station_id":"ce4bhnp2rcd13ifvqgvg","pricing_plan_id":"cebpf4jnsgd1na2vs0mg"},{"bike_id":"9973c6c9-95c6-48dd-a06a-64a27f6ed06e","system_id":"levelo_inurba_marseille","lat":43.28846,"lon":5.37306,"is_reserved":false,"is_disabled":true,"rental_uris":{"android":"levelo://app?vid=9973c6c9-95c6-48dd-a06a-64a27f6ed06e","ios":"levelo://app?vid=9973c6c9-95c6-48dd-a06a-64a27f6ed06e"},"vehicle_type_id":"4","last_reported":1737356990,"current_range_meters":28800,"station_id":"","pricing_plan_id":"cebpf4jnsgd1na2vs0mg"},{"bike_id":"4ca0c0a8-ebec-4495-a31b-51805b75ee6d","system_id":"levelo_inurba_marseille","lat":43.24617,"lon":5.38915,"is_reserved":false,"is_disabled":false,"rental_uris":{"android":"levelo://app?vid=4ca0c0a8-ebec-4495-a31b-51805b75ee6d","ios":"levelo://app?vid=4ca0c0a8-ebec-4495-a31b-51805b75ee6d"},"vehicle_type_id":"4","last_reported":1737356990,"current_range_meters":38800,"station_id":"ce4bhg12rcd13ifvqf60","pricing_plan_id":"cebpf4jnsgd1na2vs0mg"},{"bike_id":"59573d05-8b25-4d08-928a-2e522ea4e7a5","system_id":"levelo_inurba_marseille","lat":43.31171,"lon":5.38708,"is_reserved":false,"is_disabled":true,"rental_uris":{"android":"levelo://app?vid=59573d05-8b25-4d08-928a-2e522ea4e7a5","ios":"levelo://app?vid=59573d05-8b25-4d08-928a-2e522ea4e7a5"},"vehicle_type_id":"4","last_reported":1737356990,"current_range_meters":38800,"station_id":"ce4bgv12rcd13ifvqcp0","pricing_plan_id":"cebpf4jnsgd1na2vs0mg"},{"bike_id":"d714004e-0a5d-46dc-8f45-dcd4ee7c47a7","system_id":"levelo_inurba_marseille","lat":43.29534,"lon":5.37513,"is_reserved":false,"is_disabled":true,"rental_uris":{"android":"levelo://app?vid=d714004e-0a5d-46dc-8f45-dcd4ee7c47a7","ios":"levelo://app?vid=d714004e-0a5d-46dc-8f45-dcd4ee7c47a7"},"vehicle_type_id":"4","last_reported":1737356990,"current_range_meters":23200,"station_id":"ce4bgkp2rcd13ifvqbmg","pricing_plan_id":"cebpf4jnsgd1na2vs0mg"},{"bike_id":"06c992d4-9579-452e-bbae-cd69ed35ea8f","system_id":"levelo_inurba_marseille","lat":43.2466,"lon":5.38162,"is_reserved":false,"is_disabled":false,"rental_uris":{"android":"levelo://app?vid=06c992d4-9579-452e-bbae-cd69ed35ea8f","ios":"levelo://app?vid=06c992d4-9579-452e-bbae-cd69ed35ea8f"},"vehicle_type_id":"4","last_reported":1737356990,"current_range_meters":20000,"station_id":"ce4bhih2rcd13ifvqfr0","pricing_plan_id":"cebpf4jnsgd1na2vs0mg"},{"bike_id":"190d75f9-cd3f-49f3-83ea-bde5045c2ecc","system_id":"levelo_inurba_marseille","lat":43.30143,"lon":5.38058,"is_reserved":false,"is_disabled":false,"rental_uris":{"android":"levelo://app?vid=190d75f9-cd3f-49f3-83ea-bde5045c2ecc","ios":"levelo://app?vid=190d75f9-cd3f-49f3-83ea-bde5045c2ecc"},"vehicle_type_id":"4","last_reported":1737356990,"current_range_meters":29600,"station_id":"ce4bgjp2rcd13ifvqbh0","pricing_plan_id":"cebpf4jnsgd1na2vs0mg"},{"bike_id":"01a07bd9-36a1-4c19-a88b-7c9e3a6ee490","system_id":"levelo_inurba_marseille","lat":43.2507,"lon":5.39517,"is_reserved":false,"is_disabled":false,"rental_uris":{"android":"levelo://app?vid=01a07bd9-36a1-4c19-a88b-7c9e3a6ee490","ios":"levelo://app?vid=01a07bd9-36a1-4c19-a88b-7c9e3a6ee490"},"vehicle_type_id":"4","last_reported":1737356990,"current_range_meters":30000,"station_id":"ce4bhm12rcd13ifvqgkg","pricing_plan_id":"cebpf4jnsgd1na2vs0mg"},{"bike_id":"9b0fa802-8be4-4b35-bfd1-0d3dcc5574fc","system_id":"levelo_inurba_marseille","lat":43.29887,"lon":5.38907,"is_reserved":false,"is_disabled":false,"rental_uris":{"android":"levelo://app?vid=9b0fa802-8be4-4b35-bfd1-0d3dcc5574fc","ios":"levelo://app?vid=9b0fa802-8be4-4b35-bfd1-0d3dcc5574fc"},"vehicle_type_id":"4","last_reported":1737356990,"current_range_meters":28400,"station_id":"ce4bh392rcd13ifvqdl0","pricing_plan_id":"cebpf4jnsgd1na2vs0mg"},{"bike_id":"3a226b53-772d-4831-aae6-679204abc709","system_id":"levelo_inurba_marseille","lat":43.25857,"lon":5.39897,"is_reserved":false,"is_disabled":false,"rental_uris":{"android":"levelo://app?vid=3a226b53-772d-4831-aae6-679204abc709","ios":"levelo://app?vid=3a226b53-772d-4831-aae6-679204abc709"},"vehicle_type_id":"4","last_reported":1737356990,"current_range_meters":37600,"station_id":"ce4bhl92rcd13ifvqghg","pricing_plan_id":"cebpf4jnsgd1na2vs0mg"},{"bike_id":"d751e749-afcd-4240-9c1e-54752c62ac8f","system_id":"levelo_inurba_marseille","lat":43.27496,"lon":5.42453,"is_reserved":false,"is_disabled":true,"rental_uris":{"android":"levelo://app?vid=d751e749-afcd-4240-9c1e-54752c62ac8f","ios":"levelo://app?vid=d751e749-afcd-4240-9c1e-54752c62ac8f"},"vehicle_type_id":"4","last_reported":1737356990,"current_range_meters":36800,"station_id":"ce4bhn92rcd13ifvqgrg","pricing_plan_id":"cebpf4jnsgd1na2vs0mg"},{"bike_id":"1a531580-4efd-49f3-925f-81e7e3768874","system_id":"levelo_inurba_marseille","lat":43.25714,"lon":5.41091,"is_reserved":false,"is_disabled":false,"rental_uris":{"android":"levelo://app?vid=1a531580-4efd-49f3-925f-81e7e3768874","ios":"levelo://app?vid=1a531580-4efd-49f3-925f-81e7e3768874"},"vehicle_type_id":"4","last_reported":1737356990,"current_range_meters":38000,"station_id":"ce4bhkp2rcd13ifvqgd0","pricing_plan_id":"cebpf4jnsgd1na2vs0mg"},{"bike_id":"524072f1-ace1-43cc-8007-f91dc732b1f7","system_id":"levelo_inurba_marseille","lat":43.25084,"lon":5.39513,"is_reserved":false,"is_disabled":false,"rental_uris":{"android":"levelo://app?vid=524072f1-ace1-43cc-8007-f91dc732b1f7","ios":"levelo://app?vid=524072f1-ace1-43cc-8007-f91dc732b1f7"},"vehicle_type_id":"4","last_reported":1737356990,"current_range_meters":28000,"station_id":"ce4bhm12rcd13ifvqgkg","pricing_plan_id":"cebpf4jnsgd1na2vs0mg"},{"bike_id":"c42268c0-a5e0-42b8-b874-93ef21576df8","system_id":"levelo_inurba_marseille","lat":43.28151,"lon":5.42638,"is_reserved":false,"is_disabled":false,"rental_uris":{"android":"levelo://app?vid=c42268c0-a5e0-42b8-b874-93ef21576df8","ios":"levelo://app?vid=c42268c0-a5e0-42b8-b874-93ef21576df8"},"vehicle_type_id":"4","last_reported":1737356990,"current_range_meters":24800,"station_id":"ce4bhnh2rcd13ifvqgug","pricing_plan_id":"cebpf4jnsgd1na2vs0mg"},{"bike_id":"77192f79-2b12-4ff4-874e-f5cab7df388a","system_id":"levelo_inurba_marseille","lat":43.28425,"lon":5.3498,"is_reserved":false,"is_disabled":false,"rental_uris":{"android":"levelo://app?vid=77192f79-2b12-4ff4-874e-f5cab7df388a","ios":"levelo://app?vid=77192f79-2b12-4ff4-874e-f5cab7df388a"},"vehicle_type_id":"4","last_reported":1737356990,"current_range_meters":34000,"station_id":"ce4bhbh2rcd13ifvqepg","pricing_plan_id":"cebpf4jnsgd1na2vs0mg"},{"bike_id":"0f2743d1-4d5e-4f5d-80a9-2ff55d9ea33b","system_id":"levelo_inurba_marseille","lat":43.24075,"lon":5.37753,"is_reserved":false,"is_disabled":false,"rental_uris":{"android":"levelo://app?vid=0f2743d1-4d5e-4f5d-80a9-2ff55d9ea33b","ios":"levelo://app?vid=0f2743d1-4d5e-4f5d-80a9-2ff55d9ea33b"},"vehicle_type_id":"4","last_reported":1737356990,"current_range_meters":33600,"station_id":"ce4bhnp2rcd13ifvqgvg","pricing_plan_id":"cebpf4jnsgd1na2vs0mg"},{"bike_id":"5b064bde-4c86-4553-ba3b-ddb363e53eb2","system_id":"levelo_inurba_marseille","lat":43.28358,"lon":5.38094,"is_reserved":false,"is_disabled":false,"rental_uris":{"android":"levelo://app?vid=5b064bde-4c86-4553-ba3b-ddb363e53eb2","ios":"levelo://app?vid=5b064bde-4c86-4553-ba3b-ddb363e53eb2"},"vehicle_type_id":"4","last_reported":1737356990,"current_range_meters":26000,"station_id":"ce4bh412rcd13ifvqdr0","pricing_plan_id":"cebpf4jnsgd1na2vs0mg"},{"bike_id":"f1c2209f-ebce-48d9-ba12-8ef18a7dbab6","system_id":"levelo_inurba_marseille","lat":43.24083,"lon":5.37741,"is_reserved":false,"is_disabled":false,"rental_uris":{"android":"levelo://app?vid=f1c2209f-ebce-48d9-ba12-8ef18a7dbab6","ios":"levelo://app?vid=f1c2209f-ebce-48d9-ba12-8ef18a7dbab6"},"vehicle_type_id":"4","last_reported":1737356990,"current_range_meters":27200,"station_id":"ce4bhnp2rcd13ifvqgvg","pricing_plan_id":"cebpf4jnsgd1na2vs0mg"},{"bike_id":"97dc7bbb-af7c-432f-aee1-cb76edac8ebd","system_id":"levelo_inurba_marseille","lat":43.23175,"lon":5.39967,"is_reserved":false,"is_disabled":false,"rental_uris":{"android":"levelo://app?vid=97dc7bbb-af7c-432f-aee1-cb76edac8ebd","ios":"levelo://app?vid=97dc7bbb-af7c-432f-aee1-cb76edac8ebd"},"vehicle_type_id":"4","last_reported":1737356990,"current_range_meters":38800,"station_id":"ce4bhn12rcd13ifvqgqg","pricing_plan_id":"cebpf4jnsgd1na2vs0mg"},{"bike_id":"4291632b-b89c-4c47-8e03-1ac2c74e4815","system_id":"levelo_inurba_marseille","lat":43.24193,"lon":5.39713,"is_reserved":false,"is_disabled":false,"rental_uris":{"android":"levelo://app?vid=4291632b-b89c-4c47-8e03-1ac2c74e4815","ios":"levelo://app?vid=4291632b-b89c-4c47-8e03-1ac2c74e4815"},"vehicle_type_id":"4","last_reported":1737356990,"current_range_meters":35600,"station_id":"ce4bhn12rcd13ifvqgpg","pricing_plan_id":"cebpf4jnsgd1na2vs0mg"},{"bike_id":"30413a28-f6e8-4ebb-b8a3-7197fc2abd3d","system_id":"levelo_inurba_marseille","lat":43.24079,"lon":5.37751,"is_reserved":false,"is_disabled":false,"rental_uris":{"android":"levelo://app?vid=30413a28-f6e8-4ebb-b8a3-7197fc2abd3d","ios":"levelo://app?vid=30413a28-f6e8-4ebb-b8a3-7197fc2abd3d"},"vehicle_type_id":"4","last_reported":1737356990,"current_range_meters":12000,"station_id":"ce4bhnp2rcd13ifvqgvg","pricing_plan_id":"cebpf4jnsgd1na2vs0mg"},{"bike_id":"92107073-e558-49e0-80fa-a695a1e7387b","system_id":"levelo_inurba_marseille","lat":43.23194,"lon":5.3998,"is_reserved":false,"is_disabled":false,"rental_uris":{"android":"levelo://app?vid=92107073-e558-49e0-80fa-a695a1e7387b","ios":"levelo://app?vid=92107073-e558-49e0-80fa-a695a1e7387b"},"vehicle_type_id":"4","last_reported":1737356990,"current_range_meters":24000,"station_id":"ce4bhn12rcd13ifvqgqg","pricing_plan_id":"cebpf4jnsgd1na2vs0mg"},{"bike_id":"2c2f029b-75ba-4beb-9e9a-38c9bd9c6b19","system_id":"levelo_inurba_marseille","lat":43.29628,"lon":5.37149,"is_reserved":false,"is_disabled":false,"rental_uris":{"android":"levelo://app?vid=2c2f029b-75ba-4beb-9e9a-38c9bd9c6b19","ios":"levelo://app?vid=2c2f029b-75ba-4beb-9e9a-38c9bd9c6b19"},"vehicle_type_id":"4","last_reported":1737356990,"current_range_meters":25600,"station_id":"ce4bgnh2rcd13ifvqc0g","pricing_plan_id":"cebpf4jnsgd1na2vs0mg"},{"bike_id":"5c355f1f-2346-434b-b0b1-1dbab4b16da7","system_id":"levelo_inurba_marseille","lat":43.30909,"lon":5.36845,"is_reserved":false,"is_disabled":false,"rental_uris":{"android":"levelo://app?vid=5c355f1f-2346-434b-b0b1-1dbab4b16da7","ios":"levelo://app?vid=5c355f1f-2346-434b-b0b1-1dbab4b16da7"},"vehicle_type_id":"4","last_reported":1737356990,"current_range_meters":2000,"station_id":"ce4bgn92rcd13ifvqbvg","pricing_plan_id":"cebpf4jnsgd1na2vs0mg"},{"bike_id":"5bde1c50-ebaf-42bc-a543-669f1b739daf","system_id":"levelo_inurba_marseille","lat":43.30155,"lon":5.3809,"is_reserved":false,"is_disabled":false,"rental_uris":{"android":"levelo://app?vid=5bde1c50-ebaf-42bc-a543-669f1b739daf","ios":"levelo://app?vid=5bde1c50-ebaf-42bc-a543-669f1b739daf"},"vehicle_type_id":"4","last_reported":1737356990,"current_range_meters":37600,"station_id":"ce4bgjp2rcd13ifvqbh0","pricing_plan_id":"cebpf4jnsgd1na2vs0mg"},{"bike_id":"62444397-c396-4d27-94d0-9a36c839a478","system_id":"levelo_inurba_marseille","lat":43.28943,"lon":5.364,"is_reserved":false,"is_disabled":false,"rental_uris":{"android":"levelo://app?vid=62444397-c396-4d27-94d0-9a36c839a478","ios":"levelo://app?vid=62444397-c396-4d27-94d0-9a36c839a478"},"vehicle_type_id":"4","last_reported":1737356990,"current_range_meters":25200,"station_id":"ce4bhc92rcd13ifvqetg","pricing_plan_id":"cebpf4jnsgd1na2vs0mg"},{"bike_id":"a928f3f8-500f-4949-9198-e59e77dfdb5f","system_id":"levelo_inurba_marseille","lat":43.25014,"lon":5.38907,"is_reserved":false,"is_disabled":false,"rental_uris":{"android":"levelo://app?vid=a928f3f8-500f-4949-9198-e59e77dfdb5f","ios":"levelo://app?vid=a928f3f8-500f-4949-9198-e59e77dfdb5f"},"vehicle_type_id":"4","last_reported":1737356990,"current_range_meters":25200,"station_id":"ce4bhgp2rcd13ifvqfd0","pricing_plan_id":"cebpf4jnsgd1na2vs0mg"},{"bike_id":"0897e627-1690-4b1c-984d-29cb463c9770","system_id":"levelo_inurba_marseille","lat":43.31891,"lon":5.40727,"is_reserved":false,"is_disabled":true,"rental_uris":{"android":"levelo://app?vid=0897e627-1690-4b1c-984d-29cb463c9770","ios":"levelo://app?vid=0897e627-1690-4b1c-984d-29cb463c9770"},"vehicle_type_id":"4","last_reported":1737356990,"current_range_meters":0,"station_id":"ce4bhq12rcd13ifvqhig","pricing_plan_id":"cebpf4jnsgd1na2vs0mg"},{"bike_id":"80bcc3e7-77de-44a5-8965-f19acb6d7452","system_id":"levelo_inurba_marseille","lat":43.32997,"lon":5.39071,"is_reserved":false,"is_disabled":false,"rental_uris":{"android":"levelo://app?vid=80bcc3e7-77de-44a5-8965-f19acb6d7452","ios":"levelo://app?vid=80bcc3e7-77de-44a5-8965-f19acb6d7452"},"vehicle_type_id":"4","last_reported":1737356990,"current_range_meters":39200,"station_id":"ce4bhr92rcd13ifvqhrg","pricing_plan_id":"cebpf4jnsgd1na2vs0mg"},{"bike_id":"6f2577d2-70b8-4845-b5b9-b8ee004783df","system_id":"levelo_inurba_marseille","lat":43.242034,"lon":5.376206,"is_reserved":false,"is_disabled":false,"rental_uris":{"android":"levelo://app?vid=6f2577d2-70b8-4845-b5b9-b8ee004783df","ios":"levelo://app?vid=6f2577d2-70b8-4845-b5b9-b8ee004783df"},"vehicle_type_id":"4","last_reported":1737356990,"current_range_meters":13600,"station_id":"ce4bhnp2rcd13ifvqgvg","pricing_plan_id":"cebpf4jnsgd1na2vs0mg"},{"bike_id":"f4a4a406-b0a5-42fc-9236-32e93ac6f6b2","system_id":"levelo_inurba_marseille","lat":43.23142,"lon":5.43694,"is_reserved":false,"is_disabled":true,"rental_uris":{"android":"levelo://app?vid=f4a4a406-b0a5-42fc-9236-32e93ac6f6b2","ios":"levelo://app?vid=f4a4a406-b0a5-42fc-9236-32e93ac6f6b2"},"vehicle_type_id":"4","last_reported":1737356990,"current_range_meters":22800,"station_id":"ce4bhmp2rcd13ifvqgog","pricing_plan_id":"cebpf4jnsgd1na2vs0mg"},{"bike_id":"210ffe2d-27bf-471a-a897-ba0eb55d9e2b","system_id":"levelo_inurba_marseille","lat":43.27075,"lon":5.42287,"is_reserved":false,"is_disabled":false,"rental_uris":{"android":"levelo://app?vid=210ffe2d-27bf-471a-a897-ba0eb55d9e2b","ios":"levelo://app?vid=210ffe2d-27bf-471a-a897-ba0eb55d9e2b"},"vehicle_type_id":"4","last_reported":1737356990,"current_range_meters":31200,"station_id":"ce4bhk92rcd13ifvqgb0","pricing_plan_id":"cebpf4jnsgd1na2vs0mg"},{"bike_id":"4dad667a-f851-4907-807e-98985f179550","system_id":"levelo_inurba_marseille","lat":43.30542,"lon":5.36704,"is_reserved":false,"is_disabled":false,"rental_uris":{"android":"levelo://app?vid=4dad667a-f851-4907-807e-98985f179550","ios":"levelo://app?vid=4dad667a-f851-4907-807e-98985f179550"},"vehicle_type_id":"4","last_reported":1737356990,"current_range_meters":3200,"station_id":"ce4bgrp2rcd13ifvqc9g","pricing_plan_id":"cebpf4jnsgd1na2vs0mg"},{"bike_id":"e16bfad3-6e5c-42b6-90cd-e77c51d0ba6a","system_id":"levelo_inurba_marseille","lat":43.29925,"lon":5.38126,"is_reserved":false,"is_disabled":true,"rental_uris":{"android":"levelo://app?vid=e16bfad3-6e5c-42b6-90cd-e77c51d0ba6a","ios":"levelo://app?vid=e16bfad3-6e5c-42b6-90cd-e77c51d0ba6a"},"vehicle_type_id":"4","last_reported":1737356990,"current_range_meters":16000,"station_id":"ce4bgj12rcd13ifvqbc0","pricing_plan_id":"cebpf4jnsgd1na2vs0mg"},{"bike_id":"ed68907f-255c-459d-8b28-ef9a664d0ec1","system_id":"levelo_inurba_marseille","lat":43.27942,"lon":5.41015,"is_reserved":false,"is_disabled":false,"rental_uris":{"android":"levelo://app?vid=ed68907f-255c-459d-8b28-ef9a664d0ec1","ios":"levelo://app?vid=ed68907f-255c-459d-8b28-ef9a664d0ec1"},"vehicle_type_id":"4","last_reported":1737356990,"current_range_meters":33200,"station_id":"ce4bhnp2rcd13ifvqh0g","pricing_plan_id":"cebpf4jnsgd1na2vs0mg"},{"bike_id":"8ebd3ffe-c0e4-4418-bd18-539994b1d92e","system_id":"levelo_inurba_marseille","lat":43.25723,"lon":5.41098,"is_reserved":false,"is_disabled":false,"rental_uris":{"android":"levelo://app?vid=8ebd3ffe-c0e4-4418-bd18-539994b1d92e","ios":"levelo://app?vid=8ebd3ffe-c0e4-4418-bd18-539994b1d92e"},"vehicle_type_id":"4","last_reported":1737356990,"current_range_meters":26000,"station_id":"ce4bhkp2rcd13ifvqgd0","pricing_plan_id":"cebpf4jnsgd1na2vs0mg"},{"bike_id":"50343fe7-b049-4115-b6cd-1d192f0464f8","system_id":"levelo_inurba_marseille","lat":43.25822,"lon":5.39449,"is_reserved":false,"is_disabled":false,"rental_uris":{"android":"levelo://app?vid=50343fe7-b049-4115-b6cd-1d192f0464f8","ios":"levelo://app?vid=50343fe7-b049-4115-b6cd-1d192f0464f8"},"vehicle_type_id":"4","last_reported":1737356990,"current_range_meters":39200,"station_id":"ce4bhip2rcd13ifvqft0","pricing_plan_id":"cebpf4jnsgd1na2vs0mg"},{"bike_id":"cabc6bad-8b1b-43d7-9c91-7ab7b5e05aa2","system_id":"levelo_inurba_marseille","lat":43.27494,"lon":5.42449,"is_reserved":false,"is_disabled":false,"rental_uris":{"android":"levelo://app?vid=cabc6bad-8b1b-43d7-9c91-7ab7b5e05aa2","ios":"levelo://app?vid=cabc6bad-8b1b-43d7-9c91-7ab7b5e05aa2"},"vehicle_type_id":"4","last_reported":1737356990,"current_range_meters":32400,"station_id":"ce4bhn92rcd13ifvqgrg","pricing_plan_id":"cebpf4jnsgd1na2vs0mg"},{"bike_id":"af458128-3a15-449d-adc5-fecdf8732629","system_id":"levelo_inurba_marseille","lat":43.283497,"lon":5.381033,"is_reserved":false,"is_disabled":false,"rental_uris":{"android":"levelo://app?vid=af458128-3a15-449d-adc5-fecdf8732629","ios":"levelo://app?vid=af458128-3a15-449d-adc5-fecdf8732629"},"vehicle_type_id":"4","last_reported":1737356990,"current_range_meters":16800,"station_id":"ce4bh412rcd13ifvqdr0","pricing_plan_id":"cebpf4jnsgd1na2vs0mg"},{"bike_id":"28c5dac0-7f56-4120-8993-2baa3e59ebdd","system_id":"levelo_inurba_marseille","lat":43.30455,"lon":5.37869,"is_reserved":false,"is_disabled":false,"rental_uris":{"android":"levelo://app?vid=28c5dac0-7f56-4120-8993-2baa3e59ebdd","ios":"levelo://app?vid=28c5dac0-7f56-4120-8993-2baa3e59ebdd"},"vehicle_type_id":"4","last_reported":1737356990,"current_range_meters":27600,"station_id":"ce4bgup2rcd13ifvqcn0","pricing_plan_id":"cebpf4jnsgd1na2vs0mg"},{"bike_id":"43ab6a6e-18b0-45a2-bdfd-26946078537a","system_id":"levelo_inurba_marseille","lat":43.250138,"lon":5.389157,"is_reserved":false,"is_disabled":false,"rental_uris":{"android":"levelo://app?vid=43ab6a6e-18b0-45a2-bdfd-26946078537a","ios":"levelo://app?vid=43ab6a6e-18b0-45a2-bdfd-26946078537a"},"vehicle_type_id":"4","last_reported":1737356990,"current_range_meters":38400,"station_id":"ce4bhgp2rcd13ifvqfd0","pricing_plan_id":"cebpf4jnsgd1na2vs0mg"},{"bike_id":"235f1e3c-8f45-42ed-9227-796a22746763","system_id":"levelo_inurba_marseille","lat":43.30588,"lon":5.39335,"is_reserved":false,"is_disabled":false,"rental_uris":{"android":"levelo://app?vid=235f1e3c-8f45-42ed-9227-796a22746763","ios":"levelo://app?vid=235f1e3c-8f45-42ed-9227-796a22746763"},"vehicle_type_id":"4","last_reported":1737356990,"current_range_meters":32400,"station_id":"ce4bh0p2rcd13ifvqd80","pricing_plan_id":"cebpf4jnsgd1na2vs0mg"},{"bike_id":"426c4645-01b4-4fee-8502-df81dc619db8","system_id":"levelo_inurba_marseille","lat":43.322915,"lon":5.382732,"is_reserved":false,"is_disabled":false,"rental_uris":{"android":"levelo://app?vid=426c4645-01b4-4fee-8502-df81dc619db8","ios":"levelo://app?vid=426c4645-01b4-4fee-8502-df81dc619db8"},"vehicle_type_id":"4","last_reported":1737356990,"current_range_meters":23200,"station_id":"ce4bhr12rcd13ifvqhqg","pricing_plan_id":"cebpf4jnsgd1na2vs0mg"},{"bike_id":"d6b34af8-55e8-4491-b9c8-a0575c19dc47","system_id":"levelo_inurba_marseille","lat":43.29615,"lon":5.37743,"is_reserved":false,"is_disabled":false,"rental_uris":{"android":"levelo://app?vid=d6b34af8-55e8-4491-b9c8-a0575c19dc47","ios":"levelo://app?vid=d6b34af8-55e8-4491-b9c8-a0575c19dc47"},"vehicle_type_id":"4","last_reported":1737356990,"current_range_meters":29600,"station_id":"ce4bgi92rcd13ifvqb90","pricing_plan_id":"cebpf4jnsgd1na2vs0mg"},{"bike_id":"427adfa9-113c-4817-9db8-65205ccf4edf","system_id":"levelo_inurba_marseille","lat":43.31707,"lon":5.40451,"is_reserved":false,"is_disabled":false,"rental_uris":{"android":"levelo://app?vid=427adfa9-113c-4817-9db8-65205ccf4edf","ios":"levelo://app?vid=427adfa9-113c-4817-9db8-65205ccf4edf"},"vehicle_type_id":"4","last_reported":1737356990,"current_range_meters":38800,"station_id":"ce4bh012rcd13ifvqd00","pricing_plan_id":"cebpf4jnsgd1na2vs0mg"},{"bike_id":"e73f0611-6587-4621-8831-3acb401ed022","system_id":"levelo_inurba_marseille","lat":43.25576,"lon":5.38222,"is_reserved":false,"is_disabled":false,"rental_uris":{"android":"levelo://app?vid=e73f0611-6587-4621-8831-3acb401ed022","ios":"levelo://app?vid=e73f0611-6587-4621-8831-3acb401ed022"},"vehicle_type_id":"4","last_reported":1737356990,"current_range_meters":32000,"station_id":"ce4bhih2rcd13ifvqfs0","pricing_plan_id":"cebpf4jnsgd1na2vs0mg"},{"bike_id":"3eefd8c6-4cdf-47fa-9ddb-2ce61a76ff5d","system_id":"levelo_inurba_marseille","lat":43.27494,"lon":5.42465,"is_reserved":false,"is_disabled":false,"rental_uris":{"android":"levelo://app?vid=3eefd8c6-4cdf-47fa-9ddb-2ce61a76ff5d","ios":"levelo://app?vid=3eefd8c6-4cdf-47fa-9ddb-2ce61a76ff5d"},"vehicle_type_id":"4","last_reported":1737356990,"current_range_meters":28800,"station_id":"ce4bhn92rcd13ifvqgrg","pricing_plan_id":"cebpf4jnsgd1na2vs0mg"},{"bike_id":"5df3d1f5-3cf8-42ec-baf4-6b4c2c5c5515","system_id":"levelo_inurba_marseille","lat":43.30156,"lon":5.3808,"is_reserved":false,"is_disabled":false,"rental_uris":{"android":"levelo://app?vid=5df3d1f5-3cf8-42ec-baf4-6b4c2c5c5515","ios":"levelo://app?vid=5df3d1f5-3cf8-42ec-baf4-6b4c2c5c5515"},"vehicle_type_id":"4","last_reported":1737356990,"current_range_meters":36000,"station_id":"ce4bgjp2rcd13ifvqbh0","pricing_plan_id":"cebpf4jnsgd1na2vs0mg"},{"bike_id":"5759774f-56fe-4ef4-9310-4288813407ac","system_id":"levelo_inurba_marseille","lat":43.24067,"lon":5.37748,"is_reserved":false,"is_disabled":false,"rental_uris":{"android":"levelo://app?vid=5759774f-56fe-4ef4-9310-4288813407ac","ios":"levelo://app?vid=5759774f-56fe-4ef4-9310-4288813407ac"},"vehicle_type_id":"4","last_reported":1737356990,"current_range_meters":11200,"station_id":"ce4bhnp2rcd13ifvqgvg","pricing_plan_id":"cebpf4jnsgd1na2vs0mg"},{"bike_id":"56b8e9bc-f750-4815-bc98-9098414d16db","system_id":"levelo_inurba_marseille","lat":43.23199,"lon":5.35546,"is_reserved":false,"is_disabled":true,"rental_uris":{"android":"levelo://app?vid=56b8e9bc-f750-4815-bc98-9098414d16db","ios":"levelo://app?vid=56b8e9bc-f750-4815-bc98-9098414d16db"},"vehicle_type_id":"4","last_reported":1737356990,"current_range_meters":0,"station_id":"ce4bhu92rcd13ifvqi70","pricing_plan_id":"cebpf4jnsgd1na2vs0mg"},{"bike_id":"0e91b70c-1e42-4d65-a90a-72cbd40954b0","system_id":"levelo_inurba_marseille","lat":43.323607,"lon":5.367608,"is_reserved":false,"is_disabled":false,"rental_uris":{"android":"levelo://app?vid=0e91b70c-1e42-4d65-a90a-72cbd40954b0","ios":"levelo://app?vid=0e91b70c-1e42-4d65-a90a-72cbd40954b0"},"vehicle_type_id":"4","last_reported":1737356990,"current_range_meters":38400,"station_id":"ce4bhsh2rcd13ifvqi2g","pricing_plan_id":"cebpf4jnsgd1na2vs0mg"},{"bike_id":"809cb738-c150-49d8-8dbb-7ac1d2ee4312","system_id":"levelo_inurba_marseille","lat":43.30178,"lon":5.36594,"is_reserved":false,"is_disabled":false,"rental_uris":{"android":"levelo://app?vid=809cb738-c150-49d8-8dbb-7ac1d2ee4312","ios":"levelo://app?vid=809cb738-c150-49d8-8dbb-7ac1d2ee4312"},"vehicle_type_id":"4","last_reported":1737356990,"current_range_meters":39200,"station_id":"ce4bgrh2rcd13ifvqc8g","pricing_plan_id":"cebpf4jnsgd1na2vs0mg"},{"bike_id":"7f6908f7-cfcb-4080-a4c3-d5b221bf885b","system_id":"levelo_inurba_marseille","lat":43.32038,"lon":5.41557,"is_reserved":false,"is_disabled":true,"rental_uris":{"android":"levelo://app?vid=7f6908f7-cfcb-4080-a4c3-d5b221bf885b","ios":"levelo://app?vid=7f6908f7-cfcb-4080-a4c3-d5b221bf885b"},"vehicle_type_id":"4","last_reported":1737356990,"current_range_meters":0,"station_id":"ce4bhq92rcd13ifvqhkg","pricing_plan_id":"cebpf4jnsgd1na2vs0mg"},{"bike_id":"868c71f5-dfc0-43aa-b72b-e302a3faa8af","system_id":"levelo_inurba_marseille","lat":43.27214,"lon":5.39187,"is_reserved":false,"is_disabled":false,"rental_uris":{"android":"levelo://app?vid=868c71f5-dfc0-43aa-b72b-e302a3faa8af","ios":"levelo://app?vid=868c71f5-dfc0-43aa-b72b-e302a3faa8af"},"vehicle_type_id":"4","last_reported":1737356990,"current_range_meters":38800,"station_id":"ce4bhhp2rcd13ifvqfm0","pricing_plan_id":"cebpf4jnsgd1na2vs0mg"},{"bike_id":"a43b4e60-d37f-43d6-bf7e-0db9cbc61124","system_id":"levelo_inurba_marseille","lat":43.30157,"lon":5.38095,"is_reserved":false,"is_disabled":false,"rental_uris":{"android":"levelo://app?vid=a43b4e60-d37f-43d6-bf7e-0db9cbc61124","ios":"levelo://app?vid=a43b4e60-d37f-43d6-bf7e-0db9cbc61124"},"vehicle_type_id":"4","last_reported":1737356990,"current_range_meters":30000,"station_id":"ce4bgjp2rcd13ifvqbh0","pricing_plan_id":"cebpf4jnsgd1na2vs0mg"},{"bike_id":"02f25583-5bae-4143-b3b2-7b8d3f3e60d9","system_id":"levelo_inurba_marseille","lat":43.2847,"lon":5.38424,"is_reserved":false,"is_disabled":true,"rental_uris":{"android":"levelo://app?vid=02f25583-5bae-4143-b3b2-7b8d3f3e60d9","ios":"levelo://app?vid=02f25583-5bae-4143-b3b2-7b8d3f3e60d9"},"vehicle_type_id":"4","last_reported":1737356990,"current_range_meters":32400,"station_id":"ce4bh512rcd13ifvqe3g","pricing_plan_id":"cebpf4jnsgd1na2vs0mg"},{"bike_id":"ff2670fe-631d-40e1-b30b-16e5f0b74b4e","system_id":"levelo_inurba_marseille","lat":43.29596,"lon":5.38097,"is_reserved":false,"is_disabled":false,"rental_uris":{"android":"levelo://app?vid=ff2670fe-631d-40e1-b30b-16e5f0b74b4e","ios":"levelo://app?vid=ff2670fe-631d-40e1-b30b-16e5f0b74b4e"},"vehicle_type_id":"4","last_reported":1737356990,"current_range_meters":24000,"station_id":"ce4bgl12rcd13ifvqbo0","pricing_plan_id":"cebpf4jnsgd1na2vs0mg"},{"bike_id":"0966a8a8-2d5b-449d-8d62-52bfeeb2bcde","system_id":"levelo_inurba_marseille","lat":43.29715,"lon":5.37717,"is_reserved":false,"is_disabled":true,"rental_uris":{"android":"levelo://app?vid=0966a8a8-2d5b-449d-8d62-52bfeeb2bcde","ios":"levelo://app?vid=0966a8a8-2d5b-449d-8d62-52bfeeb2bcde"},"vehicle_type_id":"4","last_reported":1737356990,"current_range_meters":35200,"station_id":"ce4bgkh2rcd13ifvqbl0","pricing_plan_id":"cebpf4jnsgd1na2vs0mg"},{"bike_id":"22465212-93af-4e0b-b803-6ee82bba56d5","system_id":"levelo_inurba_marseille","lat":43.33759,"lon":5.3748,"is_reserved":false,"is_disabled":false,"rental_uris":{"android":"levelo://app?vid=22465212-93af-4e0b-b803-6ee82bba56d5","ios":"levelo://app?vid=22465212-93af-4e0b-b803-6ee82bba56d5"},"vehicle_type_id":"4","last_reported":1737356990,"current_range_meters":25200,"station_id":"","pricing_plan_id":"cebpf4jnsgd1na2vs0mg"},{"bike_id":"d6d1604c-c524-40c9-b4a5-227697805b64","system_id":"levelo_inurba_marseille","lat":43.29891,"lon":5.39747,"is_reserved":false,"is_disabled":true,"rental_uris":{"android":"levelo://app?vid=d6d1604c-c524-40c9-b4a5-227697805b64","ios":"levelo://app?vid=d6d1604c-c524-40c9-b4a5-227697805b64"},"vehicle_type_id":"4","last_reported":1737356990,"current_range_meters":0,"station_id":"ce4bh0h2rcd13ifvqd50","pricing_plan_id":"cebpf4jnsgd1na2vs0mg"},{"bike_id":"48296075-65f0-4f2d-bc40-de3e02ade20f","system_id":"levelo_inurba_marseille","lat":43.28343,"lon":5.38104,"is_reserved":false,"is_disabled":false,"rental_uris":{"android":"levelo://app?vid=48296075-65f0-4f2d-bc40-de3e02ade20f","ios":"levelo://app?vid=48296075-65f0-4f2d-bc40-de3e02ade20f"},"vehicle_type_id":"4","last_reported":1737356990,"current_range_meters":6400,"station_id":"ce4bh412rcd13ifvqdr0","pricing_plan_id":"cebpf4jnsgd1na2vs0mg"},{"bike_id":"867be5f4-977e-4702-858e-b796a2663ec3","system_id":"levelo_inurba_marseille","lat":43.28954,"lon":5.36391,"is_reserved":false,"is_disabled":false,"rental_uris":{"android":"levelo://app?vid=867be5f4-977e-4702-858e-b796a2663ec3","ios":"levelo://app?vid=867be5f4-977e-4702-858e-b796a2663ec3"},"vehicle_type_id":"4","last_reported":1737356990,"current_range_meters":16800,"station_id":"ce4bhc92rcd13ifvqetg","pricing_plan_id":"cebpf4jnsgd1na2vs0mg"},{"bike_id":"d0117632-84a4-4476-a9b5-f01284cefbeb","system_id":"levelo_inurba_marseille","lat":43.29907,"lon":5.38149,"is_reserved":false,"is_disabled":false,"rental_uris":{"android":"levelo://app?vid=d0117632-84a4-4476-a9b5-f01284cefbeb","ios":"levelo://app?vid=d0117632-84a4-4476-a9b5-f01284cefbeb"},"vehicle_type_id":"4","last_reported":1737356990,"current_range_meters":2800,"station_id":"ce4bgj12rcd13ifvqbc0","pricing_plan_id":"cebpf4jnsgd1na2vs0mg"},{"bike_id":"19fb1931-f075-402c-a076-088e72accb76","system_id":"levelo_inurba_marseille","lat":43.24795,"lon":5.37433,"is_reserved":false,"is_disabled":false,"rental_uris":{"android":"levelo://app?vid=19fb1931-f075-402c-a076-088e72accb76","ios":"levelo://app?vid=19fb1931-f075-402c-a076-088e72accb76"},"vehicle_type_id":"4","last_reported":1737356990,"current_range_meters":8400,"station_id":"ce4bhgh2rcd13ifvqfb0","pricing_plan_id":"cebpf4jnsgd1na2vs0mg"},{"bike_id":"971a9512-6fe2-49d5-acc0-6e9e2ddb1302","system_id":"levelo_inurba_marseille","lat":43.31763,"lon":5.38997,"is_reserved":false,"is_disabled":false,"rental_uris":{"android":"levelo://app?vid=971a9512-6fe2-49d5-acc0-6e9e2ddb1302","ios":"levelo://app?vid=971a9512-6fe2-49d5-acc0-6e9e2ddb1302"},"vehicle_type_id":"4","last_reported":1737356990,"current_range_meters":38800,"station_id":"ce4bhqp2rcd13ifvqhng","pricing_plan_id":"cebpf4jnsgd1na2vs0mg"},{"bike_id":"f50183e4-71ca-412a-b3a0-01a0e393ecef","system_id":"levelo_inurba_marseille","lat":43.28149,"lon":5.42645,"is_reserved":false,"is_disabled":false,"rental_uris":{"android":"levelo://app?vid=f50183e4-71ca-412a-b3a0-01a0e393ecef","ios":"levelo://app?vid=f50183e4-71ca-412a-b3a0-01a0e393ecef"},"vehicle_type_id":"4","last_reported":1737356990,"current_range_meters":26800,"station_id":"ce4bhnh2rcd13ifvqgug","pricing_plan_id":"cebpf4jnsgd1na2vs0mg"},{"bike_id":"dfe486c9-2a48-41c2-bfe3-68d04becb36f","system_id":"levelo_inurba_marseille","lat":43.28947,"lon":5.39613,"is_reserved":false,"is_disabled":false,"rental_uris":{"android":"levelo://app?vid=dfe486c9-2a48-41c2-bfe3-68d04becb36f","ios":"levelo://app?vid=dfe486c9-2a48-41c2-bfe3-68d04becb36f"},"vehicle_type_id":"4","last_reported":1737356990,"current_range_meters":38800,"station_id":"ce4bh3h2rcd13ifvqdn0","pricing_plan_id":"cebpf4jnsgd1na2vs0mg"},{"bike_id":"653980d2-ede5-41a5-8f42-6d0f337023a1","system_id":"levelo_inurba_marseille","lat":43.30465,"lon":5.379,"is_reserved":false,"is_disabled":false,"rental_uris":{"android":"levelo://app?vid=653980d2-ede5-41a5-8f42-6d0f337023a1","ios":"levelo://app?vid=653980d2-ede5-41a5-8f42-6d0f337023a1"},"vehicle_type_id":"4","last_reported":1737356990,"current_range_meters":29600,"station_id":"ce4bgup2rcd13ifvqcn0","pricing_plan_id":"cebpf4jnsgd1na2vs0mg"},{"bike_id":"16a7176a-24c9-4d21-8155-eb4f5f1f837c","system_id":"levelo_inurba_marseille","lat":43.24667,"lon":5.38162,"is_reserved":false,"is_disabled":false,"rental_uris":{"android":"levelo://app?vid=16a7176a-24c9-4d21-8155-eb4f5f1f837c","ios":"levelo://app?vid=16a7176a-24c9-4d21-8155-eb4f5f1f837c"},"vehicle_type_id":"4","last_reported":1737356990,"current_range_meters":36000,"station_id":"ce4bhih2rcd13ifvqfr0","pricing_plan_id":"cebpf4jnsgd1na2vs0mg"},{"bike_id":"35fc2546-d9af-499d-85fb-0584d9a4a893","system_id":"levelo_inurba_marseille","lat":43.29516,"lon":5.39058,"is_reserved":false,"is_disabled":false,"rental_uris":{"android":"levelo://app?vid=35fc2546-d9af-499d-85fb-0584d9a4a893","ios":"levelo://app?vid=35fc2546-d9af-499d-85fb-0584d9a4a893"},"vehicle_type_id":"4","last_reported":1737356990,"current_range_meters":38400,"station_id":"ce4bh3p2rcd13ifvqdp0","pricing_plan_id":"cebpf4jnsgd1na2vs0mg"},{"bike_id":"b6266ca1-f670-469e-913b-183d4fe31096","system_id":"levelo_inurba_marseille","lat":43.231888,"lon":5.399823,"is_reserved":false,"is_disabled":false,"rental_uris":{"android":"levelo://app?vid=b6266ca1-f670-469e-913b-183d4fe31096","ios":"levelo://app?vid=b6266ca1-f670-469e-913b-183d4fe31096"},"vehicle_type_id":"4","last_reported":1737356990,"current_range_meters":39200,"station_id":"ce4bhn12rcd13ifvqgqg","pricing_plan_id":"cebpf4jnsgd1na2vs0mg"},{"bike_id":"45b46742-a62d-4855-9ae3-d6f0621cbfdc","system_id":"levelo_inurba_marseille","lat":43.25826,"lon":5.39428,"is_reserved":false,"is_disabled":true,"rental_uris":{"android":"levelo://app?vid=45b46742-a62d-4855-9ae3-d6f0621cbfdc","ios":"levelo://app?vid=45b46742-a62d-4855-9ae3-d6f0621cbfdc"},"vehicle_type_id":"4","last_reported":1737356990,"current_range_meters":38000,"station_id":"ce4bhip2rcd13ifvqft0","pricing_plan_id":"cebpf4jnsgd1na2vs0mg"},{"bike_id":"2d2c7a9e-4bfb-446e-8ced-2e470e5731f1","system_id":"levelo_inurba_marseille","lat":43.313585,"lon":5.396756,"is_reserved":false,"is_disabled":false,"rental_uris":{"android":"levelo://app?vid=2d2c7a9e-4bfb-446e-8ced-2e470e5731f1","ios":"levelo://app?vid=2d2c7a9e-4bfb-446e-8ced-2e470e5731f1"},"vehicle_type_id":"4","last_reported":1737356990,"current_range_meters":16800,"station_id":"ce4bh0p2rcd13ifvqd70","pricing_plan_id":"cebpf4jnsgd1na2vs0mg"},{"bike_id":"a6db73b7-26d4-4880-a742-832b0b15c3c8","system_id":"levelo_inurba_marseille","lat":43.29574,"lon":5.37522,"is_reserved":false,"is_disabled":false,"rental_uris":{"android":"levelo://app?vid=a6db73b7-26d4-4880-a742-832b0b15c3c8","ios":"levelo://app?vid=a6db73b7-26d4-4880-a742-832b0b15c3c8"},"vehicle_type_id":"4","last_reported":1737356990,"current_range_meters":25600,"station_id":"ce4bgh92rcd13ifvqb50","pricing_plan_id":"cebpf4jnsgd1na2vs0mg"},{"bike_id":"4edb4155-9425-4edc-b0b4-ac393bd38450","system_id":"levelo_inurba_marseille","lat":43.24628,"lon":5.38909,"is_reserved":false,"is_disabled":false,"rental_uris":{"android":"levelo://app?vid=4edb4155-9425-4edc-b0b4-ac393bd38450","ios":"levelo://app?vid=4edb4155-9425-4edc-b0b4-ac393bd38450"},"vehicle_type_id":"4","last_reported":1737356990,"current_range_meters":24400,"station_id":"ce4bhg12rcd13ifvqf60","pricing_plan_id":"cebpf4jnsgd1na2vs0mg"},{"bike_id":"f2557e92-263f-4200-9791-fce8af3cdba9","system_id":"levelo_inurba_marseille","lat":43.28482,"lon":5.3842,"is_reserved":false,"is_disabled":false,"rental_uris":{"android":"levelo://app?vid=f2557e92-263f-4200-9791-fce8af3cdba9","ios":"levelo://app?vid=f2557e92-263f-4200-9791-fce8af3cdba9"},"vehicle_type_id":"4","last_reported":1737356990,"current_range_meters":38000,"station_id":"ce4bh512rcd13ifvqe3g","pricing_plan_id":"cebpf4jnsgd1na2vs0mg"},{"bike_id":"92fa69bb-8d79-4a4e-8892-87ec90c4fac1","system_id":"levelo_inurba_marseille","lat":43.31559,"lon":5.38919,"is_reserved":false,"is_disabled":false,"rental_uris":{"android":"levelo://app?vid=92fa69bb-8d79-4a4e-8892-87ec90c4fac1","ios":"levelo://app?vid=92fa69bb-8d79-4a4e-8892-87ec90c4fac1"},"vehicle_type_id":"4","last_reported":1737356990,"current_range_meters":18800,"station_id":"","pricing_plan_id":"cebpf4jnsgd1na2vs0mg"},{"bike_id":"ee744f3a-cd71-45ab-8173-8797352414b8","system_id":"levelo_inurba_marseille","lat":43.29805,"lon":5.38099,"is_reserved":false,"is_disabled":false,"rental_uris":{"android":"levelo://app?vid=ee744f3a-cd71-45ab-8173-8797352414b8","ios":"levelo://app?vid=ee744f3a-cd71-45ab-8173-8797352414b8"},"vehicle_type_id":"4","last_reported":1737356990,"current_range_meters":38800,"station_id":"ce4bgip2rcd13ifvqbb0","pricing_plan_id":"cebpf4jnsgd1na2vs0mg"},{"bike_id":"73cdd53b-ea31-407c-8bb7-39e0a7bf88b5","system_id":"levelo_inurba_marseille","lat":43.28846,"lon":5.35859,"is_reserved":false,"is_disabled":false,"rental_uris":{"android":"levelo://app?vid=73cdd53b-ea31-407c-8bb7-39e0a7bf88b5","ios":"levelo://app?vid=73cdd53b-ea31-407c-8bb7-39e0a7bf88b5"},"vehicle_type_id":"4","last_reported":1737356990,"current_range_meters":22800,"station_id":"ce4bhb12rcd13ifvqem0","pricing_plan_id":"cebpf4jnsgd1na2vs0mg"},{"bike_id":"f2390374-e060-4fe1-bcfa-cb2711193e58","system_id":"levelo_inurba_marseille","lat":43.25071,"lon":5.39507,"is_reserved":false,"is_disabled":false,"rental_uris":{"android":"levelo://app?vid=f2390374-e060-4fe1-bcfa-cb2711193e58","ios":"levelo://app?vid=f2390374-e060-4fe1-bcfa-cb2711193e58"},"vehicle_type_id":"4","last_reported":1737356990,"current_range_meters":36400,"station_id":"ce4bhm12rcd13ifvqgkg","pricing_plan_id":"cebpf4jnsgd1na2vs0mg"},{"bike_id":"56628c7e-47f0-4cec-9127-72a8970f449c","system_id":"levelo_inurba_marseille","lat":43.2902,"lon":5.38656,"is_reserved":false,"is_disabled":false,"rental_uris":{"android":"levelo://app?vid=56628c7e-47f0-4cec-9127-72a8970f449c","ios":"levelo://app?vid=56628c7e-47f0-4cec-9127-72a8970f449c"},"vehicle_type_id":"4","last_reported":1737356990,"current_range_meters":38400,"station_id":"ce4bh4p2rcd13ifvqe0g","pricing_plan_id":"cebpf4jnsgd1na2vs0mg"},{"bike_id":"701bbc68-3ef2-45d0-96cc-b2ce9e360073","system_id":"levelo_inurba_marseille","lat":43.30144,"lon":5.37409,"is_reserved":false,"is_disabled":false,"rental_uris":{"android":"levelo://app?vid=701bbc68-3ef2-45d0-96cc-b2ce9e360073","ios":"levelo://app?vid=701bbc68-3ef2-45d0-96cc-b2ce9e360073"},"vehicle_type_id":"4","last_reported":1737356990,"current_range_meters":32000,"station_id":"ce4bgs92rcd13ifvqcc0","pricing_plan_id":"cebpf4jnsgd1na2vs0mg"},{"bike_id":"1aa8eecf-96db-4dff-a694-3573ca799e03","system_id":"levelo_inurba_marseille","lat":43.28356,"lon":5.38098,"is_reserved":false,"is_disabled":false,"rental_uris":{"android":"levelo://app?vid=1aa8eecf-96db-4dff-a694-3573ca799e03","ios":"levelo://app?vid=1aa8eecf-96db-4dff-a694-3573ca799e03"},"vehicle_type_id":"4","last_reported":1737356990,"current_range_meters":24800,"station_id":"ce4bh412rcd13ifvqdr0","pricing_plan_id":"cebpf4jnsgd1na2vs0mg"},{"bike_id":"948a0d36-7930-4c83-89da-81f27ad60806","system_id":"levelo_inurba_marseille","lat":43.2883,"lon":5.39336,"is_reserved":false,"is_disabled":true,"rental_uris":{"android":"levelo://app?vid=948a0d36-7930-4c83-89da-81f27ad60806","ios":"levelo://app?vid=948a0d36-7930-4c83-89da-81f27ad60806"},"vehicle_type_id":"4","last_reported":1737356990,"current_range_meters":5600,"station_id":"ce4bh2p2rcd13ifvqdi0","pricing_plan_id":"cebpf4jnsgd1na2vs0mg"},{"bike_id":"e7e5efb6-7753-4636-9496-83307e65eeb6","system_id":"levelo_inurba_marseille","lat":43.26054,"lon":5.39388,"is_reserved":false,"is_disabled":false,"rental_uris":{"android":"levelo://app?vid=e7e5efb6-7753-4636-9496-83307e65eeb6","ios":"levelo://app?vid=e7e5efb6-7753-4636-9496-83307e65eeb6"},"vehicle_type_id":"4","last_reported":1737356990,"current_range_meters":24400,"station_id":"ce4bhh92rcd13ifvqfj0","pricing_plan_id":"cebpf4jnsgd1na2vs0mg"},{"bike_id":"3f81c994-800a-48da-99db-941385bb672f","system_id":"levelo_inurba_marseille","lat":43.29602,"lon":5.38107,"is_reserved":false,"is_disabled":false,"rental_uris":{"android":"levelo://app?vid=3f81c994-800a-48da-99db-941385bb672f","ios":"levelo://app?vid=3f81c994-800a-48da-99db-941385bb672f"},"vehicle_type_id":"4","last_reported":1737356990,"current_range_meters":35200,"station_id":"ce4bgl12rcd13ifvqbo0","pricing_plan_id":"cebpf4jnsgd1na2vs0mg"},{"bike_id":"0aa4a416-5ca3-4c2e-b222-394c6f697f31","system_id":"levelo_inurba_marseille","lat":43.31366,"lon":5.36705,"is_reserved":false,"is_disabled":false,"rental_uris":{"android":"levelo://app?vid=0aa4a416-5ca3-4c2e-b222-394c6f697f31","ios":"levelo://app?vid=0aa4a416-5ca3-4c2e-b222-394c6f697f31"},"vehicle_type_id":"4","last_reported":1737356990,"current_range_meters":38000,"station_id":"ce4bgr92rcd13ifvqc6g","pricing_plan_id":"cebpf4jnsgd1na2vs0mg"},{"bike_id":"f5f04340-1891-4379-a5fd-2ff0bd7febf5","system_id":"levelo_inurba_marseille","lat":43.28152,"lon":5.42669,"is_reserved":false,"is_disabled":false,"rental_uris":{"android":"levelo://app?vid=f5f04340-1891-4379-a5fd-2ff0bd7febf5","ios":"levelo://app?vid=f5f04340-1891-4379-a5fd-2ff0bd7febf5"},"vehicle_type_id":"4","last_reported":1737356990,"current_range_meters":38000,"station_id":"ce4bhnh2rcd13ifvqgug","pricing_plan_id":"cebpf4jnsgd1na2vs0mg"},{"bike_id":"f1636dbf-0e88-49e4-b1e2-eda8a71b4e40","system_id":"levelo_inurba_marseille","lat":43.29572,"lon":5.37521,"is_reserved":false,"is_disabled":true,"rental_uris":{"android":"levelo://app?vid=f1636dbf-0e88-49e4-b1e2-eda8a71b4e40","ios":"levelo://app?vid=f1636dbf-0e88-49e4-b1e2-eda8a71b4e40"},"vehicle_type_id":"4","last_reported":1737356990,"current_range_meters":1200,"station_id":"ce4bgh92rcd13ifvqb50","pricing_plan_id":"cebpf4jnsgd1na2vs0mg"},{"bike_id":"ac3f8308-d8f9-4013-b563-9f4a11898c86","system_id":"levelo_inurba_marseille","lat":43.29707,"lon":5.36584,"is_reserved":false,"is_disabled":false,"rental_uris":{"android":"levelo://app?vid=ac3f8308-d8f9-4013-b563-9f4a11898c86","ios":"levelo://app?vid=ac3f8308-d8f9-4013-b563-9f4a11898c86"},"vehicle_type_id":"4","last_reported":1737356990,"current_range_meters":38800,"station_id":"ce4bgn12rcd13ifvqbt0","pricing_plan_id":"cebpf4jnsgd1na2vs0mg"},{"bike_id":"a95248e8-7ba2-479e-9b5c-9fb4d8e98c2b","system_id":"levelo_inurba_marseille","lat":43.28116,"lon":5.42202,"is_reserved":false,"is_disabled":true,"rental_uris":{"android":"levelo://app?vid=a95248e8-7ba2-479e-9b5c-9fb4d8e98c2b","ios":"levelo://app?vid=a95248e8-7ba2-479e-9b5c-9fb4d8e98c2b"},"vehicle_type_id":"4","last_reported":1737356990,"current_range_meters":0,"station_id":"","pricing_plan_id":"cebpf4jnsgd1na2vs0mg"},{"bike_id":"246f2aa1-d855-40ee-b8e2-0e541013d632","system_id":"levelo_inurba_marseille","lat":43.278145,"lon":5.407129,"is_reserved":false,"is_disabled":true,"rental_uris":{"android":"levelo://app?vid=246f2aa1-d855-40ee-b8e2-0e541013d632","ios":"levelo://app?vid=246f2aa1-d855-40ee-b8e2-0e541013d632"},"vehicle_type_id":"4","last_reported":1737356990,"current_range_meters":0,"station_id":"ce4bhnh2rcd13ifvqgtg","pricing_plan_id":"cebpf4jnsgd1na2vs0mg"},{"bike_id":"1296c22a-fd06-464a-9422-375c040fd819","system_id":"levelo_inurba_marseille","lat":43.31493,"lon":5.37278,"is_reserved":false,"is_disabled":false,"rental_uris":{"android":"levelo://app?vid=1296c22a-fd06-464a-9422-375c040fd819","ios":"levelo://app?vid=1296c22a-fd06-464a-9422-375c040fd819"},"vehicle_type_id":"4","last_reported":1737356990,"current_range_meters":38800,"station_id":"ce4bgt12rcd13ifvqcd0","pricing_plan_id":"cebpf4jnsgd1na2vs0mg"},{"bike_id":"490838b6-f744-4b79-ac77-a247533aa296","system_id":"levelo_inurba_marseille","lat":43.31692,"lon":5.40463,"is_reserved":false,"is_disabled":false,"rental_uris":{"android":"levelo://app?vid=490838b6-f744-4b79-ac77-a247533aa296","ios":"levelo://app?vid=490838b6-f744-4b79-ac77-a247533aa296"},"vehicle_type_id":"4","last_reported":1737356990,"current_range_meters":38800,"station_id":"ce4bh012rcd13ifvqd00","pricing_plan_id":"cebpf4jnsgd1na2vs0mg"},{"bike_id":"c406e2bd-23ff-4e1f-a222-e3b1c1d85894","system_id":"levelo_inurba_marseille","lat":43.316961,"lon":5.377759,"is_reserved":false,"is_disabled":false,"rental_uris":{"android":"levelo://app?vid=c406e2bd-23ff-4e1f-a222-e3b1c1d85894","ios":"levelo://app?vid=c406e2bd-23ff-4e1f-a222-e3b1c1d85894"},"vehicle_type_id":"4","last_reported":1737356990,"current_range_meters":34800,"station_id":"ce4bgth2rcd13ifvqch0","pricing_plan_id":"cebpf4jnsgd1na2vs0mg"},{"bike_id":"88ce3a2b-343a-48fa-9bfd-c30ff1dbe4e5","system_id":"levelo_inurba_marseille","lat":43.25086,"lon":5.39513,"is_reserved":false,"is_disabled":false,"rental_uris":{"android":"levelo://app?vid=88ce3a2b-343a-48fa-9bfd-c30ff1dbe4e5","ios":"levelo://app?vid=88ce3a2b-343a-48fa-9bfd-c30ff1dbe4e5"},"vehicle_type_id":"4","last_reported":1737356990,"current_range_meters":10800,"station_id":"ce4bhm12rcd13ifvqgkg","pricing_plan_id":"cebpf4jnsgd1na2vs0mg"},{"bike_id":"5957b55c-bbf3-4d79-a9fa-182e34bda710","system_id":"levelo_inurba_marseille","lat":43.26666,"lon":5.40291,"is_reserved":false,"is_disabled":false,"rental_uris":{"android":"levelo://app?vid=5957b55c-bbf3-4d79-a9fa-182e34bda710","ios":"levelo://app?vid=5957b55c-bbf3-4d79-a9fa-182e34bda710"},"vehicle_type_id":"4","last_reported":1737356990,"current_range_meters":11200,"station_id":"","pricing_plan_id":"cebpf4jnsgd1na2vs0mg"},{"bike_id":"6fa6d976-1892-479a-98c7-bcae6202447a","system_id":"levelo_inurba_marseille","lat":43.29092,"lon":5.38139,"is_reserved":false,"is_disabled":false,"rental_uris":{"android":"levelo://app?vid=6fa6d976-1892-479a-98c7-bcae6202447a","ios":"levelo://app?vid=6fa6d976-1892-479a-98c7-bcae6202447a"},"vehicle_type_id":"4","last_reported":1737356990,"current_range_meters":39200,"station_id":"ce4bh512rcd13ifvqe2g","pricing_plan_id":"cebpf4jnsgd1na2vs0mg"},{"bike_id":"2189f33e-4cfd-4f76-9d91-913095d551c4","system_id":"levelo_inurba_marseille","lat":43.30354,"lon":5.39095,"is_reserved":false,"is_disabled":true,"rental_uris":{"android":"levelo://app?vid=2189f33e-4cfd-4f76-9d91-913095d551c4","ios":"levelo://app?vid=2189f33e-4cfd-4f76-9d91-913095d551c4"},"vehicle_type_id":"4","last_reported":1737356990,"current_range_meters":0,"station_id":"","pricing_plan_id":"cebpf4jnsgd1na2vs0mg"},{"bike_id":"b7685df0-ddf9-4521-ad10-d3b9940b3cd0","system_id":"levelo_inurba_marseille","lat":43.30598,"lon":5.39356,"is_reserved":false,"is_disabled":false,"rental_uris":{"android":"levelo://app?vid=b7685df0-ddf9-4521-ad10-d3b9940b3cd0","ios":"levelo://app?vid=b7685df0-ddf9-4521-ad10-d3b9940b3cd0"},"vehicle_type_id":"4","last_reported":1737356990,"current_range_meters":18000,"station_id":"ce4bh0p2rcd13ifvqd80","pricing_plan_id":"cebpf4jnsgd1na2vs0mg"},{"bike_id":"c0f0a44b-5b43-4a29-93fb-0f16adf3a39d","system_id":"levelo_inurba_marseille","lat":43.29624,"lon":5.40595,"is_reserved":false,"is_disabled":false,"rental_uris":{"android":"levelo://app?vid=c0f0a44b-5b43-4a29-93fb-0f16adf3a39d","ios":"levelo://app?vid=c0f0a44b-5b43-4a29-93fb-0f16adf3a39d"},"vehicle_type_id":"4","last_reported":1737356990,"current_range_meters":36000,"station_id":"ce4bh0h2rcd13ifvqd60","pricing_plan_id":"cebpf4jnsgd1na2vs0mg"},{"bike_id":"668f9767-c78d-438a-96bb-c0760f782967","system_id":"levelo_inurba_marseille","lat":43.26157,"lon":5.3797,"is_reserved":false,"is_disabled":false,"rental_uris":{"android":"levelo://app?vid=668f9767-c78d-438a-96bb-c0760f782967","ios":"levelo://app?vid=668f9767-c78d-438a-96bb-c0760f782967"},"vehicle_type_id":"4","last_reported":1737356990,"current_range_meters":33200,"station_id":"ce4bhjp2rcd13ifvqg90","pricing_plan_id":"cebpf4jnsgd1na2vs0mg"},{"bike_id":"beb586e2-63ad-44bf-8226-0ec4f34f49f5","system_id":"levelo_inurba_marseille","lat":43.29613,"lon":5.38108,"is_reserved":false,"is_disabled":false,"rental_uris":{"android":"levelo://app?vid=beb586e2-63ad-44bf-8226-0ec4f34f49f5","ios":"levelo://app?vid=beb586e2-63ad-44bf-8226-0ec4f34f49f5"},"vehicle_type_id":"4","last_reported":1737356990,"current_range_meters":35600,"station_id":"ce4bgl12rcd13ifvqbo0","pricing_plan_id":"cebpf4jnsgd1na2vs0mg"},{"bike_id":"a32f8922-6942-48e0-b7e4-53d9b1d9ff52","system_id":"levelo_inurba_marseille","lat":43.32044,"lon":5.41517,"is_reserved":false,"is_disabled":false,"rental_uris":{"android":"levelo://app?vid=a32f8922-6942-48e0-b7e4-53d9b1d9ff52","ios":"levelo://app?vid=a32f8922-6942-48e0-b7e4-53d9b1d9ff52"},"vehicle_type_id":"4","last_reported":1737356990,"current_range_meters":38800,"station_id":"ce4bhq92rcd13ifvqhkg","pricing_plan_id":"cebpf4jnsgd1na2vs0mg"},{"bike_id":"f3fbc6dd-78ff-41bc-83b7-27fb617e51a7","system_id":"levelo_inurba_marseille","lat":43.30459,"lon":5.37909,"is_reserved":false,"is_disabled":false,"rental_uris":{"android":"levelo://app?vid=f3fbc6dd-78ff-41bc-83b7-27fb617e51a7","ios":"levelo://app?vid=f3fbc6dd-78ff-41bc-83b7-27fb617e51a7"},"vehicle_type_id":"4","last_reported":1737356990,"current_range_meters":18000,"station_id":"ce4bgup2rcd13ifvqcn0","pricing_plan_id":"cebpf4jnsgd1na2vs0mg"},{"bike_id":"e60bcc88-5ab6-40c5-af7a-e995b02098bd","system_id":"levelo_inurba_marseille","lat":43.24076,"lon":5.37762,"is_reserved":false,"is_disabled":false,"rental_uris":{"android":"levelo://app?vid=e60bcc88-5ab6-40c5-af7a-e995b02098bd","ios":"levelo://app?vid=e60bcc88-5ab6-40c5-af7a-e995b02098bd"},"vehicle_type_id":"4","last_reported":1737356990,"current_range_meters":39200,"station_id":"ce4bhnp2rcd13ifvqgvg","pricing_plan_id":"cebpf4jnsgd1na2vs0mg"},{"bike_id":"7a196ae2-43ce-4ac3-b339-1924500f0fda","system_id":"levelo_inurba_marseille","lat":43.32543,"lon":5.4142,"is_reserved":false,"is_disabled":false,"rental_uris":{"android":"levelo://app?vid=7a196ae2-43ce-4ac3-b339-1924500f0fda","ios":"levelo://app?vid=7a196ae2-43ce-4ac3-b339-1924500f0fda"},"vehicle_type_id":"4","last_reported":1737356990,"current_range_meters":31200,"station_id":"ce4bhq12rcd13ifvqhhg","pricing_plan_id":"cebpf4jnsgd1na2vs0mg"},{"bike_id":"0d5bf58b-8962-4322-87c4-754920ec04ac","system_id":"levelo_inurba_marseille","lat":43.31212,"lon":5.38701,"is_reserved":false,"is_disabled":true,"rental_uris":{"android":"levelo://app?vid=0d5bf58b-8962-4322-87c4-754920ec04ac","ios":"levelo://app?vid=0d5bf58b-8962-4322-87c4-754920ec04ac"},"vehicle_type_id":"4","last_reported":1737356990,"current_range_meters":28000,"station_id":"ce4bgv12rcd13ifvqcp0","pricing_plan_id":"cebpf4jnsgd1na2vs0mg"},{"bike_id":"c92cbb9f-5a8c-4f30-b00a-221ba31b944d","system_id":"levelo_inurba_marseille","lat":43.28435,"lon":5.35,"is_reserved":false,"is_disabled":true,"rental_uris":{"android":"levelo://app?vid=c92cbb9f-5a8c-4f30-b00a-221ba31b944d","ios":"levelo://app?vid=c92cbb9f-5a8c-4f30-b00a-221ba31b944d"},"vehicle_type_id":"4","last_reported":1737356990,"current_range_meters":28000,"station_id":"ce4bhbh2rcd13ifvqepg","pricing_plan_id":"cebpf4jnsgd1na2vs0mg"},{"bike_id":"522a7282-ab76-4b58-ae74-2eed3fe9e2b0","system_id":"levelo_inurba_marseille","lat":43.32286,"lon":5.38268,"is_reserved":false,"is_disabled":false,"rental_uris":{"android":"levelo://app?vid=522a7282-ab76-4b58-ae74-2eed3fe9e2b0","ios":"levelo://app?vid=522a7282-ab76-4b58-ae74-2eed3fe9e2b0"},"vehicle_type_id":"4","last_reported":1737356990,"current_range_meters":36800,"station_id":"ce4bhr12rcd13ifvqhqg","pricing_plan_id":"cebpf4jnsgd1na2vs0mg"},{"bike_id":"8870bac2-3fef-4478-995a-8e5335fcca0d","system_id":"levelo_inurba_marseille","lat":43.30162,"lon":5.38083,"is_reserved":false,"is_disabled":false,"rental_uris":{"android":"levelo://app?vid=8870bac2-3fef-4478-995a-8e5335fcca0d","ios":"levelo://app?vid=8870bac2-3fef-4478-995a-8e5335fcca0d"},"vehicle_type_id":"4","last_reported":1737356990,"current_range_meters":38800,"station_id":"ce4bgjp2rcd13ifvqbh0","pricing_plan_id":"cebpf4jnsgd1na2vs0mg"},{"bike_id":"45dac9c5-e69f-4181-8c23-eb7dab3cffe2","system_id":"levelo_inurba_marseille","lat":43.32443,"lon":5.40393,"is_reserved":false,"is_disabled":false,"rental_uris":{"android":"levelo://app?vid=45dac9c5-e69f-4181-8c23-eb7dab3cffe2","ios":"levelo://app?vid=45dac9c5-e69f-4181-8c23-eb7dab3cffe2"},"vehicle_type_id":"4","last_reported":1737356990,"current_range_meters":20000,"station_id":"ce4bhr92rcd13ifvqhrg","pricing_plan_id":"cebpf4jnsgd1na2vs0mg"},{"bike_id":"fe90f7a6-3920-456a-9451-50d213b7000f","system_id":"levelo_inurba_marseille","lat":43.28475,"lon":5.38431,"is_reserved":false,"is_disabled":true,"rental_uris":{"android":"levelo://app?vid=fe90f7a6-3920-456a-9451-50d213b7000f","ios":"levelo://app?vid=fe90f7a6-3920-456a-9451-50d213b7000f"},"vehicle_type_id":"4","last_reported":1737356990,"current_range_meters":28800,"station_id":"ce4bh512rcd13ifvqe3g","pricing_plan_id":"cebpf4jnsgd1na2vs0mg"},{"bike_id":"67fe5a2e-d8fb-4c79-a771-ee3875d3a660","system_id":"levelo_inurba_marseille","lat":43.33737,"lon":5.39205,"is_reserved":false,"is_disabled":false,"rental_uris":{"android":"levelo://app?vid=67fe5a2e-d8fb-4c79-a771-ee3875d3a660","ios":"levelo://app?vid=67fe5a2e-d8fb-4c79-a771-ee3875d3a660"},"vehicle_type_id":"4","last_reported":1737356990,"current_range_meters":38800,"station_id":"ce4bhr92rcd13ifvqhsg","pricing_plan_id":"cebpf4jnsgd1na2vs0mg"},{"bike_id":"d975f4a5-f0f1-4c5b-a0a0-2baf1af1cb9a","system_id":"levelo_inurba_marseille","lat":43.28987,"lon":5.37836,"is_reserved":false,"is_disabled":false,"rental_uris":{"android":"levelo://app?vid=d975f4a5-f0f1-4c5b-a0a0-2baf1af1cb9a","ios":"levelo://app?vid=d975f4a5-f0f1-4c5b-a0a0-2baf1af1cb9a"},"vehicle_type_id":"4","last_reported":1737356990,"current_range_meters":33600,"station_id":"ce4bh9p2rcd13ifvqed0","pricing_plan_id":"cebpf4jnsgd1na2vs0mg"},{"bike_id":"aeeb7245-8a7c-4b79-b9ac-efca69f7818a","system_id":"levelo_inurba_marseille","lat":43.32103,"lon":5.3679,"is_reserved":false,"is_disabled":false,"rental_uris":{"android":"levelo://app?vid=aeeb7245-8a7c-4b79-b9ac-efca69f7818a","ios":"levelo://app?vid=aeeb7245-8a7c-4b79-b9ac-efca69f7818a"},"vehicle_type_id":"4","last_reported":1737356990,"current_range_meters":16800,"station_id":"ce4bhrh2rcd13ifvqhug","pricing_plan_id":"cebpf4jnsgd1na2vs0mg"},{"bike_id":"d270d99d-4fdb-4f69-97a1-caf2fa4e0f24","system_id":"levelo_inurba_marseille","lat":43.27195,"lon":5.3917,"is_reserved":false,"is_disabled":false,"rental_uris":{"android":"levelo://app?vid=d270d99d-4fdb-4f69-97a1-caf2fa4e0f24","ios":"levelo://app?vid=d270d99d-4fdb-4f69-97a1-caf2fa4e0f24"},"vehicle_type_id":"4","last_reported":1737356990,"current_range_meters":38000,"station_id":"ce4bhhp2rcd13ifvqfm0","pricing_plan_id":"cebpf4jnsgd1na2vs0mg"},{"bike_id":"d7ebea74-ea94-4f72-85c3-775497bc315c","system_id":"levelo_inurba_marseille","lat":43.322846,"lon":5.382796,"is_reserved":false,"is_disabled":false,"rental_uris":{"android":"levelo://app?vid=d7ebea74-ea94-4f72-85c3-775497bc315c","ios":"levelo://app?vid=d7ebea74-ea94-4f72-85c3-775497bc315c"},"vehicle_type_id":"4","last_reported":1737356990,"current_range_meters":39200,"station_id":"ce4bhr12rcd13ifvqhqg","pricing_plan_id":"cebpf4jnsgd1na2vs0mg"},{"bike_id":"7b52e969-7498-42fb-aafb-034e09ca2f2a","system_id":"levelo_inurba_marseille","lat":43.30841,"lon":5.43635,"is_reserved":false,"is_disabled":false,"rental_uris":{"android":"levelo://app?vid=7b52e969-7498-42fb-aafb-034e09ca2f2a","ios":"levelo://app?vid=7b52e969-7498-42fb-aafb-034e09ca2f2a"},"vehicle_type_id":"4","last_reported":1737356990,"current_range_meters":27600,"station_id":"","pricing_plan_id":"cebpf4jnsgd1na2vs0mg"},{"bike_id":"87bb8a9e-9ff6-4388-948a-b57f3586e83f","system_id":"levelo_inurba_marseille","lat":43.30163,"lon":5.38085,"is_reserved":false,"is_disabled":false,"rental_uris":{"android":"levelo://app?vid=87bb8a9e-9ff6-4388-948a-b57f3586e83f","ios":"levelo://app?vid=87bb8a9e-9ff6-4388-948a-b57f3586e83f"},"vehicle_type_id":"4","last_reported":1737356990,"current_range_meters":39200,"station_id":"ce4bgjp2rcd13ifvqbh0","pricing_plan_id":"cebpf4jnsgd1na2vs0mg"},{"bike_id":"9eb335b9-be9e-4d87-ab11-b7aad1d486a4","system_id":"levelo_inurba_marseille","lat":43.23148,"lon":5.43712,"is_reserved":false,"is_disabled":false,"rental_uris":{"android":"levelo://app?vid=9eb335b9-be9e-4d87-ab11-b7aad1d486a4","ios":"levelo://app?vid=9eb335b9-be9e-4d87-ab11-b7aad1d486a4"},"vehicle_type_id":"4","last_reported":1737356990,"current_range_meters":38800,"station_id":"ce4bhmp2rcd13ifvqgog","pricing_plan_id":"cebpf4jnsgd1na2vs0mg"},{"bike_id":"6755133a-c04f-49ab-b618-435e603567e3","system_id":"levelo_inurba_marseille","lat":43.25581,"lon":5.38225,"is_reserved":false,"is_disabled":false,"rental_uris":{"android":"levelo://app?vid=6755133a-c04f-49ab-b618-435e603567e3","ios":"levelo://app?vid=6755133a-c04f-49ab-b618-435e603567e3"},"vehicle_type_id":"4","last_reported":1737356990,"current_range_meters":38400,"station_id":"ce4bhih2rcd13ifvqfs0","pricing_plan_id":"cebpf4jnsgd1na2vs0mg"},{"bike_id":"6fd124b8-7ace-400b-9238-1444d492d5fc","system_id":"levelo_inurba_marseille","lat":43.25822,"lon":5.39433,"is_reserved":false,"is_disabled":false,"rental_uris":{"android":"levelo://app?vid=6fd124b8-7ace-400b-9238-1444d492d5fc","ios":"levelo://app?vid=6fd124b8-7ace-400b-9238-1444d492d5fc"},"vehicle_type_id":"4","last_reported":1737356990,"current_range_meters":19200,"station_id":"ce4bhip2rcd13ifvqft0","pricing_plan_id":"cebpf4jnsgd1na2vs0mg"},{"bike_id":"c152fc79-1cd4-48b6-9683-75e37b136f35","system_id":"levelo_inurba_marseille","lat":43.25002,"lon":5.38903,"is_reserved":false,"is_disabled":false,"rental_uris":{"android":"levelo://app?vid=c152fc79-1cd4-48b6-9683-75e37b136f35","ios":"levelo://app?vid=c152fc79-1cd4-48b6-9683-75e37b136f35"},"vehicle_type_id":"4","last_reported":1737356990,"current_range_meters":38800,"station_id":"ce4bhgp2rcd13ifvqfd0","pricing_plan_id":"cebpf4jnsgd1na2vs0mg"},{"bike_id":"63a0c470-0e3d-4f46-a361-302d7a67e5d2","system_id":"levelo_inurba_marseille","lat":43.248128,"lon":5.374664,"is_reserved":false,"is_disabled":true,"rental_uris":{"android":"levelo://app?vid=63a0c470-0e3d-4f46-a361-302d7a67e5d2","ios":"levelo://app?vid=63a0c470-0e3d-4f46-a361-302d7a67e5d2"},"vehicle_type_id":"4","last_reported":1737356990,"current_range_meters":36400,"station_id":"ce4bhgh2rcd13ifvqfb0","pricing_plan_id":"cebpf4jnsgd1na2vs0mg"},{"bike_id":"d5a4b84a-471f-4edb-a016-4dd0af7e2137","system_id":"levelo_inurba_marseille","lat":43.25873,"lon":5.39913,"is_reserved":false,"is_disabled":false,"rental_uris":{"android":"levelo://app?vid=d5a4b84a-471f-4edb-a016-4dd0af7e2137","ios":"levelo://app?vid=d5a4b84a-471f-4edb-a016-4dd0af7e2137"},"vehicle_type_id":"4","last_reported":1737356990,"current_range_meters":35600,"station_id":"ce4bhl92rcd13ifvqghg","pricing_plan_id":"cebpf4jnsgd1na2vs0mg"},{"bike_id":"5434439c-80a7-45ef-8e7d-a897cb833684","system_id":"levelo_inurba_marseille","lat":43.32435,"lon":5.3676,"is_reserved":false,"is_disabled":false,"rental_uris":{"android":"levelo://app?vid=5434439c-80a7-45ef-8e7d-a897cb833684","ios":"levelo://app?vid=5434439c-80a7-45ef-8e7d-a897cb833684"},"vehicle_type_id":"4","last_reported":1737356990,"current_range_meters":8000,"station_id":"","pricing_plan_id":"cebpf4jnsgd1na2vs0mg"},{"bike_id":"4b67df20-9582-432d-941a-3038c10ba6db","system_id":"levelo_inurba_marseille","lat":43.24074,"lon":5.37759,"is_reserved":false,"is_disabled":false,"rental_uris":{"android":"levelo://app?vid=4b67df20-9582-432d-941a-3038c10ba6db","ios":"levelo://app?vid=4b67df20-9582-432d-941a-3038c10ba6db"},"vehicle_type_id":"4","last_reported":1737356990,"current_range_meters":36000,"station_id":"ce4bhnp2rcd13ifvqgvg","pricing_plan_id":"cebpf4jnsgd1na2vs0mg"},{"bike_id":"476e06e6-2eeb-4379-aeb7-c49f6afc2fe6","system_id":"levelo_inurba_marseille","lat":43.30479,"lon":5.37913,"is_reserved":false,"is_disabled":false,"rental_uris":{"android":"levelo://app?vid=476e06e6-2eeb-4379-aeb7-c49f6afc2fe6","ios":"levelo://app?vid=476e06e6-2eeb-4379-aeb7-c49f6afc2fe6"},"vehicle_type_id":"4","last_reported":1737356990,"current_range_meters":36800,"station_id":"ce4bgup2rcd13ifvqcn0","pricing_plan_id":"cebpf4jnsgd1na2vs0mg"},{"bike_id":"50267a36-8428-4ee1-ac27-ac6a771a71af","system_id":"levelo_inurba_marseille","lat":43.337145,"lon":5.355825,"is_reserved":false,"is_disabled":true,"rental_uris":{"android":"levelo://app?vid=50267a36-8428-4ee1-ac27-ac6a771a71af","ios":"levelo://app?vid=50267a36-8428-4ee1-ac27-ac6a771a71af"},"vehicle_type_id":"4","last_reported":1737356990,"current_range_meters":2000,"station_id":"","pricing_plan_id":"cebpf4jnsgd1na2vs0mg"},{"bike_id":"309a4f04-04ba-484a-8db1-fa9b345447f8","system_id":"levelo_inurba_marseille","lat":43.24383,"lon":5.37044,"is_reserved":false,"is_disabled":false,"rental_uris":{"android":"levelo://app?vid=309a4f04-04ba-484a-8db1-fa9b345447f8","ios":"levelo://app?vid=309a4f04-04ba-484a-8db1-fa9b345447f8"},"vehicle_type_id":"4","last_reported":1737356990,"current_range_meters":38000,"station_id":"ce4bhhh2rcd13ifvqfk0","pricing_plan_id":"cebpf4jnsgd1na2vs0mg"},{"bike_id":"f5863b18-13a1-4c6e-92de-5668ea912ad3","system_id":"levelo_inurba_marseille","lat":43.26234,"lon":5.40439,"is_reserved":false,"is_disabled":true,"rental_uris":{"android":"levelo://app?vid=f5863b18-13a1-4c6e-92de-5668ea912ad3","ios":"levelo://app?vid=f5863b18-13a1-4c6e-92de-5668ea912ad3"},"vehicle_type_id":"4","last_reported":1737356990,"current_range_meters":0,"station_id":"","pricing_plan_id":"cebpf4jnsgd1na2vs0mg"},{"bike_id":"6dc083cb-a1ec-4e16-afba-f3c0f1b76c34","system_id":"levelo_inurba_marseille","lat":43.31353,"lon":5.36718,"is_reserved":false,"is_disabled":false,"rental_uris":{"android":"levelo://app?vid=6dc083cb-a1ec-4e16-afba-f3c0f1b76c34","ios":"levelo://app?vid=6dc083cb-a1ec-4e16-afba-f3c0f1b76c34"},"vehicle_type_id":"4","last_reported":1737356990,"current_range_meters":37600,"station_id":"ce4bgr92rcd13ifvqc6g","pricing_plan_id":"cebpf4jnsgd1na2vs0mg"},{"bike_id":"aadeea6a-4f60-4f7c-87ee-1d6ddbecb58b","system_id":"levelo_inurba_marseille","lat":43.27493,"lon":5.42448,"is_reserved":false,"is_disabled":false,"rental_uris":{"android":"levelo://app?vid=aadeea6a-4f60-4f7c-87ee-1d6ddbecb58b","ios":"levelo://app?vid=aadeea6a-4f60-4f7c-87ee-1d6ddbecb58b"},"vehicle_type_id":"4","last_reported":1737356990,"current_range_meters":28000,"station_id":"ce4bhn92rcd13ifvqgrg","pricing_plan_id":"cebpf4jnsgd1na2vs0mg"},{"bike_id":"eb6fcbf2-4dba-4dcc-a3a1-6b992d95097c","system_id":"levelo_inurba_marseille","lat":43.23955,"lon":5.36634,"is_reserved":false,"is_disabled":false,"rental_uris":{"android":"levelo://app?vid=eb6fcbf2-4dba-4dcc-a3a1-6b992d95097c","ios":"levelo://app?vid=eb6fcbf2-4dba-4dcc-a3a1-6b992d95097c"},"vehicle_type_id":"4","last_reported":1737356990,"current_range_meters":28800,"station_id":"ce4bhi12rcd13ifvqfp0","pricing_plan_id":"cebpf4jnsgd1na2vs0mg"},{"bike_id":"46686b70-f375-4947-b209-2f4548c2edcf","system_id":"levelo_inurba_marseille","lat":43.288796,"lon":5.394478,"is_reserved":false,"is_disabled":true,"rental_uris":{"android":"levelo://app?vid=46686b70-f375-4947-b209-2f4548c2edcf","ios":"levelo://app?vid=46686b70-f375-4947-b209-2f4548c2edcf"},"vehicle_type_id":"4","last_reported":1737356990,"current_range_meters":0,"station_id":"","pricing_plan_id":"cebpf4jnsgd1na2vs0mg"},{"bike_id":"c160579d-57a0-455c-96db-5193fb7ebdc0","system_id":"levelo_inurba_marseille","lat":43.33003,"lon":5.39033,"is_reserved":false,"is_disabled":false,"rental_uris":{"android":"levelo://app?vid=c160579d-57a0-455c-96db-5193fb7ebdc0","ios":"levelo://app?vid=c160579d-57a0-455c-96db-5193fb7ebdc0"},"vehicle_type_id":"4","last_reported":1737356990,"current_range_meters":13600,"station_id":"ce4bhr92rcd13ifvqhrg","pricing_plan_id":"cebpf4jnsgd1na2vs0mg"},{"bike_id":"6e42a6c7-87c2-403e-84fd-d739a3d405a6","system_id":"levelo_inurba_marseille","lat":43.246,"lon":5.41996,"is_reserved":false,"is_disabled":true,"rental_uris":{"android":"levelo://app?vid=6e42a6c7-87c2-403e-84fd-d739a3d405a6","ios":"levelo://app?vid=6e42a6c7-87c2-403e-84fd-d739a3d405a6"},"vehicle_type_id":"4","last_reported":1737356990,"current_range_meters":0,"station_id":"","pricing_plan_id":"cebpf4jnsgd1na2vs0mg"},{"bike_id":"701ad8a5-4a2f-4eda-bee4-d8f2c0da4dac","system_id":"levelo_inurba_marseille","lat":43.29864,"lon":5.38924,"is_reserved":false,"is_disabled":true,"rental_uris":{"android":"levelo://app?vid=701ad8a5-4a2f-4eda-bee4-d8f2c0da4dac","ios":"levelo://app?vid=701ad8a5-4a2f-4eda-bee4-d8f2c0da4dac"},"vehicle_type_id":"4","last_reported":1737356990,"current_range_meters":26800,"station_id":"ce4bh392rcd13ifvqdl0","pricing_plan_id":"cebpf4jnsgd1na2vs0mg"},{"bike_id":"94177e82-289e-4229-8245-e61ed1400bb7","system_id":"levelo_inurba_marseille","lat":43.24077,"lon":5.37754,"is_reserved":false,"is_disabled":false,"rental_uris":{"android":"levelo://app?vid=94177e82-289e-4229-8245-e61ed1400bb7","ios":"levelo://app?vid=94177e82-289e-4229-8245-e61ed1400bb7"},"vehicle_type_id":"4","last_reported":1737356990,"current_range_meters":38000,"station_id":"ce4bhnp2rcd13ifvqgvg","pricing_plan_id":"cebpf4jnsgd1na2vs0mg"},{"bike_id":"f0f7ae09-777e-4d19-af74-78fcd2e44652","system_id":"levelo_inurba_marseille","lat":43.25017,"lon":5.38937,"is_reserved":false,"is_disabled":false,"rental_uris":{"android":"levelo://app?vid=f0f7ae09-777e-4d19-af74-78fcd2e44652","ios":"levelo://app?vid=f0f7ae09-777e-4d19-af74-78fcd2e44652"},