{"last_updated":1730189591,"ttl":60,"version":"2.2","data":{"bikes":[{"bike_id":"1a5400bf-5362-468a-b5b2-117e0131c47b","system_id":"levelo_inurba_marseille","lat":43.26682,"lon":5.38268,"is_reserved":false,"is_disabled":false,"rental_uris":{"android":"levelo://app?vid=1a5400bf-5362-468a-b5b2-117e0131c47b","ios":"levelo://app?vid=1a5400bf-5362-468a-b5b2-117e0131c47b"},"vehicle_type_id":"4","last_reported":1730189591,"current_range_meters":19600,"station_id":"ce4bhg92rcd13ifvqf90","pricing_plan_id":"cebpf4jnsgd1na2vs0mg"},{"bike_id":"2d45e113-cc9b-4df9-af3b-c913d19124d5","system_id":"levelo_inurba_marseille","lat":43.31226,"lon":5.36854,"is_reserved":false,"is_disabled":false,"rental_uris":{"android":"levelo://app?vid=2d45e113-cc9b-4df9-af3b-c913d19124d5","ios":"levelo://app?vid=2d45e113-cc9b-4df9-af3b-c913d19124d5"},"vehicle_type_id":"4","last_reported":1730189591,"current_range_meters":34800,"station_id":"ce4bgl92rcd13ifvqbq0","pricing_plan_id":"cebpf4jnsgd1na2vs0mg"},{"bike_id":"5b6da0fb-5d65-41eb-8aa7-edd3cba55e1e","system_id":"levelo_inurba_marseille","lat":43.30359,"lon":5.41885,"is_reserved":false,"is_disabled":false,"rental_uris":{"android":"levelo://app?vid=5b6da0fb-5d65-41eb-8aa7-edd3cba55e1e","ios":"levelo://app?vid=5b6da0fb-5d65-41eb-8aa7-edd3cba55e1e"},"vehicle_type_id":"4","last_reported":1730189591,"current_range_meters":38000,"station_id":"ce4bhop2rcd13ifvqh7g","pricing_plan_id":"cebpf4jnsgd1na2vs0mg"},{"bike_id":"5aef8b8d-a1c0-4d83-a273-c6b671bedd61","system_id":"levelo_inurba_marseille","lat":43.27179,"lon":5.40995,"is_reserved":false,"is_disabled":false,"rental_uris":{"android":"levelo://app?vid=5aef8b8d-a1c0-4d83-a273-c6b671bedd61","ios":"levelo://app?vid=5aef8b8d-a1c0-4d83-a273-c6b671bedd61"},"vehicle_type_id":"4","last_reported":1730189591,"current_range_meters":8000,"station_id":"ce4bhl12rcd13ifvqgf0","pricing_plan_id":"cebpf4jnsgd1na2vs0mg"},{"bike_id":"68fb4f18-f8e3-4888-ad74-cdb4024540a7","system_id":"levelo_inurba_marseille","lat":43.29899,"lon":5.4366,"is_reserved":false,"is_disabled":false,"rental_uris":{"android":"levelo://app?vid=68fb4f18-f8e3-4888-ad74-cdb4024540a7","ios":"levelo://app?vid=68fb4f18-f8e3-4888-ad74-cdb4024540a7"},"vehicle_type_id":"4","last_reported":1730189591,"current_range_meters":38800,"station_id":"ce4bhpp2rcd13ifvqhfg","pricing_plan_id":"cebpf4jnsgd1na2vs0mg"},{"bike_id":"83f7db1f-5175-4f37-854b-cde355acc9c6","system_id":"levelo_inurba_marseille","lat":43.322916,"lon":5.38281,"is_reserved":false,"is_disabled":false,"rental_uris":{"android":"levelo://app?vid=83f7db1f-5175-4f37-854b-cde355acc9c6","ios":"levelo://app?vid=83f7db1f-5175-4f37-854b-cde355acc9c6"},"vehicle_type_id":"4","last_reported":1730189591,"current_range_meters":38800,"station_id":"ce4bhr12rcd13ifvqhqg","pricing_plan_id":"cebpf4jnsgd1na2vs0mg"},{"bike_id":"c468bca0-1a60-4851-8919-d208dcbbcda3","system_id":"levelo_inurba_marseille","lat":43.24176,"lon":5.39729,"is_reserved":false,"is_disabled":false,"rental_uris":{"android":"levelo://app?vid=c468bca0-1a60-4851-8919-d208dcbbcda3","ios":"levelo://app?vid=c468bca0-1a60-4851-8919-d208dcbbcda3"},"vehicle_type_id":"4","last_reported":1730189591,"current_range_meters":30000,"station_id":"ce4bhn12rcd13ifvqgpg","pricing_plan_id":"cebpf4jnsgd1na2vs0mg"},{"bike_id":"519855f6-73c1-4b38-8fb6-0f6cb3eabb83","system_id":"levelo_inurba_marseille","lat":43.28727,"lon":5.37947,"is_reserved":false,"is_disabled":false,"rental_uris":{"android":"levelo://app?vid=519855f6-73c1-4b38-8fb6-0f6cb3eabb83","ios":"levelo://app?vid=519855f6-73c1-4b38-8fb6-0f6cb3eabb83"},"vehicle_type_id":"4","last_reported":1730189591,"current_range_meters":34000,"station_id":"ce4bh9p2rcd13ifvqec0","pricing_plan_id":"cebpf4jnsgd1na2vs0mg"},{"bike_id":"3ed2d413-9b58-487f-8ca1-65ce6fd24762","system_id":"levelo_inurba_marseille","lat":43.29917,"lon":5.37144,"is_reserved":false,"is_disabled":false,"rental_uris":{"android":"levelo://app?vid=3ed2d413-9b58-487f-8ca1-65ce6fd24762","ios":"levelo://app?vid=3ed2d413-9b58-487f-8ca1-65ce6fd24762"},"vehicle_type_id":"4","last_reported":1730189591,"current_range_meters":26000,"station_id":"","pricing_plan_id":"cebpf4jnsgd1na2vs0mg"},{"bike_id":"3e52980f-94d7-4d97-b274-15dc53ff4c5d","system_id":"levelo_inurba_marseille","lat":43.267206,"lon":5.382067,"is_reserved":false,"is_disabled":false,"rental_uris":{"android":"levelo://app?vid=3e52980f-94d7-4d97-b274-15dc53ff4c5d","ios":"levelo://app?vid=3e52980f-94d7-4d97-b274-15dc53ff4c5d"},"vehicle_type_id":"4","last_reported":1730189591,"current_range_meters":26800,"station_id":"ce4bhg92rcd13ifvqf90","pricing_plan_id":"cebpf4jnsgd1na2vs0mg"},{"bike_id":"f000abbe-69b3-4b2c-9394-80b05b2fdac4","system_id":"levelo_inurba_marseille","lat":43.31222,"lon":5.36848,"is_reserved":false,"is_disabled":false,"rental_uris":{"android":"levelo://app?vid=f000abbe-69b3-4b2c-9394-80b05b2fdac4","ios":"levelo://app?vid=f000abbe-69b3-4b2c-9394-80b05b2fdac4"},"vehicle_type_id":"4","last_reported":1730189591,"current_range_meters":22800,"station_id":"ce4bgl92rcd13ifvqbq0","pricing_plan_id":"cebpf4jnsgd1na2vs0mg"},{"bike_id":"979f0f1a-b96f-4580-b40d-344e5bd215ad","system_id":"levelo_inurba_marseille","lat":43.27367,"lon":5.36264,"is_reserved":false,"is_disabled":false,"rental_uris":{"android":"levelo://app?vid=979f0f1a-b96f-4580-b40d-344e5bd215ad","ios":"levelo://app?vid=979f0f1a-b96f-4580-b40d-344e5bd215ad"},"vehicle_type_id":"4","last_reported":1730189591,"current_range_meters":21600,"station_id":"ce4bhbh2rcd13ifvqeo0","pricing_plan_id":"cebpf4jnsgd1na2vs0mg"},{"bike_id":"0dd0ccc2-f1bf-42cd-a425-db2be977a4df","system_id":"levelo_inurba_marseille","lat":43.25584,"lon":5.38231,"is_reserved":false,"is_disabled":false,"rental_uris":{"android":"levelo://app?vid=0dd0ccc2-f1bf-42cd-a425-db2be977a4df","ios":"levelo://app?vid=0dd0ccc2-f1bf-42cd-a425-db2be977a4df"},"vehicle_type_id":"4","last_reported":1730189591,"current_range_meters":39200,"station_id":"ce4bhih2rcd13ifvqfs0","pricing_plan_id":"cebpf4jnsgd1na2vs0mg"},{"bike_id":"62b5614c-5f33-4953-a27e-e0c821552090","system_id":"levelo_inurba_marseille","lat":43.23196,"lon":5.35544,"is_reserved":false,"is_disabled":false,"rental_uris":{"android":"levelo://app?vid=62b5614c-5f33-4953-a27e-e0c821552090","ios":"levelo://app?vid=62b5614c-5f33-4953-a27e-e0c821552090"},"vehicle_type_id":"4","last_reported":1730189591,"current_range_meters":38000,"station_id":"ce4bhu92rcd13ifvqi70","pricing_plan_id":"cebpf4jnsgd1na2vs0mg"},{"bike_id":"67909534-5d2b-4e3d-b735-978adeea462c","system_id":"levelo_inurba_marseille","lat":43.32481,"lon":5.36564,"is_reserved":false,"is_disabled":false,"rental_uris":{"android":"levelo://app?vid=67909534-5d2b-4e3d-b735-978adeea462c","ios":"levelo://app?vid=67909534-5d2b-4e3d-b735-978adeea462c"},"vehicle_type_id":"4","last_reported":1730189591,"current_range_meters":30000,"station_id":"ce4bhs12rcd13ifvqhvg","pricing_plan_id":"cebpf4jnsgd1na2vs0mg"},{"bike_id":"adf6af35-cd01-4122-b565-1024fda48841","system_id":"levelo_inurba_marseille","lat":43.30528,"lon":5.36706,"is_reserved":false,"is_disabled":false,"rental_uris":{"android":"levelo://app?vid=adf6af35-cd01-4122-b565-1024fda48841","ios":"levelo://app?vid=adf6af35-cd01-4122-b565-1024fda48841"},"vehicle_type_id":"4","last_reported":1730189591,"current_range_meters":37600,"station_id":"ce4bgrp2rcd13ifvqc9g","pricing_plan_id":"cebpf4jnsgd1na2vs0mg"},{"bike_id":"77868dea-5cf2-414b-bf97-ccde2042cefd","system_id":"levelo_inurba_marseille","lat":43.28009,"lon":5.4,"is_reserved":false,"is_disabled":false,"rental_uris":{"android":"levelo://app?vid=77868dea-5cf2-414b-bf97-ccde2042cefd","ios":"levelo://app?vid=77868dea-5cf2-414b-bf97-ccde2042cefd"},"vehicle_type_id":"4","last_reported":1730189591,"current_range_meters":38800,"station_id":"ce4bho92rcd13ifvqh4g","pricing_plan_id":"cebpf4jnsgd1na2vs0mg"},{"bike_id":"d670ce41-a976-401c-a3a7-26c74b7bfe7f","system_id":"levelo_inurba_marseille","lat":43.30155,"lon":5.38079,"is_reserved":false,"is_disabled":false,"rental_uris":{"android":"levelo://app?vid=d670ce41-a976-401c-a3a7-26c74b7bfe7f","ios":"levelo://app?vid=d670ce41-a976-401c-a3a7-26c74b7bfe7f"},"vehicle_type_id":"4","last_reported":1730189591,"current_range_meters":38800,"station_id":"ce4bgjp2rcd13ifvqbh0","pricing_plan_id":"cebpf4jnsgd1na2vs0mg"},{"bike_id":"d9daa884-80df-4197-a9fe-bbb1a7d67742","system_id":"levelo_inurba_marseille","lat":43.24388,"lon":5.37064,"is_reserved":false,"is_disabled":false,"rental_uris":{"android":"levelo://app?vid=d9daa884-80df-4197-a9fe-bbb1a7d67742","ios":"levelo://app?vid=d9daa884-80df-4197-a9fe-bbb1a7d67742"},"vehicle_type_id":"4","last_reported":1730189591,"current_range_meters":24000,"station_id":"ce4bhhh2rcd13ifvqfk0","pricing_plan_id":"cebpf4jnsgd1na2vs0mg"},{"bike_id":"53483838-c1ec-419f-92e3-0e203828f65e","system_id":"levelo_inurba_marseille","lat":43.30558,"lon":5.3656,"is_reserved":false,"is_disabled":false,"rental_uris":{"android":"levelo://app?vid=53483838-c1ec-419f-92e3-0e203828f65e","ios":"levelo://app?vid=53483838-c1ec-419f-92e3-0e203828f65e"},"vehicle_type_id":"4","last_reported":1730189591,"current_range_meters":38800,"station_id":"ce4bgs12rcd13ifvqcag","pricing_plan_id":"cebpf4jnsgd1na2vs0mg"},{"bike_id":"73df067c-1ea5-417b-86da-615c0c634ae5","system_id":"levelo_inurba_marseille","lat":43.29043,"lon":5.39958,"is_reserved":false,"is_disabled":false,"rental_uris":{"android":"levelo://app?vid=73df067c-1ea5-417b-86da-615c0c634ae5","ios":"levelo://app?vid=73df067c-1ea5-417b-86da-615c0c634ae5"},"vehicle_type_id":"4","last_reported":1730189591,"current_range_meters":38400,"station_id":"ce4bh392rcd13ifvqdm0","pricing_plan_id":"cebpf4jnsgd1na2vs0mg"},{"bike_id":"f32bfe85-3cbe-4209-90e4-01583d48ed5a","system_id":"levelo_inurba_marseille","lat":43.290039,"lon":5.381305,"is_reserved":false,"is_disabled":false,"rental_uris":{"android":"levelo://app?vid=f32bfe85-3cbe-4209-90e4-01583d48ed5a","ios":"levelo://app?vid=f32bfe85-3cbe-4209-90e4-01583d48ed5a"},"vehicle_type_id":"4","last_reported":1730189591,"current_range_meters":34000,"station_id":"ce4bhh92rcd13ifvqfh0","pricing_plan_id":"cebpf4jnsgd1na2vs0mg"},{"bike_id":"2f32bc25-4f45-4d0b-80c7-766fd04fa021","system_id":"levelo_inurba_marseille","lat":43.26952,"lon":5.38624,"is_reserved":false,"is_disabled":false,"rental_uris":{"android":"levelo://app?vid=2f32bc25-4f45-4d0b-80c7-766fd04fa021","ios":"levelo://app?vid=2f32bc25-4f45-4d0b-80c7-766fd04fa021"},"vehicle_type_id":"4","last_reported":1730189591,"current_range_meters":24400,"station_id":"ce4bhh92rcd13ifvqfh0","pricing_plan_id":"cebpf4jnsgd1na2vs0mg"},{"bike_id":"83a287b9-40aa-4882-8b81-76be606ae1d5","system_id":"levelo_inurba_marseille","lat":43.27974,"lon":5.38731,"is_reserved":false,"is_disabled":false,"rental_uris":{"android":"levelo://app?vid=83a287b9-40aa-4882-8b81-76be606ae1d5","ios":"levelo://app?vid=83a287b9-40aa-4882-8b81-76be606ae1d5"},"vehicle_type_id":"4","last_reported":1730189591,"current_range_meters":35600,"station_id":"ce4bhg12rcd13ifvqf80","pricing_plan_id":"cebpf4jnsgd1na2vs0mg"},{"bike_id":"39644737-83b6-49fd-b812-7f74aa3544c8","system_id":"levelo_inurba_marseille","lat":43.25108,"lon":5.40322,"is_reserved":false,"is_disabled":false,"rental_uris":{"android":"levelo://app?vid=39644737-83b6-49fd-b812-7f74aa3544c8","ios":"levelo://app?vid=39644737-83b6-49fd-b812-7f74aa3544c8"},"vehicle_type_id":"4","last_reported":1730189591,"current_range_meters":24400,"station_id":"ce4bhlh2rcd13ifvqgig","pricing_plan_id":"cebpf4jnsgd1na2vs0mg"},{"bike_id":"18d073cb-83b6-4a56-b36c-f24538a0e583","system_id":"levelo_inurba_marseille","lat":43.23183,"lon":5.39979,"is_reserved":false,"is_disabled":false,"rental_uris":{"android":"levelo://app?vid=18d073cb-83b6-4a56-b36c-f24538a0e583","ios":"levelo://app?vid=18d073cb-83b6-4a56-b36c-f24538a0e583"},"vehicle_type_id":"4","last_reported":1730189591,"current_range_meters":39200,"station_id":"ce4bhn12rcd13ifvqgqg","pricing_plan_id":"cebpf4jnsgd1na2vs0mg"},{"bike_id":"03a862a3-d356-4773-81ad-638b8847aeb0","system_id":"levelo_inurba_marseille","lat":43.23186,"lon":5.39979,"is_reserved":false,"is_disabled":false,"rental_uris":{"android":"levelo://app?vid=03a862a3-d356-4773-81ad-638b8847aeb0","ios":"levelo://app?vid=03a862a3-d356-4773-81ad-638b8847aeb0"},"vehicle_type_id":"4","last_reported":1730189591,"current_range_meters":25200,"station_id":"ce4bhn12rcd13ifvqgqg","pricing_plan_id":"cebpf4jnsgd1na2vs0mg"},{"bike_id":"677cf563-d0a7-495a-88ac-60bbc39ff34f","system_id":"levelo_inurba_marseille","lat":43.29552,"lon":5.42257,"is_reserved":false,"is_disabled":false,"rental_uris":{"android":"levelo://app?vid=677cf563-d0a7-495a-88ac-60bbc39ff34f","ios":"levelo://app?vid=677cf563-d0a7-495a-88ac-60bbc39ff34f"},"vehicle_type_id":"4","last_reported":1730189591,"current_range_meters":35600,"station_id":"ce4bhph2rcd13ifvqhdg","pricing_plan_id":"cebpf4jnsgd1na2vs0mg"},{"bike_id":"5ad31ad7-174f-412e-87d5-b57faa5d4787","system_id":"levelo_inurba_marseille","lat":43.28149,"lon":5.42636,"is_reserved":false,"is_disabled":false,"rental_uris":{"android":"levelo://app?vid=5ad31ad7-174f-412e-87d5-b57faa5d4787","ios":"levelo://app?vid=5ad31ad7-174f-412e-87d5-b57faa5d4787"},"vehicle_type_id":"4","last_reported":1730189591,"current_range_meters":3600,"station_id":"ce4bhnh2rcd13ifvqgug","pricing_plan_id":"cebpf4jnsgd1na2vs0mg"},{"bike_id":"ce399f4d-fdde-4bf7-91c4-1dceaefc5aed","system_id":"levelo_inurba_marseille","lat":43.30532,"lon":5.367,"is_reserved":false,"is_disabled":false,"rental_uris":{"android":"levelo://app?vid=ce399f4d-fdde-4bf7-91c4-1dceaefc5aed","ios":"levelo://app?vid=ce399f4d-fdde-4bf7-91c4-1dceaefc5aed"},"vehicle_type_id":"4","last_reported":1730189591,"current_range_meters":38800,"station_id":"ce4bgrp2rcd13ifvqc9g","pricing_plan_id":"cebpf4jnsgd1na2vs0mg"},{"bike_id":"3d806605-1fa5-47c0-8dae-80c571d31131","system_id":"levelo_inurba_marseille","lat":43.27321,"lon":5.39085,"is_reserved":false,"is_disabled":false,"rental_uris":{"android":"levelo://app?vid=3d806605-1fa5-47c0-8dae-80c571d31131","ios":"levelo://app?vid=3d806605-1fa5-47c0-8dae-80c571d31131"},"vehicle_type_id":"4","last_reported":1730189591,"current_range_meters":20400,"station_id":"ce4bhgp2rcd13ifvqfe0","pricing_plan_id":"cebpf4jnsgd1na2vs0mg"},{"bike_id":"a0dca16e-a6b5-4a5d-a935-b27aa12a2faa","system_id":"levelo_inurba_marseille","lat":43.30531,"lon":5.36555,"is_reserved":false,"is_disabled":false,"rental_uris":{"android":"levelo://app?vid=a0dca16e-a6b5-4a5d-a935-b27aa12a2faa","ios":"levelo://app?vid=a0dca16e-a6b5-4a5d-a935-b27aa12a2faa"},"vehicle_type_id":"4","last_reported":1730189591,"current_range_meters":25200,"station_id":"ce4bgs12rcd13ifvqcag","pricing_plan_id":"cebpf4jnsgd1na2vs0mg"},{"bike_id":"8d3f9bb0-c04b-48a8-b580-0d2f77aa1bb9","system_id":"levelo_inurba_marseille","lat":43.27668,"lon":5.38886,"is_reserved":false,"is_disabled":false,"rental_uris":{"android":"levelo://app?vid=8d3f9bb0-c04b-48a8-b580-0d2f77aa1bb9","ios":"levelo://app?vid=8d3f9bb0-c04b-48a8-b580-0d2f77aa1bb9"},"vehicle_type_id":"4","last_reported":1730189591,"current_range_meters":35200,"station_id":"ce4bhi12rcd13ifvqfo0","pricing_plan_id":"cebpf4jnsgd1na2vs0mg"},{"bike_id":"559e0993-d3ec-4994-8a4d-edbc5593d328","system_id":"levelo_inurba_marseille","lat":43.22934,"lon":5.35375,"is_reserved":false,"is_disabled":false,"rental_uris":{"android":"levelo://app?vid=559e0993-d3ec-4994-8a4d-edbc5593d328","ios":"levelo://app?vid=559e0993-d3ec-4994-8a4d-edbc5593d328"},"vehicle_type_id":"4","last_reported":1730189591,"current_range_meters":38000,"station_id":"cpo3532slgdg3j2ikp40","pricing_plan_id":"cebpf4jnsgd1na2vs0mg"},{"bike_id":"212f3c5b-47a7-45fd-aead-88037a0348b7","system_id":"levelo_inurba_marseille","lat":43.30574,"lon":5.36667,"is_reserved":false,"is_disabled":false,"rental_uris":{"android":"levelo://app?vid=212f3c5b-47a7-45fd-aead-88037a0348b7","ios":"levelo://app?vid=212f3c5b-47a7-45fd-aead-88037a0348b7"},"vehicle_type_id":"4","last_reported":1730189591,"current_range_meters":38800,"station_id":"","pricing_plan_id":"cebpf4jnsgd1na2vs0mg"},{"bike_id":"b4babc66-0248-40c3-a506-51df315349f7","system_id":"levelo_inurba_marseille","lat":43.24076,"lon":5.37757,"is_reserved":false,"is_disabled":false,"rental_uris":{"android":"levelo://app?vid=b4babc66-0248-40c3-a506-51df315349f7","ios":"levelo://app?vid=b4babc66-0248-40c3-a506-51df315349f7"},"vehicle_type_id":"4","last_reported":1730189591,"current_range_meters":28400,"station_id":"ce4bhnp2rcd13ifvqgvg","pricing_plan_id":"cebpf4jnsgd1na2vs0mg"},{"bike_id":"c25c6934-e626-496d-8891-6f5db0cd46e2","system_id":"levelo_inurba_marseille","lat":43.25937,"lon":5.409,"is_reserved":false,"is_disabled":false,"rental_uris":{"android":"levelo://app?vid=c25c6934-e626-496d-8891-6f5db0cd46e2","ios":"levelo://app?vid=c25c6934-e626-496d-8891-6f5db0cd46e2"},"vehicle_type_id":"4","last_reported":1730189591,"current_range_meters":35200,"station_id":"ce4bhm92rcd13ifvqglg","pricing_plan_id":"cebpf4jnsgd1na2vs0mg"},{"bike_id":"d1dacee6-8f47-4ca5-823b-a2ea6c3413e8","system_id":"levelo_inurba_marseille","lat":43.23192,"lon":5.35556,"is_reserved":false,"is_disabled":false,"rental_uris":{"android":"levelo://app?vid=d1dacee6-8f47-4ca5-823b-a2ea6c3413e8","ios":"levelo://app?vid=d1dacee6-8f47-4ca5-823b-a2ea6c3413e8"},"vehicle_type_id":"4","last_reported":1730189591,"current_range_meters":38800,"station_id":"ce4bhu92rcd13ifvqi70","pricing_plan_id":"cebpf4jnsgd1na2vs0mg"},{"bike_id":"9885bc95-a87c-4dbf-b40e-674adf3586a6","system_id":"levelo_inurba_marseille","lat":43.30835,"lon":5.36581,"is_reserved":false,"is_disabled":false,"rental_uris":{"android":"levelo://app?vid=9885bc95-a87c-4dbf-b40e-674adf3586a6","ios":"levelo://app?vid=9885bc95-a87c-4dbf-b40e-674adf3586a6"},"vehicle_type_id":"4","last_reported":1730189591,"current_range_meters":20000,"station_id":"","pricing_plan_id":"cebpf4jnsgd1na2vs0mg"},{"bike_id":"c8c44b8d-a9ab-45eb-81a6-b167d0cc7f29","system_id":"levelo_inurba_marseille","lat":43.30461,"lon":5.37908,"is_reserved":false,"is_disabled":false,"rental_uris":{"android":"levelo://app?vid=c8c44b8d-a9ab-45eb-81a6-b167d0cc7f29","ios":"levelo://app?vid=c8c44b8d-a9ab-45eb-81a6-b167d0cc7f29"},"vehicle_type_id":"4","last_reported":1730189591,"current_range_meters":15200,"station_id":"ce4bgup2rcd13ifvqcn0","pricing_plan_id":"cebpf4jnsgd1na2vs0mg"},{"bike_id":"f09371cc-1c70-462f-907e-11f44ba1feec","system_id":"levelo_inurba_marseille","lat":43.25935,"lon":5.40903,"is_reserved":false,"is_disabled":false,"rental_uris":{"android":"levelo://app?vid=f09371cc-1c70-462f-907e-11f44ba1feec","ios":"levelo://app?vid=f09371cc-1c70-462f-907e-11f44ba1feec"},"vehicle_type_id":"4","last_reported":1730189591,"current_range_meters":33600,"station_id":"ce4bhm92rcd13ifvqglg","pricing_plan_id":"cebpf4jnsgd1na2vs0mg"},{"bike_id":"54399a13-f8cb-435f-8b52-6878bec0e3bf","system_id":"levelo_inurba_marseille","lat":43.28153,"lon":5.42648,"is_reserved":false,"is_disabled":false,"rental_uris":{"android":"levelo://app?vid=54399a13-f8cb-435f-8b52-6878bec0e3bf","ios":"levelo://app?vid=54399a13-f8cb-435f-8b52-6878bec0e3bf"},"vehicle_type_id":"4","last_reported":1730189591,"current_range_meters":36400,"station_id":"ce4bhnh2rcd13ifvqgug","pricing_plan_id":"cebpf4jnsgd1na2vs0mg"},{"bike_id":"7b1bb107-17ba-475f-b08a-ba6ebacda09a","system_id":"levelo_inurba_marseille","lat":43.24809,"lon":5.37456,"is_reserved":false,"is_disabled":false,"rental_uris":{"android":"levelo://app?vid=7b1bb107-17ba-475f-b08a-ba6ebacda09a","ios":"levelo://app?vid=7b1bb107-17ba-475f-b08a-ba6ebacda09a"},"vehicle_type_id":"4","last_reported":1730189591,"current_range_meters":24400,"station_id":"ce4bhgh2rcd13ifvqfb0","pricing_plan_id":"cebpf4jnsgd1na2vs0mg"},{"bike_id":"bed983b0-4dd0-4343-8c2b-f9433485f5af","system_id":"levelo_inurba_marseille","lat":43.30157,"lon":5.381,"is_reserved":false,"is_disabled":false,"rental_uris":{"android":"levelo://app?vid=bed983b0-4dd0-4343-8c2b-f9433485f5af","ios":"levelo://app?vid=bed983b0-4dd0-4343-8c2b-f9433485f5af"},"vehicle_type_id":"4","last_reported":1730189591,"current_range_meters":28000,"station_id":"ce4bgjp2rcd13ifvqbh0","pricing_plan_id":"cebpf4jnsgd1na2vs0mg"},{"bike_id":"47b98d2f-07e1-4c21-b0d2-a7fef571c542","system_id":"levelo_inurba_marseille","lat":43.30894,"lon":5.37197,"is_reserved":false,"is_disabled":false,"rental_uris":{"android":"levelo://app?vid=47b98d2f-07e1-4c21-b0d2-a7fef571c542","ios":"levelo://app?vid=47b98d2f-07e1-4c21-b0d2-a7fef571c542"},"vehicle_type_id":"4","last_reported":1730189591,"current_range_meters":20800,"station_id":"ce4bguh2rcd13ifvqckg","pricing_plan_id":"cebpf4jnsgd1na2vs0mg"},{"bike_id":"04dbda2e-1521-4ce1-bb27-237d13a9a293","system_id":"levelo_inurba_marseille","lat":43.30895,"lon":5.37196,"is_reserved":false,"is_disabled":false,"rental_uris":{"android":"levelo://app?vid=04dbda2e-1521-4ce1-bb27-237d13a9a293","ios":"levelo://app?vid=04dbda2e-1521-4ce1-bb27-237d13a9a293"},"vehicle_type_id":"4","last_reported":1730189591,"current_range_meters":38800,"station_id":"ce4bguh2rcd13ifvqckg","pricing_plan_id":"cebpf4jnsgd1na2vs0mg"},{"bike_id":"77bda5e6-f055-4c3a-9927-55ea8f7365ab","system_id":"levelo_inurba_marseille","lat":43.25931,"lon":5.40907,"is_reserved":false,"is_disabled":false,"rental_uris":{"android":"levelo://app?vid=77bda5e6-f055-4c3a-9927-55ea8f7365ab","ios":"levelo://app?vid=77bda5e6-f055-4c3a-9927-55ea8f7365ab"},"vehicle_type_id":"4","last_reported":1730189591,"current_range_meters":22000,"station_id":"ce4bhm92rcd13ifvqglg","pricing_plan_id":"cebpf4jnsgd1na2vs0mg"},{"bike_id":"4b1f45ca-5ba1-42a7-87e4-e9967261b64c","system_id":"levelo_inurba_marseille","lat":43.31085,"lon":5.42431,"is_reserved":false,"is_disabled":false,"rental_uris":{"android":"levelo://app?vid=4b1f45ca-5ba1-42a7-87e4-e9967261b64c","ios":"levelo://app?vid=4b1f45ca-5ba1-42a7-87e4-e9967261b64c"},"vehicle_type_id":"4","last_reported":1730189591,"current_range_meters":38800,"station_id":"ce4bhp92rcd13ifvqhag","pricing_plan_id":"cebpf4jnsgd1na2vs0mg"},{"bike_id":"dc84761f-a845-4779-be22-92c6f12daec1","system_id":"levelo_inurba_marseille","lat":43.29625,"lon":5.37166,"is_reserved":false,"is_disabled":false,"rental_uris":{"android":"levelo://app?vid=dc84761f-a845-4779-be22-92c6f12daec1","ios":"levelo://app?vid=dc84761f-a845-4779-be22-92c6f12daec1"},"vehicle_type_id":"4","last_reported":1730189591,"current_range_meters":35600,"station_id":"ce4bgnh2rcd13ifvqc0g","pricing_plan_id":"cebpf4jnsgd1na2vs0mg"},{"bike_id":"19b82e21-3d35-41bf-aafb-3cde2bd09028","system_id":"levelo_inurba_marseille","lat":43.29048,"lon":5.39951,"is_reserved":false,"is_disabled":false,"rental_uris":{"android":"levelo://app?vid=19b82e21-3d35-41bf-aafb-3cde2bd09028","ios":"levelo://app?vid=19b82e21-3d35-41bf-aafb-3cde2bd09028"},"vehicle_type_id":"4","last_reported":1730189591,"current_range_meters":26800,"station_id":"ce4bh392rcd13ifvqdm0","pricing_plan_id":"cebpf4jnsgd1na2vs0mg"},{"bike_id":"14fa7ab4-3d26-47e0-af42-b940b3c853b8","system_id":"levelo_inurba_marseille","lat":43.27173,"lon":5.40994,"is_reserved":false,"is_disabled":false,"rental_uris":{"android":"levelo://app?vid=14fa7ab4-3d26-47e0-af42-b940b3c853b8","ios":"levelo://app?vid=14fa7ab4-3d26-47e0-af42-b940b3c853b8"},"vehicle_type_id":"4","last_reported":1730189591,"current_range_meters":16800,"station_id":"ce4bhl12rcd13ifvqgf0","pricing_plan_id":"cebpf4jnsgd1na2vs0mg"},{"bike_id":"9f422c91-7c0f-4548-8513-8523cc1662dd","system_id":"levelo_inurba_marseille","lat":43.23064,"lon":5.35489,"is_reserved":false,"is_disabled":false,"rental_uris":{"android":"levelo://app?vid=9f422c91-7c0f-4548-8513-8523cc1662dd","ios":"levelo://app?vid=9f422c91-7c0f-4548-8513-8523cc1662dd"},"vehicle_type_id":"4","last_reported":1730189591,"current_range_meters":22000,"station_id":"cpo3342slgdg3j2ifvpg","pricing_plan_id":"cebpf4jnsgd1na2vs0mg"},{"bike_id":"6a4ee9f9-f019-4a9a-94e9-f0359c0f028c","system_id":"levelo_inurba_marseille","lat":43.31526,"lon":5.3804,"is_reserved":false,"is_disabled":false,"rental_uris":{"android":"levelo://app?vid=6a4ee9f9-f019-4a9a-94e9-f0359c0f028c","ios":"levelo://app?vid=6a4ee9f9-f019-4a9a-94e9-f0359c0f028c"},"vehicle_type_id":"4","last_reported":1730189591,"current_range_meters":19200,"station_id":"ce4bhsp2rcd13ifvqi50","pricing_plan_id":"cebpf4jnsgd1na2vs0mg"},{"bike_id":"49838399-0752-45b1-a8d5-501914aaf4e3","system_id":"levelo_inurba_marseille","lat":43.31346,"lon":5.36714,"is_reserved":false,"is_disabled":false,"rental_uris":{"android":"levelo://app?vid=49838399-0752-45b1-a8d5-501914aaf4e3","ios":"levelo://app?vid=49838399-0752-45b1-a8d5-501914aaf4e3"},"vehicle_type_id":"4","last_reported":1730189591,"current_range_meters":29600,"station_id":"ce4bgr92rcd13ifvqc6g","pricing_plan_id":"cebpf4jnsgd1na2vs0mg"},{"bike_id":"2eb33259-06bf-49ce-85cb-5256124b5f12","system_id":"levelo_inurba_marseille","lat":43.30133,"lon":5.3741,"is_reserved":false,"is_disabled":false,"rental_uris":{"android":"levelo://app?vid=2eb33259-06bf-49ce-85cb-5256124b5f12","ios":"levelo://app?vid=2eb33259-06bf-49ce-85cb-5256124b5f12"},"vehicle_type_id":"4","last_reported":1730189591,"current_range_meters":38400,"station_id":"","pricing_plan_id":"cebpf4jnsgd1na2vs0mg"},{"bike_id":"edee228c-76f1-4f9d-b4f7-5773b8a0b850","system_id":"levelo_inurba_marseille","lat":43.23196,"lon":5.35557,"is_reserved":false,"is_disabled":false,"rental_uris":{"android":"levelo://app?vid=edee228c-76f1-4f9d-b4f7-5773b8a0b850","ios":"levelo://app?vid=edee228c-76f1-4f9d-b4f7-5773b8a0b850"},"vehicle_type_id":"4","last_reported":1730189591,"current_range_meters":20000,"station_id":"ce4bhu92rcd13ifvqi70","pricing_plan_id":"cebpf4jnsgd1na2vs0mg"},{"bike_id":"de64aefc-2736-480f-8f17-3a77ec3af0e8","system_id":"levelo_inurba_marseille","lat":43.2558,"lon":5.3824,"is_reserved":false,"is_disabled":false,"rental_uris":{"android":"levelo://app?vid=de64aefc-2736-480f-8f17-3a77ec3af0e8","ios":"levelo://app?vid=de64aefc-2736-480f-8f17-3a77ec3af0e8"},"vehicle_type_id":"4","last_reported":1730189591,"current_range_meters":38400,"station_id":"ce4bhih2rcd13ifvqfs0","pricing_plan_id":"cebpf4jnsgd1na2vs0mg"},{"bike_id":"572ae421-b079-482b-81c8-fa9955650109","system_id":"levelo_inurba_marseille","lat":43.280426,"lon":5.368688,"is_reserved":false,"is_disabled":false,"rental_uris":{"android":"levelo://app?vid=572ae421-b079-482b-81c8-fa9955650109","ios":"levelo://app?vid=572ae421-b079-482b-81c8-fa9955650109"},"vehicle_type_id":"4","last_reported":1730189591,"current_range_meters":18800,"station_id":"","pricing_plan_id":"cebpf4jnsgd1na2vs0mg"},{"bike_id":"9b9b6a33-f33e-42da-9fed-c30e857b5b87","system_id":"levelo_inurba_marseille","lat":43.30906,"lon":5.3685,"is_reserved":false,"is_disabled":false,"rental_uris":{"android":"levelo://app?vid=9b9b6a33-f33e-42da-9fed-c30e857b5b87","ios":"levelo://app?vid=9b9b6a33-f33e-42da-9fed-c30e857b5b87"},"vehicle_type_id":"4","last_reported":1730189591,"current_range_meters":20000,"station_id":"ce4bgn92rcd13ifvqbvg","pricing_plan_id":"cebpf4jnsgd1na2vs0mg"},{"bike_id":"ee3791ab-2eee-44eb-a570-39f4d4c1a748","system_id":"levelo_inurba_marseille","lat":43.29025,"lon":5.38138,"is_reserved":false,"is_disabled":false,"rental_uris":{"android":"levelo://app?vid=ee3791ab-2eee-44eb-a570-39f4d4c1a748","ios":"levelo://app?vid=ee3791ab-2eee-44eb-a570-39f4d4c1a748"},"vehicle_type_id":"4","last_reported":1730189591,"current_range_meters":36800,"station_id":"ce4bh4p2rcd13ifvqe1g","pricing_plan_id":"cebpf4jnsgd1na2vs0mg"},{"bike_id":"9115e988-ee96-4439-a207-fe0a3909ee9b","system_id":"levelo_inurba_marseille","lat":43.23149,"lon":5.43723,"is_reserved":false,"is_disabled":false,"rental_uris":{"android":"levelo://app?vid=9115e988-ee96-4439-a207-fe0a3909ee9b","ios":"levelo://app?vid=9115e988-ee96-4439-a207-fe0a3909ee9b"},"vehicle_type_id":"4","last_reported":1730189591,"current_range_meters":20800,"station_id":"ce4bhmp2rcd13ifvqgog","pricing_plan_id":"cebpf4jnsgd1na2vs0mg"},{"bike_id":"3d96c8a9-b23f-4362-9bd7-4aa96b6fd6bd","system_id":"levelo_inurba_marseille","lat":43.258136,"lon":5.399983,"is_reserved":false,"is_disabled":false,"rental_uris":{"android":"levelo://app?vid=3d96c8a9-b23f-4362-9bd7-4aa96b6fd6bd","ios":"levelo://app?vid=3d96c8a9-b23f-4362-9bd7-4aa96b6fd6bd"},"vehicle_type_id":"4","last_reported":1730189591,"current_range_meters":20800,"station_id":"ce4bhl92rcd13ifvqghg","pricing_plan_id":"cebpf4jnsgd1na2vs0mg"},{"bike_id":"e3d27640-a7eb-4407-a3ae-d168fb29106a","system_id":"levelo_inurba_marseille","lat":43.31751,"lon":5.39025,"is_reserved":false,"is_disabled":false,"rental_uris":{"android":"levelo://app?vid=e3d27640-a7eb-4407-a3ae-d168fb29106a","ios":"levelo://app?vid=e3d27640-a7eb-4407-a3ae-d168fb29106a"},"vehicle_type_id":"4","last_reported":1730189591,"current_range_meters":39200,"station_id":"ce4bhqp2rcd13ifvqhng","pricing_plan_id":"cebpf4jnsgd1na2vs0mg"},{"bike_id":"9a0000e5-cf0e-4e75-a165-fc00c627495d","system_id":"levelo_inurba_marseille","lat":43.28974,"lon":5.36614,"is_reserved":false,"is_disabled":false,"rental_uris":{"android":"levelo://app?vid=9a0000e5-cf0e-4e75-a165-fc00c627495d","ios":"levelo://app?vid=9a0000e5-cf0e-4e75-a165-fc00c627495d"},"vehicle_type_id":"4","last_reported":1730189591,"current_range_meters":25600,"station_id":"ce4bhap2rcd13ifvqek0","pricing_plan_id":"cebpf4jnsgd1na2vs0mg"},{"bike_id":"14c64a56-9590-45e0-9514-2e55c497b42a","system_id":"levelo_inurba_marseille","lat":43.30532,"lon":5.36722,"is_reserved":false,"is_disabled":false,"rental_uris":{"android":"levelo://app?vid=14c64a56-9590-45e0-9514-2e55c497b42a","ios":"levelo://app?vid=14c64a56-9590-45e0-9514-2e55c497b42a"},"vehicle_type_id":"4","last_reported":1730189591,"current_range_meters":24000,"station_id":"ce4bgrp2rcd13ifvqc9g","pricing_plan_id":"cebpf4jnsgd1na2vs0mg"},{"bike_id":"bb7b2e12-e84a-4f99-b2f4-03540a10399d","system_id":"levelo_inurba_marseille","lat":43.29631,"lon":5.40599,"is_reserved":false,"is_disabled":false,"rental_uris":{"android":"levelo://app?vid=bb7b2e12-e84a-4f99-b2f4-03540a10399d","ios":"levelo://app?vid=bb7b2e12-e84a-4f99-b2f4-03540a10399d"},"vehicle_type_id":"4","last_reported":1730189591,"current_range_meters":38000,"station_id":"ce4bh0h2rcd13ifvqd60","pricing_plan_id":"cebpf4jnsgd1na2vs0mg"},{"bike_id":"fa66e38d-b74f-41cd-9a3a-1fed6bb0081b","system_id":"levelo_inurba_marseille","lat":43.24081,"lon":5.37753,"is_reserved":false,"is_disabled":false,"rental_uris":{"android":"levelo://app?vid=fa66e38d-b74f-41cd-9a3a-1fed6bb0081b","ios":"levelo://app?vid=fa66e38d-b74f-41cd-9a3a-1fed6bb0081b"},"vehicle_type_id":"4","last_reported":1730189591,"current_range_meters":20400,"station_id":"ce4bhnp2rcd13ifvqgvg","pricing_plan_id":"cebpf4jnsgd1na2vs0mg"},{"bike_id":"2f921f60-1890-404a-898c-6dae28d2ff64","system_id":"levelo_inurba_marseille","lat":43.32109,"lon":5.36778,"is_reserved":false,"is_disabled":false,"rental_uris":{"android":"levelo://app?vid=2f921f60-1890-404a-898c-6dae28d2ff64","ios":"levelo://app?vid=2f921f60-1890-404a-898c-6dae28d2ff64"},"vehicle_type_id":"4","last_reported":1730189591,"current_range_meters":37600,"station_id":"ce4bhrh2rcd13ifvqhug","pricing_plan_id":"cebpf4jnsgd1na2vs0mg"},{"bike_id":"1ce8273e-c4a1-4c41-b380-ee57463836f9","system_id":"levelo_inurba_marseille","lat":43.25933,"lon":5.40903,"is_reserved":false,"is_disabled":false,"rental_uris":{"android":"levelo://app?vid=1ce8273e-c4a1-4c41-b380-ee57463836f9","ios":"levelo://app?vid=1ce8273e-c4a1-4c41-b380-ee57463836f9"},"vehicle_type_id":"4","last_reported":1730189591,"current_range_meters":33200,"station_id":"ce4bhm92rcd13ifvqglg","pricing_plan_id":"cebpf4jnsgd1na2vs0mg"},{"bike_id":"2dfe4b45-89fc-479c-aa7a-1fe6d6108e84","system_id":"levelo_inurba_marseille","lat":43.31687,"lon":5.40473,"is_reserved":false,"is_disabled":false,"rental_uris":{"android":"levelo://app?vid=2dfe4b45-89fc-479c-aa7a-1fe6d6108e84","ios":"levelo://app?vid=2dfe4b45-89fc-479c-aa7a-1fe6d6108e84"},"vehicle_type_id":"4","last_reported":1730189591,"current_range_meters":34000,"station_id":"ce4bh012rcd13ifvqd00","pricing_plan_id":"cebpf4jnsgd1na2vs0mg"},{"bike_id":"d74db498-4d34-4507-af53-c2e4a0b93f4e","system_id":"levelo_inurba_marseille","lat":43.31342,"lon":5.36718,"is_reserved":false,"is_disabled":false,"rental_uris":{"android":"levelo://app?vid=d74db498-4d34-4507-af53-c2e4a0b93f4e","ios":"levelo://app?vid=d74db498-4d34-4507-af53-c2e4a0b93f4e"},"vehicle_type_id":"4","last_reported":1730189591,"current_range_meters":32800,"station_id":"ce4bgr92rcd13ifvqc6g","pricing_plan_id":"cebpf4jnsgd1na2vs0mg"},{"bike_id":"7cf2e0f2-60e3-49a9-820f-8e501cd707ec","system_id":"levelo_inurba_marseille","lat":43.308987,"lon":5.372013,"is_reserved":false,"is_disabled":false,"rental_uris":{"android":"levelo://app?vid=7cf2e0f2-60e3-49a9-820f-8e501cd707ec","ios":"levelo://app?vid=7cf2e0f2-60e3-49a9-820f-8e501cd707ec"},"vehicle_type_id":"4","last_reported":1730189591,"current_range_meters":30000,"station_id":"ce4bguh2rcd13ifvqckg","pricing_plan_id":"cebpf4jnsgd1na2vs0mg"},{"bike_id":"7f470a7c-9aff-4127-979b-7b9711bdf44a","system_id":"levelo_inurba_marseille","lat":43.29045,"lon":5.39961,"is_reserved":false,"is_disabled":false,"rental_uris":{"android":"levelo://app?vid=7f470a7c-9aff-4127-979b-7b9711bdf44a","ios":"levelo://app?vid=7f470a7c-9aff-4127-979b-7b9711bdf44a"},"vehicle_type_id":"4","last_reported":1730189591,"current_range_meters":12800,"station_id":"ce4bh392rcd13ifvqdm0","pricing_plan_id":"cebpf4jnsgd1na2vs0mg"},{"bike_id":"a986e497-ab67-409d-a745-3fec1849541f","system_id":"levelo_inurba_marseille","lat":43.25576,"lon":5.38228,"is_reserved":false,"is_disabled":false,"rental_uris":{"android":"levelo://app?vid=a986e497-ab67-409d-a745-3fec1849541f","ios":"levelo://app?vid=a986e497-ab67-409d-a745-3fec1849541f"},"vehicle_type_id":"4","last_reported":1730189591,"current_range_meters":28800,"station_id":"ce4bhih2rcd13ifvqfs0","pricing_plan_id":"cebpf4jnsgd1na2vs0mg"},{"bike_id":"3c083404-e2d9-48d5-a2d9-71da6b37319f","system_id":"levelo_inurba_marseille","lat":43.28151,"lon":5.42644,"is_reserved":false,"is_disabled":false,"rental_uris":{"android":"levelo://app?vid=3c083404-e2d9-48d5-a2d9-71da6b37319f","ios":"levelo://app?vid=3c083404-e2d9-48d5-a2d9-71da6b37319f"},"vehicle_type_id":"4","last_reported":1730189591,"current_range_meters":39200,"station_id":"ce4bhnh2rcd13ifvqgug","pricing_plan_id":"cebpf4jnsgd1na2vs0mg"},{"bike_id":"1a069240-612c-4428-9d20-e1023cc0e0aa","system_id":"levelo_inurba_marseille","lat":43.25936,"lon":5.40903,"is_reserved":false,"is_disabled":false,"rental_uris":{"android":"levelo://app?vid=1a069240-612c-4428-9d20-e1023cc0e0aa","ios":"levelo://app?vid=1a069240-612c-4428-9d20-e1023cc0e0aa"},"vehicle_type_id":"4","last_reported":1730189591,"current_range_meters":32000,"station_id":"ce4bhm92rcd13ifvqglg","pricing_plan_id":"cebpf4jnsgd1na2vs0mg"},{"bike_id":"39078943-7118-462f-958f-a40bed4af7fb","system_id":"levelo_inurba_marseille","lat":43.30898,"lon":5.36857,"is_reserved":false,"is_disabled":false,"rental_uris":{"android":"levelo://app?vid=39078943-7118-462f-958f-a40bed4af7fb","ios":"levelo://app?vid=39078943-7118-462f-958f-a40bed4af7fb"},"vehicle_type_id":"4","last_reported":1730189591,"current_range_meters":38400,"station_id":"ce4bgn92rcd13ifvqbvg","pricing_plan_id":"cebpf4jnsgd1na2vs0mg"},{"bike_id":"4f4bf255-9d1a-4a0e-9a11-a04474ca4160","system_id":"levelo_inurba_marseille","lat":43.27183,"lon":5.40991,"is_reserved":false,"is_disabled":false,"rental_uris":{"android":"levelo://app?vid=4f4bf255-9d1a-4a0e-9a11-a04474ca4160","ios":"levelo://app?vid=4f4bf255-9d1a-4a0e-9a11-a04474ca4160"},"vehicle_type_id":"4","last_reported":1730189591,"current_range_meters":38800,"station_id":"ce4bhl12rcd13ifvqgf0","pricing_plan_id":"cebpf4jnsgd1na2vs0mg"},{"bike_id":"d9d4a298-8acd-4d1c-8825-3408f5f02c5a","system_id":"levelo_inurba_marseille","lat":43.308,"lon":5.43526,"is_reserved":false,"is_disabled":false,"rental_uris":{"android":"levelo://app?vid=d9d4a298-8acd-4d1c-8825-3408f5f02c5a","ios":"levelo://app?vid=d9d4a298-8acd-4d1c-8825-3408f5f02c5a"},"vehicle_type_id":"4","last_reported":1730189591,"current_range_meters":37600,"station_id":"ce4bhph2rcd13ifvqheg","pricing_plan_id":"cebpf4jnsgd1na2vs0mg"},{"bike_id":"3596a464-c770-4ebd-b1e2-e40084414ba9","system_id":"levelo_inurba_marseille","lat":43.23183,"lon":5.39984,"is_reserved":false,"is_disabled":false,"rental_uris":{"android":"levelo://app?vid=3596a464-c770-4ebd-b1e2-e40084414ba9","ios":"levelo://app?vid=3596a464-c770-4ebd-b1e2-e40084414ba9"},"vehicle_type_id":"4","last_reported":1730189591,"current_range_meters":38400,"station_id":"ce4bhn12rcd13ifvqgqg","pricing_plan_id":"cebpf4jnsgd1na2vs0mg"},{"bike_id":"8478f686-e026-43b3-99f3-eb86891fc6fa","system_id":"levelo_inurba_marseille","lat":43.25932,"lon":5.40913,"is_reserved":false,"is_disabled":false,"rental_uris":{"android":"levelo://app?vid=8478f686-e026-43b3-99f3-eb86891fc6fa","ios":"levelo://app?vid=8478f686-e026-43b3-99f3-eb86891fc6fa"},"vehicle_type_id":"4","last_reported":1730189591,"current_range_meters":32000,"station_id":"ce4bhm92rcd13ifvqglg","pricing_plan_id":"cebpf4jnsgd1na2vs0mg"},{"bike_id":"4188d229-68c4-47d1-9772-4359c6749efe","system_id":"levelo_inurba_marseille","lat":43.296021,"lon":5.373922,"is_reserved":false,"is_disabled":false,"rental_uris":{"android":"levelo://app?vid=4188d229-68c4-47d1-9772-4359c6749efe","ios":"levelo://app?vid=4188d229-68c4-47d1-9772-4359c6749efe"},"vehicle_type_id":"4","last_reported":1730189591,"current_range_meters":26800,"station_id":"ce4bgh92rcd13ifvqb40","pricing_plan_id":"cebpf4jnsgd1na2vs0mg"},{"bike_id":"b890057b-5455-4fed-a346-a30140dbf239","system_id":"levelo_inurba_marseille","lat":43.30539,"lon":5.36542,"is_reserved":false,"is_disabled":false,"rental_uris":{"android":"levelo://app?vid=b890057b-5455-4fed-a346-a30140dbf239","ios":"levelo://app?vid=b890057b-5455-4fed-a346-a30140dbf239"},"vehicle_type_id":"4","last_reported":1730189591,"current_range_meters":38400,"station_id":"ce4bgs12rcd13ifvqcag","pricing_plan_id":"cebpf4jnsgd1na2vs0mg"},{"bike_id":"8107a8d0-709d-4632-b364-a62acb854625","system_id":"levelo_inurba_marseille","lat":43.30904,"lon":5.36858,"is_reserved":false,"is_disabled":false,"rental_uris":{"android":"levelo://app?vid=8107a8d0-709d-4632-b364-a62acb854625","ios":"levelo://app?vid=8107a8d0-709d-4632-b364-a62acb854625"},"vehicle_type_id":"4","last_reported":1730189591,"current_range_meters":31200,"station_id":"ce4bgn92rcd13ifvqbvg","pricing_plan_id":"cebpf4jnsgd1na2vs0mg"},{"bike_id":"9a061509-ab8e-4f69-bbb3-d3345ac56b82","system_id":"levelo_inurba_marseille","lat":43.3014,"lon":5.37422,"is_reserved":false,"is_disabled":false,"rental_uris":{"android":"levelo://app?vid=9a061509-ab8e-4f69-bbb3-d3345ac56b82","ios":"levelo://app?vid=9a061509-ab8e-4f69-bbb3-d3345ac56b82"},"vehicle_type_id":"4","last_reported":1730189591,"current_range_meters":35200,"station_id":"ce4bgs92rcd13ifvqcc0","pricing_plan_id":"cebpf4jnsgd1na2vs0mg"},{"bike_id":"4ce9b91c-78f6-43b6-a025-4beec2be7dcb","system_id":"levelo_inurba_marseille","lat":43.28476,"lon":5.38419,"is_reserved":false,"is_disabled":false,"rental_uris":{"android":"levelo://app?vid=4ce9b91c-78f6-43b6-a025-4beec2be7dcb","ios":"levelo://app?vid=4ce9b91c-78f6-43b6-a025-4beec2be7dcb"},"vehicle_type_id":"4","last_reported":1730189591,"current_range_meters":8800,"station_id":"ce4bh512rcd13ifvqe3g","pricing_plan_id":"cebpf4jnsgd1na2vs0mg"},{"bike_id":"4021a60c-56da-4f6f-a33c-87d294128677","system_id":"levelo_inurba_marseille","lat":43.31331,"lon":5.3672,"is_reserved":false,"is_disabled":false,"rental_uris":{"android":"levelo://app?vid=4021a60c-56da-4f6f-a33c-87d294128677","ios":"levelo://app?vid=4021a60c-56da-4f6f-a33c-87d294128677"},"vehicle_type_id":"4","last_reported":1730189591,"current_range_meters":25600,"station_id":"ce4bgr92rcd13ifvqc6g","pricing_plan_id":"cebpf4jnsgd1na2vs0mg"},{"bike_id":"fe0f4ad9-8221-48ed-be5d-c64547a2f47a","system_id":"levelo_inurba_marseille","lat":43.28634,"lon":5.38354,"is_reserved":false,"is_disabled":false,"rental_uris":{"android":"levelo://app?vid=fe0f4ad9-8221-48ed-be5d-c64547a2f47a","ios":"levelo://app?vid=fe0f4ad9-8221-48ed-be5d-c64547a2f47a"},"vehicle_type_id":"4","last_reported":1730189591,"current_range_meters":17200,"station_id":"ce4bh4p2rcd13ifvqe1g","pricing_plan_id":"cebpf4jnsgd1na2vs0mg"},{"bike_id":"ace72f9e-7d3c-4255-8bf9-d680adf20397","system_id":"levelo_inurba_marseille","lat":43.27687,"lon":5.38859,"is_reserved":false,"is_disabled":false,"rental_uris":{"android":"levelo://app?vid=ace72f9e-7d3c-4255-8bf9-d680adf20397","ios":"levelo://app?vid=ace72f9e-7d3c-4255-8bf9-d680adf20397"},"vehicle_type_id":"4","last_reported":1730189591,"current_range_meters":27200,"station_id":"ce4bhi12rcd13ifvqfo0","pricing_plan_id":"cebpf4jnsgd1na2vs0mg"},{"bike_id":"95a0b55b-c5e7-457d-a4e9-41be027a3aeb","system_id":"levelo_inurba_marseille","lat":43.27179,"lon":5.40999,"is_reserved":false,"is_disabled":false,"rental_uris":{"android":"levelo://app?vid=95a0b55b-c5e7-457d-a4e9-41be027a3aeb","ios":"levelo://app?vid=95a0b55b-c5e7-457d-a4e9-41be027a3aeb"},"vehicle_type_id":"4","last_reported":1730189591,"current_range_meters":37600,"station_id":"ce4bhl12rcd13ifvqgf0","pricing_plan_id":"cebpf4jnsgd1na2vs0mg"},{"bike_id":"6161ee4d-3bd9-4b36-a4d7-867c052bdc22","system_id":"levelo_inurba_marseille","lat":43.32041,"lon":5.41565,"is_reserved":false,"is_disabled":false,"rental_uris":{"android":"levelo://app?vid=6161ee4d-3bd9-4b36-a4d7-867c052bdc22","ios":"levelo://app?vid=6161ee4d-3bd9-4b36-a4d7-867c052bdc22"},"vehicle_type_id":"4","last_reported":1730189591,"current_range_meters":38400,"station_id":"ce4bhq92rcd13ifvqhkg","pricing_plan_id":"cebpf4jnsgd1na2vs0mg"},{"bike_id":"8657a7a0-912a-44f2-879d-8b41f669f001","system_id":"levelo_inurba_marseille","lat":43.319822,"lon":5.36435,"is_reserved":false,"is_disabled":false,"rental_uris":{"android":"levelo://app?vid=8657a7a0-912a-44f2-879d-8b41f669f001","ios":"levelo://app?vid=8657a7a0-912a-44f2-879d-8b41f669f001"},"vehicle_type_id":"4","last_reported":1730189591,"current_range_meters":23200,"station_id":"ce4bhs12rcd13ifvqhvg","pricing_plan_id":"cebpf4jnsgd1na2vs0mg"},{"bike_id":"21b0d405-022c-4046-9483-b0c711fb60b5","system_id":"levelo_inurba_marseille","lat":43.29552,"lon":5.42285,"is_reserved":false,"is_disabled":false,"rental_uris":{"android":"levelo://app?vid=21b0d405-022c-4046-9483-b0c711fb60b5","ios":"levelo://app?vid=21b0d405-022c-4046-9483-b0c711fb60b5"},"vehicle_type_id":"4","last_reported":1730189591,"current_range_meters":38800,"station_id":"ce4bhph2rcd13ifvqhdg","pricing_plan_id":"cebpf4jnsgd1na2vs0mg"},{"bike_id":"56313702-8d29-41f8-9a65-7fe8d8a2d151","system_id":"levelo_inurba_marseille","lat":43.29582,"lon":5.36736,"is_reserved":false,"is_disabled":false,"rental_uris":{"android":"levelo://app?vid=56313702-8d29-41f8-9a65-7fe8d8a2d151","ios":"levelo://app?vid=56313702-8d29-41f8-9a65-7fe8d8a2d151"},"vehicle_type_id":"4","last_reported":1730189591,"current_range_meters":38800,"station_id":"ce4bgph2rcd13ifvqc2g","pricing_plan_id":"cebpf4jnsgd1na2vs0mg"},{"bike_id":"133acd97-0649-4b1c-9d4d-f00ef10062a4","system_id":"levelo_inurba_marseille","lat":43.30153,"lon":5.38082,"is_reserved":false,"is_disabled":false,"rental_uris":{"android":"levelo://app?vid=133acd97-0649-4b1c-9d4d-f00ef10062a4","ios":"levelo://app?vid=133acd97-0649-4b1c-9d4d-f00ef10062a4"},"vehicle_type_id":"4","last_reported":1730189591,"current_range_meters":36000,"station_id":"ce4bgjp2rcd13ifvqbh0","pricing_plan_id":"cebpf4jnsgd1na2vs0mg"},{"bike_id":"3f218860-2066-43e2-aa51-ec73febafd27","system_id":"levelo_inurba_marseille","lat":43.320574,"lon":5.415403,"is_reserved":false,"is_disabled":false,"rental_uris":{"android":"levelo://app?vid=3f218860-2066-43e2-aa51-ec73febafd27","ios":"levelo://app?vid=3f218860-2066-43e2-aa51-ec73febafd27"},"vehicle_type_id":"4","last_reported":1730189591,"current_range_meters":38800,"station_id":"ce4bhq92rcd13ifvqhkg","pricing_plan_id":"cebpf4jnsgd1na2vs0mg"},{"bike_id":"47902099-04b7-46eb-9f2b-4104d2c8d8cd","system_id":"levelo_inurba_marseille","lat":43.27308,"lon":5.39067,"is_reserved":false,"is_disabled":false,"rental_uris":{"android":"levelo://app?vid=47902099-04b7-46eb-9f2b-4104d2c8d8cd","ios":"levelo://app?vid=47902099-04b7-46eb-9f2b-4104d2c8d8cd"},"vehicle_type_id":"4","last_reported":1730189591,"current_range_meters":36400,"station_id":"ce4bhgp2rcd13ifvqfe0","pricing_plan_id":"cebpf4jnsgd1na2vs0mg"},{"bike_id":"76f2154f-aca9-4400-9712-31e97cca02c3","system_id":"levelo_inurba_marseille","lat":43.28152,"lon":5.42641,"is_reserved":false,"is_disabled":false,"rental_uris":{"android":"levelo://app?vid=76f2154f-aca9-4400-9712-31e97cca02c3","ios":"levelo://app?vid=76f2154f-aca9-4400-9712-31e97cca02c3"},"vehicle_type_id":"4","last_reported":1730189591,"current_range_meters":39200,"station_id":"ce4bhnh2rcd13ifvqgug","pricing_plan_id":"cebpf4jnsgd1na2vs0mg"},{"bike_id":"49c8448f-2e2d-4bf4-ad0c-ddc7dfaccf55","system_id":"levelo_inurba_marseille","lat":43.2418,"lon":5.39729,"is_reserved":false,"is_disabled":false,"rental_uris":{"android":"levelo://app?vid=49c8448f-2e2d-4bf4-ad0c-ddc7dfaccf55","ios":"levelo://app?vid=49c8448f-2e2d-4bf4-ad0c-ddc7dfaccf55"},"vehicle_type_id":"4","last_reported":1730189591,"current_range_meters":35200,"station_id":"ce4bhn12rcd13ifvqgpg","pricing_plan_id":"cebpf4jnsgd1na2vs0mg"},{"bike_id":"e9f74eb8-40a2-4557-9c9b-7da8ebc92846","system_id":"levelo_inurba_marseille","lat":43.31222,"lon":5.36866,"is_reserved":false,"is_disabled":false,"rental_uris":{"android":"levelo://app?vid=e9f74eb8-40a2-4557-9c9b-7da8ebc92846","ios":"levelo://app?vid=e9f74eb8-40a2-4557-9c9b-7da8ebc92846"},"vehicle_type_id":"4","last_reported":1730189591,"current_range_meters":2000,"station_id":"ce4bgl92rcd13ifvqbq0","pricing_plan_id":"cebpf4jnsgd1na2vs0mg"},{"bike_id":"a53c049f-6f82-47cf-8dbf-2be4ba325c3b","system_id":"levelo_inurba_marseille","lat":43.2815,"lon":5.42645,"is_reserved":false,"is_disabled":false,"rental_uris":{"android":"levelo://app?vid=a53c049f-6f82-47cf-8dbf-2be4ba325c3b","ios":"levelo://app?vid=a53c049f-6f82-47cf-8dbf-2be4ba325c3b"},"vehicle_type_id":"4","last_reported":1730189591,"current_range_meters":38000,"station_id":"ce4bhnh2rcd13ifvqgug","pricing_plan_id":"cebpf4jnsgd1na2vs0mg"},{"bike_id":"e5eeca8e-eae6-4ded-8e97-461d735497ca","system_id":"levelo_inurba_marseille","lat":43.30138,"lon":5.37412,"is_reserved":false,"is_disabled":false,"rental_uris":{"android":"levelo://app?vid=e5eeca8e-eae6-4ded-8e97-461d735497ca","ios":"levelo://app?vid=e5eeca8e-eae6-4ded-8e97-461d735497ca"},"vehicle_type_id":"4","last_reported":1730189591,"current_range_meters":30800,"station_id":"","pricing_plan_id":"cebpf4jnsgd1na2vs0mg"},{"bike_id":"c83bf92a-895e-4031-90cc-0a4806604b3f","system_id":"levelo_inurba_marseille","lat":43.23054,"lon":5.35494,"is_reserved":false,"is_disabled":false,"rental_uris":{"android":"levelo://app?vid=c83bf92a-895e-4031-90cc-0a4806604b3f","ios":"levelo://app?vid=c83bf92a-895e-4031-90cc-0a4806604b3f"},"vehicle_type_id":"4","last_reported":1730189591,"current_range_meters":33200,"station_id":"cpo3342slgdg3j2ifvpg","pricing_plan_id":"cebpf4jnsgd1na2vs0mg"},{"bike_id":"428b1ad4-0543-45b1-966b-50120bd1e0f0","system_id":"levelo_inurba_marseille","lat":43.29274,"lon":5.36839,"is_reserved":false,"is_disabled":false,"rental_uris":{"android":"levelo://app?vid=428b1ad4-0543-45b1-966b-50120bd1e0f0","ios":"levelo://app?vid=428b1ad4-0543-45b1-966b-50120bd1e0f0"},"vehicle_type_id":"4","last_reported":1730189591,"current_range_meters":36800,"station_id":"ce4bhbp2rcd13ifvqesg","pricing_plan_id":"cebpf4jnsgd1na2vs0mg"},{"bike_id":"3f4e9f7d-d364-447b-b7a3-5938ab5df8c4","system_id":"levelo_inurba_marseille","lat":43.32482,"lon":5.36561,"is_reserved":false,"is_disabled":false,"rental_uris":{"android":"levelo://app?vid=3f4e9f7d-d364-447b-b7a3-5938ab5df8c4","ios":"levelo://app?vid=3f4e9f7d-d364-447b-b7a3-5938ab5df8c4"},"vehicle_type_id":"4","last_reported":1730189591,"current_range_meters":38800,"station_id":"ce4bhs12rcd13ifvqhvg","pricing_plan_id":"cebpf4jnsgd1na2vs0mg"},{"bike_id":"9fd56fad-5f3d-42b4-b491-7b57b76bc0cf","system_id":"levelo_inurba_marseille","lat":43.27808,"lon":5.40715,"is_reserved":false,"is_disabled":false,"rental_uris":{"android":"levelo://app?vid=9fd56fad-5f3d-42b4-b491-7b57b76bc0cf","ios":"levelo://app?vid=9fd56fad-5f3d-42b4-b491-7b57b76bc0cf"},"vehicle_type_id":"4","last_reported":1730189591,"current_range_meters":11600,"station_id":"ce4bhnh2rcd13ifvqgtg","pricing_plan_id":"cebpf4jnsgd1na2vs0mg"},{"bike_id":"dabdafcf-63d2-4cc4-890f-eabbcd91b9b3","system_id":"levelo_inurba_marseille","lat":43.30524,"lon":5.36707,"is_reserved":false,"is_disabled":false,"rental_uris":{"android":"levelo://app?vid=dabdafcf-63d2-4cc4-890f-eabbcd91b9b3","ios":"levelo://app?vid=dabdafcf-63d2-4cc4-890f-eabbcd91b9b3"},"vehicle_type_id":"4","last_reported":1730189591,"current_range_meters":23200,"station_id":"ce4bgrp2rcd13ifvqc9g","pricing_plan_id":"cebpf4jnsgd1na2vs0mg"},{"bike_id":"29e730b5-77d0-469f-aebb-f8f3daf3000c","system_id":"levelo_inurba_marseille","lat":43.24661,"lon":5.38157,"is_reserved":false,"is_disabled":false,"rental_uris":{"android":"levelo://app?vid=29e730b5-77d0-469f-aebb-f8f3daf3000c","ios":"levelo://app?vid=29e730b5-77d0-469f-aebb-f8f3daf3000c"},"vehicle_type_id":"4","last_reported":1730189591,"current_range_meters":22800,"station_id":"ce4bhih2rcd13ifvqfr0","pricing_plan_id":"cebpf4jnsgd1na2vs0mg"},{"bike_id":"d223370f-7cb9-467f-bd3e-fc947a59a2c5","system_id":"levelo_inurba_marseille","lat":43.27943,"lon":5.41048,"is_reserved":false,"is_disabled":false,"rental_uris":{"android":"levelo://app?vid=d223370f-7cb9-467f-bd3e-fc947a59a2c5","ios":"levelo://app?vid=d223370f-7cb9-467f-bd3e-fc947a59a2c5"},"vehicle_type_id":"4","last_reported":1730189591,"current_range_meters":38400,"station_id":"ce4bhnp2rcd13ifvqh0g","pricing_plan_id":"cebpf4jnsgd1na2vs0mg"},{"bike_id":"c6dca749-7f0f-4db6-96ab-a6f47fcb2234","system_id":"levelo_inurba_marseille","lat":43.24994,"lon":5.38935,"is_reserved":false,"is_disabled":false,"rental_uris":{"android":"levelo://app?vid=c6dca749-7f0f-4db6-96ab-a6f47fcb2234","ios":"levelo://app?vid=c6dca749-7f0f-4db6-96ab-a6f47fcb2234"},"vehicle_type_id":"4","last_reported":1730189591,"current_range_meters":8400,"station_id":"ce4bhgp2rcd13ifvqfd0","pricing_plan_id":"cebpf4jnsgd1na2vs0mg"},{"bike_id":"7ee50b70-bca8-49aa-b900-a39392477c4f","system_id":"levelo_inurba_marseille","lat":43.3248,"lon":5.36573,"is_reserved":false,"is_disabled":false,"rental_uris":{"android":"levelo://app?vid=7ee50b70-bca8-49aa-b900-a39392477c4f","ios":"levelo://app?vid=7ee50b70-bca8-49aa-b900-a39392477c4f"},"vehicle_type_id":"4","last_reported":1730189591,"current_range_meters":30000,"station_id":"ce4bhs12rcd13ifvqhvg","pricing_plan_id":"cebpf4jnsgd1na2vs0mg"},{"bike_id":"4d934123-5ca6-4ffb-ad0b-cdce384ae06d","system_id":"levelo_inurba_marseille","lat":43.25938,"lon":5.40903,"is_reserved":false,"is_disabled":false,"rental_uris":{"android":"levelo://app?vid=4d934123-5ca6-4ffb-ad0b-cdce384ae06d","ios":"levelo://app?vid=4d934123-5ca6-4ffb-ad0b-cdce384ae06d"},"vehicle_type_id":"4","last_reported":1730189591,"current_range_meters":34000,"station_id":"ce4bhm92rcd13ifvqglg","pricing_plan_id":"cebpf4jnsgd1na2vs0mg"},{"bike_id":"8366d555-804b-4c1b-a558-8cce48e0a368","system_id":"levelo_inurba_marseille","lat":43.30527,"lon":5.36717,"is_reserved":false,"is_disabled":false,"rental_uris":{"android":"levelo://app?vid=8366d555-804b-4c1b-a558-8cce48e0a368","ios":"levelo://app?vid=8366d555-804b-4c1b-a558-8cce48e0a368"},"vehicle_type_id":"4","last_reported":1730189591,"current_range_meters":14000,"station_id":"ce4bgrp2rcd13ifvqc9g","pricing_plan_id":"cebpf4jnsgd1na2vs0mg"},{"bike_id":"7414fd63-c17e-47e5-8d35-be8b60b5be10","system_id":"levelo_inurba_marseille","lat":43.31228,"lon":5.36873,"is_reserved":false,"is_disabled":false,"rental_uris":{"android":"levelo://app?vid=7414fd63-c17e-47e5-8d35-be8b60b5be10","ios":"levelo://app?vid=7414fd63-c17e-47e5-8d35-be8b60b5be10"},"vehicle_type_id":"4","last_reported":1730189591,"current_range_meters":34000,"station_id":"ce4bgl92rcd13ifvqbq0","pricing_plan_id":"cebpf4jnsgd1na2vs0mg"},{"bike_id":"9308a506-74a7-4f56-a3be-1be3a2809d50","system_id":"levelo_inurba_marseille","lat":43.29041,"lon":5.37568,"is_reserved":false,"is_disabled":false,"rental_uris":{"android":"levelo://app?vid=9308a506-74a7-4f56-a3be-1be3a2809d50","ios":"levelo://app?vid=9308a506-74a7-4f56-a3be-1be3a2809d50"},"vehicle_type_id":"4","last_reported":1730189591,"current_range_meters":27600,"station_id":"ce4bh692rcd13ifvqe90","pricing_plan_id":"cebpf4jnsgd1na2vs0mg"},{"bike_id":"a313f8fd-493b-4e2c-8ffb-26d9577abcd6","system_id":"levelo_inurba_marseille","lat":43.26797,"lon":5.3941,"is_reserved":false,"is_disabled":false,"rental_uris":{"android":"levelo://app?vid=a313f8fd-493b-4e2c-8ffb-26d9577abcd6","ios":"levelo://app?vid=a313f8fd-493b-4e2c-8ffb-26d9577abcd6"},"vehicle_type_id":"4","last_reported":1730189591,"current_range_meters":36000,"station_id":"ce4bhh12rcd13ifvqfg0","pricing_plan_id":"cebpf4jnsgd1na2vs0mg"},{"bike_id":"30da2a55-abfc-46da-a190-6a4d288386aa","system_id":"levelo_inurba_marseille","lat":43.29961,"lon":5.41316,"is_reserved":false,"is_disabled":false,"rental_uris":{"android":"levelo://app?vid=30da2a55-abfc-46da-a190-6a4d288386aa","ios":"levelo://app?vid=30da2a55-abfc-46da-a190-6a4d288386aa"},"vehicle_type_id":"4","last_reported":1730189591,"current_range_meters":22000,"station_id":"ce4bhp12rcd13ifvqh9g","pricing_plan_id":"cebpf4jnsgd1na2vs0mg"},{"bike_id":"cd3d7aad-cd9e-4cd5-8013-bfdfae137986","system_id":"levelo_inurba_marseille","lat":43.29306,"lon":5.37171,"is_reserved":false,"is_disabled":false,"rental_uris":{"android":"levelo://app?vid=cd3d7aad-cd9e-4cd5-8013-bfdfae137986","ios":"levelo://app?vid=cd3d7aad-cd9e-4cd5-8013-bfdfae137986"},"vehicle_type_id":"4","last_reported":1730189591,"current_range_meters":8400,"station_id":"ce4bgh92rcd13ifvqb40","pricing_plan_id":"cebpf4jnsgd1na2vs0mg"},{"bike_id":"9392ce40-a24d-4085-b8e5-c2a14c6a57c0","system_id":"levelo_inurba_marseille","lat":43.2512,"lon":5.40314,"is_reserved":false,"is_disabled":false,"rental_uris":{"android":"levelo://app?vid=9392ce40-a24d-4085-b8e5-c2a14c6a57c0","ios":"levelo://app?vid=9392ce40-a24d-4085-b8e5-c2a14c6a57c0"},"vehicle_type_id":"4","last_reported":1730189591,"current_range_meters":35600,"station_id":"ce4bhlh2rcd13ifvqgig","pricing_plan_id":"cebpf4jnsgd1na2vs0mg"},{"bike_id":"23672e5b-050f-4837-a454-e50245d17695","system_id":"levelo_inurba_marseille","lat":43.317,"lon":5.37762,"is_reserved":false,"is_disabled":false,"rental_uris":{"android":"levelo://app?vid=23672e5b-050f-4837-a454-e50245d17695","ios":"levelo://app?vid=23672e5b-050f-4837-a454-e50245d17695"},"vehicle_type_id":"4","last_reported":1730189591,"current_range_meters":38800,"station_id":"ce4bgth2rcd13ifvqch0","pricing_plan_id":"cebpf4jnsgd1na2vs0mg"},{"bike_id":"7d448865-89d6-47db-9acc-4a303dfc59b2","system_id":"levelo_inurba_marseille","lat":43.30289,"lon":5.37701,"is_reserved":false,"is_disabled":false,"rental_uris":{"android":"levelo://app?vid=7d448865-89d6-47db-9acc-4a303dfc59b2","ios":"levelo://app?vid=7d448865-89d6-47db-9acc-4a303dfc59b2"},"vehicle_type_id":"4","last_reported":1730189591,"current_range_meters":34000,"station_id":"ce4bguh2rcd13ifvqcj0","pricing_plan_id":"cebpf4jnsgd1na2vs0mg"},{"bike_id":"e09d0544-7571-405a-9ba5-909482db8629","system_id":"levelo_inurba_marseille","lat":43.29843,"lon":5.36264,"is_reserved":false,"is_disabled":false,"rental_uris":{"android":"levelo://app?vid=e09d0544-7571-405a-9ba5-909482db8629","ios":"levelo://app?vid=e09d0544-7571-405a-9ba5-909482db8629"},"vehicle_type_id":"4","last_reported":1730189591,"current_range_meters":36800,"station_id":"ce4bgpp2rcd13ifvqc3g","pricing_plan_id":"cebpf4jnsgd1na2vs0mg"},{"bike_id":"893a5e2b-ed72-446f-9b05-27b96ec442a9","system_id":"levelo_inurba_marseille","lat":43.28278,"lon":5.35086,"is_reserved":false,"is_disabled":false,"rental_uris":{"android":"levelo://app?vid=893a5e2b-ed72-446f-9b05-27b96ec442a9","ios":"levelo://app?vid=893a5e2b-ed72-446f-9b05-27b96ec442a9"},"vehicle_type_id":"4","last_reported":1730189591,"current_range_meters":22000,"station_id":"ce4bhbp2rcd13ifvqerg","pricing_plan_id":"cebpf4jnsgd1na2vs0mg"},{"bike_id":"2a219e50-458b-40ea-a314-a231c77b3f6d","system_id":"levelo_inurba_marseille","lat":43.31344,"lon":5.36712,"is_reserved":false,"is_disabled":false,"rental_uris":{"android":"levelo://app?vid=2a219e50-458b-40ea-a314-a231c77b3f6d","ios":"levelo://app?vid=2a219e50-458b-40ea-a314-a231c77b3f6d"},"vehicle_type_id":"4","last_reported":1730189591,"current_range_meters":10800,"station_id":"ce4bgr92rcd13ifvqc6g","pricing_plan_id":"cebpf4jnsgd1na2vs0mg"},{"bike_id":"df951adf-e6c9-46a7-a012-af0d884c05f9","system_id":"levelo_inurba_marseille","lat":43.26683,"lon":5.38272,"is_reserved":false,"is_disabled":false,"rental_uris":{"android":"levelo://app?vid=df951adf-e6c9-46a7-a012-af0d884c05f9","ios":"levelo://app?vid=df951adf-e6c9-46a7-a012-af0d884c05f9"},"vehicle_type_id":"4","last_reported":1730189591,"current_range_meters":32800,"station_id":"ce4bhg92rcd13ifvqf90","pricing_plan_id":"cebpf4jnsgd1na2vs0mg"},{"bike_id":"ce0a04ae-d572-445e-90cf-db01d0ba795c","system_id":"levelo_inurba_marseille","lat":43.31331,"lon":5.36702,"is_reserved":false,"is_disabled":false,"rental_uris":{"android":"levelo://app?vid=ce0a04ae-d572-445e-90cf-db01d0ba795c","ios":"levelo://app?vid=ce0a04ae-d572-445e-90cf-db01d0ba795c"},"vehicle_type_id":"4","last_reported":1730189591,"current_range_meters":30800,"station_id":"ce4bgr92rcd13ifvqc6g","pricing_plan_id":"cebpf4jnsgd1na2vs0mg"},{"bike_id":"c10b7c2c-215b-42b7-bf6f-5707822b2d61","system_id":"levelo_inurba_marseille","lat":43.2593,"lon":5.40904,"is_reserved":false,"is_disabled":false,"rental_uris":{"android":"levelo://app?vid=c10b7c2c-215b-42b7-bf6f-5707822b2d61","ios":"levelo://app?vid=c10b7c2c-215b-42b7-bf6f-5707822b2d61"},"vehicle_type_id":"4","last_reported":1730189591,"current_range_meters":29600,"station_id":"ce4bhm92rcd13ifvqglg","pricing_plan_id":"cebpf4jnsgd1na2vs0mg"},{"bike_id":"b1f81418-f03e-460d-ba36-6db2cbc70627","system_id":"levelo_inurba_marseille","lat":43.2958,"lon":5.36736,"is_reserved":false,"is_disabled":false,"rental_uris":{"android":"levelo://app?vid=b1f81418-f03e-460d-ba36-6db2cbc70627","ios":"levelo://app?vid=b1f81418-f03e-460d-ba36-6db2cbc70627"},"vehicle_type_id":"4","last_reported":1730189591,"current_range_meters":38400,"station_id":"ce4bgph2rcd13ifvqc2g","pricing_plan_id":"cebpf4jnsgd1na2vs0mg"},{"bike_id":"f7a50275-88a4-4be4-ac33-5cce1242cfaa","system_id":"levelo_inurba_marseille","lat":43.31657,"lon":5.37687,"is_reserved":false,"is_disabled":false,"rental_uris":{"android":"levelo://app?vid=f7a50275-88a4-4be4-ac33-5cce1242cfaa","ios":"levelo://app?vid=f7a50275-88a4-4be4-ac33-5cce1242cfaa"},"vehicle_type_id":"4","last_reported":1730189591,"current_range_meters":35600,"station_id":"","pricing_plan_id":"cebpf4jnsgd1na2vs0mg"},{"bike_id":"431f48f2-fa9b-4e07-9f42-86fe06031a0e","system_id":"levelo_inurba_marseille","lat":43.282349,"lon":5.350814,"is_reserved":false,"is_disabled":false,"rental_uris":{"android":"levelo://app?vid=431f48f2-fa9b-4e07-9f42-86fe06031a0e","ios":"levelo://app?vid=431f48f2-fa9b-4e07-9f42-86fe06031a0e"},"vehicle_type_id":"4","last_reported":1730189591,"current_range_meters":28800,"station_id":"ce4bhip2rcd13ifvqft0","pricing_plan_id":"cebpf4jnsgd1na2vs0mg"},{"bike_id":"3cc4a7fa-a503-4dec-95b5-fbfea5c84329","system_id":"levelo_inurba_marseille","lat":43.30952,"lon":5.39024,"is_reserved":false,"is_disabled":false,"rental_uris":{"android":"levelo://app?vid=3cc4a7fa-a503-4dec-95b5-fbfea5c84329","ios":"levelo://app?vid=3cc4a7fa-a503-4dec-95b5-fbfea5c84329"},"vehicle_type_id":"4","last_reported":1730189591,"current_range_meters":19600,"station_id":"ce4bgup2rcd13ifvqco0","pricing_plan_id":"cebpf4jnsgd1na2vs0mg"},{"bike_id":"e2e0cb9b-e038-4f3c-9f15-a889a0d6743f","system_id":"levelo_inurba_marseille","lat":43.324598,"lon":5.365542,"is_reserved":false,"is_disabled":false,"rental_uris":{"android":"levelo://app?vid=e2e0cb9b-e038-4f3c-9f15-a889a0d6743f","ios":"levelo://app?vid=e2e0cb9b-e038-4f3c-9f15-a889a0d6743f"},"vehicle_type_id":"4","last_reported":1730189591,"current_range_meters":30400,"station_id":"ce4bhs12rcd13ifvqhvg","pricing_plan_id":"cebpf4jnsgd1na2vs0mg"},{"bike_id":"3ae749c1-46ed-4d6f-8a2b-05668312da6a","system_id":"levelo_inurba_marseille","lat":43.25105,"lon":5.40327,"is_reserved":false,"is_disabled":false,"rental_uris":{"android":"levelo://app?vid=3ae749c1-46ed-4d6f-8a2b-05668312da6a","ios":"levelo://app?vid=3ae749c1-46ed-4d6f-8a2b-05668312da6a"},"vehicle_type_id":"4","last_reported":1730189591,"current_range_meters":16400,"station_id":"ce4bhlh2rcd13ifvqgig","pricing_plan_id":"cebpf4jnsgd1na2vs0mg"},{"bike_id":"948a5f00-cdf1-4338-8856-38feccc2f000","system_id":"levelo_inurba_marseille","lat":43.297,"lon":5.3729,"is_reserved":false,"is_disabled":false,"rental_uris":{"android":"levelo://app?vid=948a5f00-cdf1-4338-8856-38feccc2f000","ios":"levelo://app?vid=948a5f00-cdf1-4338-8856-38feccc2f000"},"vehicle_type_id":"4","last_reported":1730189591,"current_range_meters":38000,"station_id":"ce4bgk12rcd13ifvqbj0","pricing_plan_id":"cebpf4jnsgd1na2vs0mg"},{"bike_id":"95048e77-936d-4acd-84b5-3f8fd209ed9a","system_id":"levelo_inurba_marseille","lat":43.30296,"lon":5.36906,"is_reserved":false,"is_disabled":false,"rental_uris":{"android":"levelo://app?vid=95048e77-936d-4acd-84b5-3f8fd209ed9a","ios":"levelo://app?vid=95048e77-936d-4acd-84b5-3f8fd209ed9a"},"vehicle_type_id":"4","last_reported":1730189591,"current_range_meters":39200,"station_id":"ce4bgqh2rcd13ifvqc5g","pricing_plan_id":"cebpf4jnsgd1na2vs0mg"},{"bike_id":"4a7d2e78-51b9-46d2-bf89-98a48709d13a","system_id":"levelo_inurba_marseille","lat":43.31719,"lon":5.42404,"is_reserved":false,"is_disabled":false,"rental_uris":{"android":"levelo://app?vid=4a7d2e78-51b9-46d2-bf89-98a48709d13a","ios":"levelo://app?vid=4a7d2e78-51b9-46d2-bf89-98a48709d13a"},"vehicle_type_id":"4","last_reported":1730189591,"current_range_meters":38800,"station_id":"ce4bhp92rcd13ifvqhbg","pricing_plan_id":"cebpf4jnsgd1na2vs0mg"},{"bike_id":"f99bccd3-d3a6-4026-8c96-f3f15e63c7d1","system_id":"levelo_inurba_marseille","lat":43.31233,"lon":5.36842,"is_reserved":false,"is_disabled":false,"rental_uris":{"android":"levelo://app?vid=f99bccd3-d3a6-4026-8c96-f3f15e63c7d1","ios":"levelo://app?vid=f99bccd3-d3a6-4026-8c96-f3f15e63c7d1"},"vehicle_type_id":"4","last_reported":1730189591,"current_range_meters":39200,"station_id":"ce4bgl92rcd13ifvqbq0","pricing_plan_id":"cebpf4jnsgd1na2vs0mg"},{"bike_id":"0c53382f-83fb-45ec-871d-d4e880c7383e","system_id":"levelo_inurba_marseille","lat":43.28004,"lon":5.40009,"is_reserved":false,"is_disabled":false,"rental_uris":{"android":"levelo://app?vid=0c53382f-83fb-45ec-871d-d4e880c7383e","ios":"levelo://app?vid=0c53382f-83fb-45ec-871d-d4e880c7383e"},"vehicle_type_id":"4","last_reported":1730189591,"current_range_meters":15200,"station_id":"ce4bho92rcd13ifvqh4g","pricing_plan_id":"cebpf4jnsgd1na2vs0mg"},{"bike_id":"fbc27b08-f101-4599-8f6b-beb812780993","system_id":"levelo_inurba_marseille","lat":43.29896,"lon":5.43666,"is_reserved":false,"is_disabled":false,"rental_uris":{"android":"levelo://app?vid=fbc27b08-f101-4599-8f6b-beb812780993","ios":"levelo://app?vid=fbc27b08-f101-4599-8f6b-beb812780993"},"vehicle_type_id":"4","last_reported":1730189591,"current_range_meters":38800,"station_id":"ce4bhpp2rcd13ifvqhfg","pricing_plan_id":"cebpf4jnsgd1na2vs0mg"},{"bike_id":"a4c48a3c-1b82-4956-80be-6be3342d47bb","system_id":"levelo_inurba_marseille","lat":43.26947,"lon":5.40249,"is_reserved":false,"is_disabled":false,"rental_uris":{"android":"levelo://app?vid=a4c48a3c-1b82-4956-80be-6be3342d47bb","ios":"levelo://app?vid=a4c48a3c-1b82-4956-80be-6be3342d47bb"},"vehicle_type_id":"4","last_reported":1730189591,"current_range_meters":38000,"station_id":"cjm6bp8fraef2m0cb0m0","pricing_plan_id":"cebpf4jnsgd1na2vs0mg"},{"bike_id":"3e725de5-1ac6-43aa-b569-e9e8da479788","system_id":"levelo_inurba_marseille","lat":43.25937,"lon":5.40897,"is_reserved":false,"is_disabled":false,"rental_uris":{"android":"levelo://app?vid=3e725de5-1ac6-43aa-b569-e9e8da479788","ios":"levelo://app?vid=3e725de5-1ac6-43aa-b569-e9e8da479788"},"vehicle_type_id":"4","last_reported":1730189591,"current_range_meters":5600,"station_id":"ce4bhm92rcd13ifvqglg","pricing_plan_id":"cebpf4jnsgd1na2vs0mg"},{"bike_id":"706e5c65-db7b-4329-94ae-65a3d1e35f39","system_id":"levelo_inurba_marseille","lat":43.30526,"lon":5.367092,"is_reserved":false,"is_disabled":false,"rental_uris":{"android":"levelo://app?vid=706e5c65-db7b-4329-94ae-65a3d1e35f39","ios":"levelo://app?vid=706e5c65-db7b-4329-94ae-65a3d1e35f39"},"vehicle_type_id":"4","last_reported":1730189591,"current_range_meters":32000,"station_id":"ce4bgrp2rcd13ifvqc9g","pricing_plan_id":"cebpf4jnsgd1na2vs0mg"},{"bike_id":"9befed88-9f8c-464c-b07b-093bd97066bb","system_id":"levelo_inurba_marseille","lat":43.29805,"lon":5.37136,"is_reserved":false,"is_disabled":false,"rental_uris":{"android":"levelo://app?vid=9befed88-9f8c-464c-b07b-093bd97066bb","ios":"levelo://app?vid=9befed88-9f8c-464c-b07b-093bd97066bb"},"vehicle_type_id":"4","last_reported":1730189591,"current_range_meters":11600,"station_id":"","pricing_plan_id":"cebpf4jnsgd1na2vs0mg"},{"bike_id":"c8a92740-2b09-4ca5-9043-1ba83935e34d","system_id":"levelo_inurba_marseille","lat":43.24391,"lon":5.37065,"is_reserved":false,"is_disabled":false,"rental_uris":{"android":"levelo://app?vid=c8a92740-2b09-4ca5-9043-1ba83935e34d","ios":"levelo://app?vid=c8a92740-2b09-4ca5-9043-1ba83935e34d"},"vehicle_type_id":"4","last_reported":1730189591,"current_range_meters":38000,"station_id":"ce4bhhh2rcd13ifvqfk0","pricing_plan_id":"cebpf4jnsgd1na2vs0mg"},{"bike_id":"f9b128ce-498f-42c7-bec6-83e99e8e3eaa","system_id":"levelo_inurba_marseille","lat":43.25725,"lon":5.41101,"is_reserved":false,"is_disabled":false,"rental_uris":{"android":"levelo://app?vid=f9b128ce-498f-42c7-bec6-83e99e8e3eaa","ios":"levelo://app?vid=f9b128ce-498f-42c7-bec6-83e99e8e3eaa"},"vehicle_type_id":"4","last_reported":1730189591,"current_range_meters":38800,"station_id":"ce4bhkp2rcd13ifvqgd0","pricing_plan_id":"cebpf4jnsgd1na2vs0mg"},{"bike_id":"d89738db-46f7-4419-afe9-5c262921f5df","system_id":"levelo_inurba_marseille","lat":43.26205,"lon":5.37448,"is_reserved":false,"is_disabled":false,"rental_uris":{"android":"levelo://app?vid=d89738db-46f7-4419-afe9-5c262921f5df","ios":"levelo://app?vid=d89738db-46f7-4419-afe9-5c262921f5df"},"vehicle_type_id":"4","last_reported":1730189591,"current_range_meters":28400,"station_id":"ce4bhgp2rcd13ifvqfc0","pricing_plan_id":"cebpf4jnsgd1na2vs0mg"},{"bike_id":"2939a545-bf49-4ac9-84eb-69dd8138616a","system_id":"levelo_inurba_marseille","lat":43.2718,"lon":5.40994,"is_reserved":false,"is_disabled":false,"rental_uris":{"android":"levelo://app?vid=2939a545-bf49-4ac9-84eb-69dd8138616a","ios":"levelo://app?vid=2939a545-bf49-4ac9-84eb-69dd8138616a"},"vehicle_type_id":"4","last_reported":1730189591,"current_range_meters":38400,"station_id":"ce4bhl12rcd13ifvqgf0","pricing_plan_id":"cebpf4jnsgd1na2vs0mg"},{"bike_id":"f9a2aa18-615d-43f8-9a19-eb948e242e45","system_id":"levelo_inurba_marseille","lat":43.25007,"lon":5.38912,"is_reserved":false,"is_disabled":false,"rental_uris":{"android":"levelo://app?vid=f9a2aa18-615d-43f8-9a19-eb948e242e45","ios":"levelo://app?vid=f9a2aa18-615d-43f8-9a19-eb948e242e45"},"vehicle_type_id":"4","last_reported":1730189591,"current_range_meters":38000,"station_id":"ce4bhgp2rcd13ifvqfd0","pricing_plan_id":"cebpf4jnsgd1na2vs0mg"},{"bike_id":"1641e2d9-e39a-4f2a-a551-3a59775f9162","system_id":"levelo_inurba_marseille","lat":43.32481,"lon":5.3657,"is_reserved":false,"is_disabled":false,"rental_uris":{"android":"levelo://app?vid=1641e2d9-e39a-4f2a-a551-3a59775f9162","ios":"levelo://app?vid=1641e2d9-e39a-4f2a-a551-3a59775f9162"},"vehicle_type_id":"4","last_reported":1730189591,"current_range_meters":8000,"station_id":"ce4bhs12rcd13ifvqhvg","pricing_plan_id":"cebpf4jnsgd1na2vs0mg"},{"bike_id":"2ddd64d2-77b7-4f49-82ad-8174fb505e6f","system_id":"levelo_inurba_marseille","lat":43.32042,"lon":5.41547,"is_reserved":false,"is_disabled":false,"rental_uris":{"android":"levelo://app?vid=2ddd64d2-77b7-4f49-82ad-8174fb505e6f","ios":"levelo://app?vid=2ddd64d2-77b7-4f49-82ad-8174fb505e6f"},"vehicle_type_id":"4","last_reported":1730189591,"current_range_meters":31200,"station_id":"ce4bhq92rcd13ifvqhkg","pricing_plan_id":"cebpf4jnsgd1na2vs0mg"},{"bike_id":"99be546e-23a0-4a8f-897d-f4ebd4b3bc15","system_id":"levelo_inurba_marseille","lat":43.27377,"lon":5.36258,"is_reserved":false,"is_disabled":false,"rental_uris":{"android":"levelo://app?vid=99be546e-23a0-4a8f-897d-f4ebd4b3bc15","ios":"levelo://app?vid=99be546e-23a0-4a8f-897d-f4ebd4b3bc15"},"vehicle_type_id":"4","last_reported":1730189591,"current_range_meters":38000,"station_id":"ce4bhbh2rcd13ifvqeo0","pricing_plan_id":"cebpf4jnsgd1na2vs0mg"},{"bike_id":"7fa4e6bb-4309-458d-a37c-7fded8f16b44","system_id":"levelo_inurba_marseille","lat":43.31367,"lon":5.36704,"is_reserved":false,"is_disabled":false,"rental_uris":{"android":"levelo://app?vid=7fa4e6bb-4309-458d-a37c-7fded8f16b44","ios":"levelo://app?vid=7fa4e6bb-4309-458d-a37c-7fded8f16b44"},"vehicle_type_id":"4","last_reported":1730189591,"current_range_meters":16400,"station_id":"ce4bgr92rcd13ifvqc6g","pricing_plan_id":"cebpf4jnsgd1na2vs0mg"},{"bike_id":"844023ff-6d0b-454c-9110-ed149a7ecdf3","system_id":"levelo_inurba_marseille","lat":43.33613,"lon":5.41028,"is_reserved":false,"is_disabled":false,"rental_uris":{"android":"levelo://app?vid=844023ff-6d0b-454c-9110-ed149a7ecdf3","ios":"levelo://app?vid=844023ff-6d0b-454c-9110-ed149a7ecdf3"},"vehicle_type_id":"4","last_reported":1730189591,"current_range_meters":17600,"station_id":"ce4bhqh2rcd13ifvqhmg","pricing_plan_id":"cebpf4jnsgd1na2vs0mg"},{"bike_id":"86cc0f01-10a0-4cdb-b1e7-4d6e7cd80c0e","system_id":"levelo_inurba_marseille","lat":43.32478,"lon":5.36566,"is_reserved":false,"is_disabled":false,"rental_uris":{"android":"levelo://app?vid=86cc0f01-10a0-4cdb-b1e7-4d6e7cd80c0e","ios":"levelo://app?vid=86cc0f01-10a0-4cdb-b1e7-4d6e7cd80c0e"},"vehicle_type_id":"4","last_reported":1730189591,"current_range_meters":28400,"station_id":"ce4bhs12rcd13ifvqhvg","pricing_plan_id":"cebpf4jnsgd1na2vs0mg"},{"bike_id":"fb1b1a6c-a24e-4b48-918d-880a58c80d58","system_id":"levelo_inurba_marseille","lat":43.25004,"lon":5.3892,"is_reserved":false,"is_disabled":false,"rental_uris":{"android":"levelo://app?vid=fb1b1a6c-a24e-4b48-918d-880a58c80d58","ios":"levelo://app?vid=fb1b1a6c-a24e-4b48-918d-880a58c80d58"},"vehicle_type_id":"4","last_reported":1730189591,"current_range_meters":9600,"station_id":"ce4bhgp2rcd13ifvqfd0","pricing_plan_id":"cebpf4jnsgd1na2vs0mg"},{"bike_id":"5dc1d898-0a14-423f-bebd-b4e6ce485f18","system_id":"levelo_inurba_marseille","lat":43.27211,"lon":5.39183,"is_reserved":false,"is_disabled":false,"rental_uris":{"android":"levelo://app?vid=5dc1d898-0a14-423f-bebd-b4e6ce485f18","ios":"levelo://app?vid=5dc1d898-0a14-423f-bebd-b4e6ce485f18"},"vehicle_type_id":"4","last_reported":1730189591,"current_range_meters":25200,"station_id":"ce4bhhp2rcd13ifvqfm0","pricing_plan_id":"cebpf4jnsgd1na2vs0mg"},{"bike_id":"0653fcdd-e92d-452f-8f98-0dbb80bc8e0d","system_id":"levelo_inurba_marseille","lat":43.3248,"lon":5.36569,"is_reserved":false,"is_disabled":false,"rental_uris":{"android":"levelo://app?vid=0653fcdd-e92d-452f-8f98-0dbb80bc8e0d","ios":"levelo://app?vid=0653fcdd-e92d-452f-8f98-0dbb80bc8e0d"},"vehicle_type_id":"4","last_reported":1730189591,"current_range_meters":36000,"station_id":"ce4bhs12rcd13ifvqhvg","pricing_plan_id":"cebpf4jnsgd1na2vs0mg"},{"bike_id":"03078b0d-7eef-4212-b91b-9339bda80681","system_id":"levelo_inurba_marseille","lat":43.33746,"lon":5.37451,"is_reserved":false,"is_disabled":false,"rental_uris":{"android":"levelo://app?vid=03078b0d-7eef-4212-b91b-9339bda80681","ios":"levelo://app?vid=03078b0d-7eef-4212-b91b-9339bda80681"},"vehicle_type_id":"4","last_reported":1730189591,"current_range_meters":38400,"station_id":"","pricing_plan_id":"cebpf4jnsgd1na2vs0mg"},{"bike_id":"2d12c957-3c21-49fc-84ec-80691e697d95","system_id":"levelo_inurba_marseille","lat":43.2972,"lon":5.37684,"is_reserved":false,"is_disabled":false,"rental_uris":{"android":"levelo://app?vid=2d12c957-3c21-49fc-84ec-80691e697d95","ios":"levelo://app?vid=2d12c957-3c21-49fc-84ec-80691e697d95"},"vehicle_type_id":"4","last_reported":1730189591,"current_range_meters":39200,"station_id":"ce4bgkh2rcd13ifvqbl0","pricing_plan_id":"cebpf4jnsgd1na2vs0mg"},{"bike_id":"97cc833a-c2c1-4a97-8364-d4a0c1111b09","system_id":"levelo_inurba_marseille","lat":43.337444,"lon":5.374475,"is_reserved":false,"is_disabled":false,"rental_uris":{"android":"levelo://app?vid=97cc833a-c2c1-4a97-8364-d4a0c1111b09","ios":"levelo://app?vid=97cc833a-c2c1-4a97-8364-d4a0c1111b09"},"vehicle_type_id":"4","last_reported":1730189591,"current_range_meters":26000,"station_id":"","pricing_plan_id":"cebpf4jnsgd1na2vs0mg"},{"bike_id":"4f18b26c-ebf2-48cd-93a7-f4f2ec23735b","system_id":"levelo_inurba_marseille","lat":43.29045,"lon":5.39956,"is_reserved":false,"is_disabled":false,"rental_uris":{"android":"levelo://app?vid=4f18b26c-ebf2-48cd-93a7-f4f2ec23735b","ios":"levelo://app?vid=4f18b26c-ebf2-48cd-93a7-f4f2ec23735b"},"vehicle_type_id":"4","last_reported":1730189591,"current_range_meters":37600,"station_id":"ce4bh392rcd13ifvqdm0","pricing_plan_id":"cebpf4jnsgd1na2vs0mg"},{"bike_id":"8a6265c5-55bd-4caa-b4ca-76fa64e5ac08","system_id":"levelo_inurba_marseille","lat":43.30893,"lon":5.37195,"is_reserved":false,"is_disabled":false,"rental_uris":{"android":"levelo://app?vid=8a6265c5-55bd-4caa-b4ca-76fa64e5ac08","ios":"levelo://app?vid=8a6265c5-55bd-4caa-b4ca-76fa64e5ac08"},"vehicle_type_id":"4","last_reported":1730189591,"current_range_meters":38800,"station_id":"ce4bguh2rcd13ifvqckg","pricing_plan_id":"cebpf4jnsgd1na2vs0mg"},{"bike_id":"e31650d1-6313-4c09-96ff-bc5a7403b852","system_id":"levelo_inurba_marseille","lat":43.32341,"lon":5.40605,"is_reserved":false,"is_disabled":false,"rental_uris":{"android":"levelo://app?vid=e31650d1-6313-4c09-96ff-bc5a7403b852","ios":"levelo://app?vid=e31650d1-6313-4c09-96ff-bc5a7403b852"},"vehicle_type_id":"4","last_reported":1730189591,"current_range_meters":38800,"station_id":"ce4bhq92rcd13ifvqhjg","pricing_plan_id":"cebpf4jnsgd1na2vs0mg"},{"bike_id":"aefac986-b0c6-43dd-b63b-a00cd751d12d","system_id":"levelo_inurba_marseille","lat":43.31998,"lon":5.38152,"is_reserved":false,"is_disabled":false,"rental_uris":{"android":"levelo://app?vid=aefac986-b0c6-43dd-b63b-a00cd751d12d","ios":"levelo://app?vid=aefac986-b0c6-43dd-b63b-a00cd751d12d"},"vehicle_type_id":"4","last_reported":1730189591,"current_range_meters":38800,"station_id":"ce4bhr12rcd13ifvqhpg","pricing_plan_id":"cebpf4jnsgd1na2vs0mg"},{"bike_id":"85b586a7-11ad-40a8-9bd6-4a2e9d99f9df","system_id":"levelo_inurba_marseille","lat":43.30539,"lon":5.36548,"is_reserved":false,"is_disabled":false,"rental_uris":{"android":"levelo://app?vid=85b586a7-11ad-40a8-9bd6-4a2e9d99f9df","ios":"levelo://app?vid=85b586a7-11ad-40a8-9bd6-4a2e9d99f9df"},"vehicle_type_id":"4","last_reported":1730189591,"current_range_meters":33600,"station_id":"ce4bgs12rcd13ifvqcag","pricing_plan_id":"cebpf4jnsgd1na2vs0mg"},{"bike_id":"bb2e6c31-bada-4ebc-afad-ca813230e716","system_id":"levelo_inurba_marseille","lat":43.25935,"lon":5.40904,"is_reserved":false,"is_disabled":false,"rental_uris":{"android":"levelo://app?vid=bb2e6c31-bada-4ebc-afad-ca813230e716","ios":"levelo://app?vid=bb2e6c31-bada-4ebc-afad-ca813230e716"},"vehicle_type_id":"4","last_reported":1730189591,"current_range_meters":21600,"station_id":"ce4bhm92rcd13ifvqglg","pricing_plan_id":"cebpf4jnsgd1na2vs0mg"},{"bike_id":"007501b5-fe7f-43cc-967c-0bb379b53cf6","system_id":"levelo_inurba_marseille","lat":43.32337,"lon":5.40616,"is_reserved":false,"is_disabled":false,"rental_uris":{"android":"levelo://app?vid=007501b5-fe7f-43cc-967c-0bb379b53cf6","ios":"levelo://app?vid=007501b5-fe7f-43cc-967c-0bb379b53cf6"},"vehicle_type_id":"4","last_reported":1730189591,"current_range_meters":38800,"station_id":"ce4bgv12rcd13ifvqcp0","pricing_plan_id":"cebpf4jnsgd1na2vs0mg"},{"bike_id":"5bf69e26-7f99-40d3-8c2f-27b2c43c1336","system_id":"levelo_inurba_marseille","lat":43.23151,"lon":5.43719,"is_reserved":false,"is_disabled":false,"rental_uris":{"android":"levelo://app?vid=5bf69e26-7f99-40d3-8c2f-27b2c43c1336","ios":"levelo://app?vid=5bf69e26-7f99-40d3-8c2f-27b2c43c1336"},"vehicle_type_id":"4","last_reported":1730189591,"current_range_meters":26800,"station_id":"ce4bhmp2rcd13ifvqgog","pricing_plan_id":"cebpf4jnsgd1na2vs0mg"},{"bike_id":"a6d4d9fa-1bc6-4eb5-8c45-135b1ef24442","system_id":"levelo_inurba_marseille","lat":43.29671,"lon":5.37288,"is_reserved":false,"is_disabled":false,"rental_uris":{"android":"levelo://app?vid=a6d4d9fa-1bc6-4eb5-8c45-135b1ef24442","ios":"levelo://app?vid=a6d4d9fa-1bc6-4eb5-8c45-135b1ef24442"},"vehicle_type_id":"4","last_reported":1730189591,"current_range_meters":39200,"station_id":"ce4bgk12rcd13ifvqbj0","pricing_plan_id":"cebpf4jnsgd1na2vs0mg"},{"bike_id":"0316a222-a1e9-463b-af88-f5fd71cc9288","system_id":"levelo_inurba_marseille","lat":43.29796,"lon":5.40396,"is_reserved":false,"is_disabled":false,"rental_uris":{"android":"levelo://app?vid=0316a222-a1e9-463b-af88-f5fd71cc9288","ios":"levelo://app?vid=0316a222-a1e9-463b-af88-f5fd71cc9288"},"vehicle_type_id":"4","last_reported":1730189591,"current_range_meters":17600,"station_id":"ce4bh112rcd13ifvqd90","pricing_plan_id":"cebpf4jnsgd1na2vs0mg"},{"bike_id":"a115272b-d982-443a-87c0-8ebb7cafe252","system_id":"levelo_inurba_marseille","lat":43.24075,"lon":5.37756,"is_reserved":false,"is_disabled":false,"rental_uris":{"android":"levelo://app?vid=a115272b-d982-443a-87c0-8ebb7cafe252","ios":"levelo://app?vid=a115272b-d982-443a-87c0-8ebb7cafe252"},"vehicle_type_id":"4","last_reported":1730189591,"current_range_meters":10800,"station_id":"ce4bhnp2rcd13ifvqgvg","pricing_plan_id":"cebpf4jnsgd1na2vs0mg"},{"bike_id":"aed893fd-e5e4-4905-8d17-3ab822a798f2","system_id":"levelo_inurba_marseille","lat":43.30949,"lon":5.39035,"is_reserved":false,"is_disabled":false,"rental_uris":{"android":"levelo://app?vid=aed893fd-e5e4-4905-8d17-3ab822a798f2","ios":"levelo://app?vid=aed893fd-e5e4-4905-8d17-3ab822a798f2"},"vehicle_type_id":"4","last_reported":1730189591,"current_range_meters":28000,"station_id":"ce4bgup2rcd13ifvqco0","pricing_plan_id":"cebpf4jnsgd1na2vs0mg"},{"bike_id":"f802e4cc-0bef-4d2d-8508-91a733c70390","system_id":"levelo_inurba_marseille","lat":43.29637,"lon":5.40602,"is_reserved":false,"is_disabled":false,"rental_uris":{"android":"levelo://app?vid=f802e4cc-0bef-4d2d-8508-91a733c70390","ios":"levelo://app?vid=f802e4cc-0bef-4d2d-8508-91a733c70390"},"vehicle_type_id":"4","last_reported":1730189591,"current_range_meters":38800,"station_id":"ce4bh0h2rcd13ifvqd60","pricing_plan_id":"cebpf4jnsgd1na2vs0mg"},{"bike_id":"7e30e268-ecec-4fd2-be52-8b3863ce97d7","system_id":"levelo_inurba_marseille","lat":43.3047,"lon":5.3713,"is_reserved":false,"is_disabled":false,"rental_uris":{"android":"levelo://app?vid=7e30e268-ecec-4fd2-be52-8b3863ce97d7","ios":"levelo://app?vid=7e30e268-ecec-4fd2-be52-8b3863ce97d7"},"vehicle_type_id":"4","last_reported":1730189591,"current_range_meters":14400,"station_id":"","pricing_plan_id":"cebpf4jnsgd1na2vs0mg"},{"bike_id":"042d86ea-7ee7-46e1-ad4f-9f31badbad8c","system_id":"levelo_inurba_marseille","lat":43.3056,"lon":5.36515,"is_reserved":false,"is_disabled":false,"rental_uris":{"android":"levelo://app?vid=042d86ea-7ee7-46e1-ad4f-9f31badbad8c","ios":"levelo://app?vid=042d86ea-7ee7-46e1-ad4f-9f31badbad8c"},"vehicle_type_id":"4","last_reported":1730189591,"current_range_meters":37600,"station_id":"ce4bgs12rcd13ifvqcag","pricing_plan_id":"cebpf4jnsgd1na2vs0mg"},{"bike_id":"d93cf948-31a0-48af-ad3a-1830c6498f1d","system_id":"levelo_inurba_marseille","lat":43.30143,"lon":5.37421,"is_reserved":false,"is_disabled":false,"rental_uris":{"android":"levelo://app?vid=d93cf948-31a0-48af-ad3a-1830c6498f1d","ios":"levelo://app?vid=d93cf948-31a0-48af-ad3a-1830c6498f1d"},"vehicle_type_id":"4","last_reported":1730189591,"current_range_meters":36800,"station_id":"ce4bgs92rcd13ifvqcc0","pricing_plan_id":"cebpf4jnsgd1na2vs0mg"},{"bike_id":"2e15a315-6686-4ca1-ad3d-3d92a2178bb6","system_id":"levelo_inurba_marseille","lat":43.24166,"lon":5.36391,"is_reserved":false,"is_disabled":false,"rental_uris":{"android":"levelo://app?vid=2e15a315-6686-4ca1-ad3d-3d92a2178bb6","ios":"levelo://app?vid=2e15a315-6686-4ca1-ad3d-3d92a2178bb6"},"vehicle_type_id":"4","last_reported":1730189591,"current_range_meters":28400,"station_id":"cpo36qri1sfpv3e86is0","pricing_plan_id":"cebpf4jnsgd1na2vs0mg"},{"bike_id":"26db72ba-d1a0-4313-94db-fa981a8608f5","system_id":"levelo_inurba_marseille","lat":43.32044,"lon":5.41568,"is_reserved":false,"is_disabled":false,"rental_uris":{"android":"levelo://app?vid=26db72ba-d1a0-4313-94db-fa981a8608f5","ios":"levelo://app?vid=26db72ba-d1a0-4313-94db-fa981a8608f5"},"vehicle_type_id":"4","last_reported":1730189591,"current_range_meters":36800,"station_id":"ce4bhq92rcd13ifvqhkg","pricing_plan_id":"cebpf4jnsgd1na2vs0mg"},{"bike_id":"768e8b57-dfe2-4706-aed3-7696914e6381","system_id":"levelo_inurba_marseille","lat":43.25114,"lon":5.40313,"is_reserved":false,"is_disabled":false,"rental_uris":{"android":"levelo://app?vid=768e8b57-dfe2-4706-aed3-7696914e6381","ios":"levelo://app?vid=768e8b57-dfe2-4706-aed3-7696914e6381"},"vehicle_type_id":"4","last_reported":1730189591,"current_range_meters":17600,"station_id":"ce4bhlh2rcd13ifvqgig","pricing_plan_id":"cebpf4jnsgd1na2vs0mg"},{"bike_id":"d065c724-0875-4041-9f9b-8487a87add77","system_id":"levelo_inurba_marseille","lat":43.29045,"lon":5.3996,"is_reserved":false,"is_disabled":false,"rental_uris":{"android":"levelo://app?vid=d065c724-0875-4041-9f9b-8487a87add77","ios":"levelo://app?vid=d065c724-0875-4041-9f9b-8487a87add77"},"vehicle_type_id":"4","last_reported":1730189591,"current_range_meters":38800,"station_id":"ce4bh392rcd13ifvqdm0","pricing_plan_id":"cebpf4jnsgd1na2vs0mg"},{"bike_id":"8c49d97c-9125-4468-bafd-26c7e86003c4","system_id":"levelo_inurba_marseille","lat":43.31271,"lon":5.36752,"is_reserved":false,"is_disabled":false,"rental_uris":{"android":"levelo://app?vid=8c49d97c-9125-4468-bafd-26c7e86003c4","ios":"levelo://app?vid=8c49d97c-9125-4468-bafd-26c7e86003c4"},"vehicle_type_id":"4","last_reported":1730189591,"current_range_meters":28800,"station_id":"ce4bgl92rcd13ifvqbq0","pricing_plan_id":"cebpf4jnsgd1na2vs0mg"},{"bike_id":"aab128fc-e233-4d2a-af14-745db0624ca0","system_id":"levelo_inurba_marseille","lat":43.27996,"lon":5.40013,"is_reserved":false,"is_disabled":false,"rental_uris":{"android":"levelo://app?vid=aab128fc-e233-4d2a-af14-745db0624ca0","ios":"levelo://app?vid=aab128fc-e233-4d2a-af14-745db0624ca0"},"vehicle_type_id":"4","last_reported":1730189591,"current_range_meters":35200,"station_id":"ce4bho92rcd13ifvqh4g","pricing_plan_id":"cebpf4jnsgd1na2vs0mg"},{"bike_id":"b16ea274-24cd-4295-9bf5-10bc67878eff","system_id":"levelo_inurba_marseille","lat":43.33105,"lon":5.38242,"is_reserved":false,"is_disabled":false,"rental_uris":{"android":"levelo://app?vid=b16ea274-24cd-4295-9bf5-10bc67878eff","ios":"levelo://app?vid=b16ea274-24cd-4295-9bf5-10bc67878eff"},"vehicle_type_id":"4","last_reported":1730189591,"current_range_meters":6000,"station_id":"","pricing_plan_id":"cebpf4jnsgd1na2vs0mg"},{"bike_id":"43966cb7-6f2e-496d-bfcf-055444b3f859","system_id":"levelo_inurba_marseille","lat":43.27986,"lon":5.41661,"is_reserved":false,"is_disabled":false,"rental_uris":{"android":"levelo://app?vid=43966cb7-6f2e-496d-bfcf-055444b3f859","ios":"levelo://app?vid=43966cb7-6f2e-496d-bfcf-055444b3f859"},"vehicle_type_id":"4","last_reported":1730189591,"current_range_meters":32400,"station_id":"ce4bho12rcd13ifvqh1g","pricing_plan_id":"cebpf4jnsgd1na2vs0mg"},{"bike_id":"59a50482-cb1e-4ca9-8514-d5b201b306ed","system_id":"levelo_inurba_marseille","lat":43.30135,"lon":5.37405,"is_reserved":false,"is_disabled":false,"rental_uris":{"android":"levelo://app?vid=59a50482-cb1e-4ca9-8514-d5b201b306ed","ios":"levelo://app?vid=59a50482-cb1e-4ca9-8514-d5b201b306ed"},"vehicle_type_id":"4","last_reported":1730189591,"current_range_meters":28800,"station_id":"","pricing_plan_id":"cebpf4jnsgd1na2vs0mg"},{"bike_id":"37826609-4af6-46f7-8542-a437b23f499b","system_id":"levelo_inurba_marseille","lat":43.29042,"lon":5.39957,"is_reserved":false,"is_disabled":false,"rental_uris":{"android":"levelo://app?vid=37826609-4af6-46f7-8542-a437b23f499b","ios":"levelo://app?vid=37826609-4af6-46f7-8542-a437b23f499b"},"vehicle_type_id":"4","last_reported":1730189591,"current_range_meters":28000,"station_id":"ce4bh392rcd13ifvqdm0","pricing_plan_id":"cebpf4jnsgd1na2vs0mg"},{"bike_id":"a0f43164-83c5-42a1-8e8a-feadc8022d2b","system_id":"levelo_inurba_marseille","lat":43.31359,"lon":5.36692,"is_reserved":false,"is_disabled":false,"rental_uris":{"android":"levelo://app?vid=a0f43164-83c5-42a1-8e8a-feadc8022d2b","ios":"levelo://app?vid=a0f43164-83c5-42a1-8e8a-feadc8022d2b"},"vehicle_type_id":"4","last_reported":1730189591,"current_range_meters":38800,"station_id":"ce4bgr92rcd13ifvqc6g","pricing_plan_id":"cebpf4jnsgd1na2vs0mg"},{"bike_id":"ef7753fb-a1a3-4c56-96ad-d1e37e833f0a","system_id":"levelo_inurba_marseille","lat":43.28976,"lon":5.37836,"is_reserved":false,"is_disabled":false,"rental_uris":{"android":"levelo://app?vid=ef7753fb-a1a3-4c56-96ad-d1e37e833f0a","ios":"levelo://app?vid=ef7753fb-a1a3-4c56-96ad-d1e37e833f0a"},"vehicle_type_id":"4","last_reported":1730189591,"current_range_meters":22800,"station_id":"ce4bh9p2rcd13ifvqed0","pricing_plan_id":"cebpf4jnsgd1na2vs0mg"},{"bike_id":"bd801bbe-605a-44d5-aa84-a87dae5a750a","system_id":"levelo_inurba_marseille","lat":43.24072,"lon":5.37762,"is_reserved":false,"is_disabled":false,"rental_uris":{"android":"levelo://app?vid=bd801bbe-605a-44d5-aa84-a87dae5a750a","ios":"levelo://app?vid=bd801bbe-605a-44d5-aa84-a87dae5a750a"},"vehicle_type_id":"4","last_reported":1730189591,"current_range_meters":31200,"station_id":"ce4bhnp2rcd13ifvqgvg","pricing_plan_id":"cebpf4jnsgd1na2vs0mg"},{"bike_id":"49645c5a-1ea3-40d3-916a-81ee133604ef","system_id":"levelo_inurba_marseille","lat":43.32289,"lon":5.38279,"is_reserved":false,"is_disabled":false,"rental_uris":{"android":"levelo://app?vid=49645c5a-1ea3-40d3-916a-81ee133604ef","ios":"levelo://app?vid=49645c5a-1ea3-40d3-916a-81ee133604ef"},"vehicle_type_id":"4","last_reported":1730189591,"current_range_meters":34000,"station_id":"ce4bhr12rcd13ifvqhqg","pricing_plan_id":"cebpf4jnsgd1na2vs0mg"},{"bike_id":"8f02fa80-36f6-4d3f-924c-a31c7703cca5","system_id":"levelo_inurba_marseille","lat":43.27318,"lon":5.39074,"is_reserved":false,"is_disabled":false,"rental_uris":{"android":"levelo://app?vid=8f02fa80-36f6-4d3f-924c-a31c7703cca5","ios":"levelo://app?vid=8f02fa80-36f6-4d3f-924c-a31c7703cca5"},"vehicle_type_id":"4","last_reported":1730189591,"current_range_meters":36000,"station_id":"ce4bhgp2rcd13ifvqfe0","pricing_plan_id":"cebpf4jnsgd1na2vs0mg"},{"bike_id":"e79de953-afab-425a-84d5-0be4c9734950","system_id":"levelo_inurba_marseille","lat":43.28151,"lon":5.42638,"is_reserved":false,"is_disabled":false,"rental_uris":{"android":"levelo://app?vid=e79de953-afab-425a-84d5-0be4c9734950","ios":"levelo://app?vid=e79de953-afab-425a-84d5-0be4c9734950"},"vehicle_type_id":"4","last_reported":1730189591,"current_range_meters":38800,"station_id":"ce4bhnh2rcd13ifvqgug","pricing_plan_id":"cebpf4jnsgd1na2vs0mg"},{"bike_id":"eed2fec5-5bbd-40f4-9916-b138410be71d","system_id":"levelo_inurba_marseille","lat":43.30199,"lon":5.36632,"is_reserved":false,"is_disabled":false,"rental_uris":{"android":"levelo://app?vid=eed2fec5-5bbd-40f4-9916-b138410be71d","ios":"levelo://app?vid=eed2fec5-5bbd-40f4-9916-b138410be71d"},"vehicle_type_id":"4","last_reported":1730189591,"current_range_meters":31200,"station_id":"ce4bgrh2rcd13ifvqc8g","pricing_plan_id":"cebpf4jnsgd1na2vs0mg"},{"bike_id":"21bbed62-6541-48ad-9f1f-e4da26fc4934","system_id":"levelo_inurba_marseille","lat":43.3149,"lon":5.37301,"is_reserved":false,"is_disabled":false,"rental_uris":{"android":"levelo://app?vid=21bbed62-6541-48ad-9f1f-e4da26fc4934","ios":"levelo://app?vid=21bbed62-6541-48ad-9f1f-e4da26fc4934"},"vehicle_type_id":"4","last_reported":1730189591,"current_range_meters":38800,"station_id":"ce4bgt12rcd13ifvqcd0","pricing_plan_id":"cebpf4jnsgd1na2vs0mg"},{"bike_id":"65770b90-35e8-46a7-bcfa-b54197a105c1","system_id":"levelo_inurba_marseille","lat":43.29038,"lon":5.39974,"is_reserved":false,"is_disabled":false,"rental_uris":{"android":"levelo://app?vid=65770b90-35e8-46a7-bcfa-b54197a105c1","ios":"levelo://app?vid=65770b90-35e8-46a7-bcfa-b54197a105c1"},"vehicle_type_id":"4","last_reported":1730189591,"current_range_meters":5600,"station_id":"ce4bh392rcd13ifvqdm0","pricing_plan_id":"cebpf4jnsgd1na2vs0mg"},{"bike_id":"4d239329-b72a-4c7e-bfd0-01abac2bd98d","system_id":"levelo_inurba_marseille","lat":43.3134,"lon":5.36714,"is_reserved":false,"is_disabled":false,"rental_uris":{"android":"levelo://app?vid=4d239329-b72a-4c7e-bfd0-01abac2bd98d","ios":"levelo://app?vid=4d239329-b72a-4c7e-bfd0-01abac2bd98d"},"vehicle_type_id":"4","last_reported":1730189591,"current_range_meters":22000,"station_id":"ce4bgr92rcd13ifvqc6g","pricing_plan_id":"cebpf4jnsgd1na2vs0mg"},{"bike_id":"43301d51-2b2c-4ea0-84a3-28e32f47550e","system_id":"levelo_inurba_marseille","lat":43.27072,"lon":5.42281,"is_reserved":false,"is_disabled":false,"rental_uris":{"android":"levelo://app?vid=43301d51-2b2c-4ea0-84a3-28e32f47550e","ios":"levelo://app?vid=43301d51-2b2c-4ea0-84a3-28e32f47550e"},"vehicle_type_id":"4","last_reported":1730189591,"current_range_meters":38800,"station_id":"ce4bhk92rcd13ifvqgb0","pricing_plan_id":"cebpf4jnsgd1na2vs0mg"},{"bike_id":"33c97bc3-55de-47a3-9d49-02ddce2071b7","system_id":"levelo_inurba_marseille","lat":43.30155,"lon":5.38079,"is_reserved":false,"is_disabled":false,"rental_uris":{"android":"levelo://app?vid=33c97bc3-55de-47a3-9d49-02ddce2071b7","ios":"levelo://app?vid=33c97bc3-55de-47a3-9d49-02ddce2071b7"},"vehicle_type_id":"4","last_reported":1730189591,"current_range_meters":34000,"station_id":"ce4bgjp2rcd13ifvqbh0","pricing_plan_id":"cebpf4jnsgd1na2vs0mg"},{"bike_id":"c4e07be5-fe77-4aff-9330-f00dc4d4f1c6","system_id":"levelo_inurba_marseille","lat":43.30196,"lon":5.36632,"is_reserved":false,"is_disabled":false,"rental_uris":{"android":"levelo://app?vid=c4e07be5-fe77-4aff-9330-f00dc4d4f1c6","ios":"levelo://app?vid=c4e07be5-fe77-4aff-9330-f00dc4d4f1c6"},"vehicle_type_id":"4","last_reported":1730189591,"current_range_meters":38000,"station_id":"ce4bgrh2rcd13ifvqc8g","pricing_plan_id":"cebpf4jnsgd1na2vs0mg"},{"bike_id":"e94be738-1f81-4ef2-8919-b6162fbe12c8","system_id":"levelo_inurba_marseille","lat":43.32367,"lon":5.38881,"is_reserved":false,"is_disabled":false,"rental_uris":{"android":"levelo://app?vid=e94be738-1f81-4ef2-8919-b6162fbe12c8","ios":"levelo://app?vid=e94be738-1f81-4ef2-8919-b6162fbe12c8"},"vehicle_type_id":"4","last_reported":1730189591,"current_range_meters":28800,"station_id":"ce4bhqp2rcd13ifvqhog","pricing_plan_id":"cebpf4jnsgd1na2vs0mg"},{"bike_id":"84e309b4-a277-4229-a1e9-7ef4c645df39","system_id":"levelo_inurba_marseille","lat":43.31341,"lon":5.36716,"is_reserved":false,"is_disabled":false,"rental_uris":{"android":"levelo://app?vid=84e309b4-a277-4229-a1e9-7ef4c645df39","ios":"levelo://app?vid=84e309b4-a277-4229-a1e9-7ef4c645df39"},"vehicle_type_id":"4","last_reported":1730189591,"current_range_meters":20000,"station_id":"ce4bgr92rcd13ifvqc6g","pricing_plan_id":"cebpf4jnsgd1na2vs0mg"},{"bike_id":"7fda42aa-28d7-4fc7-858b-960ce986865c","system_id":"levelo_inurba_marseille","lat":43.23193,"lon":5.35548,"is_reserved":false,"is_disabled":false,"rental_uris":{"android":"levelo://app?vid=7fda42aa-28d7-4fc7-858b-960ce986865c","ios":"levelo://app?vid=7fda42aa-28d7-4fc7-858b-960ce986865c"},"vehicle_type_id":"4","last_reported":1730189591,"current_range_meters":17600,"station_id":"ce4bhu92rcd13ifvqi70","pricing_plan_id":"cebpf4jnsgd1na2vs0mg"},{"bike_id":"ce2b35c8-b45c-4c36-92f3-4c73eb4d1d47","system_id":"levelo_inurba_marseille","lat":43.27204,"lon":5.39184,"is_reserved":false,"is_disabled":false,"rental_uris":{"android":"levelo://app?vid=ce2b35c8-b45c-4c36-92f3-4c73eb4d1d47","ios":"levelo://app?vid=ce2b35c8-b45c-4c36-92f3-4c73eb4d1d47"},"vehicle_type_id":"4","last_reported":1730189591,"current_range_meters":26800,"station_id":"ce4bhhp2rcd13ifvqfm0","pricing_plan_id":"cebpf4jnsgd1na2vs0mg"},{"bike_id":"64002b81-2315-4e9e-9ac7-74dd07e7b199","system_id":"levelo_inurba_marseille","lat":43.29822,"lon":5.40391,"is_reserved":false,"is_disabled":false,"rental_uris":{"android":"levelo://app?vid=64002b81-2315-4e9e-9ac7-74dd07e7b199","ios":"levelo://app?vid=64002b81-2315-4e9e-9ac7-74dd07e7b199"},"vehicle_type_id":"4","last_reported":1730189591,"current_range_meters":18800,"station_id":"ce4bh112rcd13ifvqd90","pricing_plan_id":"cebpf4jnsgd1na2vs0mg"},{"bike_id":"1cc8df4a-9325-45a9-bd08-cbebc424d730","system_id":"levelo_inurba_marseille","lat":43.25938,"lon":5.40892,"is_reserved":false,"is_disabled":false,"rental_uris":{"android":"levelo://app?vid=1cc8df4a-9325-45a9-bd08-cbebc424d730","ios":"levelo://app?vid=1cc8df4a-9325-45a9-bd08-cbebc424d730"},"vehicle_type_id":"4","last_reported":1730189591,"current_range_meters":30000,"station_id":"ce4bhm92rcd13ifvqglg","pricing_plan_id":"cebpf4jnsgd1na2vs0mg"},{"bike_id":"8c30d4bd-e385-42f3-a7d5-88401259aa4c","system_id":"levelo_inurba_marseille","lat":43.24182,"lon":5.39732,"is_reserved":false,"is_disabled":false,"rental_uris":{"android":"levelo://app?vid=8c30d4bd-e385-42f3-a7d5-88401259aa4c","ios":"levelo://app?vid=8c30d4bd-e385-42f3-a7d5-88401259aa4c"},"vehicle_type_id":"4","last_reported":1730189591,"current_range_meters":24400,"station_id":"ce4bhn12rcd13ifvqgpg","pricing_plan_id":"cebpf4jnsgd1na2vs0mg"},{"bike_id":"4ff9c218-f22c-419d-8965-ef26fe4a1233","system_id":"levelo_inurba_marseille","lat":43.301361,"lon":5.374206,"is_reserved":false,"is_disabled":false,"rental_uris":{"android":"levelo://app?vid=4ff9c218-f22c-419d-8965-ef26fe4a1233","ios":"levelo://app?vid=4ff9c218-f22c-419d-8965-ef26fe4a1233"},"vehicle_type_id":"4","last_reported":1730189591,"current_range_meters":36400,"station_id":"ce4bgs92rcd13ifvqcc0","pricing_plan_id":"cebpf4jnsgd1na2vs0mg"},{"bike_id":"49f32741-11bd-4708-beba-7f7f852ef140","system_id":"levelo_inurba_marseille","lat":43.31375,"lon":5.38497,"is_reserved":false,"is_disabled":false,"rental_uris":{"android":"levelo://app?vid=49f32741-11bd-4708-beba-7f7f852ef140","ios":"levelo://app?vid=49f32741-11bd-4708-beba-7f7f852ef140"},"vehicle_type_id":"4","last_reported":1730189591,"current_range_meters":38800,"station_id":"ce4bgt92rcd13ifvqcf0","pricing_plan_id":"cebpf4jnsgd1na2vs0mg"},{"bike_id":"b807bfad-6bb6-429f-9b97-3405c513e267","system_id":"levelo_inurba_marseille","lat":43.24999,"lon":5.38927,"is_reserved":false,"is_disabled":false,"rental_uris":{"android":"levelo://app?vid=b807bfad-6bb6-429f-9b97-3405c513e267","ios":"levelo://app?vid=b807bfad-6bb6-429f-9b97-3405c513e267"},"vehicle_type_id":"4","last_reported":1730189591,"current_range_meters":19600,"station_id":"ce4bhgp2rcd13ifvqfd0","pricing_plan_id":"cebpf4jnsgd1na2vs0mg"},{"bike_id":"0af527c6-3088-4971-8c8a-715dc1284096","system_id":"levelo_inurba_marseille","lat":43.29845,"lon":5.36277,"is_reserved":false,"is_disabled":false,"rental_uris":{"android":"levelo://app?vid=0af527c6-3088-4971-8c8a-715dc1284096","ios":"levelo://app?vid=0af527c6-3088-4971-8c8a-715dc1284096"},"vehicle_type_id":"4","last_reported":1730189591,"current_range_meters":25600,"station_id":"ce4bgpp2rcd13ifvqc3g","pricing_plan_id":"cebpf4jnsgd1na2vs0mg"},{"bike_id":"dede7c80-5969-491a-b121-7a9d000dc80e","system_id":"levelo_inurba_marseille","lat":43.279952,"lon":5.399949,"is_reserved":false,"is_disabled":false,"rental_uris":{"android":"levelo://app?vid=dede7c80-5969-491a-b121-7a9d000dc80e","ios":"levelo://app?vid=dede7c80-5969-491a-b121-7a9d000dc80e"},"vehicle_type_id":"4","last_reported":1730189591,"current_range_meters":37600,"station_id":"ce4bho92rcd13ifvqh4g","pricing_plan_id":"cebpf4jnsgd1na2vs0mg"},{"bike_id":"4374d1ab-f755-4f0a-a250-60d2287e3760","system_id":"levelo_inurba_marseille","lat":43.27319,"lon":5.39076,"is_reserved":false,"is_disabled":false,"rental_uris":{"android":"levelo://app?vid=4374d1ab-f755-4f0a-a250-60d2287e3760","ios":"levelo://app?vid=4374d1ab-f755-4f0a-a250-60d2287e3760"},"vehicle_type_id":"4","last_reported":1730189591,"current_range_meters":24800,"station_id":"ce4bhgp2rcd13ifvqfe0","pricing_plan_id":"cebpf4jnsgd1na2vs0mg"},{"bike_id":"dcd98ba9-c8cc-4340-a071-62f2c6f4e9dc","system_id":"levelo_inurba_marseille","lat":43.30895,"lon":5.37205,"is_reserved":false,"is_disabled":false,"rental_uris":{"android":"levelo://app?vid=dcd98ba9-c8cc-4340-a071-62f2c6f4e9dc","ios":"levelo://app?vid=dcd98ba9-c8cc-4340-a071-62f2c6f4e9dc"},"vehicle_type_id":"4","last_reported":1730189591,"current_range_meters":38400,"station_id":"ce4bguh2rcd13ifvqckg","pricing_plan_id":"cebpf4jnsgd1na2vs0mg"},{"bike_id":"d3063937-ed66-4b12-a97b-346bfdfece97","system_id":"levelo_inurba_marseille","lat":43.26552,"lon":5.37287,"is_reserved":false,"is_disabled":false,"rental_uris":{"android":"levelo://app?vid=d3063937-ed66-4b12-a97b-346bfdfece97","ios":"levelo://app?vid=d3063937-ed66-4b12-a97b-346bfdfece97"},"vehicle_type_id":"4","last_reported":1730189591,"current_range_meters":38000,"station_id":"ce4bhg12rcd13ifvqf70","pricing_plan_id":"cebpf4jnsgd1na2vs0mg"},{"bike_id":"87f2345b-77fb-4930-91b3-910e5db2973d","system_id":"levelo_inurba_marseille","lat":43.24072,"lon":5.37761,"is_reserved":false,"is_disabled":false,"rental_uris":{"android":"levelo://app?vid=87f2345b-77fb-4930-91b3-910e5db2973d","ios":"levelo://app?vid=87f2345b-77fb-4930-91b3-910e5db2973d"},"vehicle_type_id":"4","last_reported":1730189591,"current_range_meters":14800,"station_id":"ce4bhnp2rcd13ifvqgvg","pricing_plan_id":"cebpf4jnsgd1na2vs0mg"},{"bike_id":"c6737c77-d684-4fbc-b85f-6023cd55784c","system_id":"levelo_inurba_marseille","lat":43.29281,"lon":5.36846,"is_reserved":false,"is_disabled":false,"rental_uris":{"android":"levelo://app?vid=c6737c77-d684-4fbc-b85f-6023cd55784c","ios":"levelo://app?vid=c6737c77-d684-4fbc-b85f-6023cd55784c"},"vehicle_type_id":"4","last_reported":1730189591,"current_range_meters":38400,"station_id":"ce4bhbp2rcd13ifvqesg","pricing_plan_id":"cebpf4jnsgd1na2vs0mg"},{"bike_id":"d74defea-267b-4bbd-91f2-88e6492a80e8","system_id":"levelo_inurba_marseille","lat":43.31751,"lon":5.39016,"is_reserved":false,"is_disabled":false,"rental_uris":{"android":"levelo://app?vid=d74defea-267b-4bbd-91f2-88e6492a80e8","ios":"levelo://app?vid=d74defea-267b-4bbd-91f2-88e6492a80e8"},"vehicle_type_id":"4","last_reported":1730189591,"current_range_meters":33200,"station_id":"ce4bhqp2rcd13ifvqhng","pricing_plan_id":"cebpf4jnsgd1na2vs0mg"},{"bike_id":"56d090fe-fad3-4e0a-b3d0-0faa7c18323b","system_id":"levelo_inurba_marseille","lat":43.2587,"lon":5.39891,"is_reserved":false,"is_disabled":false,"rental_uris":{"android":"levelo://app?vid=56d090fe-fad3-4e0a-b3d0-0faa7c18323b","ios":"levelo://app?vid=56d090fe-fad3-4e0a-b3d0-0faa7c18323b"},"vehicle_type_id":"4","last_reported":1730189591,"current_range_meters":28800,"station_id":"ce4bhl92rcd13ifvqghg","pricing_plan_id":"cebpf4jnsgd1na2vs0mg"},{"bike_id":"328d061a-042d-4966-8f2e-95eb65d8045d","system_id":"levelo_inurba_marseille","lat":43.31354,"lon":5.3671,"is_reserved":false,"is_disabled":false,"rental_uris":{"android":"levelo://app?vid=328d061a-042d-4966-8f2e-95eb65d8045d","ios":"levelo://app?vid=328d061a-042d-4966-8f2e-95eb65d8045d"},"vehicle_type_id":"4","last_reported":1730189591,"current_range_meters":33200,"station_id":"ce4bgr92rcd13ifvqc6g","pricing_plan_id":"cebpf4jnsgd1na2vs0mg"},