{"last_updated":1699758434,"ttl":30,"version":"2.2","data":{"bikes":[{"bike_id":"6014e2ea-8380-4cd2-bfb4-a3e1fffca1f5","system_id":"levelo_inurba_marseille","lat":43.314811,"lon":5.373103,"is_reserved":false,"is_disabled":false,"rental_uris":{"android":"levelo://app?vid=6014e2ea-8380-4cd2-bfb4-a3e1fffca1f5","ios":"levelo://app?vid=6014e2ea-8380-4cd2-bfb4-a3e1fffca1f5"},"vehicle_type_id":"4","last_reported":1699758434,"current_range_meters":31200,"station_id":"ce4bgt12rcd13ifvqcd0","pricing_plan_id":"free"},{"bike_id":"44edb680-07e8-4b90-a42c-41c221042e1c","system_id":"levelo_inurba_marseille","lat":43.314811,"lon":5.373104,"is_reserved":false,"is_disabled":false,"rental_uris":{"android":"levelo://app?vid=44edb680-07e8-4b90-a42c-41c221042e1c","ios":"levelo://app?vid=44edb680-07e8-4b90-a42c-41c221042e1c"},"vehicle_type_id":"4","last_reported":1699758434,"current_range_meters":27200,"station_id":"ce4bgt12rcd13ifvqcd0","pricing_plan_id":"free"},{"bike_id":"0714a2b5-d6d7-4501-9614-be245ffa29b2","system_id":"levelo_inurba_marseille","lat":43.314811,"lon":5.373103,"is_reserved":false,"is_disabled":false,"rental_uris":{"android":"levelo://app?vid=0714a2b5-d6d7-4501-9614-be245ffa29b2","ios":"levelo://app?vid=0714a2b5-d6d7-4501-9614-be245ffa29b2"},"vehicle_type_id":"4","last_reported":1699758434,"current_range_meters":31200,"station_id":"ce4bgt12rcd13ifvqcd0","pricing_plan_id":"free"},{"bike_id":"6de27ae7-7d5d-40f1-8137-b2f7c517f567","system_id":"levelo_inurba_marseille","lat":43.309039,"lon":5.371797,"is_reserved":false,"is_disabled":false,"rental_uris":{"android":"levelo://app?vid=6de27ae7-7d5d-40f1-8137-b2f7c517f567","ios":"levelo://app?vid=6de27ae7-7d5d-40f1-8137-b2f7c517f567"},"vehicle_type_id":"4","last_reported":1699758434,"current_range_meters":31200,"station_id":"ce4bguh2rcd13ifvqckg","pricing_plan_id":"free"},{"bike_id":"7bad2d53-a792-46fb-b6b2-1390b0613487","system_id":"levelo_inurba_marseille","lat":43.309039,"lon":5.371797,"is_reserved":false,"is_disabled":false,"rental_uris":{"android":"levelo://app?vid=7bad2d53-a792-46fb-b6b2-1390b0613487","ios":"levelo://app?vid=7bad2d53-a792-46fb-b6b2-1390b0613487"},"vehicle_type_id":"4","last_reported":1699758434,"current_range_meters":8000,"station_id":"ce4bguh2rcd13ifvqckg","pricing_plan_id":"free"},{"bike_id":"e7e859da-80f8-4a95-b594-befc06773b3d","system_id":"levelo_inurba_marseille","lat":43.30548,"lon":5.36694,"is_reserved":false,"is_disabled":false,"rental_uris":{"android":"levelo://app?vid=e7e859da-80f8-4a95-b594-befc06773b3d","ios":"levelo://app?vid=e7e859da-80f8-4a95-b594-befc06773b3d"},"vehicle_type_id":"4","last_reported":1699758434,"current_range_meters":0,"station_id":"ce4bgrp2rcd13ifvqc9g","pricing_plan_id":"free"},{"bike_id":"28619d59-ffc7-49b9-8ddb-e451710f05eb","system_id":"levelo_inurba_marseille","lat":43.305714,"lon":5.365633,"is_reserved":false,"is_disabled":false,"rental_uris":{"android":"levelo://app?vid=28619d59-ffc7-49b9-8ddb-e451710f05eb","ios":"levelo://app?vid=28619d59-ffc7-49b9-8ddb-e451710f05eb"},"vehicle_type_id":"4","last_reported":1699758434,"current_range_meters":25200,"station_id":"ce4bgs12rcd13ifvqcag","pricing_plan_id":"free"},{"bike_id":"308cc65d-6c90-44b0-af5e-26ff0f873c1c","system_id":"levelo_inurba_marseille","lat":43.305714,"lon":5.365633,"is_reserved":false,"is_disabled":false,"rental_uris":{"android":"levelo://app?vid=308cc65d-6c90-44b0-af5e-26ff0f873c1c","ios":"levelo://app?vid=308cc65d-6c90-44b0-af5e-26ff0f873c1c"},"vehicle_type_id":"4","last_reported":1699758434,"current_range_meters":18000,"station_id":"ce4bgs12rcd13ifvqcag","pricing_plan_id":"free"},{"bike_id":"d898fc2b-3eda-46d8-b10d-9d6a0b30af95","system_id":"levelo_inurba_marseille","lat":43.30532,"lon":5.36548,"is_reserved":false,"is_disabled":false,"rental_uris":{"android":"levelo://app?vid=d898fc2b-3eda-46d8-b10d-9d6a0b30af95","ios":"levelo://app?vid=d898fc2b-3eda-46d8-b10d-9d6a0b30af95"},"vehicle_type_id":"4","last_reported":1699758434,"current_range_meters":30000,"station_id":"ce4bgs12rcd13ifvqcag","pricing_plan_id":"free"},{"bike_id":"76b359af-c20b-45d0-a1df-78f4c9a6553a","system_id":"levelo_inurba_marseille","lat":43.30532,"lon":5.36533,"is_reserved":false,"is_disabled":false,"rental_uris":{"android":"levelo://app?vid=76b359af-c20b-45d0-a1df-78f4c9a6553a","ios":"levelo://app?vid=76b359af-c20b-45d0-a1df-78f4c9a6553a"},"vehicle_type_id":"4","last_reported":1699758434,"current_range_meters":16400,"station_id":"ce4bgs12rcd13ifvqcag","pricing_plan_id":"free"},{"bike_id":"67b5fc20-e117-4a39-bfea-4617b74bf86c","system_id":"levelo_inurba_marseille","lat":43.30523,"lon":5.36703,"is_reserved":false,"is_disabled":false,"rental_uris":{"android":"levelo://app?vid=67b5fc20-e117-4a39-bfea-4617b74bf86c","ios":"levelo://app?vid=67b5fc20-e117-4a39-bfea-4617b74bf86c"},"vehicle_type_id":"4","last_reported":1699758434,"current_range_meters":26400,"station_id":"ce4bgrp2rcd13ifvqc9g","pricing_plan_id":"free"},{"bike_id":"e7390b64-ec1f-4f29-ada8-1b6e50418f43","system_id":"levelo_inurba_marseille","lat":43.305989,"lon":5.37225,"is_reserved":false,"is_disabled":false,"rental_uris":{"android":"levelo://app?vid=e7390b64-ec1f-4f29-ada8-1b6e50418f43","ios":"levelo://app?vid=e7390b64-ec1f-4f29-ada8-1b6e50418f43"},"vehicle_type_id":"4","last_reported":1699758434,"current_range_meters":28400,"station_id":"ce4bgqh2rcd13ifvqc4g","pricing_plan_id":"free"},{"bike_id":"8f7397df-a956-4a5e-996b-c21ae1a6a829","system_id":"levelo_inurba_marseille","lat":43.305989,"lon":5.37225,"is_reserved":false,"is_disabled":false,"rental_uris":{"android":"levelo://app?vid=8f7397df-a956-4a5e-996b-c21ae1a6a829","ios":"levelo://app?vid=8f7397df-a956-4a5e-996b-c21ae1a6a829"},"vehicle_type_id":"4","last_reported":1699758434,"current_range_meters":29600,"station_id":"ce4bgqh2rcd13ifvqc4g","pricing_plan_id":"free"},{"bike_id":"08eeac99-4d3f-43fa-a64d-342b7acba7f7","system_id":"levelo_inurba_marseille","lat":43.311131,"lon":5.377651,"is_reserved":false,"is_disabled":false,"rental_uris":{"android":"levelo://app?vid=08eeac99-4d3f-43fa-a64d-342b7acba7f7","ios":"levelo://app?vid=08eeac99-4d3f-43fa-a64d-342b7acba7f7"},"vehicle_type_id":"4","last_reported":1699758434,"current_range_meters":30400,"station_id":"ce4bgt92rcd13ifvqcg0","pricing_plan_id":"free"},{"bike_id":"18679bee-09b2-48d9-9154-895a30d97a5e","system_id":"levelo_inurba_marseille","lat":43.311131,"lon":5.377651,"is_reserved":false,"is_disabled":false,"rental_uris":{"android":"levelo://app?vid=18679bee-09b2-48d9-9154-895a30d97a5e","ios":"levelo://app?vid=18679bee-09b2-48d9-9154-895a30d97a5e"},"vehicle_type_id":"4","last_reported":1699758434,"current_range_meters":29200,"station_id":"ce4bgt92rcd13ifvqcg0","pricing_plan_id":"free"},{"bike_id":"50389fc2-ebef-4fd4-84f7-450bca9bbc3a","system_id":"levelo_inurba_marseille","lat":43.311125,"lon":5.377624,"is_reserved":false,"is_disabled":false,"rental_uris":{"android":"levelo://app?vid=50389fc2-ebef-4fd4-84f7-450bca9bbc3a","ios":"levelo://app?vid=50389fc2-ebef-4fd4-84f7-450bca9bbc3a"},"vehicle_type_id":"4","last_reported":1699758434,"current_range_meters":31200,"station_id":"ce4bgt92rcd13ifvqcg0","pricing_plan_id":"free"},{"bike_id":"57053367-5328-4d78-8951-737f56b37ed9","system_id":"levelo_inurba_marseille","lat":43.319924,"lon":5.373389,"is_reserved":false,"is_disabled":false,"rental_uris":{"android":"levelo://app?vid=57053367-5328-4d78-8951-737f56b37ed9","ios":"levelo://app?vid=57053367-5328-4d78-8951-737f56b37ed9"},"vehicle_type_id":"4","last_reported":1699758434,"current_range_meters":16400,"station_id":"","pricing_plan_id":"free"},{"bike_id":"376f9c62-bfe6-4a65-827f-6dad0f919a97","system_id":"levelo_inurba_marseille","lat":43.317075,"lon":5.377367,"is_reserved":false,"is_disabled":false,"rental_uris":{"android":"levelo://app?vid=376f9c62-bfe6-4a65-827f-6dad0f919a97","ios":"levelo://app?vid=376f9c62-bfe6-4a65-827f-6dad0f919a97"},"vehicle_type_id":"4","last_reported":1699758434,"current_range_meters":15600,"station_id":"ce4bgth2rcd13ifvqch0","pricing_plan_id":"free"},{"bike_id":"a6966d37-fdb6-4a9e-9d84-f3e69daa40de","system_id":"levelo_inurba_marseille","lat":43.317075,"lon":5.377367,"is_reserved":false,"is_disabled":false,"rental_uris":{"android":"levelo://app?vid=a6966d37-fdb6-4a9e-9d84-f3e69daa40de","ios":"levelo://app?vid=a6966d37-fdb6-4a9e-9d84-f3e69daa40de"},"vehicle_type_id":"4","last_reported":1699758434,"current_range_meters":28800,"station_id":"ce4bgth2rcd13ifvqch0","pricing_plan_id":"free"},{"bike_id":"2bc62703-d3d0-4adf-8fcf-eab26ac973b6","system_id":"levelo_inurba_marseille","lat":43.317075,"lon":5.377367,"is_reserved":false,"is_disabled":false,"rental_uris":{"android":"levelo://app?vid=2bc62703-d3d0-4adf-8fcf-eab26ac973b6","ios":"levelo://app?vid=2bc62703-d3d0-4adf-8fcf-eab26ac973b6"},"vehicle_type_id":"4","last_reported":1699758434,"current_range_meters":28800,"station_id":"ce4bgth2rcd13ifvqch0","pricing_plan_id":"free"},{"bike_id":"94e917af-4d1f-4161-b297-0a40a42ba135","system_id":"levelo_inurba_marseille","lat":43.317075,"lon":5.377367,"is_reserved":false,"is_disabled":false,"rental_uris":{"android":"levelo://app?vid=94e917af-4d1f-4161-b297-0a40a42ba135","ios":"levelo://app?vid=94e917af-4d1f-4161-b297-0a40a42ba135"},"vehicle_type_id":"4","last_reported":1699758434,"current_range_meters":30800,"station_id":"ce4bgth2rcd13ifvqch0","pricing_plan_id":"free"},{"bike_id":"f5d7923d-c0e3-4fbd-8c6e-7645d55b1746","system_id":"levelo_inurba_marseille","lat":43.30184,"lon":5.36613,"is_reserved":false,"is_disabled":false,"rental_uris":{"android":"levelo://app?vid=f5d7923d-c0e3-4fbd-8c6e-7645d55b1746","ios":"levelo://app?vid=f5d7923d-c0e3-4fbd-8c6e-7645d55b1746"},"vehicle_type_id":"4","last_reported":1699758434,"current_range_meters":6400,"station_id":"ce4bgrh2rcd13ifvqc8g","pricing_plan_id":"free"},{"bike_id":"a26a672c-8f86-40f5-9e8e-9856cf399a24","system_id":"levelo_inurba_marseille","lat":43.308056,"lon":5.381491,"is_reserved":false,"is_disabled":false,"rental_uris":{"android":"levelo://app?vid=a26a672c-8f86-40f5-9e8e-9856cf399a24","ios":"levelo://app?vid=a26a672c-8f86-40f5-9e8e-9856cf399a24"},"vehicle_type_id":"4","last_reported":1699758434,"current_range_meters":24400,"station_id":"ce4bgt12rcd13ifvqce0","pricing_plan_id":"free"},{"bike_id":"fb5239a8-4e40-46ea-9f8d-e37b9c0de320","system_id":"levelo_inurba_marseille","lat":43.304606,"lon":5.379026,"is_reserved":false,"is_disabled":false,"rental_uris":{"android":"levelo://app?vid=fb5239a8-4e40-46ea-9f8d-e37b9c0de320","ios":"levelo://app?vid=fb5239a8-4e40-46ea-9f8d-e37b9c0de320"},"vehicle_type_id":"4","last_reported":1699758434,"current_range_meters":30000,"station_id":"ce4bgup2rcd13ifvqcn0","pricing_plan_id":"free"},{"bike_id":"8ef52193-4a3c-4256-8c92-d02dc1148f05","system_id":"levelo_inurba_marseille","lat":43.324813,"lon":5.365615,"is_reserved":false,"is_disabled":false,"rental_uris":{"android":"levelo://app?vid=8ef52193-4a3c-4256-8c92-d02dc1148f05","ios":"levelo://app?vid=8ef52193-4a3c-4256-8c92-d02dc1148f05"},"vehicle_type_id":"4","last_reported":1699758434,"current_range_meters":9600,"station_id":"ce4bhs12rcd13ifvqhvg","pricing_plan_id":"free"},{"bike_id":"3819deec-fe3d-41c7-8346-2b107cb07054","system_id":"levelo_inurba_marseille","lat":43.315237,"lon":5.383797,"is_reserved":false,"is_disabled":false,"rental_uris":{"android":"levelo://app?vid=3819deec-fe3d-41c7-8346-2b107cb07054","ios":"levelo://app?vid=3819deec-fe3d-41c7-8346-2b107cb07054"},"vehicle_type_id":"4","last_reported":1699758434,"current_range_meters":0,"station_id":"","pricing_plan_id":"free"},{"bike_id":"69166d53-ec8e-4a0a-864c-7a29f7650dd8","system_id":"levelo_inurba_marseille","lat":43.321224,"lon":5.380014,"is_reserved":false,"is_disabled":false,"rental_uris":{"android":"levelo://app?vid=69166d53-ec8e-4a0a-864c-7a29f7650dd8","ios":"levelo://app?vid=69166d53-ec8e-4a0a-864c-7a29f7650dd8"},"vehicle_type_id":"4","last_reported":1699758434,"current_range_meters":16000,"station_id":"","pricing_plan_id":"free"},{"bike_id":"c0985fbd-c500-46c9-aae5-e6275d5bf15c","system_id":"levelo_inurba_marseille","lat":43.320011,"lon":5.381449,"is_reserved":false,"is_disabled":false,"rental_uris":{"android":"levelo://app?vid=c0985fbd-c500-46c9-aae5-e6275d5bf15c","ios":"levelo://app?vid=c0985fbd-c500-46c9-aae5-e6275d5bf15c"},"vehicle_type_id":"4","last_reported":1699758434,"current_range_meters":18800,"station_id":"ce4bhr12rcd13ifvqhpg","pricing_plan_id":"free"},{"bike_id":"5b15b8b2-a52d-474e-aa67-ca7d1ec7cbc3","system_id":"levelo_inurba_marseille","lat":43.319933,"lon":5.381536,"is_reserved":false,"is_disabled":false,"rental_uris":{"android":"levelo://app?vid=5b15b8b2-a52d-474e-aa67-ca7d1ec7cbc3","ios":"levelo://app?vid=5b15b8b2-a52d-474e-aa67-ca7d1ec7cbc3"},"vehicle_type_id":"4","last_reported":1699758434,"current_range_meters":9600,"station_id":"ce4bhr12rcd13ifvqhpg","pricing_plan_id":"free"},{"bike_id":"13d78257-2559-4a10-97b8-aaa7032179bc","system_id":"levelo_inurba_marseille","lat":43.319975,"lon":5.381519,"is_reserved":false,"is_disabled":false,"rental_uris":{"android":"levelo://app?vid=13d78257-2559-4a10-97b8-aaa7032179bc","ios":"levelo://app?vid=13d78257-2559-4a10-97b8-aaa7032179bc"},"vehicle_type_id":"4","last_reported":1699758434,"current_range_meters":2000,"station_id":"","pricing_plan_id":"free"},{"bike_id":"77d8d805-7190-4f03-8116-7b447c27f570","system_id":"levelo_inurba_marseille","lat":43.313717,"lon":5.3849,"is_reserved":false,"is_disabled":false,"rental_uris":{"android":"levelo://app?vid=77d8d805-7190-4f03-8116-7b447c27f570","ios":"levelo://app?vid=77d8d805-7190-4f03-8116-7b447c27f570"},"vehicle_type_id":"4","last_reported":1699758434,"current_range_meters":25200,"station_id":"ce4bgt92rcd13ifvqcf0","pricing_plan_id":"free"},{"bike_id":"627d8c25-4397-4e23-90f2-8a321c87a482","system_id":"levelo_inurba_marseille","lat":43.313624,"lon":5.384926,"is_reserved":false,"is_disabled":false,"rental_uris":{"android":"levelo://app?vid=627d8c25-4397-4e23-90f2-8a321c87a482","ios":"levelo://app?vid=627d8c25-4397-4e23-90f2-8a321c87a482"},"vehicle_type_id":"4","last_reported":1699758434,"current_range_meters":29200,"station_id":"ce4bgt92rcd13ifvqcf0","pricing_plan_id":"free"},{"bike_id":"229d1788-dab7-44cf-8daf-5b09e2dbfaa0","system_id":"levelo_inurba_marseille","lat":43.31363,"lon":5.38503,"is_reserved":false,"is_disabled":false,"rental_uris":{"android":"levelo://app?vid=229d1788-dab7-44cf-8daf-5b09e2dbfaa0","ios":"levelo://app?vid=229d1788-dab7-44cf-8daf-5b09e2dbfaa0"},"vehicle_type_id":"4","last_reported":1699758434,"current_range_meters":28400,"station_id":"ce4bgt92rcd13ifvqcf0","pricing_plan_id":"free"},{"bike_id":"3e30ef58-1d95-45a1-bb5f-3a4448a3833a","system_id":"levelo_inurba_marseille","lat":43.313697,"lon":5.385054,"is_reserved":false,"is_disabled":false,"rental_uris":{"android":"levelo://app?vid=3e30ef58-1d95-45a1-bb5f-3a4448a3833a","ios":"levelo://app?vid=3e30ef58-1d95-45a1-bb5f-3a4448a3833a"},"vehicle_type_id":"4","last_reported":1699758434,"current_range_meters":29200,"station_id":"ce4bgt92rcd13ifvqcf0","pricing_plan_id":"free"},{"bike_id":"80697842-0806-4314-bfd8-b50afea5482b","system_id":"levelo_inurba_marseille","lat":43.313571,"lon":5.384829,"is_reserved":false,"is_disabled":false,"rental_uris":{"android":"levelo://app?vid=80697842-0806-4314-bfd8-b50afea5482b","ios":"levelo://app?vid=80697842-0806-4314-bfd8-b50afea5482b"},"vehicle_type_id":"4","last_reported":1699758434,"current_range_meters":31200,"station_id":"ce4bgt92rcd13ifvqcf0","pricing_plan_id":"free"},{"bike_id":"f0cd0e99-99df-428b-bcc4-5dfc1403c621","system_id":"levelo_inurba_marseille","lat":43.299397,"lon":5.367439,"is_reserved":false,"is_disabled":false,"rental_uris":{"android":"levelo://app?vid=f0cd0e99-99df-428b-bcc4-5dfc1403c621","ios":"levelo://app?vid=f0cd0e99-99df-428b-bcc4-5dfc1403c621"},"vehicle_type_id":"4","last_reported":1699758434,"current_range_meters":14000,"station_id":"","pricing_plan_id":"free"},{"bike_id":"36a202bc-fecc-4559-b8dc-94fc1b7c22ed","system_id":"levelo_inurba_marseille","lat":43.311722,"lon":5.387247,"is_reserved":false,"is_disabled":false,"rental_uris":{"android":"levelo://app?vid=36a202bc-fecc-4559-b8dc-94fc1b7c22ed","ios":"levelo://app?vid=36a202bc-fecc-4559-b8dc-94fc1b7c22ed"},"vehicle_type_id":"4","last_reported":1699758434,"current_range_meters":28800,"station_id":"ce4bgv12rcd13ifvqcp0","pricing_plan_id":"free"},{"bike_id":"de86e3d1-a596-40c7-ba28-8077c5a08266","system_id":"levelo_inurba_marseille","lat":43.311722,"lon":5.387247,"is_reserved":false,"is_disabled":false,"rental_uris":{"android":"levelo://app?vid=de86e3d1-a596-40c7-ba28-8077c5a08266","ios":"levelo://app?vid=de86e3d1-a596-40c7-ba28-8077c5a08266"},"vehicle_type_id":"4","last_reported":1699758434,"current_range_meters":30000,"station_id":"ce4bgv12rcd13ifvqcp0","pricing_plan_id":"free"},{"bike_id":"8950f55a-e75d-4fac-9a7c-f529bc0580a5","system_id":"levelo_inurba_marseille","lat":43.320464,"lon":5.384144,"is_reserved":false,"is_disabled":false,"rental_uris":{"android":"levelo://app?vid=8950f55a-e75d-4fac-9a7c-f529bc0580a5","ios":"levelo://app?vid=8950f55a-e75d-4fac-9a7c-f529bc0580a5"},"vehicle_type_id":"4","last_reported":1699758434,"current_range_meters":10800,"station_id":"","pricing_plan_id":"free"},{"bike_id":"5d33c8da-15bc-40fe-b4eb-1d8d6465f82b","system_id":"levelo_inurba_marseille","lat":43.297794,"lon":5.370888,"is_reserved":false,"is_disabled":false,"rental_uris":{"android":"levelo://app?vid=5d33c8da-15bc-40fe-b4eb-1d8d6465f82b","ios":"levelo://app?vid=5d33c8da-15bc-40fe-b4eb-1d8d6465f82b"},"vehicle_type_id":"4","last_reported":1699758434,"current_range_meters":20400,"station_id":"ce4bgop2rcd13ifvqc1g","pricing_plan_id":"free"},{"bike_id":"bc65f8a5-589d-4ae1-8620-42d2c579e103","system_id":"levelo_inurba_marseille","lat":43.322872,"lon":5.382756,"is_reserved":false,"is_disabled":false,"rental_uris":{"android":"levelo://app?vid=bc65f8a5-589d-4ae1-8620-42d2c579e103","ios":"levelo://app?vid=bc65f8a5-589d-4ae1-8620-42d2c579e103"},"vehicle_type_id":"4","last_reported":1699758434,"current_range_meters":25600,"station_id":"ce4bhr12rcd13ifvqhqg","pricing_plan_id":"free"},{"bike_id":"1e65f059-8f9e-4f78-8b4e-b40aef3dca28","system_id":"levelo_inurba_marseille","lat":43.322872,"lon":5.382756,"is_reserved":false,"is_disabled":false,"rental_uris":{"android":"levelo://app?vid=1e65f059-8f9e-4f78-8b4e-b40aef3dca28","ios":"levelo://app?vid=1e65f059-8f9e-4f78-8b4e-b40aef3dca28"},"vehicle_type_id":"4","last_reported":1699758434,"current_range_meters":14400,"station_id":"ce4bhr12rcd13ifvqhqg","pricing_plan_id":"free"},{"bike_id":"1bb861ef-57bc-498b-b32e-a0eda2c305cb","system_id":"levelo_inurba_marseille","lat":43.32829,"lon":5.36696,"is_reserved":false,"is_disabled":false,"rental_uris":{"android":"levelo://app?vid=1bb861ef-57bc-498b-b32e-a0eda2c305cb","ios":"levelo://app?vid=1bb861ef-57bc-498b-b32e-a0eda2c305cb"},"vehicle_type_id":"4","last_reported":1699758434,"current_range_meters":12400,"station_id":"ce4bhs92rcd13ifvqi0g","pricing_plan_id":"free"},{"bike_id":"d2d0f7da-b236-4617-8f3a-aabe3bd3e52e","system_id":"levelo_inurba_marseille","lat":43.3283,"lon":5.36692,"is_reserved":false,"is_disabled":false,"rental_uris":{"android":"levelo://app?vid=d2d0f7da-b236-4617-8f3a-aabe3bd3e52e","ios":"levelo://app?vid=d2d0f7da-b236-4617-8f3a-aabe3bd3e52e"},"vehicle_type_id":"4","last_reported":1699758434,"current_range_meters":29600,"station_id":"ce4bhs92rcd13ifvqi0g","pricing_plan_id":"free"},{"bike_id":"a46312e7-2ce8-4bc2-b854-62161f1506e5","system_id":"levelo_inurba_marseille","lat":43.32832,"lon":5.36691,"is_reserved":false,"is_disabled":false,"rental_uris":{"android":"levelo://app?vid=a46312e7-2ce8-4bc2-b854-62161f1506e5","ios":"levelo://app?vid=a46312e7-2ce8-4bc2-b854-62161f1506e5"},"vehicle_type_id":"4","last_reported":1699758434,"current_range_meters":30400,"station_id":"ce4bhs92rcd13ifvqi0g","pricing_plan_id":"free"},{"bike_id":"a5f55da8-6724-472e-bcc9-c26d48cc07a7","system_id":"levelo_inurba_marseille","lat":43.328322,"lon":5.36686,"is_reserved":false,"is_disabled":false,"rental_uris":{"android":"levelo://app?vid=a5f55da8-6724-472e-bcc9-c26d48cc07a7","ios":"levelo://app?vid=a5f55da8-6724-472e-bcc9-c26d48cc07a7"},"vehicle_type_id":"4","last_reported":1699758434,"current_range_meters":4800,"station_id":"ce4bhs92rcd13ifvqi0g","pricing_plan_id":"free"},{"bike_id":"3fc29c95-14f8-466b-984e-30e97660fd5f","system_id":"levelo_inurba_marseille","lat":43.328323,"lon":5.366878,"is_reserved":false,"is_disabled":false,"rental_uris":{"android":"levelo://app?vid=3fc29c95-14f8-466b-984e-30e97660fd5f","ios":"levelo://app?vid=3fc29c95-14f8-466b-984e-30e97660fd5f"},"vehicle_type_id":"4","last_reported":1699758434,"current_range_meters":0,"station_id":"ce4bhs92rcd13ifvqi0g","pricing_plan_id":"free"},{"bike_id":"3acec72d-dace-40d0-ba68-5a09713c41d7","system_id":"levelo_inurba_marseille","lat":43.297163,"lon":5.365866,"is_reserved":false,"is_disabled":false,"rental_uris":{"android":"levelo://app?vid=3acec72d-dace-40d0-ba68-5a09713c41d7","ios":"levelo://app?vid=3acec72d-dace-40d0-ba68-5a09713c41d7"},"vehicle_type_id":"4","last_reported":1699758434,"current_range_meters":26400,"station_id":"ce4bgn12rcd13ifvqbt0","pricing_plan_id":"free"},{"bike_id":"6e7351e1-4cd5-4415-b20c-72cd66273662","system_id":"levelo_inurba_marseille","lat":43.328352,"lon":5.366915,"is_reserved":false,"is_disabled":false,"rental_uris":{"android":"levelo://app?vid=6e7351e1-4cd5-4415-b20c-72cd66273662","ios":"levelo://app?vid=6e7351e1-4cd5-4415-b20c-72cd66273662"},"vehicle_type_id":"4","last_reported":1699758434,"current_range_meters":27600,"station_id":"ce4bhs92rcd13ifvqi0g","pricing_plan_id":"free"},{"bike_id":"d447991a-59b4-4778-a190-7d2b0920a414","system_id":"levelo_inurba_marseille","lat":43.32215,"lon":5.38613,"is_reserved":false,"is_disabled":false,"rental_uris":{"android":"levelo://app?vid=d447991a-59b4-4778-a190-7d2b0920a414","ios":"levelo://app?vid=d447991a-59b4-4778-a190-7d2b0920a414"},"vehicle_type_id":"4","last_reported":1699758434,"current_range_meters":18400,"station_id":"","pricing_plan_id":"free"},{"bike_id":"408e1bba-ac1b-479c-ad30-32026784c873","system_id":"levelo_inurba_marseille","lat":43.2966,"lon":5.37463,"is_reserved":false,"is_disabled":false,"rental_uris":{"android":"levelo://app?vid=408e1bba-ac1b-479c-ad30-32026784c873","ios":"levelo://app?vid=408e1bba-ac1b-479c-ad30-32026784c873"},"vehicle_type_id":"4","last_reported":1699758434,"current_range_meters":13600,"station_id":"","pricing_plan_id":"free"},{"bike_id":"608964c0-4ecf-4c42-93df-bc5bcdb7a4db","system_id":"levelo_inurba_marseille","lat":43.297244,"lon":5.376936,"is_reserved":false,"is_disabled":false,"rental_uris":{"android":"levelo://app?vid=608964c0-4ecf-4c42-93df-bc5bcdb7a4db","ios":"levelo://app?vid=608964c0-4ecf-4c42-93df-bc5bcdb7a4db"},"vehicle_type_id":"4","last_reported":1699758434,"current_range_meters":30000,"station_id":"ce4bgkh2rcd13ifvqbl0","pricing_plan_id":"free"},{"bike_id":"85e752a9-4e8b-4661-b149-fd63b29fbd41","system_id":"levelo_inurba_marseille","lat":43.309617,"lon":5.390307,"is_reserved":false,"is_disabled":false,"rental_uris":{"android":"levelo://app?vid=85e752a9-4e8b-4661-b149-fd63b29fbd41","ios":"levelo://app?vid=85e752a9-4e8b-4661-b149-fd63b29fbd41"},"vehicle_type_id":"4","last_reported":1699758434,"current_range_meters":2000,"station_id":"ce4bgup2rcd13ifvqco0","pricing_plan_id":"free"},{"bike_id":"67666d06-b522-43ec-9311-267b85d5c931","system_id":"levelo_inurba_marseille","lat":43.30945,"lon":5.39036,"is_reserved":false,"is_disabled":false,"rental_uris":{"android":"levelo://app?vid=67666d06-b522-43ec-9311-267b85d5c931","ios":"levelo://app?vid=67666d06-b522-43ec-9311-267b85d5c931"},"vehicle_type_id":"4","last_reported":1699758434,"current_range_meters":0,"station_id":"ce4bgup2rcd13ifvqco0","pricing_plan_id":"free"},{"bike_id":"ee16c8e6-4080-4f1f-8d1e-e70a79ffc07f","system_id":"levelo_inurba_marseille","lat":43.317557,"lon":5.390173,"is_reserved":false,"is_disabled":false,"rental_uris":{"android":"levelo://app?vid=ee16c8e6-4080-4f1f-8d1e-e70a79ffc07f","ios":"levelo://app?vid=ee16c8e6-4080-4f1f-8d1e-e70a79ffc07f"},"vehicle_type_id":"4","last_reported":1699758434,"current_range_meters":31600,"station_id":"ce4bhqp2rcd13ifvqhng","pricing_plan_id":"free"},{"bike_id":"6eb543ca-2cb1-49ae-a045-513302c5e6e5","system_id":"levelo_inurba_marseille","lat":43.317557,"lon":5.390173,"is_reserved":false,"is_disabled":false,"rental_uris":{"android":"levelo://app?vid=6eb543ca-2cb1-49ae-a045-513302c5e6e5","ios":"levelo://app?vid=6eb543ca-2cb1-49ae-a045-513302c5e6e5"},"vehicle_type_id":"4","last_reported":1699758434,"current_range_meters":31600,"station_id":"ce4bhqp2rcd13ifvqhng","pricing_plan_id":"free"},{"bike_id":"feff7d8e-9456-4b4b-b917-4f91bb23e023","system_id":"levelo_inurba_marseille","lat":43.3175,"lon":5.39022,"is_reserved":false,"is_disabled":false,"rental_uris":{"android":"levelo://app?vid=feff7d8e-9456-4b4b-b917-4f91bb23e023","ios":"levelo://app?vid=feff7d8e-9456-4b4b-b917-4f91bb23e023"},"vehicle_type_id":"4","last_reported":1699758434,"current_range_meters":16400,"station_id":"","pricing_plan_id":"free"},{"bike_id":"86b77831-73b2-483e-9b0e-cc137d4a3525","system_id":"levelo_inurba_marseille","lat":43.317557,"lon":5.390173,"is_reserved":false,"is_disabled":false,"rental_uris":{"android":"levelo://app?vid=86b77831-73b2-483e-9b0e-cc137d4a3525","ios":"levelo://app?vid=86b77831-73b2-483e-9b0e-cc137d4a3525"},"vehicle_type_id":"4","last_reported":1699758434,"current_range_meters":0,"station_id":"ce4bhqp2rcd13ifvqhng","pricing_plan_id":"free"},{"bike_id":"b895c862-71d5-45b0-a93a-2984fba6e59b","system_id":"levelo_inurba_marseille","lat":43.317557,"lon":5.390173,"is_reserved":false,"is_disabled":false,"rental_uris":{"android":"levelo://app?vid=b895c862-71d5-45b0-a93a-2984fba6e59b","ios":"levelo://app?vid=b895c862-71d5-45b0-a93a-2984fba6e59b"},"vehicle_type_id":"4","last_reported":1699758434,"current_range_meters":1600,"station_id":"ce4bhqp2rcd13ifvqhng","pricing_plan_id":"free"},{"bike_id":"23cb2e74-fbfd-49a0-86d7-6ee1a88c7350","system_id":"levelo_inurba_marseille","lat":43.296162,"lon":5.377314,"is_reserved":false,"is_disabled":false,"rental_uris":{"android":"levelo://app?vid=23cb2e74-fbfd-49a0-86d7-6ee1a88c7350","ios":"levelo://app?vid=23cb2e74-fbfd-49a0-86d7-6ee1a88c7350"},"vehicle_type_id":"4","last_reported":1699758434,"current_range_meters":0,"station_id":"ce4bgi92rcd13ifvqb90","pricing_plan_id":"free"},{"bike_id":"b2842481-0257-4533-bcc7-6e6c3a43ac97","system_id":"levelo_inurba_marseille","lat":43.299802,"lon":5.384796,"is_reserved":false,"is_disabled":false,"rental_uris":{"android":"levelo://app?vid=b2842481-0257-4533-bcc7-6e6c3a43ac97","ios":"levelo://app?vid=b2842481-0257-4533-bcc7-6e6c3a43ac97"},"vehicle_type_id":"4","last_reported":1699758434,"current_range_meters":28400,"station_id":"ce4bgj92rcd13ifvqbd0","pricing_plan_id":"free"},{"bike_id":"bfb1fd2e-7680-4c21-9cad-13dadfea5d2b","system_id":"levelo_inurba_marseille","lat":43.299764,"lon":5.384976,"is_reserved":false,"is_disabled":false,"rental_uris":{"android":"levelo://app?vid=bfb1fd2e-7680-4c21-9cad-13dadfea5d2b","ios":"levelo://app?vid=bfb1fd2e-7680-4c21-9cad-13dadfea5d2b"},"vehicle_type_id":"4","last_reported":1699758434,"current_range_meters":31200,"station_id":"ce4bgj92rcd13ifvqbd0","pricing_plan_id":"free"},{"bike_id":"6e50e984-6ebf-49a4-a2ab-ad86c0282cb2","system_id":"levelo_inurba_marseille","lat":43.31277,"lon":5.39389,"is_reserved":false,"is_disabled":false,"rental_uris":{"android":"levelo://app?vid=6e50e984-6ebf-49a4-a2ab-ad86c0282cb2","ios":"levelo://app?vid=6e50e984-6ebf-49a4-a2ab-ad86c0282cb2"},"vehicle_type_id":"4","last_reported":1699758434,"current_range_meters":0,"station_id":"","pricing_plan_id":"free"},{"bike_id":"6a7b23aa-2f23-4693-906e-2f86cb388528","system_id":"levelo_inurba_marseille","lat":43.293249,"lon":5.371578,"is_reserved":false,"is_disabled":false,"rental_uris":{"android":"levelo://app?vid=6a7b23aa-2f23-4693-906e-2f86cb388528","ios":"levelo://app?vid=6a7b23aa-2f23-4693-906e-2f86cb388528"},"vehicle_type_id":"4","last_reported":1699758434,"current_range_meters":20400,"station_id":"ce4bgh92rcd13ifvqb40","pricing_plan_id":"free"},{"bike_id":"1f2edeec-835f-4188-b75a-b19c37bb1dac","system_id":"levelo_inurba_marseille","lat":43.30109,"lon":5.3894,"is_reserved":false,"is_disabled":false,"rental_uris":{"android":"levelo://app?vid=1f2edeec-835f-4188-b75a-b19c37bb1dac","ios":"levelo://app?vid=1f2edeec-835f-4188-b75a-b19c37bb1dac"},"vehicle_type_id":"4","last_reported":1699758434,"current_range_meters":3200,"station_id":"","pricing_plan_id":"free"},{"bike_id":"81c88bbc-582c-4f35-9c76-0b0b9491d4c5","system_id":"levelo_inurba_marseille","lat":43.305994,"lon":5.393687,"is_reserved":false,"is_disabled":false,"rental_uris":{"android":"levelo://app?vid=81c88bbc-582c-4f35-9c76-0b0b9491d4c5","ios":"levelo://app?vid=81c88bbc-582c-4f35-9c76-0b0b9491d4c5"},"vehicle_type_id":"4","last_reported":1699758434,"current_range_meters":28000,"station_id":"ce4bh0p2rcd13ifvqd80","pricing_plan_id":"free"},{"bike_id":"97e8caca-0ff1-401e-a15c-7517318a2a0e","system_id":"levelo_inurba_marseille","lat":43.303002,"lon":5.392142,"is_reserved":false,"is_disabled":false,"rental_uris":{"android":"levelo://app?vid=97e8caca-0ff1-401e-a15c-7517318a2a0e","ios":"levelo://app?vid=97e8caca-0ff1-401e-a15c-7517318a2a0e"},"vehicle_type_id":"4","last_reported":1699758434,"current_range_meters":17600,"station_id":"ce4bgkh2rcd13ifvqbk0","pricing_plan_id":"free"},{"bike_id":"670ec93e-df8d-4efe-9db7-6f69e5bf37d5","system_id":"levelo_inurba_marseille","lat":43.30085,"lon":5.390856,"is_reserved":false,"is_disabled":false,"rental_uris":{"android":"levelo://app?vid=670ec93e-df8d-4efe-9db7-6f69e5bf37d5","ios":"levelo://app?vid=670ec93e-df8d-4efe-9db7-6f69e5bf37d5"},"vehicle_type_id":"4","last_reported":1699758434,"current_range_meters":30400,"station_id":"ce4bh192rcd13ifvqdb0","pricing_plan_id":"free"},{"bike_id":"4f20bd05-3e3a-48a5-8b95-949cf255c91b","system_id":"levelo_inurba_marseille","lat":43.286595,"lon":5.386795,"is_reserved":false,"is_disabled":false,"rental_uris":{"android":"levelo://app?vid=4f20bd05-3e3a-48a5-8b95-949cf255c91b","ios":"levelo://app?vid=4f20bd05-3e3a-48a5-8b95-949cf255c91b"},"vehicle_type_id":"4","last_reported":1699758434,"current_range_meters":18000,"station_id":"ce4bh492rcd13ifvqdug","pricing_plan_id":"free"},{"bike_id":"ce3036ee-71d7-44dd-8e78-79b184e169d3","system_id":"levelo_inurba_marseille","lat":43.29884,"lon":5.38889,"is_reserved":false,"is_disabled":false,"rental_uris":{"android":"levelo://app?vid=ce3036ee-71d7-44dd-8e78-79b184e169d3","ios":"levelo://app?vid=ce3036ee-71d7-44dd-8e78-79b184e169d3"},"vehicle_type_id":"4","last_reported":1699758434,"current_range_meters":2000,"station_id":"ce4bh392rcd13ifvqdl0","pricing_plan_id":"free"},{"bike_id":"1ff41662-2067-4d79-b37b-dee65009ea50","system_id":"levelo_inurba_marseille","lat":43.29883,"lon":5.38913,"is_reserved":false,"is_disabled":false,"rental_uris":{"android":"levelo://app?vid=1ff41662-2067-4d79-b37b-dee65009ea50","ios":"levelo://app?vid=1ff41662-2067-4d79-b37b-dee65009ea50"},"vehicle_type_id":"4","last_reported":1699758434,"current_range_meters":12800,"station_id":"ce4bh392rcd13ifvqdl0","pricing_plan_id":"free"},{"bike_id":"57903118-0cf0-412a-8669-c8a0b0dd2dfb","system_id":"levelo_inurba_marseille","lat":43.31326,"lon":5.39689,"is_reserved":false,"is_disabled":false,"rental_uris":{"android":"levelo://app?vid=57903118-0cf0-412a-8669-c8a0b0dd2dfb","ios":"levelo://app?vid=57903118-0cf0-412a-8669-c8a0b0dd2dfb"},"vehicle_type_id":"4","last_reported":1699758434,"current_range_meters":31200,"station_id":"ce4bgvp2rcd13ifvqcu0","pricing_plan_id":"free"},{"bike_id":"fc5e01a8-0846-4c8d-b6bc-eb17c75bfbcf","system_id":"levelo_inurba_marseille","lat":43.31334,"lon":5.39696,"is_reserved":false,"is_disabled":false,"rental_uris":{"android":"levelo://app?vid=fc5e01a8-0846-4c8d-b6bc-eb17c75bfbcf","ios":"levelo://app?vid=fc5e01a8-0846-4c8d-b6bc-eb17c75bfbcf"},"vehicle_type_id":"4","last_reported":1699758434,"current_range_meters":30800,"station_id":"ce4bgvp2rcd13ifvqcu0","pricing_plan_id":"free"},{"bike_id":"313dd4a7-00cd-4a51-97c2-2bc4a19f8416","system_id":"levelo_inurba_marseille","lat":43.31326,"lon":5.39698,"is_reserved":false,"is_disabled":false,"rental_uris":{"android":"levelo://app?vid=313dd4a7-00cd-4a51-97c2-2bc4a19f8416","ios":"levelo://app?vid=313dd4a7-00cd-4a51-97c2-2bc4a19f8416"},"vehicle_type_id":"4","last_reported":1699758434,"current_range_meters":30800,"station_id":"ce4bgvp2rcd13ifvqcu0","pricing_plan_id":"free"},{"bike_id":"54c2015a-8c0c-4d00-9b37-c79646c26110","system_id":"levelo_inurba_marseille","lat":43.313307,"lon":5.397004,"is_reserved":false,"is_disabled":false,"rental_uris":{"android":"levelo://app?vid=54c2015a-8c0c-4d00-9b37-c79646c26110","ios":"levelo://app?vid=54c2015a-8c0c-4d00-9b37-c79646c26110"},"vehicle_type_id":"4","last_reported":1699758434,"current_range_meters":7200,"station_id":"","pricing_plan_id":"free"},{"bike_id":"173fa19f-be95-4252-9c41-a51cd0cc5b5f","system_id":"levelo_inurba_marseille","lat":43.31327,"lon":5.39701,"is_reserved":false,"is_disabled":false,"rental_uris":{"android":"levelo://app?vid=173fa19f-be95-4252-9c41-a51cd0cc5b5f","ios":"levelo://app?vid=173fa19f-be95-4252-9c41-a51cd0cc5b5f"},"vehicle_type_id":"4","last_reported":1699758434,"current_range_meters":24400,"station_id":"ce4bgvp2rcd13ifvqcu0","pricing_plan_id":"free"},{"bike_id":"e1bfe33b-96e2-4171-b8d5-a0afc1b87669","system_id":"levelo_inurba_marseille","lat":43.289184,"lon":5.366408,"is_reserved":false,"is_disabled":false,"rental_uris":{"android":"levelo://app?vid=e1bfe33b-96e2-4171-b8d5-a0afc1b87669","ios":"levelo://app?vid=e1bfe33b-96e2-4171-b8d5-a0afc1b87669"},"vehicle_type_id":"4","last_reported":1699758434,"current_range_meters":23200,"station_id":"ce4bhap2rcd13ifvqek0","pricing_plan_id":"free"},{"bike_id":"cc1aa884-459e-464c-b00d-d06b3e9b2096","system_id":"levelo_inurba_marseille","lat":43.289468,"lon":5.363719,"is_reserved":false,"is_disabled":false,"rental_uris":{"android":"levelo://app?vid=cc1aa884-459e-464c-b00d-d06b3e9b2096","ios":"levelo://app?vid=cc1aa884-459e-464c-b00d-d06b3e9b2096"},"vehicle_type_id":"4","last_reported":1699758434,"current_range_meters":25600,"station_id":"ce4bhc92rcd13ifvqetg","pricing_plan_id":"free"},{"bike_id":"a36c42f0-31f6-4776-919a-6e5f675caef7","system_id":"levelo_inurba_marseille","lat":43.330442,"lon":5.389148,"is_reserved":false,"is_disabled":false,"rental_uris":{"android":"levelo://app?vid=a36c42f0-31f6-4776-919a-6e5f675caef7","ios":"levelo://app?vid=a36c42f0-31f6-4776-919a-6e5f675caef7"},"vehicle_type_id":"4","last_reported":1699758434,"current_range_meters":25600,"station_id":"ce4bhr92rcd13ifvqhrg","pricing_plan_id":"free"},{"bike_id":"e9a5b566-3224-4a1c-bcf8-d2a9a42b6590","system_id":"levelo_inurba_marseille","lat":43.330442,"lon":5.389148,"is_reserved":false,"is_disabled":false,"rental_uris":{"android":"levelo://app?vid=e9a5b566-3224-4a1c-bcf8-d2a9a42b6590","ios":"levelo://app?vid=e9a5b566-3224-4a1c-bcf8-d2a9a42b6590"},"vehicle_type_id":"4","last_reported":1699758434,"current_range_meters":14800,"station_id":"ce4bhr92rcd13ifvqhrg","pricing_plan_id":"free"},{"bike_id":"5af5c8ff-304a-4e4c-8dd0-2a9a98ffbb7d","system_id":"levelo_inurba_marseille","lat":43.330442,"lon":5.389148,"is_reserved":false,"is_disabled":false,"rental_uris":{"android":"levelo://app?vid=5af5c8ff-304a-4e4c-8dd0-2a9a98ffbb7d","ios":"levelo://app?vid=5af5c8ff-304a-4e4c-8dd0-2a9a98ffbb7d"},"vehicle_type_id":"4","last_reported":1699758434,"current_range_meters":31200,"station_id":"ce4bhr92rcd13ifvqhrg","pricing_plan_id":"free"},{"bike_id":"5c560e3a-f944-4e78-aaf9-2a95d755a896","system_id":"levelo_inurba_marseille","lat":43.330429,"lon":5.389197,"is_reserved":false,"is_disabled":false,"rental_uris":{"android":"levelo://app?vid=5c560e3a-f944-4e78-aaf9-2a95d755a896","ios":"levelo://app?vid=5c560e3a-f944-4e78-aaf9-2a95d755a896"},"vehicle_type_id":"4","last_reported":1699758434,"current_range_meters":29600,"station_id":"ce4bhr92rcd13ifvqhrg","pricing_plan_id":"free"},{"bike_id":"3ab72e3c-0d27-431a-a496-5585e2f22788","system_id":"levelo_inurba_marseille","lat":43.330442,"lon":5.389148,"is_reserved":false,"is_disabled":false,"rental_uris":{"android":"levelo://app?vid=3ab72e3c-0d27-431a-a496-5585e2f22788","ios":"levelo://app?vid=3ab72e3c-0d27-431a-a496-5585e2f22788"},"vehicle_type_id":"4","last_reported":1699758434,"current_range_meters":28800,"station_id":"ce4bhr92rcd13ifvqhrg","pricing_plan_id":"free"},{"bike_id":"d91be78c-ebe2-4f7c-a4da-a0753ed823e7","system_id":"levelo_inurba_marseille","lat":43.330442,"lon":5.389148,"is_reserved":false,"is_disabled":false,"rental_uris":{"android":"levelo://app?vid=d91be78c-ebe2-4f7c-a4da-a0753ed823e7","ios":"levelo://app?vid=d91be78c-ebe2-4f7c-a4da-a0753ed823e7"},"vehicle_type_id":"4","last_reported":1699758434,"current_range_meters":20000,"station_id":"ce4bhr92rcd13ifvqhrg","pricing_plan_id":"free"},{"bike_id":"05592703-a0b9-428a-bdb1-9e3ec2036aeb","system_id":"levelo_inurba_marseille","lat":43.290104,"lon":5.356111,"is_reserved":false,"is_disabled":false,"rental_uris":{"android":"levelo://app?vid=05592703-a0b9-428a-bdb1-9e3ec2036aeb","ios":"levelo://app?vid=05592703-a0b9-428a-bdb1-9e3ec2036aeb"},"vehicle_type_id":"4","last_reported":1699758434,"current_range_meters":6800,"station_id":"ce4bhb92rcd13ifvqen0","pricing_plan_id":"free"},{"bike_id":"9546bf20-d75e-443c-b7da-9540acb88d8d","system_id":"levelo_inurba_marseille","lat":43.297874,"lon":5.393455,"is_reserved":false,"is_disabled":false,"rental_uris":{"android":"levelo://app?vid=9546bf20-d75e-443c-b7da-9540acb88d8d","ios":"levelo://app?vid=9546bf20-d75e-443c-b7da-9540acb88d8d"},"vehicle_type_id":"4","last_reported":1699758434,"current_range_meters":0,"station_id":"chh1huq6cuj3fo74tm60","pricing_plan_id":"free"},{"bike_id":"197abf59-4c46-462c-a765-46e836014a12","system_id":"levelo_inurba_marseille","lat":43.295305,"lon":5.390356,"is_reserved":false,"is_disabled":false,"rental_uris":{"android":"levelo://app?vid=197abf59-4c46-462c-a765-46e836014a12","ios":"levelo://app?vid=197abf59-4c46-462c-a765-46e836014a12"},"vehicle_type_id":"4","last_reported":1699758434,"current_range_meters":28000,"station_id":"ce4bh3p2rcd13ifvqdp0","pricing_plan_id":"free"},{"bike_id":"22ac5185-f34d-4fee-8602-aabec51fbfe7","system_id":"levelo_inurba_marseille","lat":43.295169,"lon":5.390426,"is_reserved":false,"is_disabled":false,"rental_uris":{"android":"levelo://app?vid=22ac5185-f34d-4fee-8602-aabec51fbfe7","ios":"levelo://app?vid=22ac5185-f34d-4fee-8602-aabec51fbfe7"},"vehicle_type_id":"4","last_reported":1699758434,"current_range_meters":29200,"station_id":"ce4bh3p2rcd13ifvqdp0","pricing_plan_id":"free"},{"bike_id":"eaea4368-c42e-4d29-bdcf-f6b7a85a1021","system_id":"levelo_inurba_marseille","lat":43.3126,"lon":5.40142,"is_reserved":false,"is_disabled":false,"rental_uris":{"android":"levelo://app?vid=eaea4368-c42e-4d29-bdcf-f6b7a85a1021","ios":"levelo://app?vid=eaea4368-c42e-4d29-bdcf-f6b7a85a1021"},"vehicle_type_id":"4","last_reported":1699758434,"current_range_meters":16400,"station_id":"ce4bh092rcd13ifvqd30","pricing_plan_id":"free"},{"bike_id":"aaa7d48e-0fa8-46bd-8c22-21a4e5928530","system_id":"levelo_inurba_marseille","lat":43.306412,"lon":5.401035,"is_reserved":false,"is_disabled":false,"rental_uris":{"android":"levelo://app?vid=aaa7d48e-0fa8-46bd-8c22-21a4e5928530","ios":"levelo://app?vid=aaa7d48e-0fa8-46bd-8c22-21a4e5928530"},"vehicle_type_id":"4","last_reported":1699758434,"current_range_meters":31600,"station_id":"ce4bh112rcd13ifvqda0","pricing_plan_id":"free"},{"bike_id":"0f4f5a74-c459-47a6-9034-b0e42af42ed6","system_id":"levelo_inurba_marseille","lat":43.312609,"lon":5.401662,"is_reserved":false,"is_disabled":false,"rental_uris":{"android":"levelo://app?vid=0f4f5a74-c459-47a6-9034-b0e42af42ed6","ios":"levelo://app?vid=0f4f5a74-c459-47a6-9034-b0e42af42ed6"},"vehicle_type_id":"4","last_reported":1699758434,"current_range_meters":31200,"station_id":"ce4bh092rcd13ifvqd30","pricing_plan_id":"free"},{"bike_id":"7069865c-8ec8-421f-9325-ef00e54b0fd0","system_id":"levelo_inurba_marseille","lat":43.312767,"lon":5.401699,"is_reserved":false,"is_disabled":false,"rental_uris":{"android":"levelo://app?vid=7069865c-8ec8-421f-9325-ef00e54b0fd0","ios":"levelo://app?vid=7069865c-8ec8-421f-9325-ef00e54b0fd0"},"vehicle_type_id":"4","last_reported":1699758434,"current_range_meters":31200,"station_id":"ce4bh092rcd13ifvqd30","pricing_plan_id":"free"},{"bike_id":"8e8be408-3a3b-4ecf-ab7d-db5a7ae7b3f4","system_id":"levelo_inurba_marseille","lat":43.31279,"lon":5.4017,"is_reserved":false,"is_disabled":false,"rental_uris":{"android":"levelo://app?vid=8e8be408-3a3b-4ecf-ab7d-db5a7ae7b3f4","ios":"levelo://app?vid=8e8be408-3a3b-4ecf-ab7d-db5a7ae7b3f4"},"vehicle_type_id":"4","last_reported":1699758434,"current_range_meters":28400,"station_id":"ce4bh092rcd13ifvqd30","pricing_plan_id":"free"},{"bike_id":"8d0e7d5a-a5e3-4a7e-b28e-96d761caf723","system_id":"levelo_inurba_marseille","lat":43.312812,"lon":5.401705,"is_reserved":false,"is_disabled":false,"rental_uris":{"android":"levelo://app?vid=8d0e7d5a-a5e3-4a7e-b28e-96d761caf723","ios":"levelo://app?vid=8d0e7d5a-a5e3-4a7e-b28e-96d761caf723"},"vehicle_type_id":"4","last_reported":1699758434,"current_range_meters":30800,"station_id":"ce4bh092rcd13ifvqd30","pricing_plan_id":"free"},{"bike_id":"c0f81438-5037-4c1a-8b76-ce72bc1f5c4a","system_id":"levelo_inurba_marseille","lat":43.30927,"lon":5.40139,"is_reserved":false,"is_disabled":false,"rental_uris":{"android":"levelo://app?vid=c0f81438-5037-4c1a-8b76-ce72bc1f5c4a","ios":"levelo://app?vid=c0f81438-5037-4c1a-8b76-ce72bc1f5c4a"},"vehicle_type_id":"4","last_reported":1699758434,"current_range_meters":28800,"station_id":"ce4bgvp2rcd13ifvqct0","pricing_plan_id":"free"},{"bike_id":"9516bea0-980f-4069-940a-6400bc4cad62","system_id":"levelo_inurba_marseille","lat":43.30929,"lon":5.40143,"is_reserved":false,"is_disabled":false,"rental_uris":{"android":"levelo://app?vid=9516bea0-980f-4069-940a-6400bc4cad62","ios":"levelo://app?vid=9516bea0-980f-4069-940a-6400bc4cad62"},"vehicle_type_id":"4","last_reported":1699758434,"current_range_meters":30800,"station_id":"ce4bgvp2rcd13ifvqct0","pricing_plan_id":"free"},{"bike_id":"f691344a-50b1-4798-bf1d-7392f5e2759c","system_id":"levelo_inurba_marseille","lat":43.309345,"lon":5.401458,"is_reserved":false,"is_disabled":false,"rental_uris":{"android":"levelo://app?vid=f691344a-50b1-4798-bf1d-7392f5e2759c","ios":"levelo://app?vid=f691344a-50b1-4798-bf1d-7392f5e2759c"},"vehicle_type_id":"4","last_reported":1699758434,"current_range_meters":29200,"station_id":"ce4bgvp2rcd13ifvqct0","pricing_plan_id":"free"},{"bike_id":"cef397f5-a8b0-4133-839e-429572821167","system_id":"levelo_inurba_marseille","lat":43.30923,"lon":5.40144,"is_reserved":false,"is_disabled":false,"rental_uris":{"android":"levelo://app?vid=cef397f5-a8b0-4133-839e-429572821167","ios":"levelo://app?vid=cef397f5-a8b0-4133-839e-429572821167"},"vehicle_type_id":"4","last_reported":1699758434,"current_range_meters":31200,"station_id":"ce4bgvp2rcd13ifvqct0","pricing_plan_id":"free"},{"bike_id":"fda95fd6-7932-445d-b394-81373726a0f4","system_id":"levelo_inurba_marseille","lat":43.30642,"lon":5.401031,"is_reserved":false,"is_disabled":false,"rental_uris":{"android":"levelo://app?vid=fda95fd6-7932-445d-b394-81373726a0f4","ios":"levelo://app?vid=fda95fd6-7932-445d-b394-81373726a0f4"},"vehicle_type_id":"4","last_reported":1699758434,"current_range_meters":31200,"station_id":"ce4bh112rcd13ifvqda0","pricing_plan_id":"free"},{"bike_id":"1fe4eea9-e9b1-4eec-a425-6616c56c856f","system_id":"levelo_inurba_marseille","lat":43.306412,"lon":5.401035,"is_reserved":false,"is_disabled":false,"rental_uris":{"android":"levelo://app?vid=1fe4eea9-e9b1-4eec-a425-6616c56c856f","ios":"levelo://app?vid=1fe4eea9-e9b1-4eec-a425-6616c56c856f"},"vehicle_type_id":"4","last_reported":1699758434,"current_range_meters":31600,"station_id":"ce4bh112rcd13ifvqda0","pricing_plan_id":"free"},{"bike_id":"4fcd6969-d073-4555-b031-34f4c4fec1dd","system_id":"levelo_inurba_marseille","lat":43.306412,"lon":5.401035,"is_reserved":false,"is_disabled":false,"rental_uris":{"android":"levelo://app?vid=4fcd6969-d073-4555-b031-34f4c4fec1dd","ios":"levelo://app?vid=4fcd6969-d073-4555-b031-34f4c4fec1dd"},"vehicle_type_id":"4","last_reported":1699758434,"current_range_meters":400,"station_id":"ce4bh112rcd13ifvqda0","pricing_plan_id":"free"},{"bike_id":"ddc0fc77-cf4a-4668-b9ec-19b533691c2f","system_id":"levelo_inurba_marseille","lat":43.306412,"lon":5.401035,"is_reserved":false,"is_disabled":false,"rental_uris":{"android":"levelo://app?vid=ddc0fc77-cf4a-4668-b9ec-19b533691c2f","ios":"levelo://app?vid=ddc0fc77-cf4a-4668-b9ec-19b533691c2f"},"vehicle_type_id":"4","last_reported":1699758434,"current_range_meters":5600,"station_id":"ce4bh112rcd13ifvqda0","pricing_plan_id":"free"},{"bike_id":"743f3bc5-43c9-45a3-8965-b67b169c6c30","system_id":"levelo_inurba_marseille","lat":43.30513,"lon":5.40077,"is_reserved":false,"is_disabled":false,"rental_uris":{"android":"levelo://app?vid=743f3bc5-43c9-45a3-8965-b67b169c6c30","ios":"levelo://app?vid=743f3bc5-43c9-45a3-8965-b67b169c6c30"},"vehicle_type_id":"4","last_reported":1699758434,"current_range_meters":9200,"station_id":"","pricing_plan_id":"free"},{"bike_id":"9288764c-722e-440e-9e6b-a36059f9dd21","system_id":"levelo_inurba_marseille","lat":43.2873,"lon":5.36076,"is_reserved":false,"is_disabled":false,"rental_uris":{"android":"levelo://app?vid=9288764c-722e-440e-9e6b-a36059f9dd21","ios":"levelo://app?vid=9288764c-722e-440e-9e6b-a36059f9dd21"},"vehicle_type_id":"4","last_reported":1699758434,"current_range_meters":31200,"station_id":"cki0cbj6b192h4jlfktg","pricing_plan_id":"free"},{"bike_id":"cc164c50-43f8-44cf-b6da-d795e8200570","system_id":"levelo_inurba_marseille","lat":43.28727,"lon":5.36078,"is_reserved":false,"is_disabled":false,"rental_uris":{"android":"levelo://app?vid=cc164c50-43f8-44cf-b6da-d795e8200570","ios":"levelo://app?vid=cc164c50-43f8-44cf-b6da-d795e8200570"},"vehicle_type_id":"4","last_reported":1699758434,"current_range_meters":31200,"station_id":"cki0cbj6b192h4jlfktg","pricing_plan_id":"free"},{"bike_id":"0ba76634-83ab-4ae2-956c-75edd8dd6ad8","system_id":"levelo_inurba_marseille","lat":43.28727,"lon":5.36078,"is_reserved":false,"is_disabled":false,"rental_uris":{"android":"levelo://app?vid=0ba76634-83ab-4ae2-956c-75edd8dd6ad8","ios":"levelo://app?vid=0ba76634-83ab-4ae2-956c-75edd8dd6ad8"},"vehicle_type_id":"4","last_reported":1699758434,"current_range_meters":5600,"station_id":"cki0cbj6b192h4jlfktg","pricing_plan_id":"free"},{"bike_id":"71f88df4-e774-4d97-b967-d5394a875906","system_id":"levelo_inurba_marseille","lat":43.28727,"lon":5.36078,"is_reserved":false,"is_disabled":false,"rental_uris":{"android":"levelo://app?vid=71f88df4-e774-4d97-b967-d5394a875906","ios":"levelo://app?vid=71f88df4-e774-4d97-b967-d5394a875906"},"vehicle_type_id":"4","last_reported":1699758434,"current_range_meters":31600,"station_id":"cki0cbj6b192h4jlfktg","pricing_plan_id":"free"},{"bike_id":"50f8b893-0d71-4930-9e16-901f5d0d766c","system_id":"levelo_inurba_marseille","lat":43.290397,"lon":5.38637,"is_reserved":false,"is_disabled":false,"rental_uris":{"android":"levelo://app?vid=50f8b893-0d71-4930-9e16-901f5d0d766c","ios":"levelo://app?vid=50f8b893-0d71-4930-9e16-901f5d0d766c"},"vehicle_type_id":"4","last_reported":1699758434,"current_range_meters":17600,"station_id":"ce4bh4p2rcd13ifvqe0g","pricing_plan_id":"free"},{"bike_id":"4227f876-3bdf-4e87-b356-697b4942d0d1","system_id":"levelo_inurba_marseille","lat":43.302759,"lon":5.400793,"is_reserved":false,"is_disabled":false,"rental_uris":{"android":"levelo://app?vid=4227f876-3bdf-4e87-b356-697b4942d0d1","ios":"levelo://app?vid=4227f876-3bdf-4e87-b356-697b4942d0d1"},"vehicle_type_id":"4","last_reported":1699758434,"current_range_meters":28000,"station_id":"ce4bgvh2rcd13ifvqcs0","pricing_plan_id":"free"},{"bike_id":"febdea0c-78e2-44d1-b45c-0cefbdd05402","system_id":"levelo_inurba_marseille","lat":43.302759,"lon":5.400793,"is_reserved":false,"is_disabled":false,"rental_uris":{"android":"levelo://app?vid=febdea0c-78e2-44d1-b45c-0cefbdd05402","ios":"levelo://app?vid=febdea0c-78e2-44d1-b45c-0cefbdd05402"},"vehicle_type_id":"4","last_reported":1699758434,"current_range_meters":8000,"station_id":"ce4bgvh2rcd13ifvqcs0","pricing_plan_id":"free"},{"bike_id":"755c1b59-f233-40c3-b2ae-92e5e74d8a11","system_id":"levelo_inurba_marseille","lat":43.302759,"lon":5.400793,"is_reserved":false,"is_disabled":false,"rental_uris":{"android":"levelo://app?vid=755c1b59-f233-40c3-b2ae-92e5e74d8a11","ios":"levelo://app?vid=755c1b59-f233-40c3-b2ae-92e5e74d8a11"},"vehicle_type_id":"4","last_reported":1699758434,"current_range_meters":4800,"station_id":"ce4bgvh2rcd13ifvqcs0","pricing_plan_id":"free"},{"bike_id":"2eecb01b-d197-4afe-9d7e-2a6abde09fb6","system_id":"levelo_inurba_marseille","lat":43.302759,"lon":5.400793,"is_reserved":false,"is_disabled":false,"rental_uris":{"android":"levelo://app?vid=2eecb01b-d197-4afe-9d7e-2a6abde09fb6","ios":"levelo://app?vid=2eecb01b-d197-4afe-9d7e-2a6abde09fb6"},"vehicle_type_id":"4","last_reported":1699758434,"current_range_meters":22400,"station_id":"ce4bgvh2rcd13ifvqcs0","pricing_plan_id":"free"},{"bike_id":"45675d66-35cb-4665-8cf1-2b2eff2590e1","system_id":"levelo_inurba_marseille","lat":43.302759,"lon":5.400793,"is_reserved":false,"is_disabled":false,"rental_uris":{"android":"levelo://app?vid=45675d66-35cb-4665-8cf1-2b2eff2590e1","ios":"levelo://app?vid=45675d66-35cb-4665-8cf1-2b2eff2590e1"},"vehicle_type_id":"4","last_reported":1699758434,"current_range_meters":0,"station_id":"ce4bgvh2rcd13ifvqcs0","pricing_plan_id":"free"},{"bike_id":"2e4fef63-4096-4d7f-831f-40d3a53e0e5f","system_id":"levelo_inurba_marseille","lat":43.302759,"lon":5.400793,"is_reserved":false,"is_disabled":false,"rental_uris":{"android":"levelo://app?vid=2e4fef63-4096-4d7f-831f-40d3a53e0e5f","ios":"levelo://app?vid=2e4fef63-4096-4d7f-831f-40d3a53e0e5f"},"vehicle_type_id":"4","last_reported":1699758434,"current_range_meters":15200,"station_id":"ce4bgvh2rcd13ifvqcs0","pricing_plan_id":"free"},{"bike_id":"e1f2aa7e-c7dc-446f-b510-3a3a0c205417","system_id":"levelo_inurba_marseille","lat":43.31644,"lon":5.4043,"is_reserved":false,"is_disabled":false,"rental_uris":{"android":"levelo://app?vid=e1f2aa7e-c7dc-446f-b510-3a3a0c205417","ios":"levelo://app?vid=e1f2aa7e-c7dc-446f-b510-3a3a0c205417"},"vehicle_type_id":"4","last_reported":1699758434,"current_range_meters":27600,"station_id":"ce4bh012rcd13ifvqd00","pricing_plan_id":"free"},{"bike_id":"a1b39922-14c9-4573-8801-fb57b34fa119","system_id":"levelo_inurba_marseille","lat":43.316517,"lon":5.404375,"is_reserved":false,"is_disabled":false,"rental_uris":{"android":"levelo://app?vid=a1b39922-14c9-4573-8801-fb57b34fa119","ios":"levelo://app?vid=a1b39922-14c9-4573-8801-fb57b34fa119"},"vehicle_type_id":"4","last_reported":1699758434,"current_range_meters":31200,"station_id":"ce4bh012rcd13ifvqd00","pricing_plan_id":"free"},{"bike_id":"7b515ad7-8382-468f-8226-53251379577f","system_id":"levelo_inurba_marseille","lat":43.31647,"lon":5.40437,"is_reserved":false,"is_disabled":false,"rental_uris":{"android":"levelo://app?vid=7b515ad7-8382-468f-8226-53251379577f","ios":"levelo://app?vid=7b515ad7-8382-468f-8226-53251379577f"},"vehicle_type_id":"4","last_reported":1699758434,"current_range_meters":11600,"station_id":"ce4bh012rcd13ifvqd00","pricing_plan_id":"free"},{"bike_id":"10c3658b-4879-46c4-9c64-c9f6b65a4980","system_id":"levelo_inurba_marseille","lat":43.31646,"lon":5.40442,"is_reserved":false,"is_disabled":false,"rental_uris":{"android":"levelo://app?vid=10c3658b-4879-46c4-9c64-c9f6b65a4980","ios":"levelo://app?vid=10c3658b-4879-46c4-9c64-c9f6b65a4980"},"vehicle_type_id":"4","last_reported":1699758434,"current_range_meters":30800,"station_id":"ce4bh012rcd13ifvqd00","pricing_plan_id":"free"},{"bike_id":"e57449c2-d088-47cf-8bf2-271593713c89","system_id":"levelo_inurba_marseille","lat":43.328576,"lon":5.398841,"is_reserved":false,"is_disabled":false,"rental_uris":{"android":"levelo://app?vid=e57449c2-d088-47cf-8bf2-271593713c89","ios":"levelo://app?vid=e57449c2-d088-47cf-8bf2-271593713c89"},"vehicle_type_id":"4","last_reported":1699758434,"current_range_meters":6000,"station_id":"","pricing_plan_id":"free"},{"bike_id":"a31a029c-72c9-419b-be04-01659df129ad","system_id":"levelo_inurba_marseille","lat":43.291987,"lon":5.393113,"is_reserved":false,"is_disabled":false,"rental_uris":{"android":"levelo://app?vid=a31a029c-72c9-419b-be04-01659df129ad","ios":"levelo://app?vid=a31a029c-72c9-419b-be04-01659df129ad"},"vehicle_type_id":"4","last_reported":1699758434,"current_range_meters":31200,"station_id":"ce4bh192rcd13ifvqdd0","pricing_plan_id":"free"},{"bike_id":"e247165b-34f2-4b94-bf65-9db047e64375","system_id":"levelo_inurba_marseille","lat":43.292048,"lon":5.393327,"is_reserved":false,"is_disabled":false,"rental_uris":{"android":"levelo://app?vid=e247165b-34f2-4b94-bf65-9db047e64375","ios":"levelo://app?vid=e247165b-34f2-4b94-bf65-9db047e64375"},"vehicle_type_id":"4","last_reported":1699758434,"current_range_meters":31200,"station_id":"ce4bh192rcd13ifvqdd0","pricing_plan_id":"free"},{"bike_id":"4877c328-4b66-4dbe-9641-34decfce9aed","system_id":"levelo_inurba_marseille","lat":43.28458,"lon":5.35885,"is_reserved":false,"is_disabled":false,"rental_uris":{"android":"levelo://app?vid=4877c328-4b66-4dbe-9641-34decfce9aed","ios":"levelo://app?vid=4877c328-4b66-4dbe-9641-34decfce9aed"},"vehicle_type_id":"4","last_reported":1699758434,"current_range_meters":800,"station_id":"ce4bhah2rcd13ifvqei0","pricing_plan_id":"free"},{"bike_id":"fcbc09d0-a56e-44b1-8f38-8e6d5183a315","system_id":"levelo_inurba_marseille","lat":43.294314,"lon":5.397498,"is_reserved":false,"is_disabled":false,"rental_uris":{"android":"levelo://app?vid=fcbc09d0-a56e-44b1-8f38-8e6d5183a315","ios":"levelo://app?vid=fcbc09d0-a56e-44b1-8f38-8e6d5183a315"},"vehicle_type_id":"4","last_reported":1699758434,"current_range_meters":25600,"station_id":"ce4bh3h2rcd13ifvqdo0","pricing_plan_id":"free"},{"bike_id":"1acc4e6e-f83b-4934-aabf-b5a819736f72","system_id":"levelo_inurba_marseille","lat":43.294314,"lon":5.397498,"is_reserved":false,"is_disabled":false,"rental_uris":{"android":"levelo://app?vid=1acc4e6e-f83b-4934-aabf-b5a819736f72","ios":"levelo://app?vid=1acc4e6e-f83b-4934-aabf-b5a819736f72"},"vehicle_type_id":"4","last_reported":1699758434,"current_range_meters":22400,"station_id":"ce4bh3h2rcd13ifvqdo0","pricing_plan_id":"free"},{"bike_id":"da2a4076-eb32-4a7c-974a-b1513619f5bb","system_id":"levelo_inurba_marseille","lat":43.294314,"lon":5.397498,"is_reserved":false,"is_disabled":false,"rental_uris":{"android":"levelo://app?vid=da2a4076-eb32-4a7c-974a-b1513619f5bb","ios":"levelo://app?vid=da2a4076-eb32-4a7c-974a-b1513619f5bb"},"vehicle_type_id":"4","last_reported":1699758434,"current_range_meters":26400,"station_id":"ce4bh3h2rcd13ifvqdo0","pricing_plan_id":"free"},{"bike_id":"fe34be37-ab2a-4f07-b681-27d873d714a7","system_id":"levelo_inurba_marseille","lat":43.283998,"lon":5.375062,"is_reserved":false,"is_disabled":false,"rental_uris":{"android":"levelo://app?vid=fe34be37-ab2a-4f07-b681-27d873d714a7","ios":"levelo://app?vid=fe34be37-ab2a-4f07-b681-27d873d714a7"},"vehicle_type_id":"4","last_reported":1699758434,"current_range_meters":24800,"station_id":"ce4bh412rcd13ifvqds0","pricing_plan_id":"free"},{"bike_id":"c2955002-96fb-4cc6-a6a9-23839dfa5746","system_id":"levelo_inurba_marseille","lat":43.283998,"lon":5.375062,"is_reserved":false,"is_disabled":false,"rental_uris":{"android":"levelo://app?vid=c2955002-96fb-4cc6-a6a9-23839dfa5746","ios":"levelo://app?vid=c2955002-96fb-4cc6-a6a9-23839dfa5746"},"vehicle_type_id":"4","last_reported":1699758434,"current_range_meters":12000,"station_id":"ce4bh412rcd13ifvqds0","pricing_plan_id":"free"},{"bike_id":"70adb5b1-274a-437e-91ee-0d828abcebb8","system_id":"levelo_inurba_marseille","lat":43.295713,"lon":5.399639,"is_reserved":false,"is_disabled":false,"rental_uris":{"android":"levelo://app?vid=70adb5b1-274a-437e-91ee-0d828abcebb8","ios":"levelo://app?vid=70adb5b1-274a-437e-91ee-0d828abcebb8"},"vehicle_type_id":"4","last_reported":1699758434,"current_range_meters":31200,"station_id":"ce4bh312rcd13ifvqdj0","pricing_plan_id":"free"},{"bike_id":"db92d471-92de-4681-8166-ac94391e2fb6","system_id":"levelo_inurba_marseille","lat":43.286811,"lon":5.386623,"is_reserved":false,"is_disabled":false,"rental_uris":{"android":"levelo://app?vid=db92d471-92de-4681-8166-ac94391e2fb6","ios":"levelo://app?vid=db92d471-92de-4681-8166-ac94391e2fb6"},"vehicle_type_id":"4","last_reported":1699758434,"current_range_meters":29200,"station_id":"ce4bh492rcd13ifvqdug","pricing_plan_id":"free"},{"bike_id":"0ebf88f0-c1b7-4e3a-ae79-52eb5ef19d0b","system_id":"levelo_inurba_marseille","lat":43.28673,"lon":5.386618,"is_reserved":false,"is_disabled":false,"rental_uris":{"android":"levelo://app?vid=0ebf88f0-c1b7-4e3a-ae79-52eb5ef19d0b","ios":"levelo://app?vid=0ebf88f0-c1b7-4e3a-ae79-52eb5ef19d0b"},"vehicle_type_id":"4","last_reported":1699758434,"current_range_meters":9200,"station_id":"ce4bh492rcd13ifvqdug","pricing_plan_id":"free"},{"bike_id":"08295c26-f27a-4ede-85e5-385b363c2964","system_id":"levelo_inurba_marseille","lat":43.319179,"lon":5.407725,"is_reserved":false,"is_disabled":false,"rental_uris":{"android":"levelo://app?vid=08295c26-f27a-4ede-85e5-385b363c2964","ios":"levelo://app?vid=08295c26-f27a-4ede-85e5-385b363c2964"},"vehicle_type_id":"4","last_reported":1699758434,"current_range_meters":31200,"station_id":"ce4bhq12rcd13ifvqhig","pricing_plan_id":"free"},{"bike_id":"c9982d22-c49f-43d9-bfbb-1ef6adfe757a","system_id":"levelo_inurba_marseille","lat":43.319179,"lon":5.407725,"is_reserved":false,"is_disabled":false,"rental_uris":{"android":"levelo://app?vid=c9982d22-c49f-43d9-bfbb-1ef6adfe757a","ios":"levelo://app?vid=c9982d22-c49f-43d9-bfbb-1ef6adfe757a"},"vehicle_type_id":"4","last_reported":1699758434,"current_range_meters":27600,"station_id":"ce4bhq12rcd13ifvqhig","pricing_plan_id":"free"},{"bike_id":"030625bd-f8ba-4389-9944-df2973894a22","system_id":"levelo_inurba_marseille","lat":43.325731,"lon":5.404186,"is_reserved":false,"is_disabled":false,"rental_uris":{"android":"levelo://app?vid=030625bd-f8ba-4389-9944-df2973894a22","ios":"levelo://app?vid=030625bd-f8ba-4389-9944-df2973894a22"},"vehicle_type_id":"4","last_reported":1699758434,"current_range_meters":1600,"station_id":"","pricing_plan_id":"free"},{"bike_id":"f0f283f2-bb6c-4724-afe8-19f46cefa39d","system_id":"levelo_inurba_marseille","lat":43.318892,"lon":5.407367,"is_reserved":false,"is_disabled":false,"rental_uris":{"android":"levelo://app?vid=f0f283f2-bb6c-4724-afe8-19f46cefa39d","ios":"levelo://app?vid=f0f283f2-bb6c-4724-afe8-19f46cefa39d"},"vehicle_type_id":"4","last_reported":1699758434,"current_range_meters":30800,"station_id":"ce4bhq12rcd13ifvqhig","pricing_plan_id":"free"},{"bike_id":"92905be3-3ac9-48a9-81f5-f31dfa311c3b","system_id":"levelo_inurba_marseille","lat":43.33717,"lon":5.391857,"is_reserved":false,"is_disabled":false,"rental_uris":{"android":"levelo://app?vid=92905be3-3ac9-48a9-81f5-f31dfa311c3b","ios":"levelo://app?vid=92905be3-3ac9-48a9-81f5-f31dfa311c3b"},"vehicle_type_id":"4","last_reported":1699758434,"current_range_meters":27600,"station_id":"ce4bhr92rcd13ifvqhsg","pricing_plan_id":"free"},{"bike_id":"8f73f349-a272-4ad6-b8fd-7b017ee1ab31","system_id":"levelo_inurba_marseille","lat":43.337168,"lon":5.391825,"is_reserved":false,"is_disabled":false,"rental_uris":{"android":"levelo://app?vid=8f73f349-a272-4ad6-b8fd-7b017ee1ab31","ios":"levelo://app?vid=8f73f349-a272-4ad6-b8fd-7b017ee1ab31"},"vehicle_type_id":"4","last_reported":1699758434,"current_range_meters":30800,"station_id":"ce4bhr92rcd13ifvqhsg","pricing_plan_id":"free"},{"bike_id":"4059a96c-410f-44e5-aa76-510671624795","system_id":"levelo_inurba_marseille","lat":43.323464,"lon":5.406297,"is_reserved":false,"is_disabled":false,"rental_uris":{"android":"levelo://app?vid=4059a96c-410f-44e5-aa76-510671624795","ios":"levelo://app?vid=4059a96c-410f-44e5-aa76-510671624795"},"vehicle_type_id":"4","last_reported":1699758434,"current_range_meters":26800,"station_id":"ce4bhq92rcd13ifvqhjg","pricing_plan_id":"free"},{"bike_id":"27511aab-823c-465b-826c-e631eb925b28","system_id":"levelo_inurba_marseille","lat":43.33717,"lon":5.391857,"is_reserved":false,"is_disabled":false,"rental_uris":{"android":"levelo://app?vid=27511aab-823c-465b-826c-e631eb925b28","ios":"levelo://app?vid=27511aab-823c-465b-826c-e631eb925b28"},"vehicle_type_id":"4","last_reported":1699758434,"current_range_meters":28800,"station_id":"ce4bhr92rcd13ifvqhsg","pricing_plan_id":"free"},{"bike_id":"0ea42eb7-d94a-4ce4-b101-6b35a0334432","system_id":"levelo_inurba_marseille","lat":43.323464,"lon":5.406297,"is_reserved":false,"is_disabled":false,"rental_uris":{"android":"levelo://app?vid=0ea42eb7-d94a-4ce4-b101-6b35a0334432","ios":"levelo://app?vid=0ea42eb7-d94a-4ce4-b101-6b35a0334432"},"vehicle_type_id":"4","last_reported":1699758434,"current_range_meters":24800,"station_id":"ce4bhq92rcd13ifvqhjg","pricing_plan_id":"free"},{"bike_id":"cd91dd56-5fc2-4595-a9dd-faf2c2c2f4ed","system_id":"levelo_inurba_marseille","lat":43.297946,"lon":5.404063,"is_reserved":false,"is_disabled":false,"rental_uris":{"android":"levelo://app?vid=cd91dd56-5fc2-4595-a9dd-faf2c2c2f4ed","ios":"levelo://app?vid=cd91dd56-5fc2-4595-a9dd-faf2c2c2f4ed"},"vehicle_type_id":"4","last_reported":1699758434,"current_range_meters":28400,"station_id":"ce4bh112rcd13ifvqd90","pricing_plan_id":"free"},{"bike_id":"1f2f8dac-2f75-4a82-a7a3-5f258845ecfe","system_id":"levelo_inurba_marseille","lat":43.288497,"lon":5.393089,"is_reserved":false,"is_disabled":false,"rental_uris":{"android":"levelo://app?vid=1f2f8dac-2f75-4a82-a7a3-5f258845ecfe","ios":"levelo://app?vid=1f2f8dac-2f75-4a82-a7a3-5f258845ecfe"},"vehicle_type_id":"4","last_reported":1699758434,"current_range_meters":29200,"station_id":"ce4bh2p2rcd13ifvqdi0","pricing_plan_id":"free"},{"bike_id":"bfabb695-6f85-47ee-97fb-e81604c4a605","system_id":"levelo_inurba_marseille","lat":43.28942,"lon":5.39633,"is_reserved":false,"is_disabled":false,"rental_uris":{"android":"levelo://app?vid=bfabb695-6f85-47ee-97fb-e81604c4a605","ios":"levelo://app?vid=bfabb695-6f85-47ee-97fb-e81604c4a605"},"vehicle_type_id":"4","last_reported":1699758434,"current_range_meters":0,"station_id":"ce4bh3h2rcd13ifvqdn0","pricing_plan_id":"free"},{"bike_id":"694cc18d-6823-481a-9d09-67d990c2d197","system_id":"levelo_inurba_marseille","lat":43.324289,"lon":5.407562,"is_reserved":false,"is_disabled":false,"rental_uris":{"android":"levelo://app?vid=694cc18d-6823-481a-9d09-67d990c2d197","ios":"levelo://app?vid=694cc18d-6823-481a-9d09-67d990c2d197"},"vehicle_type_id":"4","last_reported":1699758434,"current_range_meters":0,"station_id":"","pricing_plan_id":"free"},{"bike_id":"432ad7c0-c091-4db3-bee6-1975f7d19759","system_id":"levelo_inurba_marseille","lat":43.292724,"lon":5.401131,"is_reserved":false,"is_disabled":false,"rental_uris":{"android":"levelo://app?vid=432ad7c0-c091-4db3-bee6-1975f7d19759","ios":"levelo://app?vid=432ad7c0-c091-4db3-bee6-1975f7d19759"},"vehicle_type_id":"4","last_reported":1699758434,"current_range_meters":13600,"station_id":"ce4bh312rcd13ifvqdk0","pricing_plan_id":"free"},{"bike_id":"ad10d52b-58f1-4573-a935-5d1c82e057bf","system_id":"levelo_inurba_marseille","lat":43.29278,"lon":5.40114,"is_reserved":false,"is_disabled":false,"rental_uris":{"android":"levelo://app?vid=ad10d52b-58f1-4573-a935-5d1c82e057bf","ios":"levelo://app?vid=ad10d52b-58f1-4573-a935-5d1c82e057bf"},"vehicle_type_id":"4","last_reported":1699758434,"current_range_meters":30000,"station_id":"ce4bh312rcd13ifvqdk0","pricing_plan_id":"free"},{"bike_id":"cf4444bc-a8a7-4c52-9c6d-d70a42b0c5b9","system_id":"levelo_inurba_marseille","lat":43.292724,"lon":5.401131,"is_reserved":false,"is_disabled":false,"rental_uris":{"android":"levelo://app?vid=cf4444bc-a8a7-4c52-9c6d-d70a42b0c5b9","ios":"levelo://app?vid=cf4444bc-a8a7-4c52-9c6d-d70a42b0c5b9"},"vehicle_type_id":"4","last_reported":1699758434,"current_range_meters":27200,"station_id":"ce4bh312rcd13ifvqdk0","pricing_plan_id":"free"},{"bike_id":"12306468-1d20-416c-9379-1f5e2b1e7e90","system_id":"levelo_inurba_marseille","lat":43.280382,"lon":5.369291,"is_reserved":false,"is_disabled":false,"rental_uris":{"android":"levelo://app?vid=12306468-1d20-416c-9379-1f5e2b1e7e90","ios":"levelo://app?vid=12306468-1d20-416c-9379-1f5e2b1e7e90"},"vehicle_type_id":"4","last_reported":1699758434,"current_range_meters":30000,"station_id":"ce4bha12rcd13ifvqef0","pricing_plan_id":"free"},{"bike_id":"306e4c5f-b4f0-4876-ad06-b1c9a3a9d055","system_id":"levelo_inurba_marseille","lat":43.29049,"lon":5.39965,"is_reserved":false,"is_disabled":false,"rental_uris":{"android":"levelo://app?vid=306e4c5f-b4f0-4876-ad06-b1c9a3a9d055","ios":"levelo://app?vid=306e4c5f-b4f0-4876-ad06-b1c9a3a9d055"},"vehicle_type_id":"4","last_reported":1699758434,"current_range_meters":31200,"station_id":"ce4bh392rcd13ifvqdm0","pricing_plan_id":"free"},{"bike_id":"9d98e9d7-f99f-4741-b969-28e9e9c49c09","system_id":"levelo_inurba_marseille","lat":43.29041,"lon":5.399634,"is_reserved":false,"is_disabled":false,"rental_uris":{"android":"levelo://app?vid=9d98e9d7-f99f-4741-b969-28e9e9c49c09","ios":"levelo://app?vid=9d98e9d7-f99f-4741-b969-28e9e9c49c09"},"vehicle_type_id":"4","last_reported":1699758434,"current_range_meters":27200,"station_id":"ce4bh392rcd13ifvqdm0","pricing_plan_id":"free"},{"bike_id":"d4f75060-cd9a-4da8-84f5-a57e25c2d749","system_id":"levelo_inurba_marseille","lat":43.29041,"lon":5.399634,"is_reserved":false,"is_disabled":false,"rental_uris":{"android":"levelo://app?vid=d4f75060-cd9a-4da8-84f5-a57e25c2d749","ios":"levelo://app?vid=d4f75060-cd9a-4da8-84f5-a57e25c2d749"},"vehicle_type_id":"4","last_reported":1699758434,"current_range_meters":16400,"station_id":"ce4bh392rcd13ifvqdm0","pricing_plan_id":"free"},{"bike_id":"df3d9d92-b15f-4045-b142-6498f570e1a8","system_id":"levelo_inurba_marseille","lat":43.29041,"lon":5.399634,"is_reserved":false,"is_disabled":false,"rental_uris":{"android":"levelo://app?vid=df3d9d92-b15f-4045-b142-6498f570e1a8","ios":"levelo://app?vid=df3d9d92-b15f-4045-b142-6498f570e1a8"},"vehicle_type_id":"4","last_reported":1699758434,"current_range_meters":31200,"station_id":"ce4bh392rcd13ifvqdm0","pricing_plan_id":"free"},{"bike_id":"84fdd310-b6c4-4824-ba30-a8673539b410","system_id":"levelo_inurba_marseille","lat":43.296263,"lon":5.40601,"is_reserved":false,"is_disabled":false,"rental_uris":{"android":"levelo://app?vid=84fdd310-b6c4-4824-ba30-a8673539b410","ios":"levelo://app?vid=84fdd310-b6c4-4824-ba30-a8673539b410"},"vehicle_type_id":"4","last_reported":1699758434,"current_range_meters":30400,"station_id":"ce4bh0h2rcd13ifvqd60","pricing_plan_id":"free"},{"bike_id":"0c0469f4-4331-4fc2-afe9-d221a351ee95","system_id":"levelo_inurba_marseille","lat":43.296263,"lon":5.40601,"is_reserved":false,"is_disabled":false,"rental_uris":{"android":"levelo://app?vid=0c0469f4-4331-4fc2-afe9-d221a351ee95","ios":"levelo://app?vid=0c0469f4-4331-4fc2-afe9-d221a351ee95"},"vehicle_type_id":"4","last_reported":1699758434,"current_range_meters":10400,"station_id":"ce4bh0h2rcd13ifvqd60","pricing_plan_id":"free"},{"bike_id":"2f1001fa-0fbd-41df-b528-7da49cb61c18","system_id":"levelo_inurba_marseille","lat":43.290375,"lon":5.399959,"is_reserved":false,"is_disabled":false,"rental_uris":{"android":"levelo://app?vid=2f1001fa-0fbd-41df-b528-7da49cb61c18","ios":"levelo://app?vid=2f1001fa-0fbd-41df-b528-7da49cb61c18"},"vehicle_type_id":"4","last_reported":1699758434,"current_range_meters":30800,"station_id":"ce4bh392rcd13ifvqdm0","pricing_plan_id":"free"},{"bike_id":"b35e6659-d289-4c23-b25c-c0be4cd11147","system_id":"levelo_inurba_marseille","lat":43.296263,"lon":5.40601,"is_reserved":false,"is_disabled":false,"rental_uris":{"android":"levelo://app?vid=b35e6659-d289-4c23-b25c-c0be4cd11147","ios":"levelo://app?vid=b35e6659-d289-4c23-b25c-c0be4cd11147"},"vehicle_type_id":"4","last_reported":1699758434,"current_range_meters":22800,"station_id":"ce4bh0h2rcd13ifvqd60","pricing_plan_id":"free"},{"bike_id":"c9a81dd2-fae8-4325-b501-4012c0511cf5","system_id":"levelo_inurba_marseille","lat":43.290367,"lon":5.399976,"is_reserved":false,"is_disabled":false,"rental_uris":{"android":"levelo://app?vid=c9a81dd2-fae8-4325-b501-4012c0511cf5","ios":"levelo://app?vid=c9a81dd2-fae8-4325-b501-4012c0511cf5"},"vehicle_type_id":"4","last_reported":1699758434,"current_range_meters":14800,"station_id":"ce4bh392rcd13ifvqdm0","pricing_plan_id":"free"},{"bike_id":"fb1c5c17-dc7a-425a-8091-857d6e9cde1f","system_id":"levelo_inurba_marseille","lat":43.290303,"lon":5.399945,"is_reserved":false,"is_disabled":false,"rental_uris":{"android":"levelo://app?vid=fb1c5c17-dc7a-425a-8091-857d6e9cde1f","ios":"levelo://app?vid=fb1c5c17-dc7a-425a-8091-857d6e9cde1f"},"vehicle_type_id":"4","last_reported":1699758434,"current_range_meters":0,"station_id":"ce4bh392rcd13ifvqdm0","pricing_plan_id":"free"},{"bike_id":"381f479f-98e3-420f-a35b-8f63d09ecba7","system_id":"levelo_inurba_marseille","lat":43.290412,"lon":5.399633,"is_reserved":false,"is_disabled":false,"rental_uris":{"android":"levelo://app?vid=381f479f-98e3-420f-a35b-8f63d09ecba7","ios":"levelo://app?vid=381f479f-98e3-420f-a35b-8f63d09ecba7"},"vehicle_type_id":"4","last_reported":1699758434,"current_range_meters":23200,"station_id":"ce4bh392rcd13ifvqdm0","pricing_plan_id":"free"},{"bike_id":"c5269fde-c094-4163-a2ac-a6350e774e3c","system_id":"levelo_inurba_marseille","lat":43.323447,"lon":5.41003,"is_reserved":false,"is_disabled":false,"rental_uris":{"android":"levelo://app?vid=c5269fde-c094-4163-a2ac-a6350e774e3c","ios":"levelo://app?vid=c5269fde-c094-4163-a2ac-a6350e774e3c"},"vehicle_type_id":"4","last_reported":1699758434,"current_range_meters":3200,"station_id":"","pricing_plan_id":"free"},{"bike_id":"a7a718c5-ee63-4243-a2aa-d5332bbd0e52","system_id":"levelo_inurba_marseille","lat":43.284462,"lon":5.392121,"is_reserved":false,"is_disabled":false,"rental_uris":{"android":"levelo://app?vid=a7a718c5-ee63-4243-a2aa-d5332bbd0e52","ios":"levelo://app?vid=a7a718c5-ee63-4243-a2aa-d5332bbd0e52"},"vehicle_type_id":"4","last_reported":1699758434,"current_range_meters":17200,"station_id":"ce4bhoh2rcd13ifvqh5g","pricing_plan_id":"free"},{"bike_id":"1117b9a7-7693-4138-9782-62063356de7d","system_id":"levelo_inurba_marseille","lat":43.285742,"lon":5.395004,"is_reserved":false,"is_disabled":false,"rental_uris":{"android":"levelo://app?vid=1117b9a7-7693-4138-9782-62063356de7d","ios":"levelo://app?vid=1117b9a7-7693-4138-9782-62063356de7d"},"vehicle_type_id":"4","last_reported":1699758434,"current_range_meters":26000,"station_id":"ce4bh292rcd13ifvqdg0","pricing_plan_id":"free"},{"bike_id":"3174f05f-5ad4-4a14-b725-25d2dbd60472","system_id":"levelo_inurba_marseille","lat":43.28573,"lon":5.394992,"is_reserved":false,"is_disabled":false,"rental_uris":{"android":"levelo://app?vid=3174f05f-5ad4-4a14-b725-25d2dbd60472","ios":"levelo://app?vid=3174f05f-5ad4-4a14-b725-25d2dbd60472"},"vehicle_type_id":"4","last_reported":1699758434,"current_range_meters":27200,"station_id":"ce4bh292rcd13ifvqdg0","pricing_plan_id":"free"},{"bike_id":"aca80618-b48e-4f2d-ae6a-3957117fd225","system_id":"levelo_inurba_marseille","lat":43.28573,"lon":5.394992,"is_reserved":false,"is_disabled":false,"rental_uris":{"android":"levelo://app?vid=aca80618-b48e-4f2d-ae6a-3957117fd225","ios":"levelo://app?vid=aca80618-b48e-4f2d-ae6a-3957117fd225"},"vehicle_type_id":"4","last_reported":1699758434,"current_range_meters":31200,"station_id":"ce4bh292rcd13ifvqdg0","pricing_plan_id":"free"},{"bike_id":"f9b238b3-ce91-46fe-a65f-e1771ef13ae2","system_id":"levelo_inurba_marseille","lat":43.28563,"lon":5.39493,"is_reserved":false,"is_disabled":false,"rental_uris":{"android":"levelo://app?vid=f9b238b3-ce91-46fe-a65f-e1771ef13ae2","ios":"levelo://app?vid=f9b238b3-ce91-46fe-a65f-e1771ef13ae2"},"vehicle_type_id":"4","last_reported":1699758434,"current_range_meters":16800,"station_id":"ce4bh292rcd13ifvqdg0","pricing_plan_id":"free"},{"bike_id":"51e46aad-dfc3-4443-8816-a5e3d0c00f46","system_id":"levelo_inurba_marseille","lat":43.304188,"lon":5.412904,"is_reserved":false,"is_disabled":false,"rental_uris":{"android":"levelo://app?vid=51e46aad-dfc3-4443-8816-a5e3d0c00f46","ios":"levelo://app?vid=51e46aad-dfc3-4443-8816-a5e3d0c00f46"},"vehicle_type_id":"4","last_reported":1699758434,"current_range_meters":26400,"station_id":"ce4bhop2rcd13ifvqh8g","pricing_plan_id":"free"},{"bike_id":"8753fbf8-8786-4ee7-8f02-556c941e2086","system_id":"levelo_inurba_marseille","lat":43.304188,"lon":5.412904,"is_reserved":false,"is_disabled":false,"rental_uris":{"android":"levelo://app?vid=8753fbf8-8786-4ee7-8f02-556c941e2086","ios":"levelo://app?vid=8753fbf8-8786-4ee7-8f02-556c941e2086"},"vehicle_type_id":"4","last_reported":1699758434,"current_range_meters":29600,"station_id":"ce4bhop2rcd13ifvqh8g","pricing_plan_id":"free"},{"bike_id":"5e9c99ea-9137-41c6-a0e7-03f126e9dc5d","system_id":"levelo_inurba_marseille","lat":43.279087,"lon":5.380114,"is_reserved":false,"is_disabled":false,"rental_uris":{"android":"levelo://app?vid=5e9c99ea-9137-41c6-a0e7-03f126e9dc5d","ios":"levelo://app?vid=5e9c99ea-9137-41c6-a0e7-03f126e9dc5d"},"vehicle_type_id":"4","last_reported":1699758434,"current_range_meters":28000,"station_id":"ce4bhf92rcd13ifvqf50","pricing_plan_id":"free"},{"bike_id":"b40ee5bd-0bce-45dd-95c6-d90970eca986","system_id":"levelo_inurba_marseille","lat":43.287154,"lon":5.399979,"is_reserved":false,"is_disabled":false,"rental_uris":{"android":"levelo://app?vid=b40ee5bd-0bce-45dd-95c6-d90970eca986","ios":"levelo://app?vid=b40ee5bd-0bce-45dd-95c6-d90970eca986"},"vehicle_type_id":"4","last_reported":1699758434,"current_range_meters":24400,"station_id":"ce4bho92rcd13ifvqh3g","pricing_plan_id":"free"},{"bike_id":"9c352657-0cd2-470b-93f2-6b5ccbefddd3","system_id":"levelo_inurba_marseille","lat":43.287154,"lon":5.399979,"is_reserved":false,"is_disabled":false,"rental_uris":{"android":"levelo://app?vid=9c352657-0cd2-470b-93f2-6b5ccbefddd3","ios":"levelo://app?vid=9c352657-0cd2-470b-93f2-6b5ccbefddd3"},"vehicle_type_id":"4","last_reported":1699758434,"current_range_meters":10000,"station_id":"ce4bho92rcd13ifvqh3g","pricing_plan_id":"free"},{"bike_id":"45e20a59-3448-45d5-8917-cf91dd82701c","system_id":"levelo_inurba_marseille","lat":43.287154,"lon":5.399979,"is_reserved":false,"is_disabled":false,"rental_uris":{"android":"levelo://app?vid=45e20a59-3448-45d5-8917-cf91dd82701c","ios":"levelo://app?vid=45e20a59-3448-45d5-8917-cf91dd82701c"},"vehicle_type_id":"4","last_reported":1699758434,"current_range_meters":12800,"station_id":"ce4bho92rcd13ifvqh3g","pricing_plan_id":"free"},{"bike_id":"feca28d2-7019-4e39-96be-d7938cc29597","system_id":"levelo_inurba_marseille","lat":43.32435,"lon":5.4137,"is_reserved":false,"is_disabled":false,"rental_uris":{"android":"levelo://app?vid=feca28d2-7019-4e39-96be-d7938cc29597","ios":"levelo://app?vid=feca28d2-7019-4e39-96be-d7938cc29597"},"vehicle_type_id":"4","last_reported":1699758434,"current_range_meters":19200,"station_id":"","pricing_plan_id":"free"},{"bike_id":"8dff6f37-5746-4b78-9561-223c62d49d42","system_id":"levelo_inurba_marseille","lat":43.320045,"lon":5.415048,"is_reserved":false,"is_disabled":false,"rental_uris":{"android":"levelo://app?vid=8dff6f37-5746-4b78-9561-223c62d49d42","ios":"levelo://app?vid=8dff6f37-5746-4b78-9561-223c62d49d42"},"vehicle_type_id":"4","last_reported":1699758434,"current_range_meters":25200,"station_id":"ce4bhq92rcd13ifvqhkg","pricing_plan_id":"free"},{"bike_id":"0779d43e-fe69-423b-a527-8860d39e5292","system_id":"levelo_inurba_marseille","lat":43.279742,"lon":5.38744,"is_reserved":false,"is_disabled":false,"rental_uris":{"android":"levelo://app?vid=0779d43e-fe69-423b-a527-8860d39e5292","ios":"levelo://app?vid=0779d43e-fe69-423b-a527-8860d39e5292"},"vehicle_type_id":"4","last_reported":1699758434,"current_range_meters":28400,"station_id":"ce4bhg12rcd13ifvqf80","pricing_plan_id":"free"},{"bike_id":"2f440bd8-17be-4fb7-a823-876aff922831","system_id":"levelo_inurba_marseille","lat":43.279588,"lon":5.387218,"is_reserved":false,"is_disabled":false,"rental_uris":{"android":"levelo://app?vid=2f440bd8-17be-4fb7-a823-876aff922831","ios":"levelo://app?vid=2f440bd8-17be-4fb7-a823-876aff922831"},"vehicle_type_id":"4","last_reported":1699758434,"current_range_meters":0,"station_id":"ce4bhg12rcd13ifvqf80","pricing_plan_id":"free"},{"bike_id":"a9d56fa8-9aa6-41c4-b7af-6df95e957368","system_id":"levelo_inurba_marseille","lat":43.32049,"lon":5.415805,"is_reserved":false,"is_disabled":false,"rental_uris":{"android":"levelo://app?vid=a9d56fa8-9aa6-41c4-b7af-6df95e957368","ios":"levelo://app?vid=a9d56fa8-9aa6-41c4-b7af-6df95e957368"},"vehicle_type_id":"4","last_reported":1699758434,"current_range_meters":26000,"station_id":"ce4bhq92rcd13ifvqhkg","pricing_plan_id":"free"},{"bike_id":"51e39558-6fce-4d4a-807a-0fa0031da8af","system_id":"levelo_inurba_marseille","lat":43.292571,"lon":5.409107,"is_reserved":false,"is_disabled":false,"rental_uris":{"android":"levelo://app?vid=51e39558-6fce-4d4a-807a-0fa0031da8af","ios":"levelo://app?vid=51e39558-6fce-4d4a-807a-0fa0031da8af"},"vehicle_type_id":"4","last_reported":1699758434,"current_range_meters":27600,"station_id":"ce4bh192rcd13ifvqdc0","pricing_plan_id":"free"},{"bike_id":"06b94600-95a5-4ab7-8bc0-a183d84abc7e","system_id":"levelo_inurba_marseille","lat":43.292569,"lon":5.409107,"is_reserved":false,"is_disabled":false,"rental_uris":{"android":"levelo://app?vid=06b94600-95a5-4ab7-8bc0-a183d84abc7e","ios":"levelo://app?vid=06b94600-95a5-4ab7-8bc0-a183d84abc7e"},"vehicle_type_id":"4","last_reported":1699758434,"current_range_meters":8000,"station_id":"ce4bh192rcd13ifvqdc0","pricing_plan_id":"free"},{"bike_id":"48c00647-4111-4a89-8f4b-6cf4b68213f2","system_id":"levelo_inurba_marseille","lat":43.292569,"lon":5.409107,"is_reserved":false,"is_disabled":false,"rental_uris":{"android":"levelo://app?vid=48c00647-4111-4a89-8f4b-6cf4b68213f2","ios":"levelo://app?vid=48c00647-4111-4a89-8f4b-6cf4b68213f2"},"vehicle_type_id":"4","last_reported":1699758434,"current_range_meters":21200,"station_id":"ce4bh192rcd13ifvqdc0","pricing_plan_id":"free"},{"bike_id":"80fa2f1a-d106-4131-9662-893ca7e4994e","system_id":"levelo_inurba_marseille","lat":43.292571,"lon":5.409107,"is_reserved":false,"is_disabled":false,"rental_uris":{"android":"levelo://app?vid=80fa2f1a-d106-4131-9662-893ca7e4994e","ios":"levelo://app?vid=80fa2f1a-d106-4131-9662-893ca7e4994e"},"vehicle_type_id":"4","last_reported":1699758434,"current_range_meters":28800,"station_id":"ce4bh192rcd13ifvqdc0","pricing_plan_id":"free"},{"bike_id":"e4a19567-06a0-4d1b-98ea-632ee0682def","system_id":"levelo_inurba_marseille","lat":43.27618,"lon":5.361009,"is_reserved":false,"is_disabled":false,"rental_uris":{"android":"levelo://app?vid=e4a19567-06a0-4d1b-98ea-632ee0682def","ios":"levelo://app?vid=e4a19567-06a0-4d1b-98ea-632ee0682def"},"vehicle_type_id":"4","last_reported":1699758434,"current_range_meters":22800,"station_id":"ce4bgj92rcd13ifvqbe0","pricing_plan_id":"free"},{"bike_id":"85e9b556-fd01-44a1-a96b-a6581d302ffa","system_id":"levelo_inurba_marseille","lat":43.325233,"lon":5.414318,"is_reserved":false,"is_disabled":false,"rental_uris":{"android":"levelo://app?vid=85e9b556-fd01-44a1-a96b-a6581d302ffa","ios":"levelo://app?vid=85e9b556-fd01-44a1-a96b-a6581d302ffa"},"vehicle_type_id":"4","last_reported":1699758434,"current_range_meters":29600,"station_id":"ce4bhq12rcd13ifvqhhg","pricing_plan_id":"free"},{"bike_id":"3ba97417-810b-4ddb-bd2d-96fba8f7873c","system_id":"levelo_inurba_marseille","lat":43.276143,"lon":5.361159,"is_reserved":false,"is_disabled":false,"rental_uris":{"android":"levelo://app?vid=3ba97417-810b-4ddb-bd2d-96fba8f7873c","ios":"levelo://app?vid=3ba97417-810b-4ddb-bd2d-96fba8f7873c"},"vehicle_type_id":"4","last_reported":1699758434,"current_range_meters":28400,"station_id":"ce4bgj92rcd13ifvqbe0","pricing_plan_id":"free"},{"bike_id":"9b317e32-ce46-4553-8b47-f8ff080d430a","system_id":"levelo_inurba_marseille","lat":43.2761,"lon":5.36114,"is_reserved":false,"is_disabled":false,"rental_uris":{"android":"levelo://app?vid=9b317e32-ce46-4553-8b47-f8ff080d430a","ios":"levelo://app?vid=9b317e32-ce46-4553-8b47-f8ff080d430a"},"vehicle_type_id":"4","last_reported":1699758434,"current_range_meters":7200,"station_id":"ce4bgj92rcd13ifvqbe0","pricing_plan_id":"free"},{"bike_id":"ff1d36f2-94a1-4cf2-9aa0-202365e5981d","system_id":"levelo_inurba_marseille","lat":43.280784,"lon":5.396622,"is_reserved":false,"is_disabled":false,"rental_uris":{"android":"levelo://app?vid=ff1d36f2-94a1-4cf2-9aa0-202365e5981d","ios":"levelo://app?vid=ff1d36f2-94a1-4cf2-9aa0-202365e5981d"},"vehicle_type_id":"4","last_reported":1699758434,"current_range_meters":31200,"station_id":"ce4bho12rcd13ifvqh2g","pricing_plan_id":"free"},{"bike_id":"9dbe2033-6288-411c-b9f1-bd08dcc8b534","system_id":"levelo_inurba_marseille","lat":43.280703,"lon":5.39652,"is_reserved":false,"is_disabled":false,"rental_uris":{"android":"levelo://app?vid=9dbe2033-6288-411c-b9f1-bd08dcc8b534","ios":"levelo://app?vid=9dbe2033-6288-411c-b9f1-bd08dcc8b534"},"vehicle_type_id":"4","last_reported":1699758434,"current_range_meters":30400,"station_id":"","pricing_plan_id":"free"},{"bike_id":"7c112e6a-ec57-4d77-96db-4118a8fc598d","system_id":"levelo_inurba_marseille","lat":43.278307,"lon":5.392062,"is_reserved":false,"is_disabled":false,"rental_uris":{"android":"levelo://app?vid=7c112e6a-ec57-4d77-96db-4118a8fc598d","ios":"levelo://app?vid=7c112e6a-ec57-4d77-96db-4118a8fc598d"},"vehicle_type_id":"4","last_reported":1699758434,"current_range_meters":30000,"station_id":"ce4bhjp2rcd13ifvqga0","pricing_plan_id":"free"},{"bike_id":"cc611fd9-094b-4b4e-a5e7-61d8177b473a","system_id":"levelo_inurba_marseille","lat":43.273613,"lon":5.362705,"is_reserved":false,"is_disabled":false,"rental_uris":{"android":"levelo://app?vid=cc611fd9-094b-4b4e-a5e7-61d8177b473a","ios":"levelo://app?vid=cc611fd9-094b-4b4e-a5e7-61d8177b473a"},"vehicle_type_id":"4","last_reported":1699758434,"current_range_meters":31200,"station_id":"ce4bhbh2rcd13ifvqeo0","pricing_plan_id":"free"},{"bike_id":"087ae938-5fe8-462b-b10d-05b58d1a973d","system_id":"levelo_inurba_marseille","lat":43.275625,"lon":5.384392,"is_reserved":false,"is_disabled":false,"rental_uris":{"android":"levelo://app?vid=087ae938-5fe8-462b-b10d-05b58d1a973d","ios":"levelo://app?vid=087ae938-5fe8-462b-b10d-05b58d1a973d"},"vehicle_type_id":"4","last_reported":1699758434,"current_range_meters":30000,"station_id":"ce4bhh92rcd13ifvqfi0","pricing_plan_id":"free"},{"bike_id":"2e385f44-e589-4e63-8afa-a1d938e2ab74","system_id":"levelo_inurba_marseille","lat":43.27374,"lon":5.36264,"is_reserved":false,"is_disabled":false,"rental_uris":{"android":"levelo://app?vid=2e385f44-e589-4e63-8afa-a1d938e2ab74","ios":"levelo://app?vid=2e385f44-e589-4e63-8afa-a1d938e2ab74"},"vehicle_type_id":"4","last_reported":1699758434,"current_range_meters":0,"station_id":"ce4bhbh2rcd13ifvqeo0","pricing_plan_id":"free"},{"bike_id":"74426711-c575-43c1-be92-c3d5c7022cad","system_id":"levelo_inurba_marseille","lat":43.275625,"lon":5.384392,"is_reserved":false,"is_disabled":false,"rental_uris":{"android":"levelo://app?vid=74426711-c575-43c1-be92-c3d5c7022cad","ios":"levelo://app?vid=74426711-c575-43c1-be92-c3d5c7022cad"},"vehicle_type_id":"4","last_reported":1699758434,"current_range_meters":27200,"station_id":"ce4bhh92rcd13ifvqfi0","pricing_plan_id":"free"},{"bike_id":"30b8a61b-a048-475c-a678-6286a5aa4aa6","system_id":"levelo_inurba_marseille","lat":43.273609,"lon":5.362708,"is_reserved":false,"is_disabled":false,"rental_uris":{"android":"levelo://app?vid=30b8a61b-a048-475c-a678-6286a5aa4aa6","ios":"levelo://app?vid=30b8a61b-a048-475c-a678-6286a5aa4aa6"},"vehicle_type_id":"4","last_reported":1699758434,"current_range_meters":9600,"station_id":"ce4bhbh2rcd13ifvqeo0","pricing_plan_id":"free"},{"bike_id":"a9bdb548-b338-43ad-a2a2-3e3fe9cd0e15","system_id":"levelo_inurba_marseille","lat":43.275641,"lon":5.384207,"is_reserved":false,"is_disabled":false,"rental_uris":{"android":"levelo://app?vid=a9bdb548-b338-43ad-a2a2-3e3fe9cd0e15","ios":"levelo://app?vid=a9bdb548-b338-43ad-a2a2-3e3fe9cd0e15"},"vehicle_type_id":"4","last_reported":1699758434,"current_range_meters":4400,"station_id":"ce4bhh92rcd13ifvqfi0","pricing_plan_id":"free"},{"bike_id":"31213c42-fd39-44c9-ab64-8587e44cbb68","system_id":"levelo_inurba_marseille","lat":43.33612,"lon":5.410321,"is_reserved":false,"is_disabled":false,"rental_uris":{"android":"levelo://app?vid=31213c42-fd39-44c9-ab64-8587e44cbb68","ios":"levelo://app?vid=31213c42-fd39-44c9-ab64-8587e44cbb68"},"vehicle_type_id":"4","last_reported":1699758434,"current_range_meters":31600,"station_id":"ce4bhqh2rcd13ifvqhmg","pricing_plan_id":"free"},{"bike_id":"42d5e417-09c2-4405-add5-d6e0158c88dc","system_id":"levelo_inurba_marseille","lat":43.33612,"lon":5.410321,"is_reserved":false,"is_disabled":false,"rental_uris":{"android":"levelo://app?vid=42d5e417-09c2-4405-add5-d6e0158c88dc","ios":"levelo://app?vid=42d5e417-09c2-4405-add5-d6e0158c88dc"},"vehicle_type_id":"4","last_reported":1699758434,"current_range_meters":23600,"station_id":"ce4bhqh2rcd13ifvqhmg","pricing_plan_id":"free"},{"bike_id":"7422f2af-2fa3-41e5-a40b-351660716d89","system_id":"levelo_inurba_marseille","lat":43.336134,"lon":5.410341,"is_reserved":false,"is_disabled":false,"rental_uris":{"android":"levelo://app?vid=7422f2af-2fa3-41e5-a40b-351660716d89","ios":"levelo://app?vid=7422f2af-2fa3-41e5-a40b-351660716d89"},"vehicle_type_id":"4","last_reported":1699758434,"current_range_meters":30800,"station_id":"ce4bhqh2rcd13ifvqhmg","pricing_plan_id":"free"},{"bike_id":"20065e28-63b5-49fd-8bda-4f488a826029","system_id":"levelo_inurba_marseille","lat":43.336134,"lon":5.410341,"is_reserved":false,"is_disabled":false,"rental_uris":{"android":"levelo://app?vid=20065e28-63b5-49fd-8bda-4f488a826029","ios":"levelo://app?vid=20065e28-63b5-49fd-8bda-4f488a826029"},"vehicle_type_id":"4","last_reported":1699758434,"current_range_meters":19200,"station_id":"ce4bhqh2rcd13ifvqhmg","pricing_plan_id":"free"},{"bike_id":"79e9bba1-99d7-49b4-8631-493e1c610912","system_id":"levelo_inurba_marseille","lat":43.336134,"lon":5.410341,"is_reserved":false,"is_disabled":false,"rental_uris":{"android":"levelo://app?vid=79e9bba1-99d7-49b4-8631-493e1c610912","ios":"levelo://app?vid=79e9bba1-99d7-49b4-8631-493e1c610912"},"vehicle_type_id":"4","last_reported":1699758434,"current_range_meters":28000,"station_id":"ce4bhqh2rcd13ifvqhmg","pricing_plan_id":"free"},{"bike_id":"68ffca5c-f92e-4d2b-b812-3edfa190d5ea","system_id":"levelo_inurba_marseille","lat":43.278275,"lon":5.396505,"is_reserved":false,"is_disabled":false,"rental_uris":{"android":"levelo://app?vid=68ffca5c-f92e-4d2b-b812-3edfa190d5ea","ios":"levelo://app?vid=68ffca5c-f92e-4d2b-b812-3edfa190d5ea"},"vehicle_type_id":"4","last_reported":1699758434,"current_range_meters":6400,"station_id":"","pricing_plan_id":"free"},{"bike_id":"6a67f168-92cd-4ba4-bbe7-e0d5add12544","system_id":"levelo_inurba_marseille","lat":43.279952,"lon":5.400085,"is_reserved":false,"is_disabled":false,"rental_uris":{"android":"levelo://app?vid=6a67f168-92cd-4ba4-bbe7-e0d5add12544","ios":"levelo://app?vid=6a67f168-92cd-4ba4-bbe7-e0d5add12544"},"vehicle_type_id":"4","last_reported":1699758434,"current_range_meters":31600,"station_id":"ce4bho92rcd13ifvqh4g","pricing_plan_id":"free"},{"bike_id":"fb678694-b49f-4fb3-ad47-4f150f1527d7","system_id":"levelo_inurba_marseille","lat":43.279952,"lon":5.400085,"is_reserved":false,"is_disabled":false,"rental_uris":{"android":"levelo://app?vid=fb678694-b49f-4fb3-ad47-4f150f1527d7","ios":"levelo://app?vid=fb678694-b49f-4fb3-ad47-4f150f1527d7"},"vehicle_type_id":"4","last_reported":1699758434,"current_range_meters":31600,"station_id":"ce4bho92rcd13ifvqh4g","pricing_plan_id":"free"},{"bike_id":"3a740c5c-b5c6-48b8-8736-3c09a24decaa","system_id":"levelo_inurba_marseille","lat":43.279952,"lon":5.400085,"is_reserved":false,"is_disabled":false,"rental_uris":{"android":"levelo://app?vid=3a740c5c-b5c6-48b8-8736-3c09a24decaa","ios":"levelo://app?vid=3a740c5c-b5c6-48b8-8736-3c09a24decaa"},"vehicle_type_id":"4","last_reported":1699758434,"current_range_meters":31600,"station_id":"ce4bho92rcd13ifvqh4g","pricing_plan_id":"free"},{"bike_id":"9ca07053-fada-47fa-804a-492a24d14302","system_id":"levelo_inurba_marseille","lat":43.279952,"lon":5.400085,"is_reserved":false,"is_disabled":false,"rental_uris":{"android":"levelo://app?vid=9ca07053-fada-47fa-804a-492a24d14302","ios":"levelo://app?vid=9ca07053-fada-47fa-804a-492a24d14302"},"vehicle_type_id":"4","last_reported":1699758434,"current_range_meters":23200,"station_id":"ce4bho92rcd13ifvqh4g","pricing_plan_id":"free"},{"bike_id":"c2fc3bad-d6f3-44af-aa68-4b442aac0a94","system_id":"levelo_inurba_marseille","lat":43.317121,"lon":5.423936,"is_reserved":false,"is_disabled":false,"rental_uris":{"android":"levelo://app?vid=c2fc3bad-d6f3-44af-aa68-4b442aac0a94","ios":"levelo://app?vid=c2fc3bad-d6f3-44af-aa68-4b442aac0a94"},"vehicle_type_id":"4","last_reported":1699758434,"current_range_meters":27200,"station_id":"ce4bhp92rcd13ifvqhbg","pricing_plan_id":"free"},{"bike_id":"a0514d4c-4605-4875-9c27-d322cd2d7c43","system_id":"levelo_inurba_marseille","lat":43.317121,"lon":5.423936,"is_reserved":false,"is_disabled":false,"rental_uris":{"android":"levelo://app?vid=a0514d4c-4605-4875-9c27-d322cd2d7c43","ios":"levelo://app?vid=a0514d4c-4605-4875-9c27-d322cd2d7c43"},"vehicle_type_id":"4","last_reported":1699758434,"current_range_meters":14400,"station_id":"ce4bhp92rcd13ifvqhbg","pricing_plan_id":"free"},{"bike_id":"3a1d316d-e271-415d-9afd-81db9736cf60","system_id":"levelo_inurba_marseille","lat":43.310785,"lon":5.424305,"is_reserved":false,"is_disabled":false,"rental_uris":{"android":"levelo://app?vid=3a1d316d-e271-415d-9afd-81db9736cf60","ios":"levelo://app?vid=3a1d316d-e271-415d-9afd-81db9736cf60"},"vehicle_type_id":"4","last_reported":1699758434,"current_range_meters":23200,"station_id":"ce4bhp92rcd13ifvqhag","pricing_plan_id":"free"},{"bike_id":"3ff75dc1-a336-4195-b5b8-760ffaefca40","system_id":"levelo_inurba_marseille","lat":43.340804,"lon":5.410219,"is_reserved":false,"is_disabled":false,"rental_uris":{"android":"levelo://app?vid=3ff75dc1-a336-4195-b5b8-760ffaefca40","ios":"levelo://app?vid=3ff75dc1-a336-4195-b5b8-760ffaefca40"},"vehicle_type_id":"4","last_reported":1699758434,"current_range_meters":29600,"station_id":"ce4bhqh2rcd13ifvqhlg","pricing_plan_id":"free"},{"bike_id":"2e6c6616-bc87-409d-9cb7-3ec51b5a775a","system_id":"levelo_inurba_marseille","lat":43.340804,"lon":5.410219,"is_reserved":false,"is_disabled":false,"rental_uris":{"android":"levelo://app?vid=2e6c6616-bc87-409d-9cb7-3ec51b5a775a","ios":"levelo://app?vid=2e6c6616-bc87-409d-9cb7-3ec51b5a775a"},"vehicle_type_id":"4","last_reported":1699758434,"current_range_meters":25600,"station_id":"ce4bhqh2rcd13ifvqhlg","pricing_plan_id":"free"},{"bike_id":"1e6b6d63-42cc-4e04-b97c-8593811d5f34","system_id":"levelo_inurba_marseille","lat":43.30413,"lon":5.42545,"is_reserved":false,"is_disabled":false,"rental_uris":{"android":"levelo://app?vid=1e6b6d63-42cc-4e04-b97c-8593811d5f34","ios":"levelo://app?vid=1e6b6d63-42cc-4e04-b97c-8593811d5f34"},"vehicle_type_id":"4","last_reported":1699758434,"current_range_meters":0,"station_id":"ce4bhoh2rcd13ifvqh6g","pricing_plan_id":"free"},{"bike_id":"b32f71cd-6d6f-4dfc-b9cd-a72b3574284a","system_id":"levelo_inurba_marseille","lat":43.295523,"lon":5.422926,"is_reserved":false,"is_disabled":false,"rental_uris":{"android":"levelo://app?vid=b32f71cd-6d6f-4dfc-b9cd-a72b3574284a","ios":"levelo://app?vid=b32f71cd-6d6f-4dfc-b9cd-a72b3574284a"},"vehicle_type_id":"4","last_reported":1699758434,"current_range_meters":30000,"station_id":"ce4bhph2rcd13ifvqhdg","pricing_plan_id":"free"},{"bike_id":"84f35a2d-f0ec-4933-aac5-2b000c2ec3cb","system_id":"levelo_inurba_marseille","lat":43.295517,"lon":5.422845,"is_reserved":false,"is_disabled":false,"rental_uris":{"android":"levelo://app?vid=84f35a2d-f0ec-4933-aac5-2b000c2ec3cb","ios":"levelo://app?vid=84f35a2d-f0ec-4933-aac5-2b000c2ec3cb"},"vehicle_type_id":"4","last_reported":1699758434,"current_range_meters":21600,"station_id":"ce4bhph2rcd13ifvqhdg","pricing_plan_id":"free"},{"bike_id":"856a52ff-a401-4d3c-9086-1916de1c4fb0","system_id":"levelo_inurba_marseille","lat":43.29551,"lon":5.42287,"is_reserved":false,"is_disabled":false,"rental_uris":{"android":"levelo://app?vid=856a52ff-a401-4d3c-9086-1916de1c4fb0","ios":"levelo://app?vid=856a52ff-a401-4d3c-9086-1916de1c4fb0"},"vehicle_type_id":"4","last_reported":1699758434,"current_range_meters":31200,"station_id":"ce4bhph2rcd13ifvqhdg","pricing_plan_id":"free"},{"bike_id":"cc8a3062-3e51-404f-a5bb-fed5633eee2d","system_id":"levelo_inurba_marseille","lat":43.29554,"lon":5.42295,"is_reserved":false,"is_disabled":false,"rental_uris":{"android":"levelo://app?vid=cc8a3062-3e51-404f-a5bb-fed5633eee2d","ios":"levelo://app?vid=cc8a3062-3e51-404f-a5bb-fed5633eee2d"},"vehicle_type_id":"4","last_reported":1699758434,"current_range_meters":18400,"station_id":"ce4bhph2rcd13ifvqhdg","pricing_plan_id":"free"},{"bike_id":"71e768a2-9b49-49d8-bb9b-827044bbb7f7","system_id":"levelo_inurba_marseille","lat":43.27203,"lon":5.39295,"is_reserved":false,"is_disabled":false,"rental_uris":{"android":"levelo://app?vid=71e768a2-9b49-49d8-bb9b-827044bbb7f7","ios":"levelo://app?vid=71e768a2-9b49-49d8-bb9b-827044bbb7f7"},"vehicle_type_id":"4","last_reported":1699758434,"current_range_meters":16800,"station_id":"","pricing_plan_id":"free"},{"bike_id":"eb620939-ae4a-4359-b067-c44d4162d9f6","system_id":"levelo_inurba_marseille","lat":43.278128,"lon":5.407195,"is_reserved":false,"is_disabled":false,"rental_uris":{"android":"levelo://app?vid=eb620939-ae4a-4359-b067-c44d4162d9f6","ios":"levelo://app?vid=eb620939-ae4a-4359-b067-c44d4162d9f6"},"vehicle_type_id":"4","last_reported":1699758434,"current_range_meters":28000,"station_id":"ce4bhnh2rcd13ifvqgtg","pricing_plan_id":"free"},{"bike_id":"86d62e71-04dc-47ec-9e03-c23c4f9a904d","system_id":"levelo_inurba_marseille","lat":43.278128,"lon":5.407195,"is_reserved":false,"is_disabled":false,"rental_uris":{"android":"levelo://app?vid=86d62e71-04dc-47ec-9e03-c23c4f9a904d","ios":"levelo://app?vid=86d62e71-04dc-47ec-9e03-c23c4f9a904d"},"vehicle_type_id":"4","last_reported":1699758434,"current_range_meters":27600,"station_id":"ce4bhnh2rcd13ifvqgtg","pricing_plan_id":"free"},{"bike_id":"0079183f-ae09-4f33-a47e-978a14a9abeb","system_id":"levelo_inurba_marseille","lat":43.279465,"lon":5.410561,"is_reserved":false,"is_disabled":false,"rental_uris":{"android":"levelo://app?vid=0079183f-ae09-4f33-a47e-978a14a9abeb","ios":"levelo://app?vid=0079183f-ae09-4f33-a47e-978a14a9abeb"},"vehicle_type_id":"4","last_reported":1699758434,"current_range_meters":25200,"station_id":"ce4bhnp2rcd13ifvqh0g","pricing_plan_id":"free"},{"bike_id":"1b19979b-652d-46c8-ae19-1c751da94377","system_id":"levelo_inurba_marseille","lat":43.279428,"lon":5.410342,"is_reserved":false,"is_disabled":false,"rental_uris":{"android":"levelo://app?vid=1b19979b-652d-46c8-ae19-1c751da94377","ios":"levelo://app?vid=1b19979b-652d-46c8-ae19-1c751da94377"},"vehicle_type_id":"4","last_reported":1699758434,"current_range_meters":17200,"station_id":"ce4bhnp2rcd13ifvqh0g","pricing_plan_id":"free"},{"bike_id":"04e2b25a-ab9c-498c-9ebe-f54fd018f28f","system_id":"levelo_inurba_marseille","lat":43.279465,"lon":5.410561,"is_reserved":false,"is_disabled":false,"rental_uris":{"android":"levelo://app?vid=04e2b25a-ab9c-498c-9ebe-f54fd018f28f","ios":"levelo://app?vid=04e2b25a-ab9c-498c-9ebe-f54fd018f28f"},"vehicle_type_id":"4","last_reported":1699758434,"current_range_meters":11600,"station_id":"ce4bhnp2rcd13ifvqh0g","pricing_plan_id":"free"},{"bike_id":"d7ef0163-7856-4faf-b61b-cc554a5e59e3","system_id":"levelo_inurba_marseille","lat":43.26681,"lon":5.382694,"is_reserved":false,"is_disabled":false,"rental_uris":{"android":"levelo://app?vid=d7ef0163-7856-4faf-b61b-cc554a5e59e3","ios":"levelo://app?vid=d7ef0163-7856-4faf-b61b-cc554a5e59e3"},"vehicle_type_id":"4","last_reported":1699758434,"current_range_meters":0,"station_id":"ce4bhg92rcd13ifvqf90","pricing_plan_id":"free"},{"bike_id":"ce532701-5f36-4a41-813c-8d66555def94","system_id":"levelo_inurba_marseille","lat":43.27996,"lon":5.416624,"is_reserved":false,"is_disabled":false,"rental_uris":{"android":"levelo://app?vid=ce532701-5f36-4a41-813c-8d66555def94","ios":"levelo://app?vid=ce532701-5f36-4a41-813c-8d66555def94"},"vehicle_type_id":"4","last_reported":1699758434,"current_range_meters":31200,"station_id":"ce4bho12rcd13ifvqh1g","pricing_plan_id":"free"},{"bike_id":"a904936c-4d64-4073-a3f3-ec2f8c8edf43","system_id":"levelo_inurba_marseille","lat":43.279895,"lon":5.416564,"is_reserved":false,"is_disabled":false,"rental_uris":{"android":"levelo://app?vid=a904936c-4d64-4073-a3f3-ec2f8c8edf43","ios":"levelo://app?vid=a904936c-4d64-4073-a3f3-ec2f8c8edf43"},"vehicle_type_id":"4","last_reported":1699758434,"current_range_meters":31200,"station_id":"ce4bho12rcd13ifvqh1g","pricing_plan_id":"free"},{"bike_id":"f0c78f88-8b02-492f-9447-2122526d86ce","system_id":"levelo_inurba_marseille","lat":43.267966,"lon":5.393976,"is_reserved":false,"is_disabled":false,"rental_uris":{"android":"levelo://app?vid=f0c78f88-8b02-492f-9447-2122526d86ce","ios":"levelo://app?vid=f0c78f88-8b02-492f-9447-2122526d86ce"},"vehicle_type_id":"4","last_reported":1699758434,"current_range_meters":27200,"station_id":"ce4bhh12rcd13ifvqfg0","pricing_plan_id":"free"},{"bike_id":"7837aafa-17dd-4fd3-a24c-cc785f8fea15","system_id":"levelo_inurba_marseille","lat":43.27477,"lon":5.41117,"is_reserved":false,"is_disabled":false,"rental_uris":{"android":"levelo://app?vid=7837aafa-17dd-4fd3-a24c-cc785f8fea15","ios":"levelo://app?vid=7837aafa-17dd-4fd3-a24c-cc785f8fea15"},"vehicle_type_id":"4","last_reported":1699758434,"current_range_meters":0,"station_id":"","pricing_plan_id":"free"},{"bike_id":"f39776f8-e338-4e5d-8296-2a44b065e822","system_id":"levelo_inurba_marseille","lat":43.308051,"lon":5.43527,"is_reserved":false,"is_disabled":false,"rental_uris":{"android":"levelo://app?vid=f39776f8-e338-4e5d-8296-2a44b065e822","ios":"levelo://app?vid=f39776f8-e338-4e5d-8296-2a44b065e822"},"vehicle_type_id":"4","last_reported":1699758434,"current_range_meters":11200,"station_id":"ce4bhph2rcd13ifvqheg","pricing_plan_id":"free"},{"bike_id":"575ca992-e936-4074-b7c6-852b3c666dc2","system_id":"levelo_inurba_marseille","lat":43.308051,"lon":5.43527,"is_reserved":false,"is_disabled":false,"rental_uris":{"android":"levelo://app?vid=575ca992-e936-4074-b7c6-852b3c666dc2","ios":"levelo://app?vid=575ca992-e936-4074-b7c6-852b3c666dc2"},"vehicle_type_id":"4","last_reported":1699758434,"current_range_meters":27600,"station_id":"ce4bhph2rcd13ifvqheg","pricing_plan_id":"free"},{"bike_id":"67e522cd-7615-4ba2-8304-903517acc0e3","system_id":"levelo_inurba_marseille","lat":43.307986,"lon":5.435244,"is_reserved":false,"is_disabled":false,"rental_uris":{"android":"levelo://app?vid=67e522cd-7615-4ba2-8304-903517acc0e3","ios":"levelo://app?vid=67e522cd-7615-4ba2-8304-903517acc0e3"},"vehicle_type_id":"4","last_reported":1699758434,"current_range_meters":14400,"station_id":"ce4bhph2rcd13ifvqheg","pricing_plan_id":"free"},{"bike_id":"c57b95e7-52ff-4e92-95eb-2d98112a606b","system_id":"levelo_inurba_marseille","lat":43.265769,"lon":5.390264,"is_reserved":false,"is_disabled":false,"rental_uris":{"android":"levelo://app?vid=c57b95e7-52ff-4e92-95eb-2d98112a606b","ios":"levelo://app?vid=c57b95e7-52ff-4e92-95eb-2d98112a606b"},"vehicle_type_id":"4","last_reported":1699758434,"current_range_meters":30000,"station_id":"ce4bhe12rcd13ifvqf30","pricing_plan_id":"free"},