{"last_updated":1735848571,"ttl":60,"version":"2.2","data":{"bikes":[{"bike_id":"5fc33033-4827-4528-9193-70aaad8ca07b","system_id":"levelo_inurba_marseille","lat":43.26935,"lon":5.38915,"is_reserved":false,"is_disabled":false,"rental_uris":{"android":"levelo://app?vid=5fc33033-4827-4528-9193-70aaad8ca07b","ios":"levelo://app?vid=5fc33033-4827-4528-9193-70aaad8ca07b"},"vehicle_type_id":"4","last_reported":1735848571,"current_range_meters":8400,"station_id":"ce4bhhh2rcd13ifvqfl0","pricing_plan_id":"cebpf4jnsgd1na2vs0mg"},{"bike_id":"5ee06d1f-f474-4883-9d52-622f82f42531","system_id":"levelo_inurba_marseille","lat":43.32497,"lon":5.41439,"is_reserved":false,"is_disabled":false,"rental_uris":{"android":"levelo://app?vid=5ee06d1f-f474-4883-9d52-622f82f42531","ios":"levelo://app?vid=5ee06d1f-f474-4883-9d52-622f82f42531"},"vehicle_type_id":"4","last_reported":1735848571,"current_range_meters":38400,"station_id":"ce4bhq12rcd13ifvqhhg","pricing_plan_id":"cebpf4jnsgd1na2vs0mg"},{"bike_id":"172ccd61-d49f-41ee-9d70-c90aa70835fe","system_id":"levelo_inurba_marseille","lat":43.27421,"lon":5.39413,"is_reserved":false,"is_disabled":false,"rental_uris":{"android":"levelo://app?vid=172ccd61-d49f-41ee-9d70-c90aa70835fe","ios":"levelo://app?vid=172ccd61-d49f-41ee-9d70-c90aa70835fe"},"vehicle_type_id":"4","last_reported":1735848571,"current_range_meters":33200,"station_id":"ce4bhdp2rcd13ifvqf20","pricing_plan_id":"cebpf4jnsgd1na2vs0mg"},{"bike_id":"bc774450-9e82-4b77-bec0-9757df77a13c","system_id":"levelo_inurba_marseille","lat":43.26503,"lon":5.39543,"is_reserved":false,"is_disabled":false,"rental_uris":{"android":"levelo://app?vid=bc774450-9e82-4b77-bec0-9757df77a13c","ios":"levelo://app?vid=bc774450-9e82-4b77-bec0-9757df77a13c"},"vehicle_type_id":"4","last_reported":1735848571,"current_range_meters":38400,"station_id":"ce4bhi12rcd13ifvqfq0","pricing_plan_id":"cebpf4jnsgd1na2vs0mg"},{"bike_id":"a95f7a4f-b106-47fb-b884-a0e3c27f8867","system_id":"levelo_inurba_marseille","lat":43.28859,"lon":5.39337,"is_reserved":false,"is_disabled":true,"rental_uris":{"android":"levelo://app?vid=a95f7a4f-b106-47fb-b884-a0e3c27f8867","ios":"levelo://app?vid=a95f7a4f-b106-47fb-b884-a0e3c27f8867"},"vehicle_type_id":"4","last_reported":1735848571,"current_range_meters":3200,"station_id":"ce4bh2p2rcd13ifvqdi0","pricing_plan_id":"cebpf4jnsgd1na2vs0mg"},{"bike_id":"83cf3ed5-c352-4a39-821d-1f7d95dea627","system_id":"levelo_inurba_marseille","lat":43.25576,"lon":5.38224,"is_reserved":false,"is_disabled":false,"rental_uris":{"android":"levelo://app?vid=83cf3ed5-c352-4a39-821d-1f7d95dea627","ios":"levelo://app?vid=83cf3ed5-c352-4a39-821d-1f7d95dea627"},"vehicle_type_id":"4","last_reported":1735848571,"current_range_meters":25600,"station_id":"ce4bhih2rcd13ifvqfs0","pricing_plan_id":"cebpf4jnsgd1na2vs0mg"},{"bike_id":"3e92df57-e4ba-4a2b-a540-d8085cdee01f","system_id":"levelo_inurba_marseille","lat":43.26983,"lon":5.3885,"is_reserved":false,"is_disabled":false,"rental_uris":{"android":"levelo://app?vid=3e92df57-e4ba-4a2b-a540-d8085cdee01f","ios":"levelo://app?vid=3e92df57-e4ba-4a2b-a540-d8085cdee01f"},"vehicle_type_id":"4","last_reported":1735848571,"current_range_meters":38400,"station_id":"","pricing_plan_id":"cebpf4jnsgd1na2vs0mg"},{"bike_id":"36d66971-2eca-4ce7-b6c4-b5d94a3b8a1d","system_id":"levelo_inurba_marseille","lat":43.29296,"lon":5.36801,"is_reserved":false,"is_disabled":false,"rental_uris":{"android":"levelo://app?vid=36d66971-2eca-4ce7-b6c4-b5d94a3b8a1d","ios":"levelo://app?vid=36d66971-2eca-4ce7-b6c4-b5d94a3b8a1d"},"vehicle_type_id":"4","last_reported":1735848571,"current_range_meters":34800,"station_id":"ce4bhbp2rcd13ifvqesg","pricing_plan_id":"cebpf4jnsgd1na2vs0mg"},{"bike_id":"6bd5f962-fbf1-4f4a-9fce-1b11db41e7ba","system_id":"levelo_inurba_marseille","lat":43.29003,"lon":5.38129,"is_reserved":false,"is_disabled":false,"rental_uris":{"android":"levelo://app?vid=6bd5f962-fbf1-4f4a-9fce-1b11db41e7ba","ios":"levelo://app?vid=6bd5f962-fbf1-4f4a-9fce-1b11db41e7ba"},"vehicle_type_id":"4","last_reported":1735848571,"current_range_meters":26800,"station_id":"ce4bh4p2rcd13ifvqe1g","pricing_plan_id":"cebpf4jnsgd1na2vs0mg"},{"bike_id":"0cc226b6-5f36-4e90-9e5b-497bf45d78e0","system_id":"levelo_inurba_marseille","lat":43.27999,"lon":5.40011,"is_reserved":false,"is_disabled":false,"rental_uris":{"android":"levelo://app?vid=0cc226b6-5f36-4e90-9e5b-497bf45d78e0","ios":"levelo://app?vid=0cc226b6-5f36-4e90-9e5b-497bf45d78e0"},"vehicle_type_id":"4","last_reported":1735848571,"current_range_meters":6400,"station_id":"ce4bho92rcd13ifvqh4g","pricing_plan_id":"cebpf4jnsgd1na2vs0mg"},{"bike_id":"02bf6b26-791b-4299-adfb-67276d40a9e0","system_id":"levelo_inurba_marseille","lat":43.25865,"lon":5.39902,"is_reserved":false,"is_disabled":false,"rental_uris":{"android":"levelo://app?vid=02bf6b26-791b-4299-adfb-67276d40a9e0","ios":"levelo://app?vid=02bf6b26-791b-4299-adfb-67276d40a9e0"},"vehicle_type_id":"4","last_reported":1735848571,"current_range_meters":22000,"station_id":"ce4bhl92rcd13ifvqghg","pricing_plan_id":"cebpf4jnsgd1na2vs0mg"},{"bike_id":"e42aed87-b9c2-4f04-8982-50394cba4bfe","system_id":"levelo_inurba_marseille","lat":43.29535,"lon":5.38531,"is_reserved":false,"is_disabled":false,"rental_uris":{"android":"levelo://app?vid=e42aed87-b9c2-4f04-8982-50394cba4bfe","ios":"levelo://app?vid=e42aed87-b9c2-4f04-8982-50394cba4bfe"},"vehicle_type_id":"4","last_reported":1735848571,"current_range_meters":12400,"station_id":"ce4bgih2rcd13ifvqba0","pricing_plan_id":"cebpf4jnsgd1na2vs0mg"},{"bike_id":"116f92ae-65b4-4f7c-a23b-1117c0a69b33","system_id":"levelo_inurba_marseille","lat":43.286261,"lon":5.351058,"is_reserved":false,"is_disabled":false,"rental_uris":{"android":"levelo://app?vid=116f92ae-65b4-4f7c-a23b-1117c0a69b33","ios":"levelo://app?vid=116f92ae-65b4-4f7c-a23b-1117c0a69b33"},"vehicle_type_id":"4","last_reported":1735848571,"current_range_meters":29600,"station_id":"ce4bhch2rcd13ifvqeug","pricing_plan_id":"cebpf4jnsgd1na2vs0mg"},{"bike_id":"cf9371cf-b4a6-4f3a-92f4-f898ea85e696","system_id":"levelo_inurba_marseille","lat":43.25577,"lon":5.38257,"is_reserved":false,"is_disabled":false,"rental_uris":{"android":"levelo://app?vid=cf9371cf-b4a6-4f3a-92f4-f898ea85e696","ios":"levelo://app?vid=cf9371cf-b4a6-4f3a-92f4-f898ea85e696"},"vehicle_type_id":"4","last_reported":1735848571,"current_range_meters":10000,"station_id":"ce4bhih2rcd13ifvqfs0","pricing_plan_id":"cebpf4jnsgd1na2vs0mg"},{"bike_id":"3e469bf4-cd83-4ea2-89ce-ef9531d59881","system_id":"levelo_inurba_marseille","lat":43.29187,"lon":5.35806,"is_reserved":false,"is_disabled":false,"rental_uris":{"android":"levelo://app?vid=3e469bf4-cd83-4ea2-89ce-ef9531d59881","ios":"levelo://app?vid=3e469bf4-cd83-4ea2-89ce-ef9531d59881"},"vehicle_type_id":"4","last_reported":1735848571,"current_range_meters":38000,"station_id":"ce4bhb12rcd13ifvqel0","pricing_plan_id":"cebpf4jnsgd1na2vs0mg"},{"bike_id":"aeeed8ed-dc28-4cf0-a615-f0e4eef78677","system_id":"levelo_inurba_marseille","lat":43.30098,"lon":5.39894,"is_reserved":false,"is_disabled":false,"rental_uris":{"android":"levelo://app?vid=aeeed8ed-dc28-4cf0-a615-f0e4eef78677","ios":"levelo://app?vid=aeeed8ed-dc28-4cf0-a615-f0e4eef78677"},"vehicle_type_id":"4","last_reported":1735848571,"current_range_meters":22800,"station_id":"ce4bh0h2rcd13ifvqd40","pricing_plan_id":"cebpf4jnsgd1na2vs0mg"},{"bike_id":"76d392c8-6dd4-4fbf-b626-27c2990c047b","system_id":"levelo_inurba_marseille","lat":43.28155,"lon":5.42797,"is_reserved":false,"is_disabled":false,"rental_uris":{"android":"levelo://app?vid=76d392c8-6dd4-4fbf-b626-27c2990c047b","ios":"levelo://app?vid=76d392c8-6dd4-4fbf-b626-27c2990c047b"},"vehicle_type_id":"4","last_reported":1735848571,"current_range_meters":24000,"station_id":"","pricing_plan_id":"cebpf4jnsgd1na2vs0mg"},{"bike_id":"ebb56956-e2e2-4f51-8f7a-80ccc26c078c","system_id":"levelo_inurba_marseille","lat":43.2815,"lon":5.42647,"is_reserved":false,"is_disabled":false,"rental_uris":{"android":"levelo://app?vid=ebb56956-e2e2-4f51-8f7a-80ccc26c078c","ios":"levelo://app?vid=ebb56956-e2e2-4f51-8f7a-80ccc26c078c"},"vehicle_type_id":"4","last_reported":1735848571,"current_range_meters":34000,"station_id":"ce4bhnh2rcd13ifvqgug","pricing_plan_id":"cebpf4jnsgd1na2vs0mg"},{"bike_id":"e02cbc74-f297-4133-b29e-383de6712b60","system_id":"levelo_inurba_marseille","lat":43.32047,"lon":5.41525,"is_reserved":false,"is_disabled":false,"rental_uris":{"android":"levelo://app?vid=e02cbc74-f297-4133-b29e-383de6712b60","ios":"levelo://app?vid=e02cbc74-f297-4133-b29e-383de6712b60"},"vehicle_type_id":"4","last_reported":1735848571,"current_range_meters":27200,"station_id":"ce4bhq92rcd13ifvqhkg","pricing_plan_id":"cebpf4jnsgd1na2vs0mg"},{"bike_id":"3c499f67-bb48-4b93-adda-55d26d93413a","system_id":"levelo_inurba_marseille","lat":43.30121,"lon":5.39868,"is_reserved":false,"is_disabled":false,"rental_uris":{"android":"levelo://app?vid=3c499f67-bb48-4b93-adda-55d26d93413a","ios":"levelo://app?vid=3c499f67-bb48-4b93-adda-55d26d93413a"},"vehicle_type_id":"4","last_reported":1735848571,"current_range_meters":11200,"station_id":"ce4bh0h2rcd13ifvqd40","pricing_plan_id":"cebpf4jnsgd1na2vs0mg"},{"bike_id":"24e02238-d92f-424f-8b72-85c062a83bbe","system_id":"levelo_inurba_marseille","lat":43.27671,"lon":5.38895,"is_reserved":false,"is_disabled":false,"rental_uris":{"android":"levelo://app?vid=24e02238-d92f-424f-8b72-85c062a83bbe","ios":"levelo://app?vid=24e02238-d92f-424f-8b72-85c062a83bbe"},"vehicle_type_id":"4","last_reported":1735848571,"current_range_meters":38800,"station_id":"ce4bhi12rcd13ifvqfo0","pricing_plan_id":"cebpf4jnsgd1na2vs0mg"},{"bike_id":"97717a3a-5240-48fe-b29e-9e7f0d2b5fba","system_id":"levelo_inurba_marseille","lat":43.31714,"lon":5.43711,"is_reserved":false,"is_disabled":false,"rental_uris":{"android":"levelo://app?vid=97717a3a-5240-48fe-b29e-9e7f0d2b5fba","ios":"levelo://app?vid=97717a3a-5240-48fe-b29e-9e7f0d2b5fba"},"vehicle_type_id":"4","last_reported":1735848571,"current_range_meters":38800,"station_id":"ce4bhp92rcd13ifvqhcg","pricing_plan_id":"cebpf4jnsgd1na2vs0mg"},{"bike_id":"b34f82fe-9ce1-4339-8ef1-4ced08779956","system_id":"levelo_inurba_marseille","lat":43.30131,"lon":5.39867,"is_reserved":false,"is_disabled":false,"rental_uris":{"android":"levelo://app?vid=b34f82fe-9ce1-4339-8ef1-4ced08779956","ios":"levelo://app?vid=b34f82fe-9ce1-4339-8ef1-4ced08779956"},"vehicle_type_id":"4","last_reported":1735848571,"current_range_meters":19200,"station_id":"ce4bh0h2rcd13ifvqd40","pricing_plan_id":"cebpf4jnsgd1na2vs0mg"},{"bike_id":"84eb5d38-88df-4670-810e-6edcb5c9f5e3","system_id":"levelo_inurba_marseille","lat":43.25503,"lon":5.37656,"is_reserved":false,"is_disabled":false,"rental_uris":{"android":"levelo://app?vid=84eb5d38-88df-4670-810e-6edcb5c9f5e3","ios":"levelo://app?vid=84eb5d38-88df-4670-810e-6edcb5c9f5e3"},"vehicle_type_id":"4","last_reported":1735848571,"current_range_meters":24400,"station_id":"ce4bhh12rcd13ifvqff0","pricing_plan_id":"cebpf4jnsgd1na2vs0mg"},{"bike_id":"d66c261c-4c92-4d58-90a6-fd0ca5318371","system_id":"levelo_inurba_marseille","lat":43.27816,"lon":5.40681,"is_reserved":false,"is_disabled":false,"rental_uris":{"android":"levelo://app?vid=d66c261c-4c92-4d58-90a6-fd0ca5318371","ios":"levelo://app?vid=d66c261c-4c92-4d58-90a6-fd0ca5318371"},"vehicle_type_id":"4","last_reported":1735848571,"current_range_meters":8000,"station_id":"ce4bhnh2rcd13ifvqgtg","pricing_plan_id":"cebpf4jnsgd1na2vs0mg"},{"bike_id":"05a944e5-5628-44b6-8e66-0c233343aeb8","system_id":"levelo_inurba_marseille","lat":43.29029,"lon":5.38644,"is_reserved":false,"is_disabled":false,"rental_uris":{"android":"levelo://app?vid=05a944e5-5628-44b6-8e66-0c233343aeb8","ios":"levelo://app?vid=05a944e5-5628-44b6-8e66-0c233343aeb8"},"vehicle_type_id":"4","last_reported":1735848571,"current_range_meters":38800,"station_id":"ce4bh4p2rcd13ifvqe0g","pricing_plan_id":"cebpf4jnsgd1na2vs0mg"},{"bike_id":"3e8d46e7-a72a-4113-8eed-ea83f1f86556","system_id":"levelo_inurba_marseille","lat":43.29793,"lon":5.38097,"is_reserved":false,"is_disabled":false,"rental_uris":{"android":"levelo://app?vid=3e8d46e7-a72a-4113-8eed-ea83f1f86556","ios":"levelo://app?vid=3e8d46e7-a72a-4113-8eed-ea83f1f86556"},"vehicle_type_id":"4","last_reported":1735848571,"current_range_meters":23200,"station_id":"ce4bgip2rcd13ifvqbb0","pricing_plan_id":"cebpf4jnsgd1na2vs0mg"},{"bike_id":"dcd711c6-0b92-490f-97df-470d44c16843","system_id":"levelo_inurba_marseille","lat":43.2791,"lon":5.396,"is_reserved":false,"is_disabled":false,"rental_uris":{"android":"levelo://app?vid=dcd711c6-0b92-490f-97df-470d44c16843","ios":"levelo://app?vid=dcd711c6-0b92-490f-97df-470d44c16843"},"vehicle_type_id":"4","last_reported":1735848571,"current_range_meters":38000,"station_id":"ce4bhf92rcd13ifvqf40","pricing_plan_id":"cebpf4jnsgd1na2vs0mg"},{"bike_id":"1efb6e70-f243-4ee4-8c73-08ef2a2c6772","system_id":"levelo_inurba_marseille","lat":43.25817,"lon":5.39423,"is_reserved":false,"is_disabled":false,"rental_uris":{"android":"levelo://app?vid=1efb6e70-f243-4ee4-8c73-08ef2a2c6772","ios":"levelo://app?vid=1efb6e70-f243-4ee4-8c73-08ef2a2c6772"},"vehicle_type_id":"4","last_reported":1735848571,"current_range_meters":39200,"station_id":"ce4bhip2rcd13ifvqft0","pricing_plan_id":"cebpf4jnsgd1na2vs0mg"},{"bike_id":"681d262b-bedb-4bd6-bef0-fb090a07de85","system_id":"levelo_inurba_marseille","lat":43.29266,"lon":5.38444,"is_reserved":false,"is_disabled":false,"rental_uris":{"android":"levelo://app?vid=681d262b-bedb-4bd6-bef0-fb090a07de85","ios":"levelo://app?vid=681d262b-bedb-4bd6-bef0-fb090a07de85"},"vehicle_type_id":"4","last_reported":1735848571,"current_range_meters":25600,"station_id":"ce4bh692rcd13ifvqea0","pricing_plan_id":"cebpf4jnsgd1na2vs0mg"},{"bike_id":"269eda74-bc19-459b-a632-ad324cf7cf92","system_id":"levelo_inurba_marseille","lat":43.26503,"lon":5.39553,"is_reserved":false,"is_disabled":false,"rental_uris":{"android":"levelo://app?vid=269eda74-bc19-459b-a632-ad324cf7cf92","ios":"levelo://app?vid=269eda74-bc19-459b-a632-ad324cf7cf92"},"vehicle_type_id":"4","last_reported":1735848571,"current_range_meters":17600,"station_id":"ce4bhi12rcd13ifvqfq0","pricing_plan_id":"cebpf4jnsgd1na2vs0mg"},{"bike_id":"90be4ecf-e9e3-49e6-8acd-ca50a85b4085","system_id":"levelo_inurba_marseille","lat":43.31233,"lon":5.36852,"is_reserved":false,"is_disabled":true,"rental_uris":{"android":"levelo://app?vid=90be4ecf-e9e3-49e6-8acd-ca50a85b4085","ios":"levelo://app?vid=90be4ecf-e9e3-49e6-8acd-ca50a85b4085"},"vehicle_type_id":"4","last_reported":1735848571,"current_range_meters":25600,"station_id":"ce4bgl92rcd13ifvqbq0","pricing_plan_id":"cebpf4jnsgd1na2vs0mg"},{"bike_id":"bcc47b98-405a-4d86-8e5f-bbe262abbd0d","system_id":"levelo_inurba_marseille","lat":43.32108,"lon":5.36764,"is_reserved":false,"is_disabled":false,"rental_uris":{"android":"levelo://app?vid=bcc47b98-405a-4d86-8e5f-bbe262abbd0d","ios":"levelo://app?vid=bcc47b98-405a-4d86-8e5f-bbe262abbd0d"},"vehicle_type_id":"4","last_reported":1735848571,"current_range_meters":28400,"station_id":"ce4bhrh2rcd13ifvqhug","pricing_plan_id":"cebpf4jnsgd1na2vs0mg"},{"bike_id":"4ff02992-46d1-4939-b33e-7e9de4ef7281","system_id":"levelo_inurba_marseille","lat":43.25818,"lon":5.3943,"is_reserved":false,"is_disabled":false,"rental_uris":{"android":"levelo://app?vid=4ff02992-46d1-4939-b33e-7e9de4ef7281","ios":"levelo://app?vid=4ff02992-46d1-4939-b33e-7e9de4ef7281"},"vehicle_type_id":"4","last_reported":1735848571,"current_range_meters":30000,"station_id":"ce4bhip2rcd13ifvqft0","pricing_plan_id":"cebpf4jnsgd1na2vs0mg"},{"bike_id":"173716ce-609c-41f0-a574-69faba2ca21e","system_id":"levelo_inurba_marseille","lat":43.29048,"lon":5.4002,"is_reserved":false,"is_disabled":true,"rental_uris":{"android":"levelo://app?vid=173716ce-609c-41f0-a574-69faba2ca21e","ios":"levelo://app?vid=173716ce-609c-41f0-a574-69faba2ca21e"},"vehicle_type_id":"4","last_reported":1735848571,"current_range_meters":1600,"station_id":"ce4bh392rcd13ifvqdm0","pricing_plan_id":"cebpf4jnsgd1na2vs0mg"},{"bike_id":"027085de-3c06-4c90-8099-b9537f78e863","system_id":"levelo_inurba_marseille","lat":43.23156,"lon":5.43667,"is_reserved":false,"is_disabled":false,"rental_uris":{"android":"levelo://app?vid=027085de-3c06-4c90-8099-b9537f78e863","ios":"levelo://app?vid=027085de-3c06-4c90-8099-b9537f78e863"},"vehicle_type_id":"4","last_reported":1735848571,"current_range_meters":28800,"station_id":"ce4bhmp2rcd13ifvqgog","pricing_plan_id":"cebpf4jnsgd1na2vs0mg"},{"bike_id":"d7bec816-20b2-4252-af84-208a6d520c3a","system_id":"levelo_inurba_marseille","lat":43.27053,"lon":5.40257,"is_reserved":false,"is_disabled":false,"rental_uris":{"android":"levelo://app?vid=d7bec816-20b2-4252-af84-208a6d520c3a","ios":"levelo://app?vid=d7bec816-20b2-4252-af84-208a6d520c3a"},"vehicle_type_id":"4","last_reported":1735848571,"current_range_meters":36400,"station_id":"ce4bhk92rcd13ifvqgc0","pricing_plan_id":"cebpf4jnsgd1na2vs0mg"},{"bike_id":"d936b726-436d-4e1d-883d-74d49ddbe842","system_id":"levelo_inurba_marseille","lat":43.31522,"lon":5.38033,"is_reserved":false,"is_disabled":false,"rental_uris":{"android":"levelo://app?vid=d936b726-436d-4e1d-883d-74d49ddbe842","ios":"levelo://app?vid=d936b726-436d-4e1d-883d-74d49ddbe842"},"vehicle_type_id":"4","last_reported":1735848571,"current_range_meters":16400,"station_id":"ce4bhsp2rcd13ifvqi50","pricing_plan_id":"cebpf4jnsgd1na2vs0mg"},{"bike_id":"22e7183b-7aa6-4c0f-b604-515ce138d224","system_id":"levelo_inurba_marseille","lat":43.2893,"lon":5.3839,"is_reserved":false,"is_disabled":false,"rental_uris":{"android":"levelo://app?vid=22e7183b-7aa6-4c0f-b604-515ce138d224","ios":"levelo://app?vid=22e7183b-7aa6-4c0f-b604-515ce138d224"},"vehicle_type_id":"4","last_reported":1735848571,"current_range_meters":38400,"station_id":"ce4bh612rcd13ifvqe6g","pricing_plan_id":"cebpf4jnsgd1na2vs0mg"},{"bike_id":"7a63d77d-b3e4-4713-9060-b918ad8247d2","system_id":"levelo_inurba_marseille","lat":43.229341,"lon":5.353853,"is_reserved":false,"is_disabled":false,"rental_uris":{"android":"levelo://app?vid=7a63d77d-b3e4-4713-9060-b918ad8247d2","ios":"levelo://app?vid=7a63d77d-b3e4-4713-9060-b918ad8247d2"},"vehicle_type_id":"4","last_reported":1735848571,"current_range_meters":38400,"station_id":"cpo3532slgdg3j2ikp40","pricing_plan_id":"cebpf4jnsgd1na2vs0mg"},{"bike_id":"55e21000-1bfe-4926-9e9b-bbab942d7159","system_id":"levelo_inurba_marseille","lat":43.27938,"lon":5.39596,"is_reserved":false,"is_disabled":false,"rental_uris":{"android":"levelo://app?vid=55e21000-1bfe-4926-9e9b-bbab942d7159","ios":"levelo://app?vid=55e21000-1bfe-4926-9e9b-bbab942d7159"},"vehicle_type_id":"4","last_reported":1735848571,"current_range_meters":10800,"station_id":"ce4bhf92rcd13ifvqf40","pricing_plan_id":"cebpf4jnsgd1na2vs0mg"},{"bike_id":"277d9579-fc29-4ce6-94cb-f3e169453ace","system_id":"levelo_inurba_marseille","lat":43.31752,"lon":5.39028,"is_reserved":false,"is_disabled":false,"rental_uris":{"android":"levelo://app?vid=277d9579-fc29-4ce6-94cb-f3e169453ace","ios":"levelo://app?vid=277d9579-fc29-4ce6-94cb-f3e169453ace"},"vehicle_type_id":"4","last_reported":1735848571,"current_range_meters":38800,"station_id":"ce4bhqp2rcd13ifvqhng","pricing_plan_id":"cebpf4jnsgd1na2vs0mg"},{"bike_id":"3c7472a4-a45c-4f46-a692-aa44ebf92f21","system_id":"levelo_inurba_marseille","lat":43.27425,"lon":5.39385,"is_reserved":false,"is_disabled":false,"rental_uris":{"android":"levelo://app?vid=3c7472a4-a45c-4f46-a692-aa44ebf92f21","ios":"levelo://app?vid=3c7472a4-a45c-4f46-a692-aa44ebf92f21"},"vehicle_type_id":"4","last_reported":1735848571,"current_range_meters":35200,"station_id":"ce4bhdp2rcd13ifvqf20","pricing_plan_id":"cebpf4jnsgd1na2vs0mg"},{"bike_id":"15f428d5-04a0-4b6a-a23c-757c18fbf743","system_id":"levelo_inurba_marseille","lat":43.30875,"lon":5.39606,"is_reserved":false,"is_disabled":false,"rental_uris":{"android":"levelo://app?vid=15f428d5-04a0-4b6a-a23c-757c18fbf743","ios":"levelo://app?vid=15f428d5-04a0-4b6a-a23c-757c18fbf743"},"vehicle_type_id":"4","last_reported":1735848571,"current_range_meters":38800,"station_id":"ce4bh012rcd13ifvqcv0","pricing_plan_id":"cebpf4jnsgd1na2vs0mg"},{"bike_id":"034b0005-8956-45a9-ad90-f0ac541944e7","system_id":"levelo_inurba_marseille","lat":43.26942,"lon":5.38919,"is_reserved":false,"is_disabled":true,"rental_uris":{"android":"levelo://app?vid=034b0005-8956-45a9-ad90-f0ac541944e7","ios":"levelo://app?vid=034b0005-8956-45a9-ad90-f0ac541944e7"},"vehicle_type_id":"4","last_reported":1735848571,"current_range_meters":28400,"station_id":"ce4bhhh2rcd13ifvqfl0","pricing_plan_id":"cebpf4jnsgd1na2vs0mg"},{"bike_id":"60aa8768-465e-4e59-8359-ab05b91a90a1","system_id":"levelo_inurba_marseille","lat":43.28954,"lon":5.36408,"is_reserved":false,"is_disabled":false,"rental_uris":{"android":"levelo://app?vid=60aa8768-465e-4e59-8359-ab05b91a90a1","ios":"levelo://app?vid=60aa8768-465e-4e59-8359-ab05b91a90a1"},"vehicle_type_id":"4","last_reported":1735848571,"current_range_meters":38800,"station_id":"ce4bhc92rcd13ifvqetg","pricing_plan_id":"cebpf4jnsgd1na2vs0mg"},{"bike_id":"4b9b3c02-7773-410b-a74d-2537aad0fdc1","system_id":"levelo_inurba_marseille","lat":43.28424,"lon":5.37509,"is_reserved":false,"is_disabled":false,"rental_uris":{"android":"levelo://app?vid=4b9b3c02-7773-410b-a74d-2537aad0fdc1","ios":"levelo://app?vid=4b9b3c02-7773-410b-a74d-2537aad0fdc1"},"vehicle_type_id":"4","last_reported":1735848571,"current_range_meters":25600,"station_id":"ce4bh412rcd13ifvqds0","pricing_plan_id":"cebpf4jnsgd1na2vs0mg"},{"bike_id":"e3736c07-1f20-46a9-8fea-1baae69a6a9b","system_id":"levelo_inurba_marseille","lat":43.29534,"lon":5.38537,"is_reserved":false,"is_disabled":false,"rental_uris":{"android":"levelo://app?vid=e3736c07-1f20-46a9-8fea-1baae69a6a9b","ios":"levelo://app?vid=e3736c07-1f20-46a9-8fea-1baae69a6a9b"},"vehicle_type_id":"4","last_reported":1735848571,"current_range_meters":16400,"station_id":"ce4bgih2rcd13ifvqba0","pricing_plan_id":"cebpf4jnsgd1na2vs0mg"},{"bike_id":"99d073c4-215c-4731-b21d-38160f789195","system_id":"levelo_inurba_marseille","lat":43.29967,"lon":5.385085,"is_reserved":false,"is_disabled":false,"rental_uris":{"android":"levelo://app?vid=99d073c4-215c-4731-b21d-38160f789195","ios":"levelo://app?vid=99d073c4-215c-4731-b21d-38160f789195"},"vehicle_type_id":"4","last_reported":1735848571,"current_range_meters":38800,"station_id":"ce4bgj92rcd13ifvqbd0","pricing_plan_id":"cebpf4jnsgd1na2vs0mg"},{"bike_id":"f45848c8-1920-4a57-8a3d-1df70b26d4ca","system_id":"levelo_inurba_marseille","lat":43.29535,"lon":5.38549,"is_reserved":false,"is_disabled":false,"rental_uris":{"android":"levelo://app?vid=f45848c8-1920-4a57-8a3d-1df70b26d4ca","ios":"levelo://app?vid=f45848c8-1920-4a57-8a3d-1df70b26d4ca"},"vehicle_type_id":"4","last_reported":1735848571,"current_range_meters":32000,"station_id":"ce4bgih2rcd13ifvqba0","pricing_plan_id":"cebpf4jnsgd1na2vs0mg"},{"bike_id":"a704d00f-fa02-4fe3-91e2-2416c16951bb","system_id":"levelo_inurba_marseille","lat":43.2407,"lon":5.37754,"is_reserved":false,"is_disabled":false,"rental_uris":{"android":"levelo://app?vid=a704d00f-fa02-4fe3-91e2-2416c16951bb","ios":"levelo://app?vid=a704d00f-fa02-4fe3-91e2-2416c16951bb"},"vehicle_type_id":"4","last_reported":1735848571,"current_range_meters":38800,"station_id":"ce4bhnp2rcd13ifvqgvg","pricing_plan_id":"cebpf4jnsgd1na2vs0mg"},{"bike_id":"2332862a-3884-4317-af82-ee9793e9b62c","system_id":"levelo_inurba_marseille","lat":43.24072,"lon":5.37761,"is_reserved":false,"is_disabled":false,"rental_uris":{"android":"levelo://app?vid=2332862a-3884-4317-af82-ee9793e9b62c","ios":"levelo://app?vid=2332862a-3884-4317-af82-ee9793e9b62c"},"vehicle_type_id":"4","last_reported":1735848571,"current_range_meters":26000,"station_id":"ce4bhnp2rcd13ifvqgvg","pricing_plan_id":"cebpf4jnsgd1na2vs0mg"},{"bike_id":"1b0b8897-032a-46c6-aaf7-d764fab8e97a","system_id":"levelo_inurba_marseille","lat":43.25867,"lon":5.39858,"is_reserved":false,"is_disabled":false,"rental_uris":{"android":"levelo://app?vid=1b0b8897-032a-46c6-aaf7-d764fab8e97a","ios":"levelo://app?vid=1b0b8897-032a-46c6-aaf7-d764fab8e97a"},"vehicle_type_id":"4","last_reported":1735848571,"current_range_meters":39200,"station_id":"ce4bhl92rcd13ifvqghg","pricing_plan_id":"cebpf4jnsgd1na2vs0mg"},{"bike_id":"e6fa8bd9-5f74-401a-b12e-57e85af877cf","system_id":"levelo_inurba_marseille","lat":43.30332,"lon":5.36898,"is_reserved":false,"is_disabled":false,"rental_uris":{"android":"levelo://app?vid=e6fa8bd9-5f74-401a-b12e-57e85af877cf","ios":"levelo://app?vid=e6fa8bd9-5f74-401a-b12e-57e85af877cf"},"vehicle_type_id":"4","last_reported":1735848571,"current_range_meters":28000,"station_id":"ce4bgqh2rcd13ifvqc5g","pricing_plan_id":"cebpf4jnsgd1na2vs0mg"},{"bike_id":"4483098c-d27d-4534-ad16-c209ae457c9a","system_id":"levelo_inurba_marseille","lat":43.31525,"lon":5.38031,"is_reserved":false,"is_disabled":false,"rental_uris":{"android":"levelo://app?vid=4483098c-d27d-4534-ad16-c209ae457c9a","ios":"levelo://app?vid=4483098c-d27d-4534-ad16-c209ae457c9a"},"vehicle_type_id":"4","last_reported":1735848571,"current_range_meters":38800,"station_id":"ce4bhsp2rcd13ifvqi50","pricing_plan_id":"cebpf4jnsgd1na2vs0mg"},{"bike_id":"4b5d15eb-6f91-491f-b47b-91411914d867","system_id":"levelo_inurba_marseille","lat":43.26942,"lon":5.40253,"is_reserved":false,"is_disabled":false,"rental_uris":{"android":"levelo://app?vid=4b5d15eb-6f91-491f-b47b-91411914d867","ios":"levelo://app?vid=4b5d15eb-6f91-491f-b47b-91411914d867"},"vehicle_type_id":"4","last_reported":1735848571,"current_range_meters":12000,"station_id":"cjm6bp8fraef2m0cb0m0","pricing_plan_id":"cebpf4jnsgd1na2vs0mg"},{"bike_id":"b0f40622-14a2-47af-8c8c-4a938f1cf2c3","system_id":"levelo_inurba_marseille","lat":43.28844,"lon":5.3585,"is_reserved":false,"is_disabled":false,"rental_uris":{"android":"levelo://app?vid=b0f40622-14a2-47af-8c8c-4a938f1cf2c3","ios":"levelo://app?vid=b0f40622-14a2-47af-8c8c-4a938f1cf2c3"},"vehicle_type_id":"4","last_reported":1735848571,"current_range_meters":32400,"station_id":"ce4bhb12rcd13ifvqem0","pricing_plan_id":"cebpf4jnsgd1na2vs0mg"},{"bike_id":"82e5f6a1-d213-469f-acb4-d010e014cdb5","system_id":"levelo_inurba_marseille","lat":43.3014,"lon":5.38778,"is_reserved":false,"is_disabled":false,"rental_uris":{"android":"levelo://app?vid=82e5f6a1-d213-469f-acb4-d010e014cdb5","ios":"levelo://app?vid=82e5f6a1-d213-469f-acb4-d010e014cdb5"},"vehicle_type_id":"4","last_reported":1735848571,"current_range_meters":23200,"station_id":"ce4bhoh2rcd13ifvqh6g","pricing_plan_id":"cebpf4jnsgd1na2vs0mg"},{"bike_id":"2cad5e9d-f183-4c3f-a642-7c176e4884d1","system_id":"levelo_inurba_marseille","lat":43.258295,"lon":5.394251,"is_reserved":false,"is_disabled":false,"rental_uris":{"android":"levelo://app?vid=2cad5e9d-f183-4c3f-a642-7c176e4884d1","ios":"levelo://app?vid=2cad5e9d-f183-4c3f-a642-7c176e4884d1"},"vehicle_type_id":"4","last_reported":1735848571,"current_range_meters":39200,"station_id":"ce4bhip2rcd13ifvqft0","pricing_plan_id":"cebpf4jnsgd1na2vs0mg"},{"bike_id":"2bc85ea5-00ae-44c0-a255-cc0d04be90b9","system_id":"levelo_inurba_marseille","lat":43.28415,"lon":5.34987,"is_reserved":false,"is_disabled":false,"rental_uris":{"android":"levelo://app?vid=2bc85ea5-00ae-44c0-a255-cc0d04be90b9","ios":"levelo://app?vid=2bc85ea5-00ae-44c0-a255-cc0d04be90b9"},"vehicle_type_id":"4","last_reported":1735848571,"current_range_meters":11600,"station_id":"ce4bhbh2rcd13ifvqepg","pricing_plan_id":"cebpf4jnsgd1na2vs0mg"},{"bike_id":"9ec22bb6-ddde-4544-bfca-bd222a10c5d4","system_id":"levelo_inurba_marseille","lat":43.2863,"lon":5.35093,"is_reserved":false,"is_disabled":false,"rental_uris":{"android":"levelo://app?vid=9ec22bb6-ddde-4544-bfca-bd222a10c5d4","ios":"levelo://app?vid=9ec22bb6-ddde-4544-bfca-bd222a10c5d4"},"vehicle_type_id":"4","last_reported":1735848571,"current_range_meters":11600,"station_id":"ce4bhch2rcd13ifvqeug","pricing_plan_id":"cebpf4jnsgd1na2vs0mg"},{"bike_id":"97906f7b-eda2-4c80-8b4b-122bc957a1cd","system_id":"levelo_inurba_marseille","lat":43.28608,"lon":5.35094,"is_reserved":false,"is_disabled":false,"rental_uris":{"android":"levelo://app?vid=97906f7b-eda2-4c80-8b4b-122bc957a1cd","ios":"levelo://app?vid=97906f7b-eda2-4c80-8b4b-122bc957a1cd"},"vehicle_type_id":"4","last_reported":1735848571,"current_range_meters":24400,"station_id":"ce4bhch2rcd13ifvqeug","pricing_plan_id":"cebpf4jnsgd1na2vs0mg"},{"bike_id":"1c062351-f698-4ee4-87ae-fce7281bfbb0","system_id":"levelo_inurba_marseille","lat":43.29543,"lon":5.38545,"is_reserved":false,"is_disabled":false,"rental_uris":{"android":"levelo://app?vid=1c062351-f698-4ee4-87ae-fce7281bfbb0","ios":"levelo://app?vid=1c062351-f698-4ee4-87ae-fce7281bfbb0"},"vehicle_type_id":"4","last_reported":1735848571,"current_range_meters":38800,"station_id":"ce4bgih2rcd13ifvqba0","pricing_plan_id":"cebpf4jnsgd1na2vs0mg"},{"bike_id":"a767814d-32c1-4888-928e-16b2e9383b03","system_id":"levelo_inurba_marseille","lat":43.28683,"lon":5.38664,"is_reserved":false,"is_disabled":false,"rental_uris":{"android":"levelo://app?vid=a767814d-32c1-4888-928e-16b2e9383b03","ios":"levelo://app?vid=a767814d-32c1-4888-928e-16b2e9383b03"},"vehicle_type_id":"4","last_reported":1735848571,"current_range_meters":39200,"station_id":"ce4bh492rcd13ifvqdug","pricing_plan_id":"cebpf4jnsgd1na2vs0mg"},{"bike_id":"d99750b8-6ade-4149-99fa-c28c2d4fba43","system_id":"levelo_inurba_marseille","lat":43.29697,"lon":5.3658,"is_reserved":false,"is_disabled":false,"rental_uris":{"android":"levelo://app?vid=d99750b8-6ade-4149-99fa-c28c2d4fba43","ios":"levelo://app?vid=d99750b8-6ade-4149-99fa-c28c2d4fba43"},"vehicle_type_id":"4","last_reported":1735848571,"current_range_meters":38800,"station_id":"ce4bgn12rcd13ifvqbt0","pricing_plan_id":"cebpf4jnsgd1na2vs0mg"},{"bike_id":"a1c87532-6196-402b-916e-8ad945b95f72","system_id":"levelo_inurba_marseille","lat":43.25133,"lon":5.40288,"is_reserved":false,"is_disabled":false,"rental_uris":{"android":"levelo://app?vid=a1c87532-6196-402b-916e-8ad945b95f72","ios":"levelo://app?vid=a1c87532-6196-402b-916e-8ad945b95f72"},"vehicle_type_id":"4","last_reported":1735848571,"current_range_meters":11200,"station_id":"ce4bhlh2rcd13ifvqgig","pricing_plan_id":"cebpf4jnsgd1na2vs0mg"},{"bike_id":"4ce38f45-b3ef-4ce1-84b1-8cf7c7ee4592","system_id":"levelo_inurba_marseille","lat":43.27943,"lon":5.41039,"is_reserved":false,"is_disabled":false,"rental_uris":{"android":"levelo://app?vid=4ce38f45-b3ef-4ce1-84b1-8cf7c7ee4592","ios":"levelo://app?vid=4ce38f45-b3ef-4ce1-84b1-8cf7c7ee4592"},"vehicle_type_id":"4","last_reported":1735848571,"current_range_meters":32000,"station_id":"ce4bhnp2rcd13ifvqh0g","pricing_plan_id":"cebpf4jnsgd1na2vs0mg"},{"bike_id":"3cd20a9a-d73e-4af3-b37f-ceeb8ad73b58","system_id":"levelo_inurba_marseille","lat":43.31073,"lon":5.38342,"is_reserved":false,"is_disabled":false,"rental_uris":{"android":"levelo://app?vid=3cd20a9a-d73e-4af3-b37f-ceeb8ad73b58","ios":"levelo://app?vid=3cd20a9a-d73e-4af3-b37f-ceeb8ad73b58"},"vehicle_type_id":"4","last_reported":1735848571,"current_range_meters":19200,"station_id":"ce4bgv92rcd13ifvqcr0","pricing_plan_id":"cebpf4jnsgd1na2vs0mg"},{"bike_id":"4fac24f8-e903-4fc5-8b98-0947685b5962","system_id":"levelo_inurba_marseille","lat":43.29271,"lon":5.38416,"is_reserved":false,"is_disabled":false,"rental_uris":{"android":"levelo://app?vid=4fac24f8-e903-4fc5-8b98-0947685b5962","ios":"levelo://app?vid=4fac24f8-e903-4fc5-8b98-0947685b5962"},"vehicle_type_id":"4","last_reported":1735848571,"current_range_meters":17200,"station_id":"ce4bh692rcd13ifvqea0","pricing_plan_id":"cebpf4jnsgd1na2vs0mg"},{"bike_id":"911d6d05-ac54-4235-8106-6f0f3e8eadf3","system_id":"levelo_inurba_marseille","lat":43.24639,"lon":5.38904,"is_reserved":false,"is_disabled":false,"rental_uris":{"android":"levelo://app?vid=911d6d05-ac54-4235-8106-6f0f3e8eadf3","ios":"levelo://app?vid=911d6d05-ac54-4235-8106-6f0f3e8eadf3"},"vehicle_type_id":"4","last_reported":1735848571,"current_range_meters":8000,"station_id":"ce4bhg12rcd13ifvqf60","pricing_plan_id":"cebpf4jnsgd1na2vs0mg"},{"bike_id":"5f1486d7-4fae-4801-9d26-fff2da0e4875","system_id":"levelo_inurba_marseille","lat":43.31994,"lon":5.38146,"is_reserved":false,"is_disabled":false,"rental_uris":{"android":"levelo://app?vid=5f1486d7-4fae-4801-9d26-fff2da0e4875","ios":"levelo://app?vid=5f1486d7-4fae-4801-9d26-fff2da0e4875"},"vehicle_type_id":"4","last_reported":1735848571,"current_range_meters":35200,"station_id":"ce4bhr12rcd13ifvqhpg","pricing_plan_id":"cebpf4jnsgd1na2vs0mg"},{"bike_id":"a6b8c5d1-0194-4497-b505-a51fde692143","system_id":"levelo_inurba_marseille","lat":43.29004,"lon":5.35611,"is_reserved":false,"is_disabled":false,"rental_uris":{"android":"levelo://app?vid=a6b8c5d1-0194-4497-b505-a51fde692143","ios":"levelo://app?vid=a6b8c5d1-0194-4497-b505-a51fde692143"},"vehicle_type_id":"4","last_reported":1735848571,"current_range_meters":36000,"station_id":"ce4bhb92rcd13ifvqen0","pricing_plan_id":"cebpf4jnsgd1na2vs0mg"},{"bike_id":"1b1671d4-2006-4265-b052-d86f16405c3f","system_id":"levelo_inurba_marseille","lat":43.29041,"lon":5.35923,"is_reserved":false,"is_disabled":false,"rental_uris":{"android":"levelo://app?vid=1b1671d4-2006-4265-b052-d86f16405c3f","ios":"levelo://app?vid=1b1671d4-2006-4265-b052-d86f16405c3f"},"vehicle_type_id":"4","last_reported":1735848571,"current_range_meters":38400,"station_id":"ce4bha92rcd13ifvqeg0","pricing_plan_id":"cebpf4jnsgd1na2vs0mg"},{"bike_id":"0c44e8cb-6c44-450a-a3ff-5dfd7e18baf3","system_id":"levelo_inurba_marseille","lat":43.27994,"lon":5.41662,"is_reserved":false,"is_disabled":false,"rental_uris":{"android":"levelo://app?vid=0c44e8cb-6c44-450a-a3ff-5dfd7e18baf3","ios":"levelo://app?vid=0c44e8cb-6c44-450a-a3ff-5dfd7e18baf3"},"vehicle_type_id":"4","last_reported":1735848571,"current_range_meters":4400,"station_id":"ce4bho12rcd13ifvqh1g","pricing_plan_id":"cebpf4jnsgd1na2vs0mg"},{"bike_id":"25990fff-4e8a-4c9a-9f77-d0b15d680caa","system_id":"levelo_inurba_marseille","lat":43.26946,"lon":5.38641,"is_reserved":false,"is_disabled":true,"rental_uris":{"android":"levelo://app?vid=25990fff-4e8a-4c9a-9f77-d0b15d680caa","ios":"levelo://app?vid=25990fff-4e8a-4c9a-9f77-d0b15d680caa"},"vehicle_type_id":"4","last_reported":1735848571,"current_range_meters":20000,"station_id":"ce4bhh92rcd13ifvqfh0","pricing_plan_id":"cebpf4jnsgd1na2vs0mg"},{"bike_id":"62d408d0-e0fd-421c-8a1a-168ab701b6d1","system_id":"levelo_inurba_marseille","lat":43.28618,"lon":5.35102,"is_reserved":false,"is_disabled":false,"rental_uris":{"android":"levelo://app?vid=62d408d0-e0fd-421c-8a1a-168ab701b6d1","ios":"levelo://app?vid=62d408d0-e0fd-421c-8a1a-168ab701b6d1"},"vehicle_type_id":"4","last_reported":1735848571,"current_range_meters":24400,"station_id":"ce4bhch2rcd13ifvqeug","pricing_plan_id":"cebpf4jnsgd1na2vs0mg"},{"bike_id":"d4ef280b-2e2f-4619-931b-9e0570666437","system_id":"levelo_inurba_marseille","lat":43.29916,"lon":5.39752,"is_reserved":false,"is_disabled":false,"rental_uris":{"android":"levelo://app?vid=d4ef280b-2e2f-4619-931b-9e0570666437","ios":"levelo://app?vid=d4ef280b-2e2f-4619-931b-9e0570666437"},"vehicle_type_id":"4","last_reported":1735848571,"current_range_meters":25600,"station_id":"","pricing_plan_id":"cebpf4jnsgd1na2vs0mg"},{"bike_id":"51855b67-dd6c-4e75-b660-5384b749b10b","system_id":"levelo_inurba_marseille","lat":43.31704,"lon":5.37749,"is_reserved":false,"is_disabled":false,"rental_uris":{"android":"levelo://app?vid=51855b67-dd6c-4e75-b660-5384b749b10b","ios":"levelo://app?vid=51855b67-dd6c-4e75-b660-5384b749b10b"},"vehicle_type_id":"4","last_reported":1735848571,"current_range_meters":18800,"station_id":"ce4bgth2rcd13ifvqch0","pricing_plan_id":"cebpf4jnsgd1na2vs0mg"},{"bike_id":"61145c38-69e6-40aa-98ce-2e37c606abcc","system_id":"levelo_inurba_marseille","lat":43.29539,"lon":5.38538,"is_reserved":false,"is_disabled":false,"rental_uris":{"android":"levelo://app?vid=61145c38-69e6-40aa-98ce-2e37c606abcc","ios":"levelo://app?vid=61145c38-69e6-40aa-98ce-2e37c606abcc"},"vehicle_type_id":"4","last_reported":1735848571,"current_range_meters":37600,"station_id":"ce4bgih2rcd13ifvqba0","pricing_plan_id":"cebpf4jnsgd1na2vs0mg"},{"bike_id":"56f472aa-6acc-47d3-ada3-27f6fe447e34","system_id":"levelo_inurba_marseille","lat":43.281,"lon":5.37849,"is_reserved":false,"is_disabled":false,"rental_uris":{"android":"levelo://app?vid=56f472aa-6acc-47d3-ada3-27f6fe447e34","ios":"levelo://app?vid=56f472aa-6acc-47d3-ada3-27f6fe447e34"},"vehicle_type_id":"4","last_reported":1735848571,"current_range_meters":19600,"station_id":"ce4bha12rcd13ifvqee0","pricing_plan_id":"cebpf4jnsgd1na2vs0mg"},{"bike_id":"0c8fc31e-07a0-4146-bd41-63f5c83137d4","system_id":"levelo_inurba_marseille","lat":43.29626,"lon":5.37697,"is_reserved":false,"is_disabled":false,"rental_uris":{"android":"levelo://app?vid=0c8fc31e-07a0-4146-bd41-63f5c83137d4","ios":"levelo://app?vid=0c8fc31e-07a0-4146-bd41-63f5c83137d4"},"vehicle_type_id":"4","last_reported":1735848571,"current_range_meters":38000,"station_id":"ce4bgi92rcd13ifvqb90","pricing_plan_id":"cebpf4jnsgd1na2vs0mg"},{"bike_id":"07914263-3d03-4738-b553-ee795a62a79e","system_id":"levelo_inurba_marseille","lat":43.25859,"lon":5.39897,"is_reserved":false,"is_disabled":false,"rental_uris":{"android":"levelo://app?vid=07914263-3d03-4738-b553-ee795a62a79e","ios":"levelo://app?vid=07914263-3d03-4738-b553-ee795a62a79e"},"vehicle_type_id":"4","last_reported":1735848571,"current_range_meters":28800,"station_id":"ce4bhl92rcd13ifvqghg","pricing_plan_id":"cebpf4jnsgd1na2vs0mg"},{"bike_id":"36b44304-4e81-43c8-b291-bd90ab2e4e78","system_id":"levelo_inurba_marseille","lat":43.26788,"lon":5.39403,"is_reserved":false,"is_disabled":false,"rental_uris":{"android":"levelo://app?vid=36b44304-4e81-43c8-b291-bd90ab2e4e78","ios":"levelo://app?vid=36b44304-4e81-43c8-b291-bd90ab2e4e78"},"vehicle_type_id":"4","last_reported":1735848571,"current_range_meters":28400,"station_id":"ce4bhh12rcd13ifvqfg0","pricing_plan_id":"cebpf4jnsgd1na2vs0mg"},{"bike_id":"b1650b6b-8edc-4f81-a3ba-94700ac4cc56","system_id":"levelo_inurba_marseille","lat":43.31691,"lon":5.40464,"is_reserved":false,"is_disabled":false,"rental_uris":{"android":"levelo://app?vid=b1650b6b-8edc-4f81-a3ba-94700ac4cc56","ios":"levelo://app?vid=b1650b6b-8edc-4f81-a3ba-94700ac4cc56"},"vehicle_type_id":"4","last_reported":1735848571,"current_range_meters":38800,"station_id":"ce4bh012rcd13ifvqd00","pricing_plan_id":"cebpf4jnsgd1na2vs0mg"},{"bike_id":"6ed3fdbb-b150-4868-b3fe-dcf7dbba80db","system_id":"levelo_inurba_marseille","lat":43.27307,"lon":5.39088,"is_reserved":false,"is_disabled":false,"rental_uris":{"android":"levelo://app?vid=6ed3fdbb-b150-4868-b3fe-dcf7dbba80db","ios":"levelo://app?vid=6ed3fdbb-b150-4868-b3fe-dcf7dbba80db"},"vehicle_type_id":"4","last_reported":1735848571,"current_range_meters":27600,"station_id":"ce4bhgp2rcd13ifvqfe0","pricing_plan_id":"cebpf4jnsgd1na2vs0mg"},{"bike_id":"25c73ff4-b516-4ca7-9e8d-cb16f8cf8ef6","system_id":"levelo_inurba_marseille","lat":43.24076,"lon":5.37768,"is_reserved":false,"is_disabled":false,"rental_uris":{"android":"levelo://app?vid=25c73ff4-b516-4ca7-9e8d-cb16f8cf8ef6","ios":"levelo://app?vid=25c73ff4-b516-4ca7-9e8d-cb16f8cf8ef6"},"vehicle_type_id":"4","last_reported":1735848571,"current_range_meters":38800,"station_id":"ce4bhnp2rcd13ifvqgvg","pricing_plan_id":"cebpf4jnsgd1na2vs0mg"},{"bike_id":"f102d633-29e9-4295-ad76-a1e2a9694a93","system_id":"levelo_inurba_marseille","lat":43.29022,"lon":5.38643,"is_reserved":false,"is_disabled":false,"rental_uris":{"android":"levelo://app?vid=f102d633-29e9-4295-ad76-a1e2a9694a93","ios":"levelo://app?vid=f102d633-29e9-4295-ad76-a1e2a9694a93"},"vehicle_type_id":"4","last_reported":1735848571,"current_range_meters":38800,"station_id":"ce4bh4p2rcd13ifvqe0g","pricing_plan_id":"cebpf4jnsgd1na2vs0mg"},{"bike_id":"703bc212-ff03-476d-bd5f-95e2b6edaa35","system_id":"levelo_inurba_marseille","lat":43.29606,"lon":5.38105,"is_reserved":false,"is_disabled":false,"rental_uris":{"android":"levelo://app?vid=703bc212-ff03-476d-bd5f-95e2b6edaa35","ios":"levelo://app?vid=703bc212-ff03-476d-bd5f-95e2b6edaa35"},"vehicle_type_id":"4","last_reported":1735848571,"current_range_meters":32000,"station_id":"ce4bgl12rcd13ifvqbo0","pricing_plan_id":"cebpf4jnsgd1na2vs0mg"},{"bike_id":"7a505028-6959-41ce-bbbb-a12933215258","system_id":"levelo_inurba_marseille","lat":43.304256,"lon":5.38884,"is_reserved":false,"is_disabled":false,"rental_uris":{"android":"levelo://app?vid=7a505028-6959-41ce-bbbb-a12933215258","ios":"levelo://app?vid=7a505028-6959-41ce-bbbb-a12933215258"},"vehicle_type_id":"4","last_reported":1735848571,"current_range_meters":32000,"station_id":"ce4bgk12rcd13ifvqbi0","pricing_plan_id":"cebpf4jnsgd1na2vs0mg"},{"bike_id":"e618fc4c-10a4-4d27-a564-7804cf94ac8c","system_id":"levelo_inurba_marseille","lat":43.2928,"lon":5.38421,"is_reserved":false,"is_disabled":false,"rental_uris":{"android":"levelo://app?vid=e618fc4c-10a4-4d27-a564-7804cf94ac8c","ios":"levelo://app?vid=e618fc4c-10a4-4d27-a564-7804cf94ac8c"},"vehicle_type_id":"4","last_reported":1735848571,"current_range_meters":20400,"station_id":"ce4bh692rcd13ifvqea0","pricing_plan_id":"cebpf4jnsgd1na2vs0mg"},{"bike_id":"a6f828f1-5f97-4da7-bf33-7d48a155db3e","system_id":"levelo_inurba_marseille","lat":43.27853,"lon":5.39193,"is_reserved":false,"is_disabled":false,"rental_uris":{"android":"levelo://app?vid=a6f828f1-5f97-4da7-bf33-7d48a155db3e","ios":"levelo://app?vid=a6f828f1-5f97-4da7-bf33-7d48a155db3e"},"vehicle_type_id":"4","last_reported":1735848571,"current_range_meters":34000,"station_id":"ce4bhjp2rcd13ifvqga0","pricing_plan_id":"cebpf4jnsgd1na2vs0mg"},{"bike_id":"bbefe573-2e5c-4fbf-a5d6-e0f28031c10d","system_id":"levelo_inurba_marseille","lat":43.31354,"lon":5.38496,"is_reserved":false,"is_disabled":false,"rental_uris":{"android":"levelo://app?vid=bbefe573-2e5c-4fbf-a5d6-e0f28031c10d","ios":"levelo://app?vid=bbefe573-2e5c-4fbf-a5d6-e0f28031c10d"},"vehicle_type_id":"4","last_reported":1735848571,"current_range_meters":38000,"station_id":"ce4bgt92rcd13ifvqcf0","pricing_plan_id":"cebpf4jnsgd1na2vs0mg"},{"bike_id":"97e13ddf-c974-499e-83cd-3303626944c0","system_id":"levelo_inurba_marseille","lat":43.2558,"lon":5.38226,"is_reserved":false,"is_disabled":false,"rental_uris":{"android":"levelo://app?vid=97e13ddf-c974-499e-83cd-3303626944c0","ios":"levelo://app?vid=97e13ddf-c974-499e-83cd-3303626944c0"},"vehicle_type_id":"4","last_reported":1735848571,"current_range_meters":24800,"station_id":"ce4bhih2rcd13ifvqfs0","pricing_plan_id":"cebpf4jnsgd1na2vs0mg"},{"bike_id":"14de3b19-0238-4e8c-94d0-30cc97b5401a","system_id":"levelo_inurba_marseille","lat":43.30785,"lon":5.3765,"is_reserved":false,"is_disabled":false,"rental_uris":{"android":"levelo://app?vid=14de3b19-0238-4e8c-94d0-30cc97b5401a","ios":"levelo://app?vid=14de3b19-0238-4e8c-94d0-30cc97b5401a"},"vehicle_type_id":"4","last_reported":1735848571,"current_range_meters":38800,"station_id":"ce4bgv92rcd13ifvqcq0","pricing_plan_id":"cebpf4jnsgd1na2vs0mg"},{"bike_id":"f20c015a-0ed9-41c9-b102-c68f5f84fd52","system_id":"levelo_inurba_marseille","lat":43.29535,"lon":5.38533,"is_reserved":false,"is_disabled":false,"rental_uris":{"android":"levelo://app?vid=f20c015a-0ed9-41c9-b102-c68f5f84fd52","ios":"levelo://app?vid=f20c015a-0ed9-41c9-b102-c68f5f84fd52"},"vehicle_type_id":"4","last_reported":1735848571,"current_range_meters":38800,"station_id":"ce4bgih2rcd13ifvqba0","pricing_plan_id":"cebpf4jnsgd1na2vs0mg"},{"bike_id":"0d22c007-f5b2-4481-9b21-08f35f061702","system_id":"levelo_inurba_marseille","lat":43.2963,"lon":5.37159,"is_reserved":false,"is_disabled":true,"rental_uris":{"android":"levelo://app?vid=0d22c007-f5b2-4481-9b21-08f35f061702","ios":"levelo://app?vid=0d22c007-f5b2-4481-9b21-08f35f061702"},"vehicle_type_id":"4","last_reported":1735848571,"current_range_meters":0,"station_id":"ce4bgnh2rcd13ifvqc0g","pricing_plan_id":"cebpf4jnsgd1na2vs0mg"},{"bike_id":"bf5d1ce1-7688-4e17-971a-7b8dfa4e1370","system_id":"levelo_inurba_marseille","lat":43.28998,"lon":5.35597,"is_reserved":false,"is_disabled":false,"rental_uris":{"android":"levelo://app?vid=bf5d1ce1-7688-4e17-971a-7b8dfa4e1370","ios":"levelo://app?vid=bf5d1ce1-7688-4e17-971a-7b8dfa4e1370"},"vehicle_type_id":"4","last_reported":1735848571,"current_range_meters":39200,"station_id":"ce4bhb92rcd13ifvqen0","pricing_plan_id":"cebpf4jnsgd1na2vs0mg"},{"bike_id":"924beefc-7f17-496a-b7df-d11950357e09","system_id":"levelo_inurba_marseille","lat":43.29028,"lon":5.38634,"is_reserved":false,"is_disabled":false,"rental_uris":{"android":"levelo://app?vid=924beefc-7f17-496a-b7df-d11950357e09","ios":"levelo://app?vid=924beefc-7f17-496a-b7df-d11950357e09"},"vehicle_type_id":"4","last_reported":1735848571,"current_range_meters":17600,"station_id":"ce4bh4p2rcd13ifvqe0g","pricing_plan_id":"cebpf4jnsgd1na2vs0mg"},{"bike_id":"b36d0aa9-35b5-4ab6-b66b-656e8883a3a5","system_id":"levelo_inurba_marseille","lat":43.29482,"lon":5.3904,"is_reserved":false,"is_disabled":false,"rental_uris":{"android":"levelo://app?vid=b36d0aa9-35b5-4ab6-b66b-656e8883a3a5","ios":"levelo://app?vid=b36d0aa9-35b5-4ab6-b66b-656e8883a3a5"},"vehicle_type_id":"4","last_reported":1735848571,"current_range_meters":21600,"station_id":"ce4bh3p2rcd13ifvqdp0","pricing_plan_id":"cebpf4jnsgd1na2vs0mg"},{"bike_id":"6ac2cdd8-e487-4b67-b051-ebee4a10b2f9","system_id":"levelo_inurba_marseille","lat":43.293785,"lon":5.373835,"is_reserved":false,"is_disabled":false,"rental_uris":{"android":"levelo://app?vid=6ac2cdd8-e487-4b67-b051-ebee4a10b2f9","ios":"levelo://app?vid=6ac2cdd8-e487-4b67-b051-ebee4a10b2f9"},"vehicle_type_id":"4","last_reported":1735848571,"current_range_meters":38000,"station_id":"ce4bgi12rcd13ifvqb70","pricing_plan_id":"cebpf4jnsgd1na2vs0mg"},{"bike_id":"f811a98b-9aa7-419d-8e74-1c4088ab1bbc","system_id":"levelo_inurba_marseille","lat":43.2707,"lon":5.42281,"is_reserved":false,"is_disabled":false,"rental_uris":{"android":"levelo://app?vid=f811a98b-9aa7-419d-8e74-1c4088ab1bbc","ios":"levelo://app?vid=f811a98b-9aa7-419d-8e74-1c4088ab1bbc"},"vehicle_type_id":"4","last_reported":1735848571,"current_range_meters":39200,"station_id":"ce4bhk92rcd13ifvqgb0","pricing_plan_id":"cebpf4jnsgd1na2vs0mg"},{"bike_id":"8f236aa0-69d9-4777-af98-8397a0b1ff94","system_id":"levelo_inurba_marseille","lat":43.28163,"lon":5.42593,"is_reserved":false,"is_disabled":true,"rental_uris":{"android":"levelo://app?vid=8f236aa0-69d9-4777-af98-8397a0b1ff94","ios":"levelo://app?vid=8f236aa0-69d9-4777-af98-8397a0b1ff94"},"vehicle_type_id":"4","last_reported":1735848571,"current_range_meters":8400,"station_id":"ce4bhnh2rcd13ifvqgug","pricing_plan_id":"cebpf4jnsgd1na2vs0mg"},{"bike_id":"77aeb63e-f75c-41c6-b14a-780759752b65","system_id":"levelo_inurba_marseille","lat":43.29296,"lon":5.37459,"is_reserved":false,"is_disabled":false,"rental_uris":{"android":"levelo://app?vid=77aeb63e-f75c-41c6-b14a-780759752b65","ios":"levelo://app?vid=77aeb63e-f75c-41c6-b14a-780759752b65"},"vehicle_type_id":"4","last_reported":1735848571,"current_range_meters":18800,"station_id":"ce4bgi12rcd13ifvqb70","pricing_plan_id":"cebpf4jnsgd1na2vs0mg"},{"bike_id":"8e936699-fb94-4c05-a18e-6a31521ab968","system_id":"levelo_inurba_marseille","lat":43.28458,"lon":5.35882,"is_reserved":false,"is_disabled":false,"rental_uris":{"android":"levelo://app?vid=8e936699-fb94-4c05-a18e-6a31521ab968","ios":"levelo://app?vid=8e936699-fb94-4c05-a18e-6a31521ab968"},"vehicle_type_id":"4","last_reported":1735848571,"current_range_meters":38000,"station_id":"ce4bhah2rcd13ifvqei0","pricing_plan_id":"cebpf4jnsgd1na2vs0mg"},{"bike_id":"8fd41660-9f08-4b00-98ad-83838f12a0e9","system_id":"levelo_inurba_marseille","lat":43.2959,"lon":5.38111,"is_reserved":false,"is_disabled":false,"rental_uris":{"android":"levelo://app?vid=8fd41660-9f08-4b00-98ad-83838f12a0e9","ios":"levelo://app?vid=8fd41660-9f08-4b00-98ad-83838f12a0e9"},"vehicle_type_id":"4","last_reported":1735848571,"current_range_meters":28400,"station_id":"ce4bgl12rcd13ifvqbo0","pricing_plan_id":"cebpf4jnsgd1na2vs0mg"},{"bike_id":"d9039fb6-1526-43a5-ab47-bf6c74051347","system_id":"levelo_inurba_marseille","lat":43.28157,"lon":5.42645,"is_reserved":false,"is_disabled":true,"rental_uris":{"android":"levelo://app?vid=d9039fb6-1526-43a5-ab47-bf6c74051347","ios":"levelo://app?vid=d9039fb6-1526-43a5-ab47-bf6c74051347"},"vehicle_type_id":"4","last_reported":1735848571,"current_range_meters":0,"station_id":"ce4bhnh2rcd13ifvqgug","pricing_plan_id":"cebpf4jnsgd1na2vs0mg"},{"bike_id":"536ced03-f935-46b5-972d-99c9305195ab","system_id":"levelo_inurba_marseille","lat":43.31076,"lon":5.38355,"is_reserved":false,"is_disabled":false,"rental_uris":{"android":"levelo://app?vid=536ced03-f935-46b5-972d-99c9305195ab","ios":"levelo://app?vid=536ced03-f935-46b5-972d-99c9305195ab"},"vehicle_type_id":"4","last_reported":1735848571,"current_range_meters":28400,"station_id":"ce4bgv92rcd13ifvqcr0","pricing_plan_id":"cebpf4jnsgd1na2vs0mg"},{"bike_id":"65c7064d-258e-4f50-8bbc-b2187209a0c7","system_id":"levelo_inurba_marseille","lat":43.29253,"lon":5.3844,"is_reserved":false,"is_disabled":false,"rental_uris":{"android":"levelo://app?vid=65c7064d-258e-4f50-8bbc-b2187209a0c7","ios":"levelo://app?vid=65c7064d-258e-4f50-8bbc-b2187209a0c7"},"vehicle_type_id":"4","last_reported":1735848571,"current_range_meters":10000,"station_id":"ce4bh692rcd13ifvqea0","pricing_plan_id":"cebpf4jnsgd1na2vs0mg"},{"bike_id":"022d826a-d31d-48ef-b07e-f8dd0ceaa746","system_id":"levelo_inurba_marseille","lat":43.24996,"lon":5.38935,"is_reserved":false,"is_disabled":false,"rental_uris":{"android":"levelo://app?vid=022d826a-d31d-48ef-b07e-f8dd0ceaa746","ios":"levelo://app?vid=022d826a-d31d-48ef-b07e-f8dd0ceaa746"},"vehicle_type_id":"4","last_reported":1735848571,"current_range_meters":26800,"station_id":"ce4bhgp2rcd13ifvqfd0","pricing_plan_id":"cebpf4jnsgd1na2vs0mg"},{"bike_id":"7a6dab3c-f964-42d9-b98a-28ef0157938b","system_id":"levelo_inurba_marseille","lat":43.28851,"lon":5.39317,"is_reserved":false,"is_disabled":false,"rental_uris":{"android":"levelo://app?vid=7a6dab3c-f964-42d9-b98a-28ef0157938b","ios":"levelo://app?vid=7a6dab3c-f964-42d9-b98a-28ef0157938b"},"vehicle_type_id":"4","last_reported":1735848571,"current_range_meters":28400,"station_id":"ce4bh2p2rcd13ifvqdi0","pricing_plan_id":"cebpf4jnsgd1na2vs0mg"},{"bike_id":"5f97eee1-4bb9-43f4-8e6e-a0b21a58fdc8","system_id":"levelo_inurba_marseille","lat":43.31894,"lon":5.40728,"is_reserved":false,"is_disabled":false,"rental_uris":{"android":"levelo://app?vid=5f97eee1-4bb9-43f4-8e6e-a0b21a58fdc8","ios":"levelo://app?vid=5f97eee1-4bb9-43f4-8e6e-a0b21a58fdc8"},"vehicle_type_id":"4","last_reported":1735848571,"current_range_meters":38800,"station_id":"ce4bhq12rcd13ifvqhig","pricing_plan_id":"cebpf4jnsgd1na2vs0mg"},{"bike_id":"82575f31-b3f5-4112-85bb-82ab7a562bef","system_id":"levelo_inurba_marseille","lat":43.30931,"lon":5.40142,"is_reserved":false,"is_disabled":false,"rental_uris":{"android":"levelo://app?vid=82575f31-b3f5-4112-85bb-82ab7a562bef","ios":"levelo://app?vid=82575f31-b3f5-4112-85bb-82ab7a562bef"},"vehicle_type_id":"4","last_reported":1735848571,"current_range_meters":39200,"station_id":"ce4bgvp2rcd13ifvqct0","pricing_plan_id":"cebpf4jnsgd1na2vs0mg"},{"bike_id":"9c975c47-5371-4921-b2e9-5b31b3588bc1","system_id":"levelo_inurba_marseille","lat":43.29254,"lon":5.38453,"is_reserved":false,"is_disabled":false,"rental_uris":{"android":"levelo://app?vid=9c975c47-5371-4921-b2e9-5b31b3588bc1","ios":"levelo://app?vid=9c975c47-5371-4921-b2e9-5b31b3588bc1"},"vehicle_type_id":"4","last_reported":1735848571,"current_range_meters":39200,"station_id":"ce4bh692rcd13ifvqea0","pricing_plan_id":"cebpf4jnsgd1na2vs0mg"},{"bike_id":"41ceb840-185c-47e7-a0f3-5a5721651aab","system_id":"levelo_inurba_marseille","lat":43.31327,"lon":5.39687,"is_reserved":false,"is_disabled":false,"rental_uris":{"android":"levelo://app?vid=41ceb840-185c-47e7-a0f3-5a5721651aab","ios":"levelo://app?vid=41ceb840-185c-47e7-a0f3-5a5721651aab"},"vehicle_type_id":"4","last_reported":1735848571,"current_range_meters":6400,"station_id":"ce4bgvp2rcd13ifvqcu0","pricing_plan_id":"cebpf4jnsgd1na2vs0mg"},{"bike_id":"cb463b1c-2e27-475d-af4b-2a476e81130e","system_id":"levelo_inurba_marseille","lat":43.28298,"lon":5.35081,"is_reserved":false,"is_disabled":false,"rental_uris":{"android":"levelo://app?vid=cb463b1c-2e27-475d-af4b-2a476e81130e","ios":"levelo://app?vid=cb463b1c-2e27-475d-af4b-2a476e81130e"},"vehicle_type_id":"4","last_reported":1735848571,"current_range_meters":38400,"station_id":"ce4bhbp2rcd13ifvqerg","pricing_plan_id":"cebpf4jnsgd1na2vs0mg"},{"bike_id":"658f3f86-23aa-48e9-af5f-b9cb4bbf3b8e","system_id":"levelo_inurba_marseille","lat":43.29552,"lon":5.42285,"is_reserved":false,"is_disabled":false,"rental_uris":{"android":"levelo://app?vid=658f3f86-23aa-48e9-af5f-b9cb4bbf3b8e","ios":"levelo://app?vid=658f3f86-23aa-48e9-af5f-b9cb4bbf3b8e"},"vehicle_type_id":"4","last_reported":1735848571,"current_range_meters":28400,"station_id":"ce4bhph2rcd13ifvqhdg","pricing_plan_id":"cebpf4jnsgd1na2vs0mg"},{"bike_id":"626a1655-4700-4fd6-a8a4-87f6c0e94a90","system_id":"levelo_inurba_marseille","lat":43.28862,"lon":5.35836,"is_reserved":false,"is_disabled":false,"rental_uris":{"android":"levelo://app?vid=626a1655-4700-4fd6-a8a4-87f6c0e94a90","ios":"levelo://app?vid=626a1655-4700-4fd6-a8a4-87f6c0e94a90"},"vehicle_type_id":"4","last_reported":1735848571,"current_range_meters":27600,"station_id":"ce4bhb12rcd13ifvqem0","pricing_plan_id":"cebpf4jnsgd1na2vs0mg"},{"bike_id":"33dc37c8-ad31-4bbb-a502-8ad8309bfdd3","system_id":"levelo_inurba_marseille","lat":43.29893,"lon":5.43676,"is_reserved":false,"is_disabled":false,"rental_uris":{"android":"levelo://app?vid=33dc37c8-ad31-4bbb-a502-8ad8309bfdd3","ios":"levelo://app?vid=33dc37c8-ad31-4bbb-a502-8ad8309bfdd3"},"vehicle_type_id":"4","last_reported":1735848571,"current_range_meters":39200,"station_id":"ce4bhpp2rcd13ifvqhfg","pricing_plan_id":"cebpf4jnsgd1na2vs0mg"},{"bike_id":"375263f7-8be8-4e9c-8273-54301f8efcdc","system_id":"levelo_inurba_marseille","lat":43.28157,"lon":5.42646,"is_reserved":false,"is_disabled":false,"rental_uris":{"android":"levelo://app?vid=375263f7-8be8-4e9c-8273-54301f8efcdc","ios":"levelo://app?vid=375263f7-8be8-4e9c-8273-54301f8efcdc"},"vehicle_type_id":"4","last_reported":1735848571,"current_range_meters":8400,"station_id":"ce4bhnh2rcd13ifvqgug","pricing_plan_id":"cebpf4jnsgd1na2vs0mg"},{"bike_id":"d0030ff6-f8b3-4b75-bb9b-f2175ff4ca9d","system_id":"levelo_inurba_marseille","lat":43.24072,"lon":5.37756,"is_reserved":false,"is_disabled":false,"rental_uris":{"android":"levelo://app?vid=d0030ff6-f8b3-4b75-bb9b-f2175ff4ca9d","ios":"levelo://app?vid=d0030ff6-f8b3-4b75-bb9b-f2175ff4ca9d"},"vehicle_type_id":"4","last_reported":1735848571,"current_range_meters":38800,"station_id":"ce4bhnp2rcd13ifvqgvg","pricing_plan_id":"cebpf4jnsgd1na2vs0mg"},{"bike_id":"9d3fc8c9-2a30-46f6-a17d-7e1c0cdaa39c","system_id":"levelo_inurba_marseille","lat":43.29801,"lon":5.38098,"is_reserved":false,"is_disabled":false,"rental_uris":{"android":"levelo://app?vid=9d3fc8c9-2a30-46f6-a17d-7e1c0cdaa39c","ios":"levelo://app?vid=9d3fc8c9-2a30-46f6-a17d-7e1c0cdaa39c"},"vehicle_type_id":"4","last_reported":1735848571,"current_range_meters":36000,"station_id":"ce4bgip2rcd13ifvqbb0","pricing_plan_id":"cebpf4jnsgd1na2vs0mg"},{"bike_id":"288df3f3-407a-4ba2-b112-c5ead5bfabe0","system_id":"levelo_inurba_marseille","lat":43.29006,"lon":5.35599,"is_reserved":false,"is_disabled":true,"rental_uris":{"android":"levelo://app?vid=288df3f3-407a-4ba2-b112-c5ead5bfabe0","ios":"levelo://app?vid=288df3f3-407a-4ba2-b112-c5ead5bfabe0"},"vehicle_type_id":"4","last_reported":1735848571,"current_range_meters":38000,"station_id":"ce4bhb92rcd13ifvqen0","pricing_plan_id":"cebpf4jnsgd1na2vs0mg"},{"bike_id":"349a4ab8-6f13-4948-be71-abaadb9466ee","system_id":"levelo_inurba_marseille","lat":43.24035,"lon":5.37729,"is_reserved":false,"is_disabled":false,"rental_uris":{"android":"levelo://app?vid=349a4ab8-6f13-4948-be71-abaadb9466ee","ios":"levelo://app?vid=349a4ab8-6f13-4948-be71-abaadb9466ee"},"vehicle_type_id":"4","last_reported":1735848571,"current_range_meters":38400,"station_id":"ce4bhnp2rcd13ifvqgvg","pricing_plan_id":"cebpf4jnsgd1na2vs0mg"},{"bike_id":"e147a7b3-9e94-4f33-a9e2-8b559e074ee3","system_id":"levelo_inurba_marseille","lat":43.27943,"lon":5.4103,"is_reserved":false,"is_disabled":false,"rental_uris":{"android":"levelo://app?vid=e147a7b3-9e94-4f33-a9e2-8b559e074ee3","ios":"levelo://app?vid=e147a7b3-9e94-4f33-a9e2-8b559e074ee3"},"vehicle_type_id":"4","last_reported":1735848571,"current_range_meters":26800,"station_id":"ce4bhnp2rcd13ifvqh0g","pricing_plan_id":"cebpf4jnsgd1na2vs0mg"},{"bike_id":"df4442c2-98ea-45f1-acd1-a238ca2aaec0","system_id":"levelo_inurba_marseille","lat":43.26679,"lon":5.38265,"is_reserved":false,"is_disabled":false,"rental_uris":{"android":"levelo://app?vid=df4442c2-98ea-45f1-acd1-a238ca2aaec0","ios":"levelo://app?vid=df4442c2-98ea-45f1-acd1-a238ca2aaec0"},"vehicle_type_id":"4","last_reported":1735848571,"current_range_meters":38800,"station_id":"ce4bhg92rcd13ifvqf90","pricing_plan_id":"cebpf4jnsgd1na2vs0mg"},{"bike_id":"e7f232e6-9751-45f4-a24f-005b95d10947","system_id":"levelo_inurba_marseille","lat":43.29621,"lon":5.37697,"is_reserved":false,"is_disabled":true,"rental_uris":{"android":"levelo://app?vid=e7f232e6-9751-45f4-a24f-005b95d10947","ios":"levelo://app?vid=e7f232e6-9751-45f4-a24f-005b95d10947"},"vehicle_type_id":"4","last_reported":1735848571,"current_range_meters":1200,"station_id":"ce4bgi92rcd13ifvqb90","pricing_plan_id":"cebpf4jnsgd1na2vs0mg"},{"bike_id":"4cf49d06-d12a-4f67-a04c-da55d1b6d7b0","system_id":"levelo_inurba_marseille","lat":43.28114,"lon":5.37834,"is_reserved":false,"is_disabled":false,"rental_uris":{"android":"levelo://app?vid=4cf49d06-d12a-4f67-a04c-da55d1b6d7b0","ios":"levelo://app?vid=4cf49d06-d12a-4f67-a04c-da55d1b6d7b0"},"vehicle_type_id":"4","last_reported":1735848571,"current_range_meters":20800,"station_id":"ce4bha12rcd13ifvqee0","pricing_plan_id":"cebpf4jnsgd1na2vs0mg"},{"bike_id":"f3998a04-3b93-4948-8eb7-aa16047370fd","system_id":"levelo_inurba_marseille","lat":43.27954,"lon":5.41055,"is_reserved":false,"is_disabled":false,"rental_uris":{"android":"levelo://app?vid=f3998a04-3b93-4948-8eb7-aa16047370fd","ios":"levelo://app?vid=f3998a04-3b93-4948-8eb7-aa16047370fd"},"vehicle_type_id":"4","last_reported":1735848571,"current_range_meters":22400,"station_id":"ce4bhnp2rcd13ifvqh0g","pricing_plan_id":"cebpf4jnsgd1na2vs0mg"},{"bike_id":"1c5434c6-81cf-4ea8-9bf2-abfb41c12665","system_id":"levelo_inurba_marseille","lat":43.30883,"lon":5.37171,"is_reserved":false,"is_disabled":true,"rental_uris":{"android":"levelo://app?vid=1c5434c6-81cf-4ea8-9bf2-abfb41c12665","ios":"levelo://app?vid=1c5434c6-81cf-4ea8-9bf2-abfb41c12665"},"vehicle_type_id":"4","last_reported":1735848571,"current_range_meters":37600,"station_id":"ce4bguh2rcd13ifvqckg","pricing_plan_id":"cebpf4jnsgd1na2vs0mg"},{"bike_id":"bbb173c2-5fa6-4439-999a-e24a3ecc81ee","system_id":"levelo_inurba_marseille","lat":43.29531,"lon":5.42272,"is_reserved":false,"is_disabled":false,"rental_uris":{"android":"levelo://app?vid=bbb173c2-5fa6-4439-999a-e24a3ecc81ee","ios":"levelo://app?vid=bbb173c2-5fa6-4439-999a-e24a3ecc81ee"},"vehicle_type_id":"4","last_reported":1735848571,"current_range_meters":30800,"station_id":"ce4bhph2rcd13ifvqhdg","pricing_plan_id":"cebpf4jnsgd1na2vs0mg"},{"bike_id":"1a179dc3-f8e0-460a-82bb-c6968a20da94","system_id":"levelo_inurba_marseille","lat":43.30093,"lon":5.39076,"is_reserved":false,"is_disabled":false,"rental_uris":{"android":"levelo://app?vid=1a179dc3-f8e0-460a-82bb-c6968a20da94","ios":"levelo://app?vid=1a179dc3-f8e0-460a-82bb-c6968a20da94"},"vehicle_type_id":"4","last_reported":1735848571,"current_range_meters":38000,"station_id":"ce4bh192rcd13ifvqdb0","pricing_plan_id":"cebpf4jnsgd1na2vs0mg"},{"bike_id":"bf0134ca-54e1-43be-8b29-8c6ccab6ae0d","system_id":"levelo_inurba_marseille","lat":43.24806,"lon":5.37453,"is_reserved":false,"is_disabled":false,"rental_uris":{"android":"levelo://app?vid=bf0134ca-54e1-43be-8b29-8c6ccab6ae0d","ios":"levelo://app?vid=bf0134ca-54e1-43be-8b29-8c6ccab6ae0d"},"vehicle_type_id":"4","last_reported":1735848571,"current_range_meters":38800,"station_id":"ce4bhgh2rcd13ifvqfb0","pricing_plan_id":"cebpf4jnsgd1na2vs0mg"},{"bike_id":"e157af35-862f-4ff3-a971-0cec14143385","system_id":"levelo_inurba_marseille","lat":43.27954,"lon":5.41034,"is_reserved":false,"is_disabled":false,"rental_uris":{"android":"levelo://app?vid=e157af35-862f-4ff3-a971-0cec14143385","ios":"levelo://app?vid=e157af35-862f-4ff3-a971-0cec14143385"},"vehicle_type_id":"4","last_reported":1735848571,"current_range_meters":27200,"station_id":"ce4bhnp2rcd13ifvqh0g","pricing_plan_id":"cebpf4jnsgd1na2vs0mg"},{"bike_id":"a5afea11-e1e9-4560-8303-6dab77974894","system_id":"levelo_inurba_marseille","lat":43.2869,"lon":5.38668,"is_reserved":false,"is_disabled":false,"rental_uris":{"android":"levelo://app?vid=a5afea11-e1e9-4560-8303-6dab77974894","ios":"levelo://app?vid=a5afea11-e1e9-4560-8303-6dab77974894"},"vehicle_type_id":"4","last_reported":1735848571,"current_range_meters":27200,"station_id":"ce4bh492rcd13ifvqdug","pricing_plan_id":"cebpf4jnsgd1na2vs0mg"},{"bike_id":"a4828b82-6158-43c7-aedb-77476d918880","system_id":"levelo_inurba_marseille","lat":43.28616,"lon":5.351,"is_reserved":false,"is_disabled":true,"rental_uris":{"android":"levelo://app?vid=a4828b82-6158-43c7-aedb-77476d918880","ios":"levelo://app?vid=a4828b82-6158-43c7-aedb-77476d918880"},"vehicle_type_id":"4","last_reported":1735848571,"current_range_meters":25200,"station_id":"ce4bhch2rcd13ifvqeug","pricing_plan_id":"cebpf4jnsgd1na2vs0mg"},{"bike_id":"43c64af5-9471-4260-89db-8ab112e03a32","system_id":"levelo_inurba_marseille","lat":43.27455,"lon":5.4253,"is_reserved":false,"is_disabled":false,"rental_uris":{"android":"levelo://app?vid=43c64af5-9471-4260-89db-8ab112e03a32","ios":"levelo://app?vid=43c64af5-9471-4260-89db-8ab112e03a32"},"vehicle_type_id":"4","last_reported":1735848571,"current_range_meters":11200,"station_id":"","pricing_plan_id":"cebpf4jnsgd1na2vs0mg"},{"bike_id":"aab95f4a-8936-4128-a3c4-5f9f8cdc46fb","system_id":"levelo_inurba_marseille","lat":43.29989,"lon":5.38474,"is_reserved":false,"is_disabled":false,"rental_uris":{"android":"levelo://app?vid=aab95f4a-8936-4128-a3c4-5f9f8cdc46fb","ios":"levelo://app?vid=aab95f4a-8936-4128-a3c4-5f9f8cdc46fb"},"vehicle_type_id":"4","last_reported":1735848571,"current_range_meters":23200,"station_id":"ce4bgj92rcd13ifvqbd0","pricing_plan_id":"cebpf4jnsgd1na2vs0mg"},{"bike_id":"bb7e0253-4de1-45a9-937a-dde49e321461","system_id":"levelo_inurba_marseille","lat":43.29912,"lon":5.39739,"is_reserved":false,"is_disabled":false,"rental_uris":{"android":"levelo://app?vid=bb7e0253-4de1-45a9-937a-dde49e321461","ios":"levelo://app?vid=bb7e0253-4de1-45a9-937a-dde49e321461"},"vehicle_type_id":"4","last_reported":1735848571,"current_range_meters":17600,"station_id":"","pricing_plan_id":"cebpf4jnsgd1na2vs0mg"},{"bike_id":"65a41a91-7001-4d9d-ab0d-f19493dc267d","system_id":"levelo_inurba_marseille","lat":43.27211,"lon":5.39178,"is_reserved":false,"is_disabled":false,"rental_uris":{"android":"levelo://app?vid=65a41a91-7001-4d9d-ab0d-f19493dc267d","ios":"levelo://app?vid=65a41a91-7001-4d9d-ab0d-f19493dc267d"},"vehicle_type_id":"4","last_reported":1735848571,"current_range_meters":25600,"station_id":"ce4bhhp2rcd13ifvqfm0","pricing_plan_id":"cebpf4jnsgd1na2vs0mg"},{"bike_id":"7c9f1983-2bf5-4cfc-93e1-3e0c35899d14","system_id":"levelo_inurba_marseille","lat":43.28476,"lon":5.38409,"is_reserved":false,"is_disabled":false,"rental_uris":{"android":"levelo://app?vid=7c9f1983-2bf5-4cfc-93e1-3e0c35899d14","ios":"levelo://app?vid=7c9f1983-2bf5-4cfc-93e1-3e0c35899d14"},"vehicle_type_id":"4","last_reported":1735848571,"current_range_meters":38400,"station_id":"ce4bh512rcd13ifvqe3g","pricing_plan_id":"cebpf4jnsgd1na2vs0mg"},{"bike_id":"7e409cf3-5f32-446e-be77-b91a70ed3560","system_id":"levelo_inurba_marseille","lat":43.27995,"lon":5.40009,"is_reserved":false,"is_disabled":false,"rental_uris":{"android":"levelo://app?vid=7e409cf3-5f32-446e-be77-b91a70ed3560","ios":"levelo://app?vid=7e409cf3-5f32-446e-be77-b91a70ed3560"},"vehicle_type_id":"4","last_reported":1735848571,"current_range_meters":15200,"station_id":"ce4bho92rcd13ifvqh4g","pricing_plan_id":"cebpf4jnsgd1na2vs0mg"},{"bike_id":"e4bd1eba-bf60-4774-87f3-7fa4a973ac36","system_id":"levelo_inurba_marseille","lat":43.26678,"lon":5.38269,"is_reserved":false,"is_disabled":false,"rental_uris":{"android":"levelo://app?vid=e4bd1eba-bf60-4774-87f3-7fa4a973ac36","ios":"levelo://app?vid=e4bd1eba-bf60-4774-87f3-7fa4a973ac36"},"vehicle_type_id":"4","last_reported":1735848571,"current_range_meters":37600,"station_id":"ce4bhg92rcd13ifvqf90","pricing_plan_id":"cebpf4jnsgd1na2vs0mg"},{"bike_id":"1d64e5d9-6db1-4098-b8df-bf1bbd653564","system_id":"levelo_inurba_marseille","lat":43.273656,"lon":5.362523,"is_reserved":false,"is_disabled":true,"rental_uris":{"android":"levelo://app?vid=1d64e5d9-6db1-4098-b8df-bf1bbd653564","ios":"levelo://app?vid=1d64e5d9-6db1-4098-b8df-bf1bbd653564"},"vehicle_type_id":"4","last_reported":1735848571,"current_range_meters":0,"station_id":"ce4bhbh2rcd13ifvqeo0","pricing_plan_id":"cebpf4jnsgd1na2vs0mg"},{"bike_id":"313a9a0d-cbde-465d-8a65-140655419224","system_id":"levelo_inurba_marseille","lat":43.25506,"lon":5.37651,"is_reserved":false,"is_disabled":false,"rental_uris":{"android":"levelo://app?vid=313a9a0d-cbde-465d-8a65-140655419224","ios":"levelo://app?vid=313a9a0d-cbde-465d-8a65-140655419224"},"vehicle_type_id":"4","last_reported":1735848571,"current_range_meters":38800,"station_id":"ce4bhh12rcd13ifvqff0","pricing_plan_id":"cebpf4jnsgd1na2vs0mg"},{"bike_id":"660aed1d-cdeb-4a3c-a6d4-d19ef9a2563b","system_id":"levelo_inurba_marseille","lat":43.2989,"lon":5.43668,"is_reserved":false,"is_disabled":false,"rental_uris":{"android":"levelo://app?vid=660aed1d-cdeb-4a3c-a6d4-d19ef9a2563b","ios":"levelo://app?vid=660aed1d-cdeb-4a3c-a6d4-d19ef9a2563b"},"vehicle_type_id":"4","last_reported":1735848571,"current_range_meters":38800,"station_id":"ce4bhpp2rcd13ifvqhfg","pricing_plan_id":"cebpf4jnsgd1na2vs0mg"},{"bike_id":"725999bb-8b32-4e5b-95fc-d63880a1b626","system_id":"levelo_inurba_marseille","lat":43.32672,"lon":5.40968,"is_reserved":false,"is_disabled":false,"rental_uris":{"android":"levelo://app?vid=725999bb-8b32-4e5b-95fc-d63880a1b626","ios":"levelo://app?vid=725999bb-8b32-4e5b-95fc-d63880a1b626"},"vehicle_type_id":"4","last_reported":1735848571,"current_range_meters":38800,"station_id":"ce4bhpp2rcd13ifvqhgg","pricing_plan_id":"cebpf4jnsgd1na2vs0mg"},{"bike_id":"2af79f06-2f41-443a-8c98-b554c72b55db","system_id":"levelo_inurba_marseille","lat":43.24784,"lon":5.37479,"is_reserved":false,"is_disabled":false,"rental_uris":{"android":"levelo://app?vid=2af79f06-2f41-443a-8c98-b554c72b55db","ios":"levelo://app?vid=2af79f06-2f41-443a-8c98-b554c72b55db"},"vehicle_type_id":"4","last_reported":1735848571,"current_range_meters":38800,"station_id":"ce4bhgh2rcd13ifvqfb0","pricing_plan_id":"cebpf4jnsgd1na2vs0mg"},{"bike_id":"38288730-f0b5-4556-a24c-53425361eaa6","system_id":"levelo_inurba_marseille","lat":43.27937,"lon":5.41051,"is_reserved":false,"is_disabled":false,"rental_uris":{"android":"levelo://app?vid=38288730-f0b5-4556-a24c-53425361eaa6","ios":"levelo://app?vid=38288730-f0b5-4556-a24c-53425361eaa6"},"vehicle_type_id":"4","last_reported":1735848571,"current_range_meters":33600,"station_id":"ce4bhnp2rcd13ifvqh0g","pricing_plan_id":"cebpf4jnsgd1na2vs0mg"},{"bike_id":"915e9914-dd2f-42e8-929f-bfbaedf1bd82","system_id":"levelo_inurba_marseille","lat":43.32368,"lon":5.38883,"is_reserved":false,"is_disabled":false,"rental_uris":{"android":"levelo://app?vid=915e9914-dd2f-42e8-929f-bfbaedf1bd82","ios":"levelo://app?vid=915e9914-dd2f-42e8-929f-bfbaedf1bd82"},"vehicle_type_id":"4","last_reported":1735848571,"current_range_meters":33600,"station_id":"ce4bhqp2rcd13ifvqhog","pricing_plan_id":"cebpf4jnsgd1na2vs0mg"},{"bike_id":"a04ab52a-8bac-468d-99bd-613e6943d4f3","system_id":"levelo_inurba_marseille","lat":43.32651,"lon":5.40987,"is_reserved":false,"is_disabled":false,"rental_uris":{"android":"levelo://app?vid=a04ab52a-8bac-468d-99bd-613e6943d4f3","ios":"levelo://app?vid=a04ab52a-8bac-468d-99bd-613e6943d4f3"},"vehicle_type_id":"4","last_reported":1735848571,"current_range_meters":18800,"station_id":"ce4bhpp2rcd13ifvqhgg","pricing_plan_id":"cebpf4jnsgd1na2vs0mg"},{"bike_id":"96cb6bae-f2f5-4454-84e9-1e631669b024","system_id":"levelo_inurba_marseille","lat":43.25106,"lon":5.40346,"is_reserved":false,"is_disabled":false,"rental_uris":{"android":"levelo://app?vid=96cb6bae-f2f5-4454-84e9-1e631669b024","ios":"levelo://app?vid=96cb6bae-f2f5-4454-84e9-1e631669b024"},"vehicle_type_id":"4","last_reported":1735848571,"current_range_meters":27600,"station_id":"ce4bhlh2rcd13ifvqgig","pricing_plan_id":"cebpf4jnsgd1na2vs0mg"},{"bike_id":"cd481b5d-c33e-4c28-9b65-91963a49741c","system_id":"levelo_inurba_marseille","lat":43.29303,"lon":5.37461,"is_reserved":false,"is_disabled":false,"rental_uris":{"android":"levelo://app?vid=cd481b5d-c33e-4c28-9b65-91963a49741c","ios":"levelo://app?vid=cd481b5d-c33e-4c28-9b65-91963a49741c"},"vehicle_type_id":"4","last_reported":1735848571,"current_range_meters":30000,"station_id":"ce4bgi12rcd13ifvqb70","pricing_plan_id":"cebpf4jnsgd1na2vs0mg"},{"bike_id":"85f66c35-cf00-496f-866f-ed1cc2019cfb","system_id":"levelo_inurba_marseille","lat":43.281,"lon":5.37842,"is_reserved":false,"is_disabled":false,"rental_uris":{"android":"levelo://app?vid=85f66c35-cf00-496f-866f-ed1cc2019cfb","ios":"levelo://app?vid=85f66c35-cf00-496f-866f-ed1cc2019cfb"},"vehicle_type_id":"4","last_reported":1735848571,"current_range_meters":38400,"station_id":"ce4bha12rcd13ifvqee0","pricing_plan_id":"cebpf4jnsgd1na2vs0mg"},{"bike_id":"71d7fd86-ae0c-4b15-9ac5-1afdce815ed0","system_id":"levelo_inurba_marseille","lat":43.29866,"lon":5.39736,"is_reserved":false,"is_disabled":false,"rental_uris":{"android":"levelo://app?vid=71d7fd86-ae0c-4b15-9ac5-1afdce815ed0","ios":"levelo://app?vid=71d7fd86-ae0c-4b15-9ac5-1afdce815ed0"},"vehicle_type_id":"4","last_reported":1735848571,"current_range_meters":38000,"station_id":"ce4bh0h2rcd13ifvqd50","pricing_plan_id":"cebpf4jnsgd1na2vs0mg"},{"bike_id":"2c45877a-839b-4023-bced-4f6bbfe4d2f6","system_id":"levelo_inurba_marseille","lat":43.2827,"lon":5.35074,"is_reserved":false,"is_disabled":false,"rental_uris":{"android":"levelo://app?vid=2c45877a-839b-4023-bced-4f6bbfe4d2f6","ios":"levelo://app?vid=2c45877a-839b-4023-bced-4f6bbfe4d2f6"},"vehicle_type_id":"4","last_reported":1735848571,"current_range_meters":31200,"station_id":"ce4bhbp2rcd13ifvqerg","pricing_plan_id":"cebpf4jnsgd1na2vs0mg"},{"bike_id":"d9e7591d-4e69-4829-a945-5299a0d4f5d3","system_id":"levelo_inurba_marseille","lat":43.318877,"lon":5.407283,"is_reserved":false,"is_disabled":false,"rental_uris":{"android":"levelo://app?vid=d9e7591d-4e69-4829-a945-5299a0d4f5d3","ios":"levelo://app?vid=d9e7591d-4e69-4829-a945-5299a0d4f5d3"},"vehicle_type_id":"4","last_reported":1735848571,"current_range_meters":18000,"station_id":"ce4bhq12rcd13ifvqhig","pricing_plan_id":"cebpf4jnsgd1na2vs0mg"},{"bike_id":"ec111443-7348-404c-b72e-17a3fbfb142f","system_id":"levelo_inurba_marseille","lat":43.26491,"lon":5.39547,"is_reserved":false,"is_disabled":false,"rental_uris":{"android":"levelo://app?vid=ec111443-7348-404c-b72e-17a3fbfb142f","ios":"levelo://app?vid=ec111443-7348-404c-b72e-17a3fbfb142f"},"vehicle_type_id":"4","last_reported":1735848571,"current_range_meters":38800,"station_id":"ce4bhi12rcd13ifvqfq0","pricing_plan_id":"cebpf4jnsgd1na2vs0mg"},{"bike_id":"4e2e926a-cc62-4529-8b24-3abbcf0f0be2","system_id":"levelo_inurba_marseille","lat":43.231936,"lon":5.355519,"is_reserved":false,"is_disabled":false,"rental_uris":{"android":"levelo://app?vid=4e2e926a-cc62-4529-8b24-3abbcf0f0be2","ios":"levelo://app?vid=4e2e926a-cc62-4529-8b24-3abbcf0f0be2"},"vehicle_type_id":"4","last_reported":1735848571,"current_range_meters":35600,"station_id":"ce4bhu92rcd13ifvqi70","pricing_plan_id":"cebpf4jnsgd1na2vs0mg"},{"bike_id":"4fb4f7d3-d096-4297-bfc4-15347bc71338","system_id":"levelo_inurba_marseille","lat":43.29446,"lon":5.43363,"is_reserved":false,"is_disabled":false,"rental_uris":{"android":"levelo://app?vid=4fb4f7d3-d096-4297-bfc4-15347bc71338","ios":"levelo://app?vid=4fb4f7d3-d096-4297-bfc4-15347bc71338"},"vehicle_type_id":"4","last_reported":1735848571,"current_range_meters":38000,"station_id":"","pricing_plan_id":"cebpf4jnsgd1na2vs0mg"},{"bike_id":"ee7da7e1-0487-4a7b-838f-676e9c820e80","system_id":"levelo_inurba_marseille","lat":43.3044,"lon":5.39722,"is_reserved":false,"is_disabled":true,"rental_uris":{"android":"levelo://app?vid=ee7da7e1-0487-4a7b-838f-676e9c820e80","ios":"levelo://app?vid=ee7da7e1-0487-4a7b-838f-676e9c820e80"},"vehicle_type_id":"4","last_reported":1735848571,"current_range_meters":36800,"station_id":"ce4bh092rcd13ifvqd20","pricing_plan_id":"cebpf4jnsgd1na2vs0mg"},{"bike_id":"7a656b0f-b894-4819-9a9c-6ca398469187","system_id":"levelo_inurba_marseille","lat":43.27994,"lon":5.416563,"is_reserved":false,"is_disabled":false,"rental_uris":{"android":"levelo://app?vid=7a656b0f-b894-4819-9a9c-6ca398469187","ios":"levelo://app?vid=7a656b0f-b894-4819-9a9c-6ca398469187"},"vehicle_type_id":"4","last_reported":1735848571,"current_range_meters":12000,"station_id":"ce4bho12rcd13ifvqh1g","pricing_plan_id":"cebpf4jnsgd1na2vs0mg"},{"bike_id":"6143990e-f7e7-4500-846e-085b8e8441f3","system_id":"levelo_inurba_marseille","lat":43.25584,"lon":5.38227,"is_reserved":false,"is_disabled":false,"rental_uris":{"android":"levelo://app?vid=6143990e-f7e7-4500-846e-085b8e8441f3","ios":"levelo://app?vid=6143990e-f7e7-4500-846e-085b8e8441f3"},"vehicle_type_id":"4","last_reported":1735848571,"current_range_meters":38400,"station_id":"ce4bhih2rcd13ifvqfs0","pricing_plan_id":"cebpf4jnsgd1na2vs0mg"},{"bike_id":"3c348272-b440-4426-b2c7-621e1bcaa53c","system_id":"levelo_inurba_marseille","lat":43.27071,"lon":5.4227,"is_reserved":false,"is_disabled":false,"rental_uris":{"android":"levelo://app?vid=3c348272-b440-4426-b2c7-621e1bcaa53c","ios":"levelo://app?vid=3c348272-b440-4426-b2c7-621e1bcaa53c"},"vehicle_type_id":"4","last_reported":1735848571,"current_range_meters":36000,"station_id":"ce4bhk92rcd13ifvqgb0","pricing_plan_id":"cebpf4jnsgd1na2vs0mg"},{"bike_id":"e39779cb-dd0b-481e-95ed-043cce584dc4","system_id":"levelo_inurba_marseille","lat":43.2439,"lon":5.37054,"is_reserved":false,"is_disabled":false,"rental_uris":{"android":"levelo://app?vid=e39779cb-dd0b-481e-95ed-043cce584dc4","ios":"levelo://app?vid=e39779cb-dd0b-481e-95ed-043cce584dc4"},"vehicle_type_id":"4","last_reported":1735848571,"current_range_meters":19200,"station_id":"ce4bhhh2rcd13ifvqfk0","pricing_plan_id":"cebpf4jnsgd1na2vs0mg"},{"bike_id":"a8a13160-f812-40c0-acb2-e3dd2832ffb4","system_id":"levelo_inurba_marseille","lat":43.29525,"lon":5.39376,"is_reserved":false,"is_disabled":false,"rental_uris":{"android":"levelo://app?vid=a8a13160-f812-40c0-acb2-e3dd2832ffb4","ios":"levelo://app?vid=a8a13160-f812-40c0-acb2-e3dd2832ffb4"},"vehicle_type_id":"4","last_reported":1735848571,"current_range_meters":36400,"station_id":"ce4bh292rcd13ifvqdf0","pricing_plan_id":"cebpf4jnsgd1na2vs0mg"},{"bike_id":"a7c7c05f-d67b-4b61-bea5-04c88b75b2f9","system_id":"levelo_inurba_marseille","lat":43.295244,"lon":5.394015,"is_reserved":false,"is_disabled":false,"rental_uris":{"android":"levelo://app?vid=a7c7c05f-d67b-4b61-bea5-04c88b75b2f9","ios":"levelo://app?vid=a7c7c05f-d67b-4b61-bea5-04c88b75b2f9"},"vehicle_type_id":"4","last_reported":1735848571,"current_range_meters":38800,"station_id":"ce4bh292rcd13ifvqdf0","pricing_plan_id":"cebpf4jnsgd1na2vs0mg"},{"bike_id":"3815e6bf-fae6-4941-ab15-7c70eefa9203","system_id":"levelo_inurba_marseille","lat":43.29981,"lon":5.38478,"is_reserved":false,"is_disabled":false,"rental_uris":{"android":"levelo://app?vid=3815e6bf-fae6-4941-ab15-7c70eefa9203","ios":"levelo://app?vid=3815e6bf-fae6-4941-ab15-7c70eefa9203"},"vehicle_type_id":"4","last_reported":1735848571,"current_range_meters":16400,"station_id":"ce4bgj92rcd13ifvqbd0","pricing_plan_id":"cebpf4jnsgd1na2vs0mg"},{"bike_id":"a10cb38b-c0a9-46c5-81e3-8b36eafcdd96","system_id":"levelo_inurba_marseille","lat":43.28974,"lon":5.37832,"is_reserved":false,"is_disabled":true,"rental_uris":{"android":"levelo://app?vid=a10cb38b-c0a9-46c5-81e3-8b36eafcdd96","ios":"levelo://app?vid=a10cb38b-c0a9-46c5-81e3-8b36eafcdd96"},"vehicle_type_id":"4","last_reported":1735848571,"current_range_meters":35600,"station_id":"ce4bh9p2rcd13ifvqed0","pricing_plan_id":"cebpf4jnsgd1na2vs0mg"},{"bike_id":"a51ef497-d798-4f54-8e47-3f63c51137a0","system_id":"levelo_inurba_marseille","lat":43.30136,"lon":5.39867,"is_reserved":false,"is_disabled":false,"rental_uris":{"android":"levelo://app?vid=a51ef497-d798-4f54-8e47-3f63c51137a0","ios":"levelo://app?vid=a51ef497-d798-4f54-8e47-3f63c51137a0"},"vehicle_type_id":"4","last_reported":1735848571,"current_range_meters":38800,"station_id":"ce4bh0h2rcd13ifvqd40","pricing_plan_id":"cebpf4jnsgd1na2vs0mg"},{"bike_id":"e86e8a6b-2981-4147-9bb2-a5ab92db9450","system_id":"levelo_inurba_marseille","lat":43.28154,"lon":5.42657,"is_reserved":false,"is_disabled":true,"rental_uris":{"android":"levelo://app?vid=e86e8a6b-2981-4147-9bb2-a5ab92db9450","ios":"levelo://app?vid=e86e8a6b-2981-4147-9bb2-a5ab92db9450"},"vehicle_type_id":"4","last_reported":1735848571,"current_range_meters":1200,"station_id":"ce4bhnh2rcd13ifvqgug","pricing_plan_id":"cebpf4jnsgd1na2vs0mg"},{"bike_id":"9f290741-0dc7-46f2-a535-a24d19770539","system_id":"levelo_inurba_marseille","lat":43.28695,"lon":5.38668,"is_reserved":false,"is_disabled":false,"rental_uris":{"android":"levelo://app?vid=9f290741-0dc7-46f2-a535-a24d19770539","ios":"levelo://app?vid=9f290741-0dc7-46f2-a535-a24d19770539"},"vehicle_type_id":"4","last_reported":1735848571,"current_range_meters":16000,"station_id":"ce4bh492rcd13ifvqdug","pricing_plan_id":"cebpf4jnsgd1na2vs0mg"},{"bike_id":"f9322cae-76fd-4207-99d3-4fdb35d93ddf","system_id":"levelo_inurba_marseille","lat":43.30136,"lon":5.39879,"is_reserved":false,"is_disabled":false,"rental_uris":{"android":"levelo://app?vid=f9322cae-76fd-4207-99d3-4fdb35d93ddf","ios":"levelo://app?vid=f9322cae-76fd-4207-99d3-4fdb35d93ddf"},"vehicle_type_id":"4","last_reported":1735848571,"current_range_meters":30400,"station_id":"ce4bh0h2rcd13ifvqd40","pricing_plan_id":"cebpf4jnsgd1na2vs0mg"},{"bike_id":"a14175ed-21b7-4bee-a20f-b5e0add00694","system_id":"levelo_inurba_marseille","lat":43.28437,"lon":5.39193,"is_reserved":false,"is_disabled":false,"rental_uris":{"android":"levelo://app?vid=a14175ed-21b7-4bee-a20f-b5e0add00694","ios":"levelo://app?vid=a14175ed-21b7-4bee-a20f-b5e0add00694"},"vehicle_type_id":"4","last_reported":1735848571,"current_range_meters":24000,"station_id":"ce4bhoh2rcd13ifvqh5g","pricing_plan_id":"cebpf4jnsgd1na2vs0mg"},{"bike_id":"5367a292-5564-4681-91cd-97babb89fc00","system_id":"levelo_inurba_marseille","lat":43.22925,"lon":5.35365,"is_reserved":false,"is_disabled":false,"rental_uris":{"android":"levelo://app?vid=5367a292-5564-4681-91cd-97babb89fc00","ios":"levelo://app?vid=5367a292-5564-4681-91cd-97babb89fc00"},"vehicle_type_id":"4","last_reported":1735848571,"current_range_meters":16800,"station_id":"cpo3532slgdg3j2ikp40","pricing_plan_id":"cebpf4jnsgd1na2vs0mg"},{"bike_id":"e40b8873-a7cf-4e56-b106-d515344f64c4","system_id":"levelo_inurba_marseille","lat":43.23212,"lon":5.35542,"is_reserved":false,"is_disabled":false,"rental_uris":{"android":"levelo://app?vid=e40b8873-a7cf-4e56-b106-d515344f64c4","ios":"levelo://app?vid=e40b8873-a7cf-4e56-b106-d515344f64c4"},"vehicle_type_id":"4","last_reported":1735848571,"current_range_meters":38800,"station_id":"ce4bhu92rcd13ifvqi70","pricing_plan_id":"cebpf4jnsgd1na2vs0mg"},{"bike_id":"c1131aaf-0803-4024-b67d-aadf37b262b8","system_id":"levelo_inurba_marseille","lat":43.2885,"lon":5.35837,"is_reserved":false,"is_disabled":false,"rental_uris":{"android":"levelo://app?vid=c1131aaf-0803-4024-b67d-aadf37b262b8","ios":"levelo://app?vid=c1131aaf-0803-4024-b67d-aadf37b262b8"},"vehicle_type_id":"4","last_reported":1735848571,"current_range_meters":38800,"station_id":"ce4bhb12rcd13ifvqem0","pricing_plan_id":"cebpf4jnsgd1na2vs0mg"},{"bike_id":"14360ff4-527b-4a38-97fd-e73b70c574f3","system_id":"levelo_inurba_marseille","lat":43.30125,"lon":5.38774,"is_reserved":false,"is_disabled":false,"rental_uris":{"android":"levelo://app?vid=14360ff4-527b-4a38-97fd-e73b70c574f3","ios":"levelo://app?vid=14360ff4-527b-4a38-97fd-e73b70c574f3"},"vehicle_type_id":"4","last_reported":1735848571,"current_range_meters":39200,"station_id":"ce4bhoh2rcd13ifvqh6g","pricing_plan_id":"cebpf4jnsgd1na2vs0mg"},{"bike_id":"658e0746-3add-4324-8209-a97a499cd81d","system_id":"levelo_inurba_marseille","lat":43.3053,"lon":5.38431,"is_reserved":false,"is_disabled":false,"rental_uris":{"android":"levelo://app?vid=658e0746-3add-4324-8209-a97a499cd81d","ios":"levelo://app?vid=658e0746-3add-4324-8209-a97a499cd81d"},"vehicle_type_id":"4","last_reported":1735848571,"current_range_meters":32000,"station_id":"ce4bgg92rcd13ifvqb30","pricing_plan_id":"cebpf4jnsgd1na2vs0mg"},{"bike_id":"53a885e1-1033-47c5-b897-02cf79dd54f7","system_id":"levelo_inurba_marseille","lat":43.25864,"lon":5.39922,"is_reserved":false,"is_disabled":false,"rental_uris":{"android":"levelo://app?vid=53a885e1-1033-47c5-b897-02cf79dd54f7","ios":"levelo://app?vid=53a885e1-1033-47c5-b897-02cf79dd54f7"},"vehicle_type_id":"4","last_reported":1735848571,"current_range_meters":34000,"station_id":"ce4bhl92rcd13ifvqghg","pricing_plan_id":"cebpf4jnsgd1na2vs0mg"},{"bike_id":"536b70a3-fc64-47f8-88ea-2d090653c6fc","system_id":"levelo_inurba_marseille","lat":43.28351,"lon":5.38097,"is_reserved":false,"is_disabled":false,"rental_uris":{"android":"levelo://app?vid=536b70a3-fc64-47f8-88ea-2d090653c6fc","ios":"levelo://app?vid=536b70a3-fc64-47f8-88ea-2d090653c6fc"},"vehicle_type_id":"4","last_reported":1735848571,"current_range_meters":38800,"station_id":"ce4bh412rcd13ifvqdr0","pricing_plan_id":"cebpf4jnsgd1na2vs0mg"},{"bike_id":"d3bbc23a-977b-4b81-88be-f7e0b1a7ab38","system_id":"levelo_inurba_marseille","lat":43.29447,"lon":5.39754,"is_reserved":false,"is_disabled":true,"rental_uris":{"android":"levelo://app?vid=d3bbc23a-977b-4b81-88be-f7e0b1a7ab38","ios":"levelo://app?vid=d3bbc23a-977b-4b81-88be-f7e0b1a7ab38"},"vehicle_type_id":"4","last_reported":1735848571,"current_range_meters":38000,"station_id":"ce4bh3h2rcd13ifvqdo0","pricing_plan_id":"cebpf4jnsgd1na2vs0mg"},{"bike_id":"e40ade54-cf66-48d6-8e74-a4bb5cce376c","system_id":"levelo_inurba_marseille","lat":43.23195,"lon":5.39966,"is_reserved":false,"is_disabled":false,"rental_uris":{"android":"levelo://app?vid=e40ade54-cf66-48d6-8e74-a4bb5cce376c","ios":"levelo://app?vid=e40ade54-cf66-48d6-8e74-a4bb5cce376c"},"vehicle_type_id":"4","last_reported":1735848571,"current_range_meters":14800,"station_id":"ce4bhn12rcd13ifvqgqg","pricing_plan_id":"cebpf4jnsgd1na2vs0mg"},{"bike_id":"ef328f24-0f6f-4784-b56d-af328130325d","system_id":"levelo_inurba_marseille","lat":43.29596,"lon":5.38093,"is_reserved":false,"is_disabled":false,"rental_uris":{"android":"levelo://app?vid=ef328f24-0f6f-4784-b56d-af328130325d","ios":"levelo://app?vid=ef328f24-0f6f-4784-b56d-af328130325d"},"vehicle_type_id":"4","last_reported":1735848571,"current_range_meters":38800,"station_id":"ce4bgl12rcd13ifvqbo0","pricing_plan_id":"cebpf4jnsgd1na2vs0mg"},{"bike_id":"4b18fc74-124a-4026-8735-302c08bbdf7e","system_id":"levelo_inurba_marseille","lat":43.28703,"lon":5.3866,"is_reserved":false,"is_disabled":false,"rental_uris":{"android":"levelo://app?vid=4b18fc74-124a-4026-8735-302c08bbdf7e","ios":"levelo://app?vid=4b18fc74-124a-4026-8735-302c08bbdf7e"},"vehicle_type_id":"4","last_reported":1735848571,"current_range_meters":34800,"station_id":"","pricing_plan_id":"cebpf4jnsgd1na2vs0mg"},{"bike_id":"47bacd12-de07-48af-87bd-cc1ddc5d9c6a","system_id":"levelo_inurba_marseille","lat":43.29876,"lon":5.39734,"is_reserved":false,"is_disabled":false,"rental_uris":{"android":"levelo://app?vid=47bacd12-de07-48af-87bd-cc1ddc5d9c6a","ios":"levelo://app?vid=47bacd12-de07-48af-87bd-cc1ddc5d9c6a"},"vehicle_type_id":"4","last_reported":1735848571,"current_range_meters":9600,"station_id":"ce4bh0h2rcd13ifvqd50","pricing_plan_id":"cebpf4jnsgd1na2vs0mg"},{"bike_id":"1c02ae40-e43c-4632-b75b-2df9308dc3fe","system_id":"levelo_inurba_marseille","lat":43.337613,"lon":5.374348,"is_reserved":false,"is_disabled":false,"rental_uris":{"android":"levelo://app?vid=1c02ae40-e43c-4632-b75b-2df9308dc3fe","ios":"levelo://app?vid=1c02ae40-e43c-4632-b75b-2df9308dc3fe"},"vehicle_type_id":"4","last_reported":1735848571,"current_range_meters":38000,"station_id":"","pricing_plan_id":"cebpf4jnsgd1na2vs0mg"},{"bike_id":"005ef852-6fd8-4d44-90b3-b7a88fa5c3d3","system_id":"levelo_inurba_marseille","lat":43.30312,"lon":5.36897,"is_reserved":false,"is_disabled":false,"rental_uris":{"android":"levelo://app?vid=005ef852-6fd8-4d44-90b3-b7a88fa5c3d3","ios":"levelo://app?vid=005ef852-6fd8-4d44-90b3-b7a88fa5c3d3"},"vehicle_type_id":"4","last_reported":1735848571,"current_range_meters":29600,"station_id":"ce4bgqh2rcd13ifvqc5g","pricing_plan_id":"cebpf4jnsgd1na2vs0mg"},{"bike_id":"6ffb4cb4-e3f4-4288-aac7-0645beedaa5f","system_id":"levelo_inurba_marseille","lat":43.29526,"lon":5.38535,"is_reserved":false,"is_disabled":false,"rental_uris":{"android":"levelo://app?vid=6ffb4cb4-e3f4-4288-aac7-0645beedaa5f","ios":"levelo://app?vid=6ffb4cb4-e3f4-4288-aac7-0645beedaa5f"},"vehicle_type_id":"4","last_reported":1735848571,"current_range_meters":14000,"station_id":"ce4bgih2rcd13ifvqba0","pricing_plan_id":"cebpf4jnsgd1na2vs0mg"},{"bike_id":"24049831-997c-4f9e-95e3-931d66cdb6df","system_id":"levelo_inurba_marseille","lat":43.28606,"lon":5.35105,"is_reserved":false,"is_disabled":false,"rental_uris":{"android":"levelo://app?vid=24049831-997c-4f9e-95e3-931d66cdb6df","ios":"levelo://app?vid=24049831-997c-4f9e-95e3-931d66cdb6df"},"vehicle_type_id":"4","last_reported":1735848571,"current_range_meters":32000,"station_id":"ce4bhch2rcd13ifvqeug","pricing_plan_id":"cebpf4jnsgd1na2vs0mg"},{"bike_id":"4bca9e46-a0e0-444d-a12a-e0f2918b235a","system_id":"levelo_inurba_marseille","lat":43.30418,"lon":5.41277,"is_reserved":false,"is_disabled":false,"rental_uris":{"android":"levelo://app?vid=4bca9e46-a0e0-444d-a12a-e0f2918b235a","ios":"levelo://app?vid=4bca9e46-a0e0-444d-a12a-e0f2918b235a"},"vehicle_type_id":"4","last_reported":1735848571,"current_range_meters":14400,"station_id":"ce4bhop2rcd13ifvqh8g","pricing_plan_id":"cebpf4jnsgd1na2vs0mg"},{"bike_id":"8da4c67d-2ed0-418e-b038-2836a9c86265","system_id":"levelo_inurba_marseille","lat":43.317069,"lon":5.437071,"is_reserved":false,"is_disabled":false,"rental_uris":{"android":"levelo://app?vid=8da4c67d-2ed0-418e-b038-2836a9c86265","ios":"levelo://app?vid=8da4c67d-2ed0-418e-b038-2836a9c86265"},"vehicle_type_id":"4","last_reported":1735848571,"current_range_meters":38800,"station_id":"ce4bhp92rcd13ifvqhcg","pricing_plan_id":"cebpf4jnsgd1na2vs0mg"},{"bike_id":"a5f626c0-6fa9-4ee6-a58a-78e80207d322","system_id":"levelo_inurba_marseille","lat":43.30138,"lon":5.38787,"is_reserved":false,"is_disabled":false,"rental_uris":{"android":"levelo://app?vid=a5f626c0-6fa9-4ee6-a58a-78e80207d322","ios":"levelo://app?vid=a5f626c0-6fa9-4ee6-a58a-78e80207d322"},"vehicle_type_id":"4","last_reported":1735848571,"current_range_meters":28400,"station_id":"ce4bhoh2rcd13ifvqh6g","pricing_plan_id":"cebpf4jnsgd1na2vs0mg"},{"bike_id":"5da924b7-1d86-48f2-a906-f2fea708abbd","system_id":"levelo_inurba_marseille","lat":43.2766,"lon":5.38905,"is_reserved":false,"is_disabled":true,"rental_uris":{"android":"levelo://app?vid=5da924b7-1d86-48f2-a906-f2fea708abbd","ios":"levelo://app?vid=5da924b7-1d86-48f2-a906-f2fea708abbd"},"vehicle_type_id":"4","last_reported":1735848571,"current_range_meters":38000,"station_id":"ce4bhi12rcd13ifvqfo0","pricing_plan_id":"cebpf4jnsgd1na2vs0mg"},{"bike_id":"bf11542d-57ab-488b-8688-d04e54ddc38b","system_id":"levelo_inurba_marseille","lat":43.29871,"lon":5.39739,"is_reserved":false,"is_disabled":false,"rental_uris":{"android":"levelo://app?vid=bf11542d-57ab-488b-8688-d04e54ddc38b","ios":"levelo://app?vid=bf11542d-57ab-488b-8688-d04e54ddc38b"},"vehicle_type_id":"4","last_reported":1735848571,"current_range_meters":38400,"station_id":"ce4bh0h2rcd13ifvqd50","pricing_plan_id":"cebpf4jnsgd1na2vs0mg"},{"bike_id":"0de59c75-d5a6-499f-820e-82b7500ec1c3","system_id":"levelo_inurba_marseille","lat":43.29191,"lon":5.39316,"is_reserved":false,"is_disabled":false,"rental_uris":{"android":"levelo://app?vid=0de59c75-d5a6-499f-820e-82b7500ec1c3","ios":"levelo://app?vid=0de59c75-d5a6-499f-820e-82b7500ec1c3"},"vehicle_type_id":"4","last_reported":1735848571,"current_range_meters":38800,"station_id":"ce4bh192rcd13ifvqdd0","pricing_plan_id":"cebpf4jnsgd1na2vs0mg"},{"bike_id":"d858f272-5396-4509-83f4-bf8d2e835b76","system_id":"levelo_inurba_marseille","lat":43.232,"lon":5.39975,"is_reserved":false,"is_disabled":false,"rental_uris":{"android":"levelo://app?vid=d858f272-5396-4509-83f4-bf8d2e835b76","ios":"levelo://app?vid=d858f272-5396-4509-83f4-bf8d2e835b76"},"vehicle_type_id":"4","last_reported":1735848571,"current_range_meters":28400,"station_id":"ce4bhn12rcd13ifvqgqg","pricing_plan_id":"cebpf4jnsgd1na2vs0mg"},{"bike_id":"6014b1e2-35bf-4517-95c5-f4b2b2de8022","system_id":"levelo_inurba_marseille","lat":43.31049,"lon":5.39311,"is_reserved":false,"is_disabled":true,"rental_uris":{"android":"levelo://app?vid=6014b1e2-35bf-4517-95c5-f4b2b2de8022","ios":"levelo://app?vid=6014b1e2-35bf-4517-95c5-f4b2b2de8022"},"vehicle_type_id":"4","last_reported":1735848571,"current_range_meters":0,"station_id":"","pricing_plan_id":"cebpf4jnsgd1na2vs0mg"},{"bike_id":"8d979c36-a643-4f41-94a9-78734d4aeda6","system_id":"levelo_inurba_marseille","lat":43.30606,"lon":5.39359,"is_reserved":false,"is_disabled":false,"rental_uris":{"android":"levelo://app?vid=8d979c36-a643-4f41-94a9-78734d4aeda6","ios":"levelo://app?vid=8d979c36-a643-4f41-94a9-78734d4aeda6"},"vehicle_type_id":"4","last_reported":1735848571,"current_range_meters":38400,"station_id":"ce4bh0p2rcd13ifvqd80","pricing_plan_id":"cebpf4jnsgd1na2vs0mg"},{"bike_id":"389a9b91-2a62-49d1-8eac-87915d4cb970","system_id":"levelo_inurba_marseille","lat":43.26925,"lon":5.38894,"is_reserved":false,"is_disabled":false,"rental_uris":{"android":"levelo://app?vid=389a9b91-2a62-49d1-8eac-87915d4cb970","ios":"levelo://app?vid=389a9b91-2a62-49d1-8eac-87915d4cb970"},"vehicle_type_id":"4","last_reported":1735848571,"current_range_meters":38000,"station_id":"ce4bhhh2rcd13ifvqfl0","pricing_plan_id":"cebpf4jnsgd1na2vs0mg"},{"bike_id":"236eb851-54f4-4550-b34a-7e2e24746a1f","system_id":"levelo_inurba_marseille","lat":43.29536,"lon":5.3854,"is_reserved":false,"is_disabled":false,"rental_uris":{"android":"levelo://app?vid=236eb851-54f4-4550-b34a-7e2e24746a1f","ios":"levelo://app?vid=236eb851-54f4-4550-b34a-7e2e24746a1f"},"vehicle_type_id":"4","last_reported":1735848571,"current_range_meters":38800,"station_id":"ce4bgih2rcd13ifvqba0","pricing_plan_id":"cebpf4jnsgd1na2vs0mg"},{"bike_id":"8a0259b2-4ac3-411a-87ae-2802134ed81d","system_id":"levelo_inurba_marseille","lat":43.28922,"lon":5.38397,"is_reserved":false,"is_disabled":false,"rental_uris":{"android":"levelo://app?vid=8a0259b2-4ac3-411a-87ae-2802134ed81d","ios":"levelo://app?vid=8a0259b2-4ac3-411a-87ae-2802134ed81d"},"vehicle_type_id":"4","last_reported":1735848571,"current_range_meters":39200,"station_id":"ce4bh612rcd13ifvqe6g","pricing_plan_id":"cebpf4jnsgd1na2vs0mg"},{"bike_id":"a676ef63-e767-4d39-8a20-d3ec5d025d88","system_id":"levelo_inurba_marseille","lat":43.25821,"lon":5.3943,"is_reserved":false,"is_disabled":false,"rental_uris":{"android":"levelo://app?vid=a676ef63-e767-4d39-8a20-d3ec5d025d88","ios":"levelo://app?vid=a676ef63-e767-4d39-8a20-d3ec5d025d88"},"vehicle_type_id":"4","last_reported":1735848571,"current_range_meters":12400,"station_id":"ce4bhip2rcd13ifvqft0","pricing_plan_id":"cebpf4jnsgd1na2vs0mg"},{"bike_id":"108acb61-e069-47e1-a785-ebc8aaa76bd8","system_id":"levelo_inurba_marseille","lat":43.24381,"lon":5.37051,"is_reserved":false,"is_disabled":false,"rental_uris":{"android":"levelo://app?vid=108acb61-e069-47e1-a785-ebc8aaa76bd8","ios":"levelo://app?vid=108acb61-e069-47e1-a785-ebc8aaa76bd8"},"vehicle_type_id":"4","last_reported":1735848571,"current_range_meters":32000,"station_id":"ce4bhhh2rcd13ifvqfk0","pricing_plan_id":"cebpf4jnsgd1na2vs0mg"},{"bike_id":"ff3724d3-70be-4346-8180-67541c2e6bb4","system_id":"levelo_inurba_marseille","lat":43.28919,"lon":5.38392,"is_reserved":false,"is_disabled":false,"rental_uris":{"android":"levelo://app?vid=ff3724d3-70be-4346-8180-67541c2e6bb4","ios":"levelo://app?vid=ff3724d3-70be-4346-8180-67541c2e6bb4"},"vehicle_type_id":"4","last_reported":1735848571,"current_range_meters":38800,"station_id":"ce4bh612rcd13ifvqe6g","pricing_plan_id":"cebpf4jnsgd1na2vs0mg"},{"bike_id":"de962f6e-17d7-4c5f-8b91-409b202d3ed7","system_id":"levelo_inurba_marseille","lat":43.29292,"lon":5.37435,"is_reserved":false,"is_disabled":false,"rental_uris":{"android":"levelo://app?vid=de962f6e-17d7-4c5f-8b91-409b202d3ed7","ios":"levelo://app?vid=de962f6e-17d7-4c5f-8b91-409b202d3ed7"},"vehicle_type_id":"4","last_reported":1735848571,"current_range_meters":5600,"station_id":"ce4bgi12rcd13ifvqb70","pricing_plan_id":"cebpf4jnsgd1na2vs0mg"},{"bike_id":"a9e62202-e3d5-494c-9cca-7476998a7982","system_id":"levelo_inurba_marseille","lat":43.28698,"lon":5.37866,"is_reserved":false,"is_disabled":false,"rental_uris":{"android":"levelo://app?vid=a9e62202-e3d5-494c-9cca-7476998a7982","ios":"levelo://app?vid=a9e62202-e3d5-494c-9cca-7476998a7982"},"vehicle_type_id":"4","last_reported":1735848571,"current_range_meters":38800,"station_id":"ce4bh9p2rcd13ifvqec0","pricing_plan_id":"cebpf4jnsgd1na2vs0mg"},{"bike_id":"898ebcfa-1a27-4789-af7e-27b090bbcc03","system_id":"levelo_inurba_marseille","lat":43.28859,"lon":5.39322,"is_reserved":false,"is_disabled":false,"rental_uris":{"android":"levelo://app?vid=898ebcfa-1a27-4789-af7e-27b090bbcc03","ios":"levelo://app?vid=898ebcfa-1a27-4789-af7e-27b090bbcc03"},"vehicle_type_id":"4","last_reported":1735848571,"current_range_meters":17600,"station_id":"ce4bh2p2rcd13ifvqdi0","pricing_plan_id":"cebpf4jnsgd1na2vs0mg"},{"bike_id":"c14d1989-a72f-4241-a582-39661d0bcfcf","system_id":"levelo_inurba_marseille","lat":43.23203,"lon":5.35564,"is_reserved":false,"is_disabled":false,"rental_uris":{"android":"levelo://app?vid=c14d1989-a72f-4241-a582-39661d0bcfcf","ios":"levelo://app?vid=c14d1989-a72f-4241-a582-39661d0bcfcf"},"vehicle_type_id":"4","last_reported":1735848571,"current_range_meters":38800,"station_id":"ce4bhu92rcd13ifvqi70","pricing_plan_id":"cebpf4jnsgd1na2vs0mg"},{"bike_id":"ef72cdb4-465d-4178-b952-49906f159c48","system_id":"levelo_inurba_marseille","lat":43.28157,"lon":5.42637,"is_reserved":false,"is_disabled":false,"rental_uris":{"android":"levelo://app?vid=ef72cdb4-465d-4178-b952-49906f159c48","ios":"levelo://app?vid=ef72cdb4-465d-4178-b952-49906f159c48"},"vehicle_type_id":"4","last_reported":1735848571,"current_range_meters":25600,"station_id":"ce4bhnh2rcd13ifvqgug","pricing_plan_id":"cebpf4jnsgd1na2vs0mg"},{"bike_id":"596bd53c-1d53-429c-b682-83ebfabc7a2e","system_id":"levelo_inurba_marseille","lat":43.26196,"lon":5.37922,"is_reserved":false,"is_disabled":false,"rental_uris":{"android":"levelo://app?vid=596bd53c-1d53-429c-b682-83ebfabc7a2e","ios":"levelo://app?vid=596bd53c-1d53-429c-b682-83ebfabc7a2e"},"vehicle_type_id":"4","last_reported":1735848571,"current_range_meters":38000,"station_id":"ce4bhjp2rcd13ifvqg90","pricing_plan_id":"cebpf4jnsgd1na2vs0mg"},{"bike_id":"cd799ed6-4897-449a-b65c-1cec7ac6afaf","system_id":"levelo_inurba_marseille","lat":43.30805,"lon":5.3817,"is_reserved":false,"is_disabled":true,"rental_uris":{"android":"levelo://app?vid=cd799ed6-4897-449a-b65c-1cec7ac6afaf","ios":"levelo://app?vid=cd799ed6-4897-449a-b65c-1cec7ac6afaf"},"vehicle_type_id":"4","last_reported":1735848571,"current_range_meters":28800,"station_id":"ce4bgt12rcd13ifvqce0","pricing_plan_id":"cebpf4jnsgd1na2vs0mg"},{"bike_id":"fff6da74-d48c-4937-a452-dd77602147ed","system_id":"levelo_inurba_marseille","lat":43.31478,"lon":5.38362,"is_reserved":false,"is_disabled":false,"rental_uris":{"android":"levelo://app?vid=fff6da74-d48c-4937-a452-dd77602147ed","ios":"levelo://app?vid=fff6da74-d48c-4937-a452-dd77602147ed"},"vehicle_type_id":"4","last_reported":1735848571,"current_range_meters":3200,"station_id":"","pricing_plan_id":"cebpf4jnsgd1na2vs0mg"},{"bike_id":"0b1c27a8-912f-47de-83f1-1d9fe5bc3168","system_id":"levelo_inurba_marseille","lat":43.24818,"lon":5.37451,"is_reserved":false,"is_disabled":true,"rental_uris":{"android":"levelo://app?vid=0b1c27a8-912f-47de-83f1-1d9fe5bc3168","ios":"levelo://app?vid=0b1c27a8-912f-47de-83f1-1d9fe5bc3168"},"vehicle_type_id":"4","last_reported":1735848571,"current_range_meters":3600,"station_id":"ce4bhgh2rcd13ifvqfb0","pricing_plan_id":"cebpf4jnsgd1na2vs0mg"},{"bike_id":"e2db395a-8d24-440e-9e8a-fceb63f61ec2","system_id":"levelo_inurba_marseille","lat":43.32291,"lon":5.38263,"is_reserved":false,"is_disabled":false,"rental_uris":{"android":"levelo://app?vid=e2db395a-8d24-440e-9e8a-fceb63f61ec2","ios":"levelo://app?vid=e2db395a-8d24-440e-9e8a-fceb63f61ec2"},"vehicle_type_id":"4","last_reported":1735848571,"current_range_meters":38400,"station_id":"ce4bhr12rcd13ifvqhqg","pricing_plan_id":"cebpf4jnsgd1na2vs0mg"},{"bike_id":"44377e14-c431-47f9-879d-d27236127509","system_id":"levelo_inurba_marseille","lat":43.258264,"lon":5.394219,"is_reserved":false,"is_disabled":false,"rental_uris":{"android":"levelo://app?vid=44377e14-c431-47f9-879d-d27236127509","ios":"levelo://app?vid=44377e14-c431-47f9-879d-d27236127509"},"vehicle_type_id":"4","last_reported":1735848571,"current_range_meters":16800,"station_id":"ce4bhip2rcd13ifvqft0","pricing_plan_id":"cebpf4jnsgd1na2vs0mg"},{"bike_id":"b3da09ff-65c8-493d-8df3-946b63f84047","system_id":"levelo_inurba_marseille","lat":43.24807,"lon":5.37458,"is_reserved":false,"is_disabled":false,"rental_uris":{"android":"levelo://app?vid=b3da09ff-65c8-493d-8df3-946b63f84047","ios":"levelo://app?vid=b3da09ff-65c8-493d-8df3-946b63f84047"},"vehicle_type_id":"4","last_reported":1735848571,"current_range_meters":24000,"station_id":"ce4bhgh2rcd13ifvqfb0","pricing_plan_id":"cebpf4jnsgd1na2vs0mg"},{"bike_id":"34535594-ceb9-4842-97f7-a9b9fbaa6b25","system_id":"levelo_inurba_marseille","lat":43.295693,"lon":5.375077,"is_reserved":false,"is_disabled":true,"rental_uris":{"android":"levelo://app?vid=34535594-ceb9-4842-97f7-a9b9fbaa6b25","ios":"levelo://app?vid=34535594-ceb9-4842-97f7-a9b9fbaa6b25"},"vehicle_type_id":"4","last_reported":1735848571,"current_range_meters":0,"station_id":"ce4bgh92rcd13ifvqb50","pricing_plan_id":"cebpf4jnsgd1na2vs0mg"},{"bike_id":"82569e76-c3f1-4daf-8f32-2279993e8474","system_id":"levelo_inurba_marseille","lat":43.28107,"lon":5.37821,"is_reserved":false,"is_disabled":false,"rental_uris":{"android":"levelo://app?vid=82569e76-c3f1-4daf-8f32-2279993e8474","ios":"levelo://app?vid=82569e76-c3f1-4daf-8f32-2279993e8474"},"vehicle_type_id":"4","last_reported":1735848571,"current_range_meters":36400,"station_id":"ce4bha12rcd13ifvqee0","pricing_plan_id":"cebpf4jnsgd1na2vs0mg"},{"bike_id":"67e0435e-ee5d-49c3-9b21-9668ebf48c68","system_id":"levelo_inurba_marseille","lat":43.25003,"lon":5.38918,"is_reserved":false,"is_disabled":false,"rental_uris":{"android":"levelo://app?vid=67e0435e-ee5d-49c3-9b21-9668ebf48c68","ios":"levelo://app?vid=67e0435e-ee5d-49c3-9b21-9668ebf48c68"},"vehicle_type_id":"4","last_reported":1735848571,"current_range_meters":36000,"station_id":"ce4bhgp2rcd13ifvqfd0","pricing_plan_id":"cebpf4jnsgd1na2vs0mg"},