{"last_updated":1736154626,"ttl":60,"version":"2.2","data":{"bikes":[{"bike_id":"dac6d463-fb57-4a19-8c5c-55d8a85c731d","system_id":"levelo_inurba_marseille","lat":43.30529,"lon":5.36533,"is_reserved":false,"is_disabled":false,"rental_uris":{"android":"levelo://app?vid=dac6d463-fb57-4a19-8c5c-55d8a85c731d","ios":"levelo://app?vid=dac6d463-fb57-4a19-8c5c-55d8a85c731d"},"vehicle_type_id":"4","last_reported":1736154626,"current_range_meters":38000,"station_id":"ce4bgs12rcd13ifvqcag","pricing_plan_id":"cebpf4jnsgd1na2vs0mg"},{"bike_id":"8f29603c-5d9a-4bc6-963d-711ada2a168a","system_id":"levelo_inurba_marseille","lat":43.246686,"lon":5.39855,"is_reserved":false,"is_disabled":true,"rental_uris":{"android":"levelo://app?vid=8f29603c-5d9a-4bc6-963d-711ada2a168a","ios":"levelo://app?vid=8f29603c-5d9a-4bc6-963d-711ada2a168a"},"vehicle_type_id":"4","last_reported":1736154626,"current_range_meters":21600,"station_id":"","pricing_plan_id":"cebpf4jnsgd1na2vs0mg"},{"bike_id":"10713e37-afc7-43d1-b51d-2b4416e38ed1","system_id":"levelo_inurba_marseille","lat":43.28714,"lon":5.4001,"is_reserved":false,"is_disabled":true,"rental_uris":{"android":"levelo://app?vid=10713e37-afc7-43d1-b51d-2b4416e38ed1","ios":"levelo://app?vid=10713e37-afc7-43d1-b51d-2b4416e38ed1"},"vehicle_type_id":"4","last_reported":1736154626,"current_range_meters":38400,"station_id":"ce4bho92rcd13ifvqh3g","pricing_plan_id":"cebpf4jnsgd1na2vs0mg"},{"bike_id":"e98989a0-dc89-4989-9e20-edd91030c33c","system_id":"levelo_inurba_marseille","lat":43.30166,"lon":5.38117,"is_reserved":false,"is_disabled":false,"rental_uris":{"android":"levelo://app?vid=e98989a0-dc89-4989-9e20-edd91030c33c","ios":"levelo://app?vid=e98989a0-dc89-4989-9e20-edd91030c33c"},"vehicle_type_id":"4","last_reported":1736154626,"current_range_meters":39200,"station_id":"ce4bgjp2rcd13ifvqbh0","pricing_plan_id":"cebpf4jnsgd1na2vs0mg"},{"bike_id":"bee3fb50-6c75-451f-87bd-a5472587eeb3","system_id":"levelo_inurba_marseille","lat":43.28706,"lon":5.37937,"is_reserved":false,"is_disabled":false,"rental_uris":{"android":"levelo://app?vid=bee3fb50-6c75-451f-87bd-a5472587eeb3","ios":"levelo://app?vid=bee3fb50-6c75-451f-87bd-a5472587eeb3"},"vehicle_type_id":"4","last_reported":1736154626,"current_range_meters":24800,"station_id":"ce4bh9p2rcd13ifvqec0","pricing_plan_id":"cebpf4jnsgd1na2vs0mg"},{"bike_id":"e6e04223-7392-4eda-8306-7771efe8f77c","system_id":"levelo_inurba_marseille","lat":43.31349,"lon":5.36699,"is_reserved":false,"is_disabled":false,"rental_uris":{"android":"levelo://app?vid=e6e04223-7392-4eda-8306-7771efe8f77c","ios":"levelo://app?vid=e6e04223-7392-4eda-8306-7771efe8f77c"},"vehicle_type_id":"4","last_reported":1736154626,"current_range_meters":38800,"station_id":"ce4bgr92rcd13ifvqc6g","pricing_plan_id":"cebpf4jnsgd1na2vs0mg"},{"bike_id":"82f78cf6-11db-4953-b9c6-e25c1736a532","system_id":"levelo_inurba_marseille","lat":43.30525,"lon":5.36695,"is_reserved":false,"is_disabled":false,"rental_uris":{"android":"levelo://app?vid=82f78cf6-11db-4953-b9c6-e25c1736a532","ios":"levelo://app?vid=82f78cf6-11db-4953-b9c6-e25c1736a532"},"vehicle_type_id":"4","last_reported":1736154626,"current_range_meters":38800,"station_id":"ce4bgrp2rcd13ifvqc9g","pricing_plan_id":"cebpf4jnsgd1na2vs0mg"},{"bike_id":"5dc11390-059b-4136-9f1a-189200cf304c","system_id":"levelo_inurba_marseille","lat":43.29937,"lon":5.36536,"is_reserved":false,"is_disabled":true,"rental_uris":{"android":"levelo://app?vid=5dc11390-059b-4136-9f1a-189200cf304c","ios":"levelo://app?vid=5dc11390-059b-4136-9f1a-189200cf304c"},"vehicle_type_id":"4","last_reported":1736154626,"current_range_meters":38000,"station_id":"ce4bgm92rcd13ifvqbr0","pricing_plan_id":"cebpf4jnsgd1na2vs0mg"},{"bike_id":"0153ae28-9422-4039-87f8-952c80b8c9cc","system_id":"levelo_inurba_marseille","lat":43.27313,"lon":5.39105,"is_reserved":false,"is_disabled":true,"rental_uris":{"android":"levelo://app?vid=0153ae28-9422-4039-87f8-952c80b8c9cc","ios":"levelo://app?vid=0153ae28-9422-4039-87f8-952c80b8c9cc"},"vehicle_type_id":"4","last_reported":1736154626,"current_range_meters":36800,"station_id":"ce4bhgp2rcd13ifvqfe0","pricing_plan_id":"cebpf4jnsgd1na2vs0mg"},{"bike_id":"21b4519a-d29f-44f8-a8bb-6f7dc2457ade","system_id":"levelo_inurba_marseille","lat":43.27995,"lon":5.41675,"is_reserved":false,"is_disabled":true,"rental_uris":{"android":"levelo://app?vid=21b4519a-d29f-44f8-a8bb-6f7dc2457ade","ios":"levelo://app?vid=21b4519a-d29f-44f8-a8bb-6f7dc2457ade"},"vehicle_type_id":"4","last_reported":1736154626,"current_range_meters":27600,"station_id":"ce4bho12rcd13ifvqh1g","pricing_plan_id":"cebpf4jnsgd1na2vs0mg"},{"bike_id":"368d2467-cf19-4a77-a4ac-a8d0c55047c7","system_id":"levelo_inurba_marseille","lat":43.29697,"lon":5.36613,"is_reserved":false,"is_disabled":false,"rental_uris":{"android":"levelo://app?vid=368d2467-cf19-4a77-a4ac-a8d0c55047c7","ios":"levelo://app?vid=368d2467-cf19-4a77-a4ac-a8d0c55047c7"},"vehicle_type_id":"4","last_reported":1736154626,"current_range_meters":29600,"station_id":"ce4bgn12rcd13ifvqbt0","pricing_plan_id":"cebpf4jnsgd1na2vs0mg"},{"bike_id":"a38d7913-e298-4f70-b767-22c33dd66ed4","system_id":"levelo_inurba_marseille","lat":43.29868,"lon":5.43658,"is_reserved":false,"is_disabled":false,"rental_uris":{"android":"levelo://app?vid=a38d7913-e298-4f70-b767-22c33dd66ed4","ios":"levelo://app?vid=a38d7913-e298-4f70-b767-22c33dd66ed4"},"vehicle_type_id":"4","last_reported":1736154626,"current_range_meters":38800,"station_id":"ce4bhpp2rcd13ifvqhfg","pricing_plan_id":"cebpf4jnsgd1na2vs0mg"},{"bike_id":"7cbf6f5f-84c0-4c69-9c7d-9902b00c6686","system_id":"levelo_inurba_marseille","lat":43.30435,"lon":5.37921,"is_reserved":false,"is_disabled":false,"rental_uris":{"android":"levelo://app?vid=7cbf6f5f-84c0-4c69-9c7d-9902b00c6686","ios":"levelo://app?vid=7cbf6f5f-84c0-4c69-9c7d-9902b00c6686"},"vehicle_type_id":"4","last_reported":1736154626,"current_range_meters":30400,"station_id":"ce4bgup2rcd13ifvqcn0","pricing_plan_id":"cebpf4jnsgd1na2vs0mg"},{"bike_id":"bcf0bc77-feb4-4e25-93da-4721812265a5","system_id":"levelo_inurba_marseille","lat":43.29835,"lon":5.3629,"is_reserved":false,"is_disabled":false,"rental_uris":{"android":"levelo://app?vid=bcf0bc77-feb4-4e25-93da-4721812265a5","ios":"levelo://app?vid=bcf0bc77-feb4-4e25-93da-4721812265a5"},"vehicle_type_id":"4","last_reported":1736154626,"current_range_meters":38000,"station_id":"ce4bgpp2rcd13ifvqc3g","pricing_plan_id":"cebpf4jnsgd1na2vs0mg"},{"bike_id":"aa3d4a6d-1203-4d0c-85b4-452c0e9a57b3","system_id":"levelo_inurba_marseille","lat":43.27933,"lon":5.41035,"is_reserved":false,"is_disabled":false,"rental_uris":{"android":"levelo://app?vid=aa3d4a6d-1203-4d0c-85b4-452c0e9a57b3","ios":"levelo://app?vid=aa3d4a6d-1203-4d0c-85b4-452c0e9a57b3"},"vehicle_type_id":"4","last_reported":1736154626,"current_range_meters":8000,"station_id":"ce4bhnp2rcd13ifvqh0g","pricing_plan_id":"cebpf4jnsgd1na2vs0mg"},{"bike_id":"730144be-fcee-4065-ac38-325ca1d5cbf7","system_id":"levelo_inurba_marseille","lat":43.25729,"lon":5.41125,"is_reserved":false,"is_disabled":false,"rental_uris":{"android":"levelo://app?vid=730144be-fcee-4065-ac38-325ca1d5cbf7","ios":"levelo://app?vid=730144be-fcee-4065-ac38-325ca1d5cbf7"},"vehicle_type_id":"4","last_reported":1736154626,"current_range_meters":28000,"station_id":"ce4bhkp2rcd13ifvqgd0","pricing_plan_id":"cebpf4jnsgd1na2vs0mg"},{"bike_id":"36f2e106-d2ce-431b-9444-0d7834c36bb5","system_id":"levelo_inurba_marseille","lat":43.30129,"lon":5.38789,"is_reserved":false,"is_disabled":false,"rental_uris":{"android":"levelo://app?vid=36f2e106-d2ce-431b-9444-0d7834c36bb5","ios":"levelo://app?vid=36f2e106-d2ce-431b-9444-0d7834c36bb5"},"vehicle_type_id":"4","last_reported":1736154626,"current_range_meters":36000,"station_id":"ce4bghh2rcd13ifvqb60","pricing_plan_id":"cebpf4jnsgd1na2vs0mg"},{"bike_id":"cfa9ca20-27d4-44a2-a7d9-d2b75ed2f4ac","system_id":"levelo_inurba_marseille","lat":43.31049,"lon":5.38338,"is_reserved":false,"is_disabled":true,"rental_uris":{"android":"levelo://app?vid=cfa9ca20-27d4-44a2-a7d9-d2b75ed2f4ac","ios":"levelo://app?vid=cfa9ca20-27d4-44a2-a7d9-d2b75ed2f4ac"},"vehicle_type_id":"4","last_reported":1736154626,"current_range_meters":4000,"station_id":"ce4bgv92rcd13ifvqcr0","pricing_plan_id":"cebpf4jnsgd1na2vs0mg"},{"bike_id":"2e3020fc-739e-484f-aff1-968aa18f2ac1","system_id":"levelo_inurba_marseille","lat":43.27997,"lon":5.41665,"is_reserved":false,"is_disabled":true,"rental_uris":{"android":"levelo://app?vid=2e3020fc-739e-484f-aff1-968aa18f2ac1","ios":"levelo://app?vid=2e3020fc-739e-484f-aff1-968aa18f2ac1"},"vehicle_type_id":"4","last_reported":1736154626,"current_range_meters":0,"station_id":"ce4bho12rcd13ifvqh1g","pricing_plan_id":"cebpf4jnsgd1na2vs0mg"},{"bike_id":"71dd2f5b-102e-4770-9024-a06bbe2347d6","system_id":"levelo_inurba_marseille","lat":43.29653,"lon":5.36612,"is_reserved":false,"is_disabled":false,"rental_uris":{"android":"levelo://app?vid=71dd2f5b-102e-4770-9024-a06bbe2347d6","ios":"levelo://app?vid=71dd2f5b-102e-4770-9024-a06bbe2347d6"},"vehicle_type_id":"4","last_reported":1736154626,"current_range_meters":26000,"station_id":"","pricing_plan_id":"cebpf4jnsgd1na2vs0mg"},{"bike_id":"ce0e460b-fbf5-4f76-a294-ee5f28a95ad0","system_id":"levelo_inurba_marseille","lat":43.27044,"lon":5.42293,"is_reserved":false,"is_disabled":false,"rental_uris":{"android":"levelo://app?vid=ce0e460b-fbf5-4f76-a294-ee5f28a95ad0","ios":"levelo://app?vid=ce0e460b-fbf5-4f76-a294-ee5f28a95ad0"},"vehicle_type_id":"4","last_reported":1736154626,"current_range_meters":38800,"station_id":"ce4bhk92rcd13ifvqgb0","pricing_plan_id":"cebpf4jnsgd1na2vs0mg"},{"bike_id":"a0adb3c4-caf9-464d-8f3e-6b5be1eb9699","system_id":"levelo_inurba_marseille","lat":43.25112,"lon":5.40327,"is_reserved":false,"is_disabled":false,"rental_uris":{"android":"levelo://app?vid=a0adb3c4-caf9-464d-8f3e-6b5be1eb9699","ios":"levelo://app?vid=a0adb3c4-caf9-464d-8f3e-6b5be1eb9699"},"vehicle_type_id":"4","last_reported":1736154626,"current_range_meters":39200,"station_id":"ce4bhlh2rcd13ifvqgig","pricing_plan_id":"cebpf4jnsgd1na2vs0mg"},{"bike_id":"593d8424-f565-422e-8480-e0f50e2c043e","system_id":"levelo_inurba_marseille","lat":43.27969,"lon":5.38712,"is_reserved":false,"is_disabled":true,"rental_uris":{"android":"levelo://app?vid=593d8424-f565-422e-8480-e0f50e2c043e","ios":"levelo://app?vid=593d8424-f565-422e-8480-e0f50e2c043e"},"vehicle_type_id":"4","last_reported":1736154626,"current_range_meters":30000,"station_id":"ce4bhg12rcd13ifvqf80","pricing_plan_id":"cebpf4jnsgd1na2vs0mg"},{"bike_id":"a944f865-f260-4d6e-8bfb-34b22d4c0ecd","system_id":"levelo_inurba_marseille","lat":43.30202,"lon":5.36599,"is_reserved":false,"is_disabled":true,"rental_uris":{"android":"levelo://app?vid=a944f865-f260-4d6e-8bfb-34b22d4c0ecd","ios":"levelo://app?vid=a944f865-f260-4d6e-8bfb-34b22d4c0ecd"},"vehicle_type_id":"4","last_reported":1736154626,"current_range_meters":24000,"station_id":"ce4bgrh2rcd13ifvqc8g","pricing_plan_id":"cebpf4jnsgd1na2vs0mg"},{"bike_id":"4958b3b5-2a07-4ae6-8a21-85cfb364906d","system_id":"levelo_inurba_marseille","lat":43.28967,"lon":5.37833,"is_reserved":false,"is_disabled":false,"rental_uris":{"android":"levelo://app?vid=4958b3b5-2a07-4ae6-8a21-85cfb364906d","ios":"levelo://app?vid=4958b3b5-2a07-4ae6-8a21-85cfb364906d"},"vehicle_type_id":"4","last_reported":1736154626,"current_range_meters":38800,"station_id":"ce4bh9p2rcd13ifvqed0","pricing_plan_id":"cebpf4jnsgd1na2vs0mg"},{"bike_id":"de416ca7-0769-4766-a5b5-80a4211b7833","system_id":"levelo_inurba_marseille","lat":43.25924,"lon":5.40914,"is_reserved":false,"is_disabled":false,"rental_uris":{"android":"levelo://app?vid=de416ca7-0769-4766-a5b5-80a4211b7833","ios":"levelo://app?vid=de416ca7-0769-4766-a5b5-80a4211b7833"},"vehicle_type_id":"4","last_reported":1736154626,"current_range_meters":25200,"station_id":"ce4bhm92rcd13ifvqglg","pricing_plan_id":"cebpf4jnsgd1na2vs0mg"},{"bike_id":"f2bc83fe-5082-4189-990a-d4bcacaae584","system_id":"levelo_inurba_marseille","lat":43.240813,"lon":5.37735,"is_reserved":false,"is_disabled":false,"rental_uris":{"android":"levelo://app?vid=f2bc83fe-5082-4189-990a-d4bcacaae584","ios":"levelo://app?vid=f2bc83fe-5082-4189-990a-d4bcacaae584"},"vehicle_type_id":"4","last_reported":1736154626,"current_range_meters":7200,"station_id":"ce4bhnp2rcd13ifvqgvg","pricing_plan_id":"cebpf4jnsgd1na2vs0mg"},{"bike_id":"20ffeea9-73bd-4164-837b-d84bb167a778","system_id":"levelo_inurba_marseille","lat":43.29196,"lon":5.39312,"is_reserved":false,"is_disabled":false,"rental_uris":{"android":"levelo://app?vid=20ffeea9-73bd-4164-837b-d84bb167a778","ios":"levelo://app?vid=20ffeea9-73bd-4164-837b-d84bb167a778"},"vehicle_type_id":"4","last_reported":1736154626,"current_range_meters":32400,"station_id":"ce4bh192rcd13ifvqdd0","pricing_plan_id":"cebpf4jnsgd1na2vs0mg"},{"bike_id":"7785ab47-fc21-464f-82e3-4fad2439c0ee","system_id":"levelo_inurba_marseille","lat":43.29818,"lon":5.43737,"is_reserved":false,"is_disabled":false,"rental_uris":{"android":"levelo://app?vid=7785ab47-fc21-464f-82e3-4fad2439c0ee","ios":"levelo://app?vid=7785ab47-fc21-464f-82e3-4fad2439c0ee"},"vehicle_type_id":"4","last_reported":1736154626,"current_range_meters":22000,"station_id":"","pricing_plan_id":"cebpf4jnsgd1na2vs0mg"},{"bike_id":"3baff8c8-7778-481e-8bec-c5d999b4321d","system_id":"levelo_inurba_marseille","lat":43.29029,"lon":5.39969,"is_reserved":false,"is_disabled":false,"rental_uris":{"android":"levelo://app?vid=3baff8c8-7778-481e-8bec-c5d999b4321d","ios":"levelo://app?vid=3baff8c8-7778-481e-8bec-c5d999b4321d"},"vehicle_type_id":"4","last_reported":1736154626,"current_range_meters":36800,"station_id":"ce4bh392rcd13ifvqdm0","pricing_plan_id":"cebpf4jnsgd1na2vs0mg"},{"bike_id":"465268ab-90aa-4006-9bf9-43f4f7cc1c1e","system_id":"levelo_inurba_marseille","lat":43.30309,"lon":5.36909,"is_reserved":false,"is_disabled":false,"rental_uris":{"android":"levelo://app?vid=465268ab-90aa-4006-9bf9-43f4f7cc1c1e","ios":"levelo://app?vid=465268ab-90aa-4006-9bf9-43f4f7cc1c1e"},"vehicle_type_id":"4","last_reported":1736154626,"current_range_meters":20800,"station_id":"ce4bgqh2rcd13ifvqc5g","pricing_plan_id":"cebpf4jnsgd1na2vs0mg"},{"bike_id":"ca1bd4fa-dc43-48f4-ad2b-1efde1394bb4","system_id":"levelo_inurba_marseille","lat":43.27813,"lon":5.40707,"is_reserved":false,"is_disabled":false,"rental_uris":{"android":"levelo://app?vid=ca1bd4fa-dc43-48f4-ad2b-1efde1394bb4","ios":"levelo://app?vid=ca1bd4fa-dc43-48f4-ad2b-1efde1394bb4"},"vehicle_type_id":"4","last_reported":1736154626,"current_range_meters":24000,"station_id":"ce4bhnh2rcd13ifvqgtg","pricing_plan_id":"cebpf4jnsgd1na2vs0mg"},{"bike_id":"ab68ed21-148d-4a0e-ae51-a2dd92014de0","system_id":"levelo_inurba_marseille","lat":43.24973,"lon":5.38965,"is_reserved":false,"is_disabled":false,"rental_uris":{"android":"levelo://app?vid=ab68ed21-148d-4a0e-ae51-a2dd92014de0","ios":"levelo://app?vid=ab68ed21-148d-4a0e-ae51-a2dd92014de0"},"vehicle_type_id":"4","last_reported":1736154626,"current_range_meters":36800,"station_id":"","pricing_plan_id":"cebpf4jnsgd1na2vs0mg"},{"bike_id":"75539ff0-fe32-4da7-83df-96fa72019050","system_id":"levelo_inurba_marseille","lat":43.32582,"lon":5.41141,"is_reserved":false,"is_disabled":false,"rental_uris":{"android":"levelo://app?vid=75539ff0-fe32-4da7-83df-96fa72019050","ios":"levelo://app?vid=75539ff0-fe32-4da7-83df-96fa72019050"},"vehicle_type_id":"4","last_reported":1736154626,"current_range_meters":38800,"station_id":"","pricing_plan_id":"cebpf4jnsgd1na2vs0mg"},{"bike_id":"c023aed8-c4af-47de-bf55-7ec6cfb1c879","system_id":"levelo_inurba_marseille","lat":43.26194,"lon":5.3747,"is_reserved":false,"is_disabled":true,"rental_uris":{"android":"levelo://app?vid=c023aed8-c4af-47de-bf55-7ec6cfb1c879","ios":"levelo://app?vid=c023aed8-c4af-47de-bf55-7ec6cfb1c879"},"vehicle_type_id":"4","last_reported":1736154626,"current_range_meters":32800,"station_id":"ce4bhgp2rcd13ifvqfc0","pricing_plan_id":"cebpf4jnsgd1na2vs0mg"},{"bike_id":"522b073c-79a5-43ce-8e71-c155668c9788","system_id":"levelo_inurba_marseille","lat":43.29966,"lon":5.37187,"is_reserved":false,"is_disabled":false,"rental_uris":{"android":"levelo://app?vid=522b073c-79a5-43ce-8e71-c155668c9788","ios":"levelo://app?vid=522b073c-79a5-43ce-8e71-c155668c9788"},"vehicle_type_id":"4","last_reported":1736154626,"current_range_meters":35600,"station_id":"ce4bh9p2rcd13ifvqec0","pricing_plan_id":"cebpf4jnsgd1na2vs0mg"},{"bike_id":"1134651d-acce-4d49-8c85-7d62909bf8cb","system_id":"levelo_inurba_marseille","lat":43.33605,"lon":5.40982,"is_reserved":false,"is_disabled":true,"rental_uris":{"android":"levelo://app?vid=1134651d-acce-4d49-8c85-7d62909bf8cb","ios":"levelo://app?vid=1134651d-acce-4d49-8c85-7d62909bf8cb"},"vehicle_type_id":"4","last_reported":1736154626,"current_range_meters":28800,"station_id":"ce4bhqh2rcd13ifvqhmg","pricing_plan_id":"cebpf4jnsgd1na2vs0mg"},{"bike_id":"0b39108f-e981-4ecb-af14-abc54a91d142","system_id":"levelo_inurba_marseille","lat":43.29804,"lon":5.38057,"is_reserved":false,"is_disabled":false,"rental_uris":{"android":"levelo://app?vid=0b39108f-e981-4ecb-af14-abc54a91d142","ios":"levelo://app?vid=0b39108f-e981-4ecb-af14-abc54a91d142"},"vehicle_type_id":"4","last_reported":1736154626,"current_range_meters":28000,"station_id":"ce4bgip2rcd13ifvqbb0","pricing_plan_id":"cebpf4jnsgd1na2vs0mg"},{"bike_id":"ad036647-e9f4-4246-953d-37ee6601db50","system_id":"levelo_inurba_marseille","lat":43.24656,"lon":5.38172,"is_reserved":false,"is_disabled":false,"rental_uris":{"android":"levelo://app?vid=ad036647-e9f4-4246-953d-37ee6601db50","ios":"levelo://app?vid=ad036647-e9f4-4246-953d-37ee6601db50"},"vehicle_type_id":"4","last_reported":1736154626,"current_range_meters":22800,"station_id":"ce4bhih2rcd13ifvqfr0","pricing_plan_id":"cebpf4jnsgd1na2vs0mg"},{"bike_id":"c3496726-b8ea-47ac-a44b-66bc69a8d7e9","system_id":"levelo_inurba_marseille","lat":43.29823,"lon":5.3629,"is_reserved":false,"is_disabled":false,"rental_uris":{"android":"levelo://app?vid=c3496726-b8ea-47ac-a44b-66bc69a8d7e9","ios":"levelo://app?vid=c3496726-b8ea-47ac-a44b-66bc69a8d7e9"},"vehicle_type_id":"4","last_reported":1736154626,"current_range_meters":30000,"station_id":"ce4bgpp2rcd13ifvqc3g","pricing_plan_id":"cebpf4jnsgd1na2vs0mg"},{"bike_id":"e80c97c4-3cfa-41f9-ab85-3d581cb3afa8","system_id":"levelo_inurba_marseille","lat":43.3094,"lon":5.39044,"is_reserved":false,"is_disabled":false,"rental_uris":{"android":"levelo://app?vid=e80c97c4-3cfa-41f9-ab85-3d581cb3afa8","ios":"levelo://app?vid=e80c97c4-3cfa-41f9-ab85-3d581cb3afa8"},"vehicle_type_id":"4","last_reported":1736154626,"current_range_meters":17200,"station_id":"ce4bgup2rcd13ifvqco0","pricing_plan_id":"cebpf4jnsgd1na2vs0mg"},{"bike_id":"09a28680-34f3-48a3-bb4d-74506aeed1ee","system_id":"levelo_inurba_marseille","lat":43.29022,"lon":5.40003,"is_reserved":false,"is_disabled":false,"rental_uris":{"android":"levelo://app?vid=09a28680-34f3-48a3-bb4d-74506aeed1ee","ios":"levelo://app?vid=09a28680-34f3-48a3-bb4d-74506aeed1ee"},"vehicle_type_id":"4","last_reported":1736154626,"current_range_meters":38800,"station_id":"ce4bh392rcd13ifvqdm0","pricing_plan_id":"cebpf4jnsgd1na2vs0mg"},{"bike_id":"28bcc49e-ca6d-4a43-90c5-8bf91b9ea245","system_id":"levelo_inurba_marseille","lat":43.31482,"lon":5.37305,"is_reserved":false,"is_disabled":false,"rental_uris":{"android":"levelo://app?vid=28bcc49e-ca6d-4a43-90c5-8bf91b9ea245","ios":"levelo://app?vid=28bcc49e-ca6d-4a43-90c5-8bf91b9ea245"},"vehicle_type_id":"4","last_reported":1736154626,"current_range_meters":27600,"station_id":"ce4bgt12rcd13ifvqcd0","pricing_plan_id":"cebpf4jnsgd1na2vs0mg"},{"bike_id":"66d3e1ef-7727-44f9-b619-eeddb54c1fba","system_id":"levelo_inurba_marseille","lat":43.30443,"lon":5.38894,"is_reserved":false,"is_disabled":true,"rental_uris":{"android":"levelo://app?vid=66d3e1ef-7727-44f9-b619-eeddb54c1fba","ios":"levelo://app?vid=66d3e1ef-7727-44f9-b619-eeddb54c1fba"},"vehicle_type_id":"4","last_reported":1736154626,"current_range_meters":6400,"station_id":"ce4bgk12rcd13ifvqbi0","pricing_plan_id":"cebpf4jnsgd1na2vs0mg"},{"bike_id":"75d3e57a-b9bf-4f80-9f61-2812f05e5b86","system_id":"levelo_inurba_marseille","lat":43.28137,"lon":5.42633,"is_reserved":false,"is_disabled":false,"rental_uris":{"android":"levelo://app?vid=75d3e57a-b9bf-4f80-9f61-2812f05e5b86","ios":"levelo://app?vid=75d3e57a-b9bf-4f80-9f61-2812f05e5b86"},"vehicle_type_id":"4","last_reported":1736154626,"current_range_meters":16800,"station_id":"ce4bhnh2rcd13ifvqgug","pricing_plan_id":"cebpf4jnsgd1na2vs0mg"},{"bike_id":"f628b1a5-abb3-4332-96ca-9f06ac130aab","system_id":"levelo_inurba_marseille","lat":43.29928,"lon":5.36542,"is_reserved":false,"is_disabled":false,"rental_uris":{"android":"levelo://app?vid=f628b1a5-abb3-4332-96ca-9f06ac130aab","ios":"levelo://app?vid=f628b1a5-abb3-4332-96ca-9f06ac130aab"},"vehicle_type_id":"4","last_reported":1736154626,"current_range_meters":36400,"station_id":"ce4bgm92rcd13ifvqbr0","pricing_plan_id":"cebpf4jnsgd1na2vs0mg"},{"bike_id":"53f0838a-ffca-45dc-96ad-e12807afa175","system_id":"levelo_inurba_marseille","lat":43.23182,"lon":5.39984,"is_reserved":false,"is_disabled":false,"rental_uris":{"android":"levelo://app?vid=53f0838a-ffca-45dc-96ad-e12807afa175","ios":"levelo://app?vid=53f0838a-ffca-45dc-96ad-e12807afa175"},"vehicle_type_id":"4","last_reported":1736154626,"current_range_meters":22800,"station_id":"ce4bhn12rcd13ifvqgqg","pricing_plan_id":"cebpf4jnsgd1na2vs0mg"},{"bike_id":"f2107d97-861e-478f-aae7-bc0c7527ce03","system_id":"levelo_inurba_marseille","lat":43.31473,"lon":5.37288,"is_reserved":false,"is_disabled":false,"rental_uris":{"android":"levelo://app?vid=f2107d97-861e-478f-aae7-bc0c7527ce03","ios":"levelo://app?vid=f2107d97-861e-478f-aae7-bc0c7527ce03"},"vehicle_type_id":"4","last_reported":1736154626,"current_range_meters":30800,"station_id":"ce4bgt12rcd13ifvqcd0","pricing_plan_id":"cebpf4jnsgd1na2vs0mg"},{"bike_id":"683c3a18-2fe8-4db2-829b-d8065bc8adc1","system_id":"levelo_inurba_marseille","lat":43.2407,"lon":5.37754,"is_reserved":false,"is_disabled":false,"rental_uris":{"android":"levelo://app?vid=683c3a18-2fe8-4db2-829b-d8065bc8adc1","ios":"levelo://app?vid=683c3a18-2fe8-4db2-829b-d8065bc8adc1"},"vehicle_type_id":"4","last_reported":1736154626,"current_range_meters":38800,"station_id":"ce4bhnp2rcd13ifvqgvg","pricing_plan_id":"cebpf4jnsgd1na2vs0mg"},{"bike_id":"98458725-ccb3-4087-b312-f4d043f8061c","system_id":"levelo_inurba_marseille","lat":43.24158,"lon":5.39707,"is_reserved":false,"is_disabled":false,"rental_uris":{"android":"levelo://app?vid=98458725-ccb3-4087-b312-f4d043f8061c","ios":"levelo://app?vid=98458725-ccb3-4087-b312-f4d043f8061c"},"vehicle_type_id":"4","last_reported":1736154626,"current_range_meters":25200,"station_id":"ce4bhn12rcd13ifvqgpg","pricing_plan_id":"cebpf4jnsgd1na2vs0mg"},{"bike_id":"84555394-9565-4ae2-9597-fe536c54fe4a","system_id":"levelo_inurba_marseille","lat":43.32451,"lon":5.36537,"is_reserved":false,"is_disabled":false,"rental_uris":{"android":"levelo://app?vid=84555394-9565-4ae2-9597-fe536c54fe4a","ios":"levelo://app?vid=84555394-9565-4ae2-9597-fe536c54fe4a"},"vehicle_type_id":"4","last_reported":1736154626,"current_range_meters":22000,"station_id":"ce4bhs12rcd13ifvqhvg","pricing_plan_id":"cebpf4jnsgd1na2vs0mg"},{"bike_id":"18c2a81d-aa34-41c3-8bd8-6e7508436d80","system_id":"levelo_inurba_marseille","lat":43.28144,"lon":5.42652,"is_reserved":false,"is_disabled":false,"rental_uris":{"android":"levelo://app?vid=18c2a81d-aa34-41c3-8bd8-6e7508436d80","ios":"levelo://app?vid=18c2a81d-aa34-41c3-8bd8-6e7508436d80"},"vehicle_type_id":"4","last_reported":1736154626,"current_range_meters":26800,"station_id":"ce4bhnh2rcd13ifvqgug","pricing_plan_id":"cebpf4jnsgd1na2vs0mg"},{"bike_id":"56e4e1b5-9e13-43a2-864c-71b304a89ef7","system_id":"levelo_inurba_marseille","lat":43.30143,"lon":5.37413,"is_reserved":false,"is_disabled":false,"rental_uris":{"android":"levelo://app?vid=56e4e1b5-9e13-43a2-864c-71b304a89ef7","ios":"levelo://app?vid=56e4e1b5-9e13-43a2-864c-71b304a89ef7"},"vehicle_type_id":"4","last_reported":1736154626,"current_range_meters":18800,"station_id":"ce4bgs92rcd13ifvqcc0","pricing_plan_id":"cebpf4jnsgd1na2vs0mg"},{"bike_id":"e7322205-0263-4fc6-ac61-c0ff19201698","system_id":"levelo_inurba_marseille","lat":43.30476,"lon":5.379,"is_reserved":false,"is_disabled":false,"rental_uris":{"android":"levelo://app?vid=e7322205-0263-4fc6-ac61-c0ff19201698","ios":"levelo://app?vid=e7322205-0263-4fc6-ac61-c0ff19201698"},"vehicle_type_id":"4","last_reported":1736154626,"current_range_meters":38800,"station_id":"ce4bgup2rcd13ifvqcn0","pricing_plan_id":"cebpf4jnsgd1na2vs0mg"},{"bike_id":"551f514d-f98d-4bc9-a418-784f879e01aa","system_id":"levelo_inurba_marseille","lat":43.30886,"lon":5.3718,"is_reserved":false,"is_disabled":false,"rental_uris":{"android":"levelo://app?vid=551f514d-f98d-4bc9-a418-784f879e01aa","ios":"levelo://app?vid=551f514d-f98d-4bc9-a418-784f879e01aa"},"vehicle_type_id":"4","last_reported":1736154626,"current_range_meters":27600,"station_id":"ce4bguh2rcd13ifvqckg","pricing_plan_id":"cebpf4jnsgd1na2vs0mg"},{"bike_id":"2332862a-3884-4317-af82-ee9793e9b62c","system_id":"levelo_inurba_marseille","lat":43.24096,"lon":5.37703,"is_reserved":false,"is_disabled":true,"rental_uris":{"android":"levelo://app?vid=2332862a-3884-4317-af82-ee9793e9b62c","ios":"levelo://app?vid=2332862a-3884-4317-af82-ee9793e9b62c"},"vehicle_type_id":"4","last_reported":1736154626,"current_range_meters":7200,"station_id":"","pricing_plan_id":"cebpf4jnsgd1na2vs0mg"},{"bike_id":"85457f8f-1ac0-48b2-89d0-bc275e137041","system_id":"levelo_inurba_marseille","lat":43.29619,"lon":5.37171,"is_reserved":false,"is_disabled":false,"rental_uris":{"android":"levelo://app?vid=85457f8f-1ac0-48b2-89d0-bc275e137041","ios":"levelo://app?vid=85457f8f-1ac0-48b2-89d0-bc275e137041"},"vehicle_type_id":"4","last_reported":1736154626,"current_range_meters":29600,"station_id":"ce4bgnh2rcd13ifvqc0g","pricing_plan_id":"cebpf4jnsgd1na2vs0mg"},{"bike_id":"6df4001c-2cbd-460a-8a1a-91496e0a14d1","system_id":"levelo_inurba_marseille","lat":43.25812,"lon":5.39427,"is_reserved":false,"is_disabled":false,"rental_uris":{"android":"levelo://app?vid=6df4001c-2cbd-460a-8a1a-91496e0a14d1","ios":"levelo://app?vid=6df4001c-2cbd-460a-8a1a-91496e0a14d1"},"vehicle_type_id":"4","last_reported":1736154626,"current_range_meters":28800,"station_id":"ce4bhip2rcd13ifvqft0","pricing_plan_id":"cebpf4jnsgd1na2vs0mg"},{"bike_id":"ba2b0799-90e5-436b-a8ac-d2a80ff5da69","system_id":"levelo_inurba_marseille","lat":43.248042,"lon":5.374685,"is_reserved":false,"is_disabled":false,"rental_uris":{"android":"levelo://app?vid=ba2b0799-90e5-436b-a8ac-d2a80ff5da69","ios":"levelo://app?vid=ba2b0799-90e5-436b-a8ac-d2a80ff5da69"},"vehicle_type_id":"4","last_reported":1736154626,"current_range_meters":38800,"station_id":"ce4bhgh2rcd13ifvqfb0","pricing_plan_id":"cebpf4jnsgd1na2vs0mg"},{"bike_id":"5b49bc9e-0372-4642-ba4e-6768062fc93f","system_id":"levelo_inurba_marseille","lat":43.30898,"lon":5.36849,"is_reserved":false,"is_disabled":false,"rental_uris":{"android":"levelo://app?vid=5b49bc9e-0372-4642-ba4e-6768062fc93f","ios":"levelo://app?vid=5b49bc9e-0372-4642-ba4e-6768062fc93f"},"vehicle_type_id":"4","last_reported":1736154626,"current_range_meters":38800,"station_id":"ce4bgn92rcd13ifvqbvg","pricing_plan_id":"cebpf4jnsgd1na2vs0mg"},{"bike_id":"dd34045c-9351-468b-86f7-2a551094493e","system_id":"levelo_inurba_marseille","lat":43.3125,"lon":5.40164,"is_reserved":false,"is_disabled":false,"rental_uris":{"android":"levelo://app?vid=dd34045c-9351-468b-86f7-2a551094493e","ios":"levelo://app?vid=dd34045c-9351-468b-86f7-2a551094493e"},"vehicle_type_id":"4","last_reported":1736154626,"current_range_meters":16400,"station_id":"ce4bh092rcd13ifvqd30","pricing_plan_id":"cebpf4jnsgd1na2vs0mg"},{"bike_id":"0f472c92-96f4-44b8-82b0-83a98a438eb4","system_id":"levelo_inurba_marseille","lat":43.29517,"lon":5.39055,"is_reserved":false,"is_disabled":false,"rental_uris":{"android":"levelo://app?vid=0f472c92-96f4-44b8-82b0-83a98a438eb4","ios":"levelo://app?vid=0f472c92-96f4-44b8-82b0-83a98a438eb4"},"vehicle_type_id":"4","last_reported":1736154626,"current_range_meters":19600,"station_id":"ce4bh3p2rcd13ifvqdp0","pricing_plan_id":"cebpf4jnsgd1na2vs0mg"},{"bike_id":"e95bb54d-583b-4328-8deb-2f42d6df9b6c","system_id":"levelo_inurba_marseille","lat":43.28997,"lon":5.40007,"is_reserved":false,"is_disabled":false,"rental_uris":{"android":"levelo://app?vid=e95bb54d-583b-4328-8deb-2f42d6df9b6c","ios":"levelo://app?vid=e95bb54d-583b-4328-8deb-2f42d6df9b6c"},"vehicle_type_id":"4","last_reported":1736154626,"current_range_meters":34000,"station_id":"","pricing_plan_id":"cebpf4jnsgd1na2vs0mg"},{"bike_id":"5d14871f-6090-4e01-b500-d52e9b299199","system_id":"levelo_inurba_marseille","lat":43.309522,"lon":5.390404,"is_reserved":false,"is_disabled":false,"rental_uris":{"android":"levelo://app?vid=5d14871f-6090-4e01-b500-d52e9b299199","ios":"levelo://app?vid=5d14871f-6090-4e01-b500-d52e9b299199"},"vehicle_type_id":"4","last_reported":1736154626,"current_range_meters":35200,"station_id":"ce4bgup2rcd13ifvqco0","pricing_plan_id":"cebpf4jnsgd1na2vs0mg"},{"bike_id":"cbc638ef-e540-4f9c-ac5d-e16032597628","system_id":"levelo_inurba_marseille","lat":43.29588,"lon":5.38139,"is_reserved":false,"is_disabled":true,"rental_uris":{"android":"levelo://app?vid=cbc638ef-e540-4f9c-ac5d-e16032597628","ios":"levelo://app?vid=cbc638ef-e540-4f9c-ac5d-e16032597628"},"vehicle_type_id":"4","last_reported":1736154626,"current_range_meters":33600,"station_id":"ce4bgl12rcd13ifvqbo0","pricing_plan_id":"cebpf4jnsgd1na2vs0mg"},{"bike_id":"029feb40-db41-4f7d-803d-27115527cdc7","system_id":"levelo_inurba_marseille","lat":43.28936,"lon":5.39606,"is_reserved":false,"is_disabled":false,"rental_uris":{"android":"levelo://app?vid=029feb40-db41-4f7d-803d-27115527cdc7","ios":"levelo://app?vid=029feb40-db41-4f7d-803d-27115527cdc7"},"vehicle_type_id":"4","last_reported":1736154626,"current_range_meters":38800,"station_id":"ce4bh3h2rcd13ifvqdn0","pricing_plan_id":"cebpf4jnsgd1na2vs0mg"},{"bike_id":"3b9aa305-dcd0-47b7-8f67-373c01f29d9f","system_id":"levelo_inurba_marseille","lat":43.27494,"lon":5.4245,"is_reserved":false,"is_disabled":false,"rental_uris":{"android":"levelo://app?vid=3b9aa305-dcd0-47b7-8f67-373c01f29d9f","ios":"levelo://app?vid=3b9aa305-dcd0-47b7-8f67-373c01f29d9f"},"vehicle_type_id":"4","last_reported":1736154626,"current_range_meters":25200,"station_id":"ce4bhn92rcd13ifvqgrg","pricing_plan_id":"cebpf4jnsgd1na2vs0mg"},{"bike_id":"d3e1a470-d833-437a-84fb-45fe4a2495e1","system_id":"levelo_inurba_marseille","lat":43.29095,"lon":5.38112,"is_reserved":false,"is_disabled":false,"rental_uris":{"android":"levelo://app?vid=d3e1a470-d833-437a-84fb-45fe4a2495e1","ios":"levelo://app?vid=d3e1a470-d833-437a-84fb-45fe4a2495e1"},"vehicle_type_id":"4","last_reported":1736154626,"current_range_meters":38800,"station_id":"ce4bh512rcd13ifvqe2g","pricing_plan_id":"cebpf4jnsgd1na2vs0mg"},{"bike_id":"5c15eb5a-5fab-488e-9813-35848fe95eb0","system_id":"levelo_inurba_marseille","lat":43.27066,"lon":5.42271,"is_reserved":false,"is_disabled":false,"rental_uris":{"android":"levelo://app?vid=5c15eb5a-5fab-488e-9813-35848fe95eb0","ios":"levelo://app?vid=5c15eb5a-5fab-488e-9813-35848fe95eb0"},"vehicle_type_id":"4","last_reported":1736154626,"current_range_meters":24400,"station_id":"ce4bhk92rcd13ifvqgb0","pricing_plan_id":"cebpf4jnsgd1na2vs0mg"},{"bike_id":"7f1ce4ed-0cd0-4d23-b89e-099e0df8c108","system_id":"levelo_inurba_marseille","lat":43.257262,"lon":5.411064,"is_reserved":false,"is_disabled":false,"rental_uris":{"android":"levelo://app?vid=7f1ce4ed-0cd0-4d23-b89e-099e0df8c108","ios":"levelo://app?vid=7f1ce4ed-0cd0-4d23-b89e-099e0df8c108"},"vehicle_type_id":"4","last_reported":1736154626,"current_range_meters":38000,"station_id":"ce4bhkp2rcd13ifvqgd0","pricing_plan_id":"cebpf4jnsgd1na2vs0mg"},{"bike_id":"a90fc5be-86c2-4492-be90-6b122e3e8489","system_id":"levelo_inurba_marseille","lat":43.2953,"lon":5.39045,"is_reserved":false,"is_disabled":false,"rental_uris":{"android":"levelo://app?vid=a90fc5be-86c2-4492-be90-6b122e3e8489","ios":"levelo://app?vid=a90fc5be-86c2-4492-be90-6b122e3e8489"},"vehicle_type_id":"4","last_reported":1736154626,"current_range_meters":13600,"station_id":"ce4bh3p2rcd13ifvqdp0","pricing_plan_id":"cebpf4jnsgd1na2vs0mg"},{"bike_id":"97c194ad-bc0a-4c57-887e-dfdfccf5588d","system_id":"levelo_inurba_marseille","lat":43.30593,"lon":5.39352,"is_reserved":false,"is_disabled":false,"rental_uris":{"android":"levelo://app?vid=97c194ad-bc0a-4c57-887e-dfdfccf5588d","ios":"levelo://app?vid=97c194ad-bc0a-4c57-887e-dfdfccf5588d"},"vehicle_type_id":"4","last_reported":1736154626,"current_range_meters":38800,"station_id":"ce4bh0p2rcd13ifvqd80","pricing_plan_id":"cebpf4jnsgd1na2vs0mg"},{"bike_id":"f8142e8a-f886-4c5e-b399-88d8fa1c1d32","system_id":"levelo_inurba_marseille","lat":43.24645,"lon":5.38193,"is_reserved":false,"is_disabled":false,"rental_uris":{"android":"levelo://app?vid=f8142e8a-f886-4c5e-b399-88d8fa1c1d32","ios":"levelo://app?vid=f8142e8a-f886-4c5e-b399-88d8fa1c1d32"},"vehicle_type_id":"4","last_reported":1736154626,"current_range_meters":23200,"station_id":"ce4bhih2rcd13ifvqfr0","pricing_plan_id":"cebpf4jnsgd1na2vs0mg"},{"bike_id":"df77a2c7-19e3-4e68-889c-06ccb7ae8f43","system_id":"levelo_inurba_marseille","lat":43.30586,"lon":5.37236,"is_reserved":false,"is_disabled":false,"rental_uris":{"android":"levelo://app?vid=df77a2c7-19e3-4e68-889c-06ccb7ae8f43","ios":"levelo://app?vid=df77a2c7-19e3-4e68-889c-06ccb7ae8f43"},"vehicle_type_id":"4","last_reported":1736154626,"current_range_meters":28400,"station_id":"ce4bgqh2rcd13ifvqc4g","pricing_plan_id":"cebpf4jnsgd1na2vs0mg"},{"bike_id":"38179190-6512-4bd2-be05-40d8db0b403b","system_id":"levelo_inurba_marseille","lat":43.29564,"lon":5.37524,"is_reserved":false,"is_disabled":false,"rental_uris":{"android":"levelo://app?vid=38179190-6512-4bd2-be05-40d8db0b403b","ios":"levelo://app?vid=38179190-6512-4bd2-be05-40d8db0b403b"},"vehicle_type_id":"4","last_reported":1736154626,"current_range_meters":11200,"station_id":"ce4bgh92rcd13ifvqb50","pricing_plan_id":"cebpf4jnsgd1na2vs0mg"},{"bike_id":"5acd51ab-33ae-465f-9994-b539f1713987","system_id":"levelo_inurba_marseille","lat":43.33751,"lon":5.39189,"is_reserved":false,"is_disabled":true,"rental_uris":{"android":"levelo://app?vid=5acd51ab-33ae-465f-9994-b539f1713987","ios":"levelo://app?vid=5acd51ab-33ae-465f-9994-b539f1713987"},"vehicle_type_id":"4","last_reported":1736154626,"current_range_meters":34000,"station_id":"ce4bhr92rcd13ifvqhsg","pricing_plan_id":"cebpf4jnsgd1na2vs0mg"},{"bike_id":"f3d41f41-839d-41a5-aa6d-f2ba87ff18f0","system_id":"levelo_inurba_marseille","lat":43.24059,"lon":5.37711,"is_reserved":false,"is_disabled":true,"rental_uris":{"android":"levelo://app?vid=f3d41f41-839d-41a5-aa6d-f2ba87ff18f0","ios":"levelo://app?vid=f3d41f41-839d-41a5-aa6d-f2ba87ff18f0"},"vehicle_type_id":"4","last_reported":1736154626,"current_range_meters":36400,"station_id":"ce4bhnp2rcd13ifvqgvg","pricing_plan_id":"cebpf4jnsgd1na2vs0mg"},{"bike_id":"7a642d60-3ea7-4aa8-9bb5-5f10b3beea02","system_id":"levelo_inurba_marseille","lat":43.32284,"lon":5.38257,"is_reserved":false,"is_disabled":false,"rental_uris":{"android":"levelo://app?vid=7a642d60-3ea7-4aa8-9bb5-5f10b3beea02","ios":"levelo://app?vid=7a642d60-3ea7-4aa8-9bb5-5f10b3beea02"},"vehicle_type_id":"4","last_reported":1736154626,"current_range_meters":38800,"station_id":"ce4bhr12rcd13ifvqhqg","pricing_plan_id":"cebpf4jnsgd1na2vs0mg"},{"bike_id":"5a231d4e-1469-4389-a9bc-0d65fec09d5f","system_id":"levelo_inurba_marseille","lat":43.283057,"lon":5.433154,"is_reserved":false,"is_disabled":false,"rental_uris":{"android":"levelo://app?vid=5a231d4e-1469-4389-a9bc-0d65fec09d5f","ios":"levelo://app?vid=5a231d4e-1469-4389-a9bc-0d65fec09d5f"},"vehicle_type_id":"4","last_reported":1736154626,"current_range_meters":9600,"station_id":"","pricing_plan_id":"cebpf4jnsgd1na2vs0mg"},{"bike_id":"ae6d41e5-4b94-4495-98dc-268a5104df03","system_id":"levelo_inurba_marseille","lat":43.31476,"lon":5.373,"is_reserved":false,"is_disabled":false,"rental_uris":{"android":"levelo://app?vid=ae6d41e5-4b94-4495-98dc-268a5104df03","ios":"levelo://app?vid=ae6d41e5-4b94-4495-98dc-268a5104df03"},"vehicle_type_id":"4","last_reported":1736154626,"current_range_meters":38400,"station_id":"ce4bgt12rcd13ifvqcd0","pricing_plan_id":"cebpf4jnsgd1na2vs0mg"},{"bike_id":"bab376a2-3ba0-43a3-a60d-b5a59c40e0bc","system_id":"levelo_inurba_marseille","lat":43.292562,"lon":5.40915,"is_reserved":false,"is_disabled":true,"rental_uris":{"android":"levelo://app?vid=bab376a2-3ba0-43a3-a60d-b5a59c40e0bc","ios":"levelo://app?vid=bab376a2-3ba0-43a3-a60d-b5a59c40e0bc"},"vehicle_type_id":"4","last_reported":1736154626,"current_range_meters":22400,"station_id":"ce4bh192rcd13ifvqdc0","pricing_plan_id":"cebpf4jnsgd1na2vs0mg"},{"bike_id":"7b78d5e2-5142-402d-a4f8-0f3037a6c533","system_id":"levelo_inurba_marseille","lat":43.26946,"lon":5.3862,"is_reserved":false,"is_disabled":true,"rental_uris":{"android":"levelo://app?vid=7b78d5e2-5142-402d-a4f8-0f3037a6c533","ios":"levelo://app?vid=7b78d5e2-5142-402d-a4f8-0f3037a6c533"},"vehicle_type_id":"4","last_reported":1736154626,"current_range_meters":37600,"station_id":"ce4bhh92rcd13ifvqfh0","pricing_plan_id":"cebpf4jnsgd1na2vs0mg"},{"bike_id":"7e46465d-6885-4570-aa72-1a895ebe18b8","system_id":"levelo_inurba_marseille","lat":43.30545,"lon":5.3654,"is_reserved":false,"is_disabled":false,"rental_uris":{"android":"levelo://app?vid=7e46465d-6885-4570-aa72-1a895ebe18b8","ios":"levelo://app?vid=7e46465d-6885-4570-aa72-1a895ebe18b8"},"vehicle_type_id":"4","last_reported":1736154626,"current_range_meters":16800,"station_id":"ce4bgs12rcd13ifvqcag","pricing_plan_id":"cebpf4jnsgd1na2vs0mg"},{"bike_id":"2f33d4dd-c94f-41e6-bce5-42d4c6341eb0","system_id":"levelo_inurba_marseille","lat":43.29907,"lon":5.43656,"is_reserved":false,"is_disabled":false,"rental_uris":{"android":"levelo://app?vid=2f33d4dd-c94f-41e6-bce5-42d4c6341eb0","ios":"levelo://app?vid=2f33d4dd-c94f-41e6-bce5-42d4c6341eb0"},"vehicle_type_id":"4","last_reported":1736154626,"current_range_meters":30000,"station_id":"ce4bhpp2rcd13ifvqhfg","pricing_plan_id":"cebpf4jnsgd1na2vs0mg"},{"bike_id":"d0d21930-fe1d-478b-8251-bcf89564599d","system_id":"levelo_inurba_marseille","lat":43.29529,"lon":5.42279,"is_reserved":false,"is_disabled":false,"rental_uris":{"android":"levelo://app?vid=d0d21930-fe1d-478b-8251-bcf89564599d","ios":"levelo://app?vid=d0d21930-fe1d-478b-8251-bcf89564599d"},"vehicle_type_id":"4","last_reported":1736154626,"current_range_meters":24400,"station_id":"ce4bhph2rcd13ifvqhdg","pricing_plan_id":"cebpf4jnsgd1na2vs0mg"},{"bike_id":"793e61cf-3f17-4ddb-a802-7a02054d1a95","system_id":"levelo_inurba_marseille","lat":43.2314,"lon":5.4372,"is_reserved":false,"is_disabled":false,"rental_uris":{"android":"levelo://app?vid=793e61cf-3f17-4ddb-a802-7a02054d1a95","ios":"levelo://app?vid=793e61cf-3f17-4ddb-a802-7a02054d1a95"},"vehicle_type_id":"4","last_reported":1736154626,"current_range_meters":38800,"station_id":"ce4bhmp2rcd13ifvqgog","pricing_plan_id":"cebpf4jnsgd1na2vs0mg"},{"bike_id":"0ca9f1ed-7278-4491-949d-86ca3eae7e1c","system_id":"levelo_inurba_marseille","lat":43.28966,"lon":5.37835,"is_reserved":false,"is_disabled":false,"rental_uris":{"android":"levelo://app?vid=0ca9f1ed-7278-4491-949d-86ca3eae7e1c","ios":"levelo://app?vid=0ca9f1ed-7278-4491-949d-86ca3eae7e1c"},"vehicle_type_id":"4","last_reported":1736154626,"current_range_meters":24400,"station_id":"ce4bh9p2rcd13ifvqed0","pricing_plan_id":"cebpf4jnsgd1na2vs0mg"},{"bike_id":"09a8d888-1bba-47b2-a7e6-229de9127a6b","system_id":"levelo_inurba_marseille","lat":43.28703,"lon":5.37392,"is_reserved":false,"is_disabled":false,"rental_uris":{"android":"levelo://app?vid=09a8d888-1bba-47b2-a7e6-229de9127a6b","ios":"levelo://app?vid=09a8d888-1bba-47b2-a7e6-229de9127a6b"},"vehicle_type_id":"4","last_reported":1736154626,"current_range_meters":13600,"station_id":"ce4bh3p2rcd13ifvqdq0","pricing_plan_id":"cebpf4jnsgd1na2vs0mg"},{"bike_id":"569c0e07-1419-4914-b870-00b0f2f58196","system_id":"levelo_inurba_marseille","lat":43.29563,"lon":5.38117,"is_reserved":false,"is_disabled":false,"rental_uris":{"android":"levelo://app?vid=569c0e07-1419-4914-b870-00b0f2f58196","ios":"levelo://app?vid=569c0e07-1419-4914-b870-00b0f2f58196"},"vehicle_type_id":"4","last_reported":1736154626,"current_range_meters":39200,"station_id":"ce4bgl12rcd13ifvqbo0","pricing_plan_id":"cebpf4jnsgd1na2vs0mg"},{"bike_id":"3765ee58-e379-4bd9-814f-ac9fd13b68c9","system_id":"levelo_inurba_marseille","lat":43.3089,"lon":5.37199,"is_reserved":false,"is_disabled":false,"rental_uris":{"android":"levelo://app?vid=3765ee58-e379-4bd9-814f-ac9fd13b68c9","ios":"levelo://app?vid=3765ee58-e379-4bd9-814f-ac9fd13b68c9"},"vehicle_type_id":"4","last_reported":1736154626,"current_range_meters":11200,"station_id":"ce4bguh2rcd13ifvqckg","pricing_plan_id":"cebpf4jnsgd1na2vs0mg"},{"bike_id":"5cad4397-d7fe-427d-9b9c-8acb185fe024","system_id":"levelo_inurba_marseille","lat":43.25082,"lon":5.39519,"is_reserved":false,"is_disabled":false,"rental_uris":{"android":"levelo://app?vid=5cad4397-d7fe-427d-9b9c-8acb185fe024","ios":"levelo://app?vid=5cad4397-d7fe-427d-9b9c-8acb185fe024"},"vehicle_type_id":"4","last_reported":1736154626,"current_range_meters":6000,"station_id":"ce4bhm12rcd13ifvqgkg","pricing_plan_id":"cebpf4jnsgd1na2vs0mg"},{"bike_id":"014411df-20bd-4572-85be-a67bda909058","system_id":"levelo_inurba_marseille","lat":43.29539,"lon":5.42296,"is_reserved":false,"is_disabled":false,"rental_uris":{"android":"levelo://app?vid=014411df-20bd-4572-85be-a67bda909058","ios":"levelo://app?vid=014411df-20bd-4572-85be-a67bda909058"},"vehicle_type_id":"4","last_reported":1736154626,"current_range_meters":12000,"station_id":"ce4bhph2rcd13ifvqhdg","pricing_plan_id":"cebpf4jnsgd1na2vs0mg"},{"bike_id":"3ea93760-c4b6-4cff-8cc2-3391799ff4b1","system_id":"levelo_inurba_marseille","lat":43.30813,"lon":5.38134,"is_reserved":false,"is_disabled":true,"rental_uris":{"android":"levelo://app?vid=3ea93760-c4b6-4cff-8cc2-3391799ff4b1","ios":"levelo://app?vid=3ea93760-c4b6-4cff-8cc2-3391799ff4b1"},"vehicle_type_id":"4","last_reported":1736154626,"current_range_meters":32400,"station_id":"ce4bgt12rcd13ifvqce0","pricing_plan_id":"cebpf4jnsgd1na2vs0mg"},{"bike_id":"8785ddf2-7225-4c15-a282-1f8baeace2a7","system_id":"levelo_inurba_marseille","lat":43.26052,"lon":5.39402,"is_reserved":false,"is_disabled":false,"rental_uris":{"android":"levelo://app?vid=8785ddf2-7225-4c15-a282-1f8baeace2a7","ios":"levelo://app?vid=8785ddf2-7225-4c15-a282-1f8baeace2a7"},"vehicle_type_id":"4","last_reported":1736154626,"current_range_meters":22800,"station_id":"ce4bhh92rcd13ifvqfj0","pricing_plan_id":"cebpf4jnsgd1na2vs0mg"},{"bike_id":"4d7727df-ac8f-431e-a279-50fc8c6a1628","system_id":"levelo_inurba_marseille","lat":43.31486,"lon":5.3731,"is_reserved":false,"is_disabled":false,"rental_uris":{"android":"levelo://app?vid=4d7727df-ac8f-431e-a279-50fc8c6a1628","ios":"levelo://app?vid=4d7727df-ac8f-431e-a279-50fc8c6a1628"},"vehicle_type_id":"4","last_reported":1736154626,"current_range_meters":36800,"station_id":"ce4bgt12rcd13ifvqcd0","pricing_plan_id":"cebpf4jnsgd1na2vs0mg"},{"bike_id":"3d6e24e0-8ba1-4d05-beb1-c426b2e4c39b","system_id":"levelo_inurba_marseille","lat":43.29366,"lon":5.37844,"is_reserved":false,"is_disabled":false,"rental_uris":{"android":"levelo://app?vid=3d6e24e0-8ba1-4d05-beb1-c426b2e4c39b","ios":"levelo://app?vid=3d6e24e0-8ba1-4d05-beb1-c426b2e4c39b"},"vehicle_type_id":"4","last_reported":1736154626,"current_range_meters":25600,"station_id":"ce4bgjh2rcd13ifvqbf0","pricing_plan_id":"cebpf4jnsgd1na2vs0mg"},{"bike_id":"ab2f7c8c-3291-47ce-a495-87155f126c92","system_id":"levelo_inurba_marseille","lat":43.30525,"lon":5.36702,"is_reserved":false,"is_disabled":false,"rental_uris":{"android":"levelo://app?vid=ab2f7c8c-3291-47ce-a495-87155f126c92","ios":"levelo://app?vid=ab2f7c8c-3291-47ce-a495-87155f126c92"},"vehicle_type_id":"4","last_reported":1736154626,"current_range_meters":30800,"station_id":"ce4bgrp2rcd13ifvqc9g","pricing_plan_id":"cebpf4jnsgd1na2vs0mg"},{"bike_id":"58259ad0-1548-48d6-a889-2e2694ff6a57","system_id":"levelo_inurba_marseille","lat":43.26064,"lon":5.39401,"is_reserved":false,"is_disabled":false,"rental_uris":{"android":"levelo://app?vid=58259ad0-1548-48d6-a889-2e2694ff6a57","ios":"levelo://app?vid=58259ad0-1548-48d6-a889-2e2694ff6a57"},"vehicle_type_id":"4","last_reported":1736154626,"current_range_meters":24400,"station_id":"ce4bhh92rcd13ifvqfj0","pricing_plan_id":"cebpf4jnsgd1na2vs0mg"},{"bike_id":"debe4c5f-4743-4cfb-88bd-9bd4502d24d0","system_id":"levelo_inurba_marseille","lat":43.29694,"lon":5.36623,"is_reserved":false,"is_disabled":false,"rental_uris":{"android":"levelo://app?vid=debe4c5f-4743-4cfb-88bd-9bd4502d24d0","ios":"levelo://app?vid=debe4c5f-4743-4cfb-88bd-9bd4502d24d0"},"vehicle_type_id":"4","last_reported":1736154626,"current_range_meters":38800,"station_id":"ce4bgn12rcd13ifvqbt0","pricing_plan_id":"cebpf4jnsgd1na2vs0mg"},{"bike_id":"a2fad600-bcdc-4fe2-b5cf-418b8c47104e","system_id":"levelo_inurba_marseille","lat":43.24649,"lon":5.38891,"is_reserved":false,"is_disabled":false,"rental_uris":{"android":"levelo://app?vid=a2fad600-bcdc-4fe2-b5cf-418b8c47104e","ios":"levelo://app?vid=a2fad600-bcdc-4fe2-b5cf-418b8c47104e"},"vehicle_type_id":"4","last_reported":1736154626,"current_range_meters":28000,"station_id":"ce4bhg12rcd13ifvqf60","pricing_plan_id":"cebpf4jnsgd1na2vs0mg"},{"bike_id":"28d4df31-50ce-4391-8c10-6a3513e978aa","system_id":"levelo_inurba_marseille","lat":43.337444,"lon":5.374475,"is_reserved":false,"is_disabled":false,"rental_uris":{"android":"levelo://app?vid=28d4df31-50ce-4391-8c10-6a3513e978aa","ios":"levelo://app?vid=28d4df31-50ce-4391-8c10-6a3513e978aa"},"vehicle_type_id":"4","last_reported":1736154626,"current_range_meters":6400,"station_id":"","pricing_plan_id":"cebpf4jnsgd1na2vs0mg"},{"bike_id":"df7eb6fa-4209-4d04-be84-91f6dd7239e4","system_id":"levelo_inurba_marseille","lat":43.28937,"lon":5.39639,"is_reserved":false,"is_disabled":false,"rental_uris":{"android":"levelo://app?vid=df7eb6fa-4209-4d04-be84-91f6dd7239e4","ios":"levelo://app?vid=df7eb6fa-4209-4d04-be84-91f6dd7239e4"},"vehicle_type_id":"4","last_reported":1736154626,"current_range_meters":34000,"station_id":"ce4bh3h2rcd13ifvqdn0","pricing_plan_id":"cebpf4jnsgd1na2vs0mg"},{"bike_id":"a35977fb-8d2b-4c3c-b6d2-4d1db19cc00e","system_id":"levelo_inurba_marseille","lat":43.30546,"lon":5.36717,"is_reserved":false,"is_disabled":false,"rental_uris":{"android":"levelo://app?vid=a35977fb-8d2b-4c3c-b6d2-4d1db19cc00e","ios":"levelo://app?vid=a35977fb-8d2b-4c3c-b6d2-4d1db19cc00e"},"vehicle_type_id":"4","last_reported":1736154626,"current_range_meters":25600,"station_id":"ce4bgrp2rcd13ifvqc9g","pricing_plan_id":"cebpf4jnsgd1na2vs0mg"},{"bike_id":"6a595de3-0911-46a9-bdbf-4cca5437105e","system_id":"levelo_inurba_marseille","lat":43.23206,"lon":5.3554,"is_reserved":false,"is_disabled":false,"rental_uris":{"android":"levelo://app?vid=6a595de3-0911-46a9-bdbf-4cca5437105e","ios":"levelo://app?vid=6a595de3-0911-46a9-bdbf-4cca5437105e"},"vehicle_type_id":"4","last_reported":1736154626,"current_range_meters":22400,"station_id":"ce4bhu92rcd13ifvqi70","pricing_plan_id":"cebpf4jnsgd1na2vs0mg"},{"bike_id":"641d8acc-50b2-4173-ab23-c70f2a11d28e","system_id":"levelo_inurba_marseille","lat":43.28141,"lon":5.42643,"is_reserved":false,"is_disabled":true,"rental_uris":{"android":"levelo://app?vid=641d8acc-50b2-4173-ab23-c70f2a11d28e","ios":"levelo://app?vid=641d8acc-50b2-4173-ab23-c70f2a11d28e"},"vehicle_type_id":"4","last_reported":1736154626,"current_range_meters":28400,"station_id":"ce4bhnh2rcd13ifvqgug","pricing_plan_id":"cebpf4jnsgd1na2vs0mg"},{"bike_id":"15e503f5-1d52-42d6-a98f-33a61fd8b554","system_id":"levelo_inurba_marseille","lat":43.28465,"lon":5.35884,"is_reserved":false,"is_disabled":true,"rental_uris":{"android":"levelo://app?vid=15e503f5-1d52-42d6-a98f-33a61fd8b554","ios":"levelo://app?vid=15e503f5-1d52-42d6-a98f-33a61fd8b554"},"vehicle_type_id":"4","last_reported":1736154626,"current_range_meters":22800,"station_id":"ce4bhah2rcd13ifvqei0","pricing_plan_id":"cebpf4jnsgd1na2vs0mg"},{"bike_id":"6a6cde56-543d-4320-b530-a8d4d4944794","system_id":"levelo_inurba_marseille","lat":43.29899,"lon":5.43659,"is_reserved":false,"is_disabled":false,"rental_uris":{"android":"levelo://app?vid=6a6cde56-543d-4320-b530-a8d4d4944794","ios":"levelo://app?vid=6a6cde56-543d-4320-b530-a8d4d4944794"},"vehicle_type_id":"4","last_reported":1736154626,"current_range_meters":24800,"station_id":"ce4bhpp2rcd13ifvqhfg","pricing_plan_id":"cebpf4jnsgd1na2vs0mg"},{"bike_id":"73592c3a-584f-4d66-b4b1-5f9363f590c2","system_id":"levelo_inurba_marseille","lat":43.30907,"lon":5.36861,"is_reserved":false,"is_disabled":false,"rental_uris":{"android":"levelo://app?vid=73592c3a-584f-4d66-b4b1-5f9363f590c2","ios":"levelo://app?vid=73592c3a-584f-4d66-b4b1-5f9363f590c2"},"vehicle_type_id":"4","last_reported":1736154626,"current_range_meters":36000,"station_id":"ce4bgn92rcd13ifvqbvg","pricing_plan_id":"cebpf4jnsgd1na2vs0mg"},{"bike_id":"88fbd2f9-edba-4674-927d-ce8a9c56a0e7","system_id":"levelo_inurba_marseille","lat":43.28155,"lon":5.42643,"is_reserved":false,"is_disabled":false,"rental_uris":{"android":"levelo://app?vid=88fbd2f9-edba-4674-927d-ce8a9c56a0e7","ios":"levelo://app?vid=88fbd2f9-edba-4674-927d-ce8a9c56a0e7"},"vehicle_type_id":"4","last_reported":1736154626,"current_range_meters":28400,"station_id":"ce4bhnh2rcd13ifvqgug","pricing_plan_id":"cebpf4jnsgd1na2vs0mg"},{"bike_id":"7a600684-eb0b-45d7-9636-59a3e2e6490c","system_id":"levelo_inurba_marseille","lat":43.27978,"lon":5.38659,"is_reserved":false,"is_disabled":true,"rental_uris":{"android":"levelo://app?vid=7a600684-eb0b-45d7-9636-59a3e2e6490c","ios":"levelo://app?vid=7a600684-eb0b-45d7-9636-59a3e2e6490c"},"vehicle_type_id":"4","last_reported":1736154626,"current_range_meters":30000,"station_id":"","pricing_plan_id":"cebpf4jnsgd1na2vs0mg"},{"bike_id":"1d0bbe0f-f700-4582-ac8d-9f2887749fbf","system_id":"levelo_inurba_marseille","lat":43.28463,"lon":5.38437,"is_reserved":false,"is_disabled":true,"rental_uris":{"android":"levelo://app?vid=1d0bbe0f-f700-4582-ac8d-9f2887749fbf","ios":"levelo://app?vid=1d0bbe0f-f700-4582-ac8d-9f2887749fbf"},"vehicle_type_id":"4","last_reported":1736154626,"current_range_meters":38000,"station_id":"ce4bh512rcd13ifvqe3g","pricing_plan_id":"cebpf4jnsgd1na2vs0mg"},{"bike_id":"160344ce-aa76-4a0e-990e-37fda15381c1","system_id":"levelo_inurba_marseille","lat":43.26703,"lon":5.38248,"is_reserved":false,"is_disabled":false,"rental_uris":{"android":"levelo://app?vid=160344ce-aa76-4a0e-990e-37fda15381c1","ios":"levelo://app?vid=160344ce-aa76-4a0e-990e-37fda15381c1"},"vehicle_type_id":"4","last_reported":1736154626,"current_range_meters":34000,"station_id":"ce4bhg92rcd13ifvqf90","pricing_plan_id":"cebpf4jnsgd1na2vs0mg"},{"bike_id":"4c80bb1a-a897-4d0c-bf1e-4fea0e939916","system_id":"levelo_inurba_marseille","lat":43.25909,"lon":5.4089,"is_reserved":false,"is_disabled":false,"rental_uris":{"android":"levelo://app?vid=4c80bb1a-a897-4d0c-bf1e-4fea0e939916","ios":"levelo://app?vid=4c80bb1a-a897-4d0c-bf1e-4fea0e939916"},"vehicle_type_id":"4","last_reported":1736154626,"current_range_meters":35200,"station_id":"ce4bhm92rcd13ifvqglg","pricing_plan_id":"cebpf4jnsgd1na2vs0mg"},{"bike_id":"cc2efdd1-beaf-4fd4-918b-092fd4e8fead","system_id":"levelo_inurba_marseille","lat":43.24177,"lon":5.39732,"is_reserved":false,"is_disabled":false,"rental_uris":{"android":"levelo://app?vid=cc2efdd1-beaf-4fd4-918b-092fd4e8fead","ios":"levelo://app?vid=cc2efdd1-beaf-4fd4-918b-092fd4e8fead"},"vehicle_type_id":"4","last_reported":1736154626,"current_range_meters":16400,"station_id":"ce4bhn12rcd13ifvqgpg","pricing_plan_id":"cebpf4jnsgd1na2vs0mg"},{"bike_id":"c0430a3e-098b-4436-8736-05aa34a70f80","system_id":"levelo_inurba_marseille","lat":43.31334,"lon":5.36736,"is_reserved":false,"is_disabled":false,"rental_uris":{"android":"levelo://app?vid=c0430a3e-098b-4436-8736-05aa34a70f80","ios":"levelo://app?vid=c0430a3e-098b-4436-8736-05aa34a70f80"},"vehicle_type_id":"4","last_reported":1736154626,"current_range_meters":39200,"station_id":"ce4bgr92rcd13ifvqc6g","pricing_plan_id":"cebpf4jnsgd1na2vs0mg"},{"bike_id":"c80cec36-d313-41ad-bf5e-908a22a7fd56","system_id":"levelo_inurba_marseille","lat":43.24062,"lon":5.37774,"is_reserved":false,"is_disabled":false,"rental_uris":{"android":"levelo://app?vid=c80cec36-d313-41ad-bf5e-908a22a7fd56","ios":"levelo://app?vid=c80cec36-d313-41ad-bf5e-908a22a7fd56"},"vehicle_type_id":"4","last_reported":1736154626,"current_range_meters":14000,"station_id":"ce4bhnp2rcd13ifvqgvg","pricing_plan_id":"cebpf4jnsgd1na2vs0mg"},{"bike_id":"237eb7a7-7331-4631-9377-6cdbdc6e4e98","system_id":"levelo_inurba_marseille","lat":43.26555,"lon":5.3901,"is_reserved":false,"is_disabled":true,"rental_uris":{"android":"levelo://app?vid=237eb7a7-7331-4631-9377-6cdbdc6e4e98","ios":"levelo://app?vid=237eb7a7-7331-4631-9377-6cdbdc6e4e98"},"vehicle_type_id":"4","last_reported":1736154626,"current_range_meters":36400,"station_id":"ce4bhe12rcd13ifvqf30","pricing_plan_id":"cebpf4jnsgd1na2vs0mg"},{"bike_id":"a4141d11-e8d7-441b-a2b6-ac4d2e2f8991","system_id":"levelo_inurba_marseille","lat":43.29048,"lon":5.35917,"is_reserved":false,"is_disabled":false,"rental_uris":{"android":"levelo://app?vid=a4141d11-e8d7-441b-a2b6-ac4d2e2f8991","ios":"levelo://app?vid=a4141d11-e8d7-441b-a2b6-ac4d2e2f8991"},"vehicle_type_id":"4","last_reported":1736154626,"current_range_meters":28800,"station_id":"ce4bha92rcd13ifvqeg0","pricing_plan_id":"cebpf4jnsgd1na2vs0mg"},{"bike_id":"2a8f187b-57d8-4299-8fc9-c77b04f1e8d6","system_id":"levelo_inurba_marseille","lat":43.30941,"lon":5.39054,"is_reserved":false,"is_disabled":false,"rental_uris":{"android":"levelo://app?vid=2a8f187b-57d8-4299-8fc9-c77b04f1e8d6","ios":"levelo://app?vid=2a8f187b-57d8-4299-8fc9-c77b04f1e8d6"},"vehicle_type_id":"4","last_reported":1736154626,"current_range_meters":38800,"station_id":"ce4bgup2rcd13ifvqco0","pricing_plan_id":"cebpf4jnsgd1na2vs0mg"},{"bike_id":"fbc601f7-14c3-4af3-aa81-d6625e5cbef9","system_id":"levelo_inurba_marseille","lat":43.305973,"lon":5.39349,"is_reserved":false,"is_disabled":false,"rental_uris":{"android":"levelo://app?vid=fbc601f7-14c3-4af3-aa81-d6625e5cbef9","ios":"levelo://app?vid=fbc601f7-14c3-4af3-aa81-d6625e5cbef9"},"vehicle_type_id":"4","last_reported":1736154626,"current_range_meters":37600,"station_id":"ce4bh0p2rcd13ifvqd80","pricing_plan_id":"cebpf4jnsgd1na2vs0mg"},{"bike_id":"983a939f-0c90-4b41-8e07-1ba37a328643","system_id":"levelo_inurba_marseille","lat":43.241681,"lon":5.36395,"is_reserved":false,"is_disabled":false,"rental_uris":{"android":"levelo://app?vid=983a939f-0c90-4b41-8e07-1ba37a328643","ios":"levelo://app?vid=983a939f-0c90-4b41-8e07-1ba37a328643"},"vehicle_type_id":"4","last_reported":1736154626,"current_range_meters":16800,"station_id":"cpo36qri1sfpv3e86is0","pricing_plan_id":"cebpf4jnsgd1na2vs0mg"},{"bike_id":"e92918ec-92c9-453f-8a2f-aeaed83ac5fd","system_id":"levelo_inurba_marseille","lat":43.24072,"lon":5.3776,"is_reserved":false,"is_disabled":true,"rental_uris":{"android":"levelo://app?vid=e92918ec-92c9-453f-8a2f-aeaed83ac5fd","ios":"levelo://app?vid=e92918ec-92c9-453f-8a2f-aeaed83ac5fd"},"vehicle_type_id":"4","last_reported":1736154626,"current_range_meters":38000,"station_id":"ce4bhnp2rcd13ifvqgvg","pricing_plan_id":"cebpf4jnsgd1na2vs0mg"},{"bike_id":"a1b6d721-c347-4a9e-8f95-533d4cfedc53","system_id":"levelo_inurba_marseille","lat":43.3094,"lon":5.39046,"is_reserved":false,"is_disabled":false,"rental_uris":{"android":"levelo://app?vid=a1b6d721-c347-4a9e-8f95-533d4cfedc53","ios":"levelo://app?vid=a1b6d721-c347-4a9e-8f95-533d4cfedc53"},"vehicle_type_id":"4","last_reported":1736154626,"current_range_meters":30800,"station_id":"ce4bgup2rcd13ifvqco0","pricing_plan_id":"cebpf4jnsgd1na2vs0mg"},{"bike_id":"405b5dcf-133d-442c-97f5-2275dc0aae11","system_id":"levelo_inurba_marseille","lat":43.28946,"lon":5.39645,"is_reserved":false,"is_disabled":false,"rental_uris":{"android":"levelo://app?vid=405b5dcf-133d-442c-97f5-2275dc0aae11","ios":"levelo://app?vid=405b5dcf-133d-442c-97f5-2275dc0aae11"},"vehicle_type_id":"4","last_reported":1736154626,"current_range_meters":29600,"station_id":"ce4bh3h2rcd13ifvqdn0","pricing_plan_id":"cebpf4jnsgd1na2vs0mg"},{"bike_id":"794820a8-3ae3-4e47-b94b-63ea56986ff5","system_id":"levelo_inurba_marseille","lat":43.29529,"lon":5.42267,"is_reserved":false,"is_disabled":false,"rental_uris":{"android":"levelo://app?vid=794820a8-3ae3-4e47-b94b-63ea56986ff5","ios":"levelo://app?vid=794820a8-3ae3-4e47-b94b-63ea56986ff5"},"vehicle_type_id":"4","last_reported":1736154626,"current_range_meters":17600,"station_id":"ce4bhph2rcd13ifvqhdg","pricing_plan_id":"cebpf4jnsgd1na2vs0mg"},{"bike_id":"a3684cb1-04c8-4ef2-bc67-1ac0cdd44f1d","system_id":"levelo_inurba_marseille","lat":43.31488,"lon":5.37293,"is_reserved":false,"is_disabled":false,"rental_uris":{"android":"levelo://app?vid=a3684cb1-04c8-4ef2-bc67-1ac0cdd44f1d","ios":"levelo://app?vid=a3684cb1-04c8-4ef2-bc67-1ac0cdd44f1d"},"vehicle_type_id":"4","last_reported":1736154626,"current_range_meters":35200,"station_id":"ce4bgt12rcd13ifvqcd0","pricing_plan_id":"cebpf4jnsgd1na2vs0mg"},{"bike_id":"e5ff7af2-b214-48ea-9a39-9695def757c4","system_id":"levelo_inurba_marseille","lat":43.26195,"lon":5.37449,"is_reserved":false,"is_disabled":true,"rental_uris":{"android":"levelo://app?vid=e5ff7af2-b214-48ea-9a39-9695def757c4","ios":"levelo://app?vid=e5ff7af2-b214-48ea-9a39-9695def757c4"},"vehicle_type_id":"4","last_reported":1736154626,"current_range_meters":1200,"station_id":"ce4bhgp2rcd13ifvqfc0","pricing_plan_id":"cebpf4jnsgd1na2vs0mg"},{"bike_id":"cc51eef2-43b5-4f5d-b51c-d87025da10fe","system_id":"levelo_inurba_marseille","lat":43.27173,"lon":5.40989,"is_reserved":false,"is_disabled":false,"rental_uris":{"android":"levelo://app?vid=cc51eef2-43b5-4f5d-b51c-d87025da10fe","ios":"levelo://app?vid=cc51eef2-43b5-4f5d-b51c-d87025da10fe"},"vehicle_type_id":"4","last_reported":1736154626,"current_range_meters":36800,"station_id":"ce4bhl12rcd13ifvqgf0","pricing_plan_id":"cebpf4jnsgd1na2vs0mg"},{"bike_id":"cca2f7c7-45e7-4f8a-80d9-cffca2b70c93","system_id":"levelo_inurba_marseille","lat":43.26662,"lon":5.38251,"is_reserved":false,"is_disabled":true,"rental_uris":{"android":"levelo://app?vid=cca2f7c7-45e7-4f8a-80d9-cffca2b70c93","ios":"levelo://app?vid=cca2f7c7-45e7-4f8a-80d9-cffca2b70c93"},"vehicle_type_id":"4","last_reported":1736154626,"current_range_meters":36800,"station_id":"ce4bhg92rcd13ifvqf90","pricing_plan_id":"cebpf4jnsgd1na2vs0mg"},{"bike_id":"f2428d1a-3fb9-49d2-834e-96d8c7d32e18","system_id":"levelo_inurba_marseille","lat":43.29277,"lon":5.37429,"is_reserved":false,"is_disabled":false,"rental_uris":{"android":"levelo://app?vid=f2428d1a-3fb9-49d2-834e-96d8c7d32e18","ios":"levelo://app?vid=f2428d1a-3fb9-49d2-834e-96d8c7d32e18"},"vehicle_type_id":"4","last_reported":1736154626,"current_range_meters":38000,"station_id":"ce4bgi12rcd13ifvqb70","pricing_plan_id":"cebpf4jnsgd1na2vs0mg"},{"bike_id":"de61784b-9926-4849-b558-4384f26dad49","system_id":"levelo_inurba_marseille","lat":43.28484,"lon":5.38434,"is_reserved":false,"is_disabled":true,"rental_uris":{"android":"levelo://app?vid=de61784b-9926-4849-b558-4384f26dad49","ios":"levelo://app?vid=de61784b-9926-4849-b558-4384f26dad49"},"vehicle_type_id":"4","last_reported":1736154626,"current_range_meters":37600,"station_id":"ce4bh512rcd13ifvqe3g","pricing_plan_id":"cebpf4jnsgd1na2vs0mg"},{"bike_id":"bf9a4f0e-9c60-40a3-a01f-1255129092d7","system_id":"levelo_inurba_marseille","lat":43.29092,"lon":5.38149,"is_reserved":false,"is_disabled":false,"rental_uris":{"android":"levelo://app?vid=bf9a4f0e-9c60-40a3-a01f-1255129092d7","ios":"levelo://app?vid=bf9a4f0e-9c60-40a3-a01f-1255129092d7"},"vehicle_type_id":"4","last_reported":1736154626,"current_range_meters":24800,"station_id":"ce4bh512rcd13ifvqe2g","pricing_plan_id":"cebpf4jnsgd1na2vs0mg"},{"bike_id":"ddf01219-50df-41a7-915e-92bf35ba3207","system_id":"levelo_inurba_marseille","lat":43.2407,"lon":5.37763,"is_reserved":false,"is_disabled":false,"rental_uris":{"android":"levelo://app?vid=ddf01219-50df-41a7-915e-92bf35ba3207","ios":"levelo://app?vid=ddf01219-50df-41a7-915e-92bf35ba3207"},"vehicle_type_id":"4","last_reported":1736154626,"current_range_meters":28400,"station_id":"ce4bhnp2rcd13ifvqgvg","pricing_plan_id":"cebpf4jnsgd1na2vs0mg"},{"bike_id":"182c8827-ad8b-4aa6-9862-5b2da55309dc","system_id":"levelo_inurba_marseille","lat":43.2922,"lon":5.36053,"is_reserved":false,"is_disabled":true,"rental_uris":{"android":"levelo://app?vid=182c8827-ad8b-4aa6-9862-5b2da55309dc","ios":"levelo://app?vid=182c8827-ad8b-4aa6-9862-5b2da55309dc"},"vehicle_type_id":"4","last_reported":1736154626,"current_range_meters":36000,"station_id":"ce4bhbh2rcd13ifvqeqg","pricing_plan_id":"cebpf4jnsgd1na2vs0mg"},{"bike_id":"05925c95-d35a-4389-a1c2-1abe457d716c","system_id":"levelo_inurba_marseille","lat":43.29302,"lon":5.37461,"is_reserved":false,"is_disabled":false,"rental_uris":{"android":"levelo://app?vid=05925c95-d35a-4389-a1c2-1abe457d716c","ios":"levelo://app?vid=05925c95-d35a-4389-a1c2-1abe457d716c"},"vehicle_type_id":"4","last_reported":1736154626,"current_range_meters":20400,"station_id":"ce4bgi12rcd13ifvqb70","pricing_plan_id":"cebpf4jnsgd1na2vs0mg"},{"bike_id":"d4a9d3db-0cbc-4e84-8afc-afe48b86587f","system_id":"levelo_inurba_marseille","lat":43.24058,"lon":5.3776,"is_reserved":false,"is_disabled":false,"rental_uris":{"android":"levelo://app?vid=d4a9d3db-0cbc-4e84-8afc-afe48b86587f","ios":"levelo://app?vid=d4a9d3db-0cbc-4e84-8afc-afe48b86587f"},"vehicle_type_id":"4","last_reported":1736154626,"current_range_meters":9600,"station_id":"ce4bhnp2rcd13ifvqgvg","pricing_plan_id":"cebpf4jnsgd1na2vs0mg"},{"bike_id":"ac98b8e0-f856-4634-9465-4c05c47ccf61","system_id":"levelo_inurba_marseille","lat":43.29152,"lon":5.37176,"is_reserved":false,"is_disabled":false,"rental_uris":{"android":"levelo://app?vid=ac98b8e0-f856-4634-9465-4c05c47ccf61","ios":"levelo://app?vid=ac98b8e0-f856-4634-9465-4c05c47ccf61"},"vehicle_type_id":"4","last_reported":1736154626,"current_range_meters":20800,"station_id":"ce4bha92rcd13ifvqeh0","pricing_plan_id":"cebpf4jnsgd1na2vs0mg"},{"bike_id":"2a3fd9f0-e99b-44d7-8c1f-74262d16d6a4","system_id":"levelo_inurba_marseille","lat":43.304837,"lon":5.379097,"is_reserved":false,"is_disabled":false,"rental_uris":{"android":"levelo://app?vid=2a3fd9f0-e99b-44d7-8c1f-74262d16d6a4","ios":"levelo://app?vid=2a3fd9f0-e99b-44d7-8c1f-74262d16d6a4"},"vehicle_type_id":"4","last_reported":1736154626,"current_range_meters":32400,"station_id":"ce4bgup2rcd13ifvqcn0","pricing_plan_id":"cebpf4jnsgd1na2vs0mg"},{"bike_id":"8bacdaca-b499-4837-9d6b-73ff9ef5b0d7","system_id":"levelo_inurba_marseille","lat":43.30495,"lon":5.38079,"is_reserved":false,"is_disabled":false,"rental_uris":{"android":"levelo://app?vid=8bacdaca-b499-4837-9d6b-73ff9ef5b0d7","ios":"levelo://app?vid=8bacdaca-b499-4837-9d6b-73ff9ef5b0d7"},"vehicle_type_id":"4","last_reported":1736154626,"current_range_meters":28800,"station_id":"","pricing_plan_id":"cebpf4jnsgd1na2vs0mg"},{"bike_id":"1cc3af69-3478-4fe3-bfe7-129d9948856f","system_id":"levelo_inurba_marseille","lat":43.27973,"lon":5.38729,"is_reserved":false,"is_disabled":false,"rental_uris":{"android":"levelo://app?vid=1cc3af69-3478-4fe3-bfe7-129d9948856f","ios":"levelo://app?vid=1cc3af69-3478-4fe3-bfe7-129d9948856f"},"vehicle_type_id":"4","last_reported":1736154626,"current_range_meters":24800,"station_id":"ce4bhg12rcd13ifvqf80","pricing_plan_id":"cebpf4jnsgd1na2vs0mg"},{"bike_id":"3615c4a8-839e-424d-971f-0ec5edfc8084","system_id":"levelo_inurba_marseille","lat":43.2511,"lon":5.40332,"is_reserved":false,"is_disabled":false,"rental_uris":{"android":"levelo://app?vid=3615c4a8-839e-424d-971f-0ec5edfc8084","ios":"levelo://app?vid=3615c4a8-839e-424d-971f-0ec5edfc8084"},"vehicle_type_id":"4","last_reported":1736154626,"current_range_meters":12800,"station_id":"ce4bhlh2rcd13ifvqgig","pricing_plan_id":"cebpf4jnsgd1na2vs0mg"},{"bike_id":"bacd7571-be15-43c7-8506-8086a631a213","system_id":"levelo_inurba_marseille","lat":43.25116,"lon":5.40333,"is_reserved":false,"is_disabled":false,"rental_uris":{"android":"levelo://app?vid=bacd7571-be15-43c7-8506-8086a631a213","ios":"levelo://app?vid=bacd7571-be15-43c7-8506-8086a631a213"},"vehicle_type_id":"4","last_reported":1736154626,"current_range_meters":38800,"station_id":"ce4bhlh2rcd13ifvqgig","pricing_plan_id":"cebpf4jnsgd1na2vs0mg"},{"bike_id":"ddb0cdad-bc85-4c58-83d7-0834f1430f02","system_id":"levelo_inurba_marseille","lat":43.26553,"lon":5.37284,"is_reserved":false,"is_disabled":false,"rental_uris":{"android":"levelo://app?vid=ddb0cdad-bc85-4c58-83d7-0834f1430f02","ios":"levelo://app?vid=ddb0cdad-bc85-4c58-83d7-0834f1430f02"},"vehicle_type_id":"4","last_reported":1736154626,"current_range_meters":24800,"station_id":"ce4bhg12rcd13ifvqf70","pricing_plan_id":"cebpf4jnsgd1na2vs0mg"},{"bike_id":"6c15ab7d-af59-4769-b84d-bc2dfca3aa2d","system_id":"levelo_inurba_marseille","lat":43.3018,"lon":5.36628,"is_reserved":false,"is_disabled":false,"rental_uris":{"android":"levelo://app?vid=6c15ab7d-af59-4769-b84d-bc2dfca3aa2d","ios":"levelo://app?vid=6c15ab7d-af59-4769-b84d-bc2dfca3aa2d"},"vehicle_type_id":"4","last_reported":1736154626,"current_range_meters":34000,"station_id":"ce4bgrh2rcd13ifvqc8g","pricing_plan_id":"cebpf4jnsgd1na2vs0mg"},{"bike_id":"24bccac7-1e4b-45e8-bc23-0feeff5509f0","system_id":"levelo_inurba_marseille","lat":43.264992,"lon":5.395461,"is_reserved":false,"is_disabled":true,"rental_uris":{"android":"levelo://app?vid=24bccac7-1e4b-45e8-bc23-0feeff5509f0","ios":"levelo://app?vid=24bccac7-1e4b-45e8-bc23-0feeff5509f0"},"vehicle_type_id":"4","last_reported":1736154626,"current_range_meters":0,"station_id":"ce4bhi12rcd13ifvqfq0","pricing_plan_id":"cebpf4jnsgd1na2vs0mg"},{"bike_id":"9486067e-e6c1-4732-ac14-15127e64ca59","system_id":"levelo_inurba_marseille","lat":43.3053,"lon":5.36712,"is_reserved":false,"is_disabled":false,"rental_uris":{"android":"levelo://app?vid=9486067e-e6c1-4732-ac14-15127e64ca59","ios":"levelo://app?vid=9486067e-e6c1-4732-ac14-15127e64ca59"},"vehicle_type_id":"4","last_reported":1736154626,"current_range_meters":34800,"station_id":"ce4bgrp2rcd13ifvqc9g","pricing_plan_id":"cebpf4jnsgd1na2vs0mg"},{"bike_id":"b0810445-4943-4ac1-893d-adbc49f9d502","system_id":"levelo_inurba_marseille","lat":43.3053,"lon":5.36713,"is_reserved":false,"is_disabled":false,"rental_uris":{"android":"levelo://app?vid=b0810445-4943-4ac1-893d-adbc49f9d502","ios":"levelo://app?vid=b0810445-4943-4ac1-893d-adbc49f9d502"},"vehicle_type_id":"4","last_reported":1736154626,"current_range_meters":32000,"station_id":"ce4bgrp2rcd13ifvqc9g","pricing_plan_id":"cebpf4jnsgd1na2vs0mg"},{"bike_id":"d400eb61-16e5-4772-875c-c1ea2e3b188d","system_id":"levelo_inurba_marseille","lat":43.27685,"lon":5.38879,"is_reserved":false,"is_disabled":false,"rental_uris":{"android":"levelo://app?vid=d400eb61-16e5-4772-875c-c1ea2e3b188d","ios":"levelo://app?vid=d400eb61-16e5-4772-875c-c1ea2e3b188d"},"vehicle_type_id":"4","last_reported":1736154626,"current_range_meters":38000,"station_id":"ce4bhi12rcd13ifvqfo0","pricing_plan_id":"cebpf4jnsgd1na2vs0mg"},{"bike_id":"cffd017d-8541-4adb-92a2-b3ad33d37f2a","system_id":"levelo_inurba_marseille","lat":43.29227,"lon":5.40176,"is_reserved":false,"is_disabled":true,"rental_uris":{"android":"levelo://app?vid=cffd017d-8541-4adb-92a2-b3ad33d37f2a","ios":"levelo://app?vid=cffd017d-8541-4adb-92a2-b3ad33d37f2a"},"vehicle_type_id":"4","last_reported":1736154626,"current_range_meters":38400,"station_id":"","pricing_plan_id":"cebpf4jnsgd1na2vs0mg"},{"bike_id":"55eb4f9e-055d-45a9-a404-9e0d3a07a877","system_id":"levelo_inurba_marseille","lat":43.29262,"lon":5.40114,"is_reserved":false,"is_disabled":true,"rental_uris":{"android":"levelo://app?vid=55eb4f9e-055d-45a9-a404-9e0d3a07a877","ios":"levelo://app?vid=55eb4f9e-055d-45a9-a404-9e0d3a07a877"},"vehicle_type_id":"4","last_reported":1736154626,"current_range_meters":38800,"station_id":"ce4bh312rcd13ifvqdk0","pricing_plan_id":"cebpf4jnsgd1na2vs0mg"},{"bike_id":"9af40ae0-bbcf-42b6-bd88-11b8b2eb507f","system_id":"levelo_inurba_marseille","lat":43.25084,"lon":5.39522,"is_reserved":false,"is_disabled":false,"rental_uris":{"android":"levelo://app?vid=9af40ae0-bbcf-42b6-bd88-11b8b2eb507f","ios":"levelo://app?vid=9af40ae0-bbcf-42b6-bd88-11b8b2eb507f"},"vehicle_type_id":"4","last_reported":1736154626,"current_range_meters":14400,"station_id":"ce4bhm12rcd13ifvqgkg","pricing_plan_id":"cebpf4jnsgd1na2vs0mg"},{"bike_id":"177c1e4d-2fcb-4b52-a3bf-88a2132c12b4","system_id":"levelo_inurba_marseille","lat":43.286964,"lon":5.374089,"is_reserved":false,"is_disabled":true,"rental_uris":{"android":"levelo://app?vid=177c1e4d-2fcb-4b52-a3bf-88a2132c12b4","ios":"levelo://app?vid=177c1e4d-2fcb-4b52-a3bf-88a2132c12b4"},"vehicle_type_id":"4","last_reported":1736154626,"current_range_meters":0,"station_id":"ce4bh3p2rcd13ifvqdq0","pricing_plan_id":"cebpf4jnsgd1na2vs0mg"},{"bike_id":"d45d0089-5e8c-41ac-a04c-9866c8dc94cc","system_id":"levelo_inurba_marseille","lat":43.23188,"lon":5.35571,"is_reserved":false,"is_disabled":false,"rental_uris":{"android":"levelo://app?vid=d45d0089-5e8c-41ac-a04c-9866c8dc94cc","ios":"levelo://app?vid=d45d0089-5e8c-41ac-a04c-9866c8dc94cc"},"vehicle_type_id":"4","last_reported":1736154626,"current_range_meters":8400,"station_id":"ce4bhu92rcd13ifvqi70","pricing_plan_id":"cebpf4jnsgd1na2vs0mg"},{"bike_id":"780e8796-b286-40bb-966d-adf874d2f85e","system_id":"levelo_inurba_marseille","lat":43.28944,"lon":5.39632,"is_reserved":false,"is_disabled":false,"rental_uris":{"android":"levelo://app?vid=780e8796-b286-40bb-966d-adf874d2f85e","ios":"levelo://app?vid=780e8796-b286-40bb-966d-adf874d2f85e"},"vehicle_type_id":"4","last_reported":1736154626,"current_range_meters":32800,"station_id":"ce4bh3h2rcd13ifvqdn0","pricing_plan_id":"cebpf4jnsgd1na2vs0mg"},{"bike_id":"b5de95e0-8f34-41aa-a5fc-c4e76e03a994","system_id":"levelo_inurba_marseille","lat":43.28086,"lon":5.39661,"is_reserved":false,"is_disabled":true,"rental_uris":{"android":"levelo://app?vid=b5de95e0-8f34-41aa-a5fc-c4e76e03a994","ios":"levelo://app?vid=b5de95e0-8f34-41aa-a5fc-c4e76e03a994"},"vehicle_type_id":"4","last_reported":1736154626,"current_range_meters":28000,"station_id":"ce4bho12rcd13ifvqh2g","pricing_plan_id":"cebpf4jnsgd1na2vs0mg"},{"bike_id":"aa33a53e-f806-43a8-ad7e-8e2bd9644426","system_id":"levelo_inurba_marseille","lat":43.32345,"lon":5.40629,"is_reserved":false,"is_disabled":true,"rental_uris":{"android":"levelo://app?vid=aa33a53e-f806-43a8-ad7e-8e2bd9644426","ios":"levelo://app?vid=aa33a53e-f806-43a8-ad7e-8e2bd9644426"},"vehicle_type_id":"4","last_reported":1736154626,"current_range_meters":0,"station_id":"ce4bhq92rcd13ifvqhjg","pricing_plan_id":"cebpf4jnsgd1na2vs0mg"},{"bike_id":"1aa41b11-ce0f-464e-9feb-af17d49b2af1","system_id":"levelo_inurba_marseille","lat":43.29622,"lon":5.37744,"is_reserved":false,"is_disabled":false,"rental_uris":{"android":"levelo://app?vid=1aa41b11-ce0f-464e-9feb-af17d49b2af1","ios":"levelo://app?vid=1aa41b11-ce0f-464e-9feb-af17d49b2af1"},"vehicle_type_id":"4","last_reported":1736154626,"current_range_meters":38000,"station_id":"ce4bgi92rcd13ifvqb90","pricing_plan_id":"cebpf4jnsgd1na2vs0mg"},{"bike_id":"8fa26ffa-d01d-41b4-aec0-f082ee836363","system_id":"levelo_inurba_marseille","lat":43.32284,"lon":5.38272,"is_reserved":false,"is_disabled":false,"rental_uris":{"android":"levelo://app?vid=8fa26ffa-d01d-41b4-aec0-f082ee836363","ios":"levelo://app?vid=8fa26ffa-d01d-41b4-aec0-f082ee836363"},"vehicle_type_id":"4","last_reported":1736154626,"current_range_meters":20000,"station_id":"ce4bhr12rcd13ifvqhqg","pricing_plan_id":"cebpf4jnsgd1na2vs0mg"},{"bike_id":"bb896405-905f-4110-a07e-defff063aef8","system_id":"levelo_inurba_marseille","lat":43.29298,"lon":5.37439,"is_reserved":false,"is_disabled":true,"rental_uris":{"android":"levelo://app?vid=bb896405-905f-4110-a07e-defff063aef8","ios":"levelo://app?vid=bb896405-905f-4110-a07e-defff063aef8"},"vehicle_type_id":"4","last_reported":1736154626,"current_range_meters":34000,"station_id":"ce4bgi12rcd13ifvqb70","pricing_plan_id":"cebpf4jnsgd1na2vs0mg"},{"bike_id":"21d339bb-7c1c-4a6c-83d3-ceee585ba7f7","system_id":"levelo_inurba_marseille","lat":43.29003,"lon":5.35613,"is_reserved":false,"is_disabled":false,"rental_uris":{"android":"levelo://app?vid=21d339bb-7c1c-4a6c-83d3-ceee585ba7f7","ios":"levelo://app?vid=21d339bb-7c1c-4a6c-83d3-ceee585ba7f7"},"vehicle_type_id":"4","last_reported":1736154626,"current_range_meters":16000,"station_id":"ce4bhb92rcd13ifvqen0","pricing_plan_id":"cebpf4jnsgd1na2vs0mg"},{"bike_id":"8df41abf-ed14-4589-9867-b5613d43a037","system_id":"levelo_inurba_marseille","lat":43.32477,"lon":5.36569,"is_reserved":false,"is_disabled":false,"rental_uris":{"android":"levelo://app?vid=8df41abf-ed14-4589-9867-b5613d43a037","ios":"levelo://app?vid=8df41abf-ed14-4589-9867-b5613d43a037"},"vehicle_type_id":"4","last_reported":1736154626,"current_range_meters":38400,"station_id":"ce4bhs12rcd13ifvqhvg","pricing_plan_id":"cebpf4jnsgd1na2vs0mg"},{"bike_id":"45744d07-eb73-453c-b6ee-d9a256b9901b","system_id":"levelo_inurba_marseille","lat":43.30956,"lon":5.3902,"is_reserved":false,"is_disabled":true,"rental_uris":{"android":"levelo://app?vid=45744d07-eb73-453c-b6ee-d9a256b9901b","ios":"levelo://app?vid=45744d07-eb73-453c-b6ee-d9a256b9901b"},"vehicle_type_id":"4","last_reported":1736154626,"current_range_meters":9600,"station_id":"ce4bgup2rcd13ifvqco0","pricing_plan_id":"cebpf4jnsgd1na2vs0mg"},{"bike_id":"eba9155c-90eb-48cd-813d-cd11473e142f","system_id":"levelo_inurba_marseille","lat":43.29031,"lon":5.39986,"is_reserved":false,"is_disabled":false,"rental_uris":{"android":"levelo://app?vid=eba9155c-90eb-48cd-813d-cd11473e142f","ios":"levelo://app?vid=eba9155c-90eb-48cd-813d-cd11473e142f"},"vehicle_type_id":"4","last_reported":1736154626,"current_range_meters":30000,"station_id":"ce4bh392rcd13ifvqdm0","pricing_plan_id":"cebpf4jnsgd1na2vs0mg"},{"bike_id":"4fee4965-45a6-4701-8f9e-7d403934a1bd","system_id":"levelo_inurba_marseille","lat":43.30087,"lon":5.39099,"is_reserved":false,"is_disabled":false,"rental_uris":{"android":"levelo://app?vid=4fee4965-45a6-4701-8f9e-7d403934a1bd","ios":"levelo://app?vid=4fee4965-45a6-4701-8f9e-7d403934a1bd"},"vehicle_type_id":"4","last_reported":1736154626,"current_range_meters":19200,"station_id":"ce4bh192rcd13ifvqdb0","pricing_plan_id":"cebpf4jnsgd1na2vs0mg"},{"bike_id":"e14fc727-e110-4847-a3c5-e82ea6a6fcb8","system_id":"levelo_inurba_marseille","lat":43.28937,"lon":5.39638,"is_reserved":false,"is_disabled":true,"rental_uris":{"android":"levelo://app?vid=e14fc727-e110-4847-a3c5-e82ea6a6fcb8","ios":"levelo://app?vid=e14fc727-e110-4847-a3c5-e82ea6a6fcb8"},"vehicle_type_id":"4","last_reported":1736154626,"current_range_meters":32000,"station_id":"ce4bh3h2rcd13ifvqdn0","pricing_plan_id":"cebpf4jnsgd1na2vs0mg"},{"bike_id":"ad61caab-ed76-48fb-b594-4605be6c3c4b","system_id":"levelo_inurba_marseille","lat":43.29285,"lon":5.37167,"is_reserved":false,"is_disabled":true,"rental_uris":{"android":"levelo://app?vid=ad61caab-ed76-48fb-b594-4605be6c3c4b","ios":"levelo://app?vid=ad61caab-ed76-48fb-b594-4605be6c3c4b"},"vehicle_type_id":"4","last_reported":1736154626,"current_range_meters":33200,"station_id":"ce4bgh92rcd13ifvqb40","pricing_plan_id":"cebpf4jnsgd1na2vs0mg"},{"bike_id":"d0541b38-8e7e-4e1e-8666-5868b43eb4cc","system_id":"levelo_inurba_marseille","lat":43.25097,"lon":5.40344,"is_reserved":false,"is_disabled":false,"rental_uris":{"android":"levelo://app?vid=d0541b38-8e7e-4e1e-8666-5868b43eb4cc","ios":"levelo://app?vid=d0541b38-8e7e-4e1e-8666-5868b43eb4cc"},"vehicle_type_id":"4","last_reported":1736154626,"current_range_meters":38800,"station_id":"ce4bhlh2rcd13ifvqgig","pricing_plan_id":"cebpf4jnsgd1na2vs0mg"},{"bike_id":"b0f6aca8-3f91-4c48-a9ce-fc71c17d1788","system_id":"levelo_inurba_marseille","lat":43.29791,"lon":5.38095,"is_reserved":false,"is_disabled":false,"rental_uris":{"android":"levelo://app?vid=b0f6aca8-3f91-4c48-a9ce-fc71c17d1788","ios":"levelo://app?vid=b0f6aca8-3f91-4c48-a9ce-fc71c17d1788"},"vehicle_type_id":"4","last_reported":1736154626,"current_range_meters":38800,"station_id":"ce4bgip2rcd13ifvqbb0","pricing_plan_id":"cebpf4jnsgd1na2vs0mg"},{"bike_id":"e6a1844a-411d-4e2e-827d-f13a0839a281","system_id":"levelo_inurba_marseille","lat":43.25705,"lon":5.41065,"is_reserved":false,"is_disabled":false,"rental_uris":{"android":"levelo://app?vid=e6a1844a-411d-4e2e-827d-f13a0839a281","ios":"levelo://app?vid=e6a1844a-411d-4e2e-827d-f13a0839a281"},"vehicle_type_id":"4","last_reported":1736154626,"current_range_meters":24000,"station_id":"ce4bhkp2rcd13ifvqgd0","pricing_plan_id":"cebpf4jnsgd1na2vs0mg"},{"bike_id":"ad539604-9e59-421d-a71a-49da59bdd974","system_id":"levelo_inurba_marseille","lat":43.2903,"lon":5.38652,"is_reserved":false,"is_disabled":true,"rental_uris":{"android":"levelo://app?vid=ad539604-9e59-421d-a71a-49da59bdd974","ios":"levelo://app?vid=ad539604-9e59-421d-a71a-49da59bdd974"},"vehicle_type_id":"4","last_reported":1736154626,"current_range_meters":25600,"station_id":"ce4bh4p2rcd13ifvqe0g","pricing_plan_id":"cebpf4jnsgd1na2vs0mg"},{"bike_id":"dc8dceb5-ba1c-449e-9fc2-cec36b891020","system_id":"levelo_inurba_marseille","lat":43.3091,"lon":5.368458,"is_reserved":false,"is_disabled":false,"rental_uris":{"android":"levelo://app?vid=dc8dceb5-ba1c-449e-9fc2-cec36b891020","ios":"levelo://app?vid=dc8dceb5-ba1c-449e-9fc2-cec36b891020"},"vehicle_type_id":"4","last_reported":1736154626,"current_range_meters":38800,"station_id":"ce4bgn92rcd13ifvqbvg","pricing_plan_id":"cebpf4jnsgd1na2vs0mg"},{"bike_id":"d554e8a0-a628-457a-9334-ab5a6e471fc4","system_id":"levelo_inurba_marseille","lat":43.31356,"lon":5.36716,"is_reserved":false,"is_disabled":false,"rental_uris":{"android":"levelo://app?vid=d554e8a0-a628-457a-9334-ab5a6e471fc4","ios":"levelo://app?vid=d554e8a0-a628-457a-9334-ab5a6e471fc4"},"vehicle_type_id":"4","last_reported":1736154626,"current_range_meters":32000,"station_id":"ce4bgr92rcd13ifvqc6g","pricing_plan_id":"cebpf4jnsgd1na2vs0mg"},{"bike_id":"8a474426-cd46-4cf8-9edc-ef843a0ca02e","system_id":"levelo_inurba_marseille","lat":43.26531,"lon":5.39065,"is_reserved":false,"is_disabled":true,"rental_uris":{"android":"levelo://app?vid=8a474426-cd46-4cf8-9edc-ef843a0ca02e","ios":"levelo://app?vid=8a474426-cd46-4cf8-9edc-ef843a0ca02e"},"vehicle_type_id":"4","last_reported":1736154626,"current_range_meters":35200,"station_id":"","pricing_plan_id":"cebpf4jnsgd1na2vs0mg"},{"bike_id":"d0234cf8-3190-48a6-bab2-6c84efe1b44c","system_id":"levelo_inurba_marseille","lat":43.24798,"lon":5.37465,"is_reserved":false,"is_disabled":false,"rental_uris":{"android":"levelo://app?vid=d0234cf8-3190-48a6-bab2-6c84efe1b44c","ios":"levelo://app?vid=d0234cf8-3190-48a6-bab2-6c84efe1b44c"},"vehicle_type_id":"4","last_reported":1736154626,"current_range_meters":38800,"station_id":"ce4bhgh2rcd13ifvqfb0","pricing_plan_id":"cebpf4jnsgd1na2vs0mg"},{"bike_id":"bbf998ea-d252-4590-8711-16d78ff4b07c","system_id":"levelo_inurba_marseille","lat":43.24638,"lon":5.38897,"is_reserved":false,"is_disabled":false,"rental_uris":{"android":"levelo://app?vid=bbf998ea-d252-4590-8711-16d78ff4b07c","ios":"levelo://app?vid=bbf998ea-d252-4590-8711-16d78ff4b07c"},"vehicle_type_id":"4","last_reported":1736154626,"current_range_meters":30400,"station_id":"ce4bhg12rcd13ifvqf60","pricing_plan_id":"cebpf4jnsgd1na2vs0mg"},{"bike_id":"a861ccdd-8435-498a-bc42-68be058873a7","system_id":"levelo_inurba_marseille","lat":43.24802,"lon":5.3745,"is_reserved":false,"is_disabled":false,"rental_uris":{"android":"levelo://app?vid=a861ccdd-8435-498a-bc42-68be058873a7","ios":"levelo://app?vid=a861ccdd-8435-498a-bc42-68be058873a7"},"vehicle_type_id":"4","last_reported":1736154626,"current_range_meters":22800,"station_id":"ce4bhgh2rcd13ifvqfb0","pricing_plan_id":"cebpf4jnsgd1na2vs0mg"},{"bike_id":"d455a1f2-fb7f-480c-b03e-1cf1cbe15c4a","system_id":"levelo_inurba_marseille","lat":43.31503,"lon":5.37276,"is_reserved":false,"is_disabled":false,"rental_uris":{"android":"levelo://app?vid=d455a1f2-fb7f-480c-b03e-1cf1cbe15c4a","ios":"levelo://app?vid=d455a1f2-fb7f-480c-b03e-1cf1cbe15c4a"},"vehicle_type_id":"4","last_reported":1736154626,"current_range_meters":23200,"station_id":"ce4bgt12rcd13ifvqcd0","pricing_plan_id":"cebpf4jnsgd1na2vs0mg"},{"bike_id":"f5a4a49b-f269-4ec2-b80a-e579bf67a966","system_id":"levelo_inurba_marseille","lat":43.29524,"lon":5.361494,"is_reserved":false,"is_disabled":true,"rental_uris":{"android":"levelo://app?vid=f5a4a49b-f269-4ec2-b80a-e579bf67a966","ios":"levelo://app?vid=f5a4a49b-f269-4ec2-b80a-e579bf67a966"},"vehicle_type_id":"4","last_reported":1736154626,"current_range_meters":32000,"station_id":"","pricing_plan_id":"cebpf4jnsgd1na2vs0mg"},{"bike_id":"6f21fba1-6f8e-47c4-a476-286cca5f9cc6","system_id":"levelo_inurba_marseille","lat":43.28265,"lon":5.35082,"is_reserved":false,"is_disabled":true,"rental_uris":{"android":"levelo://app?vid=6f21fba1-6f8e-47c4-a476-286cca5f9cc6","ios":"levelo://app?vid=6f21fba1-6f8e-47c4-a476-286cca5f9cc6"},"vehicle_type_id":"4","last_reported":1736154626,"current_range_meters":0,"station_id":"ce4bhbp2rcd13ifvqerg","pricing_plan_id":"cebpf4jnsgd1na2vs0mg"},{"bike_id":"5b480178-d4a6-409d-bbd9-e2ff5657ece2","system_id":"levelo_inurba_marseille","lat":43.28569,"lon":5.3949,"is_reserved":false,"is_disabled":false,"rental_uris":{"android":"levelo://app?vid=5b480178-d4a6-409d-bbd9-e2ff5657ece2","ios":"levelo://app?vid=5b480178-d4a6-409d-bbd9-e2ff5657ece2"},"vehicle_type_id":"4","last_reported":1736154626,"current_range_meters":38400,"station_id":"ce4bh292rcd13ifvqdg0","pricing_plan_id":"cebpf4jnsgd1na2vs0mg"},{"bike_id":"714738de-0c80-47dd-b7c3-d3bd0c0bbb4b","system_id":"levelo_inurba_marseille","lat":43.32526,"lon":5.41437,"is_reserved":false,"is_disabled":false,"rental_uris":{"android":"levelo://app?vid=714738de-0c80-47dd-b7c3-d3bd0c0bbb4b","ios":"levelo://app?vid=714738de-0c80-47dd-b7c3-d3bd0c0bbb4b"},"vehicle_type_id":"4","last_reported":1736154626,"current_range_meters":36800,"station_id":"ce4bhq12rcd13ifvqhhg","pricing_plan_id":"cebpf4jnsgd1na2vs0mg"},{"bike_id":"22be6a65-747a-4b4c-8841-974b07e60f8e","system_id":"levelo_inurba_marseille","lat":43.26955,"lon":5.38613,"is_reserved":false,"is_disabled":false,"rental_uris":{"android":"levelo://app?vid=22be6a65-747a-4b4c-8841-974b07e60f8e","ios":"levelo://app?vid=22be6a65-747a-4b4c-8841-974b07e60f8e"},"vehicle_type_id":"4","last_reported":1736154626,"current_range_meters":37600,"station_id":"ce4bhh92rcd13ifvqfh0","pricing_plan_id":"cebpf4jnsgd1na2vs0mg"},{"bike_id":"9aa4529b-a905-4550-8ed2-e349067662bb","system_id":"levelo_inurba_marseille","lat":43.28729,"lon":5.37934,"is_reserved":false,"is_disabled":false,"rental_uris":{"android":"levelo://app?vid=9aa4529b-a905-4550-8ed2-e349067662bb","ios":"levelo://app?vid=9aa4529b-a905-4550-8ed2-e349067662bb"},"vehicle_type_id":"4","last_reported":1736154626,"current_range_meters":24400,"station_id":"ce4bh9p2rcd13ifvqec0","pricing_plan_id":"cebpf4jnsgd1na2vs0mg"},{"bike_id":"fe1d3f22-428d-4c0c-8fa7-4ff0e501540c","system_id":"levelo_inurba_marseille","lat":43.31403,"lon":5.36831,"is_reserved":false,"is_disabled":false,"rental_uris":{"android":"levelo://app?vid=fe1d3f22-428d-4c0c-8fa7-4ff0e501540c","ios":"levelo://app?vid=fe1d3f22-428d-4c0c-8fa7-4ff0e501540c"},"vehicle_type_id":"4","last_reported":1736154626,"current_range_meters":30000,"station_id":"ce4bgr92rcd13ifvqc6g","pricing_plan_id":"cebpf4jnsgd1na2vs0mg"},{"bike_id":"c237a75d-41bd-4e88-911b-631b6a308e6f","system_id":"levelo_inurba_marseille","lat":43.31517,"lon":5.38028,"is_reserved":false,"is_disabled":false,"rental_uris":{"android":"levelo://app?vid=c237a75d-41bd-4e88-911b-631b6a308e6f","ios":"levelo://app?vid=c237a75d-41bd-4e88-911b-631b6a308e6f"},"vehicle_type_id":"4","last_reported":1736154626,"current_range_meters":37600,"station_id":"ce4bhsp2rcd13ifvqi50","pricing_plan_id":"cebpf4jnsgd1na2vs0mg"},{"bike_id":"0bcfea18-61ca-412d-bded-b63f59943884","system_id":"levelo_inurba_marseille","lat":43.28641,"lon":5.35067,"is_reserved":false,"is_disabled":true,"rental_uris":{"android":"levelo://app?vid=0bcfea18-61ca-412d-bded-b63f59943884","ios":"levelo://app?vid=0bcfea18-61ca-412d-bded-b63f59943884"},"vehicle_type_id":"4","last_reported":1736154626,"current_range_meters":34000,"station_id":"ce4bhch2rcd13ifvqeug","pricing_plan_id":"cebpf4jnsgd1na2vs0mg"},{"bike_id":"5befd006-a601-4f1d-8fbe-6e419c854ac0","system_id":"levelo_inurba_marseille","lat":43.24052,"lon":5.37772,"is_reserved":false,"is_disabled":false,"rental_uris":{"android":"levelo://app?vid=5befd006-a601-4f1d-8fbe-6e419c854ac0","ios":"levelo://app?vid=5befd006-a601-4f1d-8fbe-6e419c854ac0"},"vehicle_type_id":"4","last_reported":1736154626,"current_range_meters":38800,"station_id":"ce4bhnp2rcd13ifvqgvg","pricing_plan_id":"cebpf4jnsgd1na2vs0mg"},{"bike_id":"ccedd857-09cd-44c5-b6fb-4559763177cf","system_id":"levelo_inurba_marseille","lat":43.25107,"lon":5.40321,"is_reserved":false,"is_disabled":false,"rental_uris":{"android":"levelo://app?vid=ccedd857-09cd-44c5-b6fb-4559763177cf","ios":"levelo://app?vid=ccedd857-09cd-44c5-b6fb-4559763177cf"},"vehicle_type_id":"4","last_reported":1736154626,"current_range_meters":38000,"station_id":"ce4bhlh2rcd13ifvqgig","pricing_plan_id":"cebpf4jnsgd1na2vs0mg"},{"bike_id":"96b16fe9-3911-44a3-8a8b-8e1e8036d081","system_id":"levelo_inurba_marseille","lat":43.29705,"lon":5.37697,"is_reserved":false,"is_disabled":false,"rental_uris":{"android":"levelo://app?vid=96b16fe9-3911-44a3-8a8b-8e1e8036d081","ios":"levelo://app?vid=96b16fe9-3911-44a3-8a8b-8e1e8036d081"},"vehicle_type_id":"4","last_reported":1736154626,"current_range_meters":27200,"station_id":"ce4bgkh2rcd13ifvqbl0","pricing_plan_id":"cebpf4jnsgd1na2vs0mg"},{"bike_id":"057a78d9-4838-4cec-9960-b2b57e04db07","system_id":"levelo_inurba_marseille","lat":43.31267,"lon":5.36852,"is_reserved":false,"is_disabled":false,"rental_uris":{"android":"levelo://app?vid=057a78d9-4838-4cec-9960-b2b57e04db07","ios":"levelo://app?vid=057a78d9-4838-4cec-9960-b2b57e04db07"},"vehicle_type_id":"4","last_reported":1736154626,"current_range_meters":34000,"station_id":"ce4bgl92rcd13ifvqbq0","pricing_plan_id":"cebpf4jnsgd1na2vs0mg"},{"bike_id":"85cba0a3-d6ec-4723-83bf-95316674cece","system_id":"levelo_inurba_marseille","lat":43.27558,"lon":5.38422,"is_reserved":false,"is_disabled":true,"rental_uris":{"android":"levelo://app?vid=85cba0a3-d6ec-4723-83bf-95316674cece","ios":"levelo://app?vid=85cba0a3-d6ec-4723-83bf-95316674cece"},"vehicle_type_id":"4","last_reported":1736154626,"current_range_meters":0,"station_id":"ce4bhh92rcd13ifvqfi0","pricing_plan_id":"cebpf4jnsgd1na2vs0mg"},{"bike_id":"5ff8deea-9282-4f04-abf3-2861394a0ca9","system_id":"levelo_inurba_marseille","lat":43.2901,"lon":5.38153,"is_reserved":false,"is_disabled":true,"rental_uris":{"android":"levelo://app?vid=5ff8deea-9282-4f04-abf3-2861394a0ca9","ios":"levelo://app?vid=5ff8deea-9282-4f04-abf3-2861394a0ca9"},"vehicle_type_id":"4","last_reported":1736154626,"current_range_meters":38800,"station_id":"ce4bh4p2rcd13ifvqe1g","pricing_plan_id":"cebpf4jnsgd1na2vs0mg"},{"bike_id":"848571f8-713d-43b7-8532-226899c73429","system_id":"levelo_inurba_marseille","lat":43.2417,"lon":5.397352,"is_reserved":false,"is_disabled":false,"rental_uris":{"android":"levelo://app?vid=848571f8-713d-43b7-8532-226899c73429","ios":"levelo://app?vid=848571f8-713d-43b7-8532-226899c73429"},"vehicle_type_id":"4","last_reported":1736154626,"current_range_meters":38800,"station_id":"ce4bhn12rcd13ifvqgpg","pricing_plan_id":"cebpf4jnsgd1na2vs0mg"},{"bike_id":"266d97a0-8b6a-4815-8e1e-a29e516886ab","system_id":"levelo_inurba_marseille","lat":43.32371,"lon":5.36752,"is_reserved":false,"is_disabled":false,"rental_uris":{"android":"levelo://app?vid=266d97a0-8b6a-4815-8e1e-a29e516886ab","ios":"levelo://app?vid=266d97a0-8b6a-4815-8e1e-a29e516886ab"},"vehicle_type_id":"4","last_reported":1736154626,"current_range_meters":28000,"station_id":"ce4bhsh2rcd13ifvqi2g","pricing_plan_id":"cebpf4jnsgd1na2vs0mg"},{"bike_id":"bc5b5855-1cf6-4cdc-af1a-e3906d45046d","system_id":"levelo_inurba_marseille","lat":43.250004,"lon":5.389284,"is_reserved":false,"is_disabled":false,"rental_uris":{"android":"levelo://app?vid=bc5b5855-1cf6-4cdc-af1a-e3906d45046d","ios":"levelo://app?vid=bc5b5855-1cf6-4cdc-af1a-e3906d45046d"},"vehicle_type_id":"4","last_reported":1736154626,"current_range_meters":28400,"station_id":"ce4bhgp2rcd13ifvqfd0","pricing_plan_id":"cebpf4jnsgd1na2vs0mg"},{"bike_id":"09bba308-4ebb-4e2e-84d1-a07fe93b5dc2","system_id":"levelo_inurba_marseille","lat":43.25822,"lon":5.39436,"is_reserved":false,"is_disabled":false,"rental_uris":{"android":"levelo://app?vid=09bba308-4ebb-4e2e-84d1-a07fe93b5dc2","ios":"levelo://app?vid=09bba308-4ebb-4e2e-84d1-a07fe93b5dc2"},"vehicle_type_id":"4","last_reported":1736154626,"current_range_meters":19200,"station_id":"ce4bhip2rcd13ifvqft0","pricing_plan_id":"cebpf4jnsgd1na2vs0mg"},{"bike_id":"d473f3b4-0f35-41e8-a757-cef6a791d6d9","system_id":"levelo_inurba_marseille","lat":43.28932,"lon":5.39658,"is_reserved":false,"is_disabled":true,"rental_uris":{"android":"levelo://app?vid=d473f3b4-0f35-41e8-a757-cef6a791d6d9","ios":"levelo://app?vid=d473f3b4-0f35-41e8-a757-cef6a791d6d9"},"vehicle_type_id":"4","last_reported":1736154626,"current_range_meters":38400,"station_id":"ce4bh3h2rcd13ifvqdn0","pricing_plan_id":"cebpf4jnsgd1na2vs0mg"},{"bike_id":"2937c8f0-6f06-4c7f-8240-41ad44bc55fa","system_id":"levelo_inurba_marseille","lat":43.23188,"lon":5.39991,"is_reserved":false,"is_disabled":false,"rental_uris":{"android":"levelo://app?vid=2937c8f0-6f06-4c7f-8240-41ad44bc55fa","ios":"levelo://app?vid=2937c8f0-6f06-4c7f-8240-41ad44bc55fa"},"vehicle_type_id":"4","last_reported":1736154626,"current_range_meters":16800,"station_id":"ce4bhn12rcd13ifvqgqg","pricing_plan_id":"cebpf4jnsgd1na2vs0mg"},{"bike_id":"8f8a32e7-2dd9-4c4c-82fd-75d68f2db40f","system_id":"levelo_inurba_marseille","lat":43.2594,"lon":5.40903,"is_reserved":false,"is_disabled":false,"rental_uris":{"android":"levelo://app?vid=8f8a32e7-2dd9-4c4c-82fd-75d68f2db40f","ios":"levelo://app?vid=8f8a32e7-2dd9-4c4c-82fd-75d68f2db40f"},"vehicle_type_id":"4","last_reported":1736154626,"current_range_meters":10000,"station_id":"ce4bhm92rcd13ifvqglg","pricing_plan_id":"cebpf4jnsgd1na2vs0mg"},{"bike_id":"f4c69f63-d451-4584-95df-44d1488057ff","system_id":"levelo_inurba_marseille","lat":43.23146,"lon":5.4372,"is_reserved":false,"is_disabled":false,"rental_uris":{"android":"levelo://app?vid=f4c69f63-d451-4584-95df-44d1488057ff","ios":"levelo://app?vid=f4c69f63-d451-4584-95df-44d1488057ff"},"vehicle_type_id":"4","last_reported":1736154626,"current_range_meters":14000,"station_id":"ce4bhmp2rcd13ifvqgog","pricing_plan_id":"cebpf4jnsgd1na2vs0mg"},{"bike_id":"5743c5b6-57b5-4b82-8b21-a86b6013be39","system_id":"levelo_inurba_marseille","lat":43.3252,"lon":5.41447,"is_reserved":false,"is_disabled":false,"rental_uris":{"android":"levelo://app?vid=5743c5b6-57b5-4b82-8b21-a86b6013be39","ios":"levelo://app?vid=5743c5b6-57b5-4b82-8b21-a86b6013be39"},"vehicle_type_id":"4","last_reported":1736154626,"current_range_meters":37600,"station_id":"ce4bhq12rcd13ifvqhhg","pricing_plan_id":"cebpf4jnsgd1na2vs0mg"},{"bike_id":"a08bb803-2e43-4c2e-835c-80814db6204b","system_id":"levelo_inurba_marseille","lat":43.24082,"lon":5.37733,"is_reserved":false,"is_disabled":false,"rental_uris":{"android":"levelo://app?vid=a08bb803-2e43-4c2e-835c-80814db6204b","ios":"levelo://app?vid=a08bb803-2e43-4c2e-835c-80814db6204b"},"vehicle_type_id":"4","last_reported":1736154626,"current_range_meters":37600,"station_id":"ce4bhnp2rcd13ifvqgvg","pricing_plan_id":"cebpf4jnsgd1na2vs0mg"},{"bike_id":"f49298c6-b208-404d-bb0c-160ccbda2eed","system_id":"levelo_inurba_marseille","lat":43.27993,"lon":5.40034,"is_reserved":false,"is_disabled":true,"rental_uris":{"android":"levelo://app?vid=f49298c6-b208-404d-bb0c-160ccbda2eed","ios":"levelo://app?vid=f49298c6-b208-404d-bb0c-160ccbda2eed"},"vehicle_type_id":"4","last_reported":1736154626,"current_range_meters":36400,"station_id":"ce4bho92rcd13ifvqh4g","pricing_plan_id":"cebpf4jnsgd1na2vs0mg"},{"bike_id":"2c354e5f-37ab-453c-814e-0e1e1d3051e2","system_id":"levelo_inurba_marseille","lat":43.3136,"lon":5.38505,"is_reserved":false,"is_disabled":true,"rental_uris":{"android":"levelo://app?vid=2c354e5f-37ab-453c-814e-0e1e1d3051e2","ios":"levelo://app?vid=2c354e5f-37ab-453c-814e-0e1e1d3051e2"},"vehicle_type_id":"4","last_reported":1736154626,"current_range_meters":17200,"station_id":"ce4bgt92rcd13ifvqcf0","pricing_plan_id":"cebpf4jnsgd1na2vs0mg"},{"bike_id":"d014f699-d84d-436b-b3bf-8c059d18ea89","system_id":"levelo_inurba_marseille","lat":43.22929,"lon":5.35366,"is_reserved":false,"is_disabled":false,"rental_uris":{"android":"levelo://app?vid=d014f699-d84d-436b-b3bf-8c059d18ea89","ios":"levelo://app?vid=d014f699-d84d-436b-b3bf-8c059d18ea89"},"vehicle_type_id":"4","last_reported":1736154626,"current_range_meters":12400,"station_id":"cpo3532slgdg3j2ikp40","pricing_plan_id":"cebpf4jnsgd1na2vs0mg"},{"bike_id":"5a9b2077-5ff4-4dc7-9df9-14bc48731589","system_id":"levelo_inurba_marseille","lat":43.26784,"lon":5.38403,"is_reserved":false,"is_disabled":false,"rental_uris":{"android":"levelo://app?vid=5a9b2077-5ff4-4dc7-9df9-14bc48731589","ios":"levelo://app?vid=5a9b2077-5ff4-4dc7-9df9-14bc48731589"},"vehicle_type_id":"4","last_reported":1736154626,"current_range_meters":9200,"station_id":"ce4bhg92rcd13ifvqf90","pricing_plan_id":"cebpf4jnsgd1na2vs0mg"},{"bike_id":"3093b4f6-32f4-4dec-aab8-9d4da00d0520","system_id":"levelo_inurba_marseille","lat":43.23186,"lon":5.35559,"is_reserved":false,"is_disabled":false,"rental_uris":{"android":"levelo://app?vid=3093b4f6-32f4-4dec-aab8-9d4da00d0520","ios":"levelo://app?vid=3093b4f6-32f4-4dec-aab8-9d4da00d0520"},"vehicle_type_id":"4","last_reported":1736154626,"current_range_meters":38400,"station_id":"ce4bhu92rcd13ifvqi70","pricing_plan_id":"cebpf4jnsgd1na2vs0mg"},{"bike_id":"1890c580-28b2-4ff5-b3a8-be5294155b05","system_id":"levelo_inurba_marseille","lat":43.29253,"lon":5.36856,"is_reserved":false,"is_disabled":false,"rental_uris":{"android":"levelo://app?vid=1890c580-28b2-4ff5-b3a8-be5294155b05","ios":"levelo://app?vid=1890c580-28b2-4ff5-b3a8-be5294155b05"},"vehicle_type_id":"4","last_reported":1736154626,"current_range_meters":38000,"station_id":"ce4bhbp2rcd13ifvqesg","pricing_plan_id":"cebpf4jnsgd1na2vs0mg"},{"bike_id":"c420422e-e5ff-46aa-9ade-56c25e82f06d","system_id":"levelo_inurba_marseille","lat":43.23192,"lon":5.3555,"is_reserved":false,"is_disabled":false,"rental_uris":{"android":"levelo://app?vid=c420422e-e5ff-46aa-9ade-56c25e82f06d","ios":"levelo://app?vid=c420422e-e5ff-46aa-9ade-56c25e82f06d"},"vehicle_type_id":"4","last_reported":1736154626,"current_range_meters":38800,"station_id":"ce4bhu92rcd13ifvqi70","pricing_plan_id":"cebpf4jnsgd1na2vs0mg"},{"bike_id":"ef72cdb4-465d-4178-b952-49906f159c48","system_id":"levelo_inurba_marseille","lat":43.28155,"lon":5.42648,"is_reserved":false,"is_disabled":false,"rental_uris":{"android":"levelo://app?vid=ef72cdb4-465d-4178-b952-49906f159c48","ios":"levelo://app?vid=ef72cdb4-465d-4178-b952-49906f159c48"},"vehicle_type_id":"4","last_reported":1736154626,"current_range_meters":6800,"station_id":"ce4bhnh2rcd13ifvqgug","pricing_plan_id":"cebpf4jnsgd1na2vs0mg"},{"bike_id":"6d6a8ac7-c60b-4eb2-9c89-cb745503e482","system_id":"levelo_inurba_marseille","lat":43.337628,"lon":5.374357,"is_reserved":false,"is_disabled":false,"rental_uris":{"android":"levelo://app?vid=6d6a8ac7-c60b-4eb2-9c89-cb745503e482","ios":"levelo://app?vid=6d6a8ac7-c60b-4eb2-9c89-cb745503e482"},"vehicle_type_id":"4","last_reported":1736154626,"current_range_meters":38800,"station_id":"","pricing_plan_id":"cebpf4jnsgd1na2vs0mg"},{"bike_id":"044c60f5-2aea-40e7-b246-944df04cc67b","system_id":"levelo_inurba_marseille","lat":43.30138,"lon":5.37421,"is_reserved":false,"is_disabled":false,"rental_uris":{"android":"levelo://app?vid=044c60f5-2aea-40e7-b246-944df04cc67b","ios":"levelo://app?vid=044c60f5-2aea-40e7-b246-944df04cc67b"},"vehicle_type_id":"4","last_reported":1736154626,"current_range_meters":24800,"station_id":"ce4bgs92rcd13ifvqcc0","pricing_plan_id":"cebpf4jnsgd1na2vs0mg"},{"bike_id":"f949af9a-2683-4ec9-b4bf-168b31b3bcb2","system_id":"levelo_inurba_marseille","lat":43.24625,"lon":5.38924,"is_reserved":false,"is_disabled":false,"rental_uris":{"android":"levelo://app?vid=f949af9a-2683-4ec9-b4bf-168b31b3bcb2","ios":"levelo://app?vid=f949af9a-2683-4ec9-b4bf-168b31b3bcb2"},"vehicle_type_id":"4","last_reported":1736154626,"current_range_meters":24000,"station_id":"ce4bhg12rcd13ifvqf60","pricing_plan_id":"cebpf4jnsgd1na2vs0mg"},{"bike_id":"48438f0a-62d6-43d4-b032-64378692b345","system_id":"levelo_inurba_marseille","lat":43.25921,"lon":5.40912,"is_reserved":false,"is_disabled":false,"rental_uris":{"android":"levelo://app?vid=48438f0a-62d6-43d4-b032-64378692b345","ios":"levelo://app?vid=48438f0a-62d6-43d4-b032-64378692b345"},"vehicle_type_id":"4","last_reported":1736154626,"current_range_meters":6400,"station_id":"ce4bhm92rcd13ifvqglg","pricing_plan_id":"cebpf4jnsgd1na2vs0mg"},{"bike_id":"baace2ec-3cd9-4824-8855-4d8f73a429f0","system_id":"levelo_inurba_marseille","lat":43.29557,"lon":5.37521,"is_reserved":false,"is_disabled":false,"rental_uris":{"android":"levelo://app?vid=baace2ec-3cd9-4824-8855-4d8f73a429f0","ios":"levelo://app?vid=baace2ec-3cd9-4824-8855-4d8f73a429f0"},"vehicle_type_id":"4","last_reported":1736154626,"current_range_meters":28000,"station_id":"ce4bgh92rcd13ifvqb50","pricing_plan_id":"cebpf4jnsgd1na2vs0mg"},{"bike_id":"ee1831a5-ecd0-46f1-9c32-8fb8cd9a18ed","system_id":"levelo_inurba_marseille","lat":43.28969,"lon":5.3784,"is_reserved":false,"is_disabled":false,"rental_uris":{"android":"levelo://app?vid=ee1831a5-ecd0-46f1-9c32-8fb8cd9a18ed","ios":"levelo://app?vid=ee1831a5-ecd0-46f1-9c32-8fb8cd9a18ed"},"vehicle_type_id":"4","last_reported":1736154626,"current_range_meters":38800,"station_id":"ce4bh9p2rcd13ifvqed0","pricing_plan_id":"cebpf4jnsgd1na2vs0mg"},{"bike_id":"1bb20f91-95ff-43ed-95e6-4b7203a03335","system_id":"levelo_inurba_marseille","lat":43.27479,"lon":5.42454,"is_reserved":false,"is_disabled":false,"rental_uris":{"android":"levelo://app?vid=1bb20f91-95ff-43ed-95e6-4b7203a03335","ios":"levelo://app?vid=1bb20f91-95ff-43ed-95e6-4b7203a03335"},"vehicle_type_id":"4","last_reported":1736154626,"current_range_meters":20000,"station_id":"ce4bhn92rcd13ifvqgrg","pricing_plan_id":"cebpf4jnsgd1na2vs0mg"},{"bike_id":"16cf4177-31c4-4a14-8f41-02981cfb48fe","system_id":"levelo_inurba_marseille","lat":43.24178,"lon":5.39727,"is_reserved":false,"is_disabled":false,"rental_uris":{"android":"levelo://app?vid=16cf4177-31c4-4a14-8f41-02981cfb48fe","ios":"levelo://app?vid=16cf4177-31c4-4a14-8f41-02981cfb48fe"},"vehicle_type_id":"4","last_reported":1736154626,"current_range_meters":26800,"station_id":"ce4bhn12rcd13ifvqgpg","pricing_plan_id":"cebpf4jnsgd1na2vs0mg"},{"bike_id":"ff06450f-74ec-42bf-8f62-b8c7fe21a606","system_id":"levelo_inurba_marseille","lat":43.29701,"lon":5.36609,"is_reserved":false,"is_disabled":false,"rental_uris":{"android":"levelo://app?vid=ff06450f-74ec-42bf-8f62-b8c7fe21a606","ios":"levelo://app?vid=ff06450f-74ec-42bf-8f62-b8c7fe21a606"},"vehicle_type_id":"4","last_reported":1736154626,"current_range_meters":39200,"station_id":"ce4bgn12rcd13ifvqbt0","pricing_plan_id":"cebpf4jnsgd1na2vs0mg"},