{"last_updated":1701630282,"ttl":30,"version":"2.2","data":{"bikes":[{"bike_id":"6db96f70-db68-4fc2-8aac-47af5166d23b","system_id":"levelo_inurba_marseille","lat":43.314811,"lon":5.373103,"is_reserved":false,"is_disabled":false,"rental_uris":{"android":"levelo://app?vid=6db96f70-db68-4fc2-8aac-47af5166d23b","ios":"levelo://app?vid=6db96f70-db68-4fc2-8aac-47af5166d23b"},"vehicle_type_id":"4","last_reported":1701630282,"current_range_meters":28400,"station_id":"ce4bgt12rcd13ifvqcd0","pricing_plan_id":"free"},{"bike_id":"354ee045-9827-4820-8c82-5d44348a7685","system_id":"levelo_inurba_marseille","lat":43.314811,"lon":5.373103,"is_reserved":false,"is_disabled":false,"rental_uris":{"android":"levelo://app?vid=354ee045-9827-4820-8c82-5d44348a7685","ios":"levelo://app?vid=354ee045-9827-4820-8c82-5d44348a7685"},"vehicle_type_id":"4","last_reported":1701630282,"current_range_meters":23600,"station_id":"ce4bgt12rcd13ifvqcd0","pricing_plan_id":"free"},{"bike_id":"6669ddd7-8e52-4fe9-86b9-167f235bc738","system_id":"levelo_inurba_marseille","lat":43.314811,"lon":5.373103,"is_reserved":false,"is_disabled":false,"rental_uris":{"android":"levelo://app?vid=6669ddd7-8e52-4fe9-86b9-167f235bc738","ios":"levelo://app?vid=6669ddd7-8e52-4fe9-86b9-167f235bc738"},"vehicle_type_id":"4","last_reported":1701630282,"current_range_meters":29600,"station_id":"ce4bgt12rcd13ifvqcd0","pricing_plan_id":"free"},{"bike_id":"8228ea11-f103-4c8a-94f4-e874d23abccd","system_id":"levelo_inurba_marseille","lat":43.314811,"lon":5.373104,"is_reserved":false,"is_disabled":false,"rental_uris":{"android":"levelo://app?vid=8228ea11-f103-4c8a-94f4-e874d23abccd","ios":"levelo://app?vid=8228ea11-f103-4c8a-94f4-e874d23abccd"},"vehicle_type_id":"4","last_reported":1701630282,"current_range_meters":4800,"station_id":"ce4bgt12rcd13ifvqcd0","pricing_plan_id":"free"},{"bike_id":"f427a2c3-6e4a-446b-ae2f-9be8aa7f4122","system_id":"levelo_inurba_marseille","lat":43.31719,"lon":5.376813,"is_reserved":false,"is_disabled":false,"rental_uris":{"android":"levelo://app?vid=f427a2c3-6e4a-446b-ae2f-9be8aa7f4122","ios":"levelo://app?vid=f427a2c3-6e4a-446b-ae2f-9be8aa7f4122"},"vehicle_type_id":"4","last_reported":1701630282,"current_range_meters":0,"station_id":"","pricing_plan_id":"free"},{"bike_id":"e913f328-1e31-4c22-bd87-f809ea246de4","system_id":"levelo_inurba_marseille","lat":43.317168,"lon":5.376883,"is_reserved":false,"is_disabled":false,"rental_uris":{"android":"levelo://app?vid=e913f328-1e31-4c22-bd87-f809ea246de4","ios":"levelo://app?vid=e913f328-1e31-4c22-bd87-f809ea246de4"},"vehicle_type_id":"4","last_reported":1701630282,"current_range_meters":0,"station_id":"","pricing_plan_id":"free"},{"bike_id":"fab218d0-c740-4c1b-a9e6-50974e0f1a6d","system_id":"levelo_inurba_marseille","lat":43.307945,"lon":5.376487,"is_reserved":false,"is_disabled":false,"rental_uris":{"android":"levelo://app?vid=fab218d0-c740-4c1b-a9e6-50974e0f1a6d","ios":"levelo://app?vid=fab218d0-c740-4c1b-a9e6-50974e0f1a6d"},"vehicle_type_id":"4","last_reported":1701630282,"current_range_meters":30400,"station_id":"ce4bgv92rcd13ifvqcq0","pricing_plan_id":"free"},{"bike_id":"fb6fd937-527b-4585-9058-0dfdc6436ac8","system_id":"levelo_inurba_marseille","lat":43.31351,"lon":5.37909,"is_reserved":false,"is_disabled":false,"rental_uris":{"android":"levelo://app?vid=fb6fd937-527b-4585-9058-0dfdc6436ac8","ios":"levelo://app?vid=fb6fd937-527b-4585-9058-0dfdc6436ac8"},"vehicle_type_id":"4","last_reported":1701630282,"current_range_meters":16800,"station_id":"","pricing_plan_id":"free"},{"bike_id":"c65c74ac-31ac-4f80-bd82-43b0ec917ba3","system_id":"levelo_inurba_marseille","lat":43.30143,"lon":5.37413,"is_reserved":false,"is_disabled":false,"rental_uris":{"android":"levelo://app?vid=c65c74ac-31ac-4f80-bd82-43b0ec917ba3","ios":"levelo://app?vid=c65c74ac-31ac-4f80-bd82-43b0ec917ba3"},"vehicle_type_id":"4","last_reported":1701630282,"current_range_meters":19200,"station_id":"ce4bgs92rcd13ifvqcc0","pricing_plan_id":"free"},{"bike_id":"c32b4a1c-8be5-4f93-a794-fd809cd16078","system_id":"levelo_inurba_marseille","lat":43.319935,"lon":5.381699,"is_reserved":false,"is_disabled":false,"rental_uris":{"android":"levelo://app?vid=c32b4a1c-8be5-4f93-a794-fd809cd16078","ios":"levelo://app?vid=c32b4a1c-8be5-4f93-a794-fd809cd16078"},"vehicle_type_id":"4","last_reported":1701630282,"current_range_meters":10400,"station_id":"ce4bhr12rcd13ifvqhpg","pricing_plan_id":"free"},{"bike_id":"1b836397-024f-4ce5-8ba8-e625623686d0","system_id":"levelo_inurba_marseille","lat":43.31993,"lon":5.38155,"is_reserved":false,"is_disabled":false,"rental_uris":{"android":"levelo://app?vid=1b836397-024f-4ce5-8ba8-e625623686d0","ios":"levelo://app?vid=1b836397-024f-4ce5-8ba8-e625623686d0"},"vehicle_type_id":"4","last_reported":1701630282,"current_range_meters":8000,"station_id":"ce4bhr12rcd13ifvqhpg","pricing_plan_id":"free"},{"bike_id":"2275aca5-3158-4c2c-8022-ca5d2714bc86","system_id":"levelo_inurba_marseille","lat":43.319997,"lon":5.381594,"is_reserved":false,"is_disabled":false,"rental_uris":{"android":"levelo://app?vid=2275aca5-3158-4c2c-8022-ca5d2714bc86","ios":"levelo://app?vid=2275aca5-3158-4c2c-8022-ca5d2714bc86"},"vehicle_type_id":"4","last_reported":1701630282,"current_range_meters":10400,"station_id":"ce4bhr12rcd13ifvqhpg","pricing_plan_id":"free"},{"bike_id":"9fdb7f97-586d-42d2-befd-15216ba2e422","system_id":"levelo_inurba_marseille","lat":43.31183,"lon":5.38523,"is_reserved":false,"is_disabled":false,"rental_uris":{"android":"levelo://app?vid=9fdb7f97-586d-42d2-befd-15216ba2e422","ios":"levelo://app?vid=9fdb7f97-586d-42d2-befd-15216ba2e422"},"vehicle_type_id":"4","last_reported":1701630282,"current_range_meters":0,"station_id":"","pricing_plan_id":"free"},{"bike_id":"748d12ab-8e09-4ecd-b2d2-cbe0ea9624f6","system_id":"levelo_inurba_marseille","lat":43.298931,"lon":5.367366,"is_reserved":false,"is_disabled":false,"rental_uris":{"android":"levelo://app?vid=748d12ab-8e09-4ecd-b2d2-cbe0ea9624f6","ios":"levelo://app?vid=748d12ab-8e09-4ecd-b2d2-cbe0ea9624f6"},"vehicle_type_id":"4","last_reported":1701630282,"current_range_meters":800,"station_id":"","pricing_plan_id":"free"},{"bike_id":"8f471969-8e2d-4ef5-8d2e-654dab26d28a","system_id":"levelo_inurba_marseille","lat":43.31233,"lon":5.38662,"is_reserved":false,"is_disabled":false,"rental_uris":{"android":"levelo://app?vid=8f471969-8e2d-4ef5-8d2e-654dab26d28a","ios":"levelo://app?vid=8f471969-8e2d-4ef5-8d2e-654dab26d28a"},"vehicle_type_id":"4","last_reported":1701630282,"current_range_meters":20400,"station_id":"","pricing_plan_id":"free"},{"bike_id":"11c4fe82-3941-4881-9d8c-ed5625a31fbf","system_id":"levelo_inurba_marseille","lat":43.305364,"lon":5.384119,"is_reserved":false,"is_disabled":false,"rental_uris":{"android":"levelo://app?vid=11c4fe82-3941-4881-9d8c-ed5625a31fbf","ios":"levelo://app?vid=11c4fe82-3941-4881-9d8c-ed5625a31fbf"},"vehicle_type_id":"4","last_reported":1701630282,"current_range_meters":25600,"station_id":"ce4bgg92rcd13ifvqb30","pricing_plan_id":"free"},{"bike_id":"36bb055c-cecb-4a26-9541-2de376324055","system_id":"levelo_inurba_marseille","lat":43.311722,"lon":5.387247,"is_reserved":false,"is_disabled":false,"rental_uris":{"android":"levelo://app?vid=36bb055c-cecb-4a26-9541-2de376324055","ios":"levelo://app?vid=36bb055c-cecb-4a26-9541-2de376324055"},"vehicle_type_id":"4","last_reported":1701630282,"current_range_meters":2800,"station_id":"ce4bgv12rcd13ifvqcp0","pricing_plan_id":"free"},{"bike_id":"0a39dd03-261e-42e4-8565-1ecf12f7bfae","system_id":"levelo_inurba_marseille","lat":43.322872,"lon":5.382756,"is_reserved":false,"is_disabled":false,"rental_uris":{"android":"levelo://app?vid=0a39dd03-261e-42e4-8565-1ecf12f7bfae","ios":"levelo://app?vid=0a39dd03-261e-42e4-8565-1ecf12f7bfae"},"vehicle_type_id":"4","last_reported":1701630282,"current_range_meters":20800,"station_id":"ce4bhr12rcd13ifvqhqg","pricing_plan_id":"free"},{"bike_id":"08a721db-bf5d-46b3-9ba3-2a9c6c13bcf6","system_id":"levelo_inurba_marseille","lat":43.328256,"lon":5.366905,"is_reserved":false,"is_disabled":false,"rental_uris":{"android":"levelo://app?vid=08a721db-bf5d-46b3-9ba3-2a9c6c13bcf6","ios":"levelo://app?vid=08a721db-bf5d-46b3-9ba3-2a9c6c13bcf6"},"vehicle_type_id":"4","last_reported":1701630282,"current_range_meters":24000,"station_id":"","pricing_plan_id":"free"},{"bike_id":"65a9133c-c61d-4979-8e7b-24fafb96941b","system_id":"levelo_inurba_marseille","lat":43.328314,"lon":5.366799,"is_reserved":false,"is_disabled":false,"rental_uris":{"android":"levelo://app?vid=65a9133c-c61d-4979-8e7b-24fafb96941b","ios":"levelo://app?vid=65a9133c-c61d-4979-8e7b-24fafb96941b"},"vehicle_type_id":"4","last_reported":1701630282,"current_range_meters":10400,"station_id":"ce4bhs92rcd13ifvqi0g","pricing_plan_id":"free"},{"bike_id":"8874ef37-d11b-4860-b7df-daab8952a737","system_id":"levelo_inurba_marseille","lat":43.32837,"lon":5.36691,"is_reserved":false,"is_disabled":false,"rental_uris":{"android":"levelo://app?vid=8874ef37-d11b-4860-b7df-daab8952a737","ios":"levelo://app?vid=8874ef37-d11b-4860-b7df-daab8952a737"},"vehicle_type_id":"4","last_reported":1701630282,"current_range_meters":22800,"station_id":"ce4bhs92rcd13ifvqi0g","pricing_plan_id":"free"},{"bike_id":"5a977767-353d-46a4-9a62-7b1cf59366c1","system_id":"levelo_inurba_marseille","lat":43.297163,"lon":5.365866,"is_reserved":false,"is_disabled":false,"rental_uris":{"android":"levelo://app?vid=5a977767-353d-46a4-9a62-7b1cf59366c1","ios":"levelo://app?vid=5a977767-353d-46a4-9a62-7b1cf59366c1"},"vehicle_type_id":"4","last_reported":1701630282,"current_range_meters":25600,"station_id":"ce4bgn12rcd13ifvqbt0","pricing_plan_id":"free"},{"bike_id":"56c27ac6-d3be-4b1b-a869-2d0f1759ad4a","system_id":"levelo_inurba_marseille","lat":43.298208,"lon":5.376707,"is_reserved":false,"is_disabled":false,"rental_uris":{"android":"levelo://app?vid=56c27ac6-d3be-4b1b-a869-2d0f1759ad4a","ios":"levelo://app?vid=56c27ac6-d3be-4b1b-a869-2d0f1759ad4a"},"vehicle_type_id":"4","last_reported":1701630282,"current_range_meters":0,"station_id":"","pricing_plan_id":"free"},{"bike_id":"d93b6e42-2272-4106-b38f-3538461607c3","system_id":"levelo_inurba_marseille","lat":43.2968,"lon":5.37291,"is_reserved":false,"is_disabled":false,"rental_uris":{"android":"levelo://app?vid=d93b6e42-2272-4106-b38f-3538461607c3","ios":"levelo://app?vid=d93b6e42-2272-4106-b38f-3538461607c3"},"vehicle_type_id":"4","last_reported":1701630282,"current_range_meters":26000,"station_id":"ce4bgk12rcd13ifvqbj0","pricing_plan_id":"free"},{"bike_id":"eaa0e7e7-2390-47fa-909b-7b240952cbef","system_id":"levelo_inurba_marseille","lat":43.316511,"lon":5.3896,"is_reserved":false,"is_disabled":false,"rental_uris":{"android":"levelo://app?vid=eaa0e7e7-2390-47fa-909b-7b240952cbef","ios":"levelo://app?vid=eaa0e7e7-2390-47fa-909b-7b240952cbef"},"vehicle_type_id":"4","last_reported":1701630282,"current_range_meters":18000,"station_id":"","pricing_plan_id":"free"},{"bike_id":"50451858-4fd4-406d-badc-776a2e8a63c3","system_id":"levelo_inurba_marseille","lat":43.32972,"lon":5.36735,"is_reserved":false,"is_disabled":false,"rental_uris":{"android":"levelo://app?vid=50451858-4fd4-406d-badc-776a2e8a63c3","ios":"levelo://app?vid=50451858-4fd4-406d-badc-776a2e8a63c3"},"vehicle_type_id":"4","last_reported":1701630282,"current_range_meters":16400,"station_id":"","pricing_plan_id":"free"},{"bike_id":"5c26bdfb-7b7c-43fb-8a01-250128a1a6f8","system_id":"levelo_inurba_marseille","lat":43.32974,"lon":5.36729,"is_reserved":false,"is_disabled":false,"rental_uris":{"android":"levelo://app?vid=5c26bdfb-7b7c-43fb-8a01-250128a1a6f8","ios":"levelo://app?vid=5c26bdfb-7b7c-43fb-8a01-250128a1a6f8"},"vehicle_type_id":"4","last_reported":1701630282,"current_range_meters":18400,"station_id":"","pricing_plan_id":"free"},{"bike_id":"0df651d9-e958-4f07-afa4-d2f14454e39d","system_id":"levelo_inurba_marseille","lat":43.309589,"lon":5.390258,"is_reserved":false,"is_disabled":false,"rental_uris":{"android":"levelo://app?vid=0df651d9-e958-4f07-afa4-d2f14454e39d","ios":"levelo://app?vid=0df651d9-e958-4f07-afa4-d2f14454e39d"},"vehicle_type_id":"4","last_reported":1701630282,"current_range_meters":27600,"station_id":"ce4bgup2rcd13ifvqco0","pricing_plan_id":"free"},{"bike_id":"9fd3552d-6d9e-4a61-a0b6-d86150197496","system_id":"levelo_inurba_marseille","lat":43.309589,"lon":5.390258,"is_reserved":false,"is_disabled":false,"rental_uris":{"android":"levelo://app?vid=9fd3552d-6d9e-4a61-a0b6-d86150197496","ios":"levelo://app?vid=9fd3552d-6d9e-4a61-a0b6-d86150197496"},"vehicle_type_id":"4","last_reported":1701630282,"current_range_meters":30400,"station_id":"ce4bgup2rcd13ifvqco0","pricing_plan_id":"free"},{"bike_id":"a7d6993c-889b-472d-8005-f6e35e313883","system_id":"levelo_inurba_marseille","lat":43.309589,"lon":5.390258,"is_reserved":false,"is_disabled":false,"rental_uris":{"android":"levelo://app?vid=a7d6993c-889b-472d-8005-f6e35e313883","ios":"levelo://app?vid=a7d6993c-889b-472d-8005-f6e35e313883"},"vehicle_type_id":"4","last_reported":1701630282,"current_range_meters":10000,"station_id":"ce4bgup2rcd13ifvqco0","pricing_plan_id":"free"},{"bike_id":"47ed16c7-8113-4b87-a024-c23d493de00c","system_id":"levelo_inurba_marseille","lat":43.298037,"lon":5.381066,"is_reserved":false,"is_disabled":false,"rental_uris":{"android":"levelo://app?vid=47ed16c7-8113-4b87-a024-c23d493de00c","ios":"levelo://app?vid=47ed16c7-8113-4b87-a024-c23d493de00c"},"vehicle_type_id":"4","last_reported":1701630282,"current_range_meters":8800,"station_id":"ce4bgip2rcd13ifvqbb0","pricing_plan_id":"free"},{"bike_id":"b9ef91a3-21be-40b5-9dac-ffcf03d24e39","system_id":"levelo_inurba_marseille","lat":43.296263,"lon":5.377094,"is_reserved":false,"is_disabled":false,"rental_uris":{"android":"levelo://app?vid=b9ef91a3-21be-40b5-9dac-ffcf03d24e39","ios":"levelo://app?vid=b9ef91a3-21be-40b5-9dac-ffcf03d24e39"},"vehicle_type_id":"4","last_reported":1701630282,"current_range_meters":800,"station_id":"ce4bgi92rcd13ifvqb90","pricing_plan_id":"free"},{"bike_id":"8781abf1-4127-4ee5-966e-752d59f3c023","system_id":"levelo_inurba_marseille","lat":43.32365,"lon":5.3889,"is_reserved":false,"is_disabled":false,"rental_uris":{"android":"levelo://app?vid=8781abf1-4127-4ee5-966e-752d59f3c023","ios":"levelo://app?vid=8781abf1-4127-4ee5-966e-752d59f3c023"},"vehicle_type_id":"4","last_reported":1701630282,"current_range_meters":26400,"station_id":"ce4bhqp2rcd13ifvqhog","pricing_plan_id":"free"},{"bike_id":"658114b8-5bd9-4ea1-a7d2-a0c7c7b43871","system_id":"levelo_inurba_marseille","lat":43.29601,"lon":5.381084,"is_reserved":false,"is_disabled":false,"rental_uris":{"android":"levelo://app?vid=658114b8-5bd9-4ea1-a7d2-a0c7c7b43871","ios":"levelo://app?vid=658114b8-5bd9-4ea1-a7d2-a0c7c7b43871"},"vehicle_type_id":"4","last_reported":1701630282,"current_range_meters":8000,"station_id":"ce4bgl12rcd13ifvqbo0","pricing_plan_id":"free"},{"bike_id":"9d8c2d45-6096-498d-881e-5bedd51ad707","system_id":"levelo_inurba_marseille","lat":43.29601,"lon":5.381084,"is_reserved":false,"is_disabled":false,"rental_uris":{"android":"levelo://app?vid=9d8c2d45-6096-498d-881e-5bedd51ad707","ios":"levelo://app?vid=9d8c2d45-6096-498d-881e-5bedd51ad707"},"vehicle_type_id":"4","last_reported":1701630282,"current_range_meters":7200,"station_id":"ce4bgl12rcd13ifvqbo0","pricing_plan_id":"free"},{"bike_id":"72080112-d84c-4845-9d3b-4af9d2299e27","system_id":"levelo_inurba_marseille","lat":43.293126,"lon":5.371794,"is_reserved":false,"is_disabled":false,"rental_uris":{"android":"levelo://app?vid=72080112-d84c-4845-9d3b-4af9d2299e27","ios":"levelo://app?vid=72080112-d84c-4845-9d3b-4af9d2299e27"},"vehicle_type_id":"4","last_reported":1701630282,"current_range_meters":0,"station_id":"ce4bgh92rcd13ifvqb40","pricing_plan_id":"free"},{"bike_id":"a5d40f6f-5f5f-43f8-9b47-f40f343eff27","system_id":"levelo_inurba_marseille","lat":43.292749,"lon":5.368402,"is_reserved":false,"is_disabled":false,"rental_uris":{"android":"levelo://app?vid=a5d40f6f-5f5f-43f8-9b47-f40f343eff27","ios":"levelo://app?vid=a5d40f6f-5f5f-43f8-9b47-f40f343eff27"},"vehicle_type_id":"4","last_reported":1701630282,"current_range_meters":31600,"station_id":"ce4bhbp2rcd13ifvqesg","pricing_plan_id":"free"},{"bike_id":"270eff5a-e70f-41fd-b505-f2736001b5bb","system_id":"levelo_inurba_marseille","lat":43.302992,"lon":5.392136,"is_reserved":false,"is_disabled":false,"rental_uris":{"android":"levelo://app?vid=270eff5a-e70f-41fd-b505-f2736001b5bb","ios":"levelo://app?vid=270eff5a-e70f-41fd-b505-f2736001b5bb"},"vehicle_type_id":"4","last_reported":1701630282,"current_range_meters":800,"station_id":"ce4bgkh2rcd13ifvqbk0","pricing_plan_id":"free"},{"bike_id":"735bab37-49c6-4f24-af37-cd68d4d108d7","system_id":"levelo_inurba_marseille","lat":43.300852,"lon":5.390859,"is_reserved":false,"is_disabled":false,"rental_uris":{"android":"levelo://app?vid=735bab37-49c6-4f24-af37-cd68d4d108d7","ios":"levelo://app?vid=735bab37-49c6-4f24-af37-cd68d4d108d7"},"vehicle_type_id":"4","last_reported":1701630282,"current_range_meters":4800,"station_id":"ce4bh192rcd13ifvqdb0","pricing_plan_id":"free"},{"bike_id":"ada3a3ce-18f0-4163-b6cc-7ce6fd917a9c","system_id":"levelo_inurba_marseille","lat":43.292311,"lon":5.360731,"is_reserved":false,"is_disabled":false,"rental_uris":{"android":"levelo://app?vid=ada3a3ce-18f0-4163-b6cc-7ce6fd917a9c","ios":"levelo://app?vid=ada3a3ce-18f0-4163-b6cc-7ce6fd917a9c"},"vehicle_type_id":"4","last_reported":1701630282,"current_range_meters":26800,"station_id":"ce4bhbh2rcd13ifvqeqg","pricing_plan_id":"free"},{"bike_id":"aa8c981b-e227-4987-b364-a812215aa753","system_id":"levelo_inurba_marseille","lat":43.313291,"lon":5.396838,"is_reserved":false,"is_disabled":false,"rental_uris":{"android":"levelo://app?vid=aa8c981b-e227-4987-b364-a812215aa753","ios":"levelo://app?vid=aa8c981b-e227-4987-b364-a812215aa753"},"vehicle_type_id":"4","last_reported":1701630282,"current_range_meters":28000,"station_id":"ce4bgvp2rcd13ifvqcu0","pricing_plan_id":"free"},{"bike_id":"631f208c-410d-4dcc-be60-8703e78f0ce5","system_id":"levelo_inurba_marseille","lat":43.313291,"lon":5.396838,"is_reserved":false,"is_disabled":false,"rental_uris":{"android":"levelo://app?vid=631f208c-410d-4dcc-be60-8703e78f0ce5","ios":"levelo://app?vid=631f208c-410d-4dcc-be60-8703e78f0ce5"},"vehicle_type_id":"4","last_reported":1701630282,"current_range_meters":3200,"station_id":"ce4bgvp2rcd13ifvqcu0","pricing_plan_id":"free"},{"bike_id":"d63c291c-3dde-43fe-b9a3-4039716bc343","system_id":"levelo_inurba_marseille","lat":43.309038,"lon":5.396546,"is_reserved":false,"is_disabled":false,"rental_uris":{"android":"levelo://app?vid=d63c291c-3dde-43fe-b9a3-4039716bc343","ios":"levelo://app?vid=d63c291c-3dde-43fe-b9a3-4039716bc343"},"vehicle_type_id":"4","last_reported":1701630282,"current_range_meters":30800,"station_id":"ce4bh012rcd13ifvqcv0","pricing_plan_id":"free"},{"bike_id":"71c3947f-8d34-4d30-8b08-52877d3fa320","system_id":"levelo_inurba_marseille","lat":43.308343,"lon":5.396715,"is_reserved":false,"is_disabled":false,"rental_uris":{"android":"levelo://app?vid=71c3947f-8d34-4d30-8b08-52877d3fa320","ios":"levelo://app?vid=71c3947f-8d34-4d30-8b08-52877d3fa320"},"vehicle_type_id":"4","last_reported":1701630282,"current_range_meters":6000,"station_id":"","pricing_plan_id":"free"},{"bike_id":"159328c5-56d8-4bae-a4b0-c69e35f7d7c2","system_id":"levelo_inurba_marseille","lat":43.290779,"lon":5.371482,"is_reserved":false,"is_disabled":false,"rental_uris":{"android":"levelo://app?vid=159328c5-56d8-4bae-a4b0-c69e35f7d7c2","ios":"levelo://app?vid=159328c5-56d8-4bae-a4b0-c69e35f7d7c2"},"vehicle_type_id":"4","last_reported":1701630282,"current_range_meters":18400,"station_id":"ce4bh5p2rcd13ifvqe4g","pricing_plan_id":"free"},{"bike_id":"ce276b48-e816-4150-9819-d94dc22c550d","system_id":"levelo_inurba_marseille","lat":43.290779,"lon":5.371482,"is_reserved":false,"is_disabled":false,"rental_uris":{"android":"levelo://app?vid=ce276b48-e816-4150-9819-d94dc22c550d","ios":"levelo://app?vid=ce276b48-e816-4150-9819-d94dc22c550d"},"vehicle_type_id":"4","last_reported":1701630282,"current_range_meters":0,"station_id":"ce4bh5p2rcd13ifvqe4g","pricing_plan_id":"free"},{"bike_id":"f41d1f2a-a03b-473a-944c-e27e5757e844","system_id":"levelo_inurba_marseille","lat":43.294153,"lon":5.386305,"is_reserved":false,"is_disabled":false,"rental_uris":{"android":"levelo://app?vid=f41d1f2a-a03b-473a-944c-e27e5757e844","ios":"levelo://app?vid=f41d1f2a-a03b-473a-944c-e27e5757e844"},"vehicle_type_id":"4","last_reported":1701630282,"current_range_meters":18400,"station_id":"ce4bh2h2rcd13ifvqdh0","pricing_plan_id":"free"},{"bike_id":"bd05a115-db4f-4998-8f2e-55174c107e57","system_id":"levelo_inurba_marseille","lat":43.304296,"lon":5.397513,"is_reserved":false,"is_disabled":false,"rental_uris":{"android":"levelo://app?vid=bd05a115-db4f-4998-8f2e-55174c107e57","ios":"levelo://app?vid=bd05a115-db4f-4998-8f2e-55174c107e57"},"vehicle_type_id":"4","last_reported":1701630282,"current_range_meters":13200,"station_id":"ce4bh092rcd13ifvqd20","pricing_plan_id":"free"},{"bike_id":"0e44f075-85a1-4c8a-a5af-69ce147ae4d8","system_id":"levelo_inurba_marseille","lat":43.304274,"lon":5.397513,"is_reserved":false,"is_disabled":false,"rental_uris":{"android":"levelo://app?vid=0e44f075-85a1-4c8a-a5af-69ce147ae4d8","ios":"levelo://app?vid=0e44f075-85a1-4c8a-a5af-69ce147ae4d8"},"vehicle_type_id":"4","last_reported":1701630282,"current_range_meters":18000,"station_id":"ce4bh092rcd13ifvqd20","pricing_plan_id":"free"},{"bike_id":"e14af431-cca0-46fe-b680-041033484745","system_id":"levelo_inurba_marseille","lat":43.29091,"lon":5.38119,"is_reserved":false,"is_disabled":false,"rental_uris":{"android":"levelo://app?vid=e14af431-cca0-46fe-b680-041033484745","ios":"levelo://app?vid=e14af431-cca0-46fe-b680-041033484745"},"vehicle_type_id":"4","last_reported":1701630282,"current_range_meters":18000,"station_id":"ce4bh512rcd13ifvqe2g","pricing_plan_id":"free"},{"bike_id":"f12c7608-f322-4c78-8faf-f919b3717042","system_id":"levelo_inurba_marseille","lat":43.290995,"lon":5.381361,"is_reserved":false,"is_disabled":false,"rental_uris":{"android":"levelo://app?vid=f12c7608-f322-4c78-8faf-f919b3717042","ios":"levelo://app?vid=f12c7608-f322-4c78-8faf-f919b3717042"},"vehicle_type_id":"4","last_reported":1701630282,"current_range_meters":0,"station_id":"ce4bh512rcd13ifvqe2g","pricing_plan_id":"free"},{"bike_id":"ec82c8eb-6b26-4bdc-807a-c35e4993890c","system_id":"levelo_inurba_marseille","lat":43.29789,"lon":5.39337,"is_reserved":false,"is_disabled":false,"rental_uris":{"android":"levelo://app?vid=ec82c8eb-6b26-4bdc-807a-c35e4993890c","ios":"levelo://app?vid=ec82c8eb-6b26-4bdc-807a-c35e4993890c"},"vehicle_type_id":"4","last_reported":1701630282,"current_range_meters":4800,"station_id":"chh1huq6cuj3fo74tm60","pricing_plan_id":"free"},{"bike_id":"f23f282e-30ff-46f1-a75f-76795421edff","system_id":"levelo_inurba_marseille","lat":43.295169,"lon":5.390426,"is_reserved":false,"is_disabled":false,"rental_uris":{"android":"levelo://app?vid=f23f282e-30ff-46f1-a75f-76795421edff","ios":"levelo://app?vid=f23f282e-30ff-46f1-a75f-76795421edff"},"vehicle_type_id":"4","last_reported":1701630282,"current_range_meters":15600,"station_id":"ce4bh3p2rcd13ifvqdp0","pricing_plan_id":"free"},{"bike_id":"80ac9a83-47dc-4474-ba9e-95f62f2a5969","system_id":"levelo_inurba_marseille","lat":43.31265,"lon":5.40163,"is_reserved":false,"is_disabled":false,"rental_uris":{"android":"levelo://app?vid=80ac9a83-47dc-4474-ba9e-95f62f2a5969","ios":"levelo://app?vid=80ac9a83-47dc-4474-ba9e-95f62f2a5969"},"vehicle_type_id":"4","last_reported":1701630282,"current_range_meters":0,"station_id":"ce4bh092rcd13ifvqd30","pricing_plan_id":"free"},{"bike_id":"1412896f-c5ef-4adc-be41-39706c7ddfd5","system_id":"levelo_inurba_marseille","lat":43.31267,"lon":5.401704,"is_reserved":false,"is_disabled":false,"rental_uris":{"android":"levelo://app?vid=1412896f-c5ef-4adc-be41-39706c7ddfd5","ios":"levelo://app?vid=1412896f-c5ef-4adc-be41-39706c7ddfd5"},"vehicle_type_id":"4","last_reported":1701630282,"current_range_meters":14000,"station_id":"ce4bh092rcd13ifvqd30","pricing_plan_id":"free"},{"bike_id":"c4521d03-ea82-4304-a27a-52990fbbcfc8","system_id":"levelo_inurba_marseille","lat":43.31266,"lon":5.40173,"is_reserved":false,"is_disabled":false,"rental_uris":{"android":"levelo://app?vid=c4521d03-ea82-4304-a27a-52990fbbcfc8","ios":"levelo://app?vid=c4521d03-ea82-4304-a27a-52990fbbcfc8"},"vehicle_type_id":"4","last_reported":1701630282,"current_range_meters":16000,"station_id":"ce4bh092rcd13ifvqd30","pricing_plan_id":"free"},{"bike_id":"84d9f669-8fa3-4a14-91d6-028b64e16e98","system_id":"levelo_inurba_marseille","lat":43.309371,"lon":5.401449,"is_reserved":false,"is_disabled":false,"rental_uris":{"android":"levelo://app?vid=84d9f669-8fa3-4a14-91d6-028b64e16e98","ios":"levelo://app?vid=84d9f669-8fa3-4a14-91d6-028b64e16e98"},"vehicle_type_id":"4","last_reported":1701630282,"current_range_meters":18000,"station_id":"ce4bgvp2rcd13ifvqct0","pricing_plan_id":"free"},{"bike_id":"08d21638-9787-46b3-a6d0-98512be83a7f","system_id":"levelo_inurba_marseille","lat":43.30946,"lon":5.40147,"is_reserved":false,"is_disabled":false,"rental_uris":{"android":"levelo://app?vid=08d21638-9787-46b3-a6d0-98512be83a7f","ios":"levelo://app?vid=08d21638-9787-46b3-a6d0-98512be83a7f"},"vehicle_type_id":"4","last_reported":1701630282,"current_range_meters":9600,"station_id":"ce4bgvp2rcd13ifvqct0","pricing_plan_id":"free"},{"bike_id":"c20f04af-c047-488a-b634-e7831ed17fc9","system_id":"levelo_inurba_marseille","lat":43.3093,"lon":5.40146,"is_reserved":false,"is_disabled":false,"rental_uris":{"android":"levelo://app?vid=c20f04af-c047-488a-b634-e7831ed17fc9","ios":"levelo://app?vid=c20f04af-c047-488a-b634-e7831ed17fc9"},"vehicle_type_id":"4","last_reported":1701630282,"current_range_meters":23200,"station_id":"ce4bgvp2rcd13ifvqct0","pricing_plan_id":"free"},{"bike_id":"d277906a-d34c-4bcd-a9fb-319a9eab5bd8","system_id":"levelo_inurba_marseille","lat":43.298681,"lon":5.397225,"is_reserved":false,"is_disabled":false,"rental_uris":{"android":"levelo://app?vid=d277906a-d34c-4bcd-a9fb-319a9eab5bd8","ios":"levelo://app?vid=d277906a-d34c-4bcd-a9fb-319a9eab5bd8"},"vehicle_type_id":"4","last_reported":1701630282,"current_range_meters":2800,"station_id":"ce4bh0h2rcd13ifvqd50","pricing_plan_id":"free"},{"bike_id":"f340f122-5610-4d3b-a666-a504e2669cec","system_id":"levelo_inurba_marseille","lat":43.298681,"lon":5.397225,"is_reserved":false,"is_disabled":false,"rental_uris":{"android":"levelo://app?vid=f340f122-5610-4d3b-a666-a504e2669cec","ios":"levelo://app?vid=f340f122-5610-4d3b-a666-a504e2669cec"},"vehicle_type_id":"4","last_reported":1701630282,"current_range_meters":10400,"station_id":"ce4bh0h2rcd13ifvqd50","pricing_plan_id":"free"},{"bike_id":"d9619606-9634-45ee-8049-e5ba7f10e2d3","system_id":"levelo_inurba_marseille","lat":43.298681,"lon":5.397225,"is_reserved":false,"is_disabled":false,"rental_uris":{"android":"levelo://app?vid=d9619606-9634-45ee-8049-e5ba7f10e2d3","ios":"levelo://app?vid=d9619606-9634-45ee-8049-e5ba7f10e2d3"},"vehicle_type_id":"4","last_reported":1701630282,"current_range_meters":2800,"station_id":"ce4bh0h2rcd13ifvqd50","pricing_plan_id":"free"},{"bike_id":"f4b23cd2-d3a8-4238-99c1-274a7386417b","system_id":"levelo_inurba_marseille","lat":43.28699,"lon":5.374015,"is_reserved":false,"is_disabled":false,"rental_uris":{"android":"levelo://app?vid=f4b23cd2-d3a8-4238-99c1-274a7386417b","ios":"levelo://app?vid=f4b23cd2-d3a8-4238-99c1-274a7386417b"},"vehicle_type_id":"4","last_reported":1701630282,"current_range_meters":22800,"station_id":"ce4bh3p2rcd13ifvqdq0","pricing_plan_id":"free"},{"bike_id":"4546f60d-77cd-468f-ac43-6ec1db4135da","system_id":"levelo_inurba_marseille","lat":43.286591,"lon":5.363346,"is_reserved":false,"is_disabled":false,"rental_uris":{"android":"levelo://app?vid=4546f60d-77cd-468f-ac43-6ec1db4135da","ios":"levelo://app?vid=4546f60d-77cd-468f-ac43-6ec1db4135da"},"vehicle_type_id":"4","last_reported":1701630282,"current_range_meters":13600,"station_id":"ce4bhah2rcd13ifvqej0","pricing_plan_id":"free"},{"bike_id":"865bbc53-bebb-43ff-9dea-6d76b83b72a1","system_id":"levelo_inurba_marseille","lat":43.286961,"lon":5.373785,"is_reserved":false,"is_disabled":false,"rental_uris":{"android":"levelo://app?vid=865bbc53-bebb-43ff-9dea-6d76b83b72a1","ios":"levelo://app?vid=865bbc53-bebb-43ff-9dea-6d76b83b72a1"},"vehicle_type_id":"4","last_reported":1701630282,"current_range_meters":25600,"station_id":"ce4bh3p2rcd13ifvqdq0","pricing_plan_id":"free"},{"bike_id":"f02f3243-ea83-483a-8af1-4c8628210ea2","system_id":"levelo_inurba_marseille","lat":43.2861,"lon":5.35101,"is_reserved":false,"is_disabled":false,"rental_uris":{"android":"levelo://app?vid=f02f3243-ea83-483a-8af1-4c8628210ea2","ios":"levelo://app?vid=f02f3243-ea83-483a-8af1-4c8628210ea2"},"vehicle_type_id":"4","last_reported":1701630282,"current_range_meters":15600,"station_id":"ce4bhch2rcd13ifvqeug","pricing_plan_id":"free"},{"bike_id":"5a3c04d2-ecc3-40ce-8b74-fe5660e95ae7","system_id":"levelo_inurba_marseille","lat":43.285848,"lon":5.350787,"is_reserved":false,"is_disabled":false,"rental_uris":{"android":"levelo://app?vid=5a3c04d2-ecc3-40ce-8b74-fe5660e95ae7","ios":"levelo://app?vid=5a3c04d2-ecc3-40ce-8b74-fe5660e95ae7"},"vehicle_type_id":"4","last_reported":1701630282,"current_range_meters":15600,"station_id":"ce4bhch2rcd13ifvqeug","pricing_plan_id":"free"},{"bike_id":"40a62de0-cbe5-45b5-8151-8364e404bb8d","system_id":"levelo_inurba_marseille","lat":43.283998,"lon":5.375062,"is_reserved":false,"is_disabled":false,"rental_uris":{"android":"levelo://app?vid=40a62de0-cbe5-45b5-8151-8364e404bb8d","ios":"levelo://app?vid=40a62de0-cbe5-45b5-8151-8364e404bb8d"},"vehicle_type_id":"4","last_reported":1701630282,"current_range_meters":18800,"station_id":"ce4bh412rcd13ifvqds0","pricing_plan_id":"free"},{"bike_id":"5a6d5c80-a7a9-47e6-85e0-6875bc9e2103","system_id":"levelo_inurba_marseille","lat":43.283998,"lon":5.375062,"is_reserved":false,"is_disabled":false,"rental_uris":{"android":"levelo://app?vid=5a6d5c80-a7a9-47e6-85e0-6875bc9e2103","ios":"levelo://app?vid=5a6d5c80-a7a9-47e6-85e0-6875bc9e2103"},"vehicle_type_id":"4","last_reported":1701630282,"current_range_meters":25200,"station_id":"ce4bh412rcd13ifvqds0","pricing_plan_id":"free"},{"bike_id":"b716489b-9c40-4d3d-bc45-02769c398e16","system_id":"levelo_inurba_marseille","lat":43.283998,"lon":5.375062,"is_reserved":false,"is_disabled":false,"rental_uris":{"android":"levelo://app?vid=b716489b-9c40-4d3d-bc45-02769c398e16","ios":"levelo://app?vid=b716489b-9c40-4d3d-bc45-02769c398e16"},"vehicle_type_id":"4","last_reported":1701630282,"current_range_meters":24800,"station_id":"ce4bh412rcd13ifvqds0","pricing_plan_id":"free"},{"bike_id":"4b22133d-6fbf-475b-98a8-eaef71155c6e","system_id":"levelo_inurba_marseille","lat":43.319179,"lon":5.407725,"is_reserved":false,"is_disabled":false,"rental_uris":{"android":"levelo://app?vid=4b22133d-6fbf-475b-98a8-eaef71155c6e","ios":"levelo://app?vid=4b22133d-6fbf-475b-98a8-eaef71155c6e"},"vehicle_type_id":"4","last_reported":1701630282,"current_range_meters":19200,"station_id":"ce4bhq12rcd13ifvqhig","pricing_plan_id":"free"},{"bike_id":"23a6e18e-5ad6-40cf-b6fb-7a4b1a6034c9","system_id":"levelo_inurba_marseille","lat":43.33745,"lon":5.39116,"is_reserved":false,"is_disabled":false,"rental_uris":{"android":"levelo://app?vid=23a6e18e-5ad6-40cf-b6fb-7a4b1a6034c9","ios":"levelo://app?vid=23a6e18e-5ad6-40cf-b6fb-7a4b1a6034c9"},"vehicle_type_id":"4","last_reported":1701630282,"current_range_meters":27200,"station_id":"","pricing_plan_id":"free"},{"bike_id":"4b021143-be23-4d8d-ac72-086548831286","system_id":"levelo_inurba_marseille","lat":43.33717,"lon":5.391857,"is_reserved":false,"is_disabled":false,"rental_uris":{"android":"levelo://app?vid=4b021143-be23-4d8d-ac72-086548831286","ios":"levelo://app?vid=4b021143-be23-4d8d-ac72-086548831286"},"vehicle_type_id":"4","last_reported":1701630282,"current_range_meters":28000,"station_id":"ce4bhr92rcd13ifvqhsg","pricing_plan_id":"free"},{"bike_id":"69eb8569-128d-4dd8-aca2-036e464b04b9","system_id":"levelo_inurba_marseille","lat":43.289363,"lon":5.396322,"is_reserved":false,"is_disabled":false,"rental_uris":{"android":"levelo://app?vid=69eb8569-128d-4dd8-aca2-036e464b04b9","ios":"levelo://app?vid=69eb8569-128d-4dd8-aca2-036e464b04b9"},"vehicle_type_id":"4","last_reported":1701630282,"current_range_meters":16800,"station_id":"ce4bh3h2rcd13ifvqdn0","pricing_plan_id":"free"},{"bike_id":"b6e5d7ad-362d-4e20-a8f0-f2e57358baee","system_id":"levelo_inurba_marseille","lat":43.292724,"lon":5.401131,"is_reserved":false,"is_disabled":false,"rental_uris":{"android":"levelo://app?vid=b6e5d7ad-362d-4e20-a8f0-f2e57358baee","ios":"levelo://app?vid=b6e5d7ad-362d-4e20-a8f0-f2e57358baee"},"vehicle_type_id":"4","last_reported":1701630282,"current_range_meters":19200,"station_id":"ce4bh312rcd13ifvqdk0","pricing_plan_id":"free"},{"bike_id":"b509531b-3dfd-4a3f-b468-6429ff0117a8","system_id":"levelo_inurba_marseille","lat":43.292724,"lon":5.401131,"is_reserved":false,"is_disabled":false,"rental_uris":{"android":"levelo://app?vid=b509531b-3dfd-4a3f-b468-6429ff0117a8","ios":"levelo://app?vid=b509531b-3dfd-4a3f-b468-6429ff0117a8"},"vehicle_type_id":"4","last_reported":1701630282,"current_range_meters":11600,"station_id":"ce4bh312rcd13ifvqdk0","pricing_plan_id":"free"},{"bike_id":"ffd0f445-c315-47d0-bd2e-08562e20ea25","system_id":"levelo_inurba_marseille","lat":43.282744,"lon":5.350533,"is_reserved":false,"is_disabled":false,"rental_uris":{"android":"levelo://app?vid=ffd0f445-c315-47d0-bd2e-08562e20ea25","ios":"levelo://app?vid=ffd0f445-c315-47d0-bd2e-08562e20ea25"},"vehicle_type_id":"4","last_reported":1701630282,"current_range_meters":26400,"station_id":"ce4bhbp2rcd13ifvqerg","pricing_plan_id":"free"},{"bike_id":"a9cec647-2fa3-4d82-a42f-4dd28accb0c0","system_id":"levelo_inurba_marseille","lat":43.28039,"lon":5.369297,"is_reserved":false,"is_disabled":false,"rental_uris":{"android":"levelo://app?vid=a9cec647-2fa3-4d82-a42f-4dd28accb0c0","ios":"levelo://app?vid=a9cec647-2fa3-4d82-a42f-4dd28accb0c0"},"vehicle_type_id":"4","last_reported":1701630282,"current_range_meters":30400,"station_id":"ce4bha12rcd13ifvqef0","pricing_plan_id":"free"},{"bike_id":"2bc3ede3-14be-4629-9ad4-5b4ae198650f","system_id":"levelo_inurba_marseille","lat":43.28039,"lon":5.369297,"is_reserved":false,"is_disabled":false,"rental_uris":{"android":"levelo://app?vid=2bc3ede3-14be-4629-9ad4-5b4ae198650f","ios":"levelo://app?vid=2bc3ede3-14be-4629-9ad4-5b4ae198650f"},"vehicle_type_id":"4","last_reported":1701630282,"current_range_meters":28000,"station_id":"ce4bha12rcd13ifvqef0","pricing_plan_id":"free"},{"bike_id":"165085d8-a2ce-4ed5-8c3e-0e518dc6e497","system_id":"levelo_inurba_marseille","lat":43.281044,"lon":5.378308,"is_reserved":false,"is_disabled":false,"rental_uris":{"android":"levelo://app?vid=165085d8-a2ce-4ed5-8c3e-0e518dc6e497","ios":"levelo://app?vid=165085d8-a2ce-4ed5-8c3e-0e518dc6e497"},"vehicle_type_id":"4","last_reported":1701630282,"current_range_meters":15200,"station_id":"ce4bha12rcd13ifvqee0","pricing_plan_id":"free"},{"bike_id":"7a33bebd-e3e5-425f-960b-fe25aec483ef","system_id":"levelo_inurba_marseille","lat":43.28095,"lon":5.37849,"is_reserved":false,"is_disabled":false,"rental_uris":{"android":"levelo://app?vid=7a33bebd-e3e5-425f-960b-fe25aec483ef","ios":"levelo://app?vid=7a33bebd-e3e5-425f-960b-fe25aec483ef"},"vehicle_type_id":"4","last_reported":1701630282,"current_range_meters":0,"station_id":"ce4bha12rcd13ifvqee0","pricing_plan_id":"free"},{"bike_id":"83d4ecdb-a1f2-4efc-89d9-296332c5f116","system_id":"levelo_inurba_marseille","lat":43.326605,"lon":5.409903,"is_reserved":false,"is_disabled":false,"rental_uris":{"android":"levelo://app?vid=83d4ecdb-a1f2-4efc-89d9-296332c5f116","ios":"levelo://app?vid=83d4ecdb-a1f2-4efc-89d9-296332c5f116"},"vehicle_type_id":"4","last_reported":1701630282,"current_range_meters":4000,"station_id":"ce4bhpp2rcd13ifvqhgg","pricing_plan_id":"free"},{"bike_id":"2bb6c6e3-3605-48ff-aa4a-063f9b7b33fd","system_id":"levelo_inurba_marseille","lat":43.279087,"lon":5.380114,"is_reserved":false,"is_disabled":false,"rental_uris":{"android":"levelo://app?vid=2bb6c6e3-3605-48ff-aa4a-063f9b7b33fd","ios":"levelo://app?vid=2bb6c6e3-3605-48ff-aa4a-063f9b7b33fd"},"vehicle_type_id":"4","last_reported":1701630282,"current_range_meters":26400,"station_id":"ce4bhf92rcd13ifvqf50","pricing_plan_id":"free"},{"bike_id":"c59bd1de-b9ae-4c97-95a9-a400ce1f43be","system_id":"levelo_inurba_marseille","lat":43.320045,"lon":5.415046,"is_reserved":false,"is_disabled":false,"rental_uris":{"android":"levelo://app?vid=c59bd1de-b9ae-4c97-95a9-a400ce1f43be","ios":"levelo://app?vid=c59bd1de-b9ae-4c97-95a9-a400ce1f43be"},"vehicle_type_id":"4","last_reported":1701630282,"current_range_meters":25200,"station_id":"ce4bhq92rcd13ifvqhkg","pricing_plan_id":"free"},{"bike_id":"cc6e5a18-6e9e-4cfc-b7c9-2d91564a173b","system_id":"levelo_inurba_marseille","lat":43.320045,"lon":5.415048,"is_reserved":false,"is_disabled":false,"rental_uris":{"android":"levelo://app?vid=cc6e5a18-6e9e-4cfc-b7c9-2d91564a173b","ios":"levelo://app?vid=cc6e5a18-6e9e-4cfc-b7c9-2d91564a173b"},"vehicle_type_id":"4","last_reported":1701630282,"current_range_meters":6800,"station_id":"ce4bhq92rcd13ifvqhkg","pricing_plan_id":"free"},{"bike_id":"5c60e7ca-28e2-4e30-a39e-570c5634e4f9","system_id":"levelo_inurba_marseille","lat":43.279742,"lon":5.38744,"is_reserved":false,"is_disabled":false,"rental_uris":{"android":"levelo://app?vid=5c60e7ca-28e2-4e30-a39e-570c5634e4f9","ios":"levelo://app?vid=5c60e7ca-28e2-4e30-a39e-570c5634e4f9"},"vehicle_type_id":"4","last_reported":1701630282,"current_range_meters":0,"station_id":"ce4bhg12rcd13ifvqf80","pricing_plan_id":"free"},{"bike_id":"d83ccb3e-3ec2-4a1c-8424-08e0b207462f","system_id":"levelo_inurba_marseille","lat":43.292647,"lon":5.409162,"is_reserved":false,"is_disabled":false,"rental_uris":{"android":"levelo://app?vid=d83ccb3e-3ec2-4a1c-8424-08e0b207462f","ios":"levelo://app?vid=d83ccb3e-3ec2-4a1c-8424-08e0b207462f"},"vehicle_type_id":"4","last_reported":1701630282,"current_range_meters":15200,"station_id":"","pricing_plan_id":"free"},{"bike_id":"42724f3c-8f40-42f6-bc27-ef448d3caf37","system_id":"levelo_inurba_marseille","lat":43.280784,"lon":5.396622,"is_reserved":false,"is_disabled":false,"rental_uris":{"android":"levelo://app?vid=42724f3c-8f40-42f6-bc27-ef448d3caf37","ios":"levelo://app?vid=42724f3c-8f40-42f6-bc27-ef448d3caf37"},"vehicle_type_id":"4","last_reported":1701630282,"current_range_meters":16400,"station_id":"ce4bho12rcd13ifvqh2g","pricing_plan_id":"free"},{"bike_id":"08c270e9-878b-4530-9c6d-c88b6c7a35a8","system_id":"levelo_inurba_marseille","lat":43.280784,"lon":5.396622,"is_reserved":false,"is_disabled":false,"rental_uris":{"android":"levelo://app?vid=08c270e9-878b-4530-9c6d-c88b6c7a35a8","ios":"levelo://app?vid=08c270e9-878b-4530-9c6d-c88b6c7a35a8"},"vehicle_type_id":"4","last_reported":1701630282,"current_range_meters":14000,"station_id":"ce4bho12rcd13ifvqh2g","pricing_plan_id":"free"},{"bike_id":"487ad7ad-ee7f-40ab-b43c-43d7d5434705","system_id":"levelo_inurba_marseille","lat":43.303837,"lon":5.418724,"is_reserved":false,"is_disabled":false,"rental_uris":{"android":"levelo://app?vid=487ad7ad-ee7f-40ab-b43c-43d7d5434705","ios":"levelo://app?vid=487ad7ad-ee7f-40ab-b43c-43d7d5434705"},"vehicle_type_id":"4","last_reported":1701630282,"current_range_meters":30400,"station_id":"ce4bhop2rcd13ifvqh7g","pricing_plan_id":"free"},{"bike_id":"8eeb6378-db67-4e98-8d8e-712f4e02bd2f","system_id":"levelo_inurba_marseille","lat":43.278401,"lon":5.392152,"is_reserved":false,"is_disabled":false,"rental_uris":{"android":"levelo://app?vid=8eeb6378-db67-4e98-8d8e-712f4e02bd2f","ios":"levelo://app?vid=8eeb6378-db67-4e98-8d8e-712f4e02bd2f"},"vehicle_type_id":"4","last_reported":1701630282,"current_range_meters":27200,"station_id":"ce4bhjp2rcd13ifvqga0","pricing_plan_id":"free"},{"bike_id":"e01b2325-ace8-434e-96ac-a1269c02423d","system_id":"levelo_inurba_marseille","lat":43.275625,"lon":5.384392,"is_reserved":false,"is_disabled":false,"rental_uris":{"android":"levelo://app?vid=e01b2325-ace8-434e-96ac-a1269c02423d","ios":"levelo://app?vid=e01b2325-ace8-434e-96ac-a1269c02423d"},"vehicle_type_id":"4","last_reported":1701630282,"current_range_meters":25200,"station_id":"ce4bhh92rcd13ifvqfi0","pricing_plan_id":"free"},{"bike_id":"4c266738-4562-4ce1-aca7-b04f03b275b5","system_id":"levelo_inurba_marseille","lat":43.317121,"lon":5.423936,"is_reserved":false,"is_disabled":false,"rental_uris":{"android":"levelo://app?vid=4c266738-4562-4ce1-aca7-b04f03b275b5","ios":"levelo://app?vid=4c266738-4562-4ce1-aca7-b04f03b275b5"},"vehicle_type_id":"4","last_reported":1701630282,"current_range_meters":9600,"station_id":"ce4bhp92rcd13ifvqhbg","pricing_plan_id":"free"},{"bike_id":"ae9af643-001e-42d9-8c47-cb12ff606b64","system_id":"levelo_inurba_marseille","lat":43.317121,"lon":5.423936,"is_reserved":false,"is_disabled":false,"rental_uris":{"android":"levelo://app?vid=ae9af643-001e-42d9-8c47-cb12ff606b64","ios":"levelo://app?vid=ae9af643-001e-42d9-8c47-cb12ff606b64"},"vehicle_type_id":"4","last_reported":1701630282,"current_range_meters":6800,"station_id":"ce4bhp92rcd13ifvqhbg","pricing_plan_id":"free"},{"bike_id":"ba2cdc49-316c-4fb7-ae87-5812c3ece311","system_id":"levelo_inurba_marseille","lat":43.317121,"lon":5.423936,"is_reserved":false,"is_disabled":false,"rental_uris":{"android":"levelo://app?vid=ba2cdc49-316c-4fb7-ae87-5812c3ece311","ios":"levelo://app?vid=ba2cdc49-316c-4fb7-ae87-5812c3ece311"},"vehicle_type_id":"4","last_reported":1701630282,"current_range_meters":30800,"station_id":"ce4bhp92rcd13ifvqhbg","pricing_plan_id":"free"},{"bike_id":"910fd3aa-d2e0-4553-894a-6161d41c7fcd","system_id":"levelo_inurba_marseille","lat":43.27609,"lon":5.39475,"is_reserved":false,"is_disabled":false,"rental_uris":{"android":"levelo://app?vid=910fd3aa-d2e0-4553-894a-6161d41c7fcd","ios":"levelo://app?vid=910fd3aa-d2e0-4553-894a-6161d41c7fcd"},"vehicle_type_id":"4","last_reported":1701630282,"current_range_meters":14800,"station_id":"","pricing_plan_id":"free"},{"bike_id":"7dad5fee-3b24-4370-be23-bef38d7b72fb","system_id":"levelo_inurba_marseille","lat":43.273125,"lon":5.390731,"is_reserved":false,"is_disabled":false,"rental_uris":{"android":"levelo://app?vid=7dad5fee-3b24-4370-be23-bef38d7b72fb","ios":"levelo://app?vid=7dad5fee-3b24-4370-be23-bef38d7b72fb"},"vehicle_type_id":"4","last_reported":1701630282,"current_range_meters":16000,"station_id":"ce4bhgp2rcd13ifvqfe0","pricing_plan_id":"free"},{"bike_id":"3edcb459-c4d1-4877-949a-61e70f772fac","system_id":"levelo_inurba_marseille","lat":43.27322,"lon":5.39078,"is_reserved":false,"is_disabled":false,"rental_uris":{"android":"levelo://app?vid=3edcb459-c4d1-4877-949a-61e70f772fac","ios":"levelo://app?vid=3edcb459-c4d1-4877-949a-61e70f772fac"},"vehicle_type_id":"4","last_reported":1701630282,"current_range_meters":0,"station_id":"ce4bhgp2rcd13ifvqfe0","pricing_plan_id":"free"},{"bike_id":"695bad8d-cd27-4ccd-a12c-cfc1a6c65dbb","system_id":"levelo_inurba_marseille","lat":43.273125,"lon":5.390731,"is_reserved":false,"is_disabled":false,"rental_uris":{"android":"levelo://app?vid=695bad8d-cd27-4ccd-a12c-cfc1a6c65dbb","ios":"levelo://app?vid=695bad8d-cd27-4ccd-a12c-cfc1a6c65dbb"},"vehicle_type_id":"4","last_reported":1701630282,"current_range_meters":12800,"station_id":"ce4bhgp2rcd13ifvqfe0","pricing_plan_id":"free"},{"bike_id":"5a6a6ed8-b287-41d3-b15c-a8e6568e97ae","system_id":"levelo_inurba_marseille","lat":43.27312,"lon":5.39088,"is_reserved":false,"is_disabled":false,"rental_uris":{"android":"levelo://app?vid=5a6a6ed8-b287-41d3-b15c-a8e6568e97ae","ios":"levelo://app?vid=5a6a6ed8-b287-41d3-b15c-a8e6568e97ae"},"vehicle_type_id":"4","last_reported":1701630282,"current_range_meters":0,"station_id":"ce4bhgp2rcd13ifvqfe0","pricing_plan_id":"free"},{"bike_id":"9cf7360c-a2c1-40db-bf29-710d87a5fa1c","system_id":"levelo_inurba_marseille","lat":43.274099,"lon":5.394019,"is_reserved":false,"is_disabled":false,"rental_uris":{"android":"levelo://app?vid=9cf7360c-a2c1-40db-bf29-710d87a5fa1c","ios":"levelo://app?vid=9cf7360c-a2c1-40db-bf29-710d87a5fa1c"},"vehicle_type_id":"4","last_reported":1701630282,"current_range_meters":10000,"station_id":"ce4bhdp2rcd13ifvqf20","pricing_plan_id":"free"},{"bike_id":"1e7c4549-42c6-4210-8f8c-78d6cebbc410","system_id":"levelo_inurba_marseille","lat":43.273129,"lon":5.390725,"is_reserved":false,"is_disabled":false,"rental_uris":{"android":"levelo://app?vid=1e7c4549-42c6-4210-8f8c-78d6cebbc410","ios":"levelo://app?vid=1e7c4549-42c6-4210-8f8c-78d6cebbc410"},"vehicle_type_id":"4","last_reported":1701630282,"current_range_meters":4800,"station_id":"ce4bhgp2rcd13ifvqfe0","pricing_plan_id":"free"},{"bike_id":"35730b74-93f9-4095-93d8-9864527e87be","system_id":"levelo_inurba_marseille","lat":43.274099,"lon":5.394019,"is_reserved":false,"is_disabled":false,"rental_uris":{"android":"levelo://app?vid=35730b74-93f9-4095-93d8-9864527e87be","ios":"levelo://app?vid=35730b74-93f9-4095-93d8-9864527e87be"},"vehicle_type_id":"4","last_reported":1701630282,"current_range_meters":3200,"station_id":"ce4bhdp2rcd13ifvqf20","pricing_plan_id":"free"},{"bike_id":"75e72b5a-e5b4-4ec6-bd14-0516a2992e57","system_id":"levelo_inurba_marseille","lat":43.295523,"lon":5.422926,"is_reserved":false,"is_disabled":false,"rental_uris":{"android":"levelo://app?vid=75e72b5a-e5b4-4ec6-bd14-0516a2992e57","ios":"levelo://app?vid=75e72b5a-e5b4-4ec6-bd14-0516a2992e57"},"vehicle_type_id":"4","last_reported":1701630282,"current_range_meters":26800,"station_id":"ce4bhph2rcd13ifvqhdg","pricing_plan_id":"free"},{"bike_id":"16ed0702-3beb-465e-8f72-aa4e21e2a2dc","system_id":"levelo_inurba_marseille","lat":43.295511,"lon":5.422926,"is_reserved":false,"is_disabled":false,"rental_uris":{"android":"levelo://app?vid=16ed0702-3beb-465e-8f72-aa4e21e2a2dc","ios":"levelo://app?vid=16ed0702-3beb-465e-8f72-aa4e21e2a2dc"},"vehicle_type_id":"4","last_reported":1701630282,"current_range_meters":10000,"station_id":"ce4bhph2rcd13ifvqhdg","pricing_plan_id":"free"},{"bike_id":"4eebe8ca-da48-4275-b745-812026e910cb","system_id":"levelo_inurba_marseille","lat":43.272124,"lon":5.391768,"is_reserved":false,"is_disabled":false,"rental_uris":{"android":"levelo://app?vid=4eebe8ca-da48-4275-b745-812026e910cb","ios":"levelo://app?vid=4eebe8ca-da48-4275-b745-812026e910cb"},"vehicle_type_id":"4","last_reported":1701630282,"current_range_meters":29600,"station_id":"ce4bhhp2rcd13ifvqfm0","pricing_plan_id":"free"},{"bike_id":"5283819d-3055-404e-bdfe-a7c4ef6c0eb4","system_id":"levelo_inurba_marseille","lat":43.272116,"lon":5.391763,"is_reserved":false,"is_disabled":false,"rental_uris":{"android":"levelo://app?vid=5283819d-3055-404e-bdfe-a7c4ef6c0eb4","ios":"levelo://app?vid=5283819d-3055-404e-bdfe-a7c4ef6c0eb4"},"vehicle_type_id":"4","last_reported":1701630282,"current_range_meters":3600,"station_id":"ce4bhhp2rcd13ifvqfm0","pricing_plan_id":"free"},{"bike_id":"001d2ba0-801f-47cb-9fcc-87836b0f5381","system_id":"levelo_inurba_marseille","lat":43.27206,"lon":5.39181,"is_reserved":false,"is_disabled":false,"rental_uris":{"android":"levelo://app?vid=001d2ba0-801f-47cb-9fcc-87836b0f5381","ios":"levelo://app?vid=001d2ba0-801f-47cb-9fcc-87836b0f5381"},"vehicle_type_id":"4","last_reported":1701630282,"current_range_meters":23200,"station_id":"ce4bhhp2rcd13ifvqfm0","pricing_plan_id":"free"},{"bike_id":"538ee7d1-5a63-40d8-9d45-0fe1cade3215","system_id":"levelo_inurba_marseille","lat":43.272124,"lon":5.391768,"is_reserved":false,"is_disabled":false,"rental_uris":{"android":"levelo://app?vid=538ee7d1-5a63-40d8-9d45-0fe1cade3215","ios":"levelo://app?vid=538ee7d1-5a63-40d8-9d45-0fe1cade3215"},"vehicle_type_id":"4","last_reported":1701630282,"current_range_meters":24400,"station_id":"ce4bhhp2rcd13ifvqfm0","pricing_plan_id":"free"},{"bike_id":"57d210d6-1018-4428-9fa2-3560c4133602","system_id":"levelo_inurba_marseille","lat":43.272118,"lon":5.391758,"is_reserved":false,"is_disabled":false,"rental_uris":{"android":"levelo://app?vid=57d210d6-1018-4428-9fa2-3560c4133602","ios":"levelo://app?vid=57d210d6-1018-4428-9fa2-3560c4133602"},"vehicle_type_id":"4","last_reported":1701630282,"current_range_meters":10400,"station_id":"ce4bhhp2rcd13ifvqfm0","pricing_plan_id":"free"},{"bike_id":"0ec294ff-9422-4356-8a22-81003cc506db","system_id":"levelo_inurba_marseille","lat":43.278128,"lon":5.407195,"is_reserved":false,"is_disabled":false,"rental_uris":{"android":"levelo://app?vid=0ec294ff-9422-4356-8a22-81003cc506db","ios":"levelo://app?vid=0ec294ff-9422-4356-8a22-81003cc506db"},"vehicle_type_id":"4","last_reported":1701630282,"current_range_meters":10400,"station_id":"ce4bhnh2rcd13ifvqgtg","pricing_plan_id":"free"},{"bike_id":"5256def9-2b15-485a-81e2-bb520df0312a","system_id":"levelo_inurba_marseille","lat":43.269319,"lon":5.389397,"is_reserved":false,"is_disabled":false,"rental_uris":{"android":"levelo://app?vid=5256def9-2b15-485a-81e2-bb520df0312a","ios":"levelo://app?vid=5256def9-2b15-485a-81e2-bb520df0312a"},"vehicle_type_id":"4","last_reported":1701630282,"current_range_meters":31600,"station_id":"ce4bhhh2rcd13ifvqfl0","pricing_plan_id":"free"},{"bike_id":"3a085ded-79fe-4229-ba36-720621cc3c5b","system_id":"levelo_inurba_marseille","lat":43.27996,"lon":5.416624,"is_reserved":false,"is_disabled":false,"rental_uris":{"android":"levelo://app?vid=3a085ded-79fe-4229-ba36-720621cc3c5b","ios":"levelo://app?vid=3a085ded-79fe-4229-ba36-720621cc3c5b"},"vehicle_type_id":"4","last_reported":1701630282,"current_range_meters":9600,"station_id":"ce4bho12rcd13ifvqh1g","pricing_plan_id":"free"},{"bike_id":"9fcfeaec-6469-4eed-a124-10022e8624e5","system_id":"levelo_inurba_marseille","lat":43.265714,"lon":5.372891,"is_reserved":false,"is_disabled":false,"rental_uris":{"android":"levelo://app?vid=9fcfeaec-6469-4eed-a124-10022e8624e5","ios":"levelo://app?vid=9fcfeaec-6469-4eed-a124-10022e8624e5"},"vehicle_type_id":"4","last_reported":1701630282,"current_range_meters":27600,"station_id":"ce4bhg12rcd13ifvqf70","pricing_plan_id":"free"},{"bike_id":"db8f1bcc-5067-4942-8285-4d3dab60fc9e","system_id":"levelo_inurba_marseille","lat":43.265714,"lon":5.372891,"is_reserved":false,"is_disabled":false,"rental_uris":{"android":"levelo://app?vid=db8f1bcc-5067-4942-8285-4d3dab60fc9e","ios":"levelo://app?vid=db8f1bcc-5067-4942-8285-4d3dab60fc9e"},"vehicle_type_id":"4","last_reported":1701630282,"current_range_meters":3200,"station_id":"ce4bhg12rcd13ifvqf70","pricing_plan_id":"free"},{"bike_id":"20b540af-223f-493d-a347-4e9ea2d240bd","system_id":"levelo_inurba_marseille","lat":43.26949,"lon":5.40262,"is_reserved":false,"is_disabled":false,"rental_uris":{"android":"levelo://app?vid=20b540af-223f-493d-a347-4e9ea2d240bd","ios":"levelo://app?vid=20b540af-223f-493d-a347-4e9ea2d240bd"},"vehicle_type_id":"4","last_reported":1701630282,"current_range_meters":16800,"station_id":"cjm6bp8fraef2m0cb0m0","pricing_plan_id":"free"},{"bike_id":"e9eca45e-9bea-400a-925f-9536b4a307b0","system_id":"levelo_inurba_marseille","lat":43.26949,"lon":5.40262,"is_reserved":false,"is_disabled":false,"rental_uris":{"android":"levelo://app?vid=e9eca45e-9bea-400a-925f-9536b4a307b0","ios":"levelo://app?vid=e9eca45e-9bea-400a-925f-9536b4a307b0"},"vehicle_type_id":"4","last_reported":1701630282,"current_range_meters":1200,"station_id":"cjm6bp8fraef2m0cb0m0","pricing_plan_id":"free"},{"bike_id":"577b6cd3-6946-40f0-88a6-f913101b8be5","system_id":"levelo_inurba_marseille","lat":43.269399,"lon":5.402552,"is_reserved":false,"is_disabled":false,"rental_uris":{"android":"levelo://app?vid=577b6cd3-6946-40f0-88a6-f913101b8be5","ios":"levelo://app?vid=577b6cd3-6946-40f0-88a6-f913101b8be5"},"vehicle_type_id":"4","last_reported":1701630282,"current_range_meters":9200,"station_id":"cjm6bp8fraef2m0cb0m0","pricing_plan_id":"free"},{"bike_id":"bf4ad048-f8b7-41c5-b87b-d5135b06aace","system_id":"levelo_inurba_marseille","lat":43.26187,"lon":5.37446,"is_reserved":false,"is_disabled":false,"rental_uris":{"android":"levelo://app?vid=bf4ad048-f8b7-41c5-b87b-d5135b06aace","ios":"levelo://app?vid=bf4ad048-f8b7-41c5-b87b-d5135b06aace"},"vehicle_type_id":"4","last_reported":1701630282,"current_range_meters":7200,"station_id":"ce4bhgp2rcd13ifvqfc0","pricing_plan_id":"free"},{"bike_id":"08c0ebf9-bf3e-4259-9641-66f2fdb4dde0","system_id":"levelo_inurba_marseille","lat":43.317104,"lon":5.436818,"is_reserved":false,"is_disabled":false,"rental_uris":{"android":"levelo://app?vid=08c0ebf9-bf3e-4259-9641-66f2fdb4dde0","ios":"levelo://app?vid=08c0ebf9-bf3e-4259-9641-66f2fdb4dde0"},"vehicle_type_id":"4","last_reported":1701630282,"current_range_meters":28000,"station_id":"ce4bhp92rcd13ifvqhcg","pricing_plan_id":"free"},{"bike_id":"1c037b83-f5aa-4eb4-ba71-e4f8ef922e17","system_id":"levelo_inurba_marseille","lat":43.27175,"lon":5.40991,"is_reserved":false,"is_disabled":false,"rental_uris":{"android":"levelo://app?vid=1c037b83-f5aa-4eb4-ba71-e4f8ef922e17","ios":"levelo://app?vid=1c037b83-f5aa-4eb4-ba71-e4f8ef922e17"},"vehicle_type_id":"4","last_reported":1701630282,"current_range_meters":13200,"station_id":"ce4bhl12rcd13ifvqgf0","pricing_plan_id":"free"},{"bike_id":"fb48b244-4e90-46f0-a8c4-6f58f46f37fc","system_id":"levelo_inurba_marseille","lat":43.27175,"lon":5.40996,"is_reserved":false,"is_disabled":false,"rental_uris":{"android":"levelo://app?vid=fb48b244-4e90-46f0-a8c4-6f58f46f37fc","ios":"levelo://app?vid=fb48b244-4e90-46f0-a8c4-6f58f46f37fc"},"vehicle_type_id":"4","last_reported":1701630282,"current_range_meters":14800,"station_id":"ce4bhl12rcd13ifvqgf0","pricing_plan_id":"free"},{"bike_id":"3077bcab-438e-4dd0-bf48-5f4d9e38e248","system_id":"levelo_inurba_marseille","lat":43.271388,"lon":5.409269,"is_reserved":false,"is_disabled":false,"rental_uris":{"android":"levelo://app?vid=3077bcab-438e-4dd0-bf48-5f4d9e38e248","ios":"levelo://app?vid=3077bcab-438e-4dd0-bf48-5f4d9e38e248"},"vehicle_type_id":"4","last_reported":1701630282,"current_range_meters":18400,"station_id":"ce4bhl12rcd13ifvqgf0","pricing_plan_id":"free"},{"bike_id":"19daf5e3-6af4-4e70-b97c-c9dda04c99d9","system_id":"levelo_inurba_marseille","lat":43.267959,"lon":5.402687,"is_reserved":false,"is_disabled":false,"rental_uris":{"android":"levelo://app?vid=19daf5e3-6af4-4e70-b97c-c9dda04c99d9","ios":"levelo://app?vid=19daf5e3-6af4-4e70-b97c-c9dda04c99d9"},"vehicle_type_id":"4","last_reported":1701630282,"current_range_meters":21600,"station_id":"ce501612rcd8frsf0b60","pricing_plan_id":"free"},{"bike_id":"fe5031d5-2f0d-4035-86b1-c742d73eeb3e","system_id":"levelo_inurba_marseille","lat":43.267959,"lon":5.402687,"is_reserved":false,"is_disabled":false,"rental_uris":{"android":"levelo://app?vid=fe5031d5-2f0d-4035-86b1-c742d73eeb3e","ios":"levelo://app?vid=fe5031d5-2f0d-4035-86b1-c742d73eeb3e"},"vehicle_type_id":"4","last_reported":1701630282,"current_range_meters":19600,"station_id":"ce501612rcd8frsf0b60","pricing_plan_id":"free"},{"bike_id":"2d610ba6-fcf3-4809-9a5e-efd5439f15ad","system_id":"levelo_inurba_marseille","lat":43.267959,"lon":5.402687,"is_reserved":false,"is_disabled":false,"rental_uris":{"android":"levelo://app?vid=2d610ba6-fcf3-4809-9a5e-efd5439f15ad","ios":"levelo://app?vid=2d610ba6-fcf3-4809-9a5e-efd5439f15ad"},"vehicle_type_id":"4","last_reported":1701630282,"current_range_meters":30000,"station_id":"ce501612rcd8frsf0b60","pricing_plan_id":"free"},{"bike_id":"29a520d0-38f3-4808-95aa-92cc0f49450e","system_id":"levelo_inurba_marseille","lat":43.281548,"lon":5.42643,"is_reserved":false,"is_disabled":false,"rental_uris":{"android":"levelo://app?vid=29a520d0-38f3-4808-95aa-92cc0f49450e","ios":"levelo://app?vid=29a520d0-38f3-4808-95aa-92cc0f49450e"},"vehicle_type_id":"4","last_reported":1701630282,"current_range_meters":20400,"station_id":"ce4bhnh2rcd13ifvqgug","pricing_plan_id":"free"},{"bike_id":"0fd8254e-a95a-4dc5-963d-03782d038304","system_id":"levelo_inurba_marseille","lat":43.28153,"lon":5.42645,"is_reserved":false,"is_disabled":false,"rental_uris":{"android":"levelo://app?vid=0fd8254e-a95a-4dc5-963d-03782d038304","ios":"levelo://app?vid=0fd8254e-a95a-4dc5-963d-03782d038304"},"vehicle_type_id":"4","last_reported":1701630282,"current_range_meters":24400,"station_id":"ce4bhnh2rcd13ifvqgug","pricing_plan_id":"free"},{"bike_id":"19337c19-12ca-4f3b-a568-40a561779510","system_id":"levelo_inurba_marseille","lat":43.281422,"lon":5.429956,"is_reserved":false,"is_disabled":false,"rental_uris":{"android":"levelo://app?vid=19337c19-12ca-4f3b-a568-40a561779510","ios":"levelo://app?vid=19337c19-12ca-4f3b-a568-40a561779510"},"vehicle_type_id":"4","last_reported":1701630282,"current_range_meters":25600,"station_id":"","pricing_plan_id":"free"},{"bike_id":"1202565a-8139-411a-b2b1-61d7d16f4a30","system_id":"levelo_inurba_marseille","lat":43.2607,"lon":5.393983,"is_reserved":false,"is_disabled":false,"rental_uris":{"android":"levelo://app?vid=1202565a-8139-411a-b2b1-61d7d16f4a30","ios":"levelo://app?vid=1202565a-8139-411a-b2b1-61d7d16f4a30"},"vehicle_type_id":"4","last_reported":1701630282,"current_range_meters":20800,"station_id":"ce4bhh92rcd13ifvqfj0","pricing_plan_id":"free"},{"bike_id":"a722ba12-0a72-4470-badb-5caa82259c28","system_id":"levelo_inurba_marseille","lat":43.258224,"lon":5.394369,"is_reserved":false,"is_disabled":false,"rental_uris":{"android":"levelo://app?vid=a722ba12-0a72-4470-badb-5caa82259c28","ios":"levelo://app?vid=a722ba12-0a72-4470-badb-5caa82259c28"},"vehicle_type_id":"4","last_reported":1701630282,"current_range_meters":800,"station_id":"ce4bhip2rcd13ifvqft0","pricing_plan_id":"free"},{"bike_id":"979bd0ab-d370-4aa5-a434-de4ebc9bb714","system_id":"levelo_inurba_marseille","lat":43.258658,"lon":5.398935,"is_reserved":false,"is_disabled":false,"rental_uris":{"android":"levelo://app?vid=979bd0ab-d370-4aa5-a434-de4ebc9bb714","ios":"levelo://app?vid=979bd0ab-d370-4aa5-a434-de4ebc9bb714"},"vehicle_type_id":"4","last_reported":1701630282,"current_range_meters":25200,"station_id":"ce4bhl92rcd13ifvqghg","pricing_plan_id":"free"},{"bike_id":"1aa53b3d-e4a4-4f7d-ba4b-b44946373f56","system_id":"levelo_inurba_marseille","lat":43.258658,"lon":5.398935,"is_reserved":false,"is_disabled":false,"rental_uris":{"android":"levelo://app?vid=1aa53b3d-e4a4-4f7d-ba4b-b44946373f56","ios":"levelo://app?vid=1aa53b3d-e4a4-4f7d-ba4b-b44946373f56"},"vehicle_type_id":"4","last_reported":1701630282,"current_range_meters":18800,"station_id":"ce4bhl92rcd13ifvqghg","pricing_plan_id":"free"},{"bike_id":"bdc72d7c-9d46-4016-8a92-851cd50823f9","system_id":"levelo_inurba_marseille","lat":43.25929,"lon":5.40906,"is_reserved":false,"is_disabled":false,"rental_uris":{"android":"levelo://app?vid=bdc72d7c-9d46-4016-8a92-851cd50823f9","ios":"levelo://app?vid=bdc72d7c-9d46-4016-8a92-851cd50823f9"},"vehicle_type_id":"4","last_reported":1701630282,"current_range_meters":22800,"station_id":"ce4bhm92rcd13ifvqglg","pricing_plan_id":"free"},{"bike_id":"8a71ef35-7495-4100-9fba-54e41698ab95","system_id":"levelo_inurba_marseille","lat":43.25718,"lon":5.41113,"is_reserved":false,"is_disabled":false,"rental_uris":{"android":"levelo://app?vid=8a71ef35-7495-4100-9fba-54e41698ab95","ios":"levelo://app?vid=8a71ef35-7495-4100-9fba-54e41698ab95"},"vehicle_type_id":"4","last_reported":1701630282,"current_range_meters":0,"station_id":"ce4bhkp2rcd13ifvqgd0","pricing_plan_id":"free"},{"bike_id":"98b99360-6909-42f6-96c8-71c4cf453988","system_id":"levelo_inurba_marseille","lat":43.257079,"lon":5.411051,"is_reserved":false,"is_disabled":false,"rental_uris":{"android":"levelo://app?vid=98b99360-6909-42f6-96c8-71c4cf453988","ios":"levelo://app?vid=98b99360-6909-42f6-96c8-71c4cf453988"},"vehicle_type_id":"4","last_reported":1701630282,"current_range_meters":7600,"station_id":"ce4bhkp2rcd13ifvqgd0","pricing_plan_id":"free"},{"bike_id":"47218376-6c80-47cd-991a-4badc7584f1a","system_id":"levelo_inurba_marseille","lat":43.25102,"lon":5.403214,"is_reserved":false,"is_disabled":false,"rental_uris":{"android":"levelo://app?vid=47218376-6c80-47cd-991a-4badc7584f1a","ios":"levelo://app?vid=47218376-6c80-47cd-991a-4badc7584f1a"},"vehicle_type_id":"4","last_reported":1701630282,"current_range_meters":16000,"station_id":"ce4bhlh2rcd13ifvqgig","pricing_plan_id":"free"},{"bike_id":"044403c6-9f82-455d-86dd-0f7d7f6925a9","system_id":"levelo_inurba_marseille","lat":43.25112,"lon":5.40322,"is_reserved":false,"is_disabled":false,"rental_uris":{"android":"levelo://app?vid=044403c6-9f82-455d-86dd-0f7d7f6925a9","ios":"levelo://app?vid=044403c6-9f82-455d-86dd-0f7d7f6925a9"},"vehicle_type_id":"4","last_reported":1701630282,"current_range_meters":24000,"station_id":"ce4bhlh2rcd13ifvqgig","pricing_plan_id":"free"},{"bike_id":"d61b5f41-e01d-4ded-8bed-a9c596243b0e","system_id":"levelo_inurba_marseille","lat":43.245581,"lon":5.395069,"is_reserved":false,"is_disabled":false,"rental_uris":{"android":"levelo://app?vid=d61b5f41-e01d-4ded-8bed-a9c596243b0e","ios":"levelo://app?vid=d61b5f41-e01d-4ded-8bed-a9c596243b0e"},"vehicle_type_id":"4","last_reported":1701630282,"current_range_meters":28800,"station_id":"ce4bhlp2rcd13ifvqgjg","pricing_plan_id":"free"},{"bike_id":"66d07158-1c05-469e-a266-b66692f04cb5","system_id":"levelo_inurba_marseille","lat":43.239588,"lon":5.366238,"is_reserved":false,"is_disabled":false,"rental_uris":{"android":"levelo://app?vid=66d07158-1c05-469e-a266-b66692f04cb5","ios":"levelo://app?vid=66d07158-1c05-469e-a266-b66692f04cb5"},"vehicle_type_id":"4","last_reported":1701630282,"current_range_meters":31200,"station_id":"ce4bhi12rcd13ifvqfp0","pricing_plan_id":"free"},{"bike_id":"b101f295-ac85-402a-8afe-c635c176f114","system_id":"levelo_inurba_marseille","lat":43.28532,"lon":5.460758,"is_reserved":false,"is_disabled":false,"rental_uris":{"android":"levelo://app?vid=b101f295-ac85-402a-8afe-c635c176f114","ios":"levelo://app?vid=b101f295-ac85-402a-8afe-c635c176f114"},"vehicle_type_id":"4","last_reported":1701630282,"current_range_meters":18800,"station_id":"","pricing_plan_id":"free"},{"bike_id":"a3aad75b-64ef-4634-9f77-a5b976c8f7fb","system_id":"levelo_inurba_marseille","lat":43.24179,"lon":5.39718,"is_reserved":false,"is_disabled":false,"rental_uris":{"android":"levelo://app?vid=a3aad75b-64ef-4634-9f77-a5b976c8f7fb","ios":"levelo://app?vid=a3aad75b-64ef-4634-9f77-a5b976c8f7fb"},"vehicle_type_id":"4","last_reported":1701630282,"current_range_meters":7200,"station_id":"ce4bhn12rcd13ifvqgpg","pricing_plan_id":"free"},{"bike_id":"a2778a75-2f32-457d-810c-ad5c32010803","system_id":"levelo_inurba_marseille","lat":43.23215,"lon":5.35551,"is_reserved":false,"is_disabled":false,"rental_uris":{"android":"levelo://app?vid=a2778a75-2f32-457d-810c-ad5c32010803","ios":"levelo://app?vid=a2778a75-2f32-457d-810c-ad5c32010803"},"vehicle_type_id":"4","last_reported":1701630282,"current_range_meters":19200,"station_id":"ce4bhu92rcd13ifvqi70","pricing_plan_id":"free"},{"bike_id":"6041d620-664b-4836-b597-a0e62593a032","system_id":"levelo_inurba_marseille","lat":43.231923,"lon":5.355545,"is_reserved":false,"is_disabled":false,"rental_uris":{"android":"levelo://app?vid=6041d620-664b-4836-b597-a0e62593a032","ios":"levelo://app?vid=6041d620-664b-4836-b597-a0e62593a032"},"vehicle_type_id":"4","last_reported":1701630282,"current_range_meters":28000,"station_id":"ce4bhu92rcd13ifvqi70","pricing_plan_id":"free"},{"bike_id":"87815193-0a9e-4a5a-8f22-63817bf9d429","system_id":"levelo_inurba_marseille","lat":43.23198,"lon":5.35543,"is_reserved":false,"is_disabled":false,"rental_uris":{"android":"levelo://app?vid=87815193-0a9e-4a5a-8f22-63817bf9d429","ios":"levelo://app?vid=87815193-0a9e-4a5a-8f22-63817bf9d429"},"vehicle_type_id":"4","last_reported":1701630282,"current_range_meters":28800,"station_id":"ce4bhu92rcd13ifvqi70","pricing_plan_id":"free"},{"bike_id":"2b04708e-eed8-4471-916a-9fdeea01eec7","system_id":"levelo_inurba_marseille","lat":43.231923,"lon":5.355545,"is_reserved":false,"is_disabled":false,"rental_uris":{"android":"levelo://app?vid=2b04708e-eed8-4471-916a-9fdeea01eec7","ios":"levelo://app?vid=2b04708e-eed8-4471-916a-9fdeea01eec7"},"vehicle_type_id":"4","last_reported":1701630282,"current_range_meters":31600,"station_id":"ce4bhu92rcd13ifvqi70","pricing_plan_id":"free"},{"bike_id":"58d4edcd-4441-486c-8457-28ebda4ac431","system_id":"levelo_inurba_marseille","lat":43.23194,"lon":5.35545,"is_reserved":false,"is_disabled":false,"rental_uris":{"android":"levelo://app?vid=58d4edcd-4441-486c-8457-28ebda4ac431","ios":"levelo://app?vid=58d4edcd-4441-486c-8457-28ebda4ac431"},"vehicle_type_id":"4","last_reported":1701630282,"current_range_meters":19200,"station_id":"ce4bhu92rcd13ifvqi70","pricing_plan_id":"free"},{"bike_id":"cf3102c4-88e0-4a41-86b7-69a76932d3e6","system_id":"levelo_inurba_marseille","lat":43.231923,"lon":5.355545,"is_reserved":false,"is_disabled":false,"rental_uris":{"android":"levelo://app?vid=cf3102c4-88e0-4a41-86b7-69a76932d3e6","ios":"levelo://app?vid=cf3102c4-88e0-4a41-86b7-69a76932d3e6"},"vehicle_type_id":"4","last_reported":1701630282,"current_range_meters":31600,"station_id":"ce4bhu92rcd13ifvqi70","pricing_plan_id":"free"},{"bike_id":"9e01ee59-41e6-425c-ae1f-3e33312fefcd","system_id":"levelo_inurba_marseille","lat":43.231923,"lon":5.355545,"is_reserved":false,"is_disabled":false,"rental_uris":{"android":"levelo://app?vid=9e01ee59-41e6-425c-ae1f-3e33312fefcd","ios":"levelo://app?vid=9e01ee59-41e6-425c-ae1f-3e33312fefcd"},"vehicle_type_id":"4","last_reported":1701630282,"current_range_meters":15600,"station_id":"ce4bhu92rcd13ifvqi70","pricing_plan_id":"free"},{"bike_id":"941004a4-21a1-40d0-a251-aacd94276fe6","system_id":"levelo_inurba_marseille","lat":43.231923,"lon":5.355545,"is_reserved":false,"is_disabled":false,"rental_uris":{"android":"levelo://app?vid=941004a4-21a1-40d0-a251-aacd94276fe6","ios":"levelo://app?vid=941004a4-21a1-40d0-a251-aacd94276fe6"},"vehicle_type_id":"4","last_reported":1701630282,"current_range_meters":7600,"station_id":"ce4bhu92rcd13ifvqi70","pricing_plan_id":"free"},{"bike_id":"118d4a35-86b4-49cc-8abc-987caa7ffe62","system_id":"levelo_inurba_marseille","lat":43.231908,"lon":5.399937,"is_reserved":false,"is_disabled":false,"rental_uris":{"android":"levelo://app?vid=118d4a35-86b4-49cc-8abc-987caa7ffe62","ios":"levelo://app?vid=118d4a35-86b4-49cc-8abc-987caa7ffe62"},"vehicle_type_id":"4","last_reported":1701630282,"current_range_meters":30800,"station_id":"ce4bhn12rcd13ifvqgqg","pricing_plan_id":"free"},{"bike_id":"77b1a551-da7f-429a-980e-bfc6767a5958","system_id":"levelo_inurba_marseille","lat":43.231794,"lon":5.400052,"is_reserved":false,"is_disabled":false,"rental_uris":{"android":"levelo://app?vid=77b1a551-da7f-429a-980e-bfc6767a5958","ios":"levelo://app?vid=77b1a551-da7f-429a-980e-bfc6767a5958"},"vehicle_type_id":"4","last_reported":1701630282,"current_range_meters":32000,"station_id":"ce4bhn12rcd13ifvqgqg","pricing_plan_id":"free"},{"bike_id":"d7955d6f-88ae-4e83-97c1-4a0668d076f6","system_id":"levelo_inurba_marseille","lat":43.23188,"lon":5.39986,"is_reserved":false,"is_disabled":false,"rental_uris":{"android":"levelo://app?vid=d7955d6f-88ae-4e83-97c1-4a0668d076f6","ios":"levelo://app?vid=d7955d6f-88ae-4e83-97c1-4a0668d076f6"},"vehicle_type_id":"4","last_reported":1701630282,"current_range_meters":18000,"station_id":"ce4bhn12rcd13ifvqgqg","pricing_plan_id":"free"},{"bike_id":"22bd98e3-c33f-4c44-ae2b-f96729d36f4f","system_id":"levelo_inurba_marseille","lat":43.231793,"lon":5.400044,"is_reserved":false,"is_disabled":false,"rental_uris":{"android":"levelo://app?vid=22bd98e3-c33f-4c44-ae2b-f96729d36f4f","ios":"levelo://app?vid=22bd98e3-c33f-4c44-ae2b-f96729d36f4f"},"vehicle_type_id":"4","last_reported":1701630282,"current_range_meters":31600,"station_id":"ce4bhn12rcd13ifvqgqg","pricing_plan_id":"free"},{"bike_id":"6bd9f065-50d9-4657-9ca0-a006f413d305","system_id":"levelo_inurba_marseille","lat":43.231794,"lon":5.400052,"is_reserved":false,"is_disabled":false,"rental_uris":{"android":"levelo://app?vid=6bd9f065-50d9-4657-9ca0-a006f413d305","ios":"levelo://app?vid=6bd9f065-50d9-4657-9ca0-a006f413d305"},"vehicle_type_id":"4","last_reported":1701630282,"current_range_meters":32000,"station_id":"ce4bhn12rcd13ifvqgqg","pricing_plan_id":"free"},{"bike_id":"ab5eae98-96ca-4718-91b7-353de917f40d","system_id":"levelo_inurba_marseille","lat":43.231793,"lon":5.400044,"is_reserved":false,"is_disabled":false,"rental_uris":{"android":"levelo://app?vid=ab5eae98-96ca-4718-91b7-353de917f40d","ios":"levelo://app?vid=ab5eae98-96ca-4718-91b7-353de917f40d"},"vehicle_type_id":"4","last_reported":1701630282,"current_range_meters":31600,"station_id":"ce4bhn12rcd13ifvqgqg","pricing_plan_id":"free"},{"bike_id":"3fdd6789-d52a-4c7f-96f4-f754cbf436d6","system_id":"levelo_inurba_marseille","lat":43.231835,"lon":5.399793,"is_reserved":false,"is_disabled":false,"rental_uris":{"android":"levelo://app?vid=3fdd6789-d52a-4c7f-96f4-f754cbf436d6","ios":"levelo://app?vid=3fdd6789-d52a-4c7f-96f4-f754cbf436d6"},"vehicle_type_id":"4","last_reported":1701630282,"current_range_meters":31200,"station_id":"ce4bhn12rcd13ifvqgqg","pricing_plan_id":"free"},{"bike_id":"88cf855f-bb31-40e0-8afc-686df3c193ab","system_id":"levelo_inurba_marseille","lat":43.231794,"lon":5.400052,"is_reserved":false,"is_disabled":false,"rental_uris":{"android":"levelo://app?vid=88cf855f-bb31-40e0-8afc-686df3c193ab","ios":"levelo://app?vid=88cf855f-bb31-40e0-8afc-686df3c193ab"},"vehicle_type_id":"4","last_reported":1701630282,"current_range_meters":28400,"station_id":"ce4bhn12rcd13ifvqgqg","pricing_plan_id":"free"},{"bike_id":"0cf73e26-cfe4-495a-8675-6603ab968aec","system_id":"levelo_inurba_marseille","lat":43.231794,"lon":5.400052,"is_reserved":false,"is_disabled":false,"rental_uris":{"android":"levelo://app?vid=0cf73e26-cfe4-495a-8675-6603ab968aec","ios":"levelo://app?vid=0cf73e26-cfe4-495a-8675-6603ab968aec"},"vehicle_type_id":"4","last_reported":1701630282,"current_range_meters":13200,"station_id":"ce4bhn12rcd13ifvqgqg","pricing_plan_id":"free"},{"bike_id":"4ee99995-f63f-4ddb-ac4b-88a5ee23324c","system_id":"levelo_inurba_marseille","lat":43.231822,"lon":5.399848,"is_reserved":false,"is_disabled":false,"rental_uris":{"android":"levelo://app?vid=4ee99995-f63f-4ddb-ac4b-88a5ee23324c","ios":"levelo://app?vid=4ee99995-f63f-4ddb-ac4b-88a5ee23324c"},"vehicle_type_id":"4","last_reported":1701630282,"current_range_meters":12400,"station_id":"ce4bhn12rcd13ifvqgqg","pricing_plan_id":"free"},{"bike_id":"457c552c-8af5-4b7b-9f6b-8c901265a623","system_id":"levelo_inurba_marseille","lat":43.23184,"lon":5.39994,"is_reserved":false,"is_disabled":false,"rental_uris":{"android":"levelo://app?vid=457c552c-8af5-4b7b-9f6b-8c901265a623","ios":"levelo://app?vid=457c552c-8af5-4b7b-9f6b-8c901265a623"},"vehicle_type_id":"4","last_reported":1701630282,"current_range_meters":27200,"station_id":"ce4bhn12rcd13ifvqgqg","pricing_plan_id":"free"},{"bike_id":"7119d2ec-3a1f-47f1-97aa-a12f1d72912d","system_id":"levelo_inurba_marseille","lat":43.23182,"lon":5.39986,"is_reserved":false,"is_disabled":false,"rental_uris":{"android":"levelo://app?vid=7119d2ec-3a1f-47f1-97aa-a12f1d72912d","ios":"levelo://app?vid=7119d2ec-3a1f-47f1-97aa-a12f1d72912d"},"vehicle_type_id":"4","last_reported":1701630282,"current_range_meters":11600,"station_id":"ce4bhn12rcd13ifvqgqg","pricing_plan_id":"free"},{"bike_id":"e47e98e0-4256-4c41-ae86-e531a41b9213","system_id":"levelo_inurba_marseille","lat":43.231794,"lon":5.400052,"is_reserved":false,"is_disabled":false,"rental_uris":{"android":"levelo://app?vid=e47e98e0-4256-4c41-ae86-e531a41b9213","ios":"levelo://app?vid=e47e98e0-4256-4c41-ae86-e531a41b9213"},"vehicle_type_id":"4","last_reported":1701630282,"current_range_meters":32000,"station_id":"ce4bhn12rcd13ifvqgqg","pricing_plan_id":"free"},{"bike_id":"8f0fb87f-53e2-432d-b05f-ab1e816b61dc","system_id":"levelo_inurba_marseille","lat":43.231794,"lon":5.400052,"is_reserved":false,"is_disabled":false,"rental_uris":{"android":"levelo://app?vid=8f0fb87f-53e2-432d-b05f-ab1e816b61dc","ios":"levelo://app?vid=8f0fb87f-53e2-432d-b05f-ab1e816b61dc"},"vehicle_type_id":"4","last_reported":1701630282,"current_range_meters":16000,"station_id":"ce4bhn12rcd13ifvqgqg","pricing_plan_id":"free"}]}}