{"last_updated":1746004263,"ttl":60,"version":"2.2","data":{"bikes":[{"bike_id":"775481df-05c4-4f0e-8a67-b66aedbeddcf","system_id":"levelo_inurba_marseille","lat":43.241829,"lon":5.397294,"is_reserved":false,"is_disabled":false,"rental_uris":{"android":"levelo://app?vid=775481df-05c4-4f0e-8a67-b66aedbeddcf","ios":"levelo://app?vid=775481df-05c4-4f0e-8a67-b66aedbeddcf"},"vehicle_type_id":"4","last_reported":1746004263,"current_range_meters":2800,"station_id":"ce4bhn12rcd13ifvqgpg","pricing_plan_id":"cebpf4jnsgd1na2vs0mg"},{"bike_id":"ed2688b7-31eb-4508-8bb3-3f88a4f94fb7","system_id":"levelo_inurba_marseille","lat":43.23182,"lon":5.39988,"is_reserved":false,"is_disabled":false,"rental_uris":{"android":"levelo://app?vid=ed2688b7-31eb-4508-8bb3-3f88a4f94fb7","ios":"levelo://app?vid=ed2688b7-31eb-4508-8bb3-3f88a4f94fb7"},"vehicle_type_id":"4","last_reported":1746004263,"current_range_meters":2800,"station_id":"ce4bhn12rcd13ifvqgqg","pricing_plan_id":"cebpf4jnsgd1na2vs0mg"},{"bike_id":"35583afc-a422-4ec8-bb59-0ab84c8e9a7a","system_id":"levelo_inurba_marseille","lat":43.30885,"lon":5.39655,"is_reserved":false,"is_disabled":false,"rental_uris":{"android":"levelo://app?vid=35583afc-a422-4ec8-bb59-0ab84c8e9a7a","ios":"levelo://app?vid=35583afc-a422-4ec8-bb59-0ab84c8e9a7a"},"vehicle_type_id":"4","last_reported":1746004263,"current_range_meters":2800,"station_id":"ce4bh012rcd13ifvqcv0","pricing_plan_id":"cebpf4jnsgd1na2vs0mg"},{"bike_id":"7efbd40f-dde3-4688-bd25-091b75369f48","system_id":"levelo_inurba_marseille","lat":43.26925,"lon":5.38918,"is_reserved":false,"is_disabled":false,"rental_uris":{"android":"levelo://app?vid=7efbd40f-dde3-4688-bd25-091b75369f48","ios":"levelo://app?vid=7efbd40f-dde3-4688-bd25-091b75369f48"},"vehicle_type_id":"4","last_reported":1746004263,"current_range_meters":3200,"station_id":"ce4bhhh2rcd13ifvqfl0","pricing_plan_id":"cebpf4jnsgd1na2vs0mg"},{"bike_id":"e0265468-299b-472b-b647-c07eeb75cf01","system_id":"levelo_inurba_marseille","lat":43.32658,"lon":5.40981,"is_reserved":false,"is_disabled":false,"rental_uris":{"android":"levelo://app?vid=e0265468-299b-472b-b647-c07eeb75cf01","ios":"levelo://app?vid=e0265468-299b-472b-b647-c07eeb75cf01"},"vehicle_type_id":"4","last_reported":1746004263,"current_range_meters":3200,"station_id":"ce4bhpp2rcd13ifvqhgg","pricing_plan_id":"cebpf4jnsgd1na2vs0mg"},{"bike_id":"a8d1e69f-94c6-4b2f-9593-4b80081d81bd","system_id":"levelo_inurba_marseille","lat":43.28463,"lon":5.35885,"is_reserved":false,"is_disabled":false,"rental_uris":{"android":"levelo://app?vid=a8d1e69f-94c6-4b2f-9593-4b80081d81bd","ios":"levelo://app?vid=a8d1e69f-94c6-4b2f-9593-4b80081d81bd"},"vehicle_type_id":"4","last_reported":1746004263,"current_range_meters":2800,"station_id":"ce4bhah2rcd13ifvqei0","pricing_plan_id":"cebpf4jnsgd1na2vs0mg"},{"bike_id":"acf27f01-7a84-4e15-a234-0aba663e43bd","system_id":"levelo_inurba_marseille","lat":43.2657,"lon":5.39002,"is_reserved":false,"is_disabled":false,"rental_uris":{"android":"levelo://app?vid=acf27f01-7a84-4e15-a234-0aba663e43bd","ios":"levelo://app?vid=acf27f01-7a84-4e15-a234-0aba663e43bd"},"vehicle_type_id":"4","last_reported":1746004263,"current_range_meters":3200,"station_id":"ce4bhe12rcd13ifvqf30","pricing_plan_id":"cebpf4jnsgd1na2vs0mg"},{"bike_id":"7cb84b4c-de0b-4440-b460-365e410e69e7","system_id":"levelo_inurba_marseille","lat":43.30544,"lon":5.3655,"is_reserved":false,"is_disabled":false,"rental_uris":{"android":"levelo://app?vid=7cb84b4c-de0b-4440-b460-365e410e69e7","ios":"levelo://app?vid=7cb84b4c-de0b-4440-b460-365e410e69e7"},"vehicle_type_id":"4","last_reported":1746004263,"current_range_meters":3600,"station_id":"ce4bgs12rcd13ifvqcag","pricing_plan_id":"cebpf4jnsgd1na2vs0mg"},{"bike_id":"bd9580a6-2900-46d2-bcc3-5ff9bed32507","system_id":"levelo_inurba_marseille","lat":43.29525,"lon":5.38546,"is_reserved":false,"is_disabled":false,"rental_uris":{"android":"levelo://app?vid=bd9580a6-2900-46d2-bcc3-5ff9bed32507","ios":"levelo://app?vid=bd9580a6-2900-46d2-bcc3-5ff9bed32507"},"vehicle_type_id":"4","last_reported":1746004263,"current_range_meters":3200,"station_id":"ce4bgih2rcd13ifvqba0","pricing_plan_id":"cebpf4jnsgd1na2vs0mg"},{"bike_id":"a48666a0-0366-4e89-8a25-a1137317f4dc","system_id":"levelo_inurba_marseille","lat":43.2899,"lon":5.37825,"is_reserved":false,"is_disabled":false,"rental_uris":{"android":"levelo://app?vid=a48666a0-0366-4e89-8a25-a1137317f4dc","ios":"levelo://app?vid=a48666a0-0366-4e89-8a25-a1137317f4dc"},"vehicle_type_id":"4","last_reported":1746004263,"current_range_meters":3600,"station_id":"ce4bh9p2rcd13ifvqed0","pricing_plan_id":"cebpf4jnsgd1na2vs0mg"},{"bike_id":"f402c5c3-cf63-45df-8735-49511e847c52","system_id":"levelo_inurba_marseille","lat":43.26566,"lon":5.39011,"is_reserved":false,"is_disabled":false,"rental_uris":{"android":"levelo://app?vid=f402c5c3-cf63-45df-8735-49511e847c52","ios":"levelo://app?vid=f402c5c3-cf63-45df-8735-49511e847c52"},"vehicle_type_id":"4","last_reported":1746004263,"current_range_meters":4000,"station_id":"ce4bhe12rcd13ifvqf30","pricing_plan_id":"cebpf4jnsgd1na2vs0mg"},{"bike_id":"ddd82d4c-c76a-470a-88c9-20b0457488ac","system_id":"levelo_inurba_marseille","lat":43.29528,"lon":5.39399,"is_reserved":false,"is_disabled":false,"rental_uris":{"android":"levelo://app?vid=ddd82d4c-c76a-470a-88c9-20b0457488ac","ios":"levelo://app?vid=ddd82d4c-c76a-470a-88c9-20b0457488ac"},"vehicle_type_id":"4","last_reported":1746004263,"current_range_meters":4000,"station_id":"ce4bh292rcd13ifvqdf0","pricing_plan_id":"cebpf4jnsgd1na2vs0mg"},{"bike_id":"ab448c66-0c24-4ffe-8187-660121762169","system_id":"levelo_inurba_marseille","lat":43.255,"lon":5.37653,"is_reserved":false,"is_disabled":false,"rental_uris":{"android":"levelo://app?vid=ab448c66-0c24-4ffe-8187-660121762169","ios":"levelo://app?vid=ab448c66-0c24-4ffe-8187-660121762169"},"vehicle_type_id":"4","last_reported":1746004263,"current_range_meters":4400,"station_id":"ce4bhh12rcd13ifvqff0","pricing_plan_id":"cebpf4jnsgd1na2vs0mg"},{"bike_id":"e5b4b90d-e268-4de2-98f4-f6d0513f8801","system_id":"levelo_inurba_marseille","lat":43.26501,"lon":5.42227,"is_reserved":false,"is_disabled":false,"rental_uris":{"android":"levelo://app?vid=e5b4b90d-e268-4de2-98f4-f6d0513f8801","ios":"levelo://app?vid=e5b4b90d-e268-4de2-98f4-f6d0513f8801"},"vehicle_type_id":"4","last_reported":1746004263,"current_range_meters":4400,"station_id":"","pricing_plan_id":"cebpf4jnsgd1na2vs0mg"},{"bike_id":"15d9d360-77c3-453b-a2af-e65d58cb2e7c","system_id":"levelo_inurba_marseille","lat":43.21753,"lon":5.34599,"is_reserved":false,"is_disabled":false,"rental_uris":{"android":"levelo://app?vid=15d9d360-77c3-453b-a2af-e65d58cb2e7c","ios":"levelo://app?vid=15d9d360-77c3-453b-a2af-e65d58cb2e7c"},"vehicle_type_id":"4","last_reported":1746004263,"current_range_meters":4800,"station_id":"st_cvj6r9ubvosntc0bgbag","pricing_plan_id":"cebpf4jnsgd1na2vs0mg"},{"bike_id":"f1e3c12a-02a3-4893-b9e1-1aacd74f3f49","system_id":"levelo_inurba_marseille","lat":43.32103,"lon":5.36748,"is_reserved":false,"is_disabled":false,"rental_uris":{"android":"levelo://app?vid=f1e3c12a-02a3-4893-b9e1-1aacd74f3f49","ios":"levelo://app?vid=f1e3c12a-02a3-4893-b9e1-1aacd74f3f49"},"vehicle_type_id":"4","last_reported":1746004263,"current_range_meters":4800,"station_id":"ce4bhrh2rcd13ifvqhug","pricing_plan_id":"cebpf4jnsgd1na2vs0mg"},{"bike_id":"c78abdf1-a26f-4005-90c0-54df6519587b","system_id":"levelo_inurba_marseille","lat":43.31338,"lon":5.36712,"is_reserved":false,"is_disabled":false,"rental_uris":{"android":"levelo://app?vid=c78abdf1-a26f-4005-90c0-54df6519587b","ios":"levelo://app?vid=c78abdf1-a26f-4005-90c0-54df6519587b"},"vehicle_type_id":"4","last_reported":1746004263,"current_range_meters":4800,"station_id":"ce4bgr92rcd13ifvqc6g","pricing_plan_id":"cebpf4jnsgd1na2vs0mg"},{"bike_id":"5df38c27-9c38-4495-bdb4-845b703ca8c0","system_id":"levelo_inurba_marseille","lat":43.2929,"lon":5.37447,"is_reserved":false,"is_disabled":false,"rental_uris":{"android":"levelo://app?vid=5df38c27-9c38-4495-bdb4-845b703ca8c0","ios":"levelo://app?vid=5df38c27-9c38-4495-bdb4-845b703ca8c0"},"vehicle_type_id":"4","last_reported":1746004263,"current_range_meters":5600,"station_id":"ce4bgi12rcd13ifvqb70","pricing_plan_id":"cebpf4jnsgd1na2vs0mg"},{"bike_id":"dbdacbe4-4534-4d90-9d33-96b20d3b7463","system_id":"levelo_inurba_marseille","lat":43.2922,"lon":5.40038,"is_reserved":false,"is_disabled":false,"rental_uris":{"android":"levelo://app?vid=dbdacbe4-4534-4d90-9d33-96b20d3b7463","ios":"levelo://app?vid=dbdacbe4-4534-4d90-9d33-96b20d3b7463"},"vehicle_type_id":"4","last_reported":1746004263,"current_range_meters":5600,"station_id":"","pricing_plan_id":"cebpf4jnsgd1na2vs0mg"},{"bike_id":"d0bc40eb-d369-471d-ba3b-554205a00885","system_id":"levelo_inurba_marseille","lat":43.28488,"lon":5.38417,"is_reserved":false,"is_disabled":false,"rental_uris":{"android":"levelo://app?vid=d0bc40eb-d369-471d-ba3b-554205a00885","ios":"levelo://app?vid=d0bc40eb-d369-471d-ba3b-554205a00885"},"vehicle_type_id":"4","last_reported":1746004263,"current_range_meters":5600,"station_id":"ce4bh512rcd13ifvqe3g","pricing_plan_id":"cebpf4jnsgd1na2vs0mg"},{"bike_id":"6f38b2ef-8c68-4c77-9fb6-fb95536bec70","system_id":"levelo_inurba_marseille","lat":43.262301,"lon":5.404509,"is_reserved":false,"is_disabled":false,"rental_uris":{"android":"levelo://app?vid=6f38b2ef-8c68-4c77-9fb6-fb95536bec70","ios":"levelo://app?vid=6f38b2ef-8c68-4c77-9fb6-fb95536bec70"},"vehicle_type_id":"4","last_reported":1746004263,"current_range_meters":6000,"station_id":"ce4bhmh2rcd13ifvqgmg","pricing_plan_id":"cebpf4jnsgd1na2vs0mg"},{"bike_id":"2df62b6c-88b9-4679-9129-7ae7dbacbd8b","system_id":"levelo_inurba_marseille","lat":43.21755,"lon":5.34587,"is_reserved":false,"is_disabled":false,"rental_uris":{"android":"levelo://app?vid=2df62b6c-88b9-4679-9129-7ae7dbacbd8b","ios":"levelo://app?vid=2df62b6c-88b9-4679-9129-7ae7dbacbd8b"},"vehicle_type_id":"4","last_reported":1746004263,"current_range_meters":6000,"station_id":"st_cvj6r9ubvosntc0bgbag","pricing_plan_id":"cebpf4jnsgd1na2vs0mg"},{"bike_id":"672a6a9b-16c0-4898-8964-08b2766bfb0e","system_id":"levelo_inurba_marseille","lat":43.25085,"lon":5.39515,"is_reserved":false,"is_disabled":false,"rental_uris":{"android":"levelo://app?vid=672a6a9b-16c0-4898-8964-08b2766bfb0e","ios":"levelo://app?vid=672a6a9b-16c0-4898-8964-08b2766bfb0e"},"vehicle_type_id":"4","last_reported":1746004263,"current_range_meters":6000,"station_id":"ce4bhm12rcd13ifvqgkg","pricing_plan_id":"cebpf4jnsgd1na2vs0mg"},{"bike_id":"2c1b33dc-6037-49cc-a203-b73517cb14ac","system_id":"levelo_inurba_marseille","lat":43.286585,"lon":5.454845,"is_reserved":false,"is_disabled":false,"rental_uris":{"android":"levelo://app?vid=2c1b33dc-6037-49cc-a203-b73517cb14ac","ios":"levelo://app?vid=2c1b33dc-6037-49cc-a203-b73517cb14ac"},"vehicle_type_id":"4","last_reported":1746004263,"current_range_meters":6400,"station_id":"","pricing_plan_id":"cebpf4jnsgd1na2vs0mg"},{"bike_id":"d90ce778-1061-4a8c-9c89-6734582ca76c","system_id":"levelo_inurba_marseille","lat":43.268146,"lon":5.393706,"is_reserved":false,"is_disabled":false,"rental_uris":{"android":"levelo://app?vid=d90ce778-1061-4a8c-9c89-6734582ca76c","ios":"levelo://app?vid=d90ce778-1061-4a8c-9c89-6734582ca76c"},"vehicle_type_id":"4","last_reported":1746004263,"current_range_meters":6000,"station_id":"ce4bhh12rcd13ifvqfg0","pricing_plan_id":"cebpf4jnsgd1na2vs0mg"},{"bike_id":"1d1ff4ac-f8e0-4a98-ae12-a3a12ec3f51e","system_id":"levelo_inurba_marseille","lat":43.29005,"lon":5.35619,"is_reserved":false,"is_disabled":false,"rental_uris":{"android":"levelo://app?vid=1d1ff4ac-f8e0-4a98-ae12-a3a12ec3f51e","ios":"levelo://app?vid=1d1ff4ac-f8e0-4a98-ae12-a3a12ec3f51e"},"vehicle_type_id":"4","last_reported":1746004263,"current_range_meters":6400,"station_id":"ce4bhb92rcd13ifvqen0","pricing_plan_id":"cebpf4jnsgd1na2vs0mg"},{"bike_id":"849063f7-4ebc-4305-9d63-61df395abe91","system_id":"levelo_inurba_marseille","lat":43.30537,"lon":5.3672,"is_reserved":false,"is_disabled":false,"rental_uris":{"android":"levelo://app?vid=849063f7-4ebc-4305-9d63-61df395abe91","ios":"levelo://app?vid=849063f7-4ebc-4305-9d63-61df395abe91"},"vehicle_type_id":"4","last_reported":1746004263,"current_range_meters":6400,"station_id":"ce4bgrp2rcd13ifvqc9g","pricing_plan_id":"cebpf4jnsgd1na2vs0mg"},{"bike_id":"989b1859-e9ff-4261-a46c-543bab57f943","system_id":"levelo_inurba_marseille","lat":43.26566,"lon":5.38997,"is_reserved":false,"is_disabled":false,"rental_uris":{"android":"levelo://app?vid=989b1859-e9ff-4261-a46c-543bab57f943","ios":"levelo://app?vid=989b1859-e9ff-4261-a46c-543bab57f943"},"vehicle_type_id":"4","last_reported":1746004263,"current_range_meters":6400,"station_id":"ce4bhe12rcd13ifvqf30","pricing_plan_id":"cebpf4jnsgd1na2vs0mg"},{"bike_id":"8d1bbdaa-d699-483b-a28a-8744f208e5f3","system_id":"levelo_inurba_marseille","lat":43.30901,"lon":5.36834,"is_reserved":false,"is_disabled":false,"rental_uris":{"android":"levelo://app?vid=8d1bbdaa-d699-483b-a28a-8744f208e5f3","ios":"levelo://app?vid=8d1bbdaa-d699-483b-a28a-8744f208e5f3"},"vehicle_type_id":"4","last_reported":1746004263,"current_range_meters":6400,"station_id":"ce4bgn92rcd13ifvqbvg","pricing_plan_id":"cebpf4jnsgd1na2vs0mg"},{"bike_id":"7497e739-0c50-4aa1-9f39-dfb008e37b83","system_id":"levelo_inurba_marseille","lat":43.30948,"lon":5.37162,"is_reserved":false,"is_disabled":false,"rental_uris":{"android":"levelo://app?vid=7497e739-0c50-4aa1-9f39-dfb008e37b83","ios":"levelo://app?vid=7497e739-0c50-4aa1-9f39-dfb008e37b83"},"vehicle_type_id":"4","last_reported":1746004263,"current_range_meters":6400,"station_id":"ce4bguh2rcd13ifvqckg","pricing_plan_id":"cebpf4jnsgd1na2vs0mg"},{"bike_id":"b6c15373-755b-4963-8761-7f957cb7aeeb","system_id":"levelo_inurba_marseille","lat":43.23963,"lon":5.36636,"is_reserved":false,"is_disabled":false,"rental_uris":{"android":"levelo://app?vid=b6c15373-755b-4963-8761-7f957cb7aeeb","ios":"levelo://app?vid=b6c15373-755b-4963-8761-7f957cb7aeeb"},"vehicle_type_id":"4","last_reported":1746004263,"current_range_meters":6800,"station_id":"","pricing_plan_id":"cebpf4jnsgd1na2vs0mg"},{"bike_id":"e237703e-4355-447f-a356-2617fd24f4de","system_id":"levelo_inurba_marseille","lat":43.28002,"lon":5.40013,"is_reserved":false,"is_disabled":false,"rental_uris":{"android":"levelo://app?vid=e237703e-4355-447f-a356-2617fd24f4de","ios":"levelo://app?vid=e237703e-4355-447f-a356-2617fd24f4de"},"vehicle_type_id":"4","last_reported":1746004263,"current_range_meters":6800,"station_id":"ce4bho92rcd13ifvqh4g","pricing_plan_id":"cebpf4jnsgd1na2vs0mg"},{"bike_id":"58d96813-51d9-4691-82e4-fd7df8625fb2","system_id":"levelo_inurba_marseille","lat":43.30378,"lon":5.42476,"is_reserved":false,"is_disabled":false,"rental_uris":{"android":"levelo://app?vid=58d96813-51d9-4691-82e4-fd7df8625fb2","ios":"levelo://app?vid=58d96813-51d9-4691-82e4-fd7df8625fb2"},"vehicle_type_id":"4","last_reported":1746004263,"current_range_meters":6800,"station_id":"ce4bhoh2rcd13ifvqh6g","pricing_plan_id":"cebpf4jnsgd1na2vs0mg"},{"bike_id":"19acb097-7cf6-4f58-a387-a1a11f89a37e","system_id":"levelo_inurba_marseille","lat":43.2315,"lon":5.43704,"is_reserved":false,"is_disabled":false,"rental_uris":{"android":"levelo://app?vid=19acb097-7cf6-4f58-a387-a1a11f89a37e","ios":"levelo://app?vid=19acb097-7cf6-4f58-a387-a1a11f89a37e"},"vehicle_type_id":"4","last_reported":1746004263,"current_range_meters":6800,"station_id":"ce4bhmp2rcd13ifvqgog","pricing_plan_id":"cebpf4jnsgd1na2vs0mg"},{"bike_id":"36e70963-796a-4894-b1db-372ce060bbaa","system_id":"levelo_inurba_marseille","lat":43.30143,"lon":5.37423,"is_reserved":false,"is_disabled":false,"rental_uris":{"android":"levelo://app?vid=36e70963-796a-4894-b1db-372ce060bbaa","ios":"levelo://app?vid=36e70963-796a-4894-b1db-372ce060bbaa"},"vehicle_type_id":"4","last_reported":1746004263,"current_range_meters":7200,"station_id":"ce4bgs92rcd13ifvqcc0","pricing_plan_id":"cebpf4jnsgd1na2vs0mg"},{"bike_id":"c582207f-5c99-4170-a044-d78bbb4c8396","system_id":"levelo_inurba_marseille","lat":43.29025,"lon":5.38639,"is_reserved":false,"is_disabled":false,"rental_uris":{"android":"levelo://app?vid=c582207f-5c99-4170-a044-d78bbb4c8396","ios":"levelo://app?vid=c582207f-5c99-4170-a044-d78bbb4c8396"},"vehicle_type_id":"4","last_reported":1746004263,"current_range_meters":7200,"station_id":"ce4bh4p2rcd13ifvqe0g","pricing_plan_id":"cebpf4jnsgd1na2vs0mg"},{"bike_id":"4d7c5868-e5cd-45b0-8fab-6b91ebacbf45","system_id":"levelo_inurba_marseille","lat":43.29785,"lon":5.37088,"is_reserved":false,"is_disabled":false,"rental_uris":{"android":"levelo://app?vid=4d7c5868-e5cd-45b0-8fab-6b91ebacbf45","ios":"levelo://app?vid=4d7c5868-e5cd-45b0-8fab-6b91ebacbf45"},"vehicle_type_id":"4","last_reported":1746004263,"current_range_meters":6800,"station_id":"ce4bgop2rcd13ifvqc1g","pricing_plan_id":"cebpf4jnsgd1na2vs0mg"},{"bike_id":"35a1a3c5-9412-4545-87fd-6b647eff61d8","system_id":"levelo_inurba_marseille","lat":43.29969,"lon":5.3718,"is_reserved":false,"is_disabled":false,"rental_uris":{"android":"levelo://app?vid=35a1a3c5-9412-4545-87fd-6b647eff61d8","ios":"levelo://app?vid=35a1a3c5-9412-4545-87fd-6b647eff61d8"},"vehicle_type_id":"4","last_reported":1746004263,"current_range_meters":6800,"station_id":"ce4bgr92rcd13ifvqc7g","pricing_plan_id":"cebpf4jnsgd1na2vs0mg"},{"bike_id":"715f7c9a-ba82-476e-a819-2bdde5a2a04a","system_id":"levelo_inurba_marseille","lat":43.33613,"lon":5.41041,"is_reserved":false,"is_disabled":false,"rental_uris":{"android":"levelo://app?vid=715f7c9a-ba82-476e-a819-2bdde5a2a04a","ios":"levelo://app?vid=715f7c9a-ba82-476e-a819-2bdde5a2a04a"},"vehicle_type_id":"4","last_reported":1746004263,"current_range_meters":8000,"station_id":"ce4bhqh2rcd13ifvqhmg","pricing_plan_id":"cebpf4jnsgd1na2vs0mg"},{"bike_id":"38b0a9f0-c61d-4c7c-b673-e675344dea51","system_id":"levelo_inurba_marseille","lat":43.33593,"lon":5.41027,"is_reserved":false,"is_disabled":false,"rental_uris":{"android":"levelo://app?vid=38b0a9f0-c61d-4c7c-b673-e675344dea51","ios":"levelo://app?vid=38b0a9f0-c61d-4c7c-b673-e675344dea51"},"vehicle_type_id":"4","last_reported":1746004263,"current_range_meters":8000,"station_id":"ce4bhqh2rcd13ifvqhmg","pricing_plan_id":"cebpf4jnsgd1na2vs0mg"},{"bike_id":"1862fb6f-61c4-4c09-a828-864ab246ea11","system_id":"levelo_inurba_marseille","lat":43.235245,"lon":5.403439,"is_reserved":false,"is_disabled":false,"rental_uris":{"android":"levelo://app?vid=1862fb6f-61c4-4c09-a828-864ab246ea11","ios":"levelo://app?vid=1862fb6f-61c4-4c09-a828-864ab246ea11"},"vehicle_type_id":"4","last_reported":1746004263,"current_range_meters":8000,"station_id":"","pricing_plan_id":"cebpf4jnsgd1na2vs0mg"},{"bike_id":"216b3923-ee27-419c-8910-59a8a06d86aa","system_id":"levelo_inurba_marseille","lat":43.29299,"lon":5.37466,"is_reserved":false,"is_disabled":false,"rental_uris":{"android":"levelo://app?vid=216b3923-ee27-419c-8910-59a8a06d86aa","ios":"levelo://app?vid=216b3923-ee27-419c-8910-59a8a06d86aa"},"vehicle_type_id":"4","last_reported":1746004263,"current_range_meters":8400,"station_id":"ce4bgi12rcd13ifvqb70","pricing_plan_id":"cebpf4jnsgd1na2vs0mg"},{"bike_id":"278a114f-8bae-41cb-84b3-940273dd012d","system_id":"levelo_inurba_marseille","lat":43.23176,"lon":5.39991,"is_reserved":false,"is_disabled":false,"rental_uris":{"android":"levelo://app?vid=278a114f-8bae-41cb-84b3-940273dd012d","ios":"levelo://app?vid=278a114f-8bae-41cb-84b3-940273dd012d"},"vehicle_type_id":"4","last_reported":1746004263,"current_range_meters":8400,"station_id":"ce4bhn12rcd13ifvqgqg","pricing_plan_id":"cebpf4jnsgd1na2vs0mg"},{"bike_id":"7eab4cb0-2fb1-4bd6-8a5b-8fc0131ab374","system_id":"levelo_inurba_marseille","lat":43.284157,"lon":5.34987,"is_reserved":false,"is_disabled":false,"rental_uris":{"android":"levelo://app?vid=7eab4cb0-2fb1-4bd6-8a5b-8fc0131ab374","ios":"levelo://app?vid=7eab4cb0-2fb1-4bd6-8a5b-8fc0131ab374"},"vehicle_type_id":"4","last_reported":1746004263,"current_range_meters":8400,"station_id":"","pricing_plan_id":"cebpf4jnsgd1na2vs0mg"},{"bike_id":"063bb67c-1d81-4a57-a4e1-7f44ebe258c8","system_id":"levelo_inurba_marseille","lat":43.29621,"lon":5.37169,"is_reserved":false,"is_disabled":false,"rental_uris":{"android":"levelo://app?vid=063bb67c-1d81-4a57-a4e1-7f44ebe258c8","ios":"levelo://app?vid=063bb67c-1d81-4a57-a4e1-7f44ebe258c8"},"vehicle_type_id":"4","last_reported":1746004263,"current_range_meters":8000,"station_id":"ce4bgnh2rcd13ifvqc0g","pricing_plan_id":"cebpf4jnsgd1na2vs0mg"},{"bike_id":"b96e5baa-1549-47ce-882d-ef5a8dea4538","system_id":"levelo_inurba_marseille","lat":43.295776,"lon":5.367385,"is_reserved":false,"is_disabled":false,"rental_uris":{"android":"levelo://app?vid=b96e5baa-1549-47ce-882d-ef5a8dea4538","ios":"levelo://app?vid=b96e5baa-1549-47ce-882d-ef5a8dea4538"},"vehicle_type_id":"4","last_reported":1746004263,"current_range_meters":8400,"station_id":"ce4bgph2rcd13ifvqc2g","pricing_plan_id":"cebpf4jnsgd1na2vs0mg"},{"bike_id":"c7d4ca92-020f-4c6f-815a-ddc6fdf77b1f","system_id":"levelo_inurba_marseille","lat":43.2348,"lon":5.38043,"is_reserved":false,"is_disabled":false,"rental_uris":{"android":"levelo://app?vid=c7d4ca92-020f-4c6f-815a-ddc6fdf77b1f","ios":"levelo://app?vid=c7d4ca92-020f-4c6f-815a-ddc6fdf77b1f"},"vehicle_type_id":"4","last_reported":1746004263,"current_range_meters":8400,"station_id":"","pricing_plan_id":"cebpf4jnsgd1na2vs0mg"},{"bike_id":"35da3075-3137-4b3e-a711-fd3461b33500","system_id":"levelo_inurba_marseille","lat":43.28033,"lon":5.36944,"is_reserved":false,"is_disabled":true,"rental_uris":{"android":"levelo://app?vid=35da3075-3137-4b3e-a711-fd3461b33500","ios":"levelo://app?vid=35da3075-3137-4b3e-a711-fd3461b33500"},"vehicle_type_id":"4","last_reported":1746004263,"current_range_meters":8400,"station_id":"ce4bha12rcd13ifvqef0","pricing_plan_id":"cebpf4jnsgd1na2vs0mg"},{"bike_id":"60376b35-b189-42e7-a5e8-ae33212aca43","system_id":"levelo_inurba_marseille","lat":43.29851,"lon":5.36282,"is_reserved":false,"is_disabled":false,"rental_uris":{"android":"levelo://app?vid=60376b35-b189-42e7-a5e8-ae33212aca43","ios":"levelo://app?vid=60376b35-b189-42e7-a5e8-ae33212aca43"},"vehicle_type_id":"4","last_reported":1746004263,"current_range_meters":8400,"station_id":"ce4bgpp2rcd13ifvqc3g","pricing_plan_id":"cebpf4jnsgd1na2vs0mg"},{"bike_id":"1be6b8de-5ed4-4d8a-9cd6-aeff3b5c0661","system_id":"levelo_inurba_marseille","lat":43.28987,"lon":5.37839,"is_reserved":false,"is_disabled":true,"rental_uris":{"android":"levelo://app?vid=1be6b8de-5ed4-4d8a-9cd6-aeff3b5c0661","ios":"levelo://app?vid=1be6b8de-5ed4-4d8a-9cd6-aeff3b5c0661"},"vehicle_type_id":"4","last_reported":1746004263,"current_range_meters":8800,"station_id":"ce4bh9p2rcd13ifvqed0","pricing_plan_id":"cebpf4jnsgd1na2vs0mg"},{"bike_id":"91c533d0-e52e-4d85-bf53-16e672a56984","system_id":"levelo_inurba_marseille","lat":43.30887,"lon":5.37209,"is_reserved":false,"is_disabled":true,"rental_uris":{"android":"levelo://app?vid=91c533d0-e52e-4d85-bf53-16e672a56984","ios":"levelo://app?vid=91c533d0-e52e-4d85-bf53-16e672a56984"},"vehicle_type_id":"4","last_reported":1746004263,"current_range_meters":8800,"station_id":"ce4bguh2rcd13ifvqckg","pricing_plan_id":"cebpf4jnsgd1na2vs0mg"},{"bike_id":"89eab37f-a9ed-45c4-b830-f2255730261a","system_id":"levelo_inurba_marseille","lat":43.26204,"lon":5.37446,"is_reserved":false,"is_disabled":false,"rental_uris":{"android":"levelo://app?vid=89eab37f-a9ed-45c4-b830-f2255730261a","ios":"levelo://app?vid=89eab37f-a9ed-45c4-b830-f2255730261a"},"vehicle_type_id":"4","last_reported":1746004263,"current_range_meters":8800,"station_id":"ce4bhgp2rcd13ifvqfc0","pricing_plan_id":"cebpf4jnsgd1na2vs0mg"},{"bike_id":"9ccd4016-95ec-497f-ac4d-3c1bfe409d80","system_id":"levelo_inurba_marseille","lat":43.25116,"lon":5.40318,"is_reserved":false,"is_disabled":false,"rental_uris":{"android":"levelo://app?vid=9ccd4016-95ec-497f-ac4d-3c1bfe409d80","ios":"levelo://app?vid=9ccd4016-95ec-497f-ac4d-3c1bfe409d80"},"vehicle_type_id":"4","last_reported":1746004263,"current_range_meters":8800,"station_id":"ce4bhlh2rcd13ifvqgig","pricing_plan_id":"cebpf4jnsgd1na2vs0mg"},{"bike_id":"3550267e-f9d5-4247-9174-1238b16a37a0","system_id":"levelo_inurba_marseille","lat":43.30127,"lon":5.37404,"is_reserved":false,"is_disabled":false,"rental_uris":{"android":"levelo://app?vid=3550267e-f9d5-4247-9174-1238b16a37a0","ios":"levelo://app?vid=3550267e-f9d5-4247-9174-1238b16a37a0"},"vehicle_type_id":"4","last_reported":1746004263,"current_range_meters":8800,"station_id":"ce4bgs92rcd13ifvqcc0","pricing_plan_id":"cebpf4jnsgd1na2vs0mg"},{"bike_id":"bd1dd49d-01c4-49ad-8ddc-144c7b7b4744","system_id":"levelo_inurba_marseille","lat":43.3249,"lon":5.36557,"is_reserved":false,"is_disabled":false,"rental_uris":{"android":"levelo://app?vid=bd1dd49d-01c4-49ad-8ddc-144c7b7b4744","ios":"levelo://app?vid=bd1dd49d-01c4-49ad-8ddc-144c7b7b4744"},"vehicle_type_id":"4","last_reported":1746004263,"current_range_meters":8800,"station_id":"ce4bhs12rcd13ifvqhvg","pricing_plan_id":"cebpf4jnsgd1na2vs0mg"},{"bike_id":"89e9553b-359a-4286-8dbe-b7ac879dcc90","system_id":"levelo_inurba_marseille","lat":43.324691,"lon":5.365004,"is_reserved":false,"is_disabled":false,"rental_uris":{"android":"levelo://app?vid=89e9553b-359a-4286-8dbe-b7ac879dcc90","ios":"levelo://app?vid=89e9553b-359a-4286-8dbe-b7ac879dcc90"},"vehicle_type_id":"4","last_reported":1746004263,"current_range_meters":8800,"station_id":"ce4bhs12rcd13ifvqhvg","pricing_plan_id":"cebpf4jnsgd1na2vs0mg"},{"bike_id":"ec2235e9-4990-4128-8f0f-918cf3420f32","system_id":"levelo_inurba_marseille","lat":43.23152,"lon":5.43713,"is_reserved":false,"is_disabled":false,"rental_uris":{"android":"levelo://app?vid=ec2235e9-4990-4128-8f0f-918cf3420f32","ios":"levelo://app?vid=ec2235e9-4990-4128-8f0f-918cf3420f32"},"vehicle_type_id":"4","last_reported":1746004263,"current_range_meters":9200,"station_id":"ce4bhmp2rcd13ifvqgog","pricing_plan_id":"cebpf4jnsgd1na2vs0mg"},{"bike_id":"6461f39d-bb67-478e-8f03-c75ed0f387e0","system_id":"levelo_inurba_marseille","lat":43.26693,"lon":5.38264,"is_reserved":false,"is_disabled":false,"rental_uris":{"android":"levelo://app?vid=6461f39d-bb67-478e-8f03-c75ed0f387e0","ios":"levelo://app?vid=6461f39d-bb67-478e-8f03-c75ed0f387e0"},"vehicle_type_id":"4","last_reported":1746004263,"current_range_meters":9200,"station_id":"ce4bhg92rcd13ifvqf90","pricing_plan_id":"cebpf4jnsgd1na2vs0mg"},{"bike_id":"f7d434d6-c94a-44aa-85df-690d8ef2922e","system_id":"levelo_inurba_marseille","lat":43.324894,"lon":5.365701,"is_reserved":false,"is_disabled":false,"rental_uris":{"android":"levelo://app?vid=f7d434d6-c94a-44aa-85df-690d8ef2922e","ios":"levelo://app?vid=f7d434d6-c94a-44aa-85df-690d8ef2922e"},"vehicle_type_id":"4","last_reported":1746004263,"current_range_meters":9200,"station_id":"ce4bhs12rcd13ifvqhvg","pricing_plan_id":"cebpf4jnsgd1na2vs0mg"},{"bike_id":"63d677dd-43a2-4f8a-86ae-1f86b907f8df","system_id":"levelo_inurba_marseille","lat":43.28369,"lon":5.38627,"is_reserved":false,"is_disabled":true,"rental_uris":{"android":"levelo://app?vid=63d677dd-43a2-4f8a-86ae-1f86b907f8df","ios":"levelo://app?vid=63d677dd-43a2-4f8a-86ae-1f86b907f8df"},"vehicle_type_id":"4","last_reported":1746004263,"current_range_meters":9200,"station_id":"ce4bh492rcd13ifvqdvg","pricing_plan_id":"cebpf4jnsgd1na2vs0mg"},{"bike_id":"58071c2a-9fa6-41c9-99f4-67131c5c55df","system_id":"levelo_inurba_marseille","lat":43.30137,"lon":5.37419,"is_reserved":false,"is_disabled":false,"rental_uris":{"android":"levelo://app?vid=58071c2a-9fa6-41c9-99f4-67131c5c55df","ios":"levelo://app?vid=58071c2a-9fa6-41c9-99f4-67131c5c55df"},"vehicle_type_id":"4","last_reported":1746004263,"current_range_meters":9200,"station_id":"ce4bgs92rcd13ifvqcc0","pricing_plan_id":"cebpf4jnsgd1na2vs0mg"},{"bike_id":"19fc3e83-81e4-48c8-8022-4ced6258448b","system_id":"levelo_inurba_marseille","lat":43.25926,"lon":5.40885,"is_reserved":false,"is_disabled":false,"rental_uris":{"android":"levelo://app?vid=19fc3e83-81e4-48c8-8022-4ced6258448b","ios":"levelo://app?vid=19fc3e83-81e4-48c8-8022-4ced6258448b"},"vehicle_type_id":"4","last_reported":1746004263,"current_range_meters":9200,"station_id":"ce4bhm92rcd13ifvqglg","pricing_plan_id":"cebpf4jnsgd1na2vs0mg"},{"bike_id":"489415b8-9254-45c1-b00c-e7554d56755c","system_id":"levelo_inurba_marseille","lat":43.245163,"lon":5.412145,"is_reserved":false,"is_disabled":false,"rental_uris":{"android":"levelo://app?vid=489415b8-9254-45c1-b00c-e7554d56755c","ios":"levelo://app?vid=489415b8-9254-45c1-b00c-e7554d56755c"},"vehicle_type_id":"4","last_reported":1746004263,"current_range_meters":9600,"station_id":"","pricing_plan_id":"cebpf4jnsgd1na2vs0mg"},{"bike_id":"350c0f47-0641-4e75-ab08-1737a2e9d144","system_id":"levelo_inurba_marseille","lat":43.29439,"lon":5.39756,"is_reserved":false,"is_disabled":false,"rental_uris":{"android":"levelo://app?vid=350c0f47-0641-4e75-ab08-1737a2e9d144","ios":"levelo://app?vid=350c0f47-0641-4e75-ab08-1737a2e9d144"},"vehicle_type_id":"4","last_reported":1746004263,"current_range_meters":9600,"station_id":"ce4bh3h2rcd13ifvqdo0","pricing_plan_id":"cebpf4jnsgd1na2vs0mg"},{"bike_id":"312629db-7553-4f57-8655-a25196d01b88","system_id":"levelo_inurba_marseille","lat":43.30373,"lon":5.42479,"is_reserved":false,"is_disabled":false,"rental_uris":{"android":"levelo://app?vid=312629db-7553-4f57-8655-a25196d01b88","ios":"levelo://app?vid=312629db-7553-4f57-8655-a25196d01b88"},"vehicle_type_id":"4","last_reported":1746004263,"current_range_meters":9600,"station_id":"ce4bhoh2rcd13ifvqh6g","pricing_plan_id":"cebpf4jnsgd1na2vs0mg"},{"bike_id":"8cf3f66e-8242-4c29-8303-09d0ce2a3016","system_id":"levelo_inurba_marseille","lat":43.30173,"lon":5.36624,"is_reserved":false,"is_disabled":false,"rental_uris":{"android":"levelo://app?vid=8cf3f66e-8242-4c29-8303-09d0ce2a3016","ios":"levelo://app?vid=8cf3f66e-8242-4c29-8303-09d0ce2a3016"},"vehicle_type_id":"4","last_reported":1746004263,"current_range_meters":9600,"station_id":"ce4bgrh2rcd13ifvqc8g","pricing_plan_id":"cebpf4jnsgd1na2vs0mg"},{"bike_id":"85bf2901-9733-4821-b270-a78ff03b9a3b","system_id":"levelo_inurba_marseille","lat":43.32347,"lon":5.42082,"is_reserved":false,"is_disabled":false,"rental_uris":{"android":"levelo://app?vid=85bf2901-9733-4821-b270-a78ff03b9a3b","ios":"levelo://app?vid=85bf2901-9733-4821-b270-a78ff03b9a3b"},"vehicle_type_id":"4","last_reported":1746004263,"current_range_meters":9600,"station_id":"","pricing_plan_id":"cebpf4jnsgd1na2vs0mg"},{"bike_id":"f5c9e254-60b8-4db0-a08d-3560436a0634","system_id":"levelo_inurba_marseille","lat":43.2305,"lon":5.35493,"is_reserved":false,"is_disabled":false,"rental_uris":{"android":"levelo://app?vid=f5c9e254-60b8-4db0-a08d-3560436a0634","ios":"levelo://app?vid=f5c9e254-60b8-4db0-a08d-3560436a0634"},"vehicle_type_id":"4","last_reported":1746004263,"current_range_meters":9600,"station_id":"cpo3342slgdg3j2ifvpg","pricing_plan_id":"cebpf4jnsgd1na2vs0mg"},{"bike_id":"651f71cd-25aa-4cb6-9bfa-26512badea57","system_id":"levelo_inurba_marseille","lat":43.2919,"lon":5.35804,"is_reserved":false,"is_disabled":false,"rental_uris":{"android":"levelo://app?vid=651f71cd-25aa-4cb6-9bfa-26512badea57","ios":"levelo://app?vid=651f71cd-25aa-4cb6-9bfa-26512badea57"},"vehicle_type_id":"4","last_reported":1746004263,"current_range_meters":9600,"station_id":"ce4bhb12rcd13ifvqel0","pricing_plan_id":"cebpf4jnsgd1na2vs0mg"},{"bike_id":"fef50940-02f6-406f-b2a9-d1efcaf607d2","system_id":"levelo_inurba_marseille","lat":43.29536,"lon":5.394,"is_reserved":false,"is_disabled":false,"rental_uris":{"android":"levelo://app?vid=fef50940-02f6-406f-b2a9-d1efcaf607d2","ios":"levelo://app?vid=fef50940-02f6-406f-b2a9-d1efcaf607d2"},"vehicle_type_id":"4","last_reported":1746004263,"current_range_meters":10800,"station_id":"ce4bh292rcd13ifvqdf0","pricing_plan_id":"cebpf4jnsgd1na2vs0mg"},{"bike_id":"2990964c-74cd-4d01-b89f-596cbbac4713","system_id":"levelo_inurba_marseille","lat":43.30952,"lon":5.39033,"is_reserved":false,"is_disabled":false,"rental_uris":{"android":"levelo://app?vid=2990964c-74cd-4d01-b89f-596cbbac4713","ios":"levelo://app?vid=2990964c-74cd-4d01-b89f-596cbbac4713"},"vehicle_type_id":"4","last_reported":1746004263,"current_range_meters":9600,"station_id":"ce4bgup2rcd13ifvqco0","pricing_plan_id":"cebpf4jnsgd1na2vs0mg"},{"bike_id":"3ae641eb-772b-47f4-9c6f-a55115e8b3d3","system_id":"levelo_inurba_marseille","lat":43.29202,"lon":5.35798,"is_reserved":false,"is_disabled":true,"rental_uris":{"android":"levelo://app?vid=3ae641eb-772b-47f4-9c6f-a55115e8b3d3","ios":"levelo://app?vid=3ae641eb-772b-47f4-9c6f-a55115e8b3d3"},"vehicle_type_id":"4","last_reported":1746004263,"current_range_meters":10000,"station_id":"ce4bhb12rcd13ifvqel0","pricing_plan_id":"cebpf4jnsgd1na2vs0mg"},{"bike_id":"54445734-f886-42ee-a63c-def58dd1c716","system_id":"levelo_inurba_marseille","lat":43.25585,"lon":5.3823,"is_reserved":false,"is_disabled":false,"rental_uris":{"android":"levelo://app?vid=54445734-f886-42ee-a63c-def58dd1c716","ios":"levelo://app?vid=54445734-f886-42ee-a63c-def58dd1c716"},"vehicle_type_id":"4","last_reported":1746004263,"current_range_meters":9600,"station_id":"ce4bhih2rcd13ifvqfs0","pricing_plan_id":"cebpf4jnsgd1na2vs0mg"},{"bike_id":"dc82108c-9525-48bf-8a2c-9aab4803c159","system_id":"levelo_inurba_marseille","lat":43.30532,"lon":5.36543,"is_reserved":false,"is_disabled":false,"rental_uris":{"android":"levelo://app?vid=dc82108c-9525-48bf-8a2c-9aab4803c159","ios":"levelo://app?vid=dc82108c-9525-48bf-8a2c-9aab4803c159"},"vehicle_type_id":"4","last_reported":1746004263,"current_range_meters":10000,"station_id":"ce4bgs12rcd13ifvqcag","pricing_plan_id":"cebpf4jnsgd1na2vs0mg"},{"bike_id":"11156d21-dbc6-48d3-9368-a3538ac7f162","system_id":"levelo_inurba_marseille","lat":43.30531,"lon":5.36691,"is_reserved":false,"is_disabled":false,"rental_uris":{"android":"levelo://app?vid=11156d21-dbc6-48d3-9368-a3538ac7f162","ios":"levelo://app?vid=11156d21-dbc6-48d3-9368-a3538ac7f162"},"vehicle_type_id":"4","last_reported":1746004263,"current_range_meters":10000,"station_id":"ce4bgrp2rcd13ifvqc9g","pricing_plan_id":"cebpf4jnsgd1na2vs0mg"},{"bike_id":"1b4cbc1d-a4f3-4f6c-98d1-60c40b27c3d0","system_id":"levelo_inurba_marseille","lat":43.29834,"lon":5.36266,"is_reserved":false,"is_disabled":false,"rental_uris":{"android":"levelo://app?vid=1b4cbc1d-a4f3-4f6c-98d1-60c40b27c3d0","ios":"levelo://app?vid=1b4cbc1d-a4f3-4f6c-98d1-60c40b27c3d0"},"vehicle_type_id":"4","last_reported":1746004263,"current_range_meters":10000,"station_id":"ce4bgpp2rcd13ifvqc3g","pricing_plan_id":"cebpf4jnsgd1na2vs0mg"},{"bike_id":"07edfd45-c3fa-4b57-b865-cf1bf9963264","system_id":"levelo_inurba_marseille","lat":43.2339,"lon":5.36408,"is_reserved":false,"is_disabled":false,"rental_uris":{"android":"levelo://app?vid=07edfd45-c3fa-4b57-b865-cf1bf9963264","ios":"levelo://app?vid=07edfd45-c3fa-4b57-b865-cf1bf9963264"},"vehicle_type_id":"4","last_reported":1746004263,"current_range_meters":10000,"station_id":"","pricing_plan_id":"cebpf4jnsgd1na2vs0mg"},{"bike_id":"3a9bd96a-1d84-454e-b55b-a4ef583e3749","system_id":"levelo_inurba_marseille","lat":43.26681,"lon":5.3827,"is_reserved":false,"is_disabled":false,"rental_uris":{"android":"levelo://app?vid=3a9bd96a-1d84-454e-b55b-a4ef583e3749","ios":"levelo://app?vid=3a9bd96a-1d84-454e-b55b-a4ef583e3749"},"vehicle_type_id":"4","last_reported":1746004263,"current_range_meters":10000,"station_id":"ce4bhg92rcd13ifvqf90","pricing_plan_id":"cebpf4jnsgd1na2vs0mg"},{"bike_id":"07c773f6-92ce-48d1-8554-19862c06ba27","system_id":"levelo_inurba_marseille","lat":43.30467,"lon":5.37909,"is_reserved":false,"is_disabled":false,"rental_uris":{"android":"levelo://app?vid=07c773f6-92ce-48d1-8554-19862c06ba27","ios":"levelo://app?vid=07c773f6-92ce-48d1-8554-19862c06ba27"},"vehicle_type_id":"4","last_reported":1746004263,"current_range_meters":10000,"station_id":"ce4bgup2rcd13ifvqcn0","pricing_plan_id":"cebpf4jnsgd1na2vs0mg"},{"bike_id":"ddf42e2f-5ba3-456f-b6b9-71a4fb220f7c","system_id":"levelo_inurba_marseille","lat":43.21785,"lon":5.34579,"is_reserved":false,"is_disabled":false,"rental_uris":{"android":"levelo://app?vid=ddf42e2f-5ba3-456f-b6b9-71a4fb220f7c","ios":"levelo://app?vid=ddf42e2f-5ba3-456f-b6b9-71a4fb220f7c"},"vehicle_type_id":"4","last_reported":1746004263,"current_range_meters":10800,"station_id":"st_cvj6r9ubvosntc0bgbag","pricing_plan_id":"cebpf4jnsgd1na2vs0mg"},{"bike_id":"526f71b5-5ddd-4e53-8f5a-4c575cbd5e92","system_id":"levelo_inurba_marseille","lat":43.30567,"lon":5.36538,"is_reserved":false,"is_disabled":false,"rental_uris":{"android":"levelo://app?vid=526f71b5-5ddd-4e53-8f5a-4c575cbd5e92","ios":"levelo://app?vid=526f71b5-5ddd-4e53-8f5a-4c575cbd5e92"},"vehicle_type_id":"4","last_reported":1746004263,"current_range_meters":10000,"station_id":"ce4bgs12rcd13ifvqcag","pricing_plan_id":"cebpf4jnsgd1na2vs0mg"},{"bike_id":"ef74f9da-224e-4613-9df0-724cd6977b83","system_id":"levelo_inurba_marseille","lat":43.28447,"lon":5.39204,"is_reserved":false,"is_disabled":false,"rental_uris":{"android":"levelo://app?vid=ef74f9da-224e-4613-9df0-724cd6977b83","ios":"levelo://app?vid=ef74f9da-224e-4613-9df0-724cd6977b83"},"vehicle_type_id":"4","last_reported":1746004263,"current_range_meters":10800,"station_id":"ce4bhoh2rcd13ifvqh5g","pricing_plan_id":"cebpf4jnsgd1na2vs0mg"},{"bike_id":"9f4a623e-f5da-4ce8-8a09-5e7161e7255f","system_id":"levelo_inurba_marseille","lat":43.25079,"lon":5.39524,"is_reserved":false,"is_disabled":false,"rental_uris":{"android":"levelo://app?vid=9f4a623e-f5da-4ce8-8a09-5e7161e7255f","ios":"levelo://app?vid=9f4a623e-f5da-4ce8-8a09-5e7161e7255f"},"vehicle_type_id":"4","last_reported":1746004263,"current_range_meters":10800,"station_id":"ce4bhm12rcd13ifvqgkg","pricing_plan_id":"cebpf4jnsgd1na2vs0mg"},{"bike_id":"28a7b18c-6ac4-4d40-9282-ca3debad9cea","system_id":"levelo_inurba_marseille","lat":43.25963,"lon":5.40873,"is_reserved":false,"is_disabled":false,"rental_uris":{"android":"levelo://app?vid=28a7b18c-6ac4-4d40-9282-ca3debad9cea","ios":"levelo://app?vid=28a7b18c-6ac4-4d40-9282-ca3debad9cea"},"vehicle_type_id":"4","last_reported":1746004263,"current_range_meters":10800,"station_id":"ce4bhm92rcd13ifvqglg","pricing_plan_id":"cebpf4jnsgd1na2vs0mg"},{"bike_id":"db7bb269-a1a6-4fbc-8f74-cbd29fc2931b","system_id":"levelo_inurba_marseille","lat":43.2315,"lon":5.43714,"is_reserved":false,"is_disabled":false,"rental_uris":{"android":"levelo://app?vid=db7bb269-a1a6-4fbc-8f74-cbd29fc2931b","ios":"levelo://app?vid=db7bb269-a1a6-4fbc-8f74-cbd29fc2931b"},"vehicle_type_id":"4","last_reported":1746004263,"current_range_meters":10800,"station_id":"ce4bhmp2rcd13ifvqgog","pricing_plan_id":"cebpf4jnsgd1na2vs0mg"},{"bike_id":"c93b424d-4926-47d6-95bd-1e834db9ffd2","system_id":"levelo_inurba_marseille","lat":43.30143,"lon":5.38064,"is_reserved":false,"is_disabled":false,"rental_uris":{"android":"levelo://app?vid=c93b424d-4926-47d6-95bd-1e834db9ffd2","ios":"levelo://app?vid=c93b424d-4926-47d6-95bd-1e834db9ffd2"},"vehicle_type_id":"4","last_reported":1746004263,"current_range_meters":10800,"station_id":"ce4bgjp2rcd13ifvqbh0","pricing_plan_id":"cebpf4jnsgd1na2vs0mg"},{"bike_id":"1f0434db-0ec0-4ac6-a593-74ce77d1d6d2","system_id":"levelo_inurba_marseille","lat":43.23146,"lon":5.43711,"is_reserved":false,"is_disabled":false,"rental_uris":{"android":"levelo://app?vid=1f0434db-0ec0-4ac6-a593-74ce77d1d6d2","ios":"levelo://app?vid=1f0434db-0ec0-4ac6-a593-74ce77d1d6d2"},"vehicle_type_id":"4","last_reported":1746004263,"current_range_meters":11200,"station_id":"ce4bhmp2rcd13ifvqgog","pricing_plan_id":"cebpf4jnsgd1na2vs0mg"},{"bike_id":"ac80e985-cfdf-4940-bf6d-bf2ebe2c2fd0","system_id":"levelo_inurba_marseille","lat":43.32104,"lon":5.36781,"is_reserved":false,"is_disabled":false,"rental_uris":{"android":"levelo://app?vid=ac80e985-cfdf-4940-bf6d-bf2ebe2c2fd0","ios":"levelo://app?vid=ac80e985-cfdf-4940-bf6d-bf2ebe2c2fd0"},"vehicle_type_id":"4","last_reported":1746004263,"current_range_meters":11200,"station_id":"ce4bhrh2rcd13ifvqhug","pricing_plan_id":"cebpf4jnsgd1na2vs0mg"},{"bike_id":"dc0f4ab9-c4b9-4616-bf36-5f4c14e2ea12","system_id":"levelo_inurba_marseille","lat":43.23149,"lon":5.43719,"is_reserved":false,"is_disabled":false,"rental_uris":{"android":"levelo://app?vid=dc0f4ab9-c4b9-4616-bf36-5f4c14e2ea12","ios":"levelo://app?vid=dc0f4ab9-c4b9-4616-bf36-5f4c14e2ea12"},"vehicle_type_id":"4","last_reported":1746004263,"current_range_meters":11200,"station_id":"ce4bhmp2rcd13ifvqgog","pricing_plan_id":"cebpf4jnsgd1na2vs0mg"},{"bike_id":"1721bb0c-5557-4393-8968-b7054258c715","system_id":"levelo_inurba_marseille","lat":43.2842,"lon":5.34997,"is_reserved":false,"is_disabled":true,"rental_uris":{"android":"levelo://app?vid=1721bb0c-5557-4393-8968-b7054258c715","ios":"levelo://app?vid=1721bb0c-5557-4393-8968-b7054258c715"},"vehicle_type_id":"4","last_reported":1746004263,"current_range_meters":11200,"station_id":"ce4bhbh2rcd13ifvqepg","pricing_plan_id":"cebpf4jnsgd1na2vs0mg"},{"bike_id":"095572ae-ca49-4a78-8f4f-d07826bea0b8","system_id":"levelo_inurba_marseille","lat":43.2318,"lon":5.39991,"is_reserved":false,"is_disabled":false,"rental_uris":{"android":"levelo://app?vid=095572ae-ca49-4a78-8f4f-d07826bea0b8","ios":"levelo://app?vid=095572ae-ca49-4a78-8f4f-d07826bea0b8"},"vehicle_type_id":"4","last_reported":1746004263,"current_range_meters":11200,"station_id":"ce4bhn12rcd13ifvqgqg","pricing_plan_id":"cebpf4jnsgd1na2vs0mg"},{"bike_id":"dcb0b990-89f9-495c-a9c1-10b17ae39667","system_id":"levelo_inurba_marseille","lat":43.23471,"lon":5.38041,"is_reserved":false,"is_disabled":false,"rental_uris":{"android":"levelo://app?vid=dcb0b990-89f9-495c-a9c1-10b17ae39667","ios":"levelo://app?vid=dcb0b990-89f9-495c-a9c1-10b17ae39667"},"vehicle_type_id":"4","last_reported":1746004263,"current_range_meters":11200,"station_id":"","pricing_plan_id":"cebpf4jnsgd1na2vs0mg"},{"bike_id":"bc15c4a3-69f8-4353-af63-4a80b02d1a31","system_id":"levelo_inurba_marseille","lat":43.26555,"lon":5.37286,"is_reserved":false,"is_disabled":false,"rental_uris":{"android":"levelo://app?vid=bc15c4a3-69f8-4353-af63-4a80b02d1a31","ios":"levelo://app?vid=bc15c4a3-69f8-4353-af63-4a80b02d1a31"},"vehicle_type_id":"4","last_reported":1746004263,"current_range_meters":11600,"station_id":"ce4bhg12rcd13ifvqf70","pricing_plan_id":"cebpf4jnsgd1na2vs0mg"},{"bike_id":"cda1aa22-ba71-4322-a4e8-2a56029a1de1","system_id":"levelo_inurba_marseille","lat":43.29003,"lon":5.356178,"is_reserved":false,"is_disabled":false,"rental_uris":{"android":"levelo://app?vid=cda1aa22-ba71-4322-a4e8-2a56029a1de1","ios":"levelo://app?vid=cda1aa22-ba71-4322-a4e8-2a56029a1de1"},"vehicle_type_id":"4","last_reported":1746004263,"current_range_meters":12000,"station_id":"ce4bhb92rcd13ifvqen0","pricing_plan_id":"cebpf4jnsgd1na2vs0mg"},{"bike_id":"cfd89208-b931-493b-b1a7-f9e520e986f1","system_id":"levelo_inurba_marseille","lat":43.2737,"lon":5.3626,"is_reserved":false,"is_disabled":false,"rental_uris":{"android":"levelo://app?vid=cfd89208-b931-493b-b1a7-f9e520e986f1","ios":"levelo://app?vid=cfd89208-b931-493b-b1a7-f9e520e986f1"},"vehicle_type_id":"4","last_reported":1746004263,"current_range_meters":12000,"station_id":"ce4bhbh2rcd13ifvqeo0","pricing_plan_id":"cebpf4jnsgd1na2vs0mg"},{"bike_id":"f27ad1c3-409e-4d3f-9da2-ad28dfd8b351","system_id":"levelo_inurba_marseille","lat":43.26685,"lon":5.38264,"is_reserved":false,"is_disabled":false,"rental_uris":{"android":"levelo://app?vid=f27ad1c3-409e-4d3f-9da2-ad28dfd8b351","ios":"levelo://app?vid=f27ad1c3-409e-4d3f-9da2-ad28dfd8b351"},"vehicle_type_id":"4","last_reported":1746004263,"current_range_meters":12400,"station_id":"ce4bhg92rcd13ifvqf90","pricing_plan_id":"cebpf4jnsgd1na2vs0mg"},{"bike_id":"9539d15d-ff21-49d1-b3d6-cfed83502aa0","system_id":"levelo_inurba_marseille","lat":43.25934,"lon":5.40911,"is_reserved":false,"is_disabled":false,"rental_uris":{"android":"levelo://app?vid=9539d15d-ff21-49d1-b3d6-cfed83502aa0","ios":"levelo://app?vid=9539d15d-ff21-49d1-b3d6-cfed83502aa0"},"vehicle_type_id":"4","last_reported":1746004263,"current_range_meters":12400,"station_id":"ce4bhm92rcd13ifvqglg","pricing_plan_id":"cebpf4jnsgd1na2vs0mg"},{"bike_id":"6670d88b-5f37-4bd5-b714-7cd03aeb5435","system_id":"levelo_inurba_marseille","lat":43.286738,"lon":5.386605,"is_reserved":false,"is_disabled":false,"rental_uris":{"android":"levelo://app?vid=6670d88b-5f37-4bd5-b714-7cd03aeb5435","ios":"levelo://app?vid=6670d88b-5f37-4bd5-b714-7cd03aeb5435"},"vehicle_type_id":"4","last_reported":1746004263,"current_range_meters":12400,"station_id":"","pricing_plan_id":"cebpf4jnsgd1na2vs0mg"},{"bike_id":"6d226f7b-4b82-47c8-99c7-edaca84b272b","system_id":"levelo_inurba_marseille","lat":43.30908,"lon":5.3685,"is_reserved":false,"is_disabled":false,"rental_uris":{"android":"levelo://app?vid=6d226f7b-4b82-47c8-99c7-edaca84b272b","ios":"levelo://app?vid=6d226f7b-4b82-47c8-99c7-edaca84b272b"},"vehicle_type_id":"4","last_reported":1746004263,"current_range_meters":12800,"station_id":"ce4bgn92rcd13ifvqbvg","pricing_plan_id":"cebpf4jnsgd1na2vs0mg"},{"bike_id":"7da2c8e1-a1d4-4e1f-a809-4b4277d26ffb","system_id":"levelo_inurba_marseille","lat":43.29984,"lon":5.3717,"is_reserved":false,"is_disabled":false,"rental_uris":{"android":"levelo://app?vid=7da2c8e1-a1d4-4e1f-a809-4b4277d26ffb","ios":"levelo://app?vid=7da2c8e1-a1d4-4e1f-a809-4b4277d26ffb"},"vehicle_type_id":"4","last_reported":1746004263,"current_range_meters":12800,"station_id":"ce4bgr92rcd13ifvqc7g","pricing_plan_id":"cebpf4jnsgd1na2vs0mg"},{"bike_id":"0f654b1b-088b-4404-bc21-90336ba8b739","system_id":"levelo_inurba_marseille","lat":43.260566,"lon":5.407536,"is_reserved":false,"is_disabled":false,"rental_uris":{"android":"levelo://app?vid=0f654b1b-088b-4404-bc21-90336ba8b739","ios":"levelo://app?vid=0f654b1b-088b-4404-bc21-90336ba8b739"},"vehicle_type_id":"4","last_reported":1746004263,"current_range_meters":12800,"station_id":"ce4bhm92rcd13ifvqglg","pricing_plan_id":"cebpf4jnsgd1na2vs0mg"},{"bike_id":"e5e92a64-e709-4b1a-a9b1-cbffe85789ca","system_id":"levelo_inurba_marseille","lat":43.2554,"lon":5.38148,"is_reserved":false,"is_disabled":false,"rental_uris":{"android":"levelo://app?vid=e5e92a64-e709-4b1a-a9b1-cbffe85789ca","ios":"levelo://app?vid=e5e92a64-e709-4b1a-a9b1-cbffe85789ca"},"vehicle_type_id":"4","last_reported":1746004263,"current_range_meters":12800,"station_id":"","pricing_plan_id":"cebpf4jnsgd1na2vs0mg"},{"bike_id":"d52801fb-9f6c-451f-8a4f-c4ac0505f8e9","system_id":"levelo_inurba_marseille","lat":43.2841,"lon":5.3501,"is_reserved":false,"is_disabled":false,"rental_uris":{"android":"levelo://app?vid=d52801fb-9f6c-451f-8a4f-c4ac0505f8e9","ios":"levelo://app?vid=d52801fb-9f6c-451f-8a4f-c4ac0505f8e9"},"vehicle_type_id":"4","last_reported":1746004263,"current_range_meters":13600,"station_id":"","pricing_plan_id":"cebpf4jnsgd1na2vs0mg"},{"bike_id":"1f675daf-e2a2-4afe-8393-80cf2c3b8b30","system_id":"levelo_inurba_marseille","lat":43.25928,"lon":5.40884,"is_reserved":false,"is_disabled":false,"rental_uris":{"android":"levelo://app?vid=1f675daf-e2a2-4afe-8393-80cf2c3b8b30","ios":"levelo://app?vid=1f675daf-e2a2-4afe-8393-80cf2c3b8b30"},"vehicle_type_id":"4","last_reported":1746004263,"current_range_meters":13600,"station_id":"ce4bhm92rcd13ifvqglg","pricing_plan_id":"cebpf4jnsgd1na2vs0mg"},{"bike_id":"965c1ad8-5068-4b21-b6f8-27e8c898e3b5","system_id":"levelo_inurba_marseille","lat":43.31366,"lon":5.384912,"is_reserved":false,"is_disabled":false,"rental_uris":{"android":"levelo://app?vid=965c1ad8-5068-4b21-b6f8-27e8c898e3b5","ios":"levelo://app?vid=965c1ad8-5068-4b21-b6f8-27e8c898e3b5"},"vehicle_type_id":"4","last_reported":1746004263,"current_range_meters":13600,"station_id":"ce4bgt92rcd13ifvqcf0","pricing_plan_id":"cebpf4jnsgd1na2vs0mg"},{"bike_id":"2867f576-ffe9-44c4-ae52-1a100a86cb79","system_id":"levelo_inurba_marseille","lat":43.30201,"lon":5.37366,"is_reserved":false,"is_disabled":false,"rental_uris":{"android":"levelo://app?vid=2867f576-ffe9-44c4-ae52-1a100a86cb79","ios":"levelo://app?vid=2867f576-ffe9-44c4-ae52-1a100a86cb79"},"vehicle_type_id":"4","last_reported":1746004263,"current_range_meters":14000,"station_id":"","pricing_plan_id":"cebpf4jnsgd1na2vs0mg"},{"bike_id":"56973c62-c000-4091-9194-64142ba8c234","system_id":"levelo_inurba_marseille","lat":43.30537,"lon":5.36556,"is_reserved":false,"is_disabled":false,"rental_uris":{"android":"levelo://app?vid=56973c62-c000-4091-9194-64142ba8c234","ios":"levelo://app?vid=56973c62-c000-4091-9194-64142ba8c234"},"vehicle_type_id":"4","last_reported":1746004263,"current_range_meters":14000,"station_id":"ce4bgs12rcd13ifvqcag","pricing_plan_id":"cebpf4jnsgd1na2vs0mg"},{"bike_id":"c1cbc237-cfab-474a-aa26-81a87506105a","system_id":"levelo_inurba_marseille","lat":43.2175,"lon":5.34603,"is_reserved":false,"is_disabled":false,"rental_uris":{"android":"levelo://app?vid=c1cbc237-cfab-474a-aa26-81a87506105a","ios":"levelo://app?vid=c1cbc237-cfab-474a-aa26-81a87506105a"},"vehicle_type_id":"4","last_reported":1746004263,"current_range_meters":14000,"station_id":"st_cvj6r9ubvosntc0bgbag","pricing_plan_id":"cebpf4jnsgd1na2vs0mg"},{"bike_id":"1ec295d3-ad10-4906-82af-c2b51c243122","system_id":"levelo_inurba_marseille","lat":43.3249,"lon":5.36564,"is_reserved":false,"is_disabled":false,"rental_uris":{"android":"levelo://app?vid=1ec295d3-ad10-4906-82af-c2b51c243122","ios":"levelo://app?vid=1ec295d3-ad10-4906-82af-c2b51c243122"},"vehicle_type_id":"4","last_reported":1746004263,"current_range_meters":14400,"station_id":"ce4bhs12rcd13ifvqhvg","pricing_plan_id":"cebpf4jnsgd1na2vs0mg"},{"bike_id":"a3ce50fa-ccb2-4870-abaf-217471d1b164","system_id":"levelo_inurba_marseille","lat":43.29305,"lon":5.37465,"is_reserved":false,"is_disabled":true,"rental_uris":{"android":"levelo://app?vid=a3ce50fa-ccb2-4870-abaf-217471d1b164","ios":"levelo://app?vid=a3ce50fa-ccb2-4870-abaf-217471d1b164"},"vehicle_type_id":"4","last_reported":1746004263,"current_range_meters":14400,"station_id":"ce4bgi12rcd13ifvqb70","pricing_plan_id":"cebpf4jnsgd1na2vs0mg"},{"bike_id":"2cbe2fab-72a1-4bcd-8c44-98069ca26f60","system_id":"levelo_inurba_marseille","lat":43.309061,"lon":5.368504,"is_reserved":false,"is_disabled":false,"rental_uris":{"android":"levelo://app?vid=2cbe2fab-72a1-4bcd-8c44-98069ca26f60","ios":"levelo://app?vid=2cbe2fab-72a1-4bcd-8c44-98069ca26f60"},"vehicle_type_id":"4","last_reported":1746004263,"current_range_meters":14400,"station_id":"ce4bgn92rcd13ifvqbvg","pricing_plan_id":"cebpf4jnsgd1na2vs0mg"},{"bike_id":"6e10a708-b0d8-4d2e-a729-995f6af00eb0","system_id":"levelo_inurba_marseille","lat":43.29297,"lon":5.37461,"is_reserved":false,"is_disabled":false,"rental_uris":{"android":"levelo://app?vid=6e10a708-b0d8-4d2e-a729-995f6af00eb0","ios":"levelo://app?vid=6e10a708-b0d8-4d2e-a729-995f6af00eb0"},"vehicle_type_id":"4","last_reported":1746004263,"current_range_meters":14000,"station_id":"ce4bgi12rcd13ifvqb70","pricing_plan_id":"cebpf4jnsgd1na2vs0mg"},{"bike_id":"27d23fb8-7633-4a8e-a528-66dd8782fded","system_id":"levelo_inurba_marseille","lat":43.31345,"lon":5.36699,"is_reserved":false,"is_disabled":false,"rental_uris":{"android":"levelo://app?vid=27d23fb8-7633-4a8e-a528-66dd8782fded","ios":"levelo://app?vid=27d23fb8-7633-4a8e-a528-66dd8782fded"},"vehicle_type_id":"4","last_reported":1746004263,"current_range_meters":14400,"station_id":"ce4bgr92rcd13ifvqc6g","pricing_plan_id":"cebpf4jnsgd1na2vs0mg"},{"bike_id":"d88f1c89-45c5-49a2-9923-ca805a5fb6a9","system_id":"levelo_inurba_marseille","lat":43.305393,"lon":5.365228,"is_reserved":false,"is_disabled":false,"rental_uris":{"android":"levelo://app?vid=d88f1c89-45c5-49a2-9923-ca805a5fb6a9","ios":"levelo://app?vid=d88f1c89-45c5-49a2-9923-ca805a5fb6a9"},"vehicle_type_id":"4","last_reported":1746004263,"current_range_meters":14800,"station_id":"ce4bgs12rcd13ifvqcag","pricing_plan_id":"cebpf4jnsgd1na2vs0mg"},{"bike_id":"4fda502e-8180-4eb2-97e5-6521d9824005","system_id":"levelo_inurba_marseille","lat":43.305017,"lon":5.38071,"is_reserved":false,"is_disabled":false,"rental_uris":{"android":"levelo://app?vid=4fda502e-8180-4eb2-97e5-6521d9824005","ios":"levelo://app?vid=4fda502e-8180-4eb2-97e5-6521d9824005"},"vehicle_type_id":"4","last_reported":1746004263,"current_range_meters":14800,"station_id":"","pricing_plan_id":"cebpf4jnsgd1na2vs0mg"},{"bike_id":"eeb2080a-61ea-4344-a574-e24dedae6445","system_id":"levelo_inurba_marseille","lat":43.29302,"lon":5.37464,"is_reserved":false,"is_disabled":false,"rental_uris":{"android":"levelo://app?vid=eeb2080a-61ea-4344-a574-e24dedae6445","ios":"levelo://app?vid=eeb2080a-61ea-4344-a574-e24dedae6445"},"vehicle_type_id":"4","last_reported":1746004263,"current_range_meters":14800,"station_id":"ce4bgi12rcd13ifvqb70","pricing_plan_id":"cebpf4jnsgd1na2vs0mg"},{"bike_id":"6b014de0-1d20-4694-a92f-6ae438be1750","system_id":"levelo_inurba_marseille","lat":43.33605,"lon":5.41012,"is_reserved":false,"is_disabled":false,"rental_uris":{"android":"levelo://app?vid=6b014de0-1d20-4694-a92f-6ae438be1750","ios":"levelo://app?vid=6b014de0-1d20-4694-a92f-6ae438be1750"},"vehicle_type_id":"4","last_reported":1746004263,"current_range_meters":14800,"station_id":"ce4bhqh2rcd13ifvqhmg","pricing_plan_id":"cebpf4jnsgd1na2vs0mg"},{"bike_id":"be06ed16-ba61-4b86-89f6-734688611d73","system_id":"levelo_inurba_marseille","lat":43.26062,"lon":5.39392,"is_reserved":false,"is_disabled":false,"rental_uris":{"android":"levelo://app?vid=be06ed16-ba61-4b86-89f6-734688611d73","ios":"levelo://app?vid=be06ed16-ba61-4b86-89f6-734688611d73"},"vehicle_type_id":"4","last_reported":1746004263,"current_range_meters":15200,"station_id":"ce4bhh92rcd13ifvqfj0","pricing_plan_id":"cebpf4jnsgd1na2vs0mg"},{"bike_id":"ff4370d3-5dd8-4b9b-bbf5-04163b2823ce","system_id":"levelo_inurba_marseille","lat":43.25002,"lon":5.38933,"is_reserved":false,"is_disabled":false,"rental_uris":{"android":"levelo://app?vid=ff4370d3-5dd8-4b9b-bbf5-04163b2823ce","ios":"levelo://app?vid=ff4370d3-5dd8-4b9b-bbf5-04163b2823ce"},"vehicle_type_id":"4","last_reported":1746004263,"current_range_meters":14800,"station_id":"ce4bhgp2rcd13ifvqfd0","pricing_plan_id":"cebpf4jnsgd1na2vs0mg"},{"bike_id":"c8ceb8e9-785b-4de9-9930-3fbc66d30b00","system_id":"levelo_inurba_marseille","lat":43.2175,"lon":5.34609,"is_reserved":false,"is_disabled":true,"rental_uris":{"android":"levelo://app?vid=c8ceb8e9-785b-4de9-9930-3fbc66d30b00","ios":"levelo://app?vid=c8ceb8e9-785b-4de9-9930-3fbc66d30b00"},"vehicle_type_id":"4","last_reported":1746004263,"current_range_meters":16000,"station_id":"st_cvj6r9ubvosntc0bgbag","pricing_plan_id":"cebpf4jnsgd1na2vs0mg"},{"bike_id":"da331544-e76b-45b2-b7f1-975177c878a6","system_id":"levelo_inurba_marseille","lat":43.28615,"lon":5.35107,"is_reserved":false,"is_disabled":false,"rental_uris":{"android":"levelo://app?vid=da331544-e76b-45b2-b7f1-975177c878a6","ios":"levelo://app?vid=da331544-e76b-45b2-b7f1-975177c878a6"},"vehicle_type_id":"4","last_reported":1746004263,"current_range_meters":16400,"station_id":"ce4bhch2rcd13ifvqeug","pricing_plan_id":"cebpf4jnsgd1na2vs0mg"},{"bike_id":"b21aa3a1-e893-4cf1-a413-904306d29a67","system_id":"levelo_inurba_marseille","lat":43.28944,"lon":5.36636,"is_reserved":false,"is_disabled":false,"rental_uris":{"android":"levelo://app?vid=b21aa3a1-e893-4cf1-a413-904306d29a67","ios":"levelo://app?vid=b21aa3a1-e893-4cf1-a413-904306d29a67"},"vehicle_type_id":"4","last_reported":1746004263,"current_range_meters":16400,"station_id":"ce4bhap2rcd13ifvqek0","pricing_plan_id":"cebpf4jnsgd1na2vs0mg"},{"bike_id":"4581f8bf-a19e-411c-b51f-0982c8f663cb","system_id":"levelo_inurba_marseille","lat":43.29042,"lon":5.35915,"is_reserved":false,"is_disabled":false,"rental_uris":{"android":"levelo://app?vid=4581f8bf-a19e-411c-b51f-0982c8f663cb","ios":"levelo://app?vid=4581f8bf-a19e-411c-b51f-0982c8f663cb"},"vehicle_type_id":"4","last_reported":1746004263,"current_range_meters":16000,"station_id":"ce4bha92rcd13ifvqeg0","pricing_plan_id":"cebpf4jnsgd1na2vs0mg"},{"bike_id":"86c2979e-8cf6-48ed-bdb1-835ff11e3adc","system_id":"levelo_inurba_marseille","lat":43.2539,"lon":5.41841,"is_reserved":false,"is_disabled":false,"rental_uris":{"android":"levelo://app?vid=86c2979e-8cf6-48ed-bdb1-835ff11e3adc","ios":"levelo://app?vid=86c2979e-8cf6-48ed-bdb1-835ff11e3adc"},"vehicle_type_id":"4","last_reported":1746004263,"current_range_meters":16400,"station_id":"","pricing_plan_id":"cebpf4jnsgd1na2vs0mg"},{"bike_id":"770e0cf3-f02b-4a26-b134-11fa52b8d48f","system_id":"levelo_inurba_marseille","lat":43.25116,"lon":5.40316,"is_reserved":false,"is_disabled":false,"rental_uris":{"android":"levelo://app?vid=770e0cf3-f02b-4a26-b134-11fa52b8d48f","ios":"levelo://app?vid=770e0cf3-f02b-4a26-b134-11fa52b8d48f"},"vehicle_type_id":"4","last_reported":1746004263,"current_range_meters":16000,"station_id":"ce4bhlh2rcd13ifvqgig","pricing_plan_id":"cebpf4jnsgd1na2vs0mg"},{"bike_id":"bd98dea7-1bf8-403f-af9d-4a32a280a923","system_id":"levelo_inurba_marseille","lat":43.25904,"lon":5.40892,"is_reserved":false,"is_disabled":false,"rental_uris":{"android":"levelo://app?vid=bd98dea7-1bf8-403f-af9d-4a32a280a923","ios":"levelo://app?vid=bd98dea7-1bf8-403f-af9d-4a32a280a923"},"vehicle_type_id":"4","last_reported":1746004263,"current_range_meters":16400,"station_id":"ce4bhm92rcd13ifvqglg","pricing_plan_id":"cebpf4jnsgd1na2vs0mg"},{"bike_id":"35e6842a-a259-4059-924b-81959edb9697","system_id":"levelo_inurba_marseille","lat":43.24192,"lon":5.39722,"is_reserved":false,"is_disabled":false,"rental_uris":{"android":"levelo://app?vid=35e6842a-a259-4059-924b-81959edb9697","ios":"levelo://app?vid=35e6842a-a259-4059-924b-81959edb9697"},"vehicle_type_id":"4","last_reported":1746004263,"current_range_meters":16400,"station_id":"ce4bhn12rcd13ifvqgpg","pricing_plan_id":"cebpf4jnsgd1na2vs0mg"},{"bike_id":"9be56752-05f5-4d28-9a1d-ac715483cd76","system_id":"levelo_inurba_marseille","lat":43.29825,"lon":5.381359,"is_reserved":false,"is_disabled":false,"rental_uris":{"android":"levelo://app?vid=9be56752-05f5-4d28-9a1d-ac715483cd76","ios":"levelo://app?vid=9be56752-05f5-4d28-9a1d-ac715483cd76"},"vehicle_type_id":"4","last_reported":1746004263,"current_range_meters":16800,"station_id":"ce4bhap2rcd13ifvqek0","pricing_plan_id":"cebpf4jnsgd1na2vs0mg"},{"bike_id":"1563cab1-ed2d-4e07-af39-9eaa81a678d1","system_id":"levelo_inurba_marseille","lat":43.27054,"lon":5.40257,"is_reserved":false,"is_disabled":false,"rental_uris":{"android":"levelo://app?vid=1563cab1-ed2d-4e07-af39-9eaa81a678d1","ios":"levelo://app?vid=1563cab1-ed2d-4e07-af39-9eaa81a678d1"},"vehicle_type_id":"4","last_reported":1746004263,"current_range_meters":16800,"station_id":"ce4bhk92rcd13ifvqgc0","pricing_plan_id":"cebpf4jnsgd1na2vs0mg"},{"bike_id":"5f678564-9fcd-4b4f-a4a6-a4a30c42d107","system_id":"levelo_inurba_marseille","lat":43.30153,"lon":5.381,"is_reserved":false,"is_disabled":false,"rental_uris":{"android":"levelo://app?vid=5f678564-9fcd-4b4f-a4a6-a4a30c42d107","ios":"levelo://app?vid=5f678564-9fcd-4b4f-a4a6-a4a30c42d107"},"vehicle_type_id":"4","last_reported":1746004263,"current_range_meters":16800,"station_id":"ce4bgjp2rcd13ifvqbh0","pricing_plan_id":"cebpf4jnsgd1na2vs0mg"},{"bike_id":"e2c80642-735d-4de4-80df-d16f26aec9d5","system_id":"levelo_inurba_marseille","lat":43.24659,"lon":5.38156,"is_reserved":false,"is_disabled":false,"rental_uris":{"android":"levelo://app?vid=e2c80642-735d-4de4-80df-d16f26aec9d5","ios":"levelo://app?vid=e2c80642-735d-4de4-80df-d16f26aec9d5"},"vehicle_type_id":"4","last_reported":1746004263,"current_range_meters":17200,"station_id":"ce4bhih2rcd13ifvqfr0","pricing_plan_id":"cebpf4jnsgd1na2vs0mg"},{"bike_id":"4264c549-3392-4c15-a921-7278460e97a1","system_id":"levelo_inurba_marseille","lat":43.26223,"lon":5.38785,"is_reserved":false,"is_disabled":false,"rental_uris":{"android":"levelo://app?vid=4264c549-3392-4c15-a921-7278460e97a1","ios":"levelo://app?vid=4264c549-3392-4c15-a921-7278460e97a1"},"vehicle_type_id":"4","last_reported":1746004263,"current_range_meters":17200,"station_id":"","pricing_plan_id":"cebpf4jnsgd1na2vs0mg"},{"bike_id":"1d750c6c-bec1-4b3f-9930-a056073563f4","system_id":"levelo_inurba_marseille","lat":43.27984,"lon":5.41651,"is_reserved":false,"is_disabled":true,"rental_uris":{"android":"levelo://app?vid=1d750c6c-bec1-4b3f-9930-a056073563f4","ios":"levelo://app?vid=1d750c6c-bec1-4b3f-9930-a056073563f4"},"vehicle_type_id":"4","last_reported":1746004263,"current_range_meters":17200,"station_id":"ce4bho12rcd13ifvqh1g","pricing_plan_id":"cebpf4jnsgd1na2vs0mg"},{"bike_id":"445db07f-f9d6-4603-b9ff-7b369b8a735b","system_id":"levelo_inurba_marseille","lat":43.289521,"lon":5.383923,"is_reserved":false,"is_disabled":false,"rental_uris":{"android":"levelo://app?vid=445db07f-f9d6-4603-b9ff-7b369b8a735b","ios":"levelo://app?vid=445db07f-f9d6-4603-b9ff-7b369b8a735b"},"vehicle_type_id":"4","last_reported":1746004263,"current_range_meters":17200,"station_id":"ce4bh612rcd13ifvqe6g","pricing_plan_id":"cebpf4jnsgd1na2vs0mg"},{"bike_id":"7940bc1b-eaa7-4f49-a435-46dc9391f6a1","system_id":"levelo_inurba_marseille","lat":43.21197,"lon":5.35046,"is_reserved":false,"is_disabled":false,"rental_uris":{"android":"levelo://app?vid=7940bc1b-eaa7-4f49-a435-46dc9391f6a1","ios":"levelo://app?vid=7940bc1b-eaa7-4f49-a435-46dc9391f6a1"},"vehicle_type_id":"4","last_reported":1746004263,"current_range_meters":17600,"station_id":"st_cvj6sg6p6f1abm77japg","pricing_plan_id":"cebpf4jnsgd1na2vs0mg"},{"bike_id":"34b484ab-c0f1-4e55-b51a-e2bafdafb63e","system_id":"levelo_inurba_marseille","lat":43.23063,"lon":5.35493,"is_reserved":false,"is_disabled":false,"rental_uris":{"android":"levelo://app?vid=34b484ab-c0f1-4e55-b51a-e2bafdafb63e","ios":"levelo://app?vid=34b484ab-c0f1-4e55-b51a-e2bafdafb63e"},"vehicle_type_id":"4","last_reported":1746004263,"current_range_meters":17600,"station_id":"cpo3342slgdg3j2ifvpg","pricing_plan_id":"cebpf4jnsgd1na2vs0mg"},{"bike_id":"1197ea5e-c1b7-4a74-88b7-06654a658162","system_id":"levelo_inurba_marseille","lat":43.28414,"lon":5.37523,"is_reserved":false,"is_disabled":true,"rental_uris":{"android":"levelo://app?vid=1197ea5e-c1b7-4a74-88b7-06654a658162","ios":"levelo://app?vid=1197ea5e-c1b7-4a74-88b7-06654a658162"},"vehicle_type_id":"4","last_reported":1746004263,"current_range_meters":18800,"station_id":"ce4bh412rcd13ifvqds0","pricing_plan_id":"cebpf4jnsgd1na2vs0mg"},{"bike_id":"330ae0d8-2228-407b-80de-905ccac38fed","system_id":"levelo_inurba_marseille","lat":43.31491,"lon":5.37306,"is_reserved":false,"is_disabled":false,"rental_uris":{"android":"levelo://app?vid=330ae0d8-2228-407b-80de-905ccac38fed","ios":"levelo://app?vid=330ae0d8-2228-407b-80de-905ccac38fed"},"vehicle_type_id":"4","last_reported":1746004263,"current_range_meters":18000,"station_id":"ce4bgt12rcd13ifvqcd0","pricing_plan_id":"cebpf4jnsgd1na2vs0mg"},{"bike_id":"2fdb1782-b661-4be3-b077-36ae79463327","system_id":"levelo_inurba_marseille","lat":43.26954,"lon":5.38631,"is_reserved":false,"is_disabled":false,"rental_uris":{"android":"levelo://app?vid=2fdb1782-b661-4be3-b077-36ae79463327","ios":"levelo://app?vid=2fdb1782-b661-4be3-b077-36ae79463327"},"vehicle_type_id":"4","last_reported":1746004263,"current_range_meters":18000,"station_id":"ce4bhh92rcd13ifvqfh0","pricing_plan_id":"cebpf4jnsgd1na2vs0mg"},{"bike_id":"b0043de7-c42b-45a2-a464-7f0009621547","system_id":"levelo_inurba_marseille","lat":43.26492,"lon":5.39544,"is_reserved":false,"is_disabled":false,"rental_uris":{"android":"levelo://app?vid=b0043de7-c42b-45a2-a464-7f0009621547","ios":"levelo://app?vid=b0043de7-c42b-45a2-a464-7f0009621547"},"vehicle_type_id":"4","last_reported":1746004263,"current_range_meters":16800,"station_id":"ce4bhi12rcd13ifvqfq0","pricing_plan_id":"cebpf4jnsgd1na2vs0mg"},{"bike_id":"6044dd1a-88b2-4997-a9f7-f55faba9dc9e","system_id":"levelo_inurba_marseille","lat":43.25913,"lon":5.40871,"is_reserved":false,"is_disabled":false,"rental_uris":{"android":"levelo://app?vid=6044dd1a-88b2-4997-a9f7-f55faba9dc9e","ios":"levelo://app?vid=6044dd1a-88b2-4997-a9f7-f55faba9dc9e"},"vehicle_type_id":"4","last_reported":1746004263,"current_range_meters":18000,"station_id":"ce4bhm92rcd13ifvqglg","pricing_plan_id":"cebpf4jnsgd1na2vs0mg"},{"bike_id":"dc1ed819-5907-4497-8368-8b16a59e64ca","system_id":"levelo_inurba_marseille","lat":43.31488,"lon":5.37303,"is_reserved":false,"is_disabled":false,"rental_uris":{"android":"levelo://app?vid=dc1ed819-5907-4497-8368-8b16a59e64ca","ios":"levelo://app?vid=dc1ed819-5907-4497-8368-8b16a59e64ca"},"vehicle_type_id":"4","last_reported":1746004263,"current_range_meters":18000,"station_id":"ce4bgt12rcd13ifvqcd0","pricing_plan_id":"cebpf4jnsgd1na2vs0mg"},{"bike_id":"b5c68a5c-e7ab-431f-928e-95fcc43be5c3","system_id":"levelo_inurba_marseille","lat":43.240829,"lon":5.377502,"is_reserved":false,"is_disabled":false,"rental_uris":{"android":"levelo://app?vid=b5c68a5c-e7ab-431f-928e-95fcc43be5c3","ios":"levelo://app?vid=b5c68a5c-e7ab-431f-928e-95fcc43be5c3"},"vehicle_type_id":"4","last_reported":1746004263,"current_range_meters":18000,"station_id":"ce4bhnp2rcd13ifvqgvg","pricing_plan_id":"cebpf4jnsgd1na2vs0mg"},{"bike_id":"6f22906b-94c9-4d7b-9ebc-9fe65ec0611d","system_id":"levelo_inurba_marseille","lat":43.321125,"lon":5.367818,"is_reserved":false,"is_disabled":false,"rental_uris":{"android":"levelo://app?vid=6f22906b-94c9-4d7b-9ebc-9fe65ec0611d","ios":"levelo://app?vid=6f22906b-94c9-4d7b-9ebc-9fe65ec0611d"},"vehicle_type_id":"4","last_reported":1746004263,"current_range_meters":18800,"station_id":"ce4bhrh2rcd13ifvqhug","pricing_plan_id":"cebpf4jnsgd1na2vs0mg"},{"bike_id":"c34532d5-141d-48e8-9d8b-58b77076c366","system_id":"levelo_inurba_marseille","lat":43.292746,"lon":5.368394,"is_reserved":false,"is_disabled":true,"rental_uris":{"android":"levelo://app?vid=c34532d5-141d-48e8-9d8b-58b77076c366","ios":"levelo://app?vid=c34532d5-141d-48e8-9d8b-58b77076c366"},"vehicle_type_id":"4","last_reported":1746004263,"current_range_meters":18800,"station_id":"ce4bhbp2rcd13ifvqesg","pricing_plan_id":"cebpf4jnsgd1na2vs0mg"},{"bike_id":"351a10a2-c0d7-448b-acc4-bc96e28dd10d","system_id":"levelo_inurba_marseille","lat":43.30926,"lon":5.36845,"is_reserved":false,"is_disabled":false,"rental_uris":{"android":"levelo://app?vid=351a10a2-c0d7-448b-acc4-bc96e28dd10d","ios":"levelo://app?vid=351a10a2-c0d7-448b-acc4-bc96e28dd10d"},"vehicle_type_id":"4","last_reported":1746004263,"current_range_meters":18800,"station_id":"ce4bgn92rcd13ifvqbvg","pricing_plan_id":"cebpf4jnsgd1na2vs0mg"},{"bike_id":"6d073f79-559a-4cfb-a73f-86f1c3851a40","system_id":"levelo_inurba_marseille","lat":43.29056,"lon":5.39954,"is_reserved":false,"is_disabled":false,"rental_uris":{"android":"levelo://app?vid=6d073f79-559a-4cfb-a73f-86f1c3851a40","ios":"levelo://app?vid=6d073f79-559a-4cfb-a73f-86f1c3851a40"},"vehicle_type_id":"4","last_reported":1746004263,"current_range_meters":18800,"station_id":"ce4bh392rcd13ifvqdm0","pricing_plan_id":"cebpf4jnsgd1na2vs0mg"},{"bike_id":"f1bcc6e0-1c02-4b8e-9506-1ab13568642d","system_id":"levelo_inurba_marseille","lat":43.28613,"lon":5.370662,"is_reserved":false,"is_disabled":false,"rental_uris":{"android":"levelo://app?vid=f1bcc6e0-1c02-4b8e-9506-1ab13568642d","ios":"levelo://app?vid=f1bcc6e0-1c02-4b8e-9506-1ab13568642d"},"vehicle_type_id":"4","last_reported":1746004263,"current_range_meters":18800,"station_id":"ce4bht12rcd13ifvqi60","pricing_plan_id":"cebpf4jnsgd1na2vs0mg"},{"bike_id":"3ed5c2c4-e9d1-406a-8758-470ad1a743a6","system_id":"levelo_inurba_marseille","lat":43.309075,"lon":5.36851,"is_reserved":false,"is_disabled":false,"rental_uris":{"android":"levelo://app?vid=3ed5c2c4-e9d1-406a-8758-470ad1a743a6","ios":"levelo://app?vid=3ed5c2c4-e9d1-406a-8758-470ad1a743a6"},"vehicle_type_id":"4","last_reported":1746004263,"current_range_meters":18800,"station_id":"ce4bgn92rcd13ifvqbvg","pricing_plan_id":"cebpf4jnsgd1na2vs0mg"},{"bike_id":"bdf4fb20-568b-4392-bff0-0c01a9a3d528","system_id":"levelo_inurba_marseille","lat":43.241807,"lon":5.397288,"is_reserved":false,"is_disabled":false,"rental_uris":{"android":"levelo://app?vid=bdf4fb20-568b-4392-bff0-0c01a9a3d528","ios":"levelo://app?vid=bdf4fb20-568b-4392-bff0-0c01a9a3d528"},"vehicle_type_id":"4","last_reported":1746004263,"current_range_meters":18800,"station_id":"ce4bhn12rcd13ifvqgpg","pricing_plan_id":"cebpf4jnsgd1na2vs0mg"},{"bike_id":"97ee1213-8d07-46ba-9f2c-5608f9e3abef","system_id":"levelo_inurba_marseille","lat":43.284821,"lon":5.384307,"is_reserved":false,"is_disabled":false,"rental_uris":{"android":"levelo://app?vid=97ee1213-8d07-46ba-9f2c-5608f9e3abef","ios":"levelo://app?vid=97ee1213-8d07-46ba-9f2c-5608f9e3abef"},"vehicle_type_id":"4","last_reported":1746004263,"current_range_meters":18800,"station_id":"ce4bh512rcd13ifvqe3g","pricing_plan_id":"cebpf4jnsgd1na2vs0mg"},{"bike_id":"88b0e47a-d43f-44bb-bd7e-80d8fc6d69de","system_id":"levelo_inurba_marseille","lat":43.28127,"lon":5.40153,"is_reserved":false,"is_disabled":false,"rental_uris":{"android":"levelo://app?vid=88b0e47a-d43f-44bb-bd7e-80d8fc6d69de","ios":"levelo://app?vid=88b0e47a-d43f-44bb-bd7e-80d8fc6d69de"},"vehicle_type_id":"4","last_reported":1746004263,"current_range_meters":19200,"station_id":"","pricing_plan_id":"cebpf4jnsgd1na2vs0mg"},{"bike_id":"bf9dcd53-f450-40fe-8296-3b96d009f0c9","system_id":"levelo_inurba_marseille","lat":43.28404,"lon":5.349834,"is_reserved":false,"is_disabled":false,"rental_uris":{"android":"levelo://app?vid=bf9dcd53-f450-40fe-8296-3b96d009f0c9","ios":"levelo://app?vid=bf9dcd53-f450-40fe-8296-3b96d009f0c9"},"vehicle_type_id":"4","last_reported":1746004263,"current_range_meters":19200,"station_id":"","pricing_plan_id":"cebpf4jnsgd1na2vs0mg"},{"bike_id":"f4b73246-afac-4a27-884b-4e385d8fcdf4","system_id":"levelo_inurba_marseille","lat":43.25908,"lon":5.40892,"is_reserved":false,"is_disabled":false,"rental_uris":{"android":"levelo://app?vid=f4b73246-afac-4a27-884b-4e385d8fcdf4","ios":"levelo://app?vid=f4b73246-afac-4a27-884b-4e385d8fcdf4"},"vehicle_type_id":"4","last_reported":1746004263,"current_range_meters":19200,"station_id":"ce4bhm92rcd13ifvqglg","pricing_plan_id":"cebpf4jnsgd1na2vs0mg"},{"bike_id":"b526bd8f-c13d-445f-8e41-65de912470de","system_id":"levelo_inurba_marseille","lat":43.33724,"lon":5.39189,"is_reserved":false,"is_disabled":false,"rental_uris":{"android":"levelo://app?vid=b526bd8f-c13d-445f-8e41-65de912470de","ios":"levelo://app?vid=b526bd8f-c13d-445f-8e41-65de912470de"},"vehicle_type_id":"4","last_reported":1746004263,"current_range_meters":19200,"station_id":"ce4bhr92rcd13ifvqhsg","pricing_plan_id":"cebpf4jnsgd1na2vs0mg"},{"bike_id":"09943afe-8ee1-471b-bad3-9e20f5f78015","system_id":"levelo_inurba_marseille","lat":43.28427,"lon":5.39186,"is_reserved":false,"is_disabled":false,"rental_uris":{"android":"levelo://app?vid=09943afe-8ee1-471b-bad3-9e20f5f78015","ios":"levelo://app?vid=09943afe-8ee1-471b-bad3-9e20f5f78015"},"vehicle_type_id":"4","last_reported":1746004263,"current_range_meters":19200,"station_id":"ce4bhoh2rcd13ifvqh5g","pricing_plan_id":"cebpf4jnsgd1na2vs0mg"},{"bike_id":"5c92d00e-4b86-463c-9a69-a1915d31119a","system_id":"levelo_inurba_marseille","lat":43.25832,"lon":5.39424,"is_reserved":false,"is_disabled":false,"rental_uris":{"android":"levelo://app?vid=5c92d00e-4b86-463c-9a69-a1915d31119a","ios":"levelo://app?vid=5c92d00e-4b86-463c-9a69-a1915d31119a"},"vehicle_type_id":"4","last_reported":1746004263,"current_range_meters":19200,"station_id":"ce4bhip2rcd13ifvqft0","pricing_plan_id":"cebpf4jnsgd1na2vs0mg"},{"bike_id":"261a9f79-b5ac-4406-a51c-dbe567ce503b","system_id":"levelo_inurba_marseille","lat":43.28611,"lon":5.35117,"is_reserved":false,"is_disabled":false,"rental_uris":{"android":"levelo://app?vid=261a9f79-b5ac-4406-a51c-dbe567ce503b","ios":"levelo://app?vid=261a9f79-b5ac-4406-a51c-dbe567ce503b"},"vehicle_type_id":"4","last_reported":1746004263,"current_range_meters":19200,"station_id":"ce4bhch2rcd13ifvqeug","pricing_plan_id":"cebpf4jnsgd1na2vs0mg"},{"bike_id":"9e27a7de-37f7-4020-8f3b-4d331b7e11c5","system_id":"levelo_inurba_marseille","lat":43.265678,"lon":5.390078,"is_reserved":false,"is_disabled":false,"rental_uris":{"android":"levelo://app?vid=9e27a7de-37f7-4020-8f3b-4d331b7e11c5","ios":"levelo://app?vid=9e27a7de-37f7-4020-8f3b-4d331b7e11c5"},"vehicle_type_id":"4","last_reported":1746004263,"current_range_meters":19200,"station_id":"ce4bhe12rcd13ifvqf30","pricing_plan_id":"cebpf4jnsgd1na2vs0mg"},{"bike_id":"ab41bc0a-1c6d-4e7a-8b62-c1512c389884","system_id":"levelo_inurba_marseille","lat":43.24173,"lon":5.39717,"is_reserved":false,"is_disabled":false,"rental_uris":{"android":"levelo://app?vid=ab41bc0a-1c6d-4e7a-8b62-c1512c389884","ios":"levelo://app?vid=ab41bc0a-1c6d-4e7a-8b62-c1512c389884"},"vehicle_type_id":"4","last_reported":1746004263,"current_range_meters":19600,"station_id":"ce4bhn12rcd13ifvqgpg","pricing_plan_id":"cebpf4jnsgd1na2vs0mg"},{"bike_id":"4695d87c-734f-4d26-8c3a-78b25c83c05a","system_id":"levelo_inurba_marseille","lat":43.279981,"lon":5.400039,"is_reserved":false,"is_disabled":false,"rental_uris":{"android":"levelo://app?vid=4695d87c-734f-4d26-8c3a-78b25c83c05a","ios":"levelo://app?vid=4695d87c-734f-4d26-8c3a-78b25c83c05a"},"vehicle_type_id":"4","last_reported":1746004263,"current_range_meters":19600,"station_id":"ce4bho92rcd13ifvqh4g","pricing_plan_id":"cebpf4jnsgd1na2vs0mg"},{"bike_id":"b58385b2-d1b2-4ecc-af75-eb7cf4772905","system_id":"levelo_inurba_marseille","lat":43.23062,"lon":5.35493,"is_reserved":false,"is_disabled":false,"rental_uris":{"android":"levelo://app?vid=b58385b2-d1b2-4ecc-af75-eb7cf4772905","ios":"levelo://app?vid=b58385b2-d1b2-4ecc-af75-eb7cf4772905"},"vehicle_type_id":"4","last_reported":1746004263,"current_range_meters":19600,"station_id":"cpo3342slgdg3j2ifvpg","pricing_plan_id":"cebpf4jnsgd1na2vs0mg"},{"bike_id":"2596e8b8-10f5-4bf8-8c9f-e80733e6ee5d","system_id":"levelo_inurba_marseille","lat":43.26684,"lon":5.38264,"is_reserved":false,"is_disabled":false,"rental_uris":{"android":"levelo://app?vid=2596e8b8-10f5-4bf8-8c9f-e80733e6ee5d","ios":"levelo://app?vid=2596e8b8-10f5-4bf8-8c9f-e80733e6ee5d"},"vehicle_type_id":"4","last_reported":1746004263,"current_range_meters":19600,"station_id":"ce4bhg92rcd13ifvqf90","pricing_plan_id":"cebpf4jnsgd1na2vs0mg"},{"bike_id":"0a5b25fa-2a04-452e-981a-fe8129fc3ad5","system_id":"levelo_inurba_marseille","lat":43.25009,"lon":5.38924,"is_reserved":false,"is_disabled":false,"rental_uris":{"android":"levelo://app?vid=0a5b25fa-2a04-452e-981a-fe8129fc3ad5","ios":"levelo://app?vid=0a5b25fa-2a04-452e-981a-fe8129fc3ad5"},"vehicle_type_id":"4","last_reported":1746004263,"current_range_meters":19600,"station_id":"ce4bhgp2rcd13ifvqfd0","pricing_plan_id":"cebpf4jnsgd1na2vs0mg"},{"bike_id":"8e70f57d-1172-4bcd-8cab-de2e974482b3","system_id":"levelo_inurba_marseille","lat":43.26952,"lon":5.3863,"is_reserved":false,"is_disabled":false,"rental_uris":{"android":"levelo://app?vid=8e70f57d-1172-4bcd-8cab-de2e974482b3","ios":"levelo://app?vid=8e70f57d-1172-4bcd-8cab-de2e974482b3"},"vehicle_type_id":"4","last_reported":1746004263,"current_range_meters":19600,"station_id":"ce4bhh92rcd13ifvqfh0","pricing_plan_id":"cebpf4jnsgd1na2vs0mg"},{"bike_id":"a5013037-55ac-41d5-b9e4-24917180945c","system_id":"levelo_inurba_marseille","lat":43.33607,"lon":5.41019,"is_reserved":false,"is_disabled":false,"rental_uris":{"android":"levelo://app?vid=a5013037-55ac-41d5-b9e4-24917180945c","ios":"levelo://app?vid=a5013037-55ac-41d5-b9e4-24917180945c"},"vehicle_type_id":"4","last_reported":1746004263,"current_range_meters":19600,"station_id":"ce4bhqh2rcd13ifvqhmg","pricing_plan_id":"cebpf4jnsgd1na2vs0mg"},{"bike_id":"dd761f0b-a343-4069-8ed4-8566f51a6c87","system_id":"levelo_inurba_marseille","lat":43.267792,"lon":5.383597,"is_reserved":false,"is_disabled":true,"rental_uris":{"android":"levelo://app?vid=dd761f0b-a343-4069-8ed4-8566f51a6c87","ios":"levelo://app?vid=dd761f0b-a343-4069-8ed4-8566f51a6c87"},"vehicle_type_id":"4","last_reported":1746004263,"current_range_meters":20000,"station_id":"","pricing_plan_id":"cebpf4jnsgd1na2vs0mg"},{"bike_id":"d9d529a7-5cf2-4682-a112-53c98bc740dd","system_id":"levelo_inurba_marseille","lat":43.29007,"lon":5.35607,"is_reserved":false,"is_disabled":false,"rental_uris":{"android":"levelo://app?vid=d9d529a7-5cf2-4682-a112-53c98bc740dd","ios":"levelo://app?vid=d9d529a7-5cf2-4682-a112-53c98bc740dd"},"vehicle_type_id":"4","last_reported":1746004263,"current_range_meters":20000,"station_id":"ce4bhb92rcd13ifvqen0","pricing_plan_id":"cebpf4jnsgd1na2vs0mg"},{"bike_id":"ba2b9252-d0a1-4cf1-b108-a425ddcba0fb","system_id":"levelo_inurba_marseille","lat":43.293,"lon":5.37458,"is_reserved":false,"is_disabled":false,"rental_uris":{"android":"levelo://app?vid=ba2b9252-d0a1-4cf1-b108-a425ddcba0fb","ios":"levelo://app?vid=ba2b9252-d0a1-4cf1-b108-a425ddcba0fb"},"vehicle_type_id":"4","last_reported":1746004263,"current_range_meters":20000,"station_id":"ce4bgi12rcd13ifvqb70","pricing_plan_id":"cebpf4jnsgd1na2vs0mg"},{"bike_id":"0376bf11-dc5f-49a2-b7ac-7968170461cd","system_id":"levelo_inurba_marseille","lat":43.29571,"lon":5.37524,"is_reserved":false,"is_disabled":false,"rental_uris":{"android":"levelo://app?vid=0376bf11-dc5f-49a2-b7ac-7968170461cd","ios":"levelo://app?vid=0376bf11-dc5f-49a2-b7ac-7968170461cd"},"vehicle_type_id":"4","last_reported":1746004263,"current_range_meters":20000,"station_id":"ce4bgh92rcd13ifvqb50","pricing_plan_id":"cebpf4jnsgd1na2vs0mg"},{"bike_id":"fb8f5ab3-6254-4648-8532-b536beecb0cc","system_id":"levelo_inurba_marseille","lat":43.3091,"lon":5.36849,"is_reserved":false,"is_disabled":false,"rental_uris":{"android":"levelo://app?vid=fb8f5ab3-6254-4648-8532-b536beecb0cc","ios":"levelo://app?vid=fb8f5ab3-6254-4648-8532-b536beecb0cc"},"vehicle_type_id":"4","last_reported":1746004263,"current_range_meters":20000,"station_id":"ce4bgn92rcd13ifvqbvg","pricing_plan_id":"cebpf4jnsgd1na2vs0mg"},{"bike_id":"794abad0-0367-49fa-87dc-e7d488598495","system_id":"levelo_inurba_marseille","lat":43.282747,"lon":5.350645,"is_reserved":false,"is_disabled":false,"rental_uris":{"android":"levelo://app?vid=794abad0-0367-49fa-87dc-e7d488598495","ios":"levelo://app?vid=794abad0-0367-49fa-87dc-e7d488598495"},"vehicle_type_id":"4","last_reported":1746004263,"current_range_meters":20400,"station_id":"ce4bhbp2rcd13ifvqerg","pricing_plan_id":"cebpf4jnsgd1na2vs0mg"},{"bike_id":"2d90d92c-e010-4034-9c8a-92ec848e2a6f","system_id":"levelo_inurba_marseille","lat":43.30316,"lon":5.36909,"is_reserved":false,"is_disabled":false,"rental_uris":{"android":"levelo://app?vid=2d90d92c-e010-4034-9c8a-92ec848e2a6f","ios":"levelo://app?vid=2d90d92c-e010-4034-9c8a-92ec848e2a6f"},"vehicle_type_id":"4","last_reported":1746004263,"current_range_meters":20400,"station_id":"ce4bgqh2rcd13ifvqc5g","pricing_plan_id":"cebpf4jnsgd1na2vs0mg"},{"bike_id":"3a1c6b65-5f0e-4cf0-b640-52fefa98b0b8","system_id":"levelo_inurba_marseille","lat":43.320335,"lon":5.415873,"is_reserved":false,"is_disabled":false,"rental_uris":{"android":"levelo://app?vid=3a1c6b65-5f0e-4cf0-b640-52fefa98b0b8","ios":"levelo://app?vid=3a1c6b65-5f0e-4cf0-b640-52fefa98b0b8"},"vehicle_type_id":"4","last_reported":1746004263,"current_range_meters":20400,"station_id":"ce4bhq92rcd13ifvqhkg","pricing_plan_id":"cebpf4jnsgd1na2vs0mg"},{"bike_id":"dfda6650-cbd0-452d-aba0-b39189b1cc52","system_id":"levelo_inurba_marseille","lat":43.25954,"lon":5.4088,"is_reserved":false,"is_disabled":false,"rental_uris":{"android":"levelo://app?vid=dfda6650-cbd0-452d-aba0-b39189b1cc52","ios":"levelo://app?vid=dfda6650-cbd0-452d-aba0-b39189b1cc52"},"vehicle_type_id":"4","last_reported":1746004263,"current_range_meters":20800,"station_id":"ce4bhm92rcd13ifvqglg","pricing_plan_id":"cebpf4jnsgd1na2vs0mg"},{"bike_id":"d23d8afc-df83-4959-9d3d-3baa06efe4d3","system_id":"levelo_inurba_marseille","lat":43.27917,"lon":5.39583,"is_reserved":false,"is_disabled":false,"rental_uris":{"android":"levelo://app?vid=d23d8afc-df83-4959-9d3d-3baa06efe4d3","ios":"levelo://app?vid=d23d8afc-df83-4959-9d3d-3baa06efe4d3"},"vehicle_type_id":"4","last_reported":1746004263,"current_range_meters":20800,"station_id":"ce4bhf92rcd13ifvqf40","pricing_plan_id":"cebpf4jnsgd1na2vs0mg"},{"bike_id":"edfb180e-9e35-48cc-9d45-c51f2c8f40ab","system_id":"levelo_inurba_marseille","lat":43.28444,"lon":5.39206,"is_reserved":false,"is_disabled":false,"rental_uris":{"android":"levelo://app?vid=edfb180e-9e35-48cc-9d45-c51f2c8f40ab","ios":"levelo://app?vid=edfb180e-9e35-48cc-9d45-c51f2c8f40ab"},"vehicle_type_id":"4","last_reported":1746004263,"current_range_meters":20800,"station_id":"ce4bhoh2rcd13ifvqh5g","pricing_plan_id":"cebpf4jnsgd1na2vs0mg"},{"bike_id":"a0eca6c4-5486-464c-88ea-4a7392058d44","system_id":"levelo_inurba_marseille","lat":43.296204,"lon":5.377445,"is_reserved":false,"is_disabled":false,"rental_uris":{"android":"levelo://app?vid=a0eca6c4-5486-464c-88ea-4a7392058d44","ios":"levelo://app?vid=a0eca6c4-5486-464c-88ea-4a7392058d44"},"vehicle_type_id":"4","last_reported":1746004263,"current_range_meters":20800,"station_id":"","pricing_plan_id":"cebpf4jnsgd1na2vs0mg"},{"bike_id":"da8e6ae4-4b20-4a00-9a79-b7e563646c63","system_id":"levelo_inurba_marseille","lat":43.28484,"lon":5.38416,"is_reserved":false,"is_disabled":false,"rental_uris":{"android":"levelo://app?vid=da8e6ae4-4b20-4a00-9a79-b7e563646c63","ios":"levelo://app?vid=da8e6ae4-4b20-4a00-9a79-b7e563646c63"},"vehicle_type_id":"4","last_reported":1746004263,"current_range_meters":20800,"station_id":"ce4bh512rcd13ifvqe3g","pricing_plan_id":"cebpf4jnsgd1na2vs0mg"},{"bike_id":"d5046189-0fb2-40d3-9ca2-25c5936499aa","system_id":"levelo_inurba_marseille","lat":43.28258,"lon":5.3506,"is_reserved":false,"is_disabled":false,"rental_uris":{"android":"levelo://app?vid=d5046189-0fb2-40d3-9ca2-25c5936499aa","ios":"levelo://app?vid=d5046189-0fb2-40d3-9ca2-25c5936499aa"},"vehicle_type_id":"4","last_reported":1746004263,"current_range_meters":20800,"station_id":"","pricing_plan_id":"cebpf4jnsgd1na2vs0mg"},{"bike_id":"cdf9bcc9-a244-4871-a477-69add6fe7201","system_id":"levelo_inurba_marseille","lat":43.28486,"lon":5.38508,"is_reserved":false,"is_disabled":false,"rental_uris":{"android":"levelo://app?vid=cdf9bcc9-a244-4871-a477-69add6fe7201","ios":"levelo://app?vid=cdf9bcc9-a244-4871-a477-69add6fe7201"},"vehicle_type_id":"4","last_reported":1746004263,"current_range_meters":20400,"station_id":"ce4bh8p2rcd13ifvqeb0","pricing_plan_id":"cebpf4jnsgd1na2vs0mg"},{"bike_id":"365be852-3232-44de-b255-15d0e148c505","system_id":"levelo_inurba_marseille","lat":43.336,"lon":5.41015,"is_reserved":false,"is_disabled":false,"rental_uris":{"android":"levelo://app?vid=365be852-3232-44de-b255-15d0e148c505","ios":"levelo://app?vid=365be852-3232-44de-b255-15d0e148c505"},"vehicle_type_id":"4","last_reported":1746004263,"current_range_meters":21600,"station_id":"ce4bhqh2rcd13ifvqhmg","pricing_plan_id":"cebpf4jnsgd1na2vs0mg"},{"bike_id":"99b435ac-16e7-4622-bc42-a7510a01a6f2","system_id":"levelo_inurba_marseille","lat":43.29841,"lon":5.36265,"is_reserved":false,"is_disabled":false,"rental_uris":{"android":"levelo://app?vid=99b435ac-16e7-4622-bc42-a7510a01a6f2","ios":"levelo://app?vid=99b435ac-16e7-4622-bc42-a7510a01a6f2"},"vehicle_type_id":"4","last_reported":1746004263,"current_range_meters":21600,"station_id":"ce4bgpp2rcd13ifvqc3g","pricing_plan_id":"cebpf4jnsgd1na2vs0mg"},{"bike_id":"8bb45098-97f9-4f9b-846c-df90b2dfca46","system_id":"levelo_inurba_marseille","lat":43.31385,"lon":5.36716,"is_reserved":false,"is_disabled":false,"rental_uris":{"android":"levelo://app?vid=8bb45098-97f9-4f9b-846c-df90b2dfca46","ios":"levelo://app?vid=8bb45098-97f9-4f9b-846c-df90b2dfca46"},"vehicle_type_id":"4","last_reported":1746004263,"current_range_meters":21600,"station_id":"","pricing_plan_id":"cebpf4jnsgd1na2vs0mg"},{"bike_id":"295235bf-2041-4942-b482-dbb235c877c4","system_id":"levelo_inurba_marseille","lat":43.24075,"lon":5.37754,"is_reserved":false,"is_disabled":false,"rental_uris":{"android":"levelo://app?vid=295235bf-2041-4942-b482-dbb235c877c4","ios":"levelo://app?vid=295235bf-2041-4942-b482-dbb235c877c4"},"vehicle_type_id":"4","last_reported":1746004263,"current_range_meters":21600,"station_id":"ce4bhnp2rcd13ifvqgvg","pricing_plan_id":"cebpf4jnsgd1na2vs0mg"},{"bike_id":"f4f3d45c-ca6b-4daa-9e02-299e4301416d","system_id":"levelo_inurba_marseille","lat":43.31346,"lon":5.3672,"is_reserved":false,"is_disabled":false,"rental_uris":{"android":"levelo://app?vid=f4f3d45c-ca6b-4daa-9e02-299e4301416d","ios":"levelo://app?vid=f4f3d45c-ca6b-4daa-9e02-299e4301416d"},"vehicle_type_id":"4","last_reported":1746004263,"current_range_meters":21600,"station_id":"ce4bgr92rcd13ifvqc6g","pricing_plan_id":"cebpf4jnsgd1na2vs0mg"},{"bike_id":"1eb92b92-c4c3-4ffd-b074-ae482aa50788","system_id":"levelo_inurba_marseille","lat":43.29774,"lon":5.37122,"is_reserved":false,"is_disabled":false,"rental_uris":{"android":"levelo://app?vid=1eb92b92-c4c3-4ffd-b074-ae482aa50788","ios":"levelo://app?vid=1eb92b92-c4c3-4ffd-b074-ae482aa50788"},"vehicle_type_id":"4","last_reported":1746004263,"current_range_meters":21600,"station_id":"ce4bgop2rcd13ifvqc1g","pricing_plan_id":"cebpf4jnsgd1na2vs0mg"},{"bike_id":"13a94742-78d4-423f-bed1-492c5e76d8fa","system_id":"levelo_inurba_marseille","lat":43.306,"lon":5.37225,"is_reserved":false,"is_disabled":false,"rental_uris":{"android":"levelo://app?vid=13a94742-78d4-423f-bed1-492c5e76d8fa","ios":"levelo://app?vid=13a94742-78d4-423f-bed1-492c5e76d8fa"},"vehicle_type_id":"4","last_reported":1746004263,"current_range_meters":22000,"station_id":"ce4bgqh2rcd13ifvqc4g","pricing_plan_id":"cebpf4jnsgd1na2vs0mg"},{"bike_id":"78bd6b36-168d-41d2-bcce-932b973e2e8d","system_id":"levelo_inurba_marseille","lat":43.281247,"lon":5.37818,"is_reserved":false,"is_disabled":false,"rental_uris":{"android":"levelo://app?vid=78bd6b36-168d-41d2-bcce-932b973e2e8d","ios":"levelo://app?vid=78bd6b36-168d-41d2-bcce-932b973e2e8d"},"vehicle_type_id":"4","last_reported":1746004263,"current_range_meters":22000,"station_id":"ce4bha12rcd13ifvqee0","pricing_plan_id":"cebpf4jnsgd1na2vs0mg"},{"bike_id":"cdcb50a2-3beb-4586-94ea-c6962ac3cbe5","system_id":"levelo_inurba_marseille","lat":43.24176,"lon":5.39697,"is_reserved":false,"is_disabled":false,"rental_uris":{"android":"levelo://app?vid=cdcb50a2-3beb-4586-94ea-c6962ac3cbe5","ios":"levelo://app?vid=cdcb50a2-3beb-4586-94ea-c6962ac3cbe5"},"vehicle_type_id":"4","last_reported":1746004263,"current_range_meters":22000,"station_id":"ce4bhn12rcd13ifvqgpg","pricing_plan_id":"cebpf4jnsgd1na2vs0mg"},{"bike_id":"b633155e-2953-42e5-b011-c045b5c7d289","system_id":"levelo_inurba_marseille","lat":43.27812,"lon":5.40699,"is_reserved":false,"is_disabled":false,"rental_uris":{"android":"levelo://app?vid=b633155e-2953-42e5-b011-c045b5c7d289","ios":"levelo://app?vid=b633155e-2953-42e5-b011-c045b5c7d289"},"vehicle_type_id":"4","last_reported":1746004263,"current_range_meters":22000,"station_id":"ce4bhnh2rcd13ifvqgtg","pricing_plan_id":"cebpf4jnsgd1na2vs0mg"},{"bike_id":"7e3fa23a-82e1-4380-a6a6-76598f97094c","system_id":"levelo_inurba_marseille","lat":43.321117,"lon":5.36766,"is_reserved":false,"is_disabled":false,"rental_uris":{"android":"levelo://app?vid=7e3fa23a-82e1-4380-a6a6-76598f97094c","ios":"levelo://app?vid=7e3fa23a-82e1-4380-a6a6-76598f97094c"},"vehicle_type_id":"4","last_reported":1746004263,"current_range_meters":22000,"station_id":"ce4bhrh2rcd13ifvqhug","pricing_plan_id":"cebpf4jnsgd1na2vs0mg"},{"bike_id":"48fe0a61-16d8-4c4d-8014-6583682528ed","system_id":"levelo_inurba_marseille","lat":43.21753,"lon":5.34606,"is_reserved":false,"is_disabled":true,"rental_uris":{"android":"levelo://app?vid=48fe0a61-16d8-4c4d-8014-6583682528ed","ios":"levelo://app?vid=48fe0a61-16d8-4c4d-8014-6583682528ed"},"vehicle_type_id":"4","last_reported":1746004263,"current_range_meters":22000,"station_id":"","pricing_plan_id":"cebpf4jnsgd1na2vs0mg"},{"bike_id":"5b8df32b-6bd3-46c5-92f6-95932c59353e","system_id":"levelo_inurba_marseille","lat":43.32547,"lon":5.41441,"is_reserved":false,"is_disabled":false,"rental_uris":{"android":"levelo://app?vid=5b8df32b-6bd3-46c5-92f6-95932c59353e","ios":"levelo://app?vid=5b8df32b-6bd3-46c5-92f6-95932c59353e"},"vehicle_type_id":"4","last_reported":1746004263,"current_range_meters":22400,"station_id":"ce4bhq12rcd13ifvqhhg","pricing_plan_id":"cebpf4jnsgd1na2vs0mg"},{"bike_id":"cde443bb-9a98-4dfc-a82f-cbb08d6f149e","system_id":"levelo_inurba_marseille","lat":43.24181,"lon":5.396979,"is_reserved":false,"is_disabled":false,"rental_uris":{"android":"levelo://app?vid=cde443bb-9a98-4dfc-a82f-cbb08d6f149e","ios":"levelo://app?vid=cde443bb-9a98-4dfc-a82f-cbb08d6f149e"},"vehicle_type_id":"4","last_reported":1746004263,"current_range_meters":22400,"station_id":"ce4bhn12rcd13ifvqgpg","pricing_plan_id":"cebpf4jnsgd1na2vs0mg"},{"bike_id":"791609e2-862a-4cb4-ba69-cae19c61f27c","system_id":"levelo_inurba_marseille","lat":43.25501,"lon":5.3765,"is_reserved":false,"is_disabled":false,"rental_uris":{"android":"levelo://app?vid=791609e2-862a-4cb4-ba69-cae19c61f27c","ios":"levelo://app?vid=791609e2-862a-4cb4-ba69-cae19c61f27c"},"vehicle_type_id":"4","last_reported":1746004263,"current_range_meters":22000,"station_id":"ce4bhh12rcd13ifvqff0","pricing_plan_id":"cebpf4jnsgd1na2vs0mg"},{"bike_id":"9a6d1a0d-0520-4c44-b0a9-74ddbe754418","system_id":"levelo_inurba_marseille","lat":43.25769,"lon":5.41019,"is_reserved":false,"is_disabled":false,"rental_uris":{"android":"levelo://app?vid=9a6d1a0d-0520-4c44-b0a9-74ddbe754418","ios":"levelo://app?vid=9a6d1a0d-0520-4c44-b0a9-74ddbe754418"},"vehicle_type_id":"4","last_reported":1746004263,"current_range_meters":22800,"station_id":"","pricing_plan_id":"cebpf4jnsgd1na2vs0mg"},{"bike_id":"06a8f51c-b305-4c74-b3e3-3b426a37ccee","system_id":"levelo_inurba_marseille","lat":43.29541,"lon":5.39611,"is_reserved":false,"is_disabled":false,"rental_uris":{"android":"levelo://app?vid=06a8f51c-b305-4c74-b3e3-3b426a37ccee","ios":"levelo://app?vid=06a8f51c-b305-4c74-b3e3-3b426a37ccee"},"vehicle_type_id":"4","last_reported":1746004263,"current_range_meters":22800,"station_id":"","pricing_plan_id":"cebpf4jnsgd1na2vs0mg"},{"bike_id":"ecc062f0-fcd4-4345-a658-47c0b0418ce9","system_id":"levelo_inurba_marseille","lat":43.26565,"lon":5.39018,"is_reserved":false,"is_disabled":false,"rental_uris":{"android":"levelo://app?vid=ecc062f0-fcd4-4345-a658-47c0b0418ce9","ios":"levelo://app?vid=ecc062f0-fcd4-4345-a658-47c0b0418ce9"},"vehicle_type_id":"4","last_reported":1746004263,"current_range_meters":22800,"station_id":"ce4bhe12rcd13ifvqf30","pricing_plan_id":"cebpf4jnsgd1na2vs0mg"},{"bike_id":"da305d8a-bfff-46c1-8634-bf3f8bfaf5f4","system_id":"levelo_inurba_marseille","lat":43.24181,"lon":5.39724,"is_reserved":false,"is_disabled":false,"rental_uris":{"android":"levelo://app?vid=da305d8a-bfff-46c1-8634-bf3f8bfaf5f4","ios":"levelo://app?vid=da305d8a-bfff-46c1-8634-bf3f8bfaf5f4"},"vehicle_type_id":"4","last_reported":1746004263,"current_range_meters":22800,"station_id":"ce4bhn12rcd13ifvqgpg","pricing_plan_id":"cebpf4jnsgd1na2vs0mg"},{"bike_id":"96049ee4-a089-48d6-955b-df4da5edd436","system_id":"levelo_inurba_marseille","lat":43.30554,"lon":5.36517,"is_reserved":false,"is_disabled":false,"rental_uris":{"android":"levelo://app?vid=96049ee4-a089-48d6-955b-df4da5edd436","ios":"levelo://app?vid=96049ee4-a089-48d6-955b-df4da5edd436"},"vehicle_type_id":"4","last_reported":1746004263,"current_range_meters":22400,"station_id":"ce4bgs12rcd13ifvqcag","pricing_plan_id":"cebpf4jnsgd1na2vs0mg"},{"bike_id":"d7ee6037-2b6c-4d9a-b419-67c436c25813","system_id":"levelo_inurba_marseille","lat":43.26802,"lon":5.40268,"is_reserved":false,"is_disabled":false,"rental_uris":{"android":"levelo://app?vid=d7ee6037-2b6c-4d9a-b419-67c436c25813","ios":"levelo://app?vid=d7ee6037-2b6c-4d9a-b419-67c436c25813"},"vehicle_type_id":"4","last_reported":1746004263,"current_range_meters":23200,"station_id":"ce501612rcd8frsf0b60","pricing_plan_id":"cebpf4jnsgd1na2vs0mg"},{"bike_id":"213c67aa-3d58-4db7-be65-06448c186e16","system_id":"levelo_inurba_marseille","lat":43.31389,"lon":5.36707,"is_reserved":false,"is_disabled":false,"rental_uris":{"android":"levelo://app?vid=213c67aa-3d58-4db7-be65-06448c186e16","ios":"levelo://app?vid=213c67aa-3d58-4db7-be65-06448c186e16"},"vehicle_type_id":"4","last_reported":1746004263,"current_range_meters":23200,"station_id":"ce4bgr92rcd13ifvqc6g","pricing_plan_id":"cebpf4jnsgd1na2vs0mg"},{"bike_id":"315b8c4c-104c-475b-8261-a24a557f0b52","system_id":"levelo_inurba_marseille","lat":43.31372,"lon":5.36693,"is_reserved":false,"is_disabled":false,"rental_uris":{"android":"levelo://app?vid=315b8c4c-104c-475b-8261-a24a557f0b52","ios":"levelo://app?vid=315b8c4c-104c-475b-8261-a24a557f0b52"},"vehicle_type_id":"4","last_reported":1746004263,"current_range_meters":23200,"station_id":"ce4bgr92rcd13ifvqc6g","pricing_plan_id":"cebpf4jnsgd1na2vs0mg"},{"bike_id":"eebe3d29-082a-4846-af93-100aa6fd91ba","system_id":"levelo_inurba_marseille","lat":43.28562,"lon":5.400595,"is_reserved":false,"is_disabled":false,"rental_uris":{"android":"levelo://app?vid=eebe3d29-082a-4846-af93-100aa6fd91ba","ios":"levelo://app?vid=eebe3d29-082a-4846-af93-100aa6fd91ba"},"vehicle_type_id":"4","last_reported":1746004263,"current_range_meters":23200,"station_id":"","pricing_plan_id":"cebpf4jnsgd1na2vs0mg"},{"bike_id":"b0dd0d55-1415-430d-9df1-6cf5645159ab","system_id":"levelo_inurba_marseille","lat":43.28445,"lon":5.39205,"is_reserved":false,"is_disabled":false,"rental_uris":{"android":"levelo://app?vid=b0dd0d55-1415-430d-9df1-6cf5645159ab","ios":"levelo://app?vid=b0dd0d55-1415-430d-9df1-6cf5645159ab"},"vehicle_type_id":"4","last_reported":1746004263,"current_range_meters":23200,"station_id":"ce4bhoh2rcd13ifvqh5g","pricing_plan_id":"cebpf4jnsgd1na2vs0mg"},{"bike_id":"0f9d8c77-b530-41ef-b7bf-e0cc3b40b91e","system_id":"levelo_inurba_marseille","lat":43.30929,"lon":5.36833,"is_reserved":false,"is_disabled":false,"rental_uris":{"android":"levelo://app?vid=0f9d8c77-b530-41ef-b7bf-e0cc3b40b91e","ios":"levelo://app?vid=0f9d8c77-b530-41ef-b7bf-e0cc3b40b91e"},"vehicle_type_id":"4","last_reported":1746004263,"current_range_meters":23200,"station_id":"ce4bgn92rcd13ifvqbvg","pricing_plan_id":"cebpf4jnsgd1na2vs0mg"},{"bike_id":"e2f878e6-2a07-46ad-9271-c0c2215faf97","system_id":"levelo_inurba_marseille","lat":43.26187,"lon":5.37444,"is_reserved":false,"is_disabled":false,"rental_uris":{"android":"levelo://app?vid=e2f878e6-2a07-46ad-9271-c0c2215faf97","ios":"levelo://app?vid=e2f878e6-2a07-46ad-9271-c0c2215faf97"},"vehicle_type_id":"4","last_reported":1746004263,"current_range_meters":24000,"station_id":"ce4bhgp2rcd13ifvqfc0","pricing_plan_id":"cebpf4jnsgd1na2vs0mg"},{"bike_id":"0c9ed2fc-fd06-4c36-a53b-988db87a737b","system_id":"levelo_inurba_marseille","lat":43.259,"lon":5.4087,"is_reserved":false,"is_disabled":false,"rental_uris":{"android":"levelo://app?vid=0c9ed2fc-fd06-4c36-a53b-988db87a737b","ios":"levelo://app?vid=0c9ed2fc-fd06-4c36-a53b-988db87a737b"},"vehicle_type_id":"4","last_reported":1746004263,"current_range_meters":24000,"station_id":"ce4bhm92rcd13ifvqglg","pricing_plan_id":"cebpf4jnsgd1na2vs0mg"},{"bike_id":"a3274034-ca46-4ccf-97d5-65f622edf2a0","system_id":"levelo_inurba_marseille","lat":43.300894,"lon":5.39081,"is_reserved":false,"is_disabled":false,"rental_uris":{"android":"levelo://app?vid=a3274034-ca46-4ccf-97d5-65f622edf2a0","ios":"levelo://app?vid=a3274034-ca46-4ccf-97d5-65f622edf2a0"},"vehicle_type_id":"4","last_reported":1746004263,"current_range_meters":24000,"station_id":"ce4bh192rcd13ifvqdb0","pricing_plan_id":"cebpf4jnsgd1na2vs0mg"},{"bike_id":"8918510d-adef-4348-a657-b8d319950526","system_id":"levelo_inurba_marseille","lat":43.249917,"lon":5.389367,"is_reserved":false,"is_disabled":false,"rental_uris":{"android":"levelo://app?vid=8918510d-adef-4348-a657-b8d319950526","ios":"levelo://app?vid=8918510d-adef-4348-a657-b8d319950526"},"vehicle_type_id":"4","last_reported":1746004263,"current_range_meters":24000,"station_id":"ce4bhgp2rcd13ifvqfd0","pricing_plan_id":"cebpf4jnsgd1na2vs0mg"},{"bike_id":"37ab69d4-5e95-4b9c-9f84-4205a5334e64","system_id":"levelo_inurba_marseille","lat":43.26803,"lon":5.40269,"is_reserved":false,"is_disabled":false,"rental_uris":{"android":"levelo://app?vid=37ab69d4-5e95-4b9c-9f84-4205a5334e64","ios":"levelo://app?vid=37ab69d4-5e95-4b9c-9f84-4205a5334e64"},"vehicle_type_id":"4","last_reported":1746004263,"current_range_meters":24000,"station_id":"ce501612rcd8frsf0b60","pricing_plan_id":"cebpf4jnsgd1na2vs0mg"},{"bike_id":"0a78e439-cbea-420a-a233-48305342227e","system_id":"levelo_inurba_marseille","lat":43.2885,"lon":5.35847,"is_reserved":false,"is_disabled":false,"rental_uris":{"android":"levelo://app?vid=0a78e439-cbea-420a-a233-48305342227e","ios":"levelo://app?vid=0a78e439-cbea-420a-a233-48305342227e"},"vehicle_type_id":"4","last_reported":1746004263,"current_range_meters":24000,"station_id":"ce4bhb12rcd13ifvqem0","pricing_plan_id":"cebpf4jnsgd1na2vs0mg"},{"bike_id":"f1d6f623-dc7e-452d-93e8-bcb8756ed483","system_id":"levelo_inurba_marseille","lat":43.30559,"lon":5.36496,"is_reserved":false,"is_disabled":false,"rental_uris":{"android":"levelo://app?vid=f1d6f623-dc7e-452d-93e8-bcb8756ed483","ios":"levelo://app?vid=f1d6f623-dc7e-452d-93e8-bcb8756ed483"},"vehicle_type_id":"4","last_reported":1746004263,"current_range_meters":24000,"station_id":"","pricing_plan_id":"cebpf4jnsgd1na2vs0mg"},{"bike_id":"3aeb961f-88b6-47fd-986a-c7b2a855fefd","system_id":"levelo_inurba_marseille","lat":43.2308,"lon":5.35494,"is_reserved":false,"is_disabled":false,"rental_uris":{"android":"levelo://app?vid=3aeb961f-88b6-47fd-986a-c7b2a855fefd","ios":"levelo://app?vid=3aeb961f-88b6-47fd-986a-c7b2a855fefd"},"vehicle_type_id":"4","last_reported":1746004263,"current_range_meters":24000,"station_id":"cpo3342slgdg3j2ifvpg","pricing_plan_id":"cebpf4jnsgd1na2vs0mg"},{"bike_id":"c74f0052-11c9-4c94-b2d3-c9ec45230595","system_id":"levelo_inurba_marseille","lat":43.317067,"lon":5.377292,"is_reserved":false,"is_disabled":false,"rental_uris":{"android":"levelo://app?vid=c74f0052-11c9-4c94-b2d3-c9ec45230595","ios":"levelo://app?vid=c74f0052-11c9-4c94-b2d3-c9ec45230595"},"vehicle_type_id":"4","last_reported":1746004263,"current_range_meters":23200,"station_id":"ce4bgth2rcd13ifvqch0","pricing_plan_id":"cebpf4jnsgd1na2vs0mg"},{"bike_id":"bd144d6f-b971-4b9c-ac00-3ff747426117","system_id":"levelo_inurba_marseille","lat":43.325381,"lon":5.414467,"is_reserved":false,"is_disabled":false,"rental_uris":{"android":"levelo://app?vid=bd144d6f-b971-4b9c-ac00-3ff747426117","ios":"levelo://app?vid=bd144d6f-b971-4b9c-ac00-3ff747426117"},"vehicle_type_id":"4","last_reported":1746004263,"current_range_meters":24000,"station_id":"ce4bhq12rcd13ifvqhhg","pricing_plan_id":"cebpf4jnsgd1na2vs0mg"},{"bike_id":"62d29488-f86b-4bab-8c38-0a516d55782c","system_id":"levelo_inurba_marseille","lat":43.29865,"lon":5.38909,"is_reserved":false,"is_disabled":true,"rental_uris":{"android":"levelo://app?vid=62d29488-f86b-4bab-8c38-0a516d55782c","ios":"levelo://app?vid=62d29488-f86b-4bab-8c38-0a516d55782c"},"vehicle_type_id":"4","last_reported":1746004263,"current_range_meters":24000,"station_id":"ce4bh392rcd13ifvqdl0","pricing_plan_id":"cebpf4jnsgd1na2vs0mg"},{"bike_id":"b0d0ff7e-fb74-4f4d-a383-b3a7e57681f3","system_id":"levelo_inurba_marseille","lat":43.315077,"lon":5.372973,"is_reserved":false,"is_disabled":true,"rental_uris":{"android":"levelo://app?vid=b0d0ff7e-fb74-4f4d-a383-b3a7e57681f3","ios":"levelo://app?vid=b0d0ff7e-fb74-4f4d-a383-b3a7e57681f3"},"vehicle_type_id":"4","last_reported":1746004263,"current_range_meters":24000,"station_id":"ce4bgt12rcd13ifvqcd0","pricing_plan_id":"cebpf4jnsgd1na2vs0mg"},{"bike_id":"8c99e473-816a-4da2-a507-eb8524b9f1ed","system_id":"levelo_inurba_marseille","lat":43.30908,"lon":5.36854,"is_reserved":false,"is_disabled":false,"rental_uris":{"android":"levelo://app?vid=8c99e473-816a-4da2-a507-eb8524b9f1ed","ios":"levelo://app?vid=8c99e473-816a-4da2-a507-eb8524b9f1ed"},"vehicle_type_id":"4","last_reported":1746004263,"current_range_meters":24000,"station_id":"ce4bgn92rcd13ifvqbvg","pricing_plan_id":"cebpf4jnsgd1na2vs0mg"},