{"last_updated":1726405989,"ttl":30,"version":"2.2","data":{"bikes":[{"bike_id":"a084d085-043f-4c8c-a597-c0982ab2119f","system_id":"levelo_inurba_marseille","lat":43.33013,"lon":5.39,"is_reserved":false,"is_disabled":false,"rental_uris":{"android":"levelo://app?vid=a084d085-043f-4c8c-a597-c0982ab2119f","ios":"levelo://app?vid=a084d085-043f-4c8c-a597-c0982ab2119f"},"vehicle_type_id":"4","last_reported":1726405989,"current_range_meters":28000,"station_id":"ce4bhr92rcd13ifvqhrg","pricing_plan_id":"cebpf4jnsgd1na2vs0mg"},{"bike_id":"ed43e904-cc3a-4d12-9042-430a0c638ba1","system_id":"levelo_inurba_marseille","lat":43.25085,"lon":5.3951,"is_reserved":false,"is_disabled":false,"rental_uris":{"android":"levelo://app?vid=ed43e904-cc3a-4d12-9042-430a0c638ba1","ios":"levelo://app?vid=ed43e904-cc3a-4d12-9042-430a0c638ba1"},"vehicle_type_id":"4","last_reported":1726405989,"current_range_meters":11600,"station_id":"ce4bhm12rcd13ifvqgkg","pricing_plan_id":"cebpf4jnsgd1na2vs0mg"},{"bike_id":"056313ad-8265-4df1-b42f-640ec0ab3367","system_id":"levelo_inurba_marseille","lat":43.28421,"lon":5.34987,"is_reserved":false,"is_disabled":false,"rental_uris":{"android":"levelo://app?vid=056313ad-8265-4df1-b42f-640ec0ab3367","ios":"levelo://app?vid=056313ad-8265-4df1-b42f-640ec0ab3367"},"vehicle_type_id":"4","last_reported":1726405989,"current_range_meters":30400,"station_id":"ce4bhbh2rcd13ifvqepg","pricing_plan_id":"cebpf4jnsgd1na2vs0mg"},{"bike_id":"41907fca-a52e-41d5-98d7-71f277307927","system_id":"levelo_inurba_marseille","lat":43.31294,"lon":5.37812,"is_reserved":false,"is_disabled":false,"rental_uris":{"android":"levelo://app?vid=41907fca-a52e-41d5-98d7-71f277307927","ios":"levelo://app?vid=41907fca-a52e-41d5-98d7-71f277307927"},"vehicle_type_id":"4","last_reported":1726405989,"current_range_meters":33600,"station_id":"","pricing_plan_id":"cebpf4jnsgd1na2vs0mg"},{"bike_id":"259c1082-ea70-4a9f-bd06-8385f36a05f6","system_id":"levelo_inurba_marseille","lat":43.28408,"lon":5.34981,"is_reserved":false,"is_disabled":false,"rental_uris":{"android":"levelo://app?vid=259c1082-ea70-4a9f-bd06-8385f36a05f6","ios":"levelo://app?vid=259c1082-ea70-4a9f-bd06-8385f36a05f6"},"vehicle_type_id":"4","last_reported":1726405989,"current_range_meters":34800,"station_id":"ce4bhbh2rcd13ifvqepg","pricing_plan_id":"cebpf4jnsgd1na2vs0mg"},{"bike_id":"491f625c-672a-429b-adf2-44db696ce223","system_id":"levelo_inurba_marseille","lat":43.24816,"lon":5.37464,"is_reserved":false,"is_disabled":false,"rental_uris":{"android":"levelo://app?vid=491f625c-672a-429b-adf2-44db696ce223","ios":"levelo://app?vid=491f625c-672a-429b-adf2-44db696ce223"},"vehicle_type_id":"4","last_reported":1726405989,"current_range_meters":10000,"station_id":"ce4bhgh2rcd13ifvqfb0","pricing_plan_id":"cebpf4jnsgd1na2vs0mg"},{"bike_id":"ce3dc406-963f-4951-a515-a8d7cff6914c","system_id":"levelo_inurba_marseille","lat":43.24167,"lon":5.36388,"is_reserved":false,"is_disabled":false,"rental_uris":{"android":"levelo://app?vid=ce3dc406-963f-4951-a515-a8d7cff6914c","ios":"levelo://app?vid=ce3dc406-963f-4951-a515-a8d7cff6914c"},"vehicle_type_id":"4","last_reported":1726405989,"current_range_meters":24400,"station_id":"cpo36qri1sfpv3e86is0","pricing_plan_id":"cebpf4jnsgd1na2vs0mg"},{"bike_id":"10728045-d652-461a-a9ab-b0440d533a3f","system_id":"levelo_inurba_marseille","lat":43.24389,"lon":5.3705,"is_reserved":false,"is_disabled":false,"rental_uris":{"android":"levelo://app?vid=10728045-d652-461a-a9ab-b0440d533a3f","ios":"levelo://app?vid=10728045-d652-461a-a9ab-b0440d533a3f"},"vehicle_type_id":"4","last_reported":1726405989,"current_range_meters":18000,"station_id":"ce4bhhh2rcd13ifvqfk0","pricing_plan_id":"cebpf4jnsgd1na2vs0mg"},{"bike_id":"7c475990-5c91-40de-8e97-2ed5070be005","system_id":"levelo_inurba_marseille","lat":43.23032,"lon":5.401,"is_reserved":false,"is_disabled":false,"rental_uris":{"android":"levelo://app?vid=7c475990-5c91-40de-8e97-2ed5070be005","ios":"levelo://app?vid=7c475990-5c91-40de-8e97-2ed5070be005"},"vehicle_type_id":"4","last_reported":1726405989,"current_range_meters":38400,"station_id":"","pricing_plan_id":"cebpf4jnsgd1na2vs0mg"},{"bike_id":"13ec4916-f0ea-4897-8afc-596425b42c42","system_id":"levelo_inurba_marseille","lat":43.23192,"lon":5.35555,"is_reserved":false,"is_disabled":false,"rental_uris":{"android":"levelo://app?vid=13ec4916-f0ea-4897-8afc-596425b42c42","ios":"levelo://app?vid=13ec4916-f0ea-4897-8afc-596425b42c42"},"vehicle_type_id":"4","last_reported":1726405989,"current_range_meters":22400,"station_id":"ce4bhu92rcd13ifvqi70","pricing_plan_id":"cebpf4jnsgd1na2vs0mg"},{"bike_id":"e8549387-9deb-4f66-b733-a7cdaa0db866","system_id":"levelo_inurba_marseille","lat":43.33027,"lon":5.3903,"is_reserved":false,"is_disabled":false,"rental_uris":{"android":"levelo://app?vid=e8549387-9deb-4f66-b733-a7cdaa0db866","ios":"levelo://app?vid=e8549387-9deb-4f66-b733-a7cdaa0db866"},"vehicle_type_id":"4","last_reported":1726405989,"current_range_meters":16400,"station_id":"ce4bhr92rcd13ifvqhrg","pricing_plan_id":"cebpf4jnsgd1na2vs0mg"},{"bike_id":"344880e3-ce90-437f-a8da-22ec22dc470a","system_id":"levelo_inurba_marseille","lat":43.29563,"lon":5.42286,"is_reserved":false,"is_disabled":false,"rental_uris":{"android":"levelo://app?vid=344880e3-ce90-437f-a8da-22ec22dc470a","ios":"levelo://app?vid=344880e3-ce90-437f-a8da-22ec22dc470a"},"vehicle_type_id":"4","last_reported":1726405989,"current_range_meters":12400,"station_id":"ce4bhph2rcd13ifvqhdg","pricing_plan_id":"cebpf4jnsgd1na2vs0mg"},{"bike_id":"3d64c255-1660-41db-ac56-60cbee1ac9b2","system_id":"levelo_inurba_marseille","lat":43.28473,"lon":5.3854,"is_reserved":false,"is_disabled":false,"rental_uris":{"android":"levelo://app?vid=3d64c255-1660-41db-ac56-60cbee1ac9b2","ios":"levelo://app?vid=3d64c255-1660-41db-ac56-60cbee1ac9b2"},"vehicle_type_id":"4","last_reported":1726405989,"current_range_meters":37600,"station_id":"ce4bh8p2rcd13ifvqeb0","pricing_plan_id":"cebpf4jnsgd1na2vs0mg"},{"bike_id":"1b69e28d-b657-4802-b5dd-aa17fb5a768b","system_id":"levelo_inurba_marseille","lat":43.27157,"lon":5.42795,"is_reserved":false,"is_disabled":false,"rental_uris":{"android":"levelo://app?vid=1b69e28d-b657-4802-b5dd-aa17fb5a768b","ios":"levelo://app?vid=1b69e28d-b657-4802-b5dd-aa17fb5a768b"},"vehicle_type_id":"4","last_reported":1726405989,"current_range_meters":21600,"station_id":"","pricing_plan_id":"cebpf4jnsgd1na2vs0mg"},{"bike_id":"f5104168-c740-4ffc-a061-2bc031317fd1","system_id":"levelo_inurba_marseille","lat":43.30139,"lon":5.37423,"is_reserved":false,"is_disabled":false,"rental_uris":{"android":"levelo://app?vid=f5104168-c740-4ffc-a061-2bc031317fd1","ios":"levelo://app?vid=f5104168-c740-4ffc-a061-2bc031317fd1"},"vehicle_type_id":"4","last_reported":1726405989,"current_range_meters":3200,"station_id":"ce4bgs92rcd13ifvqcc0","pricing_plan_id":"cebpf4jnsgd1na2vs0mg"},{"bike_id":"22103816-4927-4e66-ad57-2b52f35aa0e2","system_id":"levelo_inurba_marseille","lat":43.27371,"lon":5.36241,"is_reserved":false,"is_disabled":false,"rental_uris":{"android":"levelo://app?vid=22103816-4927-4e66-ad57-2b52f35aa0e2","ios":"levelo://app?vid=22103816-4927-4e66-ad57-2b52f35aa0e2"},"vehicle_type_id":"4","last_reported":1726405989,"current_range_meters":8400,"station_id":"ce4bhbh2rcd13ifvqeo0","pricing_plan_id":"cebpf4jnsgd1na2vs0mg"},{"bike_id":"995d3a7e-289e-4ebd-b785-9d2da426ad57","system_id":"levelo_inurba_marseille","lat":43.23199,"lon":5.35546,"is_reserved":false,"is_disabled":false,"rental_uris":{"android":"levelo://app?vid=995d3a7e-289e-4ebd-b785-9d2da426ad57","ios":"levelo://app?vid=995d3a7e-289e-4ebd-b785-9d2da426ad57"},"vehicle_type_id":"4","last_reported":1726405989,"current_range_meters":13600,"station_id":"ce4bhu92rcd13ifvqi70","pricing_plan_id":"cebpf4jnsgd1na2vs0mg"},{"bike_id":"74c67d55-8a5f-40c9-8066-d68354718f8c","system_id":"levelo_inurba_marseille","lat":43.23196,"lon":5.35549,"is_reserved":false,"is_disabled":false,"rental_uris":{"android":"levelo://app?vid=74c67d55-8a5f-40c9-8066-d68354718f8c","ios":"levelo://app?vid=74c67d55-8a5f-40c9-8066-d68354718f8c"},"vehicle_type_id":"4","last_reported":1726405989,"current_range_meters":19200,"station_id":"ce4bhu92rcd13ifvqi70","pricing_plan_id":"cebpf4jnsgd1na2vs0mg"},{"bike_id":"2ddfad23-de66-4057-b823-7eec87784951","system_id":"levelo_inurba_marseille","lat":43.30547,"lon":5.36704,"is_reserved":false,"is_disabled":false,"rental_uris":{"android":"levelo://app?vid=2ddfad23-de66-4057-b823-7eec87784951","ios":"levelo://app?vid=2ddfad23-de66-4057-b823-7eec87784951"},"vehicle_type_id":"4","last_reported":1726405989,"current_range_meters":38400,"station_id":"ce4bgrp2rcd13ifvqc9g","pricing_plan_id":"cebpf4jnsgd1na2vs0mg"},{"bike_id":"2348432a-2e1b-4480-8221-dc0ae33b40e8","system_id":"levelo_inurba_marseille","lat":43.24396,"lon":5.37064,"is_reserved":false,"is_disabled":false,"rental_uris":{"android":"levelo://app?vid=2348432a-2e1b-4480-8221-dc0ae33b40e8","ios":"levelo://app?vid=2348432a-2e1b-4480-8221-dc0ae33b40e8"},"vehicle_type_id":"4","last_reported":1726405989,"current_range_meters":19200,"station_id":"ce4bhhh2rcd13ifvqfk0","pricing_plan_id":"cebpf4jnsgd1na2vs0mg"},{"bike_id":"d0698402-85d8-4942-960d-db4ee8bd1c46","system_id":"levelo_inurba_marseille","lat":43.32482,"lon":5.36557,"is_reserved":false,"is_disabled":false,"rental_uris":{"android":"levelo://app?vid=d0698402-85d8-4942-960d-db4ee8bd1c46","ios":"levelo://app?vid=d0698402-85d8-4942-960d-db4ee8bd1c46"},"vehicle_type_id":"4","last_reported":1726405989,"current_range_meters":4800,"station_id":"ce4bhs12rcd13ifvqhvg","pricing_plan_id":"cebpf4jnsgd1na2vs0mg"},{"bike_id":"2c63532e-a01d-4521-8c6d-d87d6dd27d21","system_id":"levelo_inurba_marseille","lat":43.30805,"lon":5.38139,"is_reserved":false,"is_disabled":false,"rental_uris":{"android":"levelo://app?vid=2c63532e-a01d-4521-8c6d-d87d6dd27d21","ios":"levelo://app?vid=2c63532e-a01d-4521-8c6d-d87d6dd27d21"},"vehicle_type_id":"4","last_reported":1726405989,"current_range_meters":6000,"station_id":"ce4bgt12rcd13ifvqce0","pricing_plan_id":"cebpf4jnsgd1na2vs0mg"},{"bike_id":"1aeff3de-970e-4440-8b84-9abb74479e56","system_id":"levelo_inurba_marseille","lat":43.29964,"lon":5.41329,"is_reserved":false,"is_disabled":false,"rental_uris":{"android":"levelo://app?vid=1aeff3de-970e-4440-8b84-9abb74479e56","ios":"levelo://app?vid=1aeff3de-970e-4440-8b84-9abb74479e56"},"vehicle_type_id":"4","last_reported":1726405989,"current_range_meters":19600,"station_id":"ce4bhp12rcd13ifvqh9g","pricing_plan_id":"cebpf4jnsgd1na2vs0mg"},{"bike_id":"dfb89513-f211-47bc-95b2-ffac780f14a8","system_id":"levelo_inurba_marseille","lat":43.23199,"lon":5.35543,"is_reserved":false,"is_disabled":false,"rental_uris":{"android":"levelo://app?vid=dfb89513-f211-47bc-95b2-ffac780f14a8","ios":"levelo://app?vid=dfb89513-f211-47bc-95b2-ffac780f14a8"},"vehicle_type_id":"4","last_reported":1726405989,"current_range_meters":8400,"station_id":"ce4bhu92rcd13ifvqi70","pricing_plan_id":"cebpf4jnsgd1na2vs0mg"},{"bike_id":"d8aff3fe-9320-44af-b608-13a72bf18aed","system_id":"levelo_inurba_marseille","lat":43.29064,"lon":5.35901,"is_reserved":false,"is_disabled":false,"rental_uris":{"android":"levelo://app?vid=d8aff3fe-9320-44af-b608-13a72bf18aed","ios":"levelo://app?vid=d8aff3fe-9320-44af-b608-13a72bf18aed"},"vehicle_type_id":"4","last_reported":1726405989,"current_range_meters":30400,"station_id":"ce4bha92rcd13ifvqeg0","pricing_plan_id":"cebpf4jnsgd1na2vs0mg"},{"bike_id":"aac07f6f-d068-41e5-80ed-ad695afca2fa","system_id":"levelo_inurba_marseille","lat":43.25717,"lon":5.4111,"is_reserved":false,"is_disabled":false,"rental_uris":{"android":"levelo://app?vid=aac07f6f-d068-41e5-80ed-ad695afca2fa","ios":"levelo://app?vid=aac07f6f-d068-41e5-80ed-ad695afca2fa"},"vehicle_type_id":"4","last_reported":1726405989,"current_range_meters":30800,"station_id":"ce4bhkp2rcd13ifvqgd0","pricing_plan_id":"cebpf4jnsgd1na2vs0mg"},{"bike_id":"8f7d2222-b8b1-4df4-8f4e-3209ab742980","system_id":"levelo_inurba_marseille","lat":43.30885,"lon":5.39632,"is_reserved":false,"is_disabled":false,"rental_uris":{"android":"levelo://app?vid=8f7d2222-b8b1-4df4-8f4e-3209ab742980","ios":"levelo://app?vid=8f7d2222-b8b1-4df4-8f4e-3209ab742980"},"vehicle_type_id":"4","last_reported":1726405989,"current_range_meters":24400,"station_id":"ce4bh012rcd13ifvqcv0","pricing_plan_id":"cebpf4jnsgd1na2vs0mg"},{"bike_id":"336aa278-6c7a-46e0-bbc7-2e185c45c01b","system_id":"levelo_inurba_marseille","lat":43.31692,"lon":5.40468,"is_reserved":false,"is_disabled":false,"rental_uris":{"android":"levelo://app?vid=336aa278-6c7a-46e0-bbc7-2e185c45c01b","ios":"levelo://app?vid=336aa278-6c7a-46e0-bbc7-2e185c45c01b"},"vehicle_type_id":"4","last_reported":1726405989,"current_range_meters":7200,"station_id":"ce4bh012rcd13ifvqd00","pricing_plan_id":"cebpf4jnsgd1na2vs0mg"},{"bike_id":"30fc1f51-20b6-4e13-8f56-75175e166910","system_id":"levelo_inurba_marseille","lat":43.23056,"lon":5.35496,"is_reserved":false,"is_disabled":false,"rental_uris":{"android":"levelo://app?vid=30fc1f51-20b6-4e13-8f56-75175e166910","ios":"levelo://app?vid=30fc1f51-20b6-4e13-8f56-75175e166910"},"vehicle_type_id":"4","last_reported":1726405989,"current_range_meters":36000,"station_id":"cpo3342slgdg3j2ifvpg","pricing_plan_id":"cebpf4jnsgd1na2vs0mg"},{"bike_id":"46d1b03f-0e3d-455e-b5a6-6cd8c0b31d1f","system_id":"levelo_inurba_marseille","lat":43.217613,"lon":5.345974,"is_reserved":false,"is_disabled":false,"rental_uris":{"android":"levelo://app?vid=46d1b03f-0e3d-455e-b5a6-6cd8c0b31d1f","ios":"levelo://app?vid=46d1b03f-0e3d-455e-b5a6-6cd8c0b31d1f"},"vehicle_type_id":"4","last_reported":1726405989,"current_range_meters":9200,"station_id":"","pricing_plan_id":"cebpf4jnsgd1na2vs0mg"},{"bike_id":"610c7215-052b-40c9-a8aa-314130aa6c30","system_id":"levelo_inurba_marseille","lat":43.31329,"lon":5.39698,"is_reserved":false,"is_disabled":false,"rental_uris":{"android":"levelo://app?vid=610c7215-052b-40c9-a8aa-314130aa6c30","ios":"levelo://app?vid=610c7215-052b-40c9-a8aa-314130aa6c30"},"vehicle_type_id":"4","last_reported":1726405989,"current_range_meters":24400,"station_id":"ce4bgvp2rcd13ifvqcu0","pricing_plan_id":"cebpf4jnsgd1na2vs0mg"},{"bike_id":"ec9006f1-9246-40db-9584-a79270db200a","system_id":"levelo_inurba_marseille","lat":43.31721,"lon":5.42407,"is_reserved":false,"is_disabled":false,"rental_uris":{"android":"levelo://app?vid=ec9006f1-9246-40db-9584-a79270db200a","ios":"levelo://app?vid=ec9006f1-9246-40db-9584-a79270db200a"},"vehicle_type_id":"4","last_reported":1726405989,"current_range_meters":38800,"station_id":"ce4bhp92rcd13ifvqhbg","pricing_plan_id":"cebpf4jnsgd1na2vs0mg"},{"bike_id":"af390aaa-4ef7-492c-aded-06fda96c9f12","system_id":"levelo_inurba_marseille","lat":43.31709,"lon":5.43693,"is_reserved":false,"is_disabled":false,"rental_uris":{"android":"levelo://app?vid=af390aaa-4ef7-492c-aded-06fda96c9f12","ios":"levelo://app?vid=af390aaa-4ef7-492c-aded-06fda96c9f12"},"vehicle_type_id":"4","last_reported":1726405989,"current_range_meters":30000,"station_id":"ce4bhp92rcd13ifvqhcg","pricing_plan_id":"cebpf4jnsgd1na2vs0mg"},{"bike_id":"f89ebaff-608b-48c6-99bf-a4efd018954e","system_id":"levelo_inurba_marseille","lat":43.25723,"lon":5.41103,"is_reserved":false,"is_disabled":false,"rental_uris":{"android":"levelo://app?vid=f89ebaff-608b-48c6-99bf-a4efd018954e","ios":"levelo://app?vid=f89ebaff-608b-48c6-99bf-a4efd018954e"},"vehicle_type_id":"4","last_reported":1726405989,"current_range_meters":16000,"station_id":"ce4bhkp2rcd13ifvqgd0","pricing_plan_id":"cebpf4jnsgd1na2vs0mg"},{"bike_id":"65c19f49-c4fe-4c2d-8a06-e52117f63875","system_id":"levelo_inurba_marseille","lat":43.25009,"lon":5.38915,"is_reserved":false,"is_disabled":false,"rental_uris":{"android":"levelo://app?vid=65c19f49-c4fe-4c2d-8a06-e52117f63875","ios":"levelo://app?vid=65c19f49-c4fe-4c2d-8a06-e52117f63875"},"vehicle_type_id":"4","last_reported":1726405989,"current_range_meters":4000,"station_id":"ce4bhgp2rcd13ifvqfd0","pricing_plan_id":"cebpf4jnsgd1na2vs0mg"},{"bike_id":"b163cf08-6ce3-4d2f-a3d2-6a4eb4ce7991","system_id":"levelo_inurba_marseille","lat":43.28152,"lon":5.42646,"is_reserved":false,"is_disabled":false,"rental_uris":{"android":"levelo://app?vid=b163cf08-6ce3-4d2f-a3d2-6a4eb4ce7991","ios":"levelo://app?vid=b163cf08-6ce3-4d2f-a3d2-6a4eb4ce7991"},"vehicle_type_id":"4","last_reported":1726405989,"current_range_meters":8800,"station_id":"ce4bhnh2rcd13ifvqgug","pricing_plan_id":"cebpf4jnsgd1na2vs0mg"},{"bike_id":"236c42f4-0de2-46a6-93e6-3b89c7cfc28c","system_id":"levelo_inurba_marseille","lat":43.23055,"lon":5.35485,"is_reserved":false,"is_disabled":false,"rental_uris":{"android":"levelo://app?vid=236c42f4-0de2-46a6-93e6-3b89c7cfc28c","ios":"levelo://app?vid=236c42f4-0de2-46a6-93e6-3b89c7cfc28c"},"vehicle_type_id":"4","last_reported":1726405989,"current_range_meters":16000,"station_id":"cpo3342slgdg3j2ifvpg","pricing_plan_id":"cebpf4jnsgd1na2vs0mg"},{"bike_id":"fa520970-b02f-48ef-8a4c-a0b6221dc909","system_id":"levelo_inurba_marseille","lat":43.28159,"lon":5.42632,"is_reserved":false,"is_disabled":false,"rental_uris":{"android":"levelo://app?vid=fa520970-b02f-48ef-8a4c-a0b6221dc909","ios":"levelo://app?vid=fa520970-b02f-48ef-8a4c-a0b6221dc909"},"vehicle_type_id":"4","last_reported":1726405989,"current_range_meters":35600,"station_id":"ce4bhnh2rcd13ifvqgug","pricing_plan_id":"cebpf4jnsgd1na2vs0mg"},{"bike_id":"3af81eba-ed1b-411c-b634-c4a98ab307f3","system_id":"levelo_inurba_marseille","lat":43.28421,"lon":5.34979,"is_reserved":false,"is_disabled":false,"rental_uris":{"android":"levelo://app?vid=3af81eba-ed1b-411c-b634-c4a98ab307f3","ios":"levelo://app?vid=3af81eba-ed1b-411c-b634-c4a98ab307f3"},"vehicle_type_id":"4","last_reported":1726405989,"current_range_meters":19600,"station_id":"ce4bhbh2rcd13ifvqepg","pricing_plan_id":"cebpf4jnsgd1na2vs0mg"},{"bike_id":"f79ff168-7c1f-43a6-9a48-819ae1e3b151","system_id":"levelo_inurba_marseille","lat":43.24071,"lon":5.37756,"is_reserved":false,"is_disabled":false,"rental_uris":{"android":"levelo://app?vid=f79ff168-7c1f-43a6-9a48-819ae1e3b151","ios":"levelo://app?vid=f79ff168-7c1f-43a6-9a48-819ae1e3b151"},"vehicle_type_id":"4","last_reported":1726405989,"current_range_meters":12400,"station_id":"ce4bhnp2rcd13ifvqgvg","pricing_plan_id":"cebpf4jnsgd1na2vs0mg"},{"bike_id":"6d5614e0-2e6f-4d24-9d4a-5c6cca74e3e5","system_id":"levelo_inurba_marseille","lat":43.23193,"lon":5.35545,"is_reserved":false,"is_disabled":false,"rental_uris":{"android":"levelo://app?vid=6d5614e0-2e6f-4d24-9d4a-5c6cca74e3e5","ios":"levelo://app?vid=6d5614e0-2e6f-4d24-9d4a-5c6cca74e3e5"},"vehicle_type_id":"4","last_reported":1726405989,"current_range_meters":10800,"station_id":"ce4bhu92rcd13ifvqi70","pricing_plan_id":"cebpf4jnsgd1na2vs0mg"},{"bike_id":"2bd6d586-7a39-4193-b931-436964993ed9","system_id":"levelo_inurba_marseille","lat":43.28272,"lon":5.35068,"is_reserved":false,"is_disabled":false,"rental_uris":{"android":"levelo://app?vid=2bd6d586-7a39-4193-b931-436964993ed9","ios":"levelo://app?vid=2bd6d586-7a39-4193-b931-436964993ed9"},"vehicle_type_id":"4","last_reported":1726405989,"current_range_meters":38800,"station_id":"ce4bhbp2rcd13ifvqerg","pricing_plan_id":"cebpf4jnsgd1na2vs0mg"},{"bike_id":"30d76f20-3abf-4f8d-bf02-61db7b08413c","system_id":"levelo_inurba_marseille","lat":43.24068,"lon":5.37764,"is_reserved":false,"is_disabled":false,"rental_uris":{"android":"levelo://app?vid=30d76f20-3abf-4f8d-bf02-61db7b08413c","ios":"levelo://app?vid=30d76f20-3abf-4f8d-bf02-61db7b08413c"},"vehicle_type_id":"4","last_reported":1726405989,"current_range_meters":24000,"station_id":"ce4bhnp2rcd13ifvqgvg","pricing_plan_id":"cebpf4jnsgd1na2vs0mg"},{"bike_id":"472398ca-7be6-45c1-a57c-fce088f97183","system_id":"levelo_inurba_marseille","lat":43.2842,"lon":5.34984,"is_reserved":false,"is_disabled":false,"rental_uris":{"android":"levelo://app?vid=472398ca-7be6-45c1-a57c-fce088f97183","ios":"levelo://app?vid=472398ca-7be6-45c1-a57c-fce088f97183"},"vehicle_type_id":"4","last_reported":1726405989,"current_range_meters":26800,"station_id":"ce4bhbh2rcd13ifvqepg","pricing_plan_id":"cebpf4jnsgd1na2vs0mg"},{"bike_id":"90521811-f8fd-48e1-ade7-4d07ddb065bb","system_id":"levelo_inurba_marseille","lat":43.23193,"lon":5.35559,"is_reserved":false,"is_disabled":false,"rental_uris":{"android":"levelo://app?vid=90521811-f8fd-48e1-ade7-4d07ddb065bb","ios":"levelo://app?vid=90521811-f8fd-48e1-ade7-4d07ddb065bb"},"vehicle_type_id":"4","last_reported":1726405989,"current_range_meters":12400,"station_id":"ce4bhu92rcd13ifvqi70","pricing_plan_id":"cebpf4jnsgd1na2vs0mg"},{"bike_id":"ac0b2d92-4e72-4a28-851c-700dc240dbdc","system_id":"levelo_inurba_marseille","lat":43.24805,"lon":5.37455,"is_reserved":false,"is_disabled":false,"rental_uris":{"android":"levelo://app?vid=ac0b2d92-4e72-4a28-851c-700dc240dbdc","ios":"levelo://app?vid=ac0b2d92-4e72-4a28-851c-700dc240dbdc"},"vehicle_type_id":"4","last_reported":1726405989,"current_range_meters":37600,"station_id":"ce4bhgh2rcd13ifvqfb0","pricing_plan_id":"cebpf4jnsgd1na2vs0mg"},{"bike_id":"1fb5da9e-6df7-4106-a459-3f96f567eb25","system_id":"levelo_inurba_marseille","lat":43.23153,"lon":5.43707,"is_reserved":false,"is_disabled":false,"rental_uris":{"android":"levelo://app?vid=1fb5da9e-6df7-4106-a459-3f96f567eb25","ios":"levelo://app?vid=1fb5da9e-6df7-4106-a459-3f96f567eb25"},"vehicle_type_id":"4","last_reported":1726405989,"current_range_meters":36800,"station_id":"ce4bhmp2rcd13ifvqgog","pricing_plan_id":"cebpf4jnsgd1na2vs0mg"},{"bike_id":"8d4bdb4f-95a8-40f5-a971-f2c3ce256c38","system_id":"levelo_inurba_marseille","lat":43.24673,"lon":5.38163,"is_reserved":false,"is_disabled":false,"rental_uris":{"android":"levelo://app?vid=8d4bdb4f-95a8-40f5-a971-f2c3ce256c38","ios":"levelo://app?vid=8d4bdb4f-95a8-40f5-a971-f2c3ce256c38"},"vehicle_type_id":"4","last_reported":1726405989,"current_range_meters":38400,"station_id":"ce4bhih2rcd13ifvqfr0","pricing_plan_id":"cebpf4jnsgd1na2vs0mg"},{"bike_id":"fe7d7640-31b4-4680-bbc0-971c61390d2e","system_id":"levelo_inurba_marseille","lat":43.25086,"lon":5.3951,"is_reserved":false,"is_disabled":false,"rental_uris":{"android":"levelo://app?vid=fe7d7640-31b4-4680-bbc0-971c61390d2e","ios":"levelo://app?vid=fe7d7640-31b4-4680-bbc0-971c61390d2e"},"vehicle_type_id":"4","last_reported":1726405989,"current_range_meters":28400,"station_id":"ce4bhm12rcd13ifvqgkg","pricing_plan_id":"cebpf4jnsgd1na2vs0mg"},{"bike_id":"26db0265-0a91-4c66-8aa8-67a94f7eef0d","system_id":"levelo_inurba_marseille","lat":43.26936,"lon":5.40042,"is_reserved":false,"is_disabled":false,"rental_uris":{"android":"levelo://app?vid=26db0265-0a91-4c66-8aa8-67a94f7eef0d","ios":"levelo://app?vid=26db0265-0a91-4c66-8aa8-67a94f7eef0d"},"vehicle_type_id":"4","last_reported":1726405989,"current_range_meters":10000,"station_id":"","pricing_plan_id":"cebpf4jnsgd1na2vs0mg"},{"bike_id":"9b49fc06-69dc-4375-9bc8-2ab31283d424","system_id":"levelo_inurba_marseille","lat":43.29903,"lon":5.43661,"is_reserved":false,"is_disabled":false,"rental_uris":{"android":"levelo://app?vid=9b49fc06-69dc-4375-9bc8-2ab31283d424","ios":"levelo://app?vid=9b49fc06-69dc-4375-9bc8-2ab31283d424"},"vehicle_type_id":"4","last_reported":1726405989,"current_range_meters":27200,"station_id":"ce4bhpp2rcd13ifvqhfg","pricing_plan_id":"cebpf4jnsgd1na2vs0mg"},{"bike_id":"332e7158-8ad6-4ff8-a711-56e21947b7b5","system_id":"levelo_inurba_marseille","lat":43.28421,"lon":5.34993,"is_reserved":false,"is_disabled":false,"rental_uris":{"android":"levelo://app?vid=332e7158-8ad6-4ff8-a711-56e21947b7b5","ios":"levelo://app?vid=332e7158-8ad6-4ff8-a711-56e21947b7b5"},"vehicle_type_id":"4","last_reported":1726405989,"current_range_meters":38800,"station_id":"ce4bhbh2rcd13ifvqepg","pricing_plan_id":"cebpf4jnsgd1na2vs0mg"},{"bike_id":"7cb86f02-015f-4218-848c-60a0be8facd1","system_id":"levelo_inurba_marseille","lat":43.25728,"lon":5.41103,"is_reserved":false,"is_disabled":false,"rental_uris":{"android":"levelo://app?vid=7cb86f02-015f-4218-848c-60a0be8facd1","ios":"levelo://app?vid=7cb86f02-015f-4218-848c-60a0be8facd1"},"vehicle_type_id":"4","last_reported":1726405989,"current_range_meters":15200,"station_id":"ce4bhkp2rcd13ifvqgd0","pricing_plan_id":"cebpf4jnsgd1na2vs0mg"},{"bike_id":"fa0bba81-ae28-438c-aaa0-a2a0c9d69ac5","system_id":"levelo_inurba_marseille","lat":43.29557,"lon":5.42283,"is_reserved":false,"is_disabled":false,"rental_uris":{"android":"levelo://app?vid=fa0bba81-ae28-438c-aaa0-a2a0c9d69ac5","ios":"levelo://app?vid=fa0bba81-ae28-438c-aaa0-a2a0c9d69ac5"},"vehicle_type_id":"4","last_reported":1726405989,"current_range_meters":32800,"station_id":"ce4bhph2rcd13ifvqhdg","pricing_plan_id":"cebpf4jnsgd1na2vs0mg"},{"bike_id":"0d666385-14fb-492f-9ae9-f379fd263d72","system_id":"levelo_inurba_marseille","lat":43.254517,"lon":5.376614,"is_reserved":false,"is_disabled":false,"rental_uris":{"android":"levelo://app?vid=0d666385-14fb-492f-9ae9-f379fd263d72","ios":"levelo://app?vid=0d666385-14fb-492f-9ae9-f379fd263d72"},"vehicle_type_id":"4","last_reported":1726405989,"current_range_meters":14800,"station_id":"ce4bhh12rcd13ifvqff0","pricing_plan_id":"cebpf4jnsgd1na2vs0mg"},{"bike_id":"e00d038a-00c7-4258-ab4b-259bdb081cfd","system_id":"levelo_inurba_marseille","lat":43.23202,"lon":5.35546,"is_reserved":false,"is_disabled":false,"rental_uris":{"android":"levelo://app?vid=e00d038a-00c7-4258-ab4b-259bdb081cfd","ios":"levelo://app?vid=e00d038a-00c7-4258-ab4b-259bdb081cfd"},"vehicle_type_id":"4","last_reported":1726405989,"current_range_meters":28000,"station_id":"ce4bhu92rcd13ifvqi70","pricing_plan_id":"cebpf4jnsgd1na2vs0mg"},{"bike_id":"459ca2fe-304d-47b2-a604-8dea281edb0c","system_id":"levelo_inurba_marseille","lat":43.31083,"lon":5.42434,"is_reserved":false,"is_disabled":false,"rental_uris":{"android":"levelo://app?vid=459ca2fe-304d-47b2-a604-8dea281edb0c","ios":"levelo://app?vid=459ca2fe-304d-47b2-a604-8dea281edb0c"},"vehicle_type_id":"4","last_reported":1726405989,"current_range_meters":32400,"station_id":"ce4bhp92rcd13ifvqhag","pricing_plan_id":"cebpf4jnsgd1na2vs0mg"},{"bike_id":"8d3ee9a4-51a1-44e0-8b30-166e67777a82","system_id":"levelo_inurba_marseille","lat":43.25861,"lon":5.399,"is_reserved":false,"is_disabled":false,"rental_uris":{"android":"levelo://app?vid=8d3ee9a4-51a1-44e0-8b30-166e67777a82","ios":"levelo://app?vid=8d3ee9a4-51a1-44e0-8b30-166e67777a82"},"vehicle_type_id":"4","last_reported":1726405989,"current_range_meters":37600,"station_id":"ce4bhl92rcd13ifvqghg","pricing_plan_id":"cebpf4jnsgd1na2vs0mg"},{"bike_id":"6f3c9a94-4c94-4e20-aa02-ef2302c493c1","system_id":"levelo_inurba_marseille","lat":43.31696,"lon":5.4047,"is_reserved":false,"is_disabled":false,"rental_uris":{"android":"levelo://app?vid=6f3c9a94-4c94-4e20-aa02-ef2302c493c1","ios":"levelo://app?vid=6f3c9a94-4c94-4e20-aa02-ef2302c493c1"},"vehicle_type_id":"4","last_reported":1726405989,"current_range_meters":38800,"station_id":"ce4bh012rcd13ifvqd00","pricing_plan_id":"cebpf4jnsgd1na2vs0mg"},{"bike_id":"851f1477-bde9-48df-bbc0-abb08975df4b","system_id":"levelo_inurba_marseille","lat":43.297659,"lon":5.364114,"is_reserved":false,"is_disabled":false,"rental_uris":{"android":"levelo://app?vid=851f1477-bde9-48df-bbc0-abb08975df4b","ios":"levelo://app?vid=851f1477-bde9-48df-bbc0-abb08975df4b"},"vehicle_type_id":"4","last_reported":1726405989,"current_range_meters":24400,"station_id":"ce4bgpp2rcd13ifvqc3g","pricing_plan_id":"cebpf4jnsgd1na2vs0mg"},{"bike_id":"acc68b67-760d-455c-bc3c-5ba3b2af3adc","system_id":"levelo_inurba_marseille","lat":43.30312,"lon":5.36903,"is_reserved":false,"is_disabled":false,"rental_uris":{"android":"levelo://app?vid=acc68b67-760d-455c-bc3c-5ba3b2af3adc","ios":"levelo://app?vid=acc68b67-760d-455c-bc3c-5ba3b2af3adc"},"vehicle_type_id":"4","last_reported":1726405989,"current_range_meters":32800,"station_id":"ce4bgqh2rcd13ifvqc5g","pricing_plan_id":"cebpf4jnsgd1na2vs0mg"},{"bike_id":"103b0b28-fd31-4a4a-9541-1b4870fd2f17","system_id":"levelo_inurba_marseille","lat":43.27546,"lon":5.35971,"is_reserved":false,"is_disabled":false,"rental_uris":{"android":"levelo://app?vid=103b0b28-fd31-4a4a-9541-1b4870fd2f17","ios":"levelo://app?vid=103b0b28-fd31-4a4a-9541-1b4870fd2f17"},"vehicle_type_id":"4","last_reported":1726405989,"current_range_meters":36400,"station_id":"ce4bgj92rcd13ifvqbe0","pricing_plan_id":"cebpf4jnsgd1na2vs0mg"},{"bike_id":"ec19b6e1-4ec0-4e39-b98f-e4b7c23ca064","system_id":"levelo_inurba_marseille","lat":43.27378,"lon":5.36253,"is_reserved":false,"is_disabled":false,"rental_uris":{"android":"levelo://app?vid=ec19b6e1-4ec0-4e39-b98f-e4b7c23ca064","ios":"levelo://app?vid=ec19b6e1-4ec0-4e39-b98f-e4b7c23ca064"},"vehicle_type_id":"4","last_reported":1726405989,"current_range_meters":7200,"station_id":"ce4bhbh2rcd13ifvqeo0","pricing_plan_id":"cebpf4jnsgd1na2vs0mg"},{"bike_id":"241bdf2e-72ce-4ecd-8241-ba3dc813229d","system_id":"levelo_inurba_marseille","lat":43.31334,"lon":5.39688,"is_reserved":false,"is_disabled":false,"rental_uris":{"android":"levelo://app?vid=241bdf2e-72ce-4ecd-8241-ba3dc813229d","ios":"levelo://app?vid=241bdf2e-72ce-4ecd-8241-ba3dc813229d"},"vehicle_type_id":"4","last_reported":1726405989,"current_range_meters":27600,"station_id":"ce4bgvp2rcd13ifvqcu0","pricing_plan_id":"cebpf4jnsgd1na2vs0mg"},{"bike_id":"3f7bb6b9-d79d-4882-9392-d0562d38c838","system_id":"levelo_inurba_marseille","lat":43.30784,"lon":5.37645,"is_reserved":false,"is_disabled":false,"rental_uris":{"android":"levelo://app?vid=3f7bb6b9-d79d-4882-9392-d0562d38c838","ios":"levelo://app?vid=3f7bb6b9-d79d-4882-9392-d0562d38c838"},"vehicle_type_id":"4","last_reported":1726405989,"current_range_meters":32400,"station_id":"ce4bgv92rcd13ifvqcq0","pricing_plan_id":"cebpf4jnsgd1na2vs0mg"},{"bike_id":"b1db6496-7d7b-4acc-a88c-e5406d38e100","system_id":"levelo_inurba_marseille","lat":43.23196,"lon":5.3555,"is_reserved":false,"is_disabled":false,"rental_uris":{"android":"levelo://app?vid=b1db6496-7d7b-4acc-a88c-e5406d38e100","ios":"levelo://app?vid=b1db6496-7d7b-4acc-a88c-e5406d38e100"},"vehicle_type_id":"4","last_reported":1726405989,"current_range_meters":36800,"station_id":"ce4bhu92rcd13ifvqi70","pricing_plan_id":"cebpf4jnsgd1na2vs0mg"},{"bike_id":"ee721f16-71d0-49c8-9da4-858f78b55bcb","system_id":"levelo_inurba_marseille","lat":43.25938,"lon":5.40902,"is_reserved":false,"is_disabled":false,"rental_uris":{"android":"levelo://app?vid=ee721f16-71d0-49c8-9da4-858f78b55bcb","ios":"levelo://app?vid=ee721f16-71d0-49c8-9da4-858f78b55bcb"},"vehicle_type_id":"4","last_reported":1726405989,"current_range_meters":25600,"station_id":"ce4bhm92rcd13ifvqglg","pricing_plan_id":"cebpf4jnsgd1na2vs0mg"},{"bike_id":"5cf4c2f1-f092-4550-b8cf-369099ebc3bc","system_id":"levelo_inurba_marseille","lat":43.2456,"lon":5.4155,"is_reserved":false,"is_disabled":false,"rental_uris":{"android":"levelo://app?vid=5cf4c2f1-f092-4550-b8cf-369099ebc3bc","ios":"levelo://app?vid=5cf4c2f1-f092-4550-b8cf-369099ebc3bc"},"vehicle_type_id":"4","last_reported":1726405989,"current_range_meters":14800,"station_id":"ce4bhlh2rcd13ifvqgig","pricing_plan_id":"cebpf4jnsgd1na2vs0mg"},{"bike_id":"fb2e36e4-0fcd-4edd-b6d5-be8d9b1e3f53","system_id":"levelo_inurba_marseille","lat":43.30434,"lon":5.38883,"is_reserved":false,"is_disabled":false,"rental_uris":{"android":"levelo://app?vid=fb2e36e4-0fcd-4edd-b6d5-be8d9b1e3f53","ios":"levelo://app?vid=fb2e36e4-0fcd-4edd-b6d5-be8d9b1e3f53"},"vehicle_type_id":"4","last_reported":1726405989,"current_range_meters":4400,"station_id":"ce4bgk12rcd13ifvqbi0","pricing_plan_id":"cebpf4jnsgd1na2vs0mg"},{"bike_id":"dfc7e944-178a-43bd-85e8-0abf1cafc416","system_id":"levelo_inurba_marseille","lat":43.22923,"lon":5.35376,"is_reserved":false,"is_disabled":false,"rental_uris":{"android":"levelo://app?vid=dfc7e944-178a-43bd-85e8-0abf1cafc416","ios":"levelo://app?vid=dfc7e944-178a-43bd-85e8-0abf1cafc416"},"vehicle_type_id":"4","last_reported":1726405989,"current_range_meters":22000,"station_id":"cpo3532slgdg3j2ikp40","pricing_plan_id":"cebpf4jnsgd1na2vs0mg"},{"bike_id":"354f931f-0632-45e1-8742-ec6ddc3feef8","system_id":"levelo_inurba_marseille","lat":43.28418,"lon":5.34991,"is_reserved":false,"is_disabled":false,"rental_uris":{"android":"levelo://app?vid=354f931f-0632-45e1-8742-ec6ddc3feef8","ios":"levelo://app?vid=354f931f-0632-45e1-8742-ec6ddc3feef8"},"vehicle_type_id":"4","last_reported":1726405989,"current_range_meters":34000,"station_id":"ce4bhbh2rcd13ifvqepg","pricing_plan_id":"cebpf4jnsgd1na2vs0mg"},{"bike_id":"9b52229f-ae43-4064-b1ab-37b89ce77230","system_id":"levelo_inurba_marseille","lat":43.30417,"lon":5.41274,"is_reserved":false,"is_disabled":false,"rental_uris":{"android":"levelo://app?vid=9b52229f-ae43-4064-b1ab-37b89ce77230","ios":"levelo://app?vid=9b52229f-ae43-4064-b1ab-37b89ce77230"},"vehicle_type_id":"4","last_reported":1726405989,"current_range_meters":6000,"station_id":"ce4bhop2rcd13ifvqh8g","pricing_plan_id":"cebpf4jnsgd1na2vs0mg"},{"bike_id":"acd02986-fb22-43bc-88f1-d76510ab4603","system_id":"levelo_inurba_marseille","lat":43.33287,"lon":5.39499,"is_reserved":false,"is_disabled":false,"rental_uris":{"android":"levelo://app?vid=acd02986-fb22-43bc-88f1-d76510ab4603","ios":"levelo://app?vid=acd02986-fb22-43bc-88f1-d76510ab4603"},"vehicle_type_id":"4","last_reported":1726405989,"current_range_meters":27600,"station_id":"","pricing_plan_id":"cebpf4jnsgd1na2vs0mg"},{"bike_id":"7bc14114-e12c-41c1-ab2a-a4f019a17326","system_id":"levelo_inurba_marseille","lat":43.23058,"lon":5.35491,"is_reserved":false,"is_disabled":false,"rental_uris":{"android":"levelo://app?vid=7bc14114-e12c-41c1-ab2a-a4f019a17326","ios":"levelo://app?vid=7bc14114-e12c-41c1-ab2a-a4f019a17326"},"vehicle_type_id":"4","last_reported":1726405989,"current_range_meters":26800,"station_id":"cpo3342slgdg3j2ifvpg","pricing_plan_id":"cebpf4jnsgd1na2vs0mg"},{"bike_id":"b645ac77-0d58-4fa9-8ad3-947af8bdb1d9","system_id":"levelo_inurba_marseille","lat":43.29902,"lon":5.43666,"is_reserved":false,"is_disabled":false,"rental_uris":{"android":"levelo://app?vid=b645ac77-0d58-4fa9-8ad3-947af8bdb1d9","ios":"levelo://app?vid=b645ac77-0d58-4fa9-8ad3-947af8bdb1d9"},"vehicle_type_id":"4","last_reported":1726405989,"current_range_meters":34000,"station_id":"ce4bhpp2rcd13ifvqhfg","pricing_plan_id":"cebpf4jnsgd1na2vs0mg"},{"bike_id":"03515e55-0de8-4f6d-953a-abbf71a9cce4","system_id":"levelo_inurba_marseille","lat":43.24071,"lon":5.37759,"is_reserved":false,"is_disabled":false,"rental_uris":{"android":"levelo://app?vid=03515e55-0de8-4f6d-953a-abbf71a9cce4","ios":"levelo://app?vid=03515e55-0de8-4f6d-953a-abbf71a9cce4"},"vehicle_type_id":"4","last_reported":1726405989,"current_range_meters":17200,"station_id":"ce4bhnp2rcd13ifvqgvg","pricing_plan_id":"cebpf4jnsgd1na2vs0mg"},{"bike_id":"31d39b5d-3518-4324-99d5-ea5f2a6ca03e","system_id":"levelo_inurba_marseille","lat":43.23057,"lon":5.35494,"is_reserved":false,"is_disabled":false,"rental_uris":{"android":"levelo://app?vid=31d39b5d-3518-4324-99d5-ea5f2a6ca03e","ios":"levelo://app?vid=31d39b5d-3518-4324-99d5-ea5f2a6ca03e"},"vehicle_type_id":"4","last_reported":1726405989,"current_range_meters":32400,"station_id":"cpo3342slgdg3j2ifvpg","pricing_plan_id":"cebpf4jnsgd1na2vs0mg"},{"bike_id":"91d155a1-0e95-42f4-9cf2-24e586735a13","system_id":"levelo_inurba_marseille","lat":43.33722,"lon":5.39181,"is_reserved":false,"is_disabled":false,"rental_uris":{"android":"levelo://app?vid=91d155a1-0e95-42f4-9cf2-24e586735a13","ios":"levelo://app?vid=91d155a1-0e95-42f4-9cf2-24e586735a13"},"vehicle_type_id":"4","last_reported":1726405989,"current_range_meters":39200,"station_id":"ce4bhr92rcd13ifvqhsg","pricing_plan_id":"cebpf4jnsgd1na2vs0mg"},{"bike_id":"c4442831-5b8d-47f9-a6db-f0ce6de3c34c","system_id":"levelo_inurba_marseille","lat":43.28271,"lon":5.35075,"is_reserved":false,"is_disabled":false,"rental_uris":{"android":"levelo://app?vid=c4442831-5b8d-47f9-a6db-f0ce6de3c34c","ios":"levelo://app?vid=c4442831-5b8d-47f9-a6db-f0ce6de3c34c"},"vehicle_type_id":"4","last_reported":1726405989,"current_range_meters":18000,"station_id":"ce4bhbp2rcd13ifvqerg","pricing_plan_id":"cebpf4jnsgd1na2vs0mg"},{"bike_id":"b00d6d0d-9b69-4bac-adae-46e5a982b2f2","system_id":"levelo_inurba_marseille","lat":43.31075,"lon":5.38347,"is_reserved":false,"is_disabled":false,"rental_uris":{"android":"levelo://app?vid=b00d6d0d-9b69-4bac-adae-46e5a982b2f2","ios":"levelo://app?vid=b00d6d0d-9b69-4bac-adae-46e5a982b2f2"},"vehicle_type_id":"4","last_reported":1726405989,"current_range_meters":28800,"station_id":"ce4bgv92rcd13ifvqcr0","pricing_plan_id":"cebpf4jnsgd1na2vs0mg"},{"bike_id":"98b920dc-4a76-4526-83b1-415b00234a56","system_id":"levelo_inurba_marseille","lat":43.28412,"lon":5.34991,"is_reserved":false,"is_disabled":false,"rental_uris":{"android":"levelo://app?vid=98b920dc-4a76-4526-83b1-415b00234a56","ios":"levelo://app?vid=98b920dc-4a76-4526-83b1-415b00234a56"},"vehicle_type_id":"4","last_reported":1726405989,"current_range_meters":14800,"station_id":"ce4bhbh2rcd13ifvqepg","pricing_plan_id":"cebpf4jnsgd1na2vs0mg"},{"bike_id":"7abc2a25-404a-4f70-a7c0-c89315b5c4bc","system_id":"levelo_inurba_marseille","lat":43.29953,"lon":5.37611,"is_reserved":false,"is_disabled":false,"rental_uris":{"android":"levelo://app?vid=7abc2a25-404a-4f70-a7c0-c89315b5c4bc","ios":"levelo://app?vid=7abc2a25-404a-4f70-a7c0-c89315b5c4bc"},"vehicle_type_id":"4","last_reported":1726405989,"current_range_meters":28400,"station_id":"","pricing_plan_id":"cebpf4jnsgd1na2vs0mg"},{"bike_id":"c22ff3ec-a21f-45bc-bf7e-0863fb8e2638","system_id":"levelo_inurba_marseille","lat":43.30186,"lon":5.36607,"is_reserved":false,"is_disabled":false,"rental_uris":{"android":"levelo://app?vid=c22ff3ec-a21f-45bc-bf7e-0863fb8e2638","ios":"levelo://app?vid=c22ff3ec-a21f-45bc-bf7e-0863fb8e2638"},"vehicle_type_id":"4","last_reported":1726405989,"current_range_meters":12000,"station_id":"ce4bgrh2rcd13ifvqc8g","pricing_plan_id":"cebpf4jnsgd1na2vs0mg"},{"bike_id":"680b296f-8a9e-4ce9-90dd-5edf4faa61c1","system_id":"levelo_inurba_marseille","lat":43.31763,"lon":5.39015,"is_reserved":false,"is_disabled":false,"rental_uris":{"android":"levelo://app?vid=680b296f-8a9e-4ce9-90dd-5edf4faa61c1","ios":"levelo://app?vid=680b296f-8a9e-4ce9-90dd-5edf4faa61c1"},"vehicle_type_id":"4","last_reported":1726405989,"current_range_meters":38400,"station_id":"ce4bhqp2rcd13ifvqhng","pricing_plan_id":"cebpf4jnsgd1na2vs0mg"},{"bike_id":"bbd2450a-84a7-42e1-bc94-af6bf7be8eb5","system_id":"levelo_inurba_marseille","lat":43.33023,"lon":5.39039,"is_reserved":false,"is_disabled":false,"rental_uris":{"android":"levelo://app?vid=bbd2450a-84a7-42e1-bc94-af6bf7be8eb5","ios":"levelo://app?vid=bbd2450a-84a7-42e1-bc94-af6bf7be8eb5"},"vehicle_type_id":"4","last_reported":1726405989,"current_range_meters":32800,"station_id":"ce4bhr92rcd13ifvqhrg","pricing_plan_id":"cebpf4jnsgd1na2vs0mg"},{"bike_id":"6f35c12e-d335-43b9-b4b4-448f434edd1c","system_id":"levelo_inurba_marseille","lat":43.33728,"lon":5.39181,"is_reserved":false,"is_disabled":false,"rental_uris":{"android":"levelo://app?vid=6f35c12e-d335-43b9-b4b4-448f434edd1c","ios":"levelo://app?vid=6f35c12e-d335-43b9-b4b4-448f434edd1c"},"vehicle_type_id":"4","last_reported":1726405989,"current_range_meters":36800,"station_id":"ce4bhr92rcd13ifvqhsg","pricing_plan_id":"cebpf4jnsgd1na2vs0mg"},{"bike_id":"46fa0628-63da-403c-a9e3-76cf9989cf96","system_id":"levelo_inurba_marseille","lat":43.31328,"lon":5.39691,"is_reserved":false,"is_disabled":false,"rental_uris":{"android":"levelo://app?vid=46fa0628-63da-403c-a9e3-76cf9989cf96","ios":"levelo://app?vid=46fa0628-63da-403c-a9e3-76cf9989cf96"},"vehicle_type_id":"4","last_reported":1726405989,"current_range_meters":38800,"station_id":"ce4bgvp2rcd13ifvqcu0","pricing_plan_id":"cebpf4jnsgd1na2vs0mg"},{"bike_id":"a5b9893a-69ee-452e-a569-2236e1a73750","system_id":"levelo_inurba_marseille","lat":43.25503,"lon":5.37654,"is_reserved":false,"is_disabled":false,"rental_uris":{"android":"levelo://app?vid=a5b9893a-69ee-452e-a569-2236e1a73750","ios":"levelo://app?vid=a5b9893a-69ee-452e-a569-2236e1a73750"},"vehicle_type_id":"4","last_reported":1726405989,"current_range_meters":36800,"station_id":"ce4bhh12rcd13ifvqff0","pricing_plan_id":"cebpf4jnsgd1na2vs0mg"},{"bike_id":"ac2f8b18-c4e8-4836-947b-b533a20a9549","system_id":"levelo_inurba_marseille","lat":43.29034,"lon":5.35918,"is_reserved":false,"is_disabled":false,"rental_uris":{"android":"levelo://app?vid=ac2f8b18-c4e8-4836-947b-b533a20a9549","ios":"levelo://app?vid=ac2f8b18-c4e8-4836-947b-b533a20a9549"},"vehicle_type_id":"4","last_reported":1726405989,"current_range_meters":34800,"station_id":"ce4bha92rcd13ifvqeg0","pricing_plan_id":"cebpf4jnsgd1na2vs0mg"},{"bike_id":"552ccea4-a0ab-4fa2-9015-1ea8da64cd61","system_id":"levelo_inurba_marseille","lat":43.25574,"lon":5.38242,"is_reserved":false,"is_disabled":false,"rental_uris":{"android":"levelo://app?vid=552ccea4-a0ab-4fa2-9015-1ea8da64cd61","ios":"levelo://app?vid=552ccea4-a0ab-4fa2-9015-1ea8da64cd61"},"vehicle_type_id":"4","last_reported":1726405989,"current_range_meters":3600,"station_id":"ce4bhih2rcd13ifvqfs0","pricing_plan_id":"cebpf4jnsgd1na2vs0mg"},{"bike_id":"c979dfc3-35c3-4581-bddc-204d4a80487c","system_id":"levelo_inurba_marseille","lat":43.28279,"lon":5.35062,"is_reserved":false,"is_disabled":false,"rental_uris":{"android":"levelo://app?vid=c979dfc3-35c3-4581-bddc-204d4a80487c","ios":"levelo://app?vid=c979dfc3-35c3-4581-bddc-204d4a80487c"},"vehicle_type_id":"4","last_reported":1726405989,"current_range_meters":38800,"station_id":"ce4bhbp2rcd13ifvqerg","pricing_plan_id":"cebpf4jnsgd1na2vs0mg"},{"bike_id":"af19c6cc-2de7-42d0-b57a-f8bb4d7d3bbf","system_id":"levelo_inurba_marseille","lat":43.3108,"lon":5.42429,"is_reserved":false,"is_disabled":false,"rental_uris":{"android":"levelo://app?vid=af19c6cc-2de7-42d0-b57a-f8bb4d7d3bbf","ios":"levelo://app?vid=af19c6cc-2de7-42d0-b57a-f8bb4d7d3bbf"},"vehicle_type_id":"4","last_reported":1726405989,"current_range_meters":7200,"station_id":"ce4bhp92rcd13ifvqhag","pricing_plan_id":"cebpf4jnsgd1na2vs0mg"},{"bike_id":"b8cfd7e7-5313-497a-b136-54748d691d21","system_id":"levelo_inurba_marseille","lat":43.31716,"lon":5.43704,"is_reserved":false,"is_disabled":false,"rental_uris":{"android":"levelo://app?vid=b8cfd7e7-5313-497a-b136-54748d691d21","ios":"levelo://app?vid=b8cfd7e7-5313-497a-b136-54748d691d21"},"vehicle_type_id":"4","last_reported":1726405989,"current_range_meters":38800,"station_id":"ce4bhp92rcd13ifvqhcg","pricing_plan_id":"cebpf4jnsgd1na2vs0mg"},{"bike_id":"b2ab15ce-8752-4a7f-9d28-aa53fc49472e","system_id":"levelo_inurba_marseille","lat":43.24665,"lon":5.38163,"is_reserved":false,"is_disabled":false,"rental_uris":{"android":"levelo://app?vid=b2ab15ce-8752-4a7f-9d28-aa53fc49472e","ios":"levelo://app?vid=b2ab15ce-8752-4a7f-9d28-aa53fc49472e"},"vehicle_type_id":"4","last_reported":1726405989,"current_range_meters":39200,"station_id":"ce4bhih2rcd13ifvqfr0","pricing_plan_id":"cebpf4jnsgd1na2vs0mg"},{"bike_id":"e913674e-3e20-42a5-890a-6007ca92b33d","system_id":"levelo_inurba_marseille","lat":43.31331,"lon":5.39689,"is_reserved":false,"is_disabled":false,"rental_uris":{"android":"levelo://app?vid=e913674e-3e20-42a5-890a-6007ca92b33d","ios":"levelo://app?vid=e913674e-3e20-42a5-890a-6007ca92b33d"},"vehicle_type_id":"4","last_reported":1726405989,"current_range_meters":30400,"station_id":"ce4bgvp2rcd13ifvqcu0","pricing_plan_id":"cebpf4jnsgd1na2vs0mg"},{"bike_id":"7251d55d-befd-400d-90d9-ab0b68ba8caa","system_id":"levelo_inurba_marseille","lat":43.24811,"lon":5.37456,"is_reserved":false,"is_disabled":false,"rental_uris":{"android":"levelo://app?vid=7251d55d-befd-400d-90d9-ab0b68ba8caa","ios":"levelo://app?vid=7251d55d-befd-400d-90d9-ab0b68ba8caa"},"vehicle_type_id":"4","last_reported":1726405989,"current_range_meters":37600,"station_id":"ce4bhgh2rcd13ifvqfb0","pricing_plan_id":"cebpf4jnsgd1na2vs0mg"},{"bike_id":"53a2d874-293d-47cc-bdbd-a03b3468623b","system_id":"levelo_inurba_marseille","lat":43.29904,"lon":5.43667,"is_reserved":false,"is_disabled":false,"rental_uris":{"android":"levelo://app?vid=53a2d874-293d-47cc-bdbd-a03b3468623b","ios":"levelo://app?vid=53a2d874-293d-47cc-bdbd-a03b3468623b"},"vehicle_type_id":"4","last_reported":1726405989,"current_range_meters":4000,"station_id":"ce4bhpp2rcd13ifvqhfg","pricing_plan_id":"cebpf4jnsgd1na2vs0mg"},{"bike_id":"bedea1b3-8f91-4f86-aaab-90d02ddc3b47","system_id":"levelo_inurba_marseille","lat":43.301239,"lon":5.398586,"is_reserved":false,"is_disabled":false,"rental_uris":{"android":"levelo://app?vid=bedea1b3-8f91-4f86-aaab-90d02ddc3b47","ios":"levelo://app?vid=bedea1b3-8f91-4f86-aaab-90d02ddc3b47"},"vehicle_type_id":"4","last_reported":1726405989,"current_range_meters":8400,"station_id":"ce4bh0h2rcd13ifvqd40","pricing_plan_id":"cebpf4jnsgd1na2vs0mg"},{"bike_id":"bb7acf50-b6bc-4b2d-adf4-833abc23b24c","system_id":"levelo_inurba_marseille","lat":43.23196,"lon":5.35545,"is_reserved":false,"is_disabled":false,"rental_uris":{"android":"levelo://app?vid=bb7acf50-b6bc-4b2d-adf4-833abc23b24c","ios":"levelo://app?vid=bb7acf50-b6bc-4b2d-adf4-833abc23b24c"},"vehicle_type_id":"4","last_reported":1726405989,"current_range_meters":39200,"station_id":"ce4bhu92rcd13ifvqi70","pricing_plan_id":"cebpf4jnsgd1na2vs0mg"},{"bike_id":"19628bd1-9172-46c3-bfa1-37d603408e00","system_id":"levelo_inurba_marseille","lat":43.31329,"lon":5.39694,"is_reserved":false,"is_disabled":false,"rental_uris":{"android":"levelo://app?vid=19628bd1-9172-46c3-bfa1-37d603408e00","ios":"levelo://app?vid=19628bd1-9172-46c3-bfa1-37d603408e00"},"vehicle_type_id":"4","last_reported":1726405989,"current_range_meters":38800,"station_id":"ce4bgvp2rcd13ifvqcu0","pricing_plan_id":"cebpf4jnsgd1na2vs0mg"},{"bike_id":"4c1ecf41-3292-4a63-a103-401c0bb6cad5","system_id":"levelo_inurba_marseille","lat":43.23961,"lon":5.36629,"is_reserved":false,"is_disabled":false,"rental_uris":{"android":"levelo://app?vid=4c1ecf41-3292-4a63-a103-401c0bb6cad5","ios":"levelo://app?vid=4c1ecf41-3292-4a63-a103-401c0bb6cad5"},"vehicle_type_id":"4","last_reported":1726405989,"current_range_meters":24000,"station_id":"ce4bhi12rcd13ifvqfp0","pricing_plan_id":"cebpf4jnsgd1na2vs0mg"},{"bike_id":"cca1ffde-e5c4-41b3-a3a1-2568de205943","system_id":"levelo_inurba_marseille","lat":43.29578,"lon":5.36734,"is_reserved":false,"is_disabled":false,"rental_uris":{"android":"levelo://app?vid=cca1ffde-e5c4-41b3-a3a1-2568de205943","ios":"levelo://app?vid=cca1ffde-e5c4-41b3-a3a1-2568de205943"},"vehicle_type_id":"4","last_reported":1726405989,"current_range_meters":36800,"station_id":"ce4bgph2rcd13ifvqc2g","pricing_plan_id":"cebpf4jnsgd1na2vs0mg"},{"bike_id":"4f7130ec-befa-4a28-b02a-5a6702e804c2","system_id":"levelo_inurba_marseille","lat":43.28657,"lon":5.36342,"is_reserved":false,"is_disabled":false,"rental_uris":{"android":"levelo://app?vid=4f7130ec-befa-4a28-b02a-5a6702e804c2","ios":"levelo://app?vid=4f7130ec-befa-4a28-b02a-5a6702e804c2"},"vehicle_type_id":"4","last_reported":1726405989,"current_range_meters":23200,"station_id":"ce4bhah2rcd13ifvqej0","pricing_plan_id":"cebpf4jnsgd1na2vs0mg"},{"bike_id":"32d0c597-1844-4063-8b8b-02724571adbc","system_id":"levelo_inurba_marseille","lat":43.31722,"lon":5.4239,"is_reserved":false,"is_disabled":false,"rental_uris":{"android":"levelo://app?vid=32d0c597-1844-4063-8b8b-02724571adbc","ios":"levelo://app?vid=32d0c597-1844-4063-8b8b-02724571adbc"},"vehicle_type_id":"4","last_reported":1726405989,"current_range_meters":38800,"station_id":"ce4bhp92rcd13ifvqhbg","pricing_plan_id":"cebpf4jnsgd1na2vs0mg"},{"bike_id":"9d3d0e56-768e-4892-a48d-97d25cda04cf","system_id":"levelo_inurba_marseille","lat":43.315,"lon":5.37305,"is_reserved":false,"is_disabled":false,"rental_uris":{"android":"levelo://app?vid=9d3d0e56-768e-4892-a48d-97d25cda04cf","ios":"levelo://app?vid=9d3d0e56-768e-4892-a48d-97d25cda04cf"},"vehicle_type_id":"4","last_reported":1726405989,"current_range_meters":20800,"station_id":"ce4bgt12rcd13ifvqcd0","pricing_plan_id":"cebpf4jnsgd1na2vs0mg"},{"bike_id":"f01ed242-6f65-4e9b-b00b-6887c508d6fb","system_id":"levelo_inurba_marseille","lat":43.27323,"lon":5.39069,"is_reserved":false,"is_disabled":false,"rental_uris":{"android":"levelo://app?vid=f01ed242-6f65-4e9b-b00b-6887c508d6fb","ios":"levelo://app?vid=f01ed242-6f65-4e9b-b00b-6887c508d6fb"},"vehicle_type_id":"4","last_reported":1726405989,"current_range_meters":8800,"station_id":"ce4bhgp2rcd13ifvqfe0","pricing_plan_id":"cebpf4jnsgd1na2vs0mg"},{"bike_id":"14e3114d-8408-486b-a448-7ee1e2190eff","system_id":"levelo_inurba_marseille","lat":43.28422,"lon":5.34989,"is_reserved":false,"is_disabled":false,"rental_uris":{"android":"levelo://app?vid=14e3114d-8408-486b-a448-7ee1e2190eff","ios":"levelo://app?vid=14e3114d-8408-486b-a448-7ee1e2190eff"},"vehicle_type_id":"4","last_reported":1726405989,"current_range_meters":26000,"station_id":"ce4bhbh2rcd13ifvqepg","pricing_plan_id":"cebpf4jnsgd1na2vs0mg"},{"bike_id":"d56cbbe5-b13f-48cb-8b7d-140885a7b197","system_id":"levelo_inurba_marseille","lat":43.3132,"lon":5.39698,"is_reserved":false,"is_disabled":false,"rental_uris":{"android":"levelo://app?vid=d56cbbe5-b13f-48cb-8b7d-140885a7b197","ios":"levelo://app?vid=d56cbbe5-b13f-48cb-8b7d-140885a7b197"},"vehicle_type_id":"4","last_reported":1726405989,"current_range_meters":18000,"station_id":"ce4bgvp2rcd13ifvqcu0","pricing_plan_id":"cebpf4jnsgd1na2vs0mg"},{"bike_id":"bb046787-1b6f-4a52-9f6c-67f38be48f9e","system_id":"levelo_inurba_marseille","lat":43.24542,"lon":5.39523,"is_reserved":false,"is_disabled":false,"rental_uris":{"android":"levelo://app?vid=bb046787-1b6f-4a52-9f6c-67f38be48f9e","ios":"levelo://app?vid=bb046787-1b6f-4a52-9f6c-67f38be48f9e"},"vehicle_type_id":"4","last_reported":1726405989,"current_range_meters":30800,"station_id":"ce4bhlp2rcd13ifvqgjg","pricing_plan_id":"cebpf4jnsgd1na2vs0mg"},{"bike_id":"088a6b8e-d7b6-484e-8365-e11bc44d9230","system_id":"levelo_inurba_marseille","lat":43.26556,"lon":5.37284,"is_reserved":false,"is_disabled":false,"rental_uris":{"android":"levelo://app?vid=088a6b8e-d7b6-484e-8365-e11bc44d9230","ios":"levelo://app?vid=088a6b8e-d7b6-484e-8365-e11bc44d9230"},"vehicle_type_id":"4","last_reported":1726405989,"current_range_meters":18800,"station_id":"ce4bhg12rcd13ifvqf70","pricing_plan_id":"cebpf4jnsgd1na2vs0mg"},{"bike_id":"b50c6414-87ff-4b18-ac48-91ad87e96b1f","system_id":"levelo_inurba_marseille","lat":43.31887,"lon":5.4073,"is_reserved":false,"is_disabled":false,"rental_uris":{"android":"levelo://app?vid=b50c6414-87ff-4b18-ac48-91ad87e96b1f","ios":"levelo://app?vid=b50c6414-87ff-4b18-ac48-91ad87e96b1f"},"vehicle_type_id":"4","last_reported":1726405989,"current_range_meters":8000,"station_id":"ce4bhq12rcd13ifvqhig","pricing_plan_id":"cebpf4jnsgd1na2vs0mg"},{"bike_id":"1327df04-3825-4e7e-8682-208219df9cf7","system_id":"levelo_inurba_marseille","lat":43.30788,"lon":5.3765,"is_reserved":false,"is_disabled":false,"rental_uris":{"android":"levelo://app?vid=1327df04-3825-4e7e-8682-208219df9cf7","ios":"levelo://app?vid=1327df04-3825-4e7e-8682-208219df9cf7"},"vehicle_type_id":"4","last_reported":1726405989,"current_range_meters":40000,"station_id":"ce4bgv92rcd13ifvqcq0","pricing_plan_id":"cebpf4jnsgd1na2vs0mg"},{"bike_id":"e040efde-f85a-42e1-b011-6999076e9e17","system_id":"levelo_inurba_marseille","lat":43.23187,"lon":5.39984,"is_reserved":false,"is_disabled":false,"rental_uris":{"android":"levelo://app?vid=e040efde-f85a-42e1-b011-6999076e9e17","ios":"levelo://app?vid=e040efde-f85a-42e1-b011-6999076e9e17"},"vehicle_type_id":"4","last_reported":1726405989,"current_range_meters":15200,"station_id":"ce4bhn12rcd13ifvqgqg","pricing_plan_id":"cebpf4jnsgd1na2vs0mg"},{"bike_id":"6bcc742b-48ce-4914-8d02-15bb6fc592ab","system_id":"levelo_inurba_marseille","lat":43.25579,"lon":5.38224,"is_reserved":false,"is_disabled":false,"rental_uris":{"android":"levelo://app?vid=6bcc742b-48ce-4914-8d02-15bb6fc592ab","ios":"levelo://app?vid=6bcc742b-48ce-4914-8d02-15bb6fc592ab"},"vehicle_type_id":"4","last_reported":1726405989,"current_range_meters":6800,"station_id":"ce4bhih2rcd13ifvqfs0","pricing_plan_id":"cebpf4jnsgd1na2vs0mg"},{"bike_id":"88da6985-12f5-4849-8bd3-bd412b033b29","system_id":"levelo_inurba_marseille","lat":43.23063,"lon":5.35486,"is_reserved":false,"is_disabled":false,"rental_uris":{"android":"levelo://app?vid=88da6985-12f5-4849-8bd3-bd412b033b29","ios":"levelo://app?vid=88da6985-12f5-4849-8bd3-bd412b033b29"},"vehicle_type_id":"4","last_reported":1726405989,"current_range_meters":11600,"station_id":"cpo3342slgdg3j2ifvpg","pricing_plan_id":"cebpf4jnsgd1na2vs0mg"},{"bike_id":"ccc81115-c769-40cb-a420-a414e3f0cc3b","system_id":"levelo_inurba_marseille","lat":43.24389,"lon":5.37061,"is_reserved":false,"is_disabled":false,"rental_uris":{"android":"levelo://app?vid=ccc81115-c769-40cb-a420-a414e3f0cc3b","ios":"levelo://app?vid=ccc81115-c769-40cb-a420-a414e3f0cc3b"},"vehicle_type_id":"4","last_reported":1726405989,"current_range_meters":37600,"station_id":"ce4bhhh2rcd13ifvqfk0","pricing_plan_id":"cebpf4jnsgd1na2vs0mg"},{"bike_id":"9a989ab9-ddf0-492e-bf4f-18a2ccc1505e","system_id":"levelo_inurba_marseille","lat":43.30303,"lon":5.392,"is_reserved":false,"is_disabled":false,"rental_uris":{"android":"levelo://app?vid=9a989ab9-ddf0-492e-bf4f-18a2ccc1505e","ios":"levelo://app?vid=9a989ab9-ddf0-492e-bf4f-18a2ccc1505e"},"vehicle_type_id":"4","last_reported":1726405989,"current_range_meters":37600,"station_id":"ce4bgkh2rcd13ifvqbk0","pricing_plan_id":"cebpf4jnsgd1na2vs0mg"},{"bike_id":"0a692c33-2ede-4ca6-b044-3c8bef2017da","system_id":"levelo_inurba_marseille","lat":43.25505,"lon":5.3765,"is_reserved":false,"is_disabled":false,"rental_uris":{"android":"levelo://app?vid=0a692c33-2ede-4ca6-b044-3c8bef2017da","ios":"levelo://app?vid=0a692c33-2ede-4ca6-b044-3c8bef2017da"},"vehicle_type_id":"4","last_reported":1726405989,"current_range_meters":36000,"station_id":"ce4bhh12rcd13ifvqff0","pricing_plan_id":"cebpf4jnsgd1na2vs0mg"},{"bike_id":"3cd2835c-4b6f-488e-888f-590aa9d34f71","system_id":"levelo_inurba_marseille","lat":43.25492,"lon":5.37648,"is_reserved":false,"is_disabled":false,"rental_uris":{"android":"levelo://app?vid=3cd2835c-4b6f-488e-888f-590aa9d34f71","ios":"levelo://app?vid=3cd2835c-4b6f-488e-888f-590aa9d34f71"},"vehicle_type_id":"4","last_reported":1726405989,"current_range_meters":18800,"station_id":"ce4bhh12rcd13ifvqff0","pricing_plan_id":"cebpf4jnsgd1na2vs0mg"},{"bike_id":"1bc9d53d-f228-4234-abfc-c301ec520ce7","system_id":"levelo_inurba_marseille","lat":43.291998,"lon":5.358024,"is_reserved":false,"is_disabled":false,"rental_uris":{"android":"levelo://app?vid=1bc9d53d-f228-4234-abfc-c301ec520ce7","ios":"levelo://app?vid=1bc9d53d-f228-4234-abfc-c301ec520ce7"},"vehicle_type_id":"4","last_reported":1726405989,"current_range_meters":24400,"station_id":"ce4bhb12rcd13ifvqel0","pricing_plan_id":"cebpf4jnsgd1na2vs0mg"},{"bike_id":"47f1f0bd-5ef6-4986-adc8-20c9de8863c2","system_id":"levelo_inurba_marseille","lat":43.29834,"lon":5.36249,"is_reserved":false,"is_disabled":false,"rental_uris":{"android":"levelo://app?vid=47f1f0bd-5ef6-4986-adc8-20c9de8863c2","ios":"levelo://app?vid=47f1f0bd-5ef6-4986-adc8-20c9de8863c2"},"vehicle_type_id":"4","last_reported":1726405989,"current_range_meters":38800,"station_id":"ce4bgpp2rcd13ifvqc3g","pricing_plan_id":"cebpf4jnsgd1na2vs0mg"},{"bike_id":"6d2f1fdf-ef85-4dbc-b421-2602e9d32ca8","system_id":"levelo_inurba_marseille","lat":43.25933,"lon":5.40913,"is_reserved":false,"is_disabled":false,"rental_uris":{"android":"levelo://app?vid=6d2f1fdf-ef85-4dbc-b421-2602e9d32ca8","ios":"levelo://app?vid=6d2f1fdf-ef85-4dbc-b421-2602e9d32ca8"},"vehicle_type_id":"4","last_reported":1726405989,"current_range_meters":20400,"station_id":"ce4bhm92rcd13ifvqglg","pricing_plan_id":"cebpf4jnsgd1na2vs0mg"},{"bike_id":"88aca603-720f-4199-8e0d-6c0f21bb4117","system_id":"levelo_inurba_marseille","lat":43.29036,"lon":5.355942,"is_reserved":false,"is_disabled":false,"rental_uris":{"android":"levelo://app?vid=88aca603-720f-4199-8e0d-6c0f21bb4117","ios":"levelo://app?vid=88aca603-720f-4199-8e0d-6c0f21bb4117"},"vehicle_type_id":"4","last_reported":1726405989,"current_range_meters":8400,"station_id":"ce4bhb92rcd13ifvqen0","pricing_plan_id":"cebpf4jnsgd1na2vs0mg"},{"bike_id":"d09aedb3-0212-456b-a0d7-0a019f75665d","system_id":"levelo_inurba_marseille","lat":43.23155,"lon":5.43696,"is_reserved":false,"is_disabled":false,"rental_uris":{"android":"levelo://app?vid=d09aedb3-0212-456b-a0d7-0a019f75665d","ios":"levelo://app?vid=d09aedb3-0212-456b-a0d7-0a019f75665d"},"vehicle_type_id":"4","last_reported":1726405989,"current_range_meters":38800,"station_id":"ce4bhmp2rcd13ifvqgog","pricing_plan_id":"cebpf4jnsgd1na2vs0mg"},{"bike_id":"2a29b635-860d-4fcf-b9ef-7b9429843b40","system_id":"levelo_inurba_marseille","lat":43.31723,"lon":5.42399,"is_reserved":false,"is_disabled":false,"rental_uris":{"android":"levelo://app?vid=2a29b635-860d-4fcf-b9ef-7b9429843b40","ios":"levelo://app?vid=2a29b635-860d-4fcf-b9ef-7b9429843b40"},"vehicle_type_id":"4","last_reported":1726405989,"current_range_meters":37600,"station_id":"ce4bhp92rcd13ifvqhbg","pricing_plan_id":"cebpf4jnsgd1na2vs0mg"},{"bike_id":"87f62058-7e53-421c-8124-b8caa671cc5c","system_id":"levelo_inurba_marseille","lat":43.284149,"lon":5.349693,"is_reserved":false,"is_disabled":false,"rental_uris":{"android":"levelo://app?vid=87f62058-7e53-421c-8124-b8caa671cc5c","ios":"levelo://app?vid=87f62058-7e53-421c-8124-b8caa671cc5c"},"vehicle_type_id":"4","last_reported":1726405989,"current_range_meters":4800,"station_id":"ce4bhbh2rcd13ifvqepg","pricing_plan_id":"cebpf4jnsgd1na2vs0mg"},{"bike_id":"8b5a0209-cd58-4ad2-8e68-9e0672d366ec","system_id":"levelo_inurba_marseille","lat":43.23129,"lon":5.43701,"is_reserved":false,"is_disabled":false,"rental_uris":{"android":"levelo://app?vid=8b5a0209-cd58-4ad2-8e68-9e0672d366ec","ios":"levelo://app?vid=8b5a0209-cd58-4ad2-8e68-9e0672d366ec"},"vehicle_type_id":"4","last_reported":1726405989,"current_range_meters":36400,"station_id":"ce4bhmp2rcd13ifvqgog","pricing_plan_id":"cebpf4jnsgd1na2vs0mg"},{"bike_id":"5fb80b9c-4c90-47a0-bb0f-a0abc69b22ef","system_id":"levelo_inurba_marseille","lat":43.28929,"lon":5.36651,"is_reserved":false,"is_disabled":false,"rental_uris":{"android":"levelo://app?vid=5fb80b9c-4c90-47a0-bb0f-a0abc69b22ef","ios":"levelo://app?vid=5fb80b9c-4c90-47a0-bb0f-a0abc69b22ef"},"vehicle_type_id":"4","last_reported":1726405989,"current_range_meters":6800,"station_id":"ce4bhap2rcd13ifvqek0","pricing_plan_id":"cebpf4jnsgd1na2vs0mg"},{"bike_id":"43412657-8f93-44d7-90fb-da7639962547","system_id":"levelo_inurba_marseille","lat":43.33723,"lon":5.39176,"is_reserved":false,"is_disabled":false,"rental_uris":{"android":"levelo://app?vid=43412657-8f93-44d7-90fb-da7639962547","ios":"levelo://app?vid=43412657-8f93-44d7-90fb-da7639962547"},"vehicle_type_id":"4","last_reported":1726405989,"current_range_meters":22000,"station_id":"ce4bhr92rcd13ifvqhsg","pricing_plan_id":"cebpf4jnsgd1na2vs0mg"},{"bike_id":"a2a7dd1b-4d18-45d5-adf0-8780a47f4629","system_id":"levelo_inurba_marseille","lat":43.28155,"lon":5.42643,"is_reserved":false,"is_disabled":false,"rental_uris":{"android":"levelo://app?vid=a2a7dd1b-4d18-45d5-adf0-8780a47f4629","ios":"levelo://app?vid=a2a7dd1b-4d18-45d5-adf0-8780a47f4629"},"vehicle_type_id":"4","last_reported":1726405989,"current_range_meters":12800,"station_id":"ce4bhnh2rcd13ifvqgug","pricing_plan_id":"cebpf4jnsgd1na2vs0mg"},{"bike_id":"ff7f113d-329b-4f28-b5d1-8725d7930b37","system_id":"levelo_inurba_marseille","lat":43.3155,"lon":5.37999,"is_reserved":false,"is_disabled":false,"rental_uris":{"android":"levelo://app?vid=ff7f113d-329b-4f28-b5d1-8725d7930b37","ios":"levelo://app?vid=ff7f113d-329b-4f28-b5d1-8725d7930b37"},"vehicle_type_id":"4","last_reported":1726405989,"current_range_meters":10800,"station_id":"ce4bhsp2rcd13ifvqi50","pricing_plan_id":"cebpf4jnsgd1na2vs0mg"},{"bike_id":"61e00977-be43-400f-99ea-3c33330f7657","system_id":"levelo_inurba_marseille","lat":43.25007,"lon":5.38914,"is_reserved":false,"is_disabled":false,"rental_uris":{"android":"levelo://app?vid=61e00977-be43-400f-99ea-3c33330f7657","ios":"levelo://app?vid=61e00977-be43-400f-99ea-3c33330f7657"},"vehicle_type_id":"4","last_reported":1726405989,"current_range_meters":13600,"station_id":"ce4bhgp2rcd13ifvqfd0","pricing_plan_id":"cebpf4jnsgd1na2vs0mg"},{"bike_id":"d1f38fcd-be46-4877-a9ac-34b365272c30","system_id":"levelo_inurba_marseille","lat":43.27102,"lon":5.43322,"is_reserved":false,"is_disabled":false,"rental_uris":{"android":"levelo://app?vid=d1f38fcd-be46-4877-a9ac-34b365272c30","ios":"levelo://app?vid=d1f38fcd-be46-4877-a9ac-34b365272c30"},"vehicle_type_id":"4","last_reported":1726405989,"current_range_meters":15200,"station_id":"","pricing_plan_id":"cebpf4jnsgd1na2vs0mg"},{"bike_id":"2c36f173-7fe7-45a3-b0b4-69fddd6ecd2c","system_id":"levelo_inurba_marseille","lat":43.27614,"lon":5.36115,"is_reserved":false,"is_disabled":false,"rental_uris":{"android":"levelo://app?vid=2c36f173-7fe7-45a3-b0b4-69fddd6ecd2c","ios":"levelo://app?vid=2c36f173-7fe7-45a3-b0b4-69fddd6ecd2c"},"vehicle_type_id":"4","last_reported":1726405989,"current_range_meters":18800,"station_id":"ce4bgj92rcd13ifvqbe0","pricing_plan_id":"cebpf4jnsgd1na2vs0mg"},{"bike_id":"a62f319d-a0b3-4a8f-9809-24b9661da7c1","system_id":"levelo_inurba_marseille","lat":43.28422,"lon":5.34988,"is_reserved":false,"is_disabled":false,"rental_uris":{"android":"levelo://app?vid=a62f319d-a0b3-4a8f-9809-24b9661da7c1","ios":"levelo://app?vid=a62f319d-a0b3-4a8f-9809-24b9661da7c1"},"vehicle_type_id":"4","last_reported":1726405989,"current_range_meters":38800,"station_id":"ce4bhbh2rcd13ifvqepg","pricing_plan_id":"cebpf4jnsgd1na2vs0mg"},{"bike_id":"46492db6-e15b-4d8b-8244-fe4f6cfe1a7f","system_id":"levelo_inurba_marseille","lat":43.28417,"lon":5.34991,"is_reserved":false,"is_disabled":false,"rental_uris":{"android":"levelo://app?vid=46492db6-e15b-4d8b-8244-fe4f6cfe1a7f","ios":"levelo://app?vid=46492db6-e15b-4d8b-8244-fe4f6cfe1a7f"},"vehicle_type_id":"4","last_reported":1726405989,"current_range_meters":38800,"station_id":"ce4bhbh2rcd13ifvqepg","pricing_plan_id":"cebpf4jnsgd1na2vs0mg"},{"bike_id":"f9076aec-56e7-4b2e-a7b1-575337aca9d5","system_id":"levelo_inurba_marseille","lat":43.24173,"lon":5.36395,"is_reserved":false,"is_disabled":false,"rental_uris":{"android":"levelo://app?vid=f9076aec-56e7-4b2e-a7b1-575337aca9d5","ios":"levelo://app?vid=f9076aec-56e7-4b2e-a7b1-575337aca9d5"},"vehicle_type_id":"4","last_reported":1726405989,"current_range_meters":28000,"station_id":"cpo36qri1sfpv3e86is0","pricing_plan_id":"cebpf4jnsgd1na2vs0mg"},{"bike_id":"91f7e9e5-076e-4e3a-8acf-289dc20e3d9f","system_id":"levelo_inurba_marseille","lat":43.31721,"lon":5.4241,"is_reserved":false,"is_disabled":false,"rental_uris":{"android":"levelo://app?vid=91f7e9e5-076e-4e3a-8acf-289dc20e3d9f","ios":"levelo://app?vid=91f7e9e5-076e-4e3a-8acf-289dc20e3d9f"},"vehicle_type_id":"4","last_reported":1726405989,"current_range_meters":37600,"station_id":"ce4bhp92rcd13ifvqhbg","pricing_plan_id":"cebpf4jnsgd1na2vs0mg"},{"bike_id":"255a5389-055c-49e2-84ab-5340ea1e5539","system_id":"levelo_inurba_marseille","lat":43.25497,"lon":5.37649,"is_reserved":false,"is_disabled":false,"rental_uris":{"android":"levelo://app?vid=255a5389-055c-49e2-84ab-5340ea1e5539","ios":"levelo://app?vid=255a5389-055c-49e2-84ab-5340ea1e5539"},"vehicle_type_id":"4","last_reported":1726405989,"current_range_meters":37600,"station_id":"ce4bhh12rcd13ifvqff0","pricing_plan_id":"cebpf4jnsgd1na2vs0mg"},{"bike_id":"d4dcec5a-b0b6-4319-8584-aaf3103d153c","system_id":"levelo_inurba_marseille","lat":43.29562,"lon":5.42276,"is_reserved":false,"is_disabled":false,"rental_uris":{"android":"levelo://app?vid=d4dcec5a-b0b6-4319-8584-aaf3103d153c","ios":"levelo://app?vid=d4dcec5a-b0b6-4319-8584-aaf3103d153c"},"vehicle_type_id":"4","last_reported":1726405989,"current_range_meters":36000,"station_id":"ce4bhph2rcd13ifvqhdg","pricing_plan_id":"cebpf4jnsgd1na2vs0mg"},{"bike_id":"7560168d-c555-4b8e-a518-1c66771c1c72","system_id":"levelo_inurba_marseille","lat":43.24184,"lon":5.39716,"is_reserved":false,"is_disabled":false,"rental_uris":{"android":"levelo://app?vid=7560168d-c555-4b8e-a518-1c66771c1c72","ios":"levelo://app?vid=7560168d-c555-4b8e-a518-1c66771c1c72"},"vehicle_type_id":"4","last_reported":1726405989,"current_range_meters":9600,"station_id":"ce4bhn12rcd13ifvqgpg","pricing_plan_id":"cebpf4jnsgd1na2vs0mg"},{"bike_id":"1055f8b8-d622-45b9-8503-bfae3c47855a","system_id":"levelo_inurba_marseille","lat":43.304932,"lon":5.367157,"is_reserved":false,"is_disabled":false,"rental_uris":{"android":"levelo://app?vid=1055f8b8-d622-45b9-8503-bfae3c47855a","ios":"levelo://app?vid=1055f8b8-d622-45b9-8503-bfae3c47855a"},"vehicle_type_id":"4","last_reported":1726405989,"current_range_meters":24400,"station_id":"ce4bgs12rcd13ifvqcag","pricing_plan_id":"cebpf4jnsgd1na2vs0mg"},{"bike_id":"f3f74a65-5ee1-4528-b8c4-c9269e3777d3","system_id":"levelo_inurba_marseille","lat":43.274956,"lon":5.424219,"is_reserved":false,"is_disabled":false,"rental_uris":{"android":"levelo://app?vid=f3f74a65-5ee1-4528-b8c4-c9269e3777d3","ios":"levelo://app?vid=f3f74a65-5ee1-4528-b8c4-c9269e3777d3"},"vehicle_type_id":"4","last_reported":1726405989,"current_range_meters":8000,"station_id":"ce4bhn92rcd13ifvqgrg","pricing_plan_id":"cebpf4jnsgd1na2vs0mg"},{"bike_id":"5263c75a-b0ca-4e1c-9976-2df708ba914c","system_id":"levelo_inurba_marseille","lat":43.29561,"lon":5.42287,"is_reserved":false,"is_disabled":false,"rental_uris":{"android":"levelo://app?vid=5263c75a-b0ca-4e1c-9976-2df708ba914c","ios":"levelo://app?vid=5263c75a-b0ca-4e1c-9976-2df708ba914c"},"vehicle_type_id":"4","last_reported":1726405989,"current_range_meters":11200,"station_id":"ce4bhph2rcd13ifvqhdg","pricing_plan_id":"cebpf4jnsgd1na2vs0mg"},{"bike_id":"e9dfab26-443e-401f-9abf-7a65d096bd25","system_id":"levelo_inurba_marseille","lat":43.28711,"lon":5.39978,"is_reserved":false,"is_disabled":false,"rental_uris":{"android":"levelo://app?vid=e9dfab26-443e-401f-9abf-7a65d096bd25","ios":"levelo://app?vid=e9dfab26-443e-401f-9abf-7a65d096bd25"},"vehicle_type_id":"4","last_reported":1726405989,"current_range_meters":38000,"station_id":"ce4bho92rcd13ifvqh3g","pricing_plan_id":"cebpf4jnsgd1na2vs0mg"},{"bike_id":"e5fab4f5-3e89-4e4a-b683-ff6962cec895","system_id":"levelo_inurba_marseille","lat":43.24064,"lon":5.37701,"is_reserved":false,"is_disabled":false,"rental_uris":{"android":"levelo://app?vid=e5fab4f5-3e89-4e4a-b683-ff6962cec895","ios":"levelo://app?vid=e5fab4f5-3e89-4e4a-b683-ff6962cec895"},"vehicle_type_id":"4","last_reported":1726405989,"current_range_meters":30000,"station_id":"ce4bhnp2rcd13ifvqgvg","pricing_plan_id":"cebpf4jnsgd1na2vs0mg"},{"bike_id":"322d527e-45c0-4a00-adc7-59648a5fea3e","system_id":"levelo_inurba_marseille","lat":43.231872,"lon":5.355468,"is_reserved":false,"is_disabled":false,"rental_uris":{"android":"levelo://app?vid=322d527e-45c0-4a00-adc7-59648a5fea3e","ios":"levelo://app?vid=322d527e-45c0-4a00-adc7-59648a5fea3e"},"vehicle_type_id":"4","last_reported":1726405989,"current_range_meters":32800,"station_id":"ce4bhu92rcd13ifvqi70","pricing_plan_id":"cebpf4jnsgd1na2vs0mg"},{"bike_id":"65185506-3643-4020-b317-ac1aa986ed9e","system_id":"levelo_inurba_marseille","lat":43.28847,"lon":5.39309,"is_reserved":false,"is_disabled":false,"rental_uris":{"android":"levelo://app?vid=65185506-3643-4020-b317-ac1aa986ed9e","ios":"levelo://app?vid=65185506-3643-4020-b317-ac1aa986ed9e"},"vehicle_type_id":"4","last_reported":1726405989,"current_range_meters":30400,"station_id":"ce4bh2p2rcd13ifvqdi0","pricing_plan_id":"cebpf4jnsgd1na2vs0mg"},{"bike_id":"f1f27f13-3a81-45e4-a950-b4e90aab67df","system_id":"levelo_inurba_marseille","lat":43.23148,"lon":5.43708,"is_reserved":false,"is_disabled":false,"rental_uris":{"android":"levelo://app?vid=f1f27f13-3a81-45e4-a950-b4e90aab67df","ios":"levelo://app?vid=f1f27f13-3a81-45e4-a950-b4e90aab67df"},"vehicle_type_id":"4","last_reported":1726405989,"current_range_meters":25600,"station_id":"ce4bhmp2rcd13ifvqgog","pricing_plan_id":"cebpf4jnsgd1na2vs0mg"},{"bike_id":"93678763-4333-4af4-a349-b34d9f12786d","system_id":"levelo_inurba_marseille","lat":43.2293,"lon":5.35376,"is_reserved":false,"is_disabled":false,"rental_uris":{"android":"levelo://app?vid=93678763-4333-4af4-a349-b34d9f12786d","ios":"levelo://app?vid=93678763-4333-4af4-a349-b34d9f12786d"},"vehicle_type_id":"4","last_reported":1726405989,"current_range_meters":32000,"station_id":"cpo3532slgdg3j2ikp40","pricing_plan_id":"cebpf4jnsgd1na2vs0mg"},{"bike_id":"58bbc258-63d6-4daf-a7b2-c1d7a5766552","system_id":"levelo_inurba_marseille","lat":43.29898,"lon":5.38908,"is_reserved":false,"is_disabled":false,"rental_uris":{"android":"levelo://app?vid=58bbc258-63d6-4daf-a7b2-c1d7a5766552","ios":"levelo://app?vid=58bbc258-63d6-4daf-a7b2-c1d7a5766552"},"vehicle_type_id":"4","last_reported":1726405989,"current_range_meters":25200,"station_id":"ce4bh392rcd13ifvqdl0","pricing_plan_id":"cebpf4jnsgd1na2vs0mg"},{"bike_id":"ad6f2a99-5e7d-421c-91df-6e2b2cbbd548","system_id":"levelo_inurba_marseille","lat":43.29558,"lon":5.42276,"is_reserved":false,"is_disabled":false,"rental_uris":{"android":"levelo://app?vid=ad6f2a99-5e7d-421c-91df-6e2b2cbbd548","ios":"levelo://app?vid=ad6f2a99-5e7d-421c-91df-6e2b2cbbd548"},"vehicle_type_id":"4","last_reported":1726405989,"current_range_meters":27200,"station_id":"ce4bhph2rcd13ifvqhdg","pricing_plan_id":"cebpf4jnsgd1na2vs0mg"},{"bike_id":"cb696e04-837f-4793-9f42-83bba0b5667f","system_id":"levelo_inurba_marseille","lat":43.29582,"lon":5.37508,"is_reserved":false,"is_disabled":false,"rental_uris":{"android":"levelo://app?vid=cb696e04-837f-4793-9f42-83bba0b5667f","ios":"levelo://app?vid=cb696e04-837f-4793-9f42-83bba0b5667f"},"vehicle_type_id":"4","last_reported":1726405989,"current_range_meters":34800,"station_id":"ce4bgh92rcd13ifvqb50","pricing_plan_id":"cebpf4jnsgd1na2vs0mg"},{"bike_id":"6c82db2d-5a8f-4455-b783-2f9e9236cdaf","system_id":"levelo_inurba_marseille","lat":43.27498,"lon":5.42444,"is_reserved":false,"is_disabled":false,"rental_uris":{"android":"levelo://app?vid=6c82db2d-5a8f-4455-b783-2f9e9236cdaf","ios":"levelo://app?vid=6c82db2d-5a8f-4455-b783-2f9e9236cdaf"},"vehicle_type_id":"4","last_reported":1726405989,"current_range_meters":25200,"station_id":"ce4bhn92rcd13ifvqgrg","pricing_plan_id":"cebpf4jnsgd1na2vs0mg"},{"bike_id":"cd6a8b25-7579-4518-8405-4dfcfc49b7a1","system_id":"levelo_inurba_marseille","lat":43.3169,"lon":5.37757,"is_reserved":false,"is_disabled":false,"rental_uris":{"android":"levelo://app?vid=cd6a8b25-7579-4518-8405-4dfcfc49b7a1","ios":"levelo://app?vid=cd6a8b25-7579-4518-8405-4dfcfc49b7a1"},"vehicle_type_id":"4","last_reported":1726405989,"current_range_meters":27600,"station_id":"ce4bgth2rcd13ifvqch0","pricing_plan_id":"cebpf4jnsgd1na2vs0mg"},{"bike_id":"c840fd26-2b17-45a9-aac9-92d3f1ce47b3","system_id":"levelo_inurba_marseille","lat":43.248016,"lon":5.374572,"is_reserved":false,"is_disabled":false,"rental_uris":{"android":"levelo://app?vid=c840fd26-2b17-45a9-aac9-92d3f1ce47b3","ios":"levelo://app?vid=c840fd26-2b17-45a9-aac9-92d3f1ce47b3"},"vehicle_type_id":"4","last_reported":1726405989,"current_range_meters":20400,"station_id":"ce4bhgh2rcd13ifvqfb0","pricing_plan_id":"cebpf4jnsgd1na2vs0mg"},{"bike_id":"4db921f2-bc23-49f4-8a24-f619c1eace61","system_id":"levelo_inurba_marseille","lat":43.23197,"lon":5.3554,"is_reserved":false,"is_disabled":false,"rental_uris":{"android":"levelo://app?vid=4db921f2-bc23-49f4-8a24-f619c1eace61","ios":"levelo://app?vid=4db921f2-bc23-49f4-8a24-f619c1eace61"},"vehicle_type_id":"4","last_reported":1726405989,"current_range_meters":23200,"station_id":"ce4bhu92rcd13ifvqi70","pricing_plan_id":"cebpf4jnsgd1na2vs0mg"},{"bike_id":"638ee492-6848-46b3-810f-17adb5930d65","system_id":"levelo_inurba_marseille","lat":43.29895,"lon":5.43666,"is_reserved":false,"is_disabled":false,"rental_uris":{"android":"levelo://app?vid=638ee492-6848-46b3-810f-17adb5930d65","ios":"levelo://app?vid=638ee492-6848-46b3-810f-17adb5930d65"},"vehicle_type_id":"4","last_reported":1726405989,"current_range_meters":11600,"station_id":"ce4bhpp2rcd13ifvqhfg","pricing_plan_id":"cebpf4jnsgd1na2vs0mg"},{"bike_id":"c0474bae-bf19-448c-80d3-763792c1df75","system_id":"levelo_inurba_marseille","lat":43.245904,"lon":5.394723,"is_reserved":false,"is_disabled":false,"rental_uris":{"android":"levelo://app?vid=c0474bae-bf19-448c-80d3-763792c1df75","ios":"levelo://app?vid=c0474bae-bf19-448c-80d3-763792c1df75"},"vehicle_type_id":"4","last_reported":1726405989,"current_range_meters":38400,"station_id":"ce4bhlp2rcd13ifvqgjg","pricing_plan_id":"cebpf4jnsgd1na2vs0mg"},{"bike_id":"4a0c664d-58f4-4739-8703-e1ed2a4b0695","system_id":"levelo_inurba_marseille","lat":43.27496,"lon":5.42444,"is_reserved":false,"is_disabled":false,"rental_uris":{"android":"levelo://app?vid=4a0c664d-58f4-4739-8703-e1ed2a4b0695","ios":"levelo://app?vid=4a0c664d-58f4-4739-8703-e1ed2a4b0695"},"vehicle_type_id":"4","last_reported":1726405989,"current_range_meters":16800,"station_id":"ce4bhn92rcd13ifvqgrg","pricing_plan_id":"cebpf4jnsgd1na2vs0mg"},{"bike_id":"328d45f9-980e-4811-97c0-47d761861509","system_id":"levelo_inurba_marseille","lat":43.29847,"lon":5.37836,"is_reserved":false,"is_disabled":false,"rental_uris":{"android":"levelo://app?vid=328d45f9-980e-4811-97c0-47d761861509","ios":"levelo://app?vid=328d45f9-980e-4811-97c0-47d761861509"},"vehicle_type_id":"4","last_reported":1726405989,"current_range_meters":27600,"station_id":"ce4bgkh2rcd13ifvqbl0","pricing_plan_id":"cebpf4jnsgd1na2vs0mg"},{"bike_id":"3b51f764-c75e-47b9-9ce2-0fdae7022f59","system_id":"levelo_inurba_marseille","lat":43.24824,"lon":5.39216,"is_reserved":false,"is_disabled":false,"rental_uris":{"android":"levelo://app?vid=3b51f764-c75e-47b9-9ce2-0fdae7022f59","ios":"levelo://app?vid=3b51f764-c75e-47b9-9ce2-0fdae7022f59"},"vehicle_type_id":"4","last_reported":1726405989,"current_range_meters":4000,"station_id":"","pricing_plan_id":"cebpf4jnsgd1na2vs0mg"},{"bike_id":"faf816e6-4e87-4e93-88d4-5861eae33b5c","system_id":"levelo_inurba_marseille","lat":43.24078,"lon":5.3775,"is_reserved":false,"is_disabled":false,"rental_uris":{"android":"levelo://app?vid=faf816e6-4e87-4e93-88d4-5861eae33b5c","ios":"levelo://app?vid=faf816e6-4e87-4e93-88d4-5861eae33b5c"},"vehicle_type_id":"4","last_reported":1726405989,"current_range_meters":25600,"station_id":"ce4bhnp2rcd13ifvqgvg","pricing_plan_id":"cebpf4jnsgd1na2vs0mg"},{"bike_id":"9b622166-609b-42e3-a193-9f9652982890","system_id":"levelo_inurba_marseille","lat":43.31723,"lon":5.43703,"is_reserved":false,"is_disabled":false,"rental_uris":{"android":"levelo://app?vid=9b622166-609b-42e3-a193-9f9652982890","ios":"levelo://app?vid=9b622166-609b-42e3-a193-9f9652982890"},"vehicle_type_id":"4","last_reported":1726405989,"current_range_meters":37600,"station_id":"ce4bhp92rcd13ifvqhcg","pricing_plan_id":"cebpf4jnsgd1na2vs0mg"},{"bike_id":"47796c26-123b-4bbd-a7cd-e828bc0c960d","system_id":"levelo_inurba_marseille","lat":43.28614,"lon":5.35103,"is_reserved":false,"is_disabled":false,"rental_uris":{"android":"levelo://app?vid=47796c26-123b-4bbd-a7cd-e828bc0c960d","ios":"levelo://app?vid=47796c26-123b-4bbd-a7cd-e828bc0c960d"},"vehicle_type_id":"4","last_reported":1726405989,"current_range_meters":16000,"station_id":"ce4bhch2rcd13ifvqeug","pricing_plan_id":"cebpf4jnsgd1na2vs0mg"},{"bike_id":"7e512072-6c2f-4e40-a9d3-1a66b836f80e","system_id":"levelo_inurba_marseille","lat":43.28282,"lon":5.35068,"is_reserved":false,"is_disabled":false,"rental_uris":{"android":"levelo://app?vid=7e512072-6c2f-4e40-a9d3-1a66b836f80e","ios":"levelo://app?vid=7e512072-6c2f-4e40-a9d3-1a66b836f80e"},"vehicle_type_id":"4","last_reported":1726405989,"current_range_meters":38800,"station_id":"ce4bhbp2rcd13ifvqerg","pricing_plan_id":"cebpf4jnsgd1na2vs0mg"},{"bike_id":"e687461b-66f9-48d1-b9b0-ea75a11fe4d4","system_id":"levelo_inurba_marseille","lat":43.24811,"lon":5.37454,"is_reserved":false,"is_disabled":false,"rental_uris":{"android":"levelo://app?vid=e687461b-66f9-48d1-b9b0-ea75a11fe4d4","ios":"levelo://app?vid=e687461b-66f9-48d1-b9b0-ea75a11fe4d4"},"vehicle_type_id":"4","last_reported":1726405989,"current_range_meters":8400,"station_id":"ce4bhgh2rcd13ifvqfb0","pricing_plan_id":"cebpf4jnsgd1na2vs0mg"},{"bike_id":"fc76a35a-a564-4eb5-8688-a9c3d5237512","system_id":"levelo_inurba_marseille","lat":43.31759,"lon":5.39015,"is_reserved":false,"is_disabled":false,"rental_uris":{"android":"levelo://app?vid=fc76a35a-a564-4eb5-8688-a9c3d5237512","ios":"levelo://app?vid=fc76a35a-a564-4eb5-8688-a9c3d5237512"},"vehicle_type_id":"4","last_reported":1726405989,"current_range_meters":36400,"station_id":"ce4bhqp2rcd13ifvqhng","pricing_plan_id":"cebpf4jnsgd1na2vs0mg"},{"bike_id":"8b608b96-fedf-4511-8d4b-09bad2606e1a","system_id":"levelo_inurba_marseille","lat":43.27725,"lon":5.41127,"is_reserved":false,"is_disabled":false,"rental_uris":{"android":"levelo://app?vid=8b608b96-fedf-4511-8d4b-09bad2606e1a","ios":"levelo://app?vid=8b608b96-fedf-4511-8d4b-09bad2606e1a"},"vehicle_type_id":"4","last_reported":1726405989,"current_range_meters":21600,"station_id":"","pricing_plan_id":"cebpf4jnsgd1na2vs0mg"},{"bike_id":"ca7c1f41-bd6a-4c13-949f-4ef0a14fd781","system_id":"levelo_inurba_marseille","lat":43.28157,"lon":5.42638,"is_reserved":false,"is_disabled":false,"rental_uris":{"android":"levelo://app?vid=ca7c1f41-bd6a-4c13-949f-4ef0a14fd781","ios":"levelo://app?vid=ca7c1f41-bd6a-4c13-949f-4ef0a14fd781"},"vehicle_type_id":"4","last_reported":1726405989,"current_range_meters":26000,"station_id":"ce4bhnh2rcd13ifvqgug","pricing_plan_id":"cebpf4jnsgd1na2vs0mg"},{"bike_id":"d6149948-cc69-48c8-b75f-51b423ee5546","system_id":"levelo_inurba_marseille","lat":43.31168,"lon":5.39353,"is_reserved":false,"is_disabled":false,"rental_uris":{"android":"levelo://app?vid=d6149948-cc69-48c8-b75f-51b423ee5546","ios":"levelo://app?vid=d6149948-cc69-48c8-b75f-51b423ee5546"},"vehicle_type_id":"4","last_reported":1726405989,"current_range_meters":27600,"station_id":"","pricing_plan_id":"cebpf4jnsgd1na2vs0mg"},{"bike_id":"fa2b0a9f-66ad-4cd1-b7bb-93b9cffdc904","system_id":"levelo_inurba_marseille","lat":43.25931,"lon":5.40906,"is_reserved":false,"is_disabled":false,"rental_uris":{"android":"levelo://app?vid=fa2b0a9f-66ad-4cd1-b7bb-93b9cffdc904","ios":"levelo://app?vid=fa2b0a9f-66ad-4cd1-b7bb-93b9cffdc904"},"vehicle_type_id":"4","last_reported":1726405989,"current_range_meters":32400,"station_id":"ce4bhm92rcd13ifvqglg","pricing_plan_id":"cebpf4jnsgd1na2vs0mg"},{"bike_id":"f774db8c-32e7-43d8-b201-b050c0b81a3e","system_id":"levelo_inurba_marseille","lat":43.23966,"lon":5.36623,"is_reserved":false,"is_disabled":false,"rental_uris":{"android":"levelo://app?vid=f774db8c-32e7-43d8-b201-b050c0b81a3e","ios":"levelo://app?vid=f774db8c-32e7-43d8-b201-b050c0b81a3e"},"vehicle_type_id":"4","last_reported":1726405989,"current_range_meters":23200,"station_id":"ce4bhi12rcd13ifvqfp0","pricing_plan_id":"cebpf4jnsgd1na2vs0mg"},{"bike_id":"2d2bf523-4327-4f7c-a63f-57a412303002","system_id":"levelo_inurba_marseille","lat":43.30929,"lon":5.40142,"is_reserved":false,"is_disabled":false,"rental_uris":{"android":"levelo://app?vid=2d2bf523-4327-4f7c-a63f-57a412303002","ios":"levelo://app?vid=2d2bf523-4327-4f7c-a63f-57a412303002"},"vehicle_type_id":"4","last_reported":1726405989,"current_range_meters":28000,"station_id":"ce4bgvp2rcd13ifvqct0","pricing_plan_id":"cebpf4jnsgd1na2vs0mg"},{"bike_id":"649da59b-0d8e-4354-a5ec-a75a5e4320c1","system_id":"levelo_inurba_marseille","lat":43.24389,"lon":5.37059,"is_reserved":false,"is_disabled":false,"rental_uris":{"android":"levelo://app?vid=649da59b-0d8e-4354-a5ec-a75a5e4320c1","ios":"levelo://app?vid=649da59b-0d8e-4354-a5ec-a75a5e4320c1"},"vehicle_type_id":"4","last_reported":1726405989,"current_range_meters":17600,"station_id":"ce4bhhh2rcd13ifvqfk0","pricing_plan_id":"cebpf4jnsgd1na2vs0mg"},{"bike_id":"d2ca61ed-07b0-4f91-990e-b98a38e76d1b","system_id":"levelo_inurba_marseille","lat":43.24069,"lon":5.37748,"is_reserved":false,"is_disabled":false,"rental_uris":{"android":"levelo://app?vid=d2ca61ed-07b0-4f91-990e-b98a38e76d1b","ios":"levelo://app?vid=d2ca61ed-07b0-4f91-990e-b98a38e76d1b"},"vehicle_type_id":"4","last_reported":1726405989,"current_range_meters":12000,"station_id":"ce4bhnp2rcd13ifvqgvg","pricing_plan_id":"cebpf4jnsgd1na2vs0mg"},{"bike_id":"069f401e-6b7d-4857-aa5b-2fc9cc8c4b17","system_id":"levelo_inurba_marseille","lat":43.23156,"lon":5.43709,"is_reserved":false,"is_disabled":false,"rental_uris":{"android":"levelo://app?vid=069f401e-6b7d-4857-aa5b-2fc9cc8c4b17","ios":"levelo://app?vid=069f401e-6b7d-4857-aa5b-2fc9cc8c4b17"},"vehicle_type_id":"4","last_reported":1726405989,"current_range_meters":16800,"station_id":"ce4bhmp2rcd13ifvqgog","pricing_plan_id":"cebpf4jnsgd1na2vs0mg"},{"bike_id":"be3580cc-5597-48ff-bbfe-6a25fd4800e2","system_id":"levelo_inurba_marseille","lat":43.31728,"lon":5.4239,"is_reserved":false,"is_disabled":false,"rental_uris":{"android":"levelo://app?vid=be3580cc-5597-48ff-bbfe-6a25fd4800e2","ios":"levelo://app?vid=be3580cc-5597-48ff-bbfe-6a25fd4800e2"},"vehicle_type_id":"4","last_reported":1726405989,"current_range_meters":38800,"station_id":"ce4bhp92rcd13ifvqhbg","pricing_plan_id":"cebpf4jnsgd1na2vs0mg"},{"bike_id":"c79e483e-6c74-49ab-93da-a718c1a223f1","system_id":"levelo_inurba_marseille","lat":43.24079,"lon":5.37738,"is_reserved":false,"is_disabled":false,"rental_uris":{"android":"levelo://app?vid=c79e483e-6c74-49ab-93da-a718c1a223f1","ios":"levelo://app?vid=c79e483e-6c74-49ab-93da-a718c1a223f1"},"vehicle_type_id":"4","last_reported":1726405989,"current_range_meters":3200,"station_id":"ce4bhnp2rcd13ifvqgvg","pricing_plan_id":"cebpf4jnsgd1na2vs0mg"},{"bike_id":"03dd0fcd-c413-43d9-9706-698be86ebf1a","system_id":"levelo_inurba_marseille","lat":43.23967,"lon":5.36635,"is_reserved":false,"is_disabled":false,"rental_uris":{"android":"levelo://app?vid=03dd0fcd-c413-43d9-9706-698be86ebf1a","ios":"levelo://app?vid=03dd0fcd-c413-43d9-9706-698be86ebf1a"},"vehicle_type_id":"4","last_reported":1726405989,"current_range_meters":14400,"station_id":"ce4bhi12rcd13ifvqfp0","pricing_plan_id":"cebpf4jnsgd1na2vs0mg"},{"bike_id":"ab75f336-47ea-4e49-a80c-bb3fd984b8d6","system_id":"levelo_inurba_marseille","lat":43.33025,"lon":5.39047,"is_reserved":false,"is_disabled":false,"rental_uris":{"android":"levelo://app?vid=ab75f336-47ea-4e49-a80c-bb3fd984b8d6","ios":"levelo://app?vid=ab75f336-47ea-4e49-a80c-bb3fd984b8d6"},"vehicle_type_id":"4","last_reported":1726405989,"current_range_meters":38800,"station_id":"ce4bhr92rcd13ifvqhrg","pricing_plan_id":"cebpf4jnsgd1na2vs0mg"},{"bike_id":"4272a16d-cdfc-479f-ba51-8d91a8461f8e","system_id":"levelo_inurba_marseille","lat":43.28417,"lon":5.34996,"is_reserved":false,"is_disabled":false,"rental_uris":{"android":"levelo://app?vid=4272a16d-cdfc-479f-ba51-8d91a8461f8e","ios":"levelo://app?vid=4272a16d-cdfc-479f-ba51-8d91a8461f8e"},"vehicle_type_id":"4","last_reported":1726405989,"current_range_meters":13600,"station_id":"ce4bhbh2rcd13ifvqepg","pricing_plan_id":"cebpf4jnsgd1na2vs0mg"},{"bike_id":"f1e8ceee-9573-4b77-ab79-482d0d3b70cc","system_id":"levelo_inurba_marseille","lat":43.24171,"lon":5.36402,"is_reserved":false,"is_disabled":false,"rental_uris":{"android":"levelo://app?vid=f1e8ceee-9573-4b77-ab79-482d0d3b70cc","ios":"levelo://app?vid=f1e8ceee-9573-4b77-ab79-482d0d3b70cc"},"vehicle_type_id":"4","last_reported":1726405989,"current_range_meters":36000,"station_id":"cpo36qri1sfpv3e86is0","pricing_plan_id":"cebpf4jnsgd1na2vs0mg"},{"bike_id":"0081bfbd-f76e-4466-b490-2fb3bbb52447","system_id":"levelo_inurba_marseille","lat":43.297577,"lon":5.380904,"is_reserved":false,"is_disabled":false,"rental_uris":{"android":"levelo://app?vid=0081bfbd-f76e-4466-b490-2fb3bbb52447","ios":"levelo://app?vid=0081bfbd-f76e-4466-b490-2fb3bbb52447"},"vehicle_type_id":"4","last_reported":1726405989,"current_range_meters":36800,"station_id":"ce4bgip2rcd13ifvqbb0","pricing_plan_id":"cebpf4jnsgd1na2vs0mg"},{"bike_id":"3446d9d8-c009-4196-a8d7-cf903e9bff81","system_id":"levelo_inurba_marseille","lat":43.248131,"lon":5.374597,"is_reserved":false,"is_disabled":false,"rental_uris":{"android":"levelo://app?vid=3446d9d8-c009-4196-a8d7-cf903e9bff81","ios":"levelo://app?vid=3446d9d8-c009-4196-a8d7-cf903e9bff81"},"vehicle_type_id":"4","last_reported":1726405989,"current_range_meters":4400,"station_id":"ce4bhgh2rcd13ifvqfb0","pricing_plan_id":"cebpf4jnsgd1na2vs0mg"},{"bike_id":"42697fbd-f736-4094-a7ac-5c78a5478024","system_id":"levelo_inurba_marseille","lat":43.23058,"lon":5.35489,"is_reserved":false,"is_disabled":false,"rental_uris":{"android":"levelo://app?vid=42697fbd-f736-4094-a7ac-5c78a5478024","ios":"levelo://app?vid=42697fbd-f736-4094-a7ac-5c78a5478024"},"vehicle_type_id":"4","last_reported":1726405989,"current_range_meters":30800,"station_id":"cpo3342slgdg3j2ifvpg","pricing_plan_id":"cebpf4jnsgd1na2vs0mg"},{"bike_id":"ed242036-4f6c-4647-a30e-37c79cfc2034","system_id":"levelo_inurba_marseille","lat":43.24184,"lon":5.39717,"is_reserved":false,"is_disabled":false,"rental_uris":{"android":"levelo://app?vid=ed242036-4f6c-4647-a30e-37c79cfc2034","ios":"levelo://app?vid=ed242036-4f6c-4647-a30e-37c79cfc2034"},"vehicle_type_id":"4","last_reported":1726405989,"current_range_meters":3200,"station_id":"ce4bhn12rcd13ifvqgpg","pricing_plan_id":"cebpf4jnsgd1na2vs0mg"},{"bike_id":"0e5a3bf8-e7be-4e70-aca4-d97d6e03c7dd","system_id":"levelo_inurba_marseille","lat":43.33023,"lon":5.39046,"is_reserved":false,"is_disabled":false,"rental_uris":{"android":"levelo://app?vid=0e5a3bf8-e7be-4e70-aca4-d97d6e03c7dd","ios":"levelo://app?vid=0e5a3bf8-e7be-4e70-aca4-d97d6e03c7dd"},"vehicle_type_id":"4","last_reported":1726405989,"current_range_meters":22800,"station_id":"ce4bhr92rcd13ifvqhrg","pricing_plan_id":"cebpf4jnsgd1na2vs0mg"},{"bike_id":"d9b6a4ab-cc21-4f3a-b9fb-e76e8bfef99d","system_id":"levelo_inurba_marseille","lat":43.28421,"lon":5.34986,"is_reserved":false,"is_disabled":false,"rental_uris":{"android":"levelo://app?vid=d9b6a4ab-cc21-4f3a-b9fb-e76e8bfef99d","ios":"levelo://app?vid=d9b6a4ab-cc21-4f3a-b9fb-e76e8bfef99d"},"vehicle_type_id":"4","last_reported":1726405989,"current_range_meters":18800,"station_id":"ce4bhbh2rcd13ifvqepg","pricing_plan_id":"cebpf4jnsgd1na2vs0mg"},{"bike_id":"67de9060-71de-47c0-a158-a032233b2381","system_id":"levelo_inurba_marseille","lat":43.24547,"lon":5.39515,"is_reserved":false,"is_disabled":false,"rental_uris":{"android":"levelo://app?vid=67de9060-71de-47c0-a158-a032233b2381","ios":"levelo://app?vid=67de9060-71de-47c0-a158-a032233b2381"},"vehicle_type_id":"4","last_reported":1726405989,"current_range_meters":3600,"station_id":"ce4bhlp2rcd13ifvqgjg","pricing_plan_id":"cebpf4jnsgd1na2vs0mg"},{"bike_id":"29ebb04d-440e-4da8-a528-1d37b597e08a","system_id":"levelo_inurba_marseille","lat":43.24809,"lon":5.37451,"is_reserved":false,"is_disabled":false,"rental_uris":{"android":"levelo://app?vid=29ebb04d-440e-4da8-a528-1d37b597e08a","ios":"levelo://app?vid=29ebb04d-440e-4da8-a528-1d37b597e08a"},"vehicle_type_id":"4","last_reported":1726405989,"current_range_meters":38000,"station_id":"ce4bhgh2rcd13ifvqfb0","pricing_plan_id":"cebpf4jnsgd1na2vs0mg"},{"bike_id":"428e34b0-fc43-4dad-bb70-81323d8bd8ba","system_id":"levelo_inurba_marseille","lat":43.23151,"lon":5.4372,"is_reserved":false,"is_disabled":false,"rental_uris":{"android":"levelo://app?vid=428e34b0-fc43-4dad-bb70-81323d8bd8ba","ios":"levelo://app?vid=428e34b0-fc43-4dad-bb70-81323d8bd8ba"},"vehicle_type_id":"4","last_reported":1726405989,"current_range_meters":13600,"station_id":"ce4bhmp2rcd13ifvqgog","pricing_plan_id":"cebpf4jnsgd1na2vs0mg"},{"bike_id":"cf17a031-288f-4384-836a-2bebfc40fbb6","system_id":"levelo_inurba_marseille","lat":43.23958,"lon":5.36638,"is_reserved":false,"is_disabled":false,"rental_uris":{"android":"levelo://app?vid=cf17a031-288f-4384-836a-2bebfc40fbb6","ios":"levelo://app?vid=cf17a031-288f-4384-836a-2bebfc40fbb6"},"vehicle_type_id":"4","last_reported":1726405989,"current_range_meters":39200,"station_id":"ce4bhi12rcd13ifvqfp0","pricing_plan_id":"cebpf4jnsgd1na2vs0mg"},{"bike_id":"012525c8-d863-400b-a802-0ef1a483fc5c","system_id":"levelo_inurba_marseille","lat":43.29553,"lon":5.42284,"is_reserved":false,"is_disabled":false,"rental_uris":{"android":"levelo://app?vid=012525c8-d863-400b-a802-0ef1a483fc5c","ios":"levelo://app?vid=012525c8-d863-400b-a802-0ef1a483fc5c"},"vehicle_type_id":"4","last_reported":1726405989,"current_range_meters":12000,"station_id":"ce4bhph2rcd13ifvqhdg","pricing_plan_id":"cebpf4jnsgd1na2vs0mg"},{"bike_id":"df57fa25-dd68-4454-8037-a3d151776971","system_id":"levelo_inurba_marseille","lat":43.305403,"lon":5.384209,"is_reserved":false,"is_disabled":false,"rental_uris":{"android":"levelo://app?vid=df57fa25-dd68-4454-8037-a3d151776971","ios":"levelo://app?vid=df57fa25-dd68-4454-8037-a3d151776971"},"vehicle_type_id":"4","last_reported":1726405989,"current_range_meters":3600,"station_id":"ce4bgg92rcd13ifvqb30","pricing_plan_id":"cebpf4jnsgd1na2vs0mg"},{"bike_id":"6f387a41-1a28-4619-ac86-26875678b81b","system_id":"levelo_inurba_marseille","lat":43.299,"lon":5.43673,"is_reserved":false,"is_disabled":false,"rental_uris":{"android":"levelo://app?vid=6f387a41-1a28-4619-ac86-26875678b81b","ios":"levelo://app?vid=6f387a41-1a28-4619-ac86-26875678b81b"},"vehicle_type_id":"4","last_reported":1726405989,"current_range_meters":31200,"station_id":"ce4bhpp2rcd13ifvqhfg","pricing_plan_id":"cebpf4jnsgd1na2vs0mg"},{"bike_id":"f4fff3c2-18ec-40fe-a4ee-0202ff4eb541","system_id":"levelo_inurba_marseille","lat":43.27377,"lon":5.36239,"is_reserved":false,"is_disabled":false,"rental_uris":{"android":"levelo://app?vid=f4fff3c2-18ec-40fe-a4ee-0202ff4eb541","ios":"levelo://app?vid=f4fff3c2-18ec-40fe-a4ee-0202ff4eb541"},"vehicle_type_id":"4","last_reported":1726405989,"current_range_meters":18000,"station_id":"ce4bhbh2rcd13ifvqeo0","pricing_plan_id":"cebpf4jnsgd1na2vs0mg"},{"bike_id":"f03c907a-3daf-455c-bca7-b474b49e7923","system_id":"levelo_inurba_marseille","lat":43.29605,"lon":5.36865,"is_reserved":false,"is_disabled":false,"rental_uris":{"android":"levelo://app?vid=f03c907a-3daf-455c-bca7-b474b49e7923","ios":"levelo://app?vid=f03c907a-3daf-455c-bca7-b474b49e7923"},"vehicle_type_id":"4","last_reported":1726405989,"current_range_meters":19200,"station_id":"ce4bgpp2rcd13ifvqc3g","pricing_plan_id":"cebpf4jnsgd1na2vs0mg"},{"bike_id":"ee41233d-7057-4ec4-b3c6-63f582836de8","system_id":"levelo_inurba_marseille","lat":43.22934,"lon":5.35378,"is_reserved":false,"is_disabled":false,"rental_uris":{"android":"levelo://app?vid=ee41233d-7057-4ec4-b3c6-63f582836de8","ios":"levelo://app?vid=ee41233d-7057-4ec4-b3c6-63f582836de8"},"vehicle_type_id":"4","last_reported":1726405989,"current_range_meters":18000,"station_id":"cpo3532slgdg3j2ikp40","pricing_plan_id":"cebpf4jnsgd1na2vs0mg"},{"bike_id":"71c96b80-c908-4787-978e-706ee239bc53","system_id":"levelo_inurba_marseille","lat":43.254251,"lon":5.376627,"is_reserved":false,"is_disabled":false,"rental_uris":{"android":"levelo://app?vid=71c96b80-c908-4787-978e-706ee239bc53","ios":"levelo://app?vid=71c96b80-c908-4787-978e-706ee239bc53"},"vehicle_type_id":"4","last_reported":1726405989,"current_range_meters":10800,"station_id":"ce4bhh12rcd13ifvqff0","pricing_plan_id":"cebpf4jnsgd1na2vs0mg"},{"bike_id":"65b014b3-3891-4d8b-a075-14bbf87e2e16","system_id":"levelo_inurba_marseille","lat":43.24166,"lon":5.36394,"is_reserved":false,"is_disabled":false,"rental_uris":{"android":"levelo://app?vid=65b014b3-3891-4d8b-a075-14bbf87e2e16","ios":"levelo://app?vid=65b014b3-3891-4d8b-a075-14bbf87e2e16"},"vehicle_type_id":"4","last_reported":1726405989,"current_range_meters":16800,"station_id":"cpo36qri1sfpv3e86is0","pricing_plan_id":"cebpf4jnsgd1na2vs0mg"},{"bike_id":"496a4d64-c651-4a93-9ed1-e07a36a406aa","system_id":"levelo_inurba_marseille","lat":43.23193,"lon":5.35545,"is_reserved":false,"is_disabled":false,"rental_uris":{"android":"levelo://app?vid=496a4d64-c651-4a93-9ed1-e07a36a406aa","ios":"levelo://app?vid=496a4d64-c651-4a93-9ed1-e07a36a406aa"},"vehicle_type_id":"4","last_reported":1726405989,"current_range_meters":22000,"station_id":"ce4bhu92rcd13ifvqi70","pricing_plan_id":"cebpf4jnsgd1na2vs0mg"},{"bike_id":"16e6a69c-db52-416c-88a6-7215c136fd14","system_id":"levelo_inurba_marseille","lat":43.2481,"lon":5.37456,"is_reserved":false,"is_disabled":false,"rental_uris":{"android":"levelo://app?vid=16e6a69c-db52-416c-88a6-7215c136fd14","ios":"levelo://app?vid=16e6a69c-db52-416c-88a6-7215c136fd14"},"vehicle_type_id":"4","last_reported":1726405989,"current_range_meters":38800,"station_id":"ce4bhgh2rcd13ifvqfb0","pricing_plan_id":"cebpf4jnsgd1na2vs0mg"},{"bike_id":"55c99536-c69c-4baf-847e-eb309b0fe08f","system_id":"levelo_inurba_marseille","lat":43.304448,"lon":5.397483,"is_reserved":false,"is_disabled":false,"rental_uris":{"android":"levelo://app?vid=55c99536-c69c-4baf-847e-eb309b0fe08f","ios":"levelo://app?vid=55c99536-c69c-4baf-847e-eb309b0fe08f"},"vehicle_type_id":"4","last_reported":1726405989,"current_range_meters":38400,"station_id":"ce4bh092rcd13ifvqd20","pricing_plan_id":"cebpf4jnsgd1na2vs0mg"},{"bike_id":"aa95c661-1107-4bd0-b9af-c8a4ebe70138","system_id":"levelo_inurba_marseille","lat":43.33026,"lon":5.39032,"is_reserved":false,"is_disabled":false,"rental_uris":{"android":"levelo://app?vid=aa95c661-1107-4bd0-b9af-c8a4ebe70138","ios":"levelo://app?vid=aa95c661-1107-4bd0-b9af-c8a4ebe70138"},"vehicle_type_id":"4","last_reported":1726405989,"current_range_meters":36400,"station_id":"ce4bhr92rcd13ifvqhrg","pricing_plan_id":"cebpf4jnsgd1na2vs0mg"},{"bike_id":"c4148733-d340-4184-9add-27aa76062a46","system_id":"levelo_inurba_marseille","lat":43.25011,"lon":5.38912,"is_reserved":false,"is_disabled":false,"rental_uris":{"android":"levelo://app?vid=c4148733-d340-4184-9add-27aa76062a46","ios":"levelo://app?vid=c4148733-d340-4184-9add-27aa76062a46"},"vehicle_type_id":"4","last_reported":1726405989,"current_range_meters":35600,"station_id":"ce4bhgp2rcd13ifvqfd0","pricing_plan_id":"cebpf4jnsgd1na2vs0mg"},{"bike_id":"8a68135b-10f0-4a18-8450-e7829f00cf0e","system_id":"levelo_inurba_marseille","lat":43.286817,"lon":5.351711,"is_reserved":false,"is_disabled":false,"rental_uris":{"android":"levelo://app?vid=8a68135b-10f0-4a18-8450-e7829f00cf0e","ios":"levelo://app?vid=8a68135b-10f0-4a18-8450-e7829f00cf0e"},"vehicle_type_id":"4","last_reported":1726405989,"current_range_meters":33200,"station_id":"","pricing_plan_id":"cebpf4jnsgd1na2vs0mg"},{"bike_id":"ca2f31d8-8896-42ce-92c7-9f0f5f0ac6e8","system_id":"levelo_inurba_marseille","lat":43.24542,"lon":5.39525,"is_reserved":false,"is_disabled":false,"rental_uris":{"android":"levelo://app?vid=ca2f31d8-8896-42ce-92c7-9f0f5f0ac6e8","ios":"levelo://app?vid=ca2f31d8-8896-42ce-92c7-9f0f5f0ac6e8"},"vehicle_type_id":"4","last_reported":1726405989,"current_range_meters":19600,"station_id":"ce4bhlp2rcd13ifvqgjg","pricing_plan_id":"cebpf4jnsgd1na2vs0mg"},{"bike_id":"b1a87b0d-92f7-4f64-9d69-590ead33f03a","system_id":"levelo_inurba_marseille","lat":43.29572,"lon":5.37531,"is_reserved":false,"is_disabled":false,"rental_uris":{"android":"levelo://app?vid=b1a87b0d-92f7-4f64-9d69-590ead33f03a","ios":"levelo://app?vid=b1a87b0d-92f7-4f64-9d69-590ead33f03a"},"vehicle_type_id":"4","last_reported":1726405989,"current_range_meters":6800,"station_id":"ce4bgh92rcd13ifvqb50","pricing_plan_id":"cebpf4jnsgd1na2vs0mg"},{"bike_id":"99c3103f-dd4a-4c47-bb18-47492c25752d","system_id":"levelo_inurba_marseille","lat":43.29384,"lon":5.37831,"is_reserved":false,"is_disabled":false,"rental_uris":{"android":"levelo://app?vid=99c3103f-dd4a-4c47-bb18-47492c25752d","ios":"levelo://app?vid=99c3103f-dd4a-4c47-bb18-47492c25752d"},"vehicle_type_id":"4","last_reported":1726405989,"current_range_meters":36400,"station_id":"ce4bgjh2rcd13ifvqbf0","pricing_plan_id":"cebpf4jnsgd1na2vs0mg"},{"bike_id":"d8ab4899-6fd3-4158-b384-f3a72eca207f","system_id":"levelo_inurba_marseille","lat":43.2418,"lon":5.39732,"is_reserved":false,"is_disabled":false,"rental_uris":{"android":"levelo://app?vid=d8ab4899-6fd3-4158-b384-f3a72eca207f","ios":"levelo://app?vid=d8ab4899-6fd3-4158-b384-f3a72eca207f"},"vehicle_type_id":"4","last_reported":1726405989,"current_range_meters":28000,"station_id":"ce4bhn12rcd13ifvqgpg","pricing_plan_id":"cebpf4jnsgd1na2vs0mg"},{"bike_id":"be4b2a3b-19b7-41c0-bcc6-ac5902d401a1","system_id":"levelo_inurba_marseille","lat":43.23178,"lon":5.39984,"is_reserved":false,"is_disabled":false,"rental_uris":{"android":"levelo://app?vid=be4b2a3b-19b7-41c0-bcc6-ac5902d401a1","ios":"levelo://app?vid=be4b2a3b-19b7-41c0-bcc6-ac5902d401a1"},"vehicle_type_id":"4","last_reported":1726405989,"current_range_meters":7200,"station_id":"ce4bhn12rcd13ifvqgqg","pricing_plan_id":"cebpf4jnsgd1na2vs0mg"},{"bike_id":"349d9ac4-642a-438f-a490-46173d58584f","system_id":"levelo_inurba_marseille","lat":43.23972,"lon":5.36621,"is_reserved":false,"is_disabled":false,"rental_uris":{"android":"levelo://app?vid=349d9ac4-642a-438f-a490-46173d58584f","ios":"levelo://app?vid=349d9ac4-642a-438f-a490-46173d58584f"},"vehicle_type_id":"4","last_reported":1726405989,"current_range_meters":38800,"station_id":"ce4bhi12rcd13ifvqfp0","pricing_plan_id":"cebpf4jnsgd1na2vs0mg"},{"bike_id":"1d4e335d-2bde-4711-8e64-da4ced3723ea","system_id":"levelo_inurba_marseille","lat":43.22932,"lon":5.3538,"is_reserved":false,"is_disabled":false,"rental_uris":{"android":"levelo://app?vid=1d4e335d-2bde-4711-8e64-da4ced3723ea","ios":"levelo://app?vid=1d4e335d-2bde-4711-8e64-da4ced3723ea"},"vehicle_type_id":"4","last_reported":1726405989,"current_range_meters":26800,"station_id":"cpo3532slgdg3j2ikp40","pricing_plan_id":"cebpf4jnsgd1na2vs0mg"},{"bike_id":"809bb8b2-0eb2-4390-a3ce-3d5d1cf11962","system_id":"levelo_inurba_marseille","lat":43.28271,"lon":5.35068,"is_reserved":false,"is_disabled":false,"rental_uris":{"android":"levelo://app?vid=809bb8b2-0eb2-4390-a3ce-3d5d1cf11962","ios":"levelo://app?vid=809bb8b2-0eb2-4390-a3ce-3d5d1cf11962"},"vehicle_type_id":"4","last_reported":1726405989,"current_range_meters":18800,"station_id":"ce4bhbp2rcd13ifvqerg","pricing_plan_id":"cebpf4jnsgd1na2vs0mg"},{"bike_id":"8f9251d6-9e5c-4bc8-8dac-c771b6957426","system_id":"levelo_inurba_marseille","lat":43.29746,"lon":5.37672,"is_reserved":false,"is_disabled":false,"rental_uris":{"android":"levelo://app?vid=8f9251d6-9e5c-4bc8-8dac-c771b6957426","ios":"levelo://app?vid=8f9251d6-9e5c-4bc8-8dac-c771b6957426"},"vehicle_type_id":"4","last_reported":1726405989,"current_range_meters":9600,"station_id":"ce4bgkh2rcd13ifvqbl0","pricing_plan_id":"cebpf4jnsgd1na2vs0mg"},{"bike_id":"302d6aa4-03a2-4d05-b58c-116f1e28ec91","system_id":"levelo_inurba_marseille","lat":43.25728,"lon":5.41108,"is_reserved":false,"is_disabled":false,"rental_uris":{"android":"levelo://app?vid=302d6aa4-03a2-4d05-b58c-116f1e28ec91","ios":"levelo://app?vid=302d6aa4-03a2-4d05-b58c-116f1e28ec91"},"vehicle_type_id":"4","last_reported":1726405989,"current_range_meters":6400,"station_id":"ce4bhkp2rcd13ifvqgd0","pricing_plan_id":"cebpf4jnsgd1na2vs0mg"},{"bike_id":"c59178dd-d77c-42bd-ba16-4e6f4db0709c","system_id":"levelo_inurba_marseille","lat":43.24817,"lon":5.3746,"is_reserved":false,"is_disabled":false,"rental_uris":{"android":"levelo://app?vid=c59178dd-d77c-42bd-ba16-4e6f4db0709c","ios":"levelo://app?vid=c59178dd-d77c-42bd-ba16-4e6f4db0709c"},"vehicle_type_id":"4","last_reported":1726405989,"current_range_meters":28400,"station_id":"ce4bhgh2rcd13ifvqfb0","pricing_plan_id":"cebpf4jnsgd1na2vs0mg"},{"bike_id":"38555a40-8090-4017-8c13-63cfb0365a46","system_id":"levelo_inurba_marseille","lat":43.26561,"lon":5.37281,"is_reserved":false,"is_disabled":false,"rental_uris":{"android":"levelo://app?vid=38555a40-8090-4017-8c13-63cfb0365a46","ios":"levelo://app?vid=38555a40-8090-4017-8c13-63cfb0365a46"},"vehicle_type_id":"4","last_reported":1726405989,"current_range_meters":30400,"station_id":"ce4bhg12rcd13ifvqf70","pricing_plan_id":"cebpf4jnsgd1na2vs0mg"},