{"last_updated":1685383679,"ttl":30,"version":"2.2","data":{"bikes":[{"bike_id":"7939fecb-8606-4e50-bc28-967e705df8de","system_id":"levelo_inurba_marseille","lat":43.312239,"lon":5.368562,"is_reserved":false,"is_disabled":false,"rental_uris":{"android":"levelo://app?vid=7939fecb-8606-4e50-bc28-967e705df8de","ios":"levelo://app?vid=7939fecb-8606-4e50-bc28-967e705df8de"},"vehicle_type_id":"4","last_reported":1685383680,"current_range_meters":0,"station_id":"ce4bgl92rcd13ifvqbq0","pricing_plan_id":"free"},{"bike_id":"96c5420f-d01c-4a08-ba21-aea3fd062c01","system_id":"levelo_inurba_marseille","lat":43.312239,"lon":5.368562,"is_reserved":false,"is_disabled":false,"rental_uris":{"android":"levelo://app?vid=96c5420f-d01c-4a08-ba21-aea3fd062c01","ios":"levelo://app?vid=96c5420f-d01c-4a08-ba21-aea3fd062c01"},"vehicle_type_id":"4","last_reported":1685383680,"current_range_meters":14800,"station_id":"ce4bgl92rcd13ifvqbq0","pricing_plan_id":"free"},{"bike_id":"8d6419e4-8a62-4522-a64c-4e5a02ed6a9e","system_id":"levelo_inurba_marseille","lat":43.314811,"lon":5.373103,"is_reserved":false,"is_disabled":false,"rental_uris":{"android":"levelo://app?vid=8d6419e4-8a62-4522-a64c-4e5a02ed6a9e","ios":"levelo://app?vid=8d6419e4-8a62-4522-a64c-4e5a02ed6a9e"},"vehicle_type_id":"4","last_reported":1685383680,"current_range_meters":1600,"station_id":"ce4bgt12rcd13ifvqcd0","pricing_plan_id":"free"},{"bike_id":"d226e977-3f0b-4b0c-a0e0-157c44aec210","system_id":"levelo_inurba_marseille","lat":43.31493,"lon":5.37309,"is_reserved":false,"is_disabled":false,"rental_uris":{"android":"levelo://app?vid=d226e977-3f0b-4b0c-a0e0-157c44aec210","ios":"levelo://app?vid=d226e977-3f0b-4b0c-a0e0-157c44aec210"},"vehicle_type_id":"4","last_reported":1685383680,"current_range_meters":27200,"station_id":"ce4bgt12rcd13ifvqcd0","pricing_plan_id":"free"},{"bike_id":"988c5d06-03da-48a6-bd31-79feb9553a83","system_id":"levelo_inurba_marseille","lat":43.305989,"lon":5.37225,"is_reserved":false,"is_disabled":false,"rental_uris":{"android":"levelo://app?vid=988c5d06-03da-48a6-bd31-79feb9553a83","ios":"levelo://app?vid=988c5d06-03da-48a6-bd31-79feb9553a83"},"vehicle_type_id":"4","last_reported":1685383680,"current_range_meters":21200,"station_id":"ce4bgqh2rcd13ifvqc4g","pricing_plan_id":"free"},{"bike_id":"d03dfde3-848d-4a12-b8c5-302f4c16e8c3","system_id":"levelo_inurba_marseille","lat":43.31549,"lon":5.38046,"is_reserved":false,"is_disabled":false,"rental_uris":{"android":"levelo://app?vid=d03dfde3-848d-4a12-b8c5-302f4c16e8c3","ios":"levelo://app?vid=d03dfde3-848d-4a12-b8c5-302f4c16e8c3"},"vehicle_type_id":"4","last_reported":1685383680,"current_range_meters":16800,"station_id":"","pricing_plan_id":"free"},{"bike_id":"1a8d2ad2-450e-4d05-93be-c299c78b3550","system_id":"levelo_inurba_marseille","lat":43.301939,"lon":5.366286,"is_reserved":false,"is_disabled":false,"rental_uris":{"android":"levelo://app?vid=1a8d2ad2-450e-4d05-93be-c299c78b3550","ios":"levelo://app?vid=1a8d2ad2-450e-4d05-93be-c299c78b3550"},"vehicle_type_id":"4","last_reported":1685383680,"current_range_meters":22400,"station_id":"ce4bgrh2rcd13ifvqc8g","pricing_plan_id":"free"},{"bike_id":"da4b15a6-c418-4189-acb7-80adbd137029","system_id":"levelo_inurba_marseille","lat":43.301939,"lon":5.366286,"is_reserved":false,"is_disabled":false,"rental_uris":{"android":"levelo://app?vid=da4b15a6-c418-4189-acb7-80adbd137029","ios":"levelo://app?vid=da4b15a6-c418-4189-acb7-80adbd137029"},"vehicle_type_id":"4","last_reported":1685383680,"current_range_meters":11600,"station_id":"ce4bgrh2rcd13ifvqc8g","pricing_plan_id":"free"},{"bike_id":"2b651255-47da-4042-afe0-11acc45c33d6","system_id":"levelo_inurba_marseille","lat":43.308012,"lon":5.381511,"is_reserved":false,"is_disabled":false,"rental_uris":{"android":"levelo://app?vid=2b651255-47da-4042-afe0-11acc45c33d6","ios":"levelo://app?vid=2b651255-47da-4042-afe0-11acc45c33d6"},"vehicle_type_id":"4","last_reported":1685383680,"current_range_meters":0,"station_id":"ce4bgt12rcd13ifvqce0","pricing_plan_id":"free"},{"bike_id":"cf41c3dd-ed8c-4abc-b55a-e64514650082","system_id":"levelo_inurba_marseille","lat":43.308012,"lon":5.381511,"is_reserved":false,"is_disabled":false,"rental_uris":{"android":"levelo://app?vid=cf41c3dd-ed8c-4abc-b55a-e64514650082","ios":"levelo://app?vid=cf41c3dd-ed8c-4abc-b55a-e64514650082"},"vehicle_type_id":"4","last_reported":1685383680,"current_range_meters":8000,"station_id":"ce4bgt12rcd13ifvqce0","pricing_plan_id":"free"},{"bike_id":"ed53ce13-9abf-4cde-a1d3-b17f96ebcdfa","system_id":"levelo_inurba_marseille","lat":43.30802,"lon":5.38148,"is_reserved":false,"is_disabled":false,"rental_uris":{"android":"levelo://app?vid=ed53ce13-9abf-4cde-a1d3-b17f96ebcdfa","ios":"levelo://app?vid=ed53ce13-9abf-4cde-a1d3-b17f96ebcdfa"},"vehicle_type_id":"4","last_reported":1685383680,"current_range_meters":28000,"station_id":"ce4bgt12rcd13ifvqce0","pricing_plan_id":"free"},{"bike_id":"81678cd2-6813-44b6-9d68-7da1e3141b31","system_id":"levelo_inurba_marseille","lat":43.308012,"lon":5.381511,"is_reserved":false,"is_disabled":false,"rental_uris":{"android":"levelo://app?vid=81678cd2-6813-44b6-9d68-7da1e3141b31","ios":"levelo://app?vid=81678cd2-6813-44b6-9d68-7da1e3141b31"},"vehicle_type_id":"4","last_reported":1685383680,"current_range_meters":6400,"station_id":"ce4bgt12rcd13ifvqce0","pricing_plan_id":"free"},{"bike_id":"c400e462-a4de-4542-ac86-b99081db2f1e","system_id":"levelo_inurba_marseille","lat":43.3167,"lon":5.38243,"is_reserved":false,"is_disabled":false,"rental_uris":{"android":"levelo://app?vid=c400e462-a4de-4542-ac86-b99081db2f1e","ios":"levelo://app?vid=c400e462-a4de-4542-ac86-b99081db2f1e"},"vehicle_type_id":"4","last_reported":1685383680,"current_range_meters":8800,"station_id":"","pricing_plan_id":"free"},{"bike_id":"ba4174ed-1ab1-4477-9518-c8cd4f235785","system_id":"levelo_inurba_marseille","lat":43.304606,"lon":5.379026,"is_reserved":false,"is_disabled":false,"rental_uris":{"android":"levelo://app?vid=ba4174ed-1ab1-4477-9518-c8cd4f235785","ios":"levelo://app?vid=ba4174ed-1ab1-4477-9518-c8cd4f235785"},"vehicle_type_id":"4","last_reported":1685383680,"current_range_meters":11200,"station_id":"ce4bgup2rcd13ifvqcn0","pricing_plan_id":"free"},{"bike_id":"d11da2d4-50ab-475d-a497-999f76f85bd5","system_id":"levelo_inurba_marseille","lat":43.31641,"lon":5.38337,"is_reserved":false,"is_disabled":false,"rental_uris":{"android":"levelo://app?vid=d11da2d4-50ab-475d-a497-999f76f85bd5","ios":"levelo://app?vid=d11da2d4-50ab-475d-a497-999f76f85bd5"},"vehicle_type_id":"4","last_reported":1685383680,"current_range_meters":21200,"station_id":"","pricing_plan_id":"free"},{"bike_id":"337d3ab0-4cac-45c7-a7a1-c7da47727d14","system_id":"levelo_inurba_marseille","lat":43.313571,"lon":5.384829,"is_reserved":false,"is_disabled":false,"rental_uris":{"android":"levelo://app?vid=337d3ab0-4cac-45c7-a7a1-c7da47727d14","ios":"levelo://app?vid=337d3ab0-4cac-45c7-a7a1-c7da47727d14"},"vehicle_type_id":"4","last_reported":1685383680,"current_range_meters":14800,"station_id":"ce4bgt92rcd13ifvqcf0","pricing_plan_id":"free"},{"bike_id":"c27a5f96-6a8d-4501-b368-21ef7a52a681","system_id":"levelo_inurba_marseille","lat":43.299222,"lon":5.365554,"is_reserved":false,"is_disabled":false,"rental_uris":{"android":"levelo://app?vid=c27a5f96-6a8d-4501-b368-21ef7a52a681","ios":"levelo://app?vid=c27a5f96-6a8d-4501-b368-21ef7a52a681"},"vehicle_type_id":"4","last_reported":1685383680,"current_range_meters":26800,"station_id":"ce4bgm92rcd13ifvqbr0","pricing_plan_id":"free"},{"bike_id":"dacef7b9-ff0d-4795-9ad0-9c748d6214a7","system_id":"levelo_inurba_marseille","lat":43.299243,"lon":5.37481,"is_reserved":false,"is_disabled":false,"rental_uris":{"android":"levelo://app?vid=dacef7b9-ff0d-4795-9ad0-9c748d6214a7","ios":"levelo://app?vid=dacef7b9-ff0d-4795-9ad0-9c748d6214a7"},"vehicle_type_id":"4","last_reported":1685383680,"current_range_meters":15200,"station_id":"ce4bgjh2rcd13ifvqbg0","pricing_plan_id":"free"},{"bike_id":"ac040809-5c2e-4926-9212-0807fa1ab5f7","system_id":"levelo_inurba_marseille","lat":43.29928,"lon":5.37451,"is_reserved":false,"is_disabled":false,"rental_uris":{"android":"levelo://app?vid=ac040809-5c2e-4926-9212-0807fa1ab5f7","ios":"levelo://app?vid=ac040809-5c2e-4926-9212-0807fa1ab5f7"},"vehicle_type_id":"4","last_reported":1685383680,"current_range_meters":8800,"station_id":"ce4bgjh2rcd13ifvqbg0","pricing_plan_id":"free"},{"bike_id":"05732910-70ae-4cc7-a80d-e8cd5880d561","system_id":"levelo_inurba_marseille","lat":43.298433,"lon":5.362774,"is_reserved":false,"is_disabled":false,"rental_uris":{"android":"levelo://app?vid=05732910-70ae-4cc7-a80d-e8cd5880d561","ios":"levelo://app?vid=05732910-70ae-4cc7-a80d-e8cd5880d561"},"vehicle_type_id":"4","last_reported":1685383680,"current_range_meters":2000,"station_id":"ce4bgpp2rcd13ifvqc3g","pricing_plan_id":"free"},{"bike_id":"680f82a0-45e0-4bea-9cd6-701143b55058","system_id":"levelo_inurba_marseille","lat":43.298433,"lon":5.362774,"is_reserved":false,"is_disabled":false,"rental_uris":{"android":"levelo://app?vid=680f82a0-45e0-4bea-9cd6-701143b55058","ios":"levelo://app?vid=680f82a0-45e0-4bea-9cd6-701143b55058"},"vehicle_type_id":"4","last_reported":1685383680,"current_range_meters":10800,"station_id":"ce4bgpp2rcd13ifvqc3g","pricing_plan_id":"free"},{"bike_id":"8e3ed839-fd21-4346-b693-d8cc96dbf204","system_id":"levelo_inurba_marseille","lat":43.305364,"lon":5.384119,"is_reserved":false,"is_disabled":false,"rental_uris":{"android":"levelo://app?vid=8e3ed839-fd21-4346-b693-d8cc96dbf204","ios":"levelo://app?vid=8e3ed839-fd21-4346-b693-d8cc96dbf204"},"vehicle_type_id":"4","last_reported":1685383680,"current_range_meters":26000,"station_id":"ce4bgg92rcd13ifvqb30","pricing_plan_id":"free"},{"bike_id":"8828beca-909b-4fe6-9be0-c1d87442e06e","system_id":"levelo_inurba_marseille","lat":43.299243,"lon":5.37481,"is_reserved":false,"is_disabled":false,"rental_uris":{"android":"levelo://app?vid=8828beca-909b-4fe6-9be0-c1d87442e06e","ios":"levelo://app?vid=8828beca-909b-4fe6-9be0-c1d87442e06e"},"vehicle_type_id":"4","last_reported":1685383680,"current_range_meters":19200,"station_id":"ce4bgjh2rcd13ifvqbg0","pricing_plan_id":"free"},{"bike_id":"a6d71cae-6fd1-4b7f-8e6e-b0813b3f4f29","system_id":"levelo_inurba_marseille","lat":43.311722,"lon":5.387247,"is_reserved":false,"is_disabled":false,"rental_uris":{"android":"levelo://app?vid=a6d71cae-6fd1-4b7f-8e6e-b0813b3f4f29","ios":"levelo://app?vid=a6d71cae-6fd1-4b7f-8e6e-b0813b3f4f29"},"vehicle_type_id":"4","last_reported":1685383680,"current_range_meters":1200,"station_id":"ce4bgv12rcd13ifvqcp0","pricing_plan_id":"free"},{"bike_id":"5713a1db-bc94-4ae2-b819-9ab8ee6708a8","system_id":"levelo_inurba_marseille","lat":43.311722,"lon":5.387247,"is_reserved":false,"is_disabled":false,"rental_uris":{"android":"levelo://app?vid=5713a1db-bc94-4ae2-b819-9ab8ee6708a8","ios":"levelo://app?vid=5713a1db-bc94-4ae2-b819-9ab8ee6708a8"},"vehicle_type_id":"4","last_reported":1685383680,"current_range_meters":13600,"station_id":"ce4bgv12rcd13ifvqcp0","pricing_plan_id":"free"},{"bike_id":"5895156f-f83a-4b54-a0b5-57f02c18ef1a","system_id":"levelo_inurba_marseille","lat":43.32821,"lon":5.36681,"is_reserved":false,"is_disabled":false,"rental_uris":{"android":"levelo://app?vid=5895156f-f83a-4b54-a0b5-57f02c18ef1a","ios":"levelo://app?vid=5895156f-f83a-4b54-a0b5-57f02c18ef1a"},"vehicle_type_id":"4","last_reported":1685383680,"current_range_meters":21200,"station_id":"ce4bhs92rcd13ifvqi0g","pricing_plan_id":"free"},{"bike_id":"eb0659e8-b01d-4eba-b418-3f442316222b","system_id":"levelo_inurba_marseille","lat":43.328371,"lon":5.366909,"is_reserved":false,"is_disabled":false,"rental_uris":{"android":"levelo://app?vid=eb0659e8-b01d-4eba-b418-3f442316222b","ios":"levelo://app?vid=eb0659e8-b01d-4eba-b418-3f442316222b"},"vehicle_type_id":"4","last_reported":1685383680,"current_range_meters":23200,"station_id":"ce4bhs92rcd13ifvqi0g","pricing_plan_id":"free"},{"bike_id":"7b454527-73e4-4477-8689-b6018d8cb50b","system_id":"levelo_inurba_marseille","lat":43.328371,"lon":5.366909,"is_reserved":false,"is_disabled":false,"rental_uris":{"android":"levelo://app?vid=7b454527-73e4-4477-8689-b6018d8cb50b","ios":"levelo://app?vid=7b454527-73e4-4477-8689-b6018d8cb50b"},"vehicle_type_id":"4","last_reported":1685383680,"current_range_meters":1600,"station_id":"ce4bhs92rcd13ifvqi0g","pricing_plan_id":"free"},{"bike_id":"bfcee4c7-8dc0-4f3e-a9f5-26101145ee75","system_id":"levelo_inurba_marseille","lat":43.29713,"lon":5.36604,"is_reserved":false,"is_disabled":false,"rental_uris":{"android":"levelo://app?vid=bfcee4c7-8dc0-4f3e-a9f5-26101145ee75","ios":"levelo://app?vid=bfcee4c7-8dc0-4f3e-a9f5-26101145ee75"},"vehicle_type_id":"4","last_reported":1685383680,"current_range_meters":5200,"station_id":"","pricing_plan_id":"free"},{"bike_id":"7ed490e9-e6ba-4f83-9d8d-3f5df610ccf8","system_id":"levelo_inurba_marseille","lat":43.2971,"lon":5.36607,"is_reserved":false,"is_disabled":false,"rental_uris":{"android":"levelo://app?vid=7ed490e9-e6ba-4f83-9d8d-3f5df610ccf8","ios":"levelo://app?vid=7ed490e9-e6ba-4f83-9d8d-3f5df610ccf8"},"vehicle_type_id":"4","last_reported":1685383680,"current_range_meters":1600,"station_id":"","pricing_plan_id":"free"},{"bike_id":"574190e5-850d-4dd1-8eea-8ea5be63aef3","system_id":"levelo_inurba_marseille","lat":43.309589,"lon":5.390258,"is_reserved":false,"is_disabled":false,"rental_uris":{"android":"levelo://app?vid=574190e5-850d-4dd1-8eea-8ea5be63aef3","ios":"levelo://app?vid=574190e5-850d-4dd1-8eea-8ea5be63aef3"},"vehicle_type_id":"4","last_reported":1685383680,"current_range_meters":0,"station_id":"ce4bgup2rcd13ifvqco0","pricing_plan_id":"free"},{"bike_id":"de3f0e0c-d381-48d6-a614-a388ddde6937","system_id":"levelo_inurba_marseille","lat":43.309589,"lon":5.390258,"is_reserved":false,"is_disabled":false,"rental_uris":{"android":"levelo://app?vid=de3f0e0c-d381-48d6-a614-a388ddde6937","ios":"levelo://app?vid=de3f0e0c-d381-48d6-a614-a388ddde6937"},"vehicle_type_id":"4","last_reported":1685383680,"current_range_meters":5200,"station_id":"ce4bgup2rcd13ifvqco0","pricing_plan_id":"free"},{"bike_id":"06b7daa8-4062-4343-81bd-3bc15c178422","system_id":"levelo_inurba_marseille","lat":43.298037,"lon":5.381066,"is_reserved":false,"is_disabled":false,"rental_uris":{"android":"levelo://app?vid=06b7daa8-4062-4343-81bd-3bc15c178422","ios":"levelo://app?vid=06b7daa8-4062-4343-81bd-3bc15c178422"},"vehicle_type_id":"4","last_reported":1685383680,"current_range_meters":400,"station_id":"ce4bgip2rcd13ifvqbb0","pricing_plan_id":"free"},{"bike_id":"a3de1c36-a285-4eda-b4cb-f631f1b0d7cf","system_id":"levelo_inurba_marseille","lat":43.298037,"lon":5.381066,"is_reserved":false,"is_disabled":false,"rental_uris":{"android":"levelo://app?vid=a3de1c36-a285-4eda-b4cb-f631f1b0d7cf","ios":"levelo://app?vid=a3de1c36-a285-4eda-b4cb-f631f1b0d7cf"},"vehicle_type_id":"4","last_reported":1685383680,"current_range_meters":18000,"station_id":"ce4bgip2rcd13ifvqbb0","pricing_plan_id":"free"},{"bike_id":"42e4af43-b6ee-4d36-8501-b9d842a06f4f","system_id":"levelo_inurba_marseille","lat":43.29572,"lon":5.37516,"is_reserved":false,"is_disabled":false,"rental_uris":{"android":"levelo://app?vid=42e4af43-b6ee-4d36-8501-b9d842a06f4f","ios":"levelo://app?vid=42e4af43-b6ee-4d36-8501-b9d842a06f4f"},"vehicle_type_id":"4","last_reported":1685383680,"current_range_meters":8800,"station_id":"ce4bgh92rcd13ifvqb50","pricing_plan_id":"free"},{"bike_id":"c8f18d7f-f7a5-45df-9ba4-fc2d4f661e98","system_id":"levelo_inurba_marseille","lat":43.29569,"lon":5.37522,"is_reserved":false,"is_disabled":false,"rental_uris":{"android":"levelo://app?vid=c8f18d7f-f7a5-45df-9ba4-fc2d4f661e98","ios":"levelo://app?vid=c8f18d7f-f7a5-45df-9ba4-fc2d4f661e98"},"vehicle_type_id":"4","last_reported":1685383680,"current_range_meters":13200,"station_id":"ce4bgh92rcd13ifvqb50","pricing_plan_id":"free"},{"bike_id":"61c39e2c-c9d0-4364-8dba-aae31220df09","system_id":"levelo_inurba_marseille","lat":43.304274,"lon":5.388873,"is_reserved":false,"is_disabled":false,"rental_uris":{"android":"levelo://app?vid=61c39e2c-c9d0-4364-8dba-aae31220df09","ios":"levelo://app?vid=61c39e2c-c9d0-4364-8dba-aae31220df09"},"vehicle_type_id":"4","last_reported":1685383680,"current_range_meters":0,"station_id":"ce4bgk12rcd13ifvqbi0","pricing_plan_id":"free"},{"bike_id":"d6c252c2-5efb-4093-86ce-de0808935146","system_id":"levelo_inurba_marseille","lat":43.2956,"lon":5.37526,"is_reserved":false,"is_disabled":false,"rental_uris":{"android":"levelo://app?vid=d6c252c2-5efb-4093-86ce-de0808935146","ios":"levelo://app?vid=d6c252c2-5efb-4093-86ce-de0808935146"},"vehicle_type_id":"4","last_reported":1685383680,"current_range_meters":1200,"station_id":"ce4bgh92rcd13ifvqb50","pricing_plan_id":"free"},{"bike_id":"3368576c-d347-45ac-a283-75fdf4a2f60b","system_id":"levelo_inurba_marseille","lat":43.299707,"lon":5.384859,"is_reserved":false,"is_disabled":false,"rental_uris":{"android":"levelo://app?vid=3368576c-d347-45ac-a283-75fdf4a2f60b","ios":"levelo://app?vid=3368576c-d347-45ac-a283-75fdf4a2f60b"},"vehicle_type_id":"4","last_reported":1685383680,"current_range_meters":16000,"station_id":"ce4bgj92rcd13ifvqbd0","pricing_plan_id":"free"},{"bike_id":"ea63296a-7bda-411e-982c-944f62cf3534","system_id":"levelo_inurba_marseille","lat":43.299707,"lon":5.384859,"is_reserved":false,"is_disabled":false,"rental_uris":{"android":"levelo://app?vid=ea63296a-7bda-411e-982c-944f62cf3534","ios":"levelo://app?vid=ea63296a-7bda-411e-982c-944f62cf3534"},"vehicle_type_id":"4","last_reported":1685383680,"current_range_meters":0,"station_id":"ce4bgj92rcd13ifvqbd0","pricing_plan_id":"free"},{"bike_id":"1fcf13a5-56b0-4ad7-91fe-de3a742c6b31","system_id":"levelo_inurba_marseille","lat":43.29961,"lon":5.38491,"is_reserved":false,"is_disabled":false,"rental_uris":{"android":"levelo://app?vid=1fcf13a5-56b0-4ad7-91fe-de3a742c6b31","ios":"levelo://app?vid=1fcf13a5-56b0-4ad7-91fe-de3a742c6b31"},"vehicle_type_id":"4","last_reported":1685383680,"current_range_meters":0,"station_id":"ce4bgj92rcd13ifvqbd0","pricing_plan_id":"free"},{"bike_id":"d9b52209-c7ea-42fb-92bf-c01a91ff7e03","system_id":"levelo_inurba_marseille","lat":43.29965,"lon":5.38497,"is_reserved":false,"is_disabled":false,"rental_uris":{"android":"levelo://app?vid=d9b52209-c7ea-42fb-92bf-c01a91ff7e03","ios":"levelo://app?vid=d9b52209-c7ea-42fb-92bf-c01a91ff7e03"},"vehicle_type_id":"4","last_reported":1685383680,"current_range_meters":8400,"station_id":"ce4bgj92rcd13ifvqbd0","pricing_plan_id":"free"},{"bike_id":"3879be66-c0fc-4aa3-a36a-84dcc6389c6f","system_id":"levelo_inurba_marseille","lat":43.29962,"lon":5.38497,"is_reserved":false,"is_disabled":false,"rental_uris":{"android":"levelo://app?vid=3879be66-c0fc-4aa3-a36a-84dcc6389c6f","ios":"levelo://app?vid=3879be66-c0fc-4aa3-a36a-84dcc6389c6f"},"vehicle_type_id":"4","last_reported":1685383680,"current_range_meters":7600,"station_id":"ce4bgj92rcd13ifvqbd0","pricing_plan_id":"free"},{"bike_id":"6eb0568e-26ae-404c-a7e7-b7338d9e20ba","system_id":"levelo_inurba_marseille","lat":43.29959,"lon":5.38502,"is_reserved":false,"is_disabled":false,"rental_uris":{"android":"levelo://app?vid=6eb0568e-26ae-404c-a7e7-b7338d9e20ba","ios":"levelo://app?vid=6eb0568e-26ae-404c-a7e7-b7338d9e20ba"},"vehicle_type_id":"4","last_reported":1685383680,"current_range_meters":22400,"station_id":"ce4bgj92rcd13ifvqbd0","pricing_plan_id":"free"},{"bike_id":"00c9b202-b5b6-4f69-8084-db1f9466ee79","system_id":"levelo_inurba_marseille","lat":43.32367,"lon":5.388836,"is_reserved":false,"is_disabled":false,"rental_uris":{"android":"levelo://app?vid=00c9b202-b5b6-4f69-8084-db1f9466ee79","ios":"levelo://app?vid=00c9b202-b5b6-4f69-8084-db1f9466ee79"},"vehicle_type_id":"4","last_reported":1685383680,"current_range_meters":24800,"station_id":"ce4bhqp2rcd13ifvqhog","pricing_plan_id":"free"},{"bike_id":"950f3a0b-8466-40bf-8f81-5f5cf1a96632","system_id":"levelo_inurba_marseille","lat":43.32367,"lon":5.388836,"is_reserved":false,"is_disabled":false,"rental_uris":{"android":"levelo://app?vid=950f3a0b-8466-40bf-8f81-5f5cf1a96632","ios":"levelo://app?vid=950f3a0b-8466-40bf-8f81-5f5cf1a96632"},"vehicle_type_id":"4","last_reported":1685383680,"current_range_meters":8000,"station_id":"ce4bhqp2rcd13ifvqhog","pricing_plan_id":"free"},{"bike_id":"bf5f18dc-4111-479b-ab07-2b4a279d2f84","system_id":"levelo_inurba_marseille","lat":43.32367,"lon":5.388836,"is_reserved":false,"is_disabled":false,"rental_uris":{"android":"levelo://app?vid=bf5f18dc-4111-479b-ab07-2b4a279d2f84","ios":"levelo://app?vid=bf5f18dc-4111-479b-ab07-2b4a279d2f84"},"vehicle_type_id":"4","last_reported":1685383680,"current_range_meters":20400,"station_id":"ce4bhqp2rcd13ifvqhog","pricing_plan_id":"free"},{"bike_id":"e73eb9be-ead2-4b22-bcf6-92cc725a0f95","system_id":"levelo_inurba_marseille","lat":43.29601,"lon":5.381084,"is_reserved":false,"is_disabled":false,"rental_uris":{"android":"levelo://app?vid=e73eb9be-ead2-4b22-bcf6-92cc725a0f95","ios":"levelo://app?vid=e73eb9be-ead2-4b22-bcf6-92cc725a0f95"},"vehicle_type_id":"4","last_reported":1685383680,"current_range_meters":18400,"station_id":"ce4bgl12rcd13ifvqbo0","pricing_plan_id":"free"},{"bike_id":"2acbd842-6370-4cfd-bc38-be4dbe359e5e","system_id":"levelo_inurba_marseille","lat":43.293249,"lon":5.371578,"is_reserved":false,"is_disabled":false,"rental_uris":{"android":"levelo://app?vid=2acbd842-6370-4cfd-bc38-be4dbe359e5e","ios":"levelo://app?vid=2acbd842-6370-4cfd-bc38-be4dbe359e5e"},"vehicle_type_id":"4","last_reported":1685383680,"current_range_meters":31600,"station_id":"ce4bgh92rcd13ifvqb40","pricing_plan_id":"free"},{"bike_id":"96723984-5cf6-4bcc-83e6-143701dd1b93","system_id":"levelo_inurba_marseille","lat":43.293009,"lon":5.374584,"is_reserved":false,"is_disabled":false,"rental_uris":{"android":"levelo://app?vid=96723984-5cf6-4bcc-83e6-143701dd1b93","ios":"levelo://app?vid=96723984-5cf6-4bcc-83e6-143701dd1b93"},"vehicle_type_id":"4","last_reported":1685383680,"current_range_meters":2800,"station_id":"ce4bgi12rcd13ifvqb70","pricing_plan_id":"free"},{"bike_id":"b3f8f29f-984b-4836-8208-43d474185d3d","system_id":"levelo_inurba_marseille","lat":43.293009,"lon":5.374584,"is_reserved":false,"is_disabled":false,"rental_uris":{"android":"levelo://app?vid=b3f8f29f-984b-4836-8208-43d474185d3d","ios":"levelo://app?vid=b3f8f29f-984b-4836-8208-43d474185d3d"},"vehicle_type_id":"4","last_reported":1685383680,"current_range_meters":13200,"station_id":"ce4bgi12rcd13ifvqb70","pricing_plan_id":"free"},{"bike_id":"22fc9a05-7da3-47d3-9cfe-fe4732e36aca","system_id":"levelo_inurba_marseille","lat":43.2936,"lon":5.37835,"is_reserved":false,"is_disabled":false,"rental_uris":{"android":"levelo://app?vid=22fc9a05-7da3-47d3-9cfe-fe4732e36aca","ios":"levelo://app?vid=22fc9a05-7da3-47d3-9cfe-fe4732e36aca"},"vehicle_type_id":"4","last_reported":1685383680,"current_range_meters":3200,"station_id":"ce4bgjh2rcd13ifvqbf0","pricing_plan_id":"free"},{"bike_id":"e6aac783-4425-4c29-8dea-2632b71e71b5","system_id":"levelo_inurba_marseille","lat":43.29369,"lon":5.37841,"is_reserved":false,"is_disabled":false,"rental_uris":{"android":"levelo://app?vid=e6aac783-4425-4c29-8dea-2632b71e71b5","ios":"levelo://app?vid=e6aac783-4425-4c29-8dea-2632b71e71b5"},"vehicle_type_id":"4","last_reported":1685383680,"current_range_meters":19600,"station_id":"ce4bgjh2rcd13ifvqbf0","pricing_plan_id":"free"},{"bike_id":"c94054d5-5c09-47d0-a920-c2c61759c26d","system_id":"levelo_inurba_marseille","lat":43.303002,"lon":5.392142,"is_reserved":false,"is_disabled":false,"rental_uris":{"android":"levelo://app?vid=c94054d5-5c09-47d0-a920-c2c61759c26d","ios":"levelo://app?vid=c94054d5-5c09-47d0-a920-c2c61759c26d"},"vehicle_type_id":"4","last_reported":1685383680,"current_range_meters":800,"station_id":"ce4bgkh2rcd13ifvqbk0","pricing_plan_id":"free"},{"bike_id":"42c9491b-7c9a-43fe-8620-6a7b401d7e1d","system_id":"levelo_inurba_marseille","lat":43.2936,"lon":5.37835,"is_reserved":false,"is_disabled":false,"rental_uris":{"android":"levelo://app?vid=42c9491b-7c9a-43fe-8620-6a7b401d7e1d","ios":"levelo://app?vid=42c9491b-7c9a-43fe-8620-6a7b401d7e1d"},"vehicle_type_id":"4","last_reported":1685383680,"current_range_meters":10000,"station_id":"ce4bgjh2rcd13ifvqbf0","pricing_plan_id":"free"},{"bike_id":"ca6e4383-0e42-40ad-a8d8-b45711d298ad","system_id":"levelo_inurba_marseille","lat":43.29371,"lon":5.37859,"is_reserved":false,"is_disabled":false,"rental_uris":{"android":"levelo://app?vid=ca6e4383-0e42-40ad-a8d8-b45711d298ad","ios":"levelo://app?vid=ca6e4383-0e42-40ad-a8d8-b45711d298ad"},"vehicle_type_id":"4","last_reported":1685383680,"current_range_meters":15200,"station_id":"","pricing_plan_id":"free"},{"bike_id":"2650813e-6b99-4154-a6b9-9b41ca625f3a","system_id":"levelo_inurba_marseille","lat":43.292311,"lon":5.360731,"is_reserved":false,"is_disabled":false,"rental_uris":{"android":"levelo://app?vid=2650813e-6b99-4154-a6b9-9b41ca625f3a","ios":"levelo://app?vid=2650813e-6b99-4154-a6b9-9b41ca625f3a"},"vehicle_type_id":"4","last_reported":1685383680,"current_range_meters":2800,"station_id":"ce4bhbh2rcd13ifvqeqg","pricing_plan_id":"free"},{"bike_id":"a52915f2-d381-429a-a907-137e34f382ac","system_id":"levelo_inurba_marseille","lat":43.291675,"lon":5.371583,"is_reserved":false,"is_disabled":false,"rental_uris":{"android":"levelo://app?vid=a52915f2-d381-429a-a907-137e34f382ac","ios":"levelo://app?vid=a52915f2-d381-429a-a907-137e34f382ac"},"vehicle_type_id":"4","last_reported":1685383680,"current_range_meters":800,"station_id":"ce4bha92rcd13ifvqeh0","pricing_plan_id":"free"},{"bike_id":"8649da42-9253-42c3-adef-ebe24c61f84f","system_id":"levelo_inurba_marseille","lat":43.309038,"lon":5.396546,"is_reserved":false,"is_disabled":false,"rental_uris":{"android":"levelo://app?vid=8649da42-9253-42c3-adef-ebe24c61f84f","ios":"levelo://app?vid=8649da42-9253-42c3-adef-ebe24c61f84f"},"vehicle_type_id":"4","last_reported":1685383680,"current_range_meters":10000,"station_id":"ce4bh012rcd13ifvqcv0","pricing_plan_id":"free"},{"bike_id":"259cdaba-a8cd-443c-98d1-312a0fd86276","system_id":"levelo_inurba_marseille","lat":43.313291,"lon":5.396838,"is_reserved":false,"is_disabled":false,"rental_uris":{"android":"levelo://app?vid=259cdaba-a8cd-443c-98d1-312a0fd86276","ios":"levelo://app?vid=259cdaba-a8cd-443c-98d1-312a0fd86276"},"vehicle_type_id":"4","last_reported":1685383680,"current_range_meters":14800,"station_id":"ce4bgvp2rcd13ifvqcu0","pricing_plan_id":"free"},{"bike_id":"30c1dcc4-516e-4733-a331-dc940127796a","system_id":"levelo_inurba_marseille","lat":43.309038,"lon":5.396546,"is_reserved":false,"is_disabled":false,"rental_uris":{"android":"levelo://app?vid=30c1dcc4-516e-4733-a331-dc940127796a","ios":"levelo://app?vid=30c1dcc4-516e-4733-a331-dc940127796a"},"vehicle_type_id":"4","last_reported":1685383680,"current_range_meters":4400,"station_id":"ce4bh012rcd13ifvqcv0","pricing_plan_id":"free"},{"bike_id":"d84748ca-56de-4c39-8d97-8763d6af5c17","system_id":"levelo_inurba_marseille","lat":43.313291,"lon":5.396838,"is_reserved":false,"is_disabled":false,"rental_uris":{"android":"levelo://app?vid=d84748ca-56de-4c39-8d97-8763d6af5c17","ios":"levelo://app?vid=d84748ca-56de-4c39-8d97-8763d6af5c17"},"vehicle_type_id":"4","last_reported":1685383680,"current_range_meters":18800,"station_id":"ce4bgvp2rcd13ifvqcu0","pricing_plan_id":"free"},{"bike_id":"f0c72ee3-9138-4c37-a483-8155904270c0","system_id":"levelo_inurba_marseille","lat":43.29188,"lon":5.35802,"is_reserved":false,"is_disabled":false,"rental_uris":{"android":"levelo://app?vid=f0c72ee3-9138-4c37-a483-8155904270c0","ios":"levelo://app?vid=f0c72ee3-9138-4c37-a483-8155904270c0"},"vehicle_type_id":"4","last_reported":1685383680,"current_range_meters":0,"station_id":"ce4bhb12rcd13ifvqel0","pricing_plan_id":"free"},{"bike_id":"747fe85b-9cf8-4725-9841-37dca42d7e46","system_id":"levelo_inurba_marseille","lat":43.309038,"lon":5.396546,"is_reserved":false,"is_disabled":false,"rental_uris":{"android":"levelo://app?vid=747fe85b-9cf8-4725-9841-37dca42d7e46","ios":"levelo://app?vid=747fe85b-9cf8-4725-9841-37dca42d7e46"},"vehicle_type_id":"4","last_reported":1685383680,"current_range_meters":8400,"station_id":"ce4bh012rcd13ifvqcv0","pricing_plan_id":"free"},{"bike_id":"5fa6a67e-eed1-4195-a75f-4206a54381b4","system_id":"levelo_inurba_marseille","lat":43.309038,"lon":5.396546,"is_reserved":false,"is_disabled":false,"rental_uris":{"android":"levelo://app?vid=5fa6a67e-eed1-4195-a75f-4206a54381b4","ios":"levelo://app?vid=5fa6a67e-eed1-4195-a75f-4206a54381b4"},"vehicle_type_id":"4","last_reported":1685383680,"current_range_meters":8000,"station_id":"ce4bh012rcd13ifvqcv0","pricing_plan_id":"free"},{"bike_id":"ce4fa09d-e8dd-471d-abaf-e53f89c4c605","system_id":"levelo_inurba_marseille","lat":43.309038,"lon":5.396546,"is_reserved":false,"is_disabled":false,"rental_uris":{"android":"levelo://app?vid=ce4fa09d-e8dd-471d-abaf-e53f89c4c605","ios":"levelo://app?vid=ce4fa09d-e8dd-471d-abaf-e53f89c4c605"},"vehicle_type_id":"4","last_reported":1685383680,"current_range_meters":12400,"station_id":"ce4bh012rcd13ifvqcv0","pricing_plan_id":"free"},{"bike_id":"8ff77d26-5644-44cd-876e-c70b5613843d","system_id":"levelo_inurba_marseille","lat":43.29529,"lon":5.385581,"is_reserved":false,"is_disabled":false,"rental_uris":{"android":"levelo://app?vid=8ff77d26-5644-44cd-876e-c70b5613843d","ios":"levelo://app?vid=8ff77d26-5644-44cd-876e-c70b5613843d"},"vehicle_type_id":"4","last_reported":1685383680,"current_range_meters":14800,"station_id":"ce4bgih2rcd13ifvqba0","pricing_plan_id":"free"},{"bike_id":"62e04f59-5274-481a-8b45-e4f6e055669a","system_id":"levelo_inurba_marseille","lat":43.29529,"lon":5.385581,"is_reserved":false,"is_disabled":false,"rental_uris":{"android":"levelo://app?vid=62e04f59-5274-481a-8b45-e4f6e055669a","ios":"levelo://app?vid=62e04f59-5274-481a-8b45-e4f6e055669a"},"vehicle_type_id":"4","last_reported":1685383680,"current_range_meters":14800,"station_id":"ce4bgih2rcd13ifvqba0","pricing_plan_id":"free"},{"bike_id":"e05a8b54-db56-45b8-989d-d0ff11403fab","system_id":"levelo_inurba_marseille","lat":43.29529,"lon":5.385581,"is_reserved":false,"is_disabled":false,"rental_uris":{"android":"levelo://app?vid=e05a8b54-db56-45b8-989d-d0ff11403fab","ios":"levelo://app?vid=e05a8b54-db56-45b8-989d-d0ff11403fab"},"vehicle_type_id":"4","last_reported":1685383680,"current_range_meters":0,"station_id":"ce4bgih2rcd13ifvqba0","pricing_plan_id":"free"},{"bike_id":"b2f00257-e146-4352-8e6f-45a5ae1e45fa","system_id":"levelo_inurba_marseille","lat":43.29183,"lon":5.35742,"is_reserved":false,"is_disabled":false,"rental_uris":{"android":"levelo://app?vid=b2f00257-e146-4352-8e6f-45a5ae1e45fa","ios":"levelo://app?vid=b2f00257-e146-4352-8e6f-45a5ae1e45fa"},"vehicle_type_id":"4","last_reported":1685383680,"current_range_meters":20000,"station_id":"","pricing_plan_id":"free"},{"bike_id":"66d57d51-c84b-423d-9630-d893420f0545","system_id":"levelo_inurba_marseille","lat":43.29529,"lon":5.385581,"is_reserved":false,"is_disabled":false,"rental_uris":{"android":"levelo://app?vid=66d57d51-c84b-423d-9630-d893420f0545","ios":"levelo://app?vid=66d57d51-c84b-423d-9630-d893420f0545"},"vehicle_type_id":"4","last_reported":1685383680,"current_range_meters":2800,"station_id":"ce4bgih2rcd13ifvqba0","pricing_plan_id":"free"},{"bike_id":"db9d0b8c-a66e-4144-a40d-f2a5f8a93f17","system_id":"levelo_inurba_marseille","lat":43.29382,"lon":5.38318,"is_reserved":false,"is_disabled":false,"rental_uris":{"android":"levelo://app?vid=db9d0b8c-a66e-4144-a40d-f2a5f8a93f17","ios":"levelo://app?vid=db9d0b8c-a66e-4144-a40d-f2a5f8a93f17"},"vehicle_type_id":"4","last_reported":1685383680,"current_range_meters":6000,"station_id":"","pricing_plan_id":"free"},{"bike_id":"a284003c-c237-47ba-9c4f-e2b5b0e4e93e","system_id":"levelo_inurba_marseille","lat":43.302008,"lon":5.394694,"is_reserved":false,"is_disabled":false,"rental_uris":{"android":"levelo://app?vid=a284003c-c237-47ba-9c4f-e2b5b0e4e93e","ios":"levelo://app?vid=a284003c-c237-47ba-9c4f-e2b5b0e4e93e"},"vehicle_type_id":"4","last_reported":1685383680,"current_range_meters":3200,"station_id":"ce4bh0p2rcd13ifvqd70","pricing_plan_id":"free"},{"bike_id":"c20cad56-56c7-4efb-b28b-5dac13f736a4","system_id":"levelo_inurba_marseille","lat":43.294153,"lon":5.386305,"is_reserved":false,"is_disabled":false,"rental_uris":{"android":"levelo://app?vid=c20cad56-56c7-4efb-b28b-5dac13f736a4","ios":"levelo://app?vid=c20cad56-56c7-4efb-b28b-5dac13f736a4"},"vehicle_type_id":"4","last_reported":1685383680,"current_range_meters":12000,"station_id":"ce4bh2h2rcd13ifvqdh0","pricing_plan_id":"free"},{"bike_id":"2be72d65-c1fb-40ec-8192-526187727c6a","system_id":"levelo_inurba_marseille","lat":43.294162,"lon":5.386292,"is_reserved":false,"is_disabled":false,"rental_uris":{"android":"levelo://app?vid=2be72d65-c1fb-40ec-8192-526187727c6a","ios":"levelo://app?vid=2be72d65-c1fb-40ec-8192-526187727c6a"},"vehicle_type_id":"4","last_reported":1685383680,"current_range_meters":12400,"station_id":"ce4bh2h2rcd13ifvqdh0","pricing_plan_id":"free"},{"bike_id":"526463f7-50ba-4f37-9108-8267061498f9","system_id":"levelo_inurba_marseille","lat":43.29272,"lon":5.384377,"is_reserved":false,"is_disabled":false,"rental_uris":{"android":"levelo://app?vid=526463f7-50ba-4f37-9108-8267061498f9","ios":"levelo://app?vid=526463f7-50ba-4f37-9108-8267061498f9"},"vehicle_type_id":"4","last_reported":1685383680,"current_range_meters":2800,"station_id":"ce4bh692rcd13ifvqea0","pricing_plan_id":"free"},{"bike_id":"49b72e6d-dbdf-4b56-8357-6d881b3c9609","system_id":"levelo_inurba_marseille","lat":43.3043,"lon":5.39743,"is_reserved":false,"is_disabled":false,"rental_uris":{"android":"levelo://app?vid=49b72e6d-dbdf-4b56-8357-6d881b3c9609","ios":"levelo://app?vid=49b72e6d-dbdf-4b56-8357-6d881b3c9609"},"vehicle_type_id":"4","last_reported":1685383680,"current_range_meters":7200,"station_id":"ce4bh092rcd13ifvqd20","pricing_plan_id":"free"},{"bike_id":"eb2ddfe4-4895-492a-9ef3-9d8d5fc8230b","system_id":"levelo_inurba_marseille","lat":43.33043,"lon":5.38917,"is_reserved":false,"is_disabled":false,"rental_uris":{"android":"levelo://app?vid=eb2ddfe4-4895-492a-9ef3-9d8d5fc8230b","ios":"levelo://app?vid=eb2ddfe4-4895-492a-9ef3-9d8d5fc8230b"},"vehicle_type_id":"4","last_reported":1685383680,"current_range_meters":0,"station_id":"ce4bhr92rcd13ifvqhrg","pricing_plan_id":"free"},{"bike_id":"5ce01d77-d020-4e62-ab75-60f6261d71be","system_id":"levelo_inurba_marseille","lat":43.290995,"lon":5.381361,"is_reserved":false,"is_disabled":false,"rental_uris":{"android":"levelo://app?vid=5ce01d77-d020-4e62-ab75-60f6261d71be","ios":"levelo://app?vid=5ce01d77-d020-4e62-ab75-60f6261d71be"},"vehicle_type_id":"4","last_reported":1685383680,"current_range_meters":0,"station_id":"ce4bh512rcd13ifvqe2g","pricing_plan_id":"free"},{"bike_id":"ae317956-4386-40a3-b4d5-672a664201eb","system_id":"levelo_inurba_marseille","lat":43.290995,"lon":5.381361,"is_reserved":false,"is_disabled":false,"rental_uris":{"android":"levelo://app?vid=ae317956-4386-40a3-b4d5-672a664201eb","ios":"levelo://app?vid=ae317956-4386-40a3-b4d5-672a664201eb"},"vehicle_type_id":"4","last_reported":1685383680,"current_range_meters":2400,"station_id":"ce4bh512rcd13ifvqe2g","pricing_plan_id":"free"},{"bike_id":"763026ec-2b9a-4580-8d1a-654167259792","system_id":"levelo_inurba_marseille","lat":43.297814,"lon":5.393513,"is_reserved":false,"is_disabled":false,"rental_uris":{"android":"levelo://app?vid=763026ec-2b9a-4580-8d1a-654167259792","ios":"levelo://app?vid=763026ec-2b9a-4580-8d1a-654167259792"},"vehicle_type_id":"4","last_reported":1685383680,"current_range_meters":7200,"station_id":"chh1huq6cuj3fo74tm60","pricing_plan_id":"free"},{"bike_id":"2d568d3f-93ad-47ae-ae8f-164f5bc4f8e0","system_id":"levelo_inurba_marseille","lat":43.295169,"lon":5.390426,"is_reserved":false,"is_disabled":false,"rental_uris":{"android":"levelo://app?vid=2d568d3f-93ad-47ae-ae8f-164f5bc4f8e0","ios":"levelo://app?vid=2d568d3f-93ad-47ae-ae8f-164f5bc4f8e0"},"vehicle_type_id":"4","last_reported":1685383680,"current_range_meters":4400,"station_id":"ce4bh3p2rcd13ifvqdp0","pricing_plan_id":"free"},{"bike_id":"e00f9956-3fe2-4869-add0-8ca8dbc0d8eb","system_id":"levelo_inurba_marseille","lat":43.295169,"lon":5.390426,"is_reserved":false,"is_disabled":false,"rental_uris":{"android":"levelo://app?vid=e00f9956-3fe2-4869-add0-8ca8dbc0d8eb","ios":"levelo://app?vid=e00f9956-3fe2-4869-add0-8ca8dbc0d8eb"},"vehicle_type_id":"4","last_reported":1685383680,"current_range_meters":11200,"station_id":"ce4bh3p2rcd13ifvqdp0","pricing_plan_id":"free"},{"bike_id":"14502ce1-c1cf-4980-898d-f7ac432633f5","system_id":"levelo_inurba_marseille","lat":43.29025,"lon":5.3813,"is_reserved":false,"is_disabled":false,"rental_uris":{"android":"levelo://app?vid=14502ce1-c1cf-4980-898d-f7ac432633f5","ios":"levelo://app?vid=14502ce1-c1cf-4980-898d-f7ac432633f5"},"vehicle_type_id":"4","last_reported":1685383680,"current_range_meters":26800,"station_id":"ce4bh4p2rcd13ifvqe1g","pricing_plan_id":"free"},{"bike_id":"9fb642ea-a9cd-41b1-8f61-b356c23c2768","system_id":"levelo_inurba_marseille","lat":43.28856,"lon":5.358371,"is_reserved":false,"is_disabled":false,"rental_uris":{"android":"levelo://app?vid=9fb642ea-a9cd-41b1-8f61-b356c23c2768","ios":"levelo://app?vid=9fb642ea-a9cd-41b1-8f61-b356c23c2768"},"vehicle_type_id":"4","last_reported":1685383680,"current_range_meters":0,"station_id":"ce4bhb12rcd13ifvqem0","pricing_plan_id":"free"},{"bike_id":"2f600f79-f53c-424c-9356-b36e74d24890","system_id":"levelo_inurba_marseille","lat":43.28856,"lon":5.358371,"is_reserved":false,"is_disabled":false,"rental_uris":{"android":"levelo://app?vid=2f600f79-f53c-424c-9356-b36e74d24890","ios":"levelo://app?vid=2f600f79-f53c-424c-9356-b36e74d24890"},"vehicle_type_id":"4","last_reported":1685383680,"current_range_meters":400,"station_id":"ce4bhb12rcd13ifvqem0","pricing_plan_id":"free"},{"bike_id":"fc8903af-02a1-4458-8da5-1178218b1e0a","system_id":"levelo_inurba_marseille","lat":43.28842,"lon":5.3581,"is_reserved":false,"is_disabled":false,"rental_uris":{"android":"levelo://app?vid=fc8903af-02a1-4458-8da5-1178218b1e0a","ios":"levelo://app?vid=fc8903af-02a1-4458-8da5-1178218b1e0a"},"vehicle_type_id":"4","last_reported":1685383680,"current_range_meters":20000,"station_id":"ce4bhb12rcd13ifvqem0","pricing_plan_id":"free"},{"bike_id":"141c14ea-594b-43ee-894e-8c44af1dcd73","system_id":"levelo_inurba_marseille","lat":43.33741,"lon":5.37457,"is_reserved":false,"is_disabled":false,"rental_uris":{"android":"levelo://app?vid=141c14ea-594b-43ee-894e-8c44af1dcd73","ios":"levelo://app?vid=141c14ea-594b-43ee-894e-8c44af1dcd73"},"vehicle_type_id":"4","last_reported":1685383680,"current_range_meters":31200,"station_id":"","pricing_plan_id":"free"},{"bike_id":"c67b547c-3fcb-4384-8614-e15f558fec55","system_id":"levelo_inurba_marseille","lat":43.33744,"lon":5.37451,"is_reserved":false,"is_disabled":false,"rental_uris":{"android":"levelo://app?vid=c67b547c-3fcb-4384-8614-e15f558fec55","ios":"levelo://app?vid=c67b547c-3fcb-4384-8614-e15f558fec55"},"vehicle_type_id":"4","last_reported":1685383680,"current_range_meters":22800,"station_id":"","pricing_plan_id":"free"},{"bike_id":"493860ce-e063-4684-ab33-c360eaf64153","system_id":"levelo_inurba_marseille","lat":43.33744,"lon":5.37451,"is_reserved":false,"is_disabled":false,"rental_uris":{"android":"levelo://app?vid=493860ce-e063-4684-ab33-c360eaf64153","ios":"levelo://app?vid=493860ce-e063-4684-ab33-c360eaf64153"},"vehicle_type_id":"4","last_reported":1685383680,"current_range_meters":13600,"station_id":"","pricing_plan_id":"free"},{"bike_id":"556c6db1-2600-4c2b-9521-aae8453517c1","system_id":"levelo_inurba_marseille","lat":43.33758,"lon":5.37443,"is_reserved":false,"is_disabled":false,"rental_uris":{"android":"levelo://app?vid=556c6db1-2600-4c2b-9521-aae8453517c1","ios":"levelo://app?vid=556c6db1-2600-4c2b-9521-aae8453517c1"},"vehicle_type_id":"4","last_reported":1685383680,"current_range_meters":9200,"station_id":"","pricing_plan_id":"free"},{"bike_id":"5059b20d-f145-44d3-b055-45a12b71790e","system_id":"levelo_inurba_marseille","lat":43.30642,"lon":5.401031,"is_reserved":false,"is_disabled":false,"rental_uris":{"android":"levelo://app?vid=5059b20d-f145-44d3-b055-45a12b71790e","ios":"levelo://app?vid=5059b20d-f145-44d3-b055-45a12b71790e"},"vehicle_type_id":"4","last_reported":1685383680,"current_range_meters":12800,"station_id":"ce4bh112rcd13ifvqda0","pricing_plan_id":"free"},{"bike_id":"033c2759-5475-43c1-808d-149b2b8ee4c1","system_id":"levelo_inurba_marseille","lat":43.30642,"lon":5.401031,"is_reserved":false,"is_disabled":false,"rental_uris":{"android":"levelo://app?vid=033c2759-5475-43c1-808d-149b2b8ee4c1","ios":"levelo://app?vid=033c2759-5475-43c1-808d-149b2b8ee4c1"},"vehicle_type_id":"4","last_reported":1685383680,"current_range_meters":0,"station_id":"ce4bh112rcd13ifvqda0","pricing_plan_id":"free"},{"bike_id":"f7c6dd2d-7d66-43b1-95b0-1c66fc4c5036","system_id":"levelo_inurba_marseille","lat":43.301117,"lon":5.398795,"is_reserved":false,"is_disabled":false,"rental_uris":{"android":"levelo://app?vid=f7c6dd2d-7d66-43b1-95b0-1c66fc4c5036","ios":"levelo://app?vid=f7c6dd2d-7d66-43b1-95b0-1c66fc4c5036"},"vehicle_type_id":"4","last_reported":1685383680,"current_range_meters":28800,"station_id":"ce4bh0h2rcd13ifvqd40","pricing_plan_id":"free"},{"bike_id":"3eb9dd09-ec82-4940-9cd2-db24ca7d5eba","system_id":"levelo_inurba_marseille","lat":43.301117,"lon":5.398795,"is_reserved":false,"is_disabled":false,"rental_uris":{"android":"levelo://app?vid=3eb9dd09-ec82-4940-9cd2-db24ca7d5eba","ios":"levelo://app?vid=3eb9dd09-ec82-4940-9cd2-db24ca7d5eba"},"vehicle_type_id":"4","last_reported":1685383680,"current_range_meters":11600,"station_id":"ce4bh0h2rcd13ifvqd40","pricing_plan_id":"free"},{"bike_id":"d6683fc9-a9b6-4194-8020-f21128f7db27","system_id":"levelo_inurba_marseille","lat":43.28702,"lon":5.37393,"is_reserved":false,"is_disabled":false,"rental_uris":{"android":"levelo://app?vid=d6683fc9-a9b6-4194-8020-f21128f7db27","ios":"levelo://app?vid=d6683fc9-a9b6-4194-8020-f21128f7db27"},"vehicle_type_id":"4","last_reported":1685383680,"current_range_meters":0,"station_id":"","pricing_plan_id":"free"},{"bike_id":"fd7715ea-8935-4922-9bea-f03c30f6938a","system_id":"levelo_inurba_marseille","lat":43.286591,"lon":5.363346,"is_reserved":false,"is_disabled":false,"rental_uris":{"android":"levelo://app?vid=fd7715ea-8935-4922-9bea-f03c30f6938a","ios":"levelo://app?vid=fd7715ea-8935-4922-9bea-f03c30f6938a"},"vehicle_type_id":"4","last_reported":1685383680,"current_range_meters":29600,"station_id":"ce4bhah2rcd13ifvqej0","pricing_plan_id":"free"},{"bike_id":"f134b70a-92ba-4c91-b58b-0054e3786f2a","system_id":"levelo_inurba_marseille","lat":43.286039,"lon":5.370679,"is_reserved":false,"is_disabled":false,"rental_uris":{"android":"levelo://app?vid=f134b70a-92ba-4c91-b58b-0054e3786f2a","ios":"levelo://app?vid=f134b70a-92ba-4c91-b58b-0054e3786f2a"},"vehicle_type_id":"4","last_reported":1685383680,"current_range_meters":31200,"station_id":"ce4bht12rcd13ifvqi60","pricing_plan_id":"free"},{"bike_id":"ac8b4cf4-0423-4250-a598-7fb472eff042","system_id":"levelo_inurba_marseille","lat":43.286039,"lon":5.370681,"is_reserved":false,"is_disabled":false,"rental_uris":{"android":"levelo://app?vid=ac8b4cf4-0423-4250-a598-7fb472eff042","ios":"levelo://app?vid=ac8b4cf4-0423-4250-a598-7fb472eff042"},"vehicle_type_id":"4","last_reported":1685383680,"current_range_meters":20400,"station_id":"ce4bht12rcd13ifvqi60","pricing_plan_id":"free"},{"bike_id":"356a0ed3-f419-4208-abb4-25a6818607c4","system_id":"levelo_inurba_marseille","lat":43.316517,"lon":5.404375,"is_reserved":false,"is_disabled":false,"rental_uris":{"android":"levelo://app?vid=356a0ed3-f419-4208-abb4-25a6818607c4","ios":"levelo://app?vid=356a0ed3-f419-4208-abb4-25a6818607c4"},"vehicle_type_id":"4","last_reported":1685383680,"current_range_meters":15600,"station_id":"ce4bh012rcd13ifvqd00","pricing_plan_id":"free"},{"bike_id":"4a207ca2-0d7b-46eb-a4aa-2172426d73e1","system_id":"levelo_inurba_marseille","lat":43.291994,"lon":5.392907,"is_reserved":false,"is_disabled":false,"rental_uris":{"android":"levelo://app?vid=4a207ca2-0d7b-46eb-a4aa-2172426d73e1","ios":"levelo://app?vid=4a207ca2-0d7b-46eb-a4aa-2172426d73e1"},"vehicle_type_id":"4","last_reported":1685383680,"current_range_meters":2000,"station_id":"ce4bh192rcd13ifvqdd0","pricing_plan_id":"free"},{"bike_id":"ecd6f500-ff28-484f-a2f8-9b5bee678a48","system_id":"levelo_inurba_marseille","lat":43.291994,"lon":5.392907,"is_reserved":false,"is_disabled":false,"rental_uris":{"android":"levelo://app?vid=ecd6f500-ff28-484f-a2f8-9b5bee678a48","ios":"levelo://app?vid=ecd6f500-ff28-484f-a2f8-9b5bee678a48"},"vehicle_type_id":"4","last_reported":1685383680,"current_range_meters":10000,"station_id":"ce4bh192rcd13ifvqdd0","pricing_plan_id":"free"},{"bike_id":"d19374db-964d-4745-937b-59344220d081","system_id":"levelo_inurba_marseille","lat":43.284534,"lon":5.358662,"is_reserved":false,"is_disabled":false,"rental_uris":{"android":"levelo://app?vid=d19374db-964d-4745-937b-59344220d081","ios":"levelo://app?vid=d19374db-964d-4745-937b-59344220d081"},"vehicle_type_id":"4","last_reported":1685383680,"current_range_meters":2800,"station_id":"ce4bhah2rcd13ifvqei0","pricing_plan_id":"free"},{"bike_id":"bda5317b-d6f5-4d41-aa65-a6f0ca4f3086","system_id":"levelo_inurba_marseille","lat":43.284534,"lon":5.358662,"is_reserved":false,"is_disabled":false,"rental_uris":{"android":"levelo://app?vid=bda5317b-d6f5-4d41-aa65-a6f0ca4f3086","ios":"levelo://app?vid=bda5317b-d6f5-4d41-aa65-a6f0ca4f3086"},"vehicle_type_id":"4","last_reported":1685383680,"current_range_meters":11200,"station_id":"ce4bhah2rcd13ifvqei0","pricing_plan_id":"free"},{"bike_id":"fe752201-c96b-4ae8-a073-9a092ab6cf8b","system_id":"levelo_inurba_marseille","lat":43.28458,"lon":5.35888,"is_reserved":false,"is_disabled":false,"rental_uris":{"android":"levelo://app?vid=fe752201-c96b-4ae8-a073-9a092ab6cf8b","ios":"levelo://app?vid=fe752201-c96b-4ae8-a073-9a092ab6cf8b"},"vehicle_type_id":"4","last_reported":1685383680,"current_range_meters":11200,"station_id":"ce4bhah2rcd13ifvqei0","pricing_plan_id":"free"},{"bike_id":"daa900a9-53e7-4764-8b97-afea8aa79658","system_id":"levelo_inurba_marseille","lat":43.284534,"lon":5.358662,"is_reserved":false,"is_disabled":false,"rental_uris":{"android":"levelo://app?vid=daa900a9-53e7-4764-8b97-afea8aa79658","ios":"levelo://app?vid=daa900a9-53e7-4764-8b97-afea8aa79658"},"vehicle_type_id":"4","last_reported":1685383680,"current_range_meters":5200,"station_id":"ce4bhah2rcd13ifvqei0","pricing_plan_id":"free"},{"bike_id":"3a194e3a-555c-4eb4-bb5a-e5d5571e2b30","system_id":"levelo_inurba_marseille","lat":43.286595,"lon":5.386795,"is_reserved":false,"is_disabled":false,"rental_uris":{"android":"levelo://app?vid=3a194e3a-555c-4eb4-bb5a-e5d5571e2b30","ios":"levelo://app?vid=3a194e3a-555c-4eb4-bb5a-e5d5571e2b30"},"vehicle_type_id":"4","last_reported":1685383680,"current_range_meters":3200,"station_id":"ce4bh492rcd13ifvqdug","pricing_plan_id":"free"},{"bike_id":"e2fc3e02-c01e-4cf9-b6e1-91c460e6e31b","system_id":"levelo_inurba_marseille","lat":43.323464,"lon":5.406297,"is_reserved":false,"is_disabled":false,"rental_uris":{"android":"levelo://app?vid=e2fc3e02-c01e-4cf9-b6e1-91c460e6e31b","ios":"levelo://app?vid=e2fc3e02-c01e-4cf9-b6e1-91c460e6e31b"},"vehicle_type_id":"4","last_reported":1685383680,"current_range_meters":1600,"station_id":"ce4bhq92rcd13ifvqhjg","pricing_plan_id":"free"},{"bike_id":"0a33b292-785b-4f75-837a-9163e3d1b54a","system_id":"levelo_inurba_marseille","lat":43.288501,"lon":5.393087,"is_reserved":false,"is_disabled":false,"rental_uris":{"android":"levelo://app?vid=0a33b292-785b-4f75-837a-9163e3d1b54a","ios":"levelo://app?vid=0a33b292-785b-4f75-837a-9163e3d1b54a"},"vehicle_type_id":"4","last_reported":1685383680,"current_range_meters":12800,"station_id":"ce4bh2p2rcd13ifvqdi0","pricing_plan_id":"free"},{"bike_id":"97195d90-5055-448c-bb65-07a6a2c11011","system_id":"levelo_inurba_marseille","lat":43.288501,"lon":5.393087,"is_reserved":false,"is_disabled":false,"rental_uris":{"android":"levelo://app?vid=97195d90-5055-448c-bb65-07a6a2c11011","ios":"levelo://app?vid=97195d90-5055-448c-bb65-07a6a2c11011"},"vehicle_type_id":"4","last_reported":1685383680,"current_range_meters":0,"station_id":"ce4bh2p2rcd13ifvqdi0","pricing_plan_id":"free"},{"bike_id":"fa5f33a5-f80f-4a0d-8b73-6caa675f1836","system_id":"levelo_inurba_marseille","lat":43.283494,"lon":5.380945,"is_reserved":false,"is_disabled":false,"rental_uris":{"android":"levelo://app?vid=fa5f33a5-f80f-4a0d-8b73-6caa675f1836","ios":"levelo://app?vid=fa5f33a5-f80f-4a0d-8b73-6caa675f1836"},"vehicle_type_id":"4","last_reported":1685383680,"current_range_meters":19600,"station_id":"ce4bh412rcd13ifvqdr0","pricing_plan_id":"free"},{"bike_id":"a8ea53fd-2033-4e53-ab1d-bcbefc579fd6","system_id":"levelo_inurba_marseille","lat":43.288497,"lon":5.393089,"is_reserved":false,"is_disabled":false,"rental_uris":{"android":"levelo://app?vid=a8ea53fd-2033-4e53-ab1d-bcbefc579fd6","ios":"levelo://app?vid=a8ea53fd-2033-4e53-ab1d-bcbefc579fd6"},"vehicle_type_id":"4","last_reported":1685383680,"current_range_meters":9200,"station_id":"ce4bh2p2rcd13ifvqdi0","pricing_plan_id":"free"},{"bike_id":"6e94e8a1-b326-4926-a974-5db1ac459d58","system_id":"levelo_inurba_marseille","lat":43.284219,"lon":5.3497,"is_reserved":false,"is_disabled":false,"rental_uris":{"android":"levelo://app?vid=6e94e8a1-b326-4926-a974-5db1ac459d58","ios":"levelo://app?vid=6e94e8a1-b326-4926-a974-5db1ac459d58"},"vehicle_type_id":"4","last_reported":1685383680,"current_range_meters":2800,"station_id":"ce4bhbh2rcd13ifvqepg","pricing_plan_id":"free"},{"bike_id":"bcb266a7-43ac-46dd-8241-e2b8d660ca94","system_id":"levelo_inurba_marseille","lat":43.289363,"lon":5.396322,"is_reserved":false,"is_disabled":false,"rental_uris":{"android":"levelo://app?vid=bcb266a7-43ac-46dd-8241-e2b8d660ca94","ios":"levelo://app?vid=bcb266a7-43ac-46dd-8241-e2b8d660ca94"},"vehicle_type_id":"4","last_reported":1685383680,"current_range_meters":3600,"station_id":"ce4bh3h2rcd13ifvqdn0","pricing_plan_id":"free"},{"bike_id":"2f76b8f4-09e8-45ff-bfe2-5582cf1b6ce4","system_id":"levelo_inurba_marseille","lat":43.282754,"lon":5.350519,"is_reserved":false,"is_disabled":false,"rental_uris":{"android":"levelo://app?vid=2f76b8f4-09e8-45ff-bfe2-5582cf1b6ce4","ios":"levelo://app?vid=2f76b8f4-09e8-45ff-bfe2-5582cf1b6ce4"},"vehicle_type_id":"4","last_reported":1685383680,"current_range_meters":5600,"station_id":"ce4bhbp2rcd13ifvqerg","pricing_plan_id":"free"},{"bike_id":"dd961e0a-76ac-46df-bc03-38e635d06c4a","system_id":"levelo_inurba_marseille","lat":43.282754,"lon":5.350519,"is_reserved":false,"is_disabled":false,"rental_uris":{"android":"levelo://app?vid=dd961e0a-76ac-46df-bc03-38e635d06c4a","ios":"levelo://app?vid=dd961e0a-76ac-46df-bc03-38e635d06c4a"},"vehicle_type_id":"4","last_reported":1685383680,"current_range_meters":16400,"station_id":"ce4bhbp2rcd13ifvqerg","pricing_plan_id":"free"},{"bike_id":"84cd50ca-7b6b-4aaf-848d-00e1cf858c29","system_id":"levelo_inurba_marseille","lat":43.282754,"lon":5.350519,"is_reserved":false,"is_disabled":false,"rental_uris":{"android":"levelo://app?vid=84cd50ca-7b6b-4aaf-848d-00e1cf858c29","ios":"levelo://app?vid=84cd50ca-7b6b-4aaf-848d-00e1cf858c29"},"vehicle_type_id":"4","last_reported":1685383680,"current_range_meters":11200,"station_id":"ce4bhbp2rcd13ifvqerg","pricing_plan_id":"free"},{"bike_id":"7597564a-df71-4fde-82dd-f9fd48f3e554","system_id":"levelo_inurba_marseille","lat":43.282744,"lon":5.350533,"is_reserved":false,"is_disabled":false,"rental_uris":{"android":"levelo://app?vid=7597564a-df71-4fde-82dd-f9fd48f3e554","ios":"levelo://app?vid=7597564a-df71-4fde-82dd-f9fd48f3e554"},"vehicle_type_id":"4","last_reported":1685383680,"current_range_meters":17600,"station_id":"ce4bhbp2rcd13ifvqerg","pricing_plan_id":"free"},{"bike_id":"29340180-ce1d-47e0-a3e4-463e8b4f4c2e","system_id":"levelo_inurba_marseille","lat":43.282754,"lon":5.350519,"is_reserved":false,"is_disabled":false,"rental_uris":{"android":"levelo://app?vid=29340180-ce1d-47e0-a3e4-463e8b4f4c2e","ios":"levelo://app?vid=29340180-ce1d-47e0-a3e4-463e8b4f4c2e"},"vehicle_type_id":"4","last_reported":1685383680,"current_range_meters":8000,"station_id":"ce4bhbp2rcd13ifvqerg","pricing_plan_id":"free"},{"bike_id":"d4e41c7d-8b70-41cc-a14a-754cd6e7bb33","system_id":"levelo_inurba_marseille","lat":43.282744,"lon":5.350533,"is_reserved":false,"is_disabled":false,"rental_uris":{"android":"levelo://app?vid=d4e41c7d-8b70-41cc-a14a-754cd6e7bb33","ios":"levelo://app?vid=d4e41c7d-8b70-41cc-a14a-754cd6e7bb33"},"vehicle_type_id":"4","last_reported":1685383680,"current_range_meters":4800,"station_id":"ce4bhbp2rcd13ifvqerg","pricing_plan_id":"free"},{"bike_id":"95339fdd-0215-41a6-b7d7-903411ef2cb6","system_id":"levelo_inurba_marseille","lat":43.28039,"lon":5.369297,"is_reserved":false,"is_disabled":false,"rental_uris":{"android":"levelo://app?vid=95339fdd-0215-41a6-b7d7-903411ef2cb6","ios":"levelo://app?vid=95339fdd-0215-41a6-b7d7-903411ef2cb6"},"vehicle_type_id":"4","last_reported":1685383680,"current_range_meters":5600,"station_id":"ce4bha12rcd13ifvqef0","pricing_plan_id":"free"},{"bike_id":"448b7e4e-0538-423e-82f5-0ac70407a8b3","system_id":"levelo_inurba_marseille","lat":43.2803,"lon":5.36938,"is_reserved":false,"is_disabled":false,"rental_uris":{"android":"levelo://app?vid=448b7e4e-0538-423e-82f5-0ac70407a8b3","ios":"levelo://app?vid=448b7e4e-0538-423e-82f5-0ac70407a8b3"},"vehicle_type_id":"4","last_reported":1685383680,"current_range_meters":800,"station_id":"ce4bha12rcd13ifvqef0","pricing_plan_id":"free"},{"bike_id":"c5929c3c-608b-4d2e-b21e-4b6c4e1c0804","system_id":"levelo_inurba_marseille","lat":43.281044,"lon":5.378308,"is_reserved":false,"is_disabled":false,"rental_uris":{"android":"levelo://app?vid=c5929c3c-608b-4d2e-b21e-4b6c4e1c0804","ios":"levelo://app?vid=c5929c3c-608b-4d2e-b21e-4b6c4e1c0804"},"vehicle_type_id":"4","last_reported":1685383680,"current_range_meters":27600,"station_id":"ce4bha12rcd13ifvqee0","pricing_plan_id":"free"},{"bike_id":"3517e1ee-b166-4af4-a50d-dd864752449f","system_id":"levelo_inurba_marseille","lat":43.281044,"lon":5.378308,"is_reserved":false,"is_disabled":false,"rental_uris":{"android":"levelo://app?vid=3517e1ee-b166-4af4-a50d-dd864752449f","ios":"levelo://app?vid=3517e1ee-b166-4af4-a50d-dd864752449f"},"vehicle_type_id":"4","last_reported":1685383680,"current_range_meters":8400,"station_id":"ce4bha12rcd13ifvqee0","pricing_plan_id":"free"},{"bike_id":"70e5d0f0-9c2a-4cb2-b2dd-4c036181a330","system_id":"levelo_inurba_marseille","lat":43.281044,"lon":5.378308,"is_reserved":false,"is_disabled":false,"rental_uris":{"android":"levelo://app?vid=70e5d0f0-9c2a-4cb2-b2dd-4c036181a330","ios":"levelo://app?vid=70e5d0f0-9c2a-4cb2-b2dd-4c036181a330"},"vehicle_type_id":"4","last_reported":1685383680,"current_range_meters":31200,"station_id":"ce4bha12rcd13ifvqee0","pricing_plan_id":"free"},{"bike_id":"b5e523e4-f969-4839-a37a-5a1dd7ad7df6","system_id":"levelo_inurba_marseille","lat":43.28098,"lon":5.37829,"is_reserved":false,"is_disabled":false,"rental_uris":{"android":"levelo://app?vid=b5e523e4-f969-4839-a37a-5a1dd7ad7df6","ios":"levelo://app?vid=b5e523e4-f969-4839-a37a-5a1dd7ad7df6"},"vehicle_type_id":"4","last_reported":1685383680,"current_range_meters":22400,"station_id":"ce4bha12rcd13ifvqee0","pricing_plan_id":"free"},{"bike_id":"f76c0686-61f9-4a8a-be7a-ab685e168a08","system_id":"levelo_inurba_marseille","lat":43.281044,"lon":5.378308,"is_reserved":false,"is_disabled":false,"rental_uris":{"android":"levelo://app?vid=f76c0686-61f9-4a8a-be7a-ab685e168a08","ios":"levelo://app?vid=f76c0686-61f9-4a8a-be7a-ab685e168a08"},"vehicle_type_id":"4","last_reported":1685383680,"current_range_meters":2400,"station_id":"ce4bha12rcd13ifvqee0","pricing_plan_id":"free"},{"bike_id":"971ed3cc-3b28-4216-81fe-046c44a956ec","system_id":"levelo_inurba_marseille","lat":43.281044,"lon":5.378308,"is_reserved":false,"is_disabled":false,"rental_uris":{"android":"levelo://app?vid=971ed3cc-3b28-4216-81fe-046c44a956ec","ios":"levelo://app?vid=971ed3cc-3b28-4216-81fe-046c44a956ec"},"vehicle_type_id":"4","last_reported":1685383680,"current_range_meters":6800,"station_id":"ce4bha12rcd13ifvqee0","pricing_plan_id":"free"},{"bike_id":"a58a5910-b4f5-490a-bbd7-038ce7c04af8","system_id":"levelo_inurba_marseille","lat":43.281044,"lon":5.378308,"is_reserved":false,"is_disabled":false,"rental_uris":{"android":"levelo://app?vid=a58a5910-b4f5-490a-bbd7-038ce7c04af8","ios":"levelo://app?vid=a58a5910-b4f5-490a-bbd7-038ce7c04af8"},"vehicle_type_id":"4","last_reported":1685383680,"current_range_meters":23600,"station_id":"ce4bha12rcd13ifvqee0","pricing_plan_id":"free"},{"bike_id":"caa21cc0-dee7-4c23-b1cf-9dac9fbadfb0","system_id":"levelo_inurba_marseille","lat":43.281044,"lon":5.378308,"is_reserved":false,"is_disabled":false,"rental_uris":{"android":"levelo://app?vid=caa21cc0-dee7-4c23-b1cf-9dac9fbadfb0","ios":"levelo://app?vid=caa21cc0-dee7-4c23-b1cf-9dac9fbadfb0"},"vehicle_type_id":"4","last_reported":1685383680,"current_range_meters":28400,"station_id":"ce4bha12rcd13ifvqee0","pricing_plan_id":"free"},{"bike_id":"9d835ed8-1041-49e2-8d8e-ccde1a696b7f","system_id":"levelo_inurba_marseille","lat":43.284462,"lon":5.392121,"is_reserved":false,"is_disabled":false,"rental_uris":{"android":"levelo://app?vid=9d835ed8-1041-49e2-8d8e-ccde1a696b7f","ios":"levelo://app?vid=9d835ed8-1041-49e2-8d8e-ccde1a696b7f"},"vehicle_type_id":"4","last_reported":1685383680,"current_range_meters":6400,"station_id":"ce4bhoh2rcd13ifvqh5g","pricing_plan_id":"free"},{"bike_id":"56411c74-edf9-47ad-bae6-cdd455d8c98e","system_id":"levelo_inurba_marseille","lat":43.284462,"lon":5.392121,"is_reserved":false,"is_disabled":false,"rental_uris":{"android":"levelo://app?vid=56411c74-edf9-47ad-bae6-cdd455d8c98e","ios":"levelo://app?vid=56411c74-edf9-47ad-bae6-cdd455d8c98e"},"vehicle_type_id":"4","last_reported":1685383680,"current_range_meters":19200,"station_id":"ce4bhoh2rcd13ifvqh5g","pricing_plan_id":"free"},{"bike_id":"aa5ecbf7-87e2-407d-9037-90f816d2e7fc","system_id":"levelo_inurba_marseille","lat":43.284462,"lon":5.392121,"is_reserved":false,"is_disabled":false,"rental_uris":{"android":"levelo://app?vid=aa5ecbf7-87e2-407d-9037-90f816d2e7fc","ios":"levelo://app?vid=aa5ecbf7-87e2-407d-9037-90f816d2e7fc"},"vehicle_type_id":"4","last_reported":1685383680,"current_range_meters":25600,"station_id":"ce4bhoh2rcd13ifvqh5g","pricing_plan_id":"free"},{"bike_id":"4cb4f14c-101a-42bd-a855-c4d9f4718faf","system_id":"levelo_inurba_marseille","lat":43.28717,"lon":5.3999,"is_reserved":false,"is_disabled":false,"rental_uris":{"android":"levelo://app?vid=4cb4f14c-101a-42bd-a855-c4d9f4718faf","ios":"levelo://app?vid=4cb4f14c-101a-42bd-a855-c4d9f4718faf"},"vehicle_type_id":"4","last_reported":1685383680,"current_range_meters":0,"station_id":"ce4bho92rcd13ifvqh3g","pricing_plan_id":"free"},{"bike_id":"965eb130-2814-4bbc-ae00-7b52bcca4e9d","system_id":"levelo_inurba_marseille","lat":43.287154,"lon":5.399979,"is_reserved":false,"is_disabled":false,"rental_uris":{"android":"levelo://app?vid=965eb130-2814-4bbc-ae00-7b52bcca4e9d","ios":"levelo://app?vid=965eb130-2814-4bbc-ae00-7b52bcca4e9d"},"vehicle_type_id":"4","last_reported":1685383680,"current_range_meters":7600,"station_id":"ce4bho92rcd13ifvqh3g","pricing_plan_id":"free"},{"bike_id":"45d63131-caf2-45b3-897a-da7d31fe0b08","system_id":"levelo_inurba_marseille","lat":43.299577,"lon":5.413277,"is_reserved":false,"is_disabled":false,"rental_uris":{"android":"levelo://app?vid=45d63131-caf2-45b3-897a-da7d31fe0b08","ios":"levelo://app?vid=45d63131-caf2-45b3-897a-da7d31fe0b08"},"vehicle_type_id":"4","last_reported":1685383680,"current_range_meters":7200,"station_id":"ce4bhp12rcd13ifvqh9g","pricing_plan_id":"free"},{"bike_id":"f04bc5c7-a473-4cb8-b628-086922f7ebc3","system_id":"levelo_inurba_marseille","lat":43.279742,"lon":5.38744,"is_reserved":false,"is_disabled":false,"rental_uris":{"android":"levelo://app?vid=f04bc5c7-a473-4cb8-b628-086922f7ebc3","ios":"levelo://app?vid=f04bc5c7-a473-4cb8-b628-086922f7ebc3"},"vehicle_type_id":"4","last_reported":1685383680,"current_range_meters":0,"station_id":"ce4bhg12rcd13ifvqf80","pricing_plan_id":"free"},{"bike_id":"6f420bd6-bd12-473b-8a33-1c99ca0e313f","system_id":"levelo_inurba_marseille","lat":43.325233,"lon":5.414318,"is_reserved":false,"is_disabled":false,"rental_uris":{"android":"levelo://app?vid=6f420bd6-bd12-473b-8a33-1c99ca0e313f","ios":"levelo://app?vid=6f420bd6-bd12-473b-8a33-1c99ca0e313f"},"vehicle_type_id":"4","last_reported":1685383680,"current_range_meters":22400,"station_id":"ce4bhq12rcd13ifvqhhg","pricing_plan_id":"free"},{"bike_id":"43e751b2-af47-482c-b4ff-066feca566a0","system_id":"levelo_inurba_marseille","lat":43.280784,"lon":5.396622,"is_reserved":false,"is_disabled":false,"rental_uris":{"android":"levelo://app?vid=43e751b2-af47-482c-b4ff-066feca566a0","ios":"levelo://app?vid=43e751b2-af47-482c-b4ff-066feca566a0"},"vehicle_type_id":"4","last_reported":1685383680,"current_range_meters":10000,"station_id":"ce4bho12rcd13ifvqh2g","pricing_plan_id":"free"},{"bike_id":"d6ba1f93-763e-428a-ae16-3d078c7a8362","system_id":"levelo_inurba_marseille","lat":43.276769,"lon":5.388787,"is_reserved":false,"is_disabled":false,"rental_uris":{"android":"levelo://app?vid=d6ba1f93-763e-428a-ae16-3d078c7a8362","ios":"levelo://app?vid=d6ba1f93-763e-428a-ae16-3d078c7a8362"},"vehicle_type_id":"4","last_reported":1685383680,"current_range_meters":25200,"station_id":"ce4bhi12rcd13ifvqfo0","pricing_plan_id":"free"},{"bike_id":"91b49189-18df-431a-bbbf-f0b2350181de","system_id":"levelo_inurba_marseille","lat":43.28411,"lon":5.40772,"is_reserved":false,"is_disabled":false,"rental_uris":{"android":"levelo://app?vid=91b49189-18df-431a-bbbf-f0b2350181de","ios":"levelo://app?vid=91b49189-18df-431a-bbbf-f0b2350181de"},"vehicle_type_id":"4","last_reported":1685383680,"current_range_meters":2800,"station_id":"","pricing_plan_id":"free"},{"bike_id":"9d06893b-6c8b-4510-86e5-abdec38e404e","system_id":"levelo_inurba_marseille","lat":43.273129,"lon":5.390725,"is_reserved":false,"is_disabled":false,"rental_uris":{"android":"levelo://app?vid=9d06893b-6c8b-4510-86e5-abdec38e404e","ios":"levelo://app?vid=9d06893b-6c8b-4510-86e5-abdec38e404e"},"vehicle_type_id":"4","last_reported":1685383680,"current_range_meters":0,"station_id":"ce4bhgp2rcd13ifvqfe0","pricing_plan_id":"free"},{"bike_id":"6727348f-7109-48de-8c40-8fb330d2f6a6","system_id":"levelo_inurba_marseille","lat":43.295511,"lon":5.422926,"is_reserved":false,"is_disabled":false,"rental_uris":{"android":"levelo://app?vid=6727348f-7109-48de-8c40-8fb330d2f6a6","ios":"levelo://app?vid=6727348f-7109-48de-8c40-8fb330d2f6a6"},"vehicle_type_id":"4","last_reported":1685383680,"current_range_meters":8400,"station_id":"ce4bhph2rcd13ifvqhdg","pricing_plan_id":"free"},{"bike_id":"39548d82-2d4a-4579-82a2-a0fcbfede676","system_id":"levelo_inurba_marseille","lat":43.272124,"lon":5.391768,"is_reserved":false,"is_disabled":false,"rental_uris":{"android":"levelo://app?vid=39548d82-2d4a-4579-82a2-a0fcbfede676","ios":"levelo://app?vid=39548d82-2d4a-4579-82a2-a0fcbfede676"},"vehicle_type_id":"4","last_reported":1685383680,"current_range_meters":0,"station_id":"ce4bhhp2rcd13ifvqfm0","pricing_plan_id":"free"},{"bike_id":"d5dd3644-ecf4-433e-8139-84aa72f51b1a","system_id":"levelo_inurba_marseille","lat":43.278128,"lon":5.407195,"is_reserved":false,"is_disabled":false,"rental_uris":{"android":"levelo://app?vid=d5dd3644-ecf4-433e-8139-84aa72f51b1a","ios":"levelo://app?vid=d5dd3644-ecf4-433e-8139-84aa72f51b1a"},"vehicle_type_id":"4","last_reported":1685383680,"current_range_meters":10400,"station_id":"ce4bhnh2rcd13ifvqgtg","pricing_plan_id":"free"},{"bike_id":"006b1477-59d9-4abf-bf30-fe468e8a0337","system_id":"levelo_inurba_marseille","lat":43.30701,"lon":5.42882,"is_reserved":false,"is_disabled":false,"rental_uris":{"android":"levelo://app?vid=006b1477-59d9-4abf-bf30-fe468e8a0337","ios":"levelo://app?vid=006b1477-59d9-4abf-bf30-fe468e8a0337"},"vehicle_type_id":"4","last_reported":1685383680,"current_range_meters":25600,"station_id":"","pricing_plan_id":"free"},{"bike_id":"425c75c5-6364-449b-a30c-a16ff310f3ee","system_id":"levelo_inurba_marseille","lat":43.269319,"lon":5.389397,"is_reserved":false,"is_disabled":false,"rental_uris":{"android":"levelo://app?vid=425c75c5-6364-449b-a30c-a16ff310f3ee","ios":"levelo://app?vid=425c75c5-6364-449b-a30c-a16ff310f3ee"},"vehicle_type_id":"4","last_reported":1685383680,"current_range_meters":16000,"station_id":"ce4bhhh2rcd13ifvqfl0","pricing_plan_id":"free"},{"bike_id":"d9d9b657-7cdd-4600-acb5-7fc6140ff404","system_id":"levelo_inurba_marseille","lat":43.26548,"lon":5.372857,"is_reserved":false,"is_disabled":false,"rental_uris":{"android":"levelo://app?vid=d9d9b657-7cdd-4600-acb5-7fc6140ff404","ios":"levelo://app?vid=d9d9b657-7cdd-4600-acb5-7fc6140ff404"},"vehicle_type_id":"4","last_reported":1685383680,"current_range_meters":2000,"station_id":"ce4bh492rcd13ifvqdvg","pricing_plan_id":"free"},{"bike_id":"97f92444-dc7f-4ac8-885e-43ac50454dc0","system_id":"levelo_inurba_marseille","lat":43.31679,"lon":5.4333,"is_reserved":false,"is_disabled":false,"rental_uris":{"android":"levelo://app?vid=97f92444-dc7f-4ac8-885e-43ac50454dc0","ios":"levelo://app?vid=97f92444-dc7f-4ac8-885e-43ac50454dc0"},"vehicle_type_id":"4","last_reported":1685383680,"current_range_meters":0,"station_id":"","pricing_plan_id":"free"},{"bike_id":"904c78f9-5b5c-41a7-b0d2-3c1a2f7331cb","system_id":"levelo_inurba_marseille","lat":43.27996,"lon":5.416624,"is_reserved":false,"is_disabled":false,"rental_uris":{"android":"levelo://app?vid=904c78f9-5b5c-41a7-b0d2-3c1a2f7331cb","ios":"levelo://app?vid=904c78f9-5b5c-41a7-b0d2-3c1a2f7331cb"},"vehicle_type_id":"4","last_reported":1685383680,"current_range_meters":24800,"station_id":"ce4bho12rcd13ifvqh1g","pricing_plan_id":"free"},{"bike_id":"c65f0f5a-8f2e-4827-bddc-121823f73295","system_id":"levelo_inurba_marseille","lat":43.27996,"lon":5.416624,"is_reserved":false,"is_disabled":false,"rental_uris":{"android":"levelo://app?vid=c65f0f5a-8f2e-4827-bddc-121823f73295","ios":"levelo://app?vid=c65f0f5a-8f2e-4827-bddc-121823f73295"},"vehicle_type_id":"4","last_reported":1685383680,"current_range_meters":8400,"station_id":"ce4bho12rcd13ifvqh1g","pricing_plan_id":"free"},{"bike_id":"ab0f4bc7-ed72-417f-a5fb-6e7a2d100ff6","system_id":"levelo_inurba_marseille","lat":43.27996,"lon":5.416624,"is_reserved":false,"is_disabled":false,"rental_uris":{"android":"levelo://app?vid=ab0f4bc7-ed72-417f-a5fb-6e7a2d100ff6","ios":"levelo://app?vid=ab0f4bc7-ed72-417f-a5fb-6e7a2d100ff6"},"vehicle_type_id":"4","last_reported":1685383680,"current_range_meters":1600,"station_id":"ce4bho12rcd13ifvqh1g","pricing_plan_id":"free"},{"bike_id":"6fff0859-9d04-43ca-a6ea-680b800cd22a","system_id":"levelo_inurba_marseille","lat":43.27996,"lon":5.416624,"is_reserved":false,"is_disabled":false,"rental_uris":{"android":"levelo://app?vid=6fff0859-9d04-43ca-a6ea-680b800cd22a","ios":"levelo://app?vid=6fff0859-9d04-43ca-a6ea-680b800cd22a"},"vehicle_type_id":"4","last_reported":1685383680,"current_range_meters":800,"station_id":"ce4bho12rcd13ifvqh1g","pricing_plan_id":"free"},{"bike_id":"929a7ea7-687a-47d5-95a3-67ab562ddaff","system_id":"levelo_inurba_marseille","lat":43.27989,"lon":5.4166,"is_reserved":false,"is_disabled":false,"rental_uris":{"android":"levelo://app?vid=929a7ea7-687a-47d5-95a3-67ab562ddaff","ios":"levelo://app?vid=929a7ea7-687a-47d5-95a3-67ab562ddaff"},"vehicle_type_id":"4","last_reported":1685383680,"current_range_meters":0,"station_id":"ce4bho12rcd13ifvqh1g","pricing_plan_id":"free"},{"bike_id":"cd6ca7b0-0a16-4f86-9781-4ab088064eef","system_id":"levelo_inurba_marseille","lat":43.268024,"lon":5.393965,"is_reserved":false,"is_disabled":false,"rental_uris":{"android":"levelo://app?vid=cd6ca7b0-0a16-4f86-9781-4ab088064eef","ios":"levelo://app?vid=cd6ca7b0-0a16-4f86-9781-4ab088064eef"},"vehicle_type_id":"4","last_reported":1685383680,"current_range_meters":4000,"station_id":"","pricing_plan_id":"free"},{"bike_id":"3bddcfae-8c1b-45fa-9ccf-560210c5a7ff","system_id":"levelo_inurba_marseille","lat":43.267966,"lon":5.393976,"is_reserved":false,"is_disabled":false,"rental_uris":{"android":"levelo://app?vid=3bddcfae-8c1b-45fa-9ccf-560210c5a7ff","ios":"levelo://app?vid=3bddcfae-8c1b-45fa-9ccf-560210c5a7ff"},"vehicle_type_id":"4","last_reported":1685383680,"current_range_meters":14400,"station_id":"ce4bhh12rcd13ifvqfg0","pricing_plan_id":"free"},{"bike_id":"d1851c0a-6e9b-458b-921f-ce85e914c0c7","system_id":"levelo_inurba_marseille","lat":43.308,"lon":5.43516,"is_reserved":false,"is_disabled":false,"rental_uris":{"android":"levelo://app?vid=d1851c0a-6e9b-458b-921f-ce85e914c0c7","ios":"levelo://app?vid=d1851c0a-6e9b-458b-921f-ce85e914c0c7"},"vehicle_type_id":"4","last_reported":1685383680,"current_range_meters":11600,"station_id":"","pricing_plan_id":"free"},{"bike_id":"2fcc0c23-ac53-41eb-a2d4-d3336177ee7b","system_id":"levelo_inurba_marseille","lat":43.32316,"lon":5.4357,"is_reserved":false,"is_disabled":false,"rental_uris":{"android":"levelo://app?vid=2fcc0c23-ac53-41eb-a2d4-d3336177ee7b","ios":"levelo://app?vid=2fcc0c23-ac53-41eb-a2d4-d3336177ee7b"},"vehicle_type_id":"4","last_reported":1685383680,"current_range_meters":10800,"station_id":"","pricing_plan_id":"free"},{"bike_id":"2c9799df-3f55-4fdc-b030-56c0807e21a2","system_id":"levelo_inurba_marseille","lat":43.26185,"lon":5.37443,"is_reserved":false,"is_disabled":false,"rental_uris":{"android":"levelo://app?vid=2c9799df-3f55-4fdc-b030-56c0807e21a2","ios":"levelo://app?vid=2c9799df-3f55-4fdc-b030-56c0807e21a2"},"vehicle_type_id":"4","last_reported":1685383680,"current_range_meters":31600,"station_id":"ce4bhgp2rcd13ifvqfc0","pricing_plan_id":"free"},{"bike_id":"add15640-fc87-4534-8a14-18c01b734f95","system_id":"levelo_inurba_marseille","lat":43.26202,"lon":5.379299,"is_reserved":false,"is_disabled":false,"rental_uris":{"android":"levelo://app?vid=add15640-fc87-4534-8a14-18c01b734f95","ios":"levelo://app?vid=add15640-fc87-4534-8a14-18c01b734f95"},"vehicle_type_id":"4","last_reported":1685383680,"current_range_meters":19600,"station_id":"ce4bhjp2rcd13ifvqg90","pricing_plan_id":"free"},{"bike_id":"57a0154f-2735-490a-94a5-d0e3a6957b55","system_id":"levelo_inurba_marseille","lat":43.26202,"lon":5.379299,"is_reserved":false,"is_disabled":false,"rental_uris":{"android":"levelo://app?vid=57a0154f-2735-490a-94a5-d0e3a6957b55","ios":"levelo://app?vid=57a0154f-2735-490a-94a5-d0e3a6957b55"},"vehicle_type_id":"4","last_reported":1685383680,"current_range_meters":12800,"station_id":"ce4bhjp2rcd13ifvqg90","pricing_plan_id":"free"},{"bike_id":"c886b0d7-6fb9-4c3b-80f3-9117998d8bdb","system_id":"levelo_inurba_marseille","lat":43.27182,"lon":5.40994,"is_reserved":false,"is_disabled":false,"rental_uris":{"android":"levelo://app?vid=c886b0d7-6fb9-4c3b-80f3-9117998d8bdb","ios":"levelo://app?vid=c886b0d7-6fb9-4c3b-80f3-9117998d8bdb"},"vehicle_type_id":"4","last_reported":1685383680,"current_range_meters":23600,"station_id":"","pricing_plan_id":"free"},{"bike_id":"426209d0-ad7c-414d-a6f6-345703d0d95b","system_id":"levelo_inurba_marseille","lat":43.262012,"lon":5.379307,"is_reserved":false,"is_disabled":false,"rental_uris":{"android":"levelo://app?vid=426209d0-ad7c-414d-a6f6-345703d0d95b","ios":"levelo://app?vid=426209d0-ad7c-414d-a6f6-345703d0d95b"},"vehicle_type_id":"4","last_reported":1685383680,"current_range_meters":4800,"station_id":"ce4bhjp2rcd13ifvqg90","pricing_plan_id":"free"},{"bike_id":"af60bf46-3419-4694-96e2-acfeee1a8d5e","system_id":"levelo_inurba_marseille","lat":43.262012,"lon":5.379307,"is_reserved":false,"is_disabled":false,"rental_uris":{"android":"levelo://app?vid=af60bf46-3419-4694-96e2-acfeee1a8d5e","ios":"levelo://app?vid=af60bf46-3419-4694-96e2-acfeee1a8d5e"},"vehicle_type_id":"4","last_reported":1685383680,"current_range_meters":14000,"station_id":"ce4bhjp2rcd13ifvqg90","pricing_plan_id":"free"},{"bike_id":"4be642e2-f871-4e33-bb4a-fb2b0004c8cf","system_id":"levelo_inurba_marseille","lat":43.27174,"lon":5.40989,"is_reserved":false,"is_disabled":false,"rental_uris":{"android":"levelo://app?vid=4be642e2-f871-4e33-bb4a-fb2b0004c8cf","ios":"levelo://app?vid=4be642e2-f871-4e33-bb4a-fb2b0004c8cf"},"vehicle_type_id":"4","last_reported":1685383680,"current_range_meters":7200,"station_id":"","pricing_plan_id":"free"},{"bike_id":"e01e4add-9126-451a-9912-309c038cfc13","system_id":"levelo_inurba_marseille","lat":43.271388,"lon":5.409269,"is_reserved":false,"is_disabled":false,"rental_uris":{"android":"levelo://app?vid=e01e4add-9126-451a-9912-309c038cfc13","ios":"levelo://app?vid=e01e4add-9126-451a-9912-309c038cfc13"},"vehicle_type_id":"4","last_reported":1685383680,"current_range_meters":19600,"station_id":"ce4bhl12rcd13ifvqgf0","pricing_plan_id":"free"},{"bike_id":"d5d7c90c-6818-4808-a42b-96107f21122e","system_id":"levelo_inurba_marseille","lat":43.267959,"lon":5.402687,"is_reserved":false,"is_disabled":false,"rental_uris":{"android":"levelo://app?vid=d5d7c90c-6818-4808-a42b-96107f21122e","ios":"levelo://app?vid=d5d7c90c-6818-4808-a42b-96107f21122e"},"vehicle_type_id":"4","last_reported":1685383680,"current_range_meters":31600,"station_id":"ce501612rcd8frsf0b60","pricing_plan_id":"free"},{"bike_id":"a82f1f3d-cf3e-4acf-b3a8-5051bcebffad","system_id":"levelo_inurba_marseille","lat":43.267959,"lon":5.402687,"is_reserved":false,"is_disabled":false,"rental_uris":{"android":"levelo://app?vid=a82f1f3d-cf3e-4acf-b3a8-5051bcebffad","ios":"levelo://app?vid=a82f1f3d-cf3e-4acf-b3a8-5051bcebffad"},"vehicle_type_id":"4","last_reported":1685383680,"current_range_meters":31600,"station_id":"ce501612rcd8frsf0b60","pricing_plan_id":"free"},{"bike_id":"01e3bdd2-e33f-49e8-83e3-caafd20a574a","system_id":"levelo_inurba_marseille","lat":43.267959,"lon":5.402685,"is_reserved":false,"is_disabled":false,"rental_uris":{"android":"levelo://app?vid=01e3bdd2-e33f-49e8-83e3-caafd20a574a","ios":"levelo://app?vid=01e3bdd2-e33f-49e8-83e3-caafd20a574a"},"vehicle_type_id":"4","last_reported":1685383680,"current_range_meters":27200,"station_id":"ce501612rcd8frsf0b60","pricing_plan_id":"free"},{"bike_id":"de901b03-b6a7-49ca-99d2-444367bfca35","system_id":"levelo_inurba_marseille","lat":43.267959,"lon":5.402685,"is_reserved":false,"is_disabled":false,"rental_uris":{"android":"levelo://app?vid=de901b03-b6a7-49ca-99d2-444367bfca35","ios":"levelo://app?vid=de901b03-b6a7-49ca-99d2-444367bfca35"},"vehicle_type_id":"4","last_reported":1685383680,"current_range_meters":12000,"station_id":"ce501612rcd8frsf0b60","pricing_plan_id":"free"},{"bike_id":"bfeded0a-2bd2-4b07-89f2-470113647832","system_id":"levelo_inurba_marseille","lat":43.267959,"lon":5.402685,"is_reserved":false,"is_disabled":false,"rental_uris":{"android":"levelo://app?vid=bfeded0a-2bd2-4b07-89f2-470113647832","ios":"levelo://app?vid=bfeded0a-2bd2-4b07-89f2-470113647832"},"vehicle_type_id":"4","last_reported":1685383680,"current_range_meters":30400,"station_id":"ce501612rcd8frsf0b60","pricing_plan_id":"free"},{"bike_id":"74474b43-2943-4493-a56d-39da3fa8faaa","system_id":"levelo_inurba_marseille","lat":43.267959,"lon":5.402687,"is_reserved":false,"is_disabled":false,"rental_uris":{"android":"levelo://app?vid=74474b43-2943-4493-a56d-39da3fa8faaa","ios":"levelo://app?vid=74474b43-2943-4493-a56d-39da3fa8faaa"},"vehicle_type_id":"4","last_reported":1685383680,"current_range_meters":24400,"station_id":"ce501612rcd8frsf0b60","pricing_plan_id":"free"},{"bike_id":"b648426b-1e44-4a29-b559-be3852d39998","system_id":"levelo_inurba_marseille","lat":43.267959,"lon":5.402687,"is_reserved":false,"is_disabled":false,"rental_uris":{"android":"levelo://app?vid=b648426b-1e44-4a29-b559-be3852d39998","ios":"levelo://app?vid=b648426b-1e44-4a29-b559-be3852d39998"},"vehicle_type_id":"4","last_reported":1685383680,"current_range_meters":0,"station_id":"ce501612rcd8frsf0b60","pricing_plan_id":"free"},{"bike_id":"8d16cb84-fcf1-4c79-b13b-7f0c94596d9a","system_id":"levelo_inurba_marseille","lat":43.267959,"lon":5.402687,"is_reserved":false,"is_disabled":false,"rental_uris":{"android":"levelo://app?vid=8d16cb84-fcf1-4c79-b13b-7f0c94596d9a","ios":"levelo://app?vid=8d16cb84-fcf1-4c79-b13b-7f0c94596d9a"},"vehicle_type_id":"4","last_reported":1685383680,"current_range_meters":12000,"station_id":"ce501612rcd8frsf0b60","pricing_plan_id":"free"},{"bike_id":"6b404443-757b-4b8d-9a78-a03ca59013fb","system_id":"levelo_inurba_marseille","lat":43.2592,"lon":5.37283,"is_reserved":false,"is_disabled":false,"rental_uris":{"android":"levelo://app?vid=6b404443-757b-4b8d-9a78-a03ca59013fb","ios":"levelo://app?vid=6b404443-757b-4b8d-9a78-a03ca59013fb"},"vehicle_type_id":"4","last_reported":1685383680,"current_range_meters":5600,"station_id":"","pricing_plan_id":"free"},{"bike_id":"50ed148b-9d56-4821-9f9b-a1ec6cfb0db3","system_id":"levelo_inurba_marseille","lat":43.260909,"lon":5.397591,"is_reserved":false,"is_disabled":false,"rental_uris":{"android":"levelo://app?vid=50ed148b-9d56-4821-9f9b-a1ec6cfb0db3","ios":"levelo://app?vid=50ed148b-9d56-4821-9f9b-a1ec6cfb0db3"},"vehicle_type_id":"4","last_reported":1685383680,"current_range_meters":25200,"station_id":"ce4bhi12rcd13ifvqfq0","pricing_plan_id":"free"},{"bike_id":"2c97b257-d928-4bd1-92f7-687718d6ad94","system_id":"levelo_inurba_marseille","lat":43.255756,"lon":5.382303,"is_reserved":false,"is_disabled":false,"rental_uris":{"android":"levelo://app?vid=2c97b257-d928-4bd1-92f7-687718d6ad94","ios":"levelo://app?vid=2c97b257-d928-4bd1-92f7-687718d6ad94"},"vehicle_type_id":"4","last_reported":1685383680,"current_range_meters":22400,"station_id":"ce4bhih2rcd13ifvqfs0","pricing_plan_id":"free"},{"bike_id":"986d8381-a7b9-4ab2-ab0b-039c6f318ff1","system_id":"levelo_inurba_marseille","lat":43.25572,"lon":5.38248,"is_reserved":false,"is_disabled":false,"rental_uris":{"android":"levelo://app?vid=986d8381-a7b9-4ab2-ab0b-039c6f318ff1","ios":"levelo://app?vid=986d8381-a7b9-4ab2-ab0b-039c6f318ff1"},"vehicle_type_id":"4","last_reported":1685383680,"current_range_meters":19200,"station_id":"ce4bhih2rcd13ifvqfs0","pricing_plan_id":"free"},{"bike_id":"3c3a2fed-760c-44cd-95fe-e45d428ca40f","system_id":"levelo_inurba_marseille","lat":43.25726,"lon":5.40019,"is_reserved":false,"is_disabled":false,"rental_uris":{"android":"levelo://app?vid=3c3a2fed-760c-44cd-95fe-e45d428ca40f","ios":"levelo://app?vid=3c3a2fed-760c-44cd-95fe-e45d428ca40f"},"vehicle_type_id":"4","last_reported":1685383680,"current_range_meters":27200,"station_id":"","pricing_plan_id":"free"},{"bike_id":"9ad648bc-e8ed-49e2-a5ec-add1b46f412b","system_id":"levelo_inurba_marseille","lat":43.250023,"lon":5.38919,"is_reserved":false,"is_disabled":false,"rental_uris":{"android":"levelo://app?vid=9ad648bc-e8ed-49e2-a5ec-add1b46f412b","ios":"levelo://app?vid=9ad648bc-e8ed-49e2-a5ec-add1b46f412b"},"vehicle_type_id":"4","last_reported":1685383680,"current_range_meters":29200,"station_id":"ce4bhgp2rcd13ifvqfd0","pricing_plan_id":"free"},{"bike_id":"bcfa297d-14a7-42a3-b3f4-82228e079a71","system_id":"levelo_inurba_marseille","lat":43.2479,"lon":5.374457,"is_reserved":false,"is_disabled":false,"rental_uris":{"android":"levelo://app?vid=bcfa297d-14a7-42a3-b3f4-82228e079a71","ios":"levelo://app?vid=bcfa297d-14a7-42a3-b3f4-82228e079a71"},"vehicle_type_id":"4","last_reported":1685383680,"current_range_meters":16400,"station_id":"ce4bhgh2rcd13ifvqfb0","pricing_plan_id":"free"},{"bike_id":"7d33e28b-ebf2-4e58-8e48-1e1911465b67","system_id":"levelo_inurba_marseille","lat":43.2479,"lon":5.374457,"is_reserved":false,"is_disabled":false,"rental_uris":{"android":"levelo://app?vid=7d33e28b-ebf2-4e58-8e48-1e1911465b67","ios":"levelo://app?vid=7d33e28b-ebf2-4e58-8e48-1e1911465b67"},"vehicle_type_id":"4","last_reported":1685383680,"current_range_meters":4000,"station_id":"ce4bhgh2rcd13ifvqfb0","pricing_plan_id":"free"},{"bike_id":"0714ebc4-5725-493c-8c71-f4b0a121f603","system_id":"levelo_inurba_marseille","lat":43.250023,"lon":5.38919,"is_reserved":false,"is_disabled":false,"rental_uris":{"android":"levelo://app?vid=0714ebc4-5725-493c-8c71-f4b0a121f603","ios":"levelo://app?vid=0714ebc4-5725-493c-8c71-f4b0a121f603"},"vehicle_type_id":"4","last_reported":1685383680,"current_range_meters":31200,"station_id":"ce4bhgp2rcd13ifvqfd0","pricing_plan_id":"free"},{"bike_id":"b1877dab-da46-46d0-a0a9-88af62e9285c","system_id":"levelo_inurba_marseille","lat":43.250023,"lon":5.38919,"is_reserved":false,"is_disabled":false,"rental_uris":{"android":"levelo://app?vid=b1877dab-da46-46d0-a0a9-88af62e9285c","ios":"levelo://app?vid=b1877dab-da46-46d0-a0a9-88af62e9285c"},"vehicle_type_id":"4","last_reported":1685383680,"current_range_meters":26000,"station_id":"ce4bhgp2rcd13ifvqfd0","pricing_plan_id":"free"},{"bike_id":"44937c0e-4019-4eca-a556-bf25959ffa29","system_id":"levelo_inurba_marseille","lat":43.25096,"lon":5.3951,"is_reserved":false,"is_disabled":false,"rental_uris":{"android":"levelo://app?vid=44937c0e-4019-4eca-a556-bf25959ffa29","ios":"levelo://app?vid=44937c0e-4019-4eca-a556-bf25959ffa29"},"vehicle_type_id":"4","last_reported":1685383680,"current_range_meters":6000,"station_id":"ce4bhm12rcd13ifvqgkg","pricing_plan_id":"free"},{"bike_id":"1b41f02f-e50a-4cab-8910-42a7f65fa9b2","system_id":"levelo_inurba_marseille","lat":43.250966,"lon":5.395186,"is_reserved":false,"is_disabled":false,"rental_uris":{"android":"levelo://app?vid=1b41f02f-e50a-4cab-8910-42a7f65fa9b2","ios":"levelo://app?vid=1b41f02f-e50a-4cab-8910-42a7f65fa9b2"},"vehicle_type_id":"4","last_reported":1685383680,"current_range_meters":21200,"station_id":"ce4bhm12rcd13ifvqgkg","pricing_plan_id":"free"},{"bike_id":"2083719c-d28b-4a58-a603-44bd8cbfaddc","system_id":"levelo_inurba_marseille","lat":43.250966,"lon":5.395186,"is_reserved":false,"is_disabled":false,"rental_uris":{"android":"levelo://app?vid=2083719c-d28b-4a58-a603-44bd8cbfaddc","ios":"levelo://app?vid=2083719c-d28b-4a58-a603-44bd8cbfaddc"},"vehicle_type_id":"4","last_reported":1685383680,"current_range_meters":15600,"station_id":"ce4bhm12rcd13ifvqgkg","pricing_plan_id":"free"},{"bike_id":"7b006c35-5d45-4bce-8ad9-ca21301da14b","system_id":"levelo_inurba_marseille","lat":43.250966,"lon":5.395186,"is_reserved":false,"is_disabled":false,"rental_uris":{"android":"levelo://app?vid=7b006c35-5d45-4bce-8ad9-ca21301da14b","ios":"levelo://app?vid=7b006c35-5d45-4bce-8ad9-ca21301da14b"},"vehicle_type_id":"4","last_reported":1685383680,"current_range_meters":31600,"station_id":"ce4bhm12rcd13ifvqgkg","pricing_plan_id":"free"},{"bike_id":"a05b00ef-7236-40a3-99bf-6c85ac4556e8","system_id":"levelo_inurba_marseille","lat":43.250966,"lon":5.395186,"is_reserved":false,"is_disabled":false,"rental_uris":{"android":"levelo://app?vid=a05b00ef-7236-40a3-99bf-6c85ac4556e8","ios":"levelo://app?vid=a05b00ef-7236-40a3-99bf-6c85ac4556e8"},"vehicle_type_id":"4","last_reported":1685383680,"current_range_meters":28800,"station_id":"ce4bhm12rcd13ifvqgkg","pricing_plan_id":"free"},{"bike_id":"6d2073a6-d325-48b2-a6bc-c5f818f0cdb3","system_id":"levelo_inurba_marseille","lat":43.24668,"lon":5.38157,"is_reserved":false,"is_disabled":false,"rental_uris":{"android":"levelo://app?vid=6d2073a6-d325-48b2-a6bc-c5f818f0cdb3","ios":"levelo://app?vid=6d2073a6-d325-48b2-a6bc-c5f818f0cdb3"},"vehicle_type_id":"4","last_reported":1685383680,"current_range_meters":19600,"station_id":"","pricing_plan_id":"free"},{"bike_id":"1d3a1dc5-30ce-4cb3-92a2-df90e2828158","system_id":"levelo_inurba_marseille","lat":43.24667,"lon":5.38157,"is_reserved":false,"is_disabled":false,"rental_uris":{"android":"levelo://app?vid=1d3a1dc5-30ce-4cb3-92a2-df90e2828158","ios":"levelo://app?vid=1d3a1dc5-30ce-4cb3-92a2-df90e2828158"},"vehicle_type_id":"4","last_reported":1685383680,"current_range_meters":31600,"station_id":"","pricing_plan_id":"free"},{"bike_id":"4332ab61-2b59-45b5-9ee7-69c10bf7a50d","system_id":"levelo_inurba_marseille","lat":43.24668,"lon":5.38166,"is_reserved":false,"is_disabled":false,"rental_uris":{"android":"levelo://app?vid=4332ab61-2b59-45b5-9ee7-69c10bf7a50d","ios":"levelo://app?vid=4332ab61-2b59-45b5-9ee7-69c10bf7a50d"},"vehicle_type_id":"4","last_reported":1685383680,"current_range_meters":31600,"station_id":"","pricing_plan_id":"free"},{"bike_id":"4f443948-a1bf-48fb-8579-010eb091273c","system_id":"levelo_inurba_marseille","lat":43.24666,"lon":5.38156,"is_reserved":false,"is_disabled":false,"rental_uris":{"android":"levelo://app?vid=4f443948-a1bf-48fb-8579-010eb091273c","ios":"levelo://app?vid=4f443948-a1bf-48fb-8579-010eb091273c"},"vehicle_type_id":"4","last_reported":1685383680,"current_range_meters":30400,"station_id":"","pricing_plan_id":"free"},{"bike_id":"1f3c9884-dd9f-492e-be44-0d6e973be08d","system_id":"levelo_inurba_marseille","lat":43.24665,"lon":5.38156,"is_reserved":false,"is_disabled":false,"rental_uris":{"android":"levelo://app?vid=1f3c9884-dd9f-492e-be44-0d6e973be08d","ios":"levelo://app?vid=1f3c9884-dd9f-492e-be44-0d6e973be08d"},"vehicle_type_id":"4","last_reported":1685383680,"current_range_meters":30400,"station_id":"","pricing_plan_id":"free"},{"bike_id":"a9bf446b-4c28-47ad-952b-c355ea16ce69","system_id":"levelo_inurba_marseille","lat":43.24663,"lon":5.38157,"is_reserved":false,"is_disabled":false,"rental_uris":{"android":"levelo://app?vid=a9bf446b-4c28-47ad-952b-c355ea16ce69","ios":"levelo://app?vid=a9bf446b-4c28-47ad-952b-c355ea16ce69"},"vehicle_type_id":"4","last_reported":1685383680,"current_range_meters":29200,"station_id":"","pricing_plan_id":"free"},{"bike_id":"adbc55b5-a2d0-4d8a-a97c-8804ee309a81","system_id":"levelo_inurba_marseille","lat":43.24662,"lon":5.38164,"is_reserved":false,"is_disabled":false,"rental_uris":{"android":"levelo://app?vid=adbc55b5-a2d0-4d8a-a97c-8804ee309a81","ios":"levelo://app?vid=adbc55b5-a2d0-4d8a-a97c-8804ee309a81"},"vehicle_type_id":"4","last_reported":1685383680,"current_range_meters":2400,"station_id":"","pricing_plan_id":"free"},{"bike_id":"f0f34558-87ba-4daf-894f-6ef924b9176d","system_id":"levelo_inurba_marseille","lat":43.24693,"lon":5.382096,"is_reserved":false,"is_disabled":false,"rental_uris":{"android":"levelo://app?vid=f0f34558-87ba-4daf-894f-6ef924b9176d","ios":"levelo://app?vid=f0f34558-87ba-4daf-894f-6ef924b9176d"},"vehicle_type_id":"4","last_reported":1685383680,"current_range_meters":31600,"station_id":"ce4bhih2rcd13ifvqfr0","pricing_plan_id":"free"},{"bike_id":"295109d7-8f32-447b-a32d-fdd4a3375719","system_id":"levelo_inurba_marseille","lat":43.2466,"lon":5.3816,"is_reserved":false,"is_disabled":false,"rental_uris":{"android":"levelo://app?vid=295109d7-8f32-447b-a32d-fdd4a3375719","ios":"levelo://app?vid=295109d7-8f32-447b-a32d-fdd4a3375719"},"vehicle_type_id":"4","last_reported":1685383680,"current_range_meters":21200,"station_id":"","pricing_plan_id":"free"},{"bike_id":"aa5ed9bb-786c-4903-9fa4-024dda899fc9","system_id":"levelo_inurba_marseille","lat":43.25102,"lon":5.403214,"is_reserved":false,"is_disabled":false,"rental_uris":{"android":"levelo://app?vid=aa5ed9bb-786c-4903-9fa4-024dda899fc9","ios":"levelo://app?vid=aa5ed9bb-786c-4903-9fa4-024dda899fc9"},"vehicle_type_id":"4","last_reported":1685383680,"current_range_meters":2800,"station_id":"ce4bhlh2rcd13ifvqgig","pricing_plan_id":"free"},{"bike_id":"bfeb42c6-e813-4d24-b7ea-5911a96d4b18","system_id":"levelo_inurba_marseille","lat":43.24658,"lon":5.3816,"is_reserved":false,"is_disabled":false,"rental_uris":{"android":"levelo://app?vid=bfeb42c6-e813-4d24-b7ea-5911a96d4b18","ios":"levelo://app?vid=bfeb42c6-e813-4d24-b7ea-5911a96d4b18"},"vehicle_type_id":"4","last_reported":1685383680,"current_range_meters":28800,"station_id":"","pricing_plan_id":"free"},{"bike_id":"d87f0968-5c19-4d79-b973-8790b4ba6e67","system_id":"levelo_inurba_marseille","lat":43.25102,"lon":5.403214,"is_reserved":false,"is_disabled":false,"rental_uris":{"android":"levelo://app?vid=d87f0968-5c19-4d79-b973-8790b4ba6e67","ios":"levelo://app?vid=d87f0968-5c19-4d79-b973-8790b4ba6e67"},"vehicle_type_id":"4","last_reported":1685383680,"current_range_meters":25600,"station_id":"ce4bhlh2rcd13ifvqgig","pricing_plan_id":"free"},{"bike_id":"9a420799-435f-4970-9f6c-faa1409f8b8c","system_id":"levelo_inurba_marseille","lat":43.24656,"lon":5.38158,"is_reserved":false,"is_disabled":false,"rental_uris":{"android":"levelo://app?vid=9a420799-435f-4970-9f6c-faa1409f8b8c","ios":"levelo://app?vid=9a420799-435f-4970-9f6c-faa1409f8b8c"},"vehicle_type_id":"4","last_reported":1685383680,"current_range_meters":30000,"station_id":"","pricing_plan_id":"free"},{"bike_id":"145dbaf2-1fdc-4e41-adf6-5c3bbe4e658e","system_id":"levelo_inurba_marseille","lat":43.24654,"lon":5.38156,"is_reserved":false,"is_disabled":false,"rental_uris":{"android":"levelo://app?vid=145dbaf2-1fdc-4e41-adf6-5c3bbe4e658e","ios":"levelo://app?vid=145dbaf2-1fdc-4e41-adf6-5c3bbe4e658e"},"vehicle_type_id":"4","last_reported":1685383680,"current_range_meters":21200,"station_id":"","pricing_plan_id":"free"},{"bike_id":"d17d2e94-6a2f-4898-a2a1-9ad82a606528","system_id":"levelo_inurba_marseille","lat":43.25102,"lon":5.403214,"is_reserved":false,"is_disabled":false,"rental_uris":{"android":"levelo://app?vid=d17d2e94-6a2f-4898-a2a1-9ad82a606528","ios":"levelo://app?vid=d17d2e94-6a2f-4898-a2a1-9ad82a606528"},"vehicle_type_id":"4","last_reported":1685383680,"current_range_meters":31600,"station_id":"ce4bhlh2rcd13ifvqgig","pricing_plan_id":"free"},{"bike_id":"8045018d-bfcc-4261-bc9e-370a5aebdec5","system_id":"levelo_inurba_marseille","lat":43.25044,"lon":5.40347,"is_reserved":false,"is_disabled":false,"rental_uris":{"android":"levelo://app?vid=8045018d-bfcc-4261-bc9e-370a5aebdec5","ios":"levelo://app?vid=8045018d-bfcc-4261-bc9e-370a5aebdec5"},"vehicle_type_id":"4","last_reported":1685383680,"current_range_meters":31200,"station_id":"","pricing_plan_id":"free"},{"bike_id":"ba0c2499-c4dc-4d5f-bc2b-776a1c5949c0","system_id":"levelo_inurba_marseille","lat":43.246467,"lon":5.388984,"is_reserved":false,"is_disabled":false,"rental_uris":{"android":"levelo://app?vid=ba0c2499-c4dc-4d5f-bc2b-776a1c5949c0","ios":"levelo://app?vid=ba0c2499-c4dc-4d5f-bc2b-776a1c5949c0"},"vehicle_type_id":"4","last_reported":1685383680,"current_range_meters":14400,"station_id":"ce4bhg12rcd13ifvqf60","pricing_plan_id":"free"},{"bike_id":"7ddaaae3-3c81-4929-8c81-2e0bc9834816","system_id":"levelo_inurba_marseille","lat":43.246467,"lon":5.388984,"is_reserved":false,"is_disabled":false,"rental_uris":{"android":"levelo://app?vid=7ddaaae3-3c81-4929-8c81-2e0bc9834816","ios":"levelo://app?vid=7ddaaae3-3c81-4929-8c81-2e0bc9834816"},"vehicle_type_id":"4","last_reported":1685383680,"current_range_meters":31600,"station_id":"ce4bhg12rcd13ifvqf60","pricing_plan_id":"free"},{"bike_id":"da00aa5e-3522-4077-a8fa-d94ae705a022","system_id":"levelo_inurba_marseille","lat":43.246461,"lon":5.389014,"is_reserved":false,"is_disabled":false,"rental_uris":{"android":"levelo://app?vid=da00aa5e-3522-4077-a8fa-d94ae705a022","ios":"levelo://app?vid=da00aa5e-3522-4077-a8fa-d94ae705a022"},"vehicle_type_id":"4","last_reported":1685383680,"current_range_meters":14000,"station_id":"ce4bhg12rcd13ifvqf60","pricing_plan_id":"free"},{"bike_id":"cd310b8e-6eae-4d1f-a350-af1d435456f6","system_id":"levelo_inurba_marseille","lat":43.246461,"lon":5.389014,"is_reserved":false,"is_disabled":false,"rental_uris":{"android":"levelo://app?vid=cd310b8e-6eae-4d1f-a350-af1d435456f6","ios":"levelo://app?vid=cd310b8e-6eae-4d1f-a350-af1d435456f6"},"vehicle_type_id":"4","last_reported":1685383680,"current_range_meters":28800,"station_id":"ce4bhg12rcd13ifvqf60","pricing_plan_id":"free"},{"bike_id":"bf07edbb-b830-4667-9faf-2a1fa4e949f9","system_id":"levelo_inurba_marseille","lat":43.24623,"lon":5.39327,"is_reserved":false,"is_disabled":false,"rental_uris":{"android":"levelo://app?vid=bf07edbb-b830-4667-9faf-2a1fa4e949f9","ios":"levelo://app?vid=bf07edbb-b830-4667-9faf-2a1fa4e949f9"},"vehicle_type_id":"4","last_reported":1685383680,"current_range_meters":19200,"station_id":"","pricing_plan_id":"free"},{"bike_id":"0bde4716-a24d-46b7-94ce-1b99917ceb05","system_id":"levelo_inurba_marseille","lat":43.24548,"lon":5.39522,"is_reserved":false,"is_disabled":false,"rental_uris":{"android":"levelo://app?vid=0bde4716-a24d-46b7-94ce-1b99917ceb05","ios":"levelo://app?vid=0bde4716-a24d-46b7-94ce-1b99917ceb05"},"vehicle_type_id":"4","last_reported":1685383680,"current_range_meters":31200,"station_id":"ce4bhlp2rcd13ifvqgjg","pricing_plan_id":"free"},{"bike_id":"41c9264b-435b-4a17-8690-57d41c04827f","system_id":"levelo_inurba_marseille","lat":43.24546,"lon":5.3952,"is_reserved":false,"is_disabled":false,"rental_uris":{"android":"levelo://app?vid=41c9264b-435b-4a17-8690-57d41c04827f","ios":"levelo://app?vid=41c9264b-435b-4a17-8690-57d41c04827f"},"vehicle_type_id":"4","last_reported":1685383680,"current_range_meters":11200,"station_id":"ce4bhlp2rcd13ifvqgjg","pricing_plan_id":"free"},{"bike_id":"26d0704f-7ca5-4533-9f4c-45590f7b7056","system_id":"levelo_inurba_marseille","lat":43.24544,"lon":5.39521,"is_reserved":false,"is_disabled":false,"rental_uris":{"android":"levelo://app?vid=26d0704f-7ca5-4533-9f4c-45590f7b7056","ios":"levelo://app?vid=26d0704f-7ca5-4533-9f4c-45590f7b7056"},"vehicle_type_id":"4","last_reported":1685383680,"current_range_meters":8800,"station_id":"ce4bhlp2rcd13ifvqgjg","pricing_plan_id":"free"},{"bike_id":"dbf12912-075f-4818-a206-ff97ef96636e","system_id":"levelo_inurba_marseille","lat":43.24544,"lon":5.39531,"is_reserved":false,"is_disabled":false,"rental_uris":{"android":"levelo://app?vid=dbf12912-075f-4818-a206-ff97ef96636e","ios":"levelo://app?vid=dbf12912-075f-4818-a206-ff97ef96636e"},"vehicle_type_id":"4","last_reported":1685383680,"current_range_meters":30000,"station_id":"ce4bhlp2rcd13ifvqgjg","pricing_plan_id":"free"},{"bike_id":"9a377ccb-8326-48e4-933f-14d716101ef3","system_id":"levelo_inurba_marseille","lat":43.24542,"lon":5.39523,"is_reserved":false,"is_disabled":false,"rental_uris":{"android":"levelo://app?vid=9a377ccb-8326-48e4-933f-14d716101ef3","ios":"levelo://app?vid=9a377ccb-8326-48e4-933f-14d716101ef3"},"vehicle_type_id":"4","last_reported":1685383680,"current_range_meters":31600,"station_id":"ce4bhlp2rcd13ifvqgjg","pricing_plan_id":"free"},{"bike_id":"3f553c1b-68cd-4bd3-9df0-cec2821d0524","system_id":"levelo_inurba_marseille","lat":43.245581,"lon":5.395069,"is_reserved":false,"is_disabled":false,"rental_uris":{"android":"levelo://app?vid=3f553c1b-68cd-4bd3-9df0-cec2821d0524","ios":"levelo://app?vid=3f553c1b-68cd-4bd3-9df0-cec2821d0524"},"vehicle_type_id":"4","last_reported":1685383680,"current_range_meters":14800,"station_id":"ce4bhlp2rcd13ifvqgjg","pricing_plan_id":"free"},{"bike_id":"2709e817-67ed-4c82-9021-0f497510d26c","system_id":"levelo_inurba_marseille","lat":43.24541,"lon":5.39525,"is_reserved":false,"is_disabled":false,"rental_uris":{"android":"levelo://app?vid=2709e817-67ed-4c82-9021-0f497510d26c","ios":"levelo://app?vid=2709e817-67ed-4c82-9021-0f497510d26c"},"vehicle_type_id":"4","last_reported":1685383680,"current_range_meters":31200,"station_id":"ce4bhlp2rcd13ifvqgjg","pricing_plan_id":"free"},{"bike_id":"cb2c0e1c-4eae-40c4-ad5e-0e043a329451","system_id":"levelo_inurba_marseille","lat":43.2454,"lon":5.39525,"is_reserved":false,"is_disabled":false,"rental_uris":{"android":"levelo://app?vid=cb2c0e1c-4eae-40c4-ad5e-0e043a329451","ios":"levelo://app?vid=cb2c0e1c-4eae-40c4-ad5e-0e043a329451"},"vehicle_type_id":"4","last_reported":1685383680,"current_range_meters":31200,"station_id":"ce4bhlp2rcd13ifvqgjg","pricing_plan_id":"free"},{"bike_id":"c5e2daf6-2c33-4b40-8bbe-faad7f4fa562","system_id":"levelo_inurba_marseille","lat":43.2454,"lon":5.39527,"is_reserved":false,"is_disabled":false,"rental_uris":{"android":"levelo://app?vid=c5e2daf6-2c33-4b40-8bbe-faad7f4fa562","ios":"levelo://app?vid=c5e2daf6-2c33-4b40-8bbe-faad7f4fa562"},"vehicle_type_id":"4","last_reported":1685383680,"current_range_meters":31200,"station_id":"ce4bhlp2rcd13ifvqgjg","pricing_plan_id":"free"},{"bike_id":"cc690017-4617-4540-bcb1-72573ce1552e","system_id":"levelo_inurba_marseille","lat":43.24539,"lon":5.39531,"is_reserved":false,"is_disabled":false,"rental_uris":{"android":"levelo://app?vid=cc690017-4617-4540-bcb1-72573ce1552e","ios":"levelo://app?vid=cc690017-4617-4540-bcb1-72573ce1552e"},"vehicle_type_id":"4","last_reported":1685383680,"current_range_meters":25600,"station_id":"ce4bhlp2rcd13ifvqgjg","pricing_plan_id":"free"},{"bike_id":"54b37db1-70ee-499a-b3d6-9589caee908d","system_id":"levelo_inurba_marseille","lat":43.2408,"lon":5.37754,"is_reserved":false,"is_disabled":false,"rental_uris":{"android":"levelo://app?vid=54b37db1-70ee-499a-b3d6-9589caee908d","ios":"levelo://app?vid=54b37db1-70ee-499a-b3d6-9589caee908d"},"vehicle_type_id":"4","last_reported":1685383680,"current_range_meters":14800,"station_id":"","pricing_plan_id":"free"},{"bike_id":"3d78c70f-7e57-4675-b370-4f9262170bc0","system_id":"levelo_inurba_marseille","lat":43.24079,"lon":5.37753,"is_reserved":false,"is_disabled":false,"rental_uris":{"android":"levelo://app?vid=3d78c70f-7e57-4675-b370-4f9262170bc0","ios":"levelo://app?vid=3d78c70f-7e57-4675-b370-4f9262170bc0"},"vehicle_type_id":"4","last_reported":1685383680,"current_range_meters":11600,"station_id":"","pricing_plan_id":"free"},{"bike_id":"1dda10af-7bee-4a4c-a64a-ed98c3619b09","system_id":"levelo_inurba_marseille","lat":43.24076,"lon":5.3775,"is_reserved":false,"is_disabled":false,"rental_uris":{"android":"levelo://app?vid=1dda10af-7bee-4a4c-a64a-ed98c3619b09","ios":"levelo://app?vid=1dda10af-7bee-4a4c-a64a-ed98c3619b09"},"vehicle_type_id":"4","last_reported":1685383680,"current_range_meters":19600,"station_id":"","pricing_plan_id":"free"},{"bike_id":"89dad29d-9d23-42ff-8f4a-2b694f90dbe8","system_id":"levelo_inurba_marseille","lat":43.28873,"lon":5.46123,"is_reserved":false,"is_disabled":false,"rental_uris":{"android":"levelo://app?vid=89dad29d-9d23-42ff-8f4a-2b694f90dbe8","ios":"levelo://app?vid=89dad29d-9d23-42ff-8f4a-2b694f90dbe8"},"vehicle_type_id":"4","last_reported":1685383680,"current_range_meters":31600,"station_id":"","pricing_plan_id":"free"},{"bike_id":"839cc5b5-431e-4a3e-96bb-e90e31ca9dfd","system_id":"levelo_inurba_marseille","lat":43.28861,"lon":5.46123,"is_reserved":false,"is_disabled":false,"rental_uris":{"android":"levelo://app?vid=839cc5b5-431e-4a3e-96bb-e90e31ca9dfd","ios":"levelo://app?vid=839cc5b5-431e-4a3e-96bb-e90e31ca9dfd"},"vehicle_type_id":"4","last_reported":1685383680,"current_range_meters":31200,"station_id":"","pricing_plan_id":"free"},{"bike_id":"d04409f4-1b7e-4bd7-b364-b5a32bd9fa3b","system_id":"levelo_inurba_marseille","lat":43.28865,"lon":5.46128,"is_reserved":false,"is_disabled":false,"rental_uris":{"android":"levelo://app?vid=d04409f4-1b7e-4bd7-b364-b5a32bd9fa3b","ios":"levelo://app?vid=d04409f4-1b7e-4bd7-b364-b5a32bd9fa3b"},"vehicle_type_id":"4","last_reported":1685383680,"current_range_meters":29200,"station_id":"","pricing_plan_id":"free"},{"bike_id":"1bc1445b-532f-4275-8ed4-ae5a30613b98","system_id":"levelo_inurba_marseille","lat":43.28865,"lon":5.4613,"is_reserved":false,"is_disabled":false,"rental_uris":{"android":"levelo://app?vid=1bc1445b-532f-4275-8ed4-ae5a30613b98","ios":"levelo://app?vid=1bc1445b-532f-4275-8ed4-ae5a30613b98"},"vehicle_type_id":"4","last_reported":1685383680,"current_range_meters":22800,"station_id":"","pricing_plan_id":"free"},{"bike_id":"5a5ce047-ca23-436f-81e8-29b7ce99e453","system_id":"levelo_inurba_marseille","lat":43.28513,"lon":5.45986,"is_reserved":false,"is_disabled":false,"rental_uris":{"android":"levelo://app?vid=5a5ce047-ca23-436f-81e8-29b7ce99e453","ios":"levelo://app?vid=5a5ce047-ca23-436f-81e8-29b7ce99e453"},"vehicle_type_id":"4","last_reported":1685383680,"current_range_meters":28000,"station_id":"","pricing_plan_id":"free"},