{"last_updated":1691078801,"ttl":30,"version":"2.2","data":{"bikes":[{"bike_id":"de37140f-e746-4cd4-8d1c-87aed4692b2f","system_id":"levelo_inurba_marseille","lat":43.312239,"lon":5.368562,"is_reserved":false,"is_disabled":false,"rental_uris":{"android":"levelo://app?vid=de37140f-e746-4cd4-8d1c-87aed4692b2f","ios":"levelo://app?vid=de37140f-e746-4cd4-8d1c-87aed4692b2f"},"vehicle_type_id":"4","last_reported":1691078801,"current_range_meters":18400,"station_id":"ce4bgl92rcd13ifvqbq0","pricing_plan_id":"free"},{"bike_id":"943f55e6-a8ca-4e9a-86f7-2a2829e4c97a","system_id":"levelo_inurba_marseille","lat":43.314811,"lon":5.373103,"is_reserved":false,"is_disabled":false,"rental_uris":{"android":"levelo://app?vid=943f55e6-a8ca-4e9a-86f7-2a2829e4c97a","ios":"levelo://app?vid=943f55e6-a8ca-4e9a-86f7-2a2829e4c97a"},"vehicle_type_id":"4","last_reported":1691078801,"current_range_meters":20400,"station_id":"ce4bgt12rcd13ifvqcd0","pricing_plan_id":"free"},{"bike_id":"803e700b-587d-4c28-a482-975c523e0eff","system_id":"levelo_inurba_marseille","lat":43.314811,"lon":5.373103,"is_reserved":false,"is_disabled":false,"rental_uris":{"android":"levelo://app?vid=803e700b-587d-4c28-a482-975c523e0eff","ios":"levelo://app?vid=803e700b-587d-4c28-a482-975c523e0eff"},"vehicle_type_id":"4","last_reported":1691078801,"current_range_meters":18000,"station_id":"ce4bgt12rcd13ifvqcd0","pricing_plan_id":"free"},{"bike_id":"46b707ea-a85b-4636-b919-0cf5609c99e5","system_id":"levelo_inurba_marseille","lat":43.305712,"lon":5.365641,"is_reserved":false,"is_disabled":false,"rental_uris":{"android":"levelo://app?vid=46b707ea-a85b-4636-b919-0cf5609c99e5","ios":"levelo://app?vid=46b707ea-a85b-4636-b919-0cf5609c99e5"},"vehicle_type_id":"4","last_reported":1691078801,"current_range_meters":2000,"station_id":"ce4bgs12rcd13ifvqcag","pricing_plan_id":"free"},{"bike_id":"f20ea888-8740-440b-bfeb-8eb2a7c1f652","system_id":"levelo_inurba_marseille","lat":43.305989,"lon":5.37225,"is_reserved":false,"is_disabled":false,"rental_uris":{"android":"levelo://app?vid=f20ea888-8740-440b-bfeb-8eb2a7c1f652","ios":"levelo://app?vid=f20ea888-8740-440b-bfeb-8eb2a7c1f652"},"vehicle_type_id":"4","last_reported":1691078801,"current_range_meters":31200,"station_id":"ce4bgqh2rcd13ifvqc4g","pricing_plan_id":"free"},{"bike_id":"6e54b05a-a5ef-42c1-8036-4ac40dec805a","system_id":"levelo_inurba_marseille","lat":43.30788,"lon":5.37648,"is_reserved":false,"is_disabled":false,"rental_uris":{"android":"levelo://app?vid=6e54b05a-a5ef-42c1-8036-4ac40dec805a","ios":"levelo://app?vid=6e54b05a-a5ef-42c1-8036-4ac40dec805a"},"vehicle_type_id":"4","last_reported":1691078801,"current_range_meters":11600,"station_id":"ce4bgv92rcd13ifvqcq0","pricing_plan_id":"free"},{"bike_id":"46e74d59-c6d4-40ee-b484-f13dbf7075e7","system_id":"levelo_inurba_marseille","lat":43.30789,"lon":5.37649,"is_reserved":false,"is_disabled":false,"rental_uris":{"android":"levelo://app?vid=46e74d59-c6d4-40ee-b484-f13dbf7075e7","ios":"levelo://app?vid=46e74d59-c6d4-40ee-b484-f13dbf7075e7"},"vehicle_type_id":"4","last_reported":1691078801,"current_range_meters":6800,"station_id":"ce4bgv92rcd13ifvqcq0","pricing_plan_id":"free"},{"bike_id":"84263eb2-55d9-4dfd-bf1d-074fe888f591","system_id":"levelo_inurba_marseille","lat":43.307945,"lon":5.376487,"is_reserved":false,"is_disabled":false,"rental_uris":{"android":"levelo://app?vid=84263eb2-55d9-4dfd-bf1d-074fe888f591","ios":"levelo://app?vid=84263eb2-55d9-4dfd-bf1d-074fe888f591"},"vehicle_type_id":"4","last_reported":1691078801,"current_range_meters":12400,"station_id":"ce4bgv92rcd13ifvqcq0","pricing_plan_id":"free"},{"bike_id":"6ec4bb7e-8606-49b4-a556-2cb681532bba","system_id":"levelo_inurba_marseille","lat":43.317075,"lon":5.377367,"is_reserved":false,"is_disabled":false,"rental_uris":{"android":"levelo://app?vid=6ec4bb7e-8606-49b4-a556-2cb681532bba","ios":"levelo://app?vid=6ec4bb7e-8606-49b4-a556-2cb681532bba"},"vehicle_type_id":"4","last_reported":1691078801,"current_range_meters":30800,"station_id":"ce4bgth2rcd13ifvqch0","pricing_plan_id":"free"},{"bike_id":"231432a2-6e47-44fe-8fd6-1263772f3166","system_id":"levelo_inurba_marseille","lat":43.30312,"lon":5.36898,"is_reserved":false,"is_disabled":false,"rental_uris":{"android":"levelo://app?vid=231432a2-6e47-44fe-8fd6-1263772f3166","ios":"levelo://app?vid=231432a2-6e47-44fe-8fd6-1263772f3166"},"vehicle_type_id":"4","last_reported":1691078801,"current_range_meters":0,"station_id":"ce4bgqh2rcd13ifvqc5g","pricing_plan_id":"free"},{"bike_id":"d3363ce0-b3b8-4f5b-a6df-147b90cef5ee","system_id":"levelo_inurba_marseille","lat":43.315289,"lon":5.380349,"is_reserved":false,"is_disabled":false,"rental_uris":{"android":"levelo://app?vid=d3363ce0-b3b8-4f5b-a6df-147b90cef5ee","ios":"levelo://app?vid=d3363ce0-b3b8-4f5b-a6df-147b90cef5ee"},"vehicle_type_id":"4","last_reported":1691078801,"current_range_meters":16800,"station_id":"ce4bhsp2rcd13ifvqi50","pricing_plan_id":"free"},{"bike_id":"fb5bd12f-b48f-4c53-b063-e965b4277aed","system_id":"levelo_inurba_marseille","lat":43.315289,"lon":5.380349,"is_reserved":false,"is_disabled":false,"rental_uris":{"android":"levelo://app?vid=fb5bd12f-b48f-4c53-b063-e965b4277aed","ios":"levelo://app?vid=fb5bd12f-b48f-4c53-b063-e965b4277aed"},"vehicle_type_id":"4","last_reported":1691078801,"current_range_meters":31200,"station_id":"ce4bhsp2rcd13ifvqi50","pricing_plan_id":"free"},{"bike_id":"00892e19-ff2f-49f5-94f5-0dc2f6ff1faf","system_id":"levelo_inurba_marseille","lat":43.31527,"lon":5.38038,"is_reserved":false,"is_disabled":false,"rental_uris":{"android":"levelo://app?vid=00892e19-ff2f-49f5-94f5-0dc2f6ff1faf","ios":"levelo://app?vid=00892e19-ff2f-49f5-94f5-0dc2f6ff1faf"},"vehicle_type_id":"4","last_reported":1691078801,"current_range_meters":26400,"station_id":"ce4bhsp2rcd13ifvqi50","pricing_plan_id":"free"},{"bike_id":"94ac2495-de9a-4dce-b659-87801da2b2d7","system_id":"levelo_inurba_marseille","lat":43.315293,"lon":5.380349,"is_reserved":false,"is_disabled":false,"rental_uris":{"android":"levelo://app?vid=94ac2495-de9a-4dce-b659-87801da2b2d7","ios":"levelo://app?vid=94ac2495-de9a-4dce-b659-87801da2b2d7"},"vehicle_type_id":"4","last_reported":1691078801,"current_range_meters":17600,"station_id":"ce4bhsp2rcd13ifvqi50","pricing_plan_id":"free"},{"bike_id":"cf144abe-402a-4e78-b410-79c6d13361fb","system_id":"levelo_inurba_marseille","lat":43.31533,"lon":5.38038,"is_reserved":false,"is_disabled":false,"rental_uris":{"android":"levelo://app?vid=cf144abe-402a-4e78-b410-79c6d13361fb","ios":"levelo://app?vid=cf144abe-402a-4e78-b410-79c6d13361fb"},"vehicle_type_id":"4","last_reported":1691078801,"current_range_meters":17200,"station_id":"ce4bhsp2rcd13ifvqi50","pricing_plan_id":"free"},{"bike_id":"ca03c504-734e-402b-8597-fb77a9549039","system_id":"levelo_inurba_marseille","lat":43.31535,"lon":5.38047,"is_reserved":false,"is_disabled":false,"rental_uris":{"android":"levelo://app?vid=ca03c504-734e-402b-8597-fb77a9549039","ios":"levelo://app?vid=ca03c504-734e-402b-8597-fb77a9549039"},"vehicle_type_id":"4","last_reported":1691078801,"current_range_meters":31200,"station_id":"ce4bhsp2rcd13ifvqi50","pricing_plan_id":"free"},{"bike_id":"69efd253-fbbb-4a73-9ba0-16d8244fa080","system_id":"levelo_inurba_marseille","lat":43.30466,"lon":5.379,"is_reserved":false,"is_disabled":false,"rental_uris":{"android":"levelo://app?vid=69efd253-fbbb-4a73-9ba0-16d8244fa080","ios":"levelo://app?vid=69efd253-fbbb-4a73-9ba0-16d8244fa080"},"vehicle_type_id":"4","last_reported":1691078801,"current_range_meters":31200,"station_id":"ce4bgup2rcd13ifvqcn0","pricing_plan_id":"free"},{"bike_id":"48e3f464-ccb0-4a2d-b2ba-4cb6d4cde7a5","system_id":"levelo_inurba_marseille","lat":43.304606,"lon":5.379026,"is_reserved":false,"is_disabled":false,"rental_uris":{"android":"levelo://app?vid=48e3f464-ccb0-4a2d-b2ba-4cb6d4cde7a5","ios":"levelo://app?vid=48e3f464-ccb0-4a2d-b2ba-4cb6d4cde7a5"},"vehicle_type_id":"4","last_reported":1691078801,"current_range_meters":26800,"station_id":"ce4bgup2rcd13ifvqcn0","pricing_plan_id":"free"},{"bike_id":"cd0e4231-3ffe-4e79-bdf7-5c80ee4b5034","system_id":"levelo_inurba_marseille","lat":43.302784,"lon":5.377158,"is_reserved":false,"is_disabled":false,"rental_uris":{"android":"levelo://app?vid=cd0e4231-3ffe-4e79-bdf7-5c80ee4b5034","ios":"levelo://app?vid=cd0e4231-3ffe-4e79-bdf7-5c80ee4b5034"},"vehicle_type_id":"4","last_reported":1691078801,"current_range_meters":8000,"station_id":"ce4bguh2rcd13ifvqcj0","pricing_plan_id":"free"},{"bike_id":"791aecf0-48e6-4775-bc04-3b9f8a573be3","system_id":"levelo_inurba_marseille","lat":43.319935,"lon":5.381699,"is_reserved":false,"is_disabled":false,"rental_uris":{"android":"levelo://app?vid=791aecf0-48e6-4775-bc04-3b9f8a573be3","ios":"levelo://app?vid=791aecf0-48e6-4775-bc04-3b9f8a573be3"},"vehicle_type_id":"4","last_reported":1691078801,"current_range_meters":11200,"station_id":"ce4bhr12rcd13ifvqhpg","pricing_plan_id":"free"},{"bike_id":"d92e79c6-8caa-430c-90be-6141442e45a4","system_id":"levelo_inurba_marseille","lat":43.31376,"lon":5.38479,"is_reserved":false,"is_disabled":false,"rental_uris":{"android":"levelo://app?vid=d92e79c6-8caa-430c-90be-6141442e45a4","ios":"levelo://app?vid=d92e79c6-8caa-430c-90be-6141442e45a4"},"vehicle_type_id":"4","last_reported":1691078801,"current_range_meters":14800,"station_id":"ce4bgt92rcd13ifvqcf0","pricing_plan_id":"free"},{"bike_id":"b1f32f9b-1f13-4b16-8b4c-dc214865df59","system_id":"levelo_inurba_marseille","lat":43.313571,"lon":5.384829,"is_reserved":false,"is_disabled":false,"rental_uris":{"android":"levelo://app?vid=b1f32f9b-1f13-4b16-8b4c-dc214865df59","ios":"levelo://app?vid=b1f32f9b-1f13-4b16-8b4c-dc214865df59"},"vehicle_type_id":"4","last_reported":1691078801,"current_range_meters":5200,"station_id":"ce4bgt92rcd13ifvqcf0","pricing_plan_id":"free"},{"bike_id":"2c908abe-871d-4c83-8566-21f11464e071","system_id":"levelo_inurba_marseille","lat":43.313571,"lon":5.384829,"is_reserved":false,"is_disabled":false,"rental_uris":{"android":"levelo://app?vid=2c908abe-871d-4c83-8566-21f11464e071","ios":"levelo://app?vid=2c908abe-871d-4c83-8566-21f11464e071"},"vehicle_type_id":"4","last_reported":1691078801,"current_range_meters":31600,"station_id":"ce4bgt92rcd13ifvqcf0","pricing_plan_id":"free"},{"bike_id":"6787ec66-b590-4712-8000-aa522d353607","system_id":"levelo_inurba_marseille","lat":43.313571,"lon":5.384829,"is_reserved":false,"is_disabled":false,"rental_uris":{"android":"levelo://app?vid=6787ec66-b590-4712-8000-aa522d353607","ios":"levelo://app?vid=6787ec66-b590-4712-8000-aa522d353607"},"vehicle_type_id":"4","last_reported":1691078801,"current_range_meters":31200,"station_id":"ce4bgt92rcd13ifvqcf0","pricing_plan_id":"free"},{"bike_id":"9a53481c-435e-4ea5-9f05-f4d3bd9d0b29","system_id":"levelo_inurba_marseille","lat":43.313571,"lon":5.384829,"is_reserved":false,"is_disabled":false,"rental_uris":{"android":"levelo://app?vid=9a53481c-435e-4ea5-9f05-f4d3bd9d0b29","ios":"levelo://app?vid=9a53481c-435e-4ea5-9f05-f4d3bd9d0b29"},"vehicle_type_id":"4","last_reported":1691078801,"current_range_meters":16400,"station_id":"ce4bgt92rcd13ifvqcf0","pricing_plan_id":"free"},{"bike_id":"d8540d70-5ccc-4dbf-8719-54821c962a67","system_id":"levelo_inurba_marseille","lat":43.313571,"lon":5.384829,"is_reserved":false,"is_disabled":false,"rental_uris":{"android":"levelo://app?vid=d8540d70-5ccc-4dbf-8719-54821c962a67","ios":"levelo://app?vid=d8540d70-5ccc-4dbf-8719-54821c962a67"},"vehicle_type_id":"4","last_reported":1691078801,"current_range_meters":9200,"station_id":"ce4bgt92rcd13ifvqcf0","pricing_plan_id":"free"},{"bike_id":"798f3c7a-d982-4c2b-adab-8edc6a530915","system_id":"levelo_inurba_marseille","lat":43.313571,"lon":5.384829,"is_reserved":false,"is_disabled":false,"rental_uris":{"android":"levelo://app?vid=798f3c7a-d982-4c2b-adab-8edc6a530915","ios":"levelo://app?vid=798f3c7a-d982-4c2b-adab-8edc6a530915"},"vehicle_type_id":"4","last_reported":1691078801,"current_range_meters":5200,"station_id":"ce4bgt92rcd13ifvqcf0","pricing_plan_id":"free"},{"bike_id":"0ff27614-da56-49d0-a0b1-2c32da917f74","system_id":"levelo_inurba_marseille","lat":43.313571,"lon":5.384829,"is_reserved":false,"is_disabled":false,"rental_uris":{"android":"levelo://app?vid=0ff27614-da56-49d0-a0b1-2c32da917f74","ios":"levelo://app?vid=0ff27614-da56-49d0-a0b1-2c32da917f74"},"vehicle_type_id":"4","last_reported":1691078801,"current_range_meters":16800,"station_id":"ce4bgt92rcd13ifvqcf0","pricing_plan_id":"free"},{"bike_id":"3cb7fd70-121e-4eb5-9a01-ecc8718aa1bb","system_id":"levelo_inurba_marseille","lat":43.29939,"lon":5.36549,"is_reserved":false,"is_disabled":false,"rental_uris":{"android":"levelo://app?vid=3cb7fd70-121e-4eb5-9a01-ecc8718aa1bb","ios":"levelo://app?vid=3cb7fd70-121e-4eb5-9a01-ecc8718aa1bb"},"vehicle_type_id":"4","last_reported":1691078801,"current_range_meters":31200,"station_id":"ce4bgm92rcd13ifvqbr0","pricing_plan_id":"free"},{"bike_id":"30537d43-af02-4a10-b928-7b9b8cf633d2","system_id":"levelo_inurba_marseille","lat":43.30535,"lon":5.38426,"is_reserved":false,"is_disabled":false,"rental_uris":{"android":"levelo://app?vid=30537d43-af02-4a10-b928-7b9b8cf633d2","ios":"levelo://app?vid=30537d43-af02-4a10-b928-7b9b8cf633d2"},"vehicle_type_id":"4","last_reported":1691078801,"current_range_meters":29200,"station_id":"ce4bgg92rcd13ifvqb30","pricing_plan_id":"free"},{"bike_id":"b18279c5-4d28-4f77-8075-48befb8a025f","system_id":"levelo_inurba_marseille","lat":43.311722,"lon":5.387247,"is_reserved":false,"is_disabled":false,"rental_uris":{"android":"levelo://app?vid=b18279c5-4d28-4f77-8075-48befb8a025f","ios":"levelo://app?vid=b18279c5-4d28-4f77-8075-48befb8a025f"},"vehicle_type_id":"4","last_reported":1691078801,"current_range_meters":2800,"station_id":"ce4bgv12rcd13ifvqcp0","pricing_plan_id":"free"},{"bike_id":"361d7e04-a26e-4e80-a666-8c73a84b54e2","system_id":"levelo_inurba_marseille","lat":43.311722,"lon":5.387247,"is_reserved":false,"is_disabled":false,"rental_uris":{"android":"levelo://app?vid=361d7e04-a26e-4e80-a666-8c73a84b54e2","ios":"levelo://app?vid=361d7e04-a26e-4e80-a666-8c73a84b54e2"},"vehicle_type_id":"4","last_reported":1691078801,"current_range_meters":18000,"station_id":"ce4bgv12rcd13ifvqcp0","pricing_plan_id":"free"},{"bike_id":"7cf1aab8-38a1-47db-af16-2123c0ca6e97","system_id":"levelo_inurba_marseille","lat":43.32289,"lon":5.38269,"is_reserved":false,"is_disabled":false,"rental_uris":{"android":"levelo://app?vid=7cf1aab8-38a1-47db-af16-2123c0ca6e97","ios":"levelo://app?vid=7cf1aab8-38a1-47db-af16-2123c0ca6e97"},"vehicle_type_id":"4","last_reported":1691078801,"current_range_meters":20400,"station_id":"ce4bhr12rcd13ifvqhqg","pricing_plan_id":"free"},{"bike_id":"197dad72-34dc-4120-93fc-280ae3841866","system_id":"levelo_inurba_marseille","lat":43.32827,"lon":5.3668,"is_reserved":false,"is_disabled":false,"rental_uris":{"android":"levelo://app?vid=197dad72-34dc-4120-93fc-280ae3841866","ios":"levelo://app?vid=197dad72-34dc-4120-93fc-280ae3841866"},"vehicle_type_id":"4","last_reported":1691078801,"current_range_meters":21200,"station_id":"ce4bhs92rcd13ifvqi0g","pricing_plan_id":"free"},{"bike_id":"ecfd0045-1d38-4e78-ba05-2f8cb1a7c161","system_id":"levelo_inurba_marseille","lat":43.3283,"lon":5.36679,"is_reserved":false,"is_disabled":false,"rental_uris":{"android":"levelo://app?vid=ecfd0045-1d38-4e78-ba05-2f8cb1a7c161","ios":"levelo://app?vid=ecfd0045-1d38-4e78-ba05-2f8cb1a7c161"},"vehicle_type_id":"4","last_reported":1691078801,"current_range_meters":21600,"station_id":"ce4bhs92rcd13ifvqi0g","pricing_plan_id":"free"},{"bike_id":"dddbedc8-6a42-40c6-936f-790bd1069b29","system_id":"levelo_inurba_marseille","lat":43.3283,"lon":5.36674,"is_reserved":false,"is_disabled":false,"rental_uris":{"android":"levelo://app?vid=dddbedc8-6a42-40c6-936f-790bd1069b29","ios":"levelo://app?vid=dddbedc8-6a42-40c6-936f-790bd1069b29"},"vehicle_type_id":"4","last_reported":1691078801,"current_range_meters":13200,"station_id":"ce4bhs92rcd13ifvqi0g","pricing_plan_id":"free"},{"bike_id":"1832ac29-ef2b-4f4e-a090-0f5739d49c40","system_id":"levelo_inurba_marseille","lat":43.32831,"lon":5.36679,"is_reserved":false,"is_disabled":false,"rental_uris":{"android":"levelo://app?vid=1832ac29-ef2b-4f4e-a090-0f5739d49c40","ios":"levelo://app?vid=1832ac29-ef2b-4f4e-a090-0f5739d49c40"},"vehicle_type_id":"4","last_reported":1691078801,"current_range_meters":31200,"station_id":"ce4bhs92rcd13ifvqi0g","pricing_plan_id":"free"},{"bike_id":"e4ec85a6-b9ce-4a6e-9842-d1c131ac1e8b","system_id":"levelo_inurba_marseille","lat":43.32831,"lon":5.36676,"is_reserved":false,"is_disabled":false,"rental_uris":{"android":"levelo://app?vid=e4ec85a6-b9ce-4a6e-9842-d1c131ac1e8b","ios":"levelo://app?vid=e4ec85a6-b9ce-4a6e-9842-d1c131ac1e8b"},"vehicle_type_id":"4","last_reported":1691078801,"current_range_meters":20000,"station_id":"ce4bhs92rcd13ifvqi0g","pricing_plan_id":"free"},{"bike_id":"bb224614-7241-44f8-8205-8a0c7f36065f","system_id":"levelo_inurba_marseille","lat":43.32835,"lon":5.36682,"is_reserved":false,"is_disabled":false,"rental_uris":{"android":"levelo://app?vid=bb224614-7241-44f8-8205-8a0c7f36065f","ios":"levelo://app?vid=bb224614-7241-44f8-8205-8a0c7f36065f"},"vehicle_type_id":"4","last_reported":1691078801,"current_range_meters":12800,"station_id":"ce4bhs92rcd13ifvqi0g","pricing_plan_id":"free"},{"bike_id":"dd789220-e7b5-42c1-b9dc-dc4243148021","system_id":"levelo_inurba_marseille","lat":43.297163,"lon":5.365866,"is_reserved":false,"is_disabled":false,"rental_uris":{"android":"levelo://app?vid=dd789220-e7b5-42c1-b9dc-dc4243148021","ios":"levelo://app?vid=dd789220-e7b5-42c1-b9dc-dc4243148021"},"vehicle_type_id":"4","last_reported":1691078801,"current_range_meters":31200,"station_id":"ce4bgn12rcd13ifvqbt0","pricing_plan_id":"free"},{"bike_id":"049d84aa-9a5e-4f5c-abf6-5f44223ef6e6","system_id":"levelo_inurba_marseille","lat":43.297163,"lon":5.365866,"is_reserved":false,"is_disabled":false,"rental_uris":{"android":"levelo://app?vid=049d84aa-9a5e-4f5c-abf6-5f44223ef6e6","ios":"levelo://app?vid=049d84aa-9a5e-4f5c-abf6-5f44223ef6e6"},"vehicle_type_id":"4","last_reported":1691078801,"current_range_meters":16400,"station_id":"ce4bgn12rcd13ifvqbt0","pricing_plan_id":"free"},{"bike_id":"4f37ccf6-e7b7-4051-baba-a757b2cbc899","system_id":"levelo_inurba_marseille","lat":43.2968,"lon":5.37291,"is_reserved":false,"is_disabled":false,"rental_uris":{"android":"levelo://app?vid=4f37ccf6-e7b7-4051-baba-a757b2cbc899","ios":"levelo://app?vid=4f37ccf6-e7b7-4051-baba-a757b2cbc899"},"vehicle_type_id":"4","last_reported":1691078801,"current_range_meters":22000,"station_id":"ce4bgk12rcd13ifvqbj0","pricing_plan_id":"free"},{"bike_id":"b6288851-9d34-4f50-8a9d-4025f0162656","system_id":"levelo_inurba_marseille","lat":43.29573,"lon":5.367355,"is_reserved":false,"is_disabled":false,"rental_uris":{"android":"levelo://app?vid=b6288851-9d34-4f50-8a9d-4025f0162656","ios":"levelo://app?vid=b6288851-9d34-4f50-8a9d-4025f0162656"},"vehicle_type_id":"4","last_reported":1691078801,"current_range_meters":25600,"station_id":"ce4bgph2rcd13ifvqc2g","pricing_plan_id":"free"},{"bike_id":"ab36220e-fed2-4e23-a2a0-2615090eab49","system_id":"levelo_inurba_marseille","lat":43.29573,"lon":5.367355,"is_reserved":false,"is_disabled":false,"rental_uris":{"android":"levelo://app?vid=ab36220e-fed2-4e23-a2a0-2615090eab49","ios":"levelo://app?vid=ab36220e-fed2-4e23-a2a0-2615090eab49"},"vehicle_type_id":"4","last_reported":1691078801,"current_range_meters":24800,"station_id":"ce4bgph2rcd13ifvqc2g","pricing_plan_id":"free"},{"bike_id":"1ed68e45-7ff5-4b16-a6a0-f0f634567ffd","system_id":"levelo_inurba_marseille","lat":43.30944,"lon":5.39036,"is_reserved":false,"is_disabled":false,"rental_uris":{"android":"levelo://app?vid=1ed68e45-7ff5-4b16-a6a0-f0f634567ffd","ios":"levelo://app?vid=1ed68e45-7ff5-4b16-a6a0-f0f634567ffd"},"vehicle_type_id":"4","last_reported":1691078801,"current_range_meters":2000,"station_id":"ce4bgup2rcd13ifvqco0","pricing_plan_id":"free"},{"bike_id":"f0b1921d-8fc5-42f6-8214-26455e772ce5","system_id":"levelo_inurba_marseille","lat":43.30952,"lon":5.39049,"is_reserved":false,"is_disabled":false,"rental_uris":{"android":"levelo://app?vid=f0b1921d-8fc5-42f6-8214-26455e772ce5","ios":"levelo://app?vid=f0b1921d-8fc5-42f6-8214-26455e772ce5"},"vehicle_type_id":"4","last_reported":1691078801,"current_range_meters":26400,"station_id":"ce4bgup2rcd13ifvqco0","pricing_plan_id":"free"},{"bike_id":"ed67957c-5bde-47e2-b220-2fe6a0ba8368","system_id":"levelo_inurba_marseille","lat":43.317557,"lon":5.390173,"is_reserved":false,"is_disabled":false,"rental_uris":{"android":"levelo://app?vid=ed67957c-5bde-47e2-b220-2fe6a0ba8368","ios":"levelo://app?vid=ed67957c-5bde-47e2-b220-2fe6a0ba8368"},"vehicle_type_id":"4","last_reported":1691078801,"current_range_meters":31200,"station_id":"ce4bhqp2rcd13ifvqhng","pricing_plan_id":"free"},{"bike_id":"8a234d4f-594d-44f2-9d7b-be6ce4375b0d","system_id":"levelo_inurba_marseille","lat":43.317557,"lon":5.390173,"is_reserved":false,"is_disabled":false,"rental_uris":{"android":"levelo://app?vid=8a234d4f-594d-44f2-9d7b-be6ce4375b0d","ios":"levelo://app?vid=8a234d4f-594d-44f2-9d7b-be6ce4375b0d"},"vehicle_type_id":"4","last_reported":1691078801,"current_range_meters":6000,"station_id":"ce4bhqp2rcd13ifvqhng","pricing_plan_id":"free"},{"bike_id":"41b08381-40f7-4381-aa7b-8ec3b3025cda","system_id":"levelo_inurba_marseille","lat":43.295748,"lon":5.37522,"is_reserved":false,"is_disabled":false,"rental_uris":{"android":"levelo://app?vid=41b08381-40f7-4381-aa7b-8ec3b3025cda","ios":"levelo://app?vid=41b08381-40f7-4381-aa7b-8ec3b3025cda"},"vehicle_type_id":"4","last_reported":1691078801,"current_range_meters":0,"station_id":"ce4bgh92rcd13ifvqb50","pricing_plan_id":"free"},{"bike_id":"4aa2fd66-99e4-4fc1-b843-4ddefe5593dd","system_id":"levelo_inurba_marseille","lat":43.30428,"lon":5.38892,"is_reserved":false,"is_disabled":false,"rental_uris":{"android":"levelo://app?vid=4aa2fd66-99e4-4fc1-b843-4ddefe5593dd","ios":"levelo://app?vid=4aa2fd66-99e4-4fc1-b843-4ddefe5593dd"},"vehicle_type_id":"4","last_reported":1691078801,"current_range_meters":27600,"station_id":"ce4bgk12rcd13ifvqbi0","pricing_plan_id":"free"},{"bike_id":"b9200c7e-7ee1-491d-b1df-78886190a845","system_id":"levelo_inurba_marseille","lat":43.304274,"lon":5.388873,"is_reserved":false,"is_disabled":false,"rental_uris":{"android":"levelo://app?vid=b9200c7e-7ee1-491d-b1df-78886190a845","ios":"levelo://app?vid=b9200c7e-7ee1-491d-b1df-78886190a845"},"vehicle_type_id":"4","last_reported":1691078801,"current_range_meters":12800,"station_id":"ce4bgk12rcd13ifvqbi0","pricing_plan_id":"free"},{"bike_id":"bc9207d1-4e99-4b00-82cf-61b8fd3bdba4","system_id":"levelo_inurba_marseille","lat":43.30429,"lon":5.38896,"is_reserved":false,"is_disabled":false,"rental_uris":{"android":"levelo://app?vid=bc9207d1-4e99-4b00-82cf-61b8fd3bdba4","ios":"levelo://app?vid=bc9207d1-4e99-4b00-82cf-61b8fd3bdba4"},"vehicle_type_id":"4","last_reported":1691078801,"current_range_meters":27600,"station_id":"ce4bgk12rcd13ifvqbi0","pricing_plan_id":"free"},{"bike_id":"3d07d2ca-3e71-42f2-97b4-28fbcc29dff5","system_id":"levelo_inurba_marseille","lat":43.304274,"lon":5.388873,"is_reserved":false,"is_disabled":false,"rental_uris":{"android":"levelo://app?vid=3d07d2ca-3e71-42f2-97b4-28fbcc29dff5","ios":"levelo://app?vid=3d07d2ca-3e71-42f2-97b4-28fbcc29dff5"},"vehicle_type_id":"4","last_reported":1691078801,"current_range_meters":12400,"station_id":"ce4bgk12rcd13ifvqbi0","pricing_plan_id":"free"},{"bike_id":"5449d22e-9fea-4495-9868-4bcde4f1ab5a","system_id":"levelo_inurba_marseille","lat":43.299724,"lon":5.384848,"is_reserved":false,"is_disabled":false,"rental_uris":{"android":"levelo://app?vid=5449d22e-9fea-4495-9868-4bcde4f1ab5a","ios":"levelo://app?vid=5449d22e-9fea-4495-9868-4bcde4f1ab5a"},"vehicle_type_id":"4","last_reported":1691078801,"current_range_meters":13200,"station_id":"ce4bgj92rcd13ifvqbd0","pricing_plan_id":"free"},{"bike_id":"660de016-7b00-4735-9d75-3ae99d5de62d","system_id":"levelo_inurba_marseille","lat":43.32368,"lon":5.38879,"is_reserved":false,"is_disabled":false,"rental_uris":{"android":"levelo://app?vid=660de016-7b00-4735-9d75-3ae99d5de62d","ios":"levelo://app?vid=660de016-7b00-4735-9d75-3ae99d5de62d"},"vehicle_type_id":"4","last_reported":1691078801,"current_range_meters":30800,"station_id":"ce4bhqp2rcd13ifvqhog","pricing_plan_id":"free"},{"bike_id":"83e40035-5ae5-4bb2-89ae-adf2ef147026","system_id":"levelo_inurba_marseille","lat":43.323676,"lon":5.388816,"is_reserved":false,"is_disabled":false,"rental_uris":{"android":"levelo://app?vid=83e40035-5ae5-4bb2-89ae-adf2ef147026","ios":"levelo://app?vid=83e40035-5ae5-4bb2-89ae-adf2ef147026"},"vehicle_type_id":"4","last_reported":1691078801,"current_range_meters":14800,"station_id":"","pricing_plan_id":"free"},{"bike_id":"6be534a9-96c6-4989-b3bb-e9dea76376c4","system_id":"levelo_inurba_marseille","lat":43.32366,"lon":5.38885,"is_reserved":false,"is_disabled":false,"rental_uris":{"android":"levelo://app?vid=6be534a9-96c6-4989-b3bb-e9dea76376c4","ios":"levelo://app?vid=6be534a9-96c6-4989-b3bb-e9dea76376c4"},"vehicle_type_id":"4","last_reported":1691078801,"current_range_meters":16000,"station_id":"ce4bhqp2rcd13ifvqhog","pricing_plan_id":"free"},{"bike_id":"21dc2166-a379-4906-8404-9d693acba198","system_id":"levelo_inurba_marseille","lat":43.293259,"lon":5.371586,"is_reserved":false,"is_disabled":false,"rental_uris":{"android":"levelo://app?vid=21dc2166-a379-4906-8404-9d693acba198","ios":"levelo://app?vid=21dc2166-a379-4906-8404-9d693acba198"},"vehicle_type_id":"4","last_reported":1691078801,"current_range_meters":24800,"station_id":"ce4bgh92rcd13ifvqb40","pricing_plan_id":"free"},{"bike_id":"361af1f5-51bc-41b7-b67a-dfc1c76254da","system_id":"levelo_inurba_marseille","lat":43.305994,"lon":5.393687,"is_reserved":false,"is_disabled":false,"rental_uris":{"android":"levelo://app?vid=361af1f5-51bc-41b7-b67a-dfc1c76254da","ios":"levelo://app?vid=361af1f5-51bc-41b7-b67a-dfc1c76254da"},"vehicle_type_id":"4","last_reported":1691078801,"current_range_meters":6400,"station_id":"ce4bh0p2rcd13ifvqd80","pricing_plan_id":"free"},{"bike_id":"b5ba856d-3cd2-45e0-88c6-8662b1a261eb","system_id":"levelo_inurba_marseille","lat":43.30304,"lon":5.39215,"is_reserved":false,"is_disabled":false,"rental_uris":{"android":"levelo://app?vid=b5ba856d-3cd2-45e0-88c6-8662b1a261eb","ios":"levelo://app?vid=b5ba856d-3cd2-45e0-88c6-8662b1a261eb"},"vehicle_type_id":"4","last_reported":1691078801,"current_range_meters":2400,"station_id":"ce4bgkh2rcd13ifvqbk0","pricing_plan_id":"free"},{"bike_id":"e47856e7-db8d-4f8c-ade6-d9171533a371","system_id":"levelo_inurba_marseille","lat":43.2936,"lon":5.37835,"is_reserved":false,"is_disabled":false,"rental_uris":{"android":"levelo://app?vid=e47856e7-db8d-4f8c-ade6-d9171533a371","ios":"levelo://app?vid=e47856e7-db8d-4f8c-ade6-d9171533a371"},"vehicle_type_id":"4","last_reported":1691078801,"current_range_meters":8400,"station_id":"ce4bgjh2rcd13ifvqbf0","pricing_plan_id":"free"},{"bike_id":"ea2405b1-d48a-4118-9843-384331a891f9","system_id":"levelo_inurba_marseille","lat":43.292311,"lon":5.360731,"is_reserved":false,"is_disabled":false,"rental_uris":{"android":"levelo://app?vid=ea2405b1-d48a-4118-9843-384331a891f9","ios":"levelo://app?vid=ea2405b1-d48a-4118-9843-384331a891f9"},"vehicle_type_id":"4","last_reported":1691078801,"current_range_meters":6800,"station_id":"ce4bhbh2rcd13ifvqeqg","pricing_plan_id":"free"},{"bike_id":"b2daeae6-6de3-42dc-873a-830eab02ccc8","system_id":"levelo_inurba_marseille","lat":43.29197,"lon":5.358,"is_reserved":false,"is_disabled":false,"rental_uris":{"android":"levelo://app?vid=b2daeae6-6de3-42dc-873a-830eab02ccc8","ios":"levelo://app?vid=b2daeae6-6de3-42dc-873a-830eab02ccc8"},"vehicle_type_id":"4","last_reported":1691078801,"current_range_meters":19600,"station_id":"ce4bhb12rcd13ifvqel0","pricing_plan_id":"free"},{"bike_id":"e559a4e1-40b0-410b-ac13-86e01174cdcf","system_id":"levelo_inurba_marseille","lat":43.29198,"lon":5.35792,"is_reserved":false,"is_disabled":false,"rental_uris":{"android":"levelo://app?vid=e559a4e1-40b0-410b-ac13-86e01174cdcf","ios":"levelo://app?vid=e559a4e1-40b0-410b-ac13-86e01174cdcf"},"vehicle_type_id":"4","last_reported":1691078801,"current_range_meters":20800,"station_id":"ce4bhb12rcd13ifvqel0","pricing_plan_id":"free"},{"bike_id":"e1b48de0-17ac-4c79-aec5-fb6d2d410baf","system_id":"levelo_inurba_marseille","lat":43.29196,"lon":5.35798,"is_reserved":false,"is_disabled":false,"rental_uris":{"android":"levelo://app?vid=e1b48de0-17ac-4c79-aec5-fb6d2d410baf","ios":"levelo://app?vid=e1b48de0-17ac-4c79-aec5-fb6d2d410baf"},"vehicle_type_id":"4","last_reported":1691078801,"current_range_meters":20000,"station_id":"ce4bhb12rcd13ifvqel0","pricing_plan_id":"free"},{"bike_id":"a0bea851-2c36-4bbc-907f-071100d84dd8","system_id":"levelo_inurba_marseille","lat":43.29194,"lon":5.35806,"is_reserved":false,"is_disabled":false,"rental_uris":{"android":"levelo://app?vid=a0bea851-2c36-4bbc-907f-071100d84dd8","ios":"levelo://app?vid=a0bea851-2c36-4bbc-907f-071100d84dd8"},"vehicle_type_id":"4","last_reported":1691078801,"current_range_meters":18400,"station_id":"ce4bhb12rcd13ifvqel0","pricing_plan_id":"free"},{"bike_id":"380ba96c-7270-41d8-b16e-82334e124c57","system_id":"levelo_inurba_marseille","lat":43.29183,"lon":5.35802,"is_reserved":false,"is_disabled":false,"rental_uris":{"android":"levelo://app?vid=380ba96c-7270-41d8-b16e-82334e124c57","ios":"levelo://app?vid=380ba96c-7270-41d8-b16e-82334e124c57"},"vehicle_type_id":"4","last_reported":1691078801,"current_range_meters":31200,"station_id":"ce4bhb12rcd13ifvqel0","pricing_plan_id":"free"},{"bike_id":"234ba177-7a4f-4be0-a905-8ff5a822a9b3","system_id":"levelo_inurba_marseille","lat":43.29184,"lon":5.35721,"is_reserved":false,"is_disabled":false,"rental_uris":{"android":"levelo://app?vid=234ba177-7a4f-4be0-a905-8ff5a822a9b3","ios":"levelo://app?vid=234ba177-7a4f-4be0-a905-8ff5a822a9b3"},"vehicle_type_id":"4","last_reported":1691078801,"current_range_meters":8400,"station_id":"","pricing_plan_id":"free"},{"bike_id":"88256bc6-d00f-4e63-9e24-a438aa65fe84","system_id":"levelo_inurba_marseille","lat":43.29529,"lon":5.385581,"is_reserved":false,"is_disabled":false,"rental_uris":{"android":"levelo://app?vid=88256bc6-d00f-4e63-9e24-a438aa65fe84","ios":"levelo://app?vid=88256bc6-d00f-4e63-9e24-a438aa65fe84"},"vehicle_type_id":"4","last_reported":1691078801,"current_range_meters":28000,"station_id":"ce4bgih2rcd13ifvqba0","pricing_plan_id":"free"},{"bike_id":"6c9dd1b4-ef1d-45b1-b285-da98f24b85f9","system_id":"levelo_inurba_marseille","lat":43.290779,"lon":5.371482,"is_reserved":false,"is_disabled":false,"rental_uris":{"android":"levelo://app?vid=6c9dd1b4-ef1d-45b1-b285-da98f24b85f9","ios":"levelo://app?vid=6c9dd1b4-ef1d-45b1-b285-da98f24b85f9"},"vehicle_type_id":"4","last_reported":1691078801,"current_range_meters":4000,"station_id":"ce4bh5p2rcd13ifvqe4g","pricing_plan_id":"free"},{"bike_id":"d0ef9fa6-6f06-4477-8975-ecc19e03d42d","system_id":"levelo_inurba_marseille","lat":43.290779,"lon":5.371482,"is_reserved":false,"is_disabled":false,"rental_uris":{"android":"levelo://app?vid=d0ef9fa6-6f06-4477-8975-ecc19e03d42d","ios":"levelo://app?vid=d0ef9fa6-6f06-4477-8975-ecc19e03d42d"},"vehicle_type_id":"4","last_reported":1691078801,"current_range_meters":13600,"station_id":"ce4bh5p2rcd13ifvqe4g","pricing_plan_id":"free"},{"bike_id":"d1d18c60-3a20-4e0c-a97f-5cb05bb390a8","system_id":"levelo_inurba_marseille","lat":43.302008,"lon":5.394694,"is_reserved":false,"is_disabled":false,"rental_uris":{"android":"levelo://app?vid=d1d18c60-3a20-4e0c-a97f-5cb05bb390a8","ios":"levelo://app?vid=d1d18c60-3a20-4e0c-a97f-5cb05bb390a8"},"vehicle_type_id":"4","last_reported":1691078801,"current_range_meters":20800,"station_id":"ce4bh0p2rcd13ifvqd70","pricing_plan_id":"free"},{"bike_id":"b1f39d10-fc97-4dff-8600-604716ab5338","system_id":"levelo_inurba_marseille","lat":43.290631,"lon":5.359244,"is_reserved":false,"is_disabled":false,"rental_uris":{"android":"levelo://app?vid=b1f39d10-fc97-4dff-8600-604716ab5338","ios":"levelo://app?vid=b1f39d10-fc97-4dff-8600-604716ab5338"},"vehicle_type_id":"4","last_reported":1691078801,"current_range_meters":21200,"station_id":"ce4bha92rcd13ifvqeg0","pricing_plan_id":"free"},{"bike_id":"0acd43f8-42cb-4c59-b189-5c0347f7bebb","system_id":"levelo_inurba_marseille","lat":43.302008,"lon":5.394694,"is_reserved":false,"is_disabled":false,"rental_uris":{"android":"levelo://app?vid=0acd43f8-42cb-4c59-b189-5c0347f7bebb","ios":"levelo://app?vid=0acd43f8-42cb-4c59-b189-5c0347f7bebb"},"vehicle_type_id":"4","last_reported":1691078801,"current_range_meters":0,"station_id":"ce4bh0p2rcd13ifvqd70","pricing_plan_id":"free"},{"bike_id":"4919b552-c4e3-4611-a957-cfacef0fa304","system_id":"levelo_inurba_marseille","lat":43.302008,"lon":5.394694,"is_reserved":false,"is_disabled":false,"rental_uris":{"android":"levelo://app?vid=4919b552-c4e3-4611-a957-cfacef0fa304","ios":"levelo://app?vid=4919b552-c4e3-4611-a957-cfacef0fa304"},"vehicle_type_id":"4","last_reported":1691078801,"current_range_meters":18400,"station_id":"ce4bh0p2rcd13ifvqd70","pricing_plan_id":"free"},{"bike_id":"8bd28cb1-3801-47e2-b1e8-ed87cc1bb7aa","system_id":"levelo_inurba_marseille","lat":43.284538,"lon":5.358657,"is_reserved":false,"is_disabled":false,"rental_uris":{"android":"levelo://app?vid=8bd28cb1-3801-47e2-b1e8-ed87cc1bb7aa","ios":"levelo://app?vid=8bd28cb1-3801-47e2-b1e8-ed87cc1bb7aa"},"vehicle_type_id":"4","last_reported":1691078801,"current_range_meters":20800,"station_id":"ce4bhah2rcd13ifvqei0","pricing_plan_id":"free"},{"bike_id":"674835c4-7141-44dc-89e0-1f6be30864c0","system_id":"levelo_inurba_marseille","lat":43.289184,"lon":5.366408,"is_reserved":false,"is_disabled":false,"rental_uris":{"android":"levelo://app?vid=674835c4-7141-44dc-89e0-1f6be30864c0","ios":"levelo://app?vid=674835c4-7141-44dc-89e0-1f6be30864c0"},"vehicle_type_id":"4","last_reported":1691078801,"current_range_meters":22800,"station_id":"ce4bhap2rcd13ifvqek0","pricing_plan_id":"free"},{"bike_id":"bda5cb16-2421-405e-b67f-ad75acce5678","system_id":"levelo_inurba_marseille","lat":43.289468,"lon":5.363719,"is_reserved":false,"is_disabled":false,"rental_uris":{"android":"levelo://app?vid=bda5cb16-2421-405e-b67f-ad75acce5678","ios":"levelo://app?vid=bda5cb16-2421-405e-b67f-ad75acce5678"},"vehicle_type_id":"4","last_reported":1691078801,"current_range_meters":9600,"station_id":"ce4bhc92rcd13ifvqetg","pricing_plan_id":"free"},{"bike_id":"ef6811fa-e747-45e4-b76d-a57096b31614","system_id":"levelo_inurba_marseille","lat":43.292642,"lon":5.384254,"is_reserved":false,"is_disabled":false,"rental_uris":{"android":"levelo://app?vid=ef6811fa-e747-45e4-b76d-a57096b31614","ios":"levelo://app?vid=ef6811fa-e747-45e4-b76d-a57096b31614"},"vehicle_type_id":"4","last_reported":1691078801,"current_range_meters":13600,"station_id":"ce4bh692rcd13ifvqea0","pricing_plan_id":"free"},{"bike_id":"961d1205-f083-4770-93cd-ac71b79f0507","system_id":"levelo_inurba_marseille","lat":43.292642,"lon":5.384254,"is_reserved":false,"is_disabled":false,"rental_uris":{"android":"levelo://app?vid=961d1205-f083-4770-93cd-ac71b79f0507","ios":"levelo://app?vid=961d1205-f083-4770-93cd-ac71b79f0507"},"vehicle_type_id":"4","last_reported":1691078801,"current_range_meters":23600,"station_id":"ce4bh692rcd13ifvqea0","pricing_plan_id":"free"},{"bike_id":"a5a17996-280c-4da6-bed0-71bb58b3f07d","system_id":"levelo_inurba_marseille","lat":43.292644,"lon":5.384257,"is_reserved":false,"is_disabled":false,"rental_uris":{"android":"levelo://app?vid=a5a17996-280c-4da6-bed0-71bb58b3f07d","ios":"levelo://app?vid=a5a17996-280c-4da6-bed0-71bb58b3f07d"},"vehicle_type_id":"4","last_reported":1691078801,"current_range_meters":7600,"station_id":"ce4bh692rcd13ifvqea0","pricing_plan_id":"free"},{"bike_id":"755e3e2a-b2c9-41d2-b6cf-90a98a37c2d2","system_id":"levelo_inurba_marseille","lat":43.29013,"lon":5.35621,"is_reserved":false,"is_disabled":false,"rental_uris":{"android":"levelo://app?vid=755e3e2a-b2c9-41d2-b6cf-90a98a37c2d2","ios":"levelo://app?vid=755e3e2a-b2c9-41d2-b6cf-90a98a37c2d2"},"vehicle_type_id":"4","last_reported":1691078801,"current_range_meters":23200,"station_id":"ce4bhb92rcd13ifvqen0","pricing_plan_id":"free"},{"bike_id":"b3c092b5-6290-4076-88eb-2c55f0e90fb1","system_id":"levelo_inurba_marseille","lat":43.29012,"lon":5.35618,"is_reserved":false,"is_disabled":false,"rental_uris":{"android":"levelo://app?vid=b3c092b5-6290-4076-88eb-2c55f0e90fb1","ios":"levelo://app?vid=b3c092b5-6290-4076-88eb-2c55f0e90fb1"},"vehicle_type_id":"4","last_reported":1691078801,"current_range_meters":20800,"station_id":"ce4bhb92rcd13ifvqen0","pricing_plan_id":"free"},{"bike_id":"00b2dcdc-2882-40a1-9132-89c3ec15cf18","system_id":"levelo_inurba_marseille","lat":43.33047,"lon":5.38909,"is_reserved":false,"is_disabled":false,"rental_uris":{"android":"levelo://app?vid=00b2dcdc-2882-40a1-9132-89c3ec15cf18","ios":"levelo://app?vid=00b2dcdc-2882-40a1-9132-89c3ec15cf18"},"vehicle_type_id":"4","last_reported":1691078801,"current_range_meters":23600,"station_id":"ce4bhr92rcd13ifvqhrg","pricing_plan_id":"free"},{"bike_id":"2f2d42a2-8de0-405f-9429-d3eae654394c","system_id":"levelo_inurba_marseille","lat":43.33047,"lon":5.3891,"is_reserved":false,"is_disabled":false,"rental_uris":{"android":"levelo://app?vid=2f2d42a2-8de0-405f-9429-d3eae654394c","ios":"levelo://app?vid=2f2d42a2-8de0-405f-9429-d3eae654394c"},"vehicle_type_id":"4","last_reported":1691078801,"current_range_meters":25600,"station_id":"ce4bhr92rcd13ifvqhrg","pricing_plan_id":"free"},{"bike_id":"20cf3f6d-acf4-4653-bf24-baa04253f77a","system_id":"levelo_inurba_marseille","lat":43.33048,"lon":5.3891,"is_reserved":false,"is_disabled":false,"rental_uris":{"android":"levelo://app?vid=20cf3f6d-acf4-4653-bf24-baa04253f77a","ios":"levelo://app?vid=20cf3f6d-acf4-4653-bf24-baa04253f77a"},"vehicle_type_id":"4","last_reported":1691078801,"current_range_meters":23200,"station_id":"ce4bhr92rcd13ifvqhrg","pricing_plan_id":"free"},{"bike_id":"976f718a-bfdb-4480-a757-e5b9a5d1a5d6","system_id":"levelo_inurba_marseille","lat":43.33045,"lon":5.38915,"is_reserved":false,"is_disabled":false,"rental_uris":{"android":"levelo://app?vid=976f718a-bfdb-4480-a757-e5b9a5d1a5d6","ios":"levelo://app?vid=976f718a-bfdb-4480-a757-e5b9a5d1a5d6"},"vehicle_type_id":"4","last_reported":1691078801,"current_range_meters":19200,"station_id":"ce4bhr92rcd13ifvqhrg","pricing_plan_id":"free"},{"bike_id":"f67edc25-bcc7-41fb-8431-1add679b0933","system_id":"levelo_inurba_marseille","lat":43.33042,"lon":5.3892,"is_reserved":false,"is_disabled":false,"rental_uris":{"android":"levelo://app?vid=f67edc25-bcc7-41fb-8431-1add679b0933","ios":"levelo://app?vid=f67edc25-bcc7-41fb-8431-1add679b0933"},"vehicle_type_id":"4","last_reported":1691078801,"current_range_meters":24400,"station_id":"ce4bhr92rcd13ifvqhrg","pricing_plan_id":"free"},{"bike_id":"05eb7167-1649-4b38-8503-b0d2e3456f24","system_id":"levelo_inurba_marseille","lat":43.33046,"lon":5.38914,"is_reserved":false,"is_disabled":false,"rental_uris":{"android":"levelo://app?vid=05eb7167-1649-4b38-8503-b0d2e3456f24","ios":"levelo://app?vid=05eb7167-1649-4b38-8503-b0d2e3456f24"},"vehicle_type_id":"4","last_reported":1691078801,"current_range_meters":25200,"station_id":"ce4bhr92rcd13ifvqhrg","pricing_plan_id":"free"},{"bike_id":"0b40da1c-c5a8-44b1-ae95-03a93c8bf4e2","system_id":"levelo_inurba_marseille","lat":43.33045,"lon":5.38916,"is_reserved":false,"is_disabled":false,"rental_uris":{"android":"levelo://app?vid=0b40da1c-c5a8-44b1-ae95-03a93c8bf4e2","ios":"levelo://app?vid=0b40da1c-c5a8-44b1-ae95-03a93c8bf4e2"},"vehicle_type_id":"4","last_reported":1691078801,"current_range_meters":17600,"station_id":"ce4bhr92rcd13ifvqhrg","pricing_plan_id":"free"},{"bike_id":"36a540ee-c84d-4fdf-8ad6-81577306aacb","system_id":"levelo_inurba_marseille","lat":43.290103,"lon":5.356114,"is_reserved":false,"is_disabled":false,"rental_uris":{"android":"levelo://app?vid=36a540ee-c84d-4fdf-8ad6-81577306aacb","ios":"levelo://app?vid=36a540ee-c84d-4fdf-8ad6-81577306aacb"},"vehicle_type_id":"4","last_reported":1691078801,"current_range_meters":14400,"station_id":"ce4bhb92rcd13ifvqen0","pricing_plan_id":"free"},{"bike_id":"a716ed66-8607-47f1-a4f4-b99eecc862cb","system_id":"levelo_inurba_marseille","lat":43.33041,"lon":5.38923,"is_reserved":false,"is_disabled":false,"rental_uris":{"android":"levelo://app?vid=a716ed66-8607-47f1-a4f4-b99eecc862cb","ios":"levelo://app?vid=a716ed66-8607-47f1-a4f4-b99eecc862cb"},"vehicle_type_id":"4","last_reported":1691078801,"current_range_meters":29600,"station_id":"ce4bhr92rcd13ifvqhrg","pricing_plan_id":"free"},{"bike_id":"8795e432-c7a3-4d95-9fa9-9f904bfbcb4a","system_id":"levelo_inurba_marseille","lat":43.33043,"lon":5.38921,"is_reserved":false,"is_disabled":false,"rental_uris":{"android":"levelo://app?vid=8795e432-c7a3-4d95-9fa9-9f904bfbcb4a","ios":"levelo://app?vid=8795e432-c7a3-4d95-9fa9-9f904bfbcb4a"},"vehicle_type_id":"4","last_reported":1691078801,"current_range_meters":18000,"station_id":"ce4bhr92rcd13ifvqhrg","pricing_plan_id":"free"},{"bike_id":"3781a02c-3aab-4b73-836e-df18a4b29055","system_id":"levelo_inurba_marseille","lat":43.33043,"lon":5.38923,"is_reserved":false,"is_disabled":false,"rental_uris":{"android":"levelo://app?vid=3781a02c-3aab-4b73-836e-df18a4b29055","ios":"levelo://app?vid=3781a02c-3aab-4b73-836e-df18a4b29055"},"vehicle_type_id":"4","last_reported":1691078801,"current_range_meters":18800,"station_id":"ce4bhr92rcd13ifvqhrg","pricing_plan_id":"free"},{"bike_id":"05bf2cc0-c80b-4d3b-9303-5cea93148e89","system_id":"levelo_inurba_marseille","lat":43.290995,"lon":5.381361,"is_reserved":false,"is_disabled":false,"rental_uris":{"android":"levelo://app?vid=05bf2cc0-c80b-4d3b-9303-5cea93148e89","ios":"levelo://app?vid=05bf2cc0-c80b-4d3b-9303-5cea93148e89"},"vehicle_type_id":"4","last_reported":1691078801,"current_range_meters":31200,"station_id":"ce4bh512rcd13ifvqe2g","pricing_plan_id":"free"},{"bike_id":"3a6bec14-4ac5-4626-9d44-f5e10107eef5","system_id":"levelo_inurba_marseille","lat":43.29792,"lon":5.39336,"is_reserved":false,"is_disabled":false,"rental_uris":{"android":"levelo://app?vid=3a6bec14-4ac5-4626-9d44-f5e10107eef5","ios":"levelo://app?vid=3a6bec14-4ac5-4626-9d44-f5e10107eef5"},"vehicle_type_id":"4","last_reported":1691078801,"current_range_meters":0,"station_id":"chh1huq6cuj3fo74tm60","pricing_plan_id":"free"},{"bike_id":"875f2d38-c8da-4c48-b4ac-0adff3105bf9","system_id":"levelo_inurba_marseille","lat":43.28856,"lon":5.358371,"is_reserved":false,"is_disabled":false,"rental_uris":{"android":"levelo://app?vid=875f2d38-c8da-4c48-b4ac-0adff3105bf9","ios":"levelo://app?vid=875f2d38-c8da-4c48-b4ac-0adff3105bf9"},"vehicle_type_id":"4","last_reported":1691078801,"current_range_meters":31200,"station_id":"ce4bhb12rcd13ifvqem0","pricing_plan_id":"free"},{"bike_id":"abc786ad-935e-48ff-bdbd-7ad71bdab793","system_id":"levelo_inurba_marseille","lat":43.28856,"lon":5.358371,"is_reserved":false,"is_disabled":false,"rental_uris":{"android":"levelo://app?vid=abc786ad-935e-48ff-bdbd-7ad71bdab793","ios":"levelo://app?vid=abc786ad-935e-48ff-bdbd-7ad71bdab793"},"vehicle_type_id":"4","last_reported":1691078801,"current_range_meters":12400,"station_id":"ce4bhb12rcd13ifvqem0","pricing_plan_id":"free"},{"bike_id":"54d3c406-6257-4c8b-8648-98e2b883cefe","system_id":"levelo_inurba_marseille","lat":43.28856,"lon":5.358371,"is_reserved":false,"is_disabled":false,"rental_uris":{"android":"levelo://app?vid=54d3c406-6257-4c8b-8648-98e2b883cefe","ios":"levelo://app?vid=54d3c406-6257-4c8b-8648-98e2b883cefe"},"vehicle_type_id":"4","last_reported":1691078801,"current_range_meters":3200,"station_id":"ce4bhb12rcd13ifvqem0","pricing_plan_id":"free"},{"bike_id":"5d3ded8d-ff71-4a02-9bff-1334da8d97e0","system_id":"levelo_inurba_marseille","lat":43.312609,"lon":5.401662,"is_reserved":false,"is_disabled":false,"rental_uris":{"android":"levelo://app?vid=5d3ded8d-ff71-4a02-9bff-1334da8d97e0","ios":"levelo://app?vid=5d3ded8d-ff71-4a02-9bff-1334da8d97e0"},"vehicle_type_id":"4","last_reported":1691078801,"current_range_meters":31200,"station_id":"ce4bh092rcd13ifvqd30","pricing_plan_id":"free"},{"bike_id":"a37bd7b5-31fb-4cf6-82d8-850c45a9db96","system_id":"levelo_inurba_marseille","lat":43.30937,"lon":5.40142,"is_reserved":false,"is_disabled":false,"rental_uris":{"android":"levelo://app?vid=a37bd7b5-31fb-4cf6-82d8-850c45a9db96","ios":"levelo://app?vid=a37bd7b5-31fb-4cf6-82d8-850c45a9db96"},"vehicle_type_id":"4","last_reported":1691078801,"current_range_meters":9200,"station_id":"ce4bgvp2rcd13ifvqct0","pricing_plan_id":"free"},{"bike_id":"ad6f41e5-ed0f-49c8-8f79-66960ec44438","system_id":"levelo_inurba_marseille","lat":43.30948,"lon":5.40147,"is_reserved":false,"is_disabled":false,"rental_uris":{"android":"levelo://app?vid=ad6f41e5-ed0f-49c8-8f79-66960ec44438","ios":"levelo://app?vid=ad6f41e5-ed0f-49c8-8f79-66960ec44438"},"vehicle_type_id":"4","last_reported":1691078801,"current_range_meters":4400,"station_id":"ce4bgvp2rcd13ifvqct0","pricing_plan_id":"free"},{"bike_id":"1e195414-e278-488d-99b5-3f87f91acd85","system_id":"levelo_inurba_marseille","lat":43.30642,"lon":5.401031,"is_reserved":false,"is_disabled":false,"rental_uris":{"android":"levelo://app?vid=1e195414-e278-488d-99b5-3f87f91acd85","ios":"levelo://app?vid=1e195414-e278-488d-99b5-3f87f91acd85"},"vehicle_type_id":"4","last_reported":1691078801,"current_range_meters":3200,"station_id":"ce4bh112rcd13ifvqda0","pricing_plan_id":"free"},{"bike_id":"a3489843-514e-4654-bb87-bd57645f5cbb","system_id":"levelo_inurba_marseille","lat":43.30642,"lon":5.401031,"is_reserved":false,"is_disabled":false,"rental_uris":{"android":"levelo://app?vid=a3489843-514e-4654-bb87-bd57645f5cbb","ios":"levelo://app?vid=a3489843-514e-4654-bb87-bd57645f5cbb"},"vehicle_type_id":"4","last_reported":1691078801,"current_range_meters":19200,"station_id":"ce4bh112rcd13ifvqda0","pricing_plan_id":"free"},{"bike_id":"75199276-b705-4ad7-b6a9-49aeaa84628a","system_id":"levelo_inurba_marseille","lat":43.286591,"lon":5.363346,"is_reserved":false,"is_disabled":false,"rental_uris":{"android":"levelo://app?vid=75199276-b705-4ad7-b6a9-49aeaa84628a","ios":"levelo://app?vid=75199276-b705-4ad7-b6a9-49aeaa84628a"},"vehicle_type_id":"4","last_reported":1691078801,"current_range_meters":31200,"station_id":"ce4bhah2rcd13ifvqej0","pricing_plan_id":"free"},{"bike_id":"56f29024-02c1-4dd0-9860-cf3e136f1d02","system_id":"levelo_inurba_marseille","lat":43.298681,"lon":5.397225,"is_reserved":false,"is_disabled":false,"rental_uris":{"android":"levelo://app?vid=56f29024-02c1-4dd0-9860-cf3e136f1d02","ios":"levelo://app?vid=56f29024-02c1-4dd0-9860-cf3e136f1d02"},"vehicle_type_id":"4","last_reported":1691078801,"current_range_meters":26800,"station_id":"ce4bh0h2rcd13ifvqd50","pricing_plan_id":"free"},{"bike_id":"cf98908f-8375-4e41-8837-74cac3478934","system_id":"levelo_inurba_marseille","lat":43.295196,"lon":5.39397,"is_reserved":false,"is_disabled":false,"rental_uris":{"android":"levelo://app?vid=cf98908f-8375-4e41-8837-74cac3478934","ios":"levelo://app?vid=cf98908f-8375-4e41-8837-74cac3478934"},"vehicle_type_id":"4","last_reported":1691078801,"current_range_meters":24400,"station_id":"ce4bh292rcd13ifvqdf0","pricing_plan_id":"free"},{"bike_id":"e4592e9f-a9d4-4734-995e-9967a88b3d8b","system_id":"levelo_inurba_marseille","lat":43.28659,"lon":5.36354,"is_reserved":false,"is_disabled":false,"rental_uris":{"android":"levelo://app?vid=e4592e9f-a9d4-4734-995e-9967a88b3d8b","ios":"levelo://app?vid=e4592e9f-a9d4-4734-995e-9967a88b3d8b"},"vehicle_type_id":"4","last_reported":1691078801,"current_range_meters":12000,"station_id":"ce4bhah2rcd13ifvqej0","pricing_plan_id":"free"},{"bike_id":"2b9c6ea3-3eb8-4ba0-b230-e92bfaad0fbf","system_id":"levelo_inurba_marseille","lat":43.295196,"lon":5.39397,"is_reserved":false,"is_disabled":false,"rental_uris":{"android":"levelo://app?vid=2b9c6ea3-3eb8-4ba0-b230-e92bfaad0fbf","ios":"levelo://app?vid=2b9c6ea3-3eb8-4ba0-b230-e92bfaad0fbf"},"vehicle_type_id":"4","last_reported":1691078801,"current_range_meters":10000,"station_id":"ce4bh292rcd13ifvqdf0","pricing_plan_id":"free"},{"bike_id":"46229ccc-479c-49e5-868c-8f8447211027","system_id":"levelo_inurba_marseille","lat":43.316517,"lon":5.404375,"is_reserved":false,"is_disabled":false,"rental_uris":{"android":"levelo://app?vid=46229ccc-479c-49e5-868c-8f8447211027","ios":"levelo://app?vid=46229ccc-479c-49e5-868c-8f8447211027"},"vehicle_type_id":"4","last_reported":1691078801,"current_range_meters":6000,"station_id":"ce4bh012rcd13ifvqd00","pricing_plan_id":"free"},{"bike_id":"3dea7167-e473-45a4-a220-b20dbcf9f32d","system_id":"levelo_inurba_marseille","lat":43.295196,"lon":5.39397,"is_reserved":false,"is_disabled":false,"rental_uris":{"android":"levelo://app?vid=3dea7167-e473-45a4-a220-b20dbcf9f32d","ios":"levelo://app?vid=3dea7167-e473-45a4-a220-b20dbcf9f32d"},"vehicle_type_id":"4","last_reported":1691078801,"current_range_meters":0,"station_id":"ce4bh292rcd13ifvqdf0","pricing_plan_id":"free"},{"bike_id":"7b9e2d57-7c2f-4652-8ec0-ee4d147afe24","system_id":"levelo_inurba_marseille","lat":43.302548,"lon":5.400568,"is_reserved":false,"is_disabled":false,"rental_uris":{"android":"levelo://app?vid=7b9e2d57-7c2f-4652-8ec0-ee4d147afe24","ios":"levelo://app?vid=7b9e2d57-7c2f-4652-8ec0-ee4d147afe24"},"vehicle_type_id":"4","last_reported":1691078801,"current_range_meters":18000,"station_id":"","pricing_plan_id":"free"},{"bike_id":"f31bed77-eaf8-42ec-bf88-0c18ba06a98b","system_id":"levelo_inurba_marseille","lat":43.302515,"lon":5.400851,"is_reserved":false,"is_disabled":false,"rental_uris":{"android":"levelo://app?vid=f31bed77-eaf8-42ec-bf88-0c18ba06a98b","ios":"levelo://app?vid=f31bed77-eaf8-42ec-bf88-0c18ba06a98b"},"vehicle_type_id":"4","last_reported":1691078801,"current_range_meters":14800,"station_id":"","pricing_plan_id":"free"},{"bike_id":"5196af56-3e3b-4975-a469-3d6374455600","system_id":"levelo_inurba_marseille","lat":43.286039,"lon":5.370681,"is_reserved":false,"is_disabled":false,"rental_uris":{"android":"levelo://app?vid=5196af56-3e3b-4975-a469-3d6374455600","ios":"levelo://app?vid=5196af56-3e3b-4975-a469-3d6374455600"},"vehicle_type_id":"4","last_reported":1691078801,"current_range_meters":0,"station_id":"ce4bht12rcd13ifvqi60","pricing_plan_id":"free"},{"bike_id":"f5b3b834-5406-450e-abf4-dce238b9d68e","system_id":"levelo_inurba_marseille","lat":43.286039,"lon":5.370681,"is_reserved":false,"is_disabled":false,"rental_uris":{"android":"levelo://app?vid=f5b3b834-5406-450e-abf4-dce238b9d68e","ios":"levelo://app?vid=f5b3b834-5406-450e-abf4-dce238b9d68e"},"vehicle_type_id":"4","last_reported":1691078801,"current_range_meters":27200,"station_id":"ce4bht12rcd13ifvqi60","pricing_plan_id":"free"},{"bike_id":"28872fb2-63d1-4523-9e8b-342b2a5313a0","system_id":"levelo_inurba_marseille","lat":43.286039,"lon":5.370679,"is_reserved":false,"is_disabled":false,"rental_uris":{"android":"levelo://app?vid=28872fb2-63d1-4523-9e8b-342b2a5313a0","ios":"levelo://app?vid=28872fb2-63d1-4523-9e8b-342b2a5313a0"},"vehicle_type_id":"4","last_reported":1691078801,"current_range_meters":9200,"station_id":"ce4bht12rcd13ifvqi60","pricing_plan_id":"free"},{"bike_id":"f208948b-073c-49f3-8bbf-87464f0db531","system_id":"levelo_inurba_marseille","lat":43.286039,"lon":5.370681,"is_reserved":false,"is_disabled":false,"rental_uris":{"android":"levelo://app?vid=f208948b-073c-49f3-8bbf-87464f0db531","ios":"levelo://app?vid=f208948b-073c-49f3-8bbf-87464f0db531"},"vehicle_type_id":"4","last_reported":1691078801,"current_range_meters":31200,"station_id":"ce4bht12rcd13ifvqi60","pricing_plan_id":"free"},{"bike_id":"30ba5ac3-3ed2-42e5-8633-06bef007636a","system_id":"levelo_inurba_marseille","lat":43.286039,"lon":5.370681,"is_reserved":false,"is_disabled":false,"rental_uris":{"android":"levelo://app?vid=30ba5ac3-3ed2-42e5-8633-06bef007636a","ios":"levelo://app?vid=30ba5ac3-3ed2-42e5-8633-06bef007636a"},"vehicle_type_id":"4","last_reported":1691078801,"current_range_meters":31200,"station_id":"ce4bht12rcd13ifvqi60","pricing_plan_id":"free"},{"bike_id":"4ad92464-d7c5-4702-bbfb-3a8a8643fbbb","system_id":"levelo_inurba_marseille","lat":43.286039,"lon":5.370681,"is_reserved":false,"is_disabled":false,"rental_uris":{"android":"levelo://app?vid=4ad92464-d7c5-4702-bbfb-3a8a8643fbbb","ios":"levelo://app?vid=4ad92464-d7c5-4702-bbfb-3a8a8643fbbb"},"vehicle_type_id":"4","last_reported":1691078801,"current_range_meters":31200,"station_id":"ce4bht12rcd13ifvqi60","pricing_plan_id":"free"},{"bike_id":"24cbee1f-9eb0-4615-84d7-d3eab08f6081","system_id":"levelo_inurba_marseille","lat":43.315366,"lon":5.403777,"is_reserved":false,"is_disabled":false,"rental_uris":{"android":"levelo://app?vid=24cbee1f-9eb0-4615-84d7-d3eab08f6081","ios":"levelo://app?vid=24cbee1f-9eb0-4615-84d7-d3eab08f6081"},"vehicle_type_id":"4","last_reported":1691078801,"current_range_meters":12800,"station_id":"","pricing_plan_id":"free"},{"bike_id":"a7fecade-6215-4f95-9cb5-cdc93dd0b2f7","system_id":"levelo_inurba_marseille","lat":43.316338,"lon":5.404309,"is_reserved":false,"is_disabled":false,"rental_uris":{"android":"levelo://app?vid=a7fecade-6215-4f95-9cb5-cdc93dd0b2f7","ios":"levelo://app?vid=a7fecade-6215-4f95-9cb5-cdc93dd0b2f7"},"vehicle_type_id":"4","last_reported":1691078801,"current_range_meters":6800,"station_id":"","pricing_plan_id":"free"},{"bike_id":"2d188a78-d67a-40a7-884c-54a382aec204","system_id":"levelo_inurba_marseille","lat":43.316496,"lon":5.404371,"is_reserved":false,"is_disabled":false,"rental_uris":{"android":"levelo://app?vid=2d188a78-d67a-40a7-884c-54a382aec204","ios":"levelo://app?vid=2d188a78-d67a-40a7-884c-54a382aec204"},"vehicle_type_id":"4","last_reported":1691078801,"current_range_meters":17200,"station_id":"","pricing_plan_id":"free"},{"bike_id":"68c534a1-7668-4c89-88c1-5b005d36387f","system_id":"levelo_inurba_marseille","lat":43.291994,"lon":5.392907,"is_reserved":false,"is_disabled":false,"rental_uris":{"android":"levelo://app?vid=68c534a1-7668-4c89-88c1-5b005d36387f","ios":"levelo://app?vid=68c534a1-7668-4c89-88c1-5b005d36387f"},"vehicle_type_id":"4","last_reported":1691078801,"current_range_meters":7600,"station_id":"ce4bh192rcd13ifvqdd0","pricing_plan_id":"free"},{"bike_id":"b5f7ab56-4e6b-4f8d-8c0d-7d5e5ebe0279","system_id":"levelo_inurba_marseille","lat":43.291994,"lon":5.392907,"is_reserved":false,"is_disabled":false,"rental_uris":{"android":"levelo://app?vid=b5f7ab56-4e6b-4f8d-8c0d-7d5e5ebe0279","ios":"levelo://app?vid=b5f7ab56-4e6b-4f8d-8c0d-7d5e5ebe0279"},"vehicle_type_id":"4","last_reported":1691078801,"current_range_meters":18000,"station_id":"ce4bh192rcd13ifvqdd0","pricing_plan_id":"free"},{"bike_id":"99ef77c8-5f24-48f8-b499-d5f3fc911ee4","system_id":"levelo_inurba_marseille","lat":43.29243,"lon":5.39417,"is_reserved":false,"is_disabled":false,"rental_uris":{"android":"levelo://app?vid=99ef77c8-5f24-48f8-b499-d5f3fc911ee4","ios":"levelo://app?vid=99ef77c8-5f24-48f8-b499-d5f3fc911ee4"},"vehicle_type_id":"4","last_reported":1691078801,"current_range_meters":18400,"station_id":"","pricing_plan_id":"free"},{"bike_id":"1eba2a40-df5b-40f1-8d8d-4b07730bee1b","system_id":"levelo_inurba_marseille","lat":43.284538,"lon":5.358657,"is_reserved":false,"is_disabled":false,"rental_uris":{"android":"levelo://app?vid=1eba2a40-df5b-40f1-8d8d-4b07730bee1b","ios":"levelo://app?vid=1eba2a40-df5b-40f1-8d8d-4b07730bee1b"},"vehicle_type_id":"4","last_reported":1691078801,"current_range_meters":16400,"station_id":"ce4bhah2rcd13ifvqei0","pricing_plan_id":"free"},{"bike_id":"d9537871-6f04-4815-85d3-a9132f817489","system_id":"levelo_inurba_marseille","lat":43.28624,"lon":5.35102,"is_reserved":false,"is_disabled":false,"rental_uris":{"android":"levelo://app?vid=d9537871-6f04-4815-85d3-a9132f817489","ios":"levelo://app?vid=d9537871-6f04-4815-85d3-a9132f817489"},"vehicle_type_id":"4","last_reported":1691078801,"current_range_meters":30800,"station_id":"ce4bhch2rcd13ifvqeug","pricing_plan_id":"free"},{"bike_id":"9207106d-46a9-4b73-b72a-e690c0910dcc","system_id":"levelo_inurba_marseille","lat":43.28619,"lon":5.35106,"is_reserved":false,"is_disabled":false,"rental_uris":{"android":"levelo://app?vid=9207106d-46a9-4b73-b72a-e690c0910dcc","ios":"levelo://app?vid=9207106d-46a9-4b73-b72a-e690c0910dcc"},"vehicle_type_id":"4","last_reported":1691078801,"current_range_meters":3600,"station_id":"ce4bhch2rcd13ifvqeug","pricing_plan_id":"free"},{"bike_id":"2a8804b8-f3a5-4ac6-a3d5-27da4303e974","system_id":"levelo_inurba_marseille","lat":43.28619,"lon":5.35103,"is_reserved":false,"is_disabled":false,"rental_uris":{"android":"levelo://app?vid=2a8804b8-f3a5-4ac6-a3d5-27da4303e974","ios":"levelo://app?vid=2a8804b8-f3a5-4ac6-a3d5-27da4303e974"},"vehicle_type_id":"4","last_reported":1691078801,"current_range_meters":31200,"station_id":"ce4bhch2rcd13ifvqeug","pricing_plan_id":"free"},{"bike_id":"2b325808-4d80-497c-841d-f14c98bc2c61","system_id":"levelo_inurba_marseille","lat":43.28618,"lon":5.35102,"is_reserved":false,"is_disabled":false,"rental_uris":{"android":"levelo://app?vid=2b325808-4d80-497c-841d-f14c98bc2c61","ios":"levelo://app?vid=2b325808-4d80-497c-841d-f14c98bc2c61"},"vehicle_type_id":"4","last_reported":1691078801,"current_range_meters":31200,"station_id":"ce4bhch2rcd13ifvqeug","pricing_plan_id":"free"},{"bike_id":"3b4fcaa4-6e59-4121-bd9d-dd885baf25e6","system_id":"levelo_inurba_marseille","lat":43.285848,"lon":5.350787,"is_reserved":false,"is_disabled":false,"rental_uris":{"android":"levelo://app?vid=3b4fcaa4-6e59-4121-bd9d-dd885baf25e6","ios":"levelo://app?vid=3b4fcaa4-6e59-4121-bd9d-dd885baf25e6"},"vehicle_type_id":"4","last_reported":1691078801,"current_range_meters":20400,"station_id":"ce4bhch2rcd13ifvqeug","pricing_plan_id":"free"},{"bike_id":"3722513c-1cd7-460a-802c-fb50562d2c78","system_id":"levelo_inurba_marseille","lat":43.285848,"lon":5.350787,"is_reserved":false,"is_disabled":false,"rental_uris":{"android":"levelo://app?vid=3722513c-1cd7-460a-802c-fb50562d2c78","ios":"levelo://app?vid=3722513c-1cd7-460a-802c-fb50562d2c78"},"vehicle_type_id":"4","last_reported":1691078801,"current_range_meters":27200,"station_id":"ce4bhch2rcd13ifvqeug","pricing_plan_id":"free"},{"bike_id":"311c87cb-d400-455c-918f-40208b5137a3","system_id":"levelo_inurba_marseille","lat":43.28617,"lon":5.35101,"is_reserved":false,"is_disabled":false,"rental_uris":{"android":"levelo://app?vid=311c87cb-d400-455c-918f-40208b5137a3","ios":"levelo://app?vid=311c87cb-d400-455c-918f-40208b5137a3"},"vehicle_type_id":"4","last_reported":1691078801,"current_range_meters":30000,"station_id":"ce4bhch2rcd13ifvqeug","pricing_plan_id":"free"},{"bike_id":"7695afa0-c88f-4979-a41a-4a6c4a04afed","system_id":"levelo_inurba_marseille","lat":43.28614,"lon":5.35105,"is_reserved":false,"is_disabled":false,"rental_uris":{"android":"levelo://app?vid=7695afa0-c88f-4979-a41a-4a6c4a04afed","ios":"levelo://app?vid=7695afa0-c88f-4979-a41a-4a6c4a04afed"},"vehicle_type_id":"4","last_reported":1691078801,"current_range_meters":31200,"station_id":"ce4bhch2rcd13ifvqeug","pricing_plan_id":"free"},{"bike_id":"554f7bd5-9e9d-47c2-a76c-89842cbcbf48","system_id":"levelo_inurba_marseille","lat":43.28614,"lon":5.35105,"is_reserved":false,"is_disabled":false,"rental_uris":{"android":"levelo://app?vid=554f7bd5-9e9d-47c2-a76c-89842cbcbf48","ios":"levelo://app?vid=554f7bd5-9e9d-47c2-a76c-89842cbcbf48"},"vehicle_type_id":"4","last_reported":1691078801,"current_range_meters":18800,"station_id":"ce4bhch2rcd13ifvqeug","pricing_plan_id":"free"},{"bike_id":"7e5cf9dd-3e3c-4ef1-a1c0-f5275bfc9182","system_id":"levelo_inurba_marseille","lat":43.28614,"lon":5.35102,"is_reserved":false,"is_disabled":false,"rental_uris":{"android":"levelo://app?vid=7e5cf9dd-3e3c-4ef1-a1c0-f5275bfc9182","ios":"levelo://app?vid=7e5cf9dd-3e3c-4ef1-a1c0-f5275bfc9182"},"vehicle_type_id":"4","last_reported":1691078801,"current_range_meters":30000,"station_id":"ce4bhch2rcd13ifvqeug","pricing_plan_id":"free"},{"bike_id":"b37f3402-6700-4a6b-a0a0-c5f80035fea4","system_id":"levelo_inurba_marseille","lat":43.28616,"lon":5.35095,"is_reserved":false,"is_disabled":false,"rental_uris":{"android":"levelo://app?vid=b37f3402-6700-4a6b-a0a0-c5f80035fea4","ios":"levelo://app?vid=b37f3402-6700-4a6b-a0a0-c5f80035fea4"},"vehicle_type_id":"4","last_reported":1691078801,"current_range_meters":14800,"station_id":"ce4bhch2rcd13ifvqeug","pricing_plan_id":"free"},{"bike_id":"daf8fc20-05ac-41e7-b26f-cb1a71cfa2c8","system_id":"levelo_inurba_marseille","lat":43.285848,"lon":5.350787,"is_reserved":false,"is_disabled":false,"rental_uris":{"android":"levelo://app?vid=daf8fc20-05ac-41e7-b26f-cb1a71cfa2c8","ios":"levelo://app?vid=daf8fc20-05ac-41e7-b26f-cb1a71cfa2c8"},"vehicle_type_id":"4","last_reported":1691078801,"current_range_meters":31200,"station_id":"ce4bhch2rcd13ifvqeug","pricing_plan_id":"free"},{"bike_id":"3f9753d4-6935-49d2-ac03-2aeb06bc20f2","system_id":"levelo_inurba_marseille","lat":43.28612,"lon":5.35104,"is_reserved":false,"is_disabled":false,"rental_uris":{"android":"levelo://app?vid=3f9753d4-6935-49d2-ac03-2aeb06bc20f2","ios":"levelo://app?vid=3f9753d4-6935-49d2-ac03-2aeb06bc20f2"},"vehicle_type_id":"4","last_reported":1691078801,"current_range_meters":6400,"station_id":"ce4bhch2rcd13ifvqeug","pricing_plan_id":"free"},{"bike_id":"6d23ba75-feca-40af-bbf7-25ce39d8530d","system_id":"levelo_inurba_marseille","lat":43.295713,"lon":5.399639,"is_reserved":false,"is_disabled":false,"rental_uris":{"android":"levelo://app?vid=6d23ba75-feca-40af-bbf7-25ce39d8530d","ios":"levelo://app?vid=6d23ba75-feca-40af-bbf7-25ce39d8530d"},"vehicle_type_id":"4","last_reported":1691078801,"current_range_meters":0,"station_id":"ce4bh312rcd13ifvqdj0","pricing_plan_id":"free"},{"bike_id":"8acdbe64-3306-4539-9227-595f7abfea40","system_id":"levelo_inurba_marseille","lat":43.2857,"lon":5.35068,"is_reserved":false,"is_disabled":false,"rental_uris":{"android":"levelo://app?vid=8acdbe64-3306-4539-9227-595f7abfea40","ios":"levelo://app?vid=8acdbe64-3306-4539-9227-595f7abfea40"},"vehicle_type_id":"4","last_reported":1691078801,"current_range_meters":6800,"station_id":"","pricing_plan_id":"free"},{"bike_id":"2e141927-e948-4748-8a42-e7cc1e8bce4f","system_id":"levelo_inurba_marseille","lat":43.286595,"lon":5.386795,"is_reserved":false,"is_disabled":false,"rental_uris":{"android":"levelo://app?vid=2e141927-e948-4748-8a42-e7cc1e8bce4f","ios":"levelo://app?vid=2e141927-e948-4748-8a42-e7cc1e8bce4f"},"vehicle_type_id":"4","last_reported":1691078801,"current_range_meters":0,"station_id":"ce4bh492rcd13ifvqdug","pricing_plan_id":"free"},{"bike_id":"9a516cc1-abea-4df5-b2af-1f5132e13d1c","system_id":"levelo_inurba_marseille","lat":43.31875,"lon":5.40733,"is_reserved":false,"is_disabled":false,"rental_uris":{"android":"levelo://app?vid=9a516cc1-abea-4df5-b2af-1f5132e13d1c","ios":"levelo://app?vid=9a516cc1-abea-4df5-b2af-1f5132e13d1c"},"vehicle_type_id":"4","last_reported":1691078801,"current_range_meters":6400,"station_id":"","pricing_plan_id":"free"},{"bike_id":"f5ad5617-f3e7-4a4d-808a-3cd9cf241bb5","system_id":"levelo_inurba_marseille","lat":43.319179,"lon":5.407725,"is_reserved":false,"is_disabled":false,"rental_uris":{"android":"levelo://app?vid=f5ad5617-f3e7-4a4d-808a-3cd9cf241bb5","ios":"levelo://app?vid=f5ad5617-f3e7-4a4d-808a-3cd9cf241bb5"},"vehicle_type_id":"4","last_reported":1691078801,"current_range_meters":4000,"station_id":"ce4bhq12rcd13ifvqhig","pricing_plan_id":"free"},{"bike_id":"1f5722b0-5667-43f6-9dad-3a3b818c5a69","system_id":"levelo_inurba_marseille","lat":43.33719,"lon":5.39175,"is_reserved":false,"is_disabled":false,"rental_uris":{"android":"levelo://app?vid=1f5722b0-5667-43f6-9dad-3a3b818c5a69","ios":"levelo://app?vid=1f5722b0-5667-43f6-9dad-3a3b818c5a69"},"vehicle_type_id":"4","last_reported":1691078801,"current_range_meters":7600,"station_id":"ce4bhr92rcd13ifvqhsg","pricing_plan_id":"free"},{"bike_id":"3e563380-a985-451c-801d-2783d7714294","system_id":"levelo_inurba_marseille","lat":43.337168,"lon":5.391825,"is_reserved":false,"is_disabled":false,"rental_uris":{"android":"levelo://app?vid=3e563380-a985-451c-801d-2783d7714294","ios":"levelo://app?vid=3e563380-a985-451c-801d-2783d7714294"},"vehicle_type_id":"4","last_reported":1691078801,"current_range_meters":20400,"station_id":"ce4bhr92rcd13ifvqhsg","pricing_plan_id":"free"},{"bike_id":"65e7209e-43de-4472-85bf-edccad84c81f","system_id":"levelo_inurba_marseille","lat":43.3372,"lon":5.39183,"is_reserved":false,"is_disabled":false,"rental_uris":{"android":"levelo://app?vid=65e7209e-43de-4472-85bf-edccad84c81f","ios":"levelo://app?vid=65e7209e-43de-4472-85bf-edccad84c81f"},"vehicle_type_id":"4","last_reported":1691078801,"current_range_meters":30800,"station_id":"ce4bhr92rcd13ifvqhsg","pricing_plan_id":"free"},{"bike_id":"9d8dc018-8295-487e-aae9-79ce0f469cdf","system_id":"levelo_inurba_marseille","lat":43.33727,"lon":5.39181,"is_reserved":false,"is_disabled":false,"rental_uris":{"android":"levelo://app?vid=9d8dc018-8295-487e-aae9-79ce0f469cdf","ios":"levelo://app?vid=9d8dc018-8295-487e-aae9-79ce0f469cdf"},"vehicle_type_id":"4","last_reported":1691078801,"current_range_meters":30000,"station_id":"ce4bhr92rcd13ifvqhsg","pricing_plan_id":"free"},{"bike_id":"939edbe6-adcc-4f97-ad69-99748df4073d","system_id":"levelo_inurba_marseille","lat":43.337168,"lon":5.391825,"is_reserved":false,"is_disabled":false,"rental_uris":{"android":"levelo://app?vid=939edbe6-adcc-4f97-ad69-99748df4073d","ios":"levelo://app?vid=939edbe6-adcc-4f97-ad69-99748df4073d"},"vehicle_type_id":"4","last_reported":1691078801,"current_range_meters":30400,"station_id":"ce4bhr92rcd13ifvqhsg","pricing_plan_id":"free"},{"bike_id":"5fd6a347-0a02-4efa-ab4a-06802493ed56","system_id":"levelo_inurba_marseille","lat":43.33726,"lon":5.39187,"is_reserved":false,"is_disabled":false,"rental_uris":{"android":"levelo://app?vid=5fd6a347-0a02-4efa-ab4a-06802493ed56","ios":"levelo://app?vid=5fd6a347-0a02-4efa-ab4a-06802493ed56"},"vehicle_type_id":"4","last_reported":1691078801,"current_range_meters":20400,"station_id":"ce4bhr92rcd13ifvqhsg","pricing_plan_id":"free"},{"bike_id":"c5b5292c-61ef-4abb-8b45-5548f98073cf","system_id":"levelo_inurba_marseille","lat":43.32344,"lon":5.40619,"is_reserved":false,"is_disabled":false,"rental_uris":{"android":"levelo://app?vid=c5b5292c-61ef-4abb-8b45-5548f98073cf","ios":"levelo://app?vid=c5b5292c-61ef-4abb-8b45-5548f98073cf"},"vehicle_type_id":"4","last_reported":1691078801,"current_range_meters":29200,"station_id":"ce4bhq92rcd13ifvqhjg","pricing_plan_id":"free"},{"bike_id":"3a760a4f-c976-4e53-a4ff-dd8e0456ccab","system_id":"levelo_inurba_marseille","lat":43.28268,"lon":5.37417,"is_reserved":false,"is_disabled":false,"rental_uris":{"android":"levelo://app?vid=3a760a4f-c976-4e53-a4ff-dd8e0456ccab","ios":"levelo://app?vid=3a760a4f-c976-4e53-a4ff-dd8e0456ccab"},"vehicle_type_id":"4","last_reported":1691078801,"current_range_meters":31200,"station_id":"","pricing_plan_id":"free"},{"bike_id":"df82d2f9-f688-4670-ac84-3e543122cedb","system_id":"levelo_inurba_marseille","lat":43.337168,"lon":5.391825,"is_reserved":false,"is_disabled":false,"rental_uris":{"android":"levelo://app?vid=df82d2f9-f688-4670-ac84-3e543122cedb","ios":"levelo://app?vid=df82d2f9-f688-4670-ac84-3e543122cedb"},"vehicle_type_id":"4","last_reported":1691078801,"current_range_meters":18800,"station_id":"ce4bhr92rcd13ifvqhsg","pricing_plan_id":"free"},{"bike_id":"9ed5c8cd-5716-467d-9a0b-e5002dcb5a2c","system_id":"levelo_inurba_marseille","lat":43.337168,"lon":5.391825,"is_reserved":false,"is_disabled":false,"rental_uris":{"android":"levelo://app?vid=9ed5c8cd-5716-467d-9a0b-e5002dcb5a2c","ios":"levelo://app?vid=9ed5c8cd-5716-467d-9a0b-e5002dcb5a2c"},"vehicle_type_id":"4","last_reported":1691078801,"current_range_meters":5200,"station_id":"ce4bhr92rcd13ifvqhsg","pricing_plan_id":"free"},{"bike_id":"dbada9f9-e33c-4a7d-ab43-1cac4e571e70","system_id":"levelo_inurba_marseille","lat":43.284793,"lon":5.384119,"is_reserved":false,"is_disabled":false,"rental_uris":{"android":"levelo://app?vid=dbada9f9-e33c-4a7d-ab43-1cac4e571e70","ios":"levelo://app?vid=dbada9f9-e33c-4a7d-ab43-1cac4e571e70"},"vehicle_type_id":"4","last_reported":1691078801,"current_range_meters":30000,"station_id":"ce4bh512rcd13ifvqe3g","pricing_plan_id":"free"},{"bike_id":"5df5e221-7606-40d7-ab6f-d7266ef95832","system_id":"levelo_inurba_marseille","lat":43.288501,"lon":5.393087,"is_reserved":false,"is_disabled":false,"rental_uris":{"android":"levelo://app?vid=5df5e221-7606-40d7-ab6f-d7266ef95832","ios":"levelo://app?vid=5df5e221-7606-40d7-ab6f-d7266ef95832"},"vehicle_type_id":"4","last_reported":1691078801,"current_range_meters":23200,"station_id":"ce4bh2p2rcd13ifvqdi0","pricing_plan_id":"free"},{"bike_id":"d3273399-5b81-491f-a5da-5f65b3ae1487","system_id":"levelo_inurba_marseille","lat":43.28427,"lon":5.34998,"is_reserved":false,"is_disabled":false,"rental_uris":{"android":"levelo://app?vid=d3273399-5b81-491f-a5da-5f65b3ae1487","ios":"levelo://app?vid=d3273399-5b81-491f-a5da-5f65b3ae1487"},"vehicle_type_id":"4","last_reported":1691078801,"current_range_meters":31200,"station_id":"ce4bhbh2rcd13ifvqepg","pricing_plan_id":"free"},{"bike_id":"4f2580c7-145a-47f8-ace4-245a7f884179","system_id":"levelo_inurba_marseille","lat":43.28432,"lon":5.3497,"is_reserved":false,"is_disabled":false,"rental_uris":{"android":"levelo://app?vid=4f2580c7-145a-47f8-ace4-245a7f884179","ios":"levelo://app?vid=4f2580c7-145a-47f8-ace4-245a7f884179"},"vehicle_type_id":"4","last_reported":1691078801,"current_range_meters":25600,"station_id":"ce4bhbh2rcd13ifvqepg","pricing_plan_id":"free"},{"bike_id":"9cd912d1-a246-4baf-b426-696e19d86161","system_id":"levelo_inurba_marseille","lat":43.284277,"lon":5.349734,"is_reserved":false,"is_disabled":false,"rental_uris":{"android":"levelo://app?vid=9cd912d1-a246-4baf-b426-696e19d86161","ios":"levelo://app?vid=9cd912d1-a246-4baf-b426-696e19d86161"},"vehicle_type_id":"4","last_reported":1691078801,"current_range_meters":31200,"station_id":"ce4bhbh2rcd13ifvqepg","pricing_plan_id":"free"},{"bike_id":"27e74547-2a16-470f-8cfe-cd857629c5c5","system_id":"levelo_inurba_marseille","lat":43.284219,"lon":5.3497,"is_reserved":false,"is_disabled":false,"rental_uris":{"android":"levelo://app?vid=27e74547-2a16-470f-8cfe-cd857629c5c5","ios":"levelo://app?vid=27e74547-2a16-470f-8cfe-cd857629c5c5"},"vehicle_type_id":"4","last_reported":1691078801,"current_range_meters":31200,"station_id":"ce4bhbh2rcd13ifvqepg","pricing_plan_id":"free"},{"bike_id":"46ab8cb6-f03f-4411-a553-e25c20a255ad","system_id":"levelo_inurba_marseille","lat":43.28421,"lon":5.34994,"is_reserved":false,"is_disabled":false,"rental_uris":{"android":"levelo://app?vid=46ab8cb6-f03f-4411-a553-e25c20a255ad","ios":"levelo://app?vid=46ab8cb6-f03f-4411-a553-e25c20a255ad"},"vehicle_type_id":"4","last_reported":1691078801,"current_range_meters":31200,"station_id":"ce4bhbh2rcd13ifvqepg","pricing_plan_id":"free"},{"bike_id":"5f09d22e-696d-479c-a258-50293c9e8215","system_id":"levelo_inurba_marseille","lat":43.28421,"lon":5.34989,"is_reserved":false,"is_disabled":false,"rental_uris":{"android":"levelo://app?vid=5f09d22e-696d-479c-a258-50293c9e8215","ios":"levelo://app?vid=5f09d22e-696d-479c-a258-50293c9e8215"},"vehicle_type_id":"4","last_reported":1691078801,"current_range_meters":16800,"station_id":"ce4bhbh2rcd13ifvqepg","pricing_plan_id":"free"},{"bike_id":"ad111da9-82a4-40c8-962b-3c12f93b6ee7","system_id":"levelo_inurba_marseille","lat":43.28419,"lon":5.34994,"is_reserved":false,"is_disabled":false,"rental_uris":{"android":"levelo://app?vid=ad111da9-82a4-40c8-962b-3c12f93b6ee7","ios":"levelo://app?vid=ad111da9-82a4-40c8-962b-3c12f93b6ee7"},"vehicle_type_id":"4","last_reported":1691078801,"current_range_meters":19600,"station_id":"ce4bhbh2rcd13ifvqepg","pricing_plan_id":"free"},{"bike_id":"d6bed832-5771-418b-8f3b-45309c8c7faf","system_id":"levelo_inurba_marseille","lat":43.284219,"lon":5.349848,"is_reserved":false,"is_disabled":false,"rental_uris":{"android":"levelo://app?vid=d6bed832-5771-418b-8f3b-45309c8c7faf","ios":"levelo://app?vid=d6bed832-5771-418b-8f3b-45309c8c7faf"},"vehicle_type_id":"4","last_reported":1691078801,"current_range_meters":31200,"station_id":"ce4bhbh2rcd13ifvqepg","pricing_plan_id":"free"},{"bike_id":"b86d1153-4d67-42d9-8f23-96981a0fb153","system_id":"levelo_inurba_marseille","lat":43.28423,"lon":5.34981,"is_reserved":false,"is_disabled":false,"rental_uris":{"android":"levelo://app?vid=b86d1153-4d67-42d9-8f23-96981a0fb153","ios":"levelo://app?vid=b86d1153-4d67-42d9-8f23-96981a0fb153"},"vehicle_type_id":"4","last_reported":1691078801,"current_range_meters":9600,"station_id":"ce4bhbh2rcd13ifvqepg","pricing_plan_id":"free"},{"bike_id":"9d31994e-1e6d-47e8-9f16-b41dfe4551d8","system_id":"levelo_inurba_marseille","lat":43.284221,"lon":5.349809,"is_reserved":false,"is_disabled":false,"rental_uris":{"android":"levelo://app?vid=9d31994e-1e6d-47e8-9f16-b41dfe4551d8","ios":"levelo://app?vid=9d31994e-1e6d-47e8-9f16-b41dfe4551d8"},"vehicle_type_id":"4","last_reported":1691078801,"current_range_meters":31200,"station_id":"ce4bhbh2rcd13ifvqepg","pricing_plan_id":"free"},{"bike_id":"b66a70b4-a6c4-4baa-a842-505ba5a43202","system_id":"levelo_inurba_marseille","lat":43.2842,"lon":5.34987,"is_reserved":false,"is_disabled":false,"rental_uris":{"android":"levelo://app?vid=b66a70b4-a6c4-4baa-a842-505ba5a43202","ios":"levelo://app?vid=b66a70b4-a6c4-4baa-a842-505ba5a43202"},"vehicle_type_id":"4","last_reported":1691078801,"current_range_meters":19200,"station_id":"ce4bhbh2rcd13ifvqepg","pricing_plan_id":"free"},{"bike_id":"9be4169f-df5c-4c12-9fe3-4c7a763bd86a","system_id":"levelo_inurba_marseille","lat":43.28417,"lon":5.34996,"is_reserved":false,"is_disabled":false,"rental_uris":{"android":"levelo://app?vid=9be4169f-df5c-4c12-9fe3-4c7a763bd86a","ios":"levelo://app?vid=9be4169f-df5c-4c12-9fe3-4c7a763bd86a"},"vehicle_type_id":"4","last_reported":1691078801,"current_range_meters":7600,"station_id":"ce4bhbh2rcd13ifvqepg","pricing_plan_id":"free"},{"bike_id":"ed2753c6-8e2c-42ac-8b1d-99fdc9ebce59","system_id":"levelo_inurba_marseille","lat":43.2842,"lon":5.34984,"is_reserved":false,"is_disabled":false,"rental_uris":{"android":"levelo://app?vid=ed2753c6-8e2c-42ac-8b1d-99fdc9ebce59","ios":"levelo://app?vid=ed2753c6-8e2c-42ac-8b1d-99fdc9ebce59"},"vehicle_type_id":"4","last_reported":1691078801,"current_range_meters":27600,"station_id":"ce4bhbh2rcd13ifvqepg","pricing_plan_id":"free"},{"bike_id":"a30a7b3c-8823-4fff-988a-1f9c12ef44c0","system_id":"levelo_inurba_marseille","lat":43.28418,"lon":5.34984,"is_reserved":false,"is_disabled":false,"rental_uris":{"android":"levelo://app?vid=a30a7b3c-8823-4fff-988a-1f9c12ef44c0","ios":"levelo://app?vid=a30a7b3c-8823-4fff-988a-1f9c12ef44c0"},"vehicle_type_id":"4","last_reported":1691078801,"current_range_meters":19200,"station_id":"ce4bhbh2rcd13ifvqepg","pricing_plan_id":"free"},{"bike_id":"9376eb28-8a08-41c4-93e5-6f1c1f4395f0","system_id":"levelo_inurba_marseille","lat":43.28419,"lon":5.34979,"is_reserved":false,"is_disabled":false,"rental_uris":{"android":"levelo://app?vid=9376eb28-8a08-41c4-93e5-6f1c1f4395f0","ios":"levelo://app?vid=9376eb28-8a08-41c4-93e5-6f1c1f4395f0"},"vehicle_type_id":"4","last_reported":1691078801,"current_range_meters":29200,"station_id":"ce4bhbh2rcd13ifvqepg","pricing_plan_id":"free"},{"bike_id":"38c89660-7e62-4d28-8a89-9d219033a0d6","system_id":"levelo_inurba_marseille","lat":43.28416,"lon":5.34981,"is_reserved":false,"is_disabled":false,"rental_uris":{"android":"levelo://app?vid=38c89660-7e62-4d28-8a89-9d219033a0d6","ios":"levelo://app?vid=38c89660-7e62-4d28-8a89-9d219033a0d6"},"vehicle_type_id":"4","last_reported":1691078801,"current_range_meters":800,"station_id":"ce4bhbh2rcd13ifvqepg","pricing_plan_id":"free"},{"bike_id":"89b86e8e-436c-4f07-8fb1-37281af3c0b3","system_id":"levelo_inurba_marseille","lat":43.28416,"lon":5.34979,"is_reserved":false,"is_disabled":false,"rental_uris":{"android":"levelo://app?vid=89b86e8e-436c-4f07-8fb1-37281af3c0b3","ios":"levelo://app?vid=89b86e8e-436c-4f07-8fb1-37281af3c0b3"},"vehicle_type_id":"4","last_reported":1691078801,"current_range_meters":12000,"station_id":"ce4bhbh2rcd13ifvqepg","pricing_plan_id":"free"},{"bike_id":"83b8b809-5703-43d6-8489-2b33386e9225","system_id":"levelo_inurba_marseille","lat":43.289363,"lon":5.396322,"is_reserved":false,"is_disabled":false,"rental_uris":{"android":"levelo://app?vid=83b8b809-5703-43d6-8489-2b33386e9225","ios":"levelo://app?vid=83b8b809-5703-43d6-8489-2b33386e9225"},"vehicle_type_id":"4","last_reported":1691078801,"current_range_meters":13600,"station_id":"ce4bh3h2rcd13ifvqdn0","pricing_plan_id":"free"},{"bike_id":"f7f5768e-b80f-4da0-8864-86696a8877fb","system_id":"levelo_inurba_marseille","lat":43.32456,"lon":5.40727,"is_reserved":false,"is_disabled":false,"rental_uris":{"android":"levelo://app?vid=f7f5768e-b80f-4da0-8864-86696a8877fb","ios":"levelo://app?vid=f7f5768e-b80f-4da0-8864-86696a8877fb"},"vehicle_type_id":"4","last_reported":1691078801,"current_range_meters":0,"station_id":"","pricing_plan_id":"free"},{"bike_id":"f89d5297-b824-46a8-b9f5-737c83ec3a01","system_id":"levelo_inurba_marseille","lat":43.292724,"lon":5.401131,"is_reserved":false,"is_disabled":false,"rental_uris":{"android":"levelo://app?vid=f89d5297-b824-46a8-b9f5-737c83ec3a01","ios":"levelo://app?vid=f89d5297-b824-46a8-b9f5-737c83ec3a01"},"vehicle_type_id":"4","last_reported":1691078801,"current_range_meters":4800,"station_id":"ce4bh312rcd13ifvqdk0","pricing_plan_id":"free"},{"bike_id":"578b2a00-d559-4fe3-8dc2-17146c4d19b3","system_id":"levelo_inurba_marseille","lat":43.292724,"lon":5.401131,"is_reserved":false,"is_disabled":false,"rental_uris":{"android":"levelo://app?vid=578b2a00-d559-4fe3-8dc2-17146c4d19b3","ios":"levelo://app?vid=578b2a00-d559-4fe3-8dc2-17146c4d19b3"},"vehicle_type_id":"4","last_reported":1691078801,"current_range_meters":1600,"station_id":"ce4bh312rcd13ifvqdk0","pricing_plan_id":"free"},{"bike_id":"3c24adc3-98fe-4699-9dcb-2a07c30314c3","system_id":"levelo_inurba_marseille","lat":43.282744,"lon":5.350533,"is_reserved":false,"is_disabled":false,"rental_uris":{"android":"levelo://app?vid=3c24adc3-98fe-4699-9dcb-2a07c30314c3","ios":"levelo://app?vid=3c24adc3-98fe-4699-9dcb-2a07c30314c3"},"vehicle_type_id":"4","last_reported":1691078801,"current_range_meters":23200,"station_id":"ce4bhbp2rcd13ifvqerg","pricing_plan_id":"free"},{"bike_id":"23b65c55-b32b-49e9-8a49-4692779fbb05","system_id":"levelo_inurba_marseille","lat":43.28263,"lon":5.3507,"is_reserved":false,"is_disabled":false,"rental_uris":{"android":"levelo://app?vid=23b65c55-b32b-49e9-8a49-4692779fbb05","ios":"levelo://app?vid=23b65c55-b32b-49e9-8a49-4692779fbb05"},"vehicle_type_id":"4","last_reported":1691078801,"current_range_meters":31200,"station_id":"ce4bhbp2rcd13ifvqerg","pricing_plan_id":"free"},{"bike_id":"27fa5f8e-a512-4fb6-a9ed-e2e0d990f321","system_id":"levelo_inurba_marseille","lat":43.28262,"lon":5.35065,"is_reserved":false,"is_disabled":false,"rental_uris":{"android":"levelo://app?vid=27fa5f8e-a512-4fb6-a9ed-e2e0d990f321","ios":"levelo://app?vid=27fa5f8e-a512-4fb6-a9ed-e2e0d990f321"},"vehicle_type_id":"4","last_reported":1691078801,"current_range_meters":15200,"station_id":"ce4bhbp2rcd13ifvqerg","pricing_plan_id":"free"},{"bike_id":"936553ea-03f9-4a32-b3ff-1361d96c1fc3","system_id":"levelo_inurba_marseille","lat":43.28039,"lon":5.369297,"is_reserved":false,"is_disabled":false,"rental_uris":{"android":"levelo://app?vid=936553ea-03f9-4a32-b3ff-1361d96c1fc3","ios":"levelo://app?vid=936553ea-03f9-4a32-b3ff-1361d96c1fc3"},"vehicle_type_id":"4","last_reported":1691078801,"current_range_meters":0,"station_id":"ce4bha12rcd13ifvqef0","pricing_plan_id":"free"},{"bike_id":"b00bdf6a-39bd-48b0-8014-c86e125de751","system_id":"levelo_inurba_marseille","lat":43.280382,"lon":5.369291,"is_reserved":false,"is_disabled":false,"rental_uris":{"android":"levelo://app?vid=b00bdf6a-39bd-48b0-8014-c86e125de751","ios":"levelo://app?vid=b00bdf6a-39bd-48b0-8014-c86e125de751"},"vehicle_type_id":"4","last_reported":1691078801,"current_range_meters":22400,"station_id":"ce4bha12rcd13ifvqef0","pricing_plan_id":"free"},{"bike_id":"74d12f38-94ef-491b-8e95-5d428f0a5085","system_id":"levelo_inurba_marseille","lat":43.28039,"lon":5.369297,"is_reserved":false,"is_disabled":false,"rental_uris":{"android":"levelo://app?vid=74d12f38-94ef-491b-8e95-5d428f0a5085","ios":"levelo://app?vid=74d12f38-94ef-491b-8e95-5d428f0a5085"},"vehicle_type_id":"4","last_reported":1691078801,"current_range_meters":27200,"station_id":"ce4bha12rcd13ifvqef0","pricing_plan_id":"free"},{"bike_id":"1a9c24fe-450b-49fe-aa4f-47591ba3303c","system_id":"levelo_inurba_marseille","lat":43.284462,"lon":5.392121,"is_reserved":false,"is_disabled":false,"rental_uris":{"android":"levelo://app?vid=1a9c24fe-450b-49fe-aa4f-47591ba3303c","ios":"levelo://app?vid=1a9c24fe-450b-49fe-aa4f-47591ba3303c"},"vehicle_type_id":"4","last_reported":1691078801,"current_range_meters":9600,"station_id":"ce4bhoh2rcd13ifvqh5g","pricing_plan_id":"free"},{"bike_id":"5b5a066a-1a02-4631-9f1a-cbc67a4b4642","system_id":"levelo_inurba_marseille","lat":43.284462,"lon":5.392121,"is_reserved":false,"is_disabled":false,"rental_uris":{"android":"levelo://app?vid=5b5a066a-1a02-4631-9f1a-cbc67a4b4642","ios":"levelo://app?vid=5b5a066a-1a02-4631-9f1a-cbc67a4b4642"},"vehicle_type_id":"4","last_reported":1691078801,"current_range_meters":23600,"station_id":"ce4bhoh2rcd13ifvqh5g","pricing_plan_id":"free"},{"bike_id":"9e5f8045-7b02-4047-9cf5-bf26d3ccf8db","system_id":"levelo_inurba_marseille","lat":43.28573,"lon":5.394992,"is_reserved":false,"is_disabled":false,"rental_uris":{"android":"levelo://app?vid=9e5f8045-7b02-4047-9cf5-bf26d3ccf8db","ios":"levelo://app?vid=9e5f8045-7b02-4047-9cf5-bf26d3ccf8db"},"vehicle_type_id":"4","last_reported":1691078801,"current_range_meters":29600,"station_id":"ce4bh292rcd13ifvqdg0","pricing_plan_id":"free"},{"bike_id":"53363a72-2126-4e73-ad3a-88d17de3bda2","system_id":"levelo_inurba_marseille","lat":43.32653,"lon":5.40994,"is_reserved":false,"is_disabled":false,"rental_uris":{"android":"levelo://app?vid=53363a72-2126-4e73-ad3a-88d17de3bda2","ios":"levelo://app?vid=53363a72-2126-4e73-ad3a-88d17de3bda2"},"vehicle_type_id":"4","last_reported":1691078801,"current_range_meters":28400,"station_id":"ce4bhpp2rcd13ifvqhgg","pricing_plan_id":"free"},{"bike_id":"f4b0f5a8-c03c-4b41-943d-492929b86df7","system_id":"levelo_inurba_marseille","lat":43.32655,"lon":5.40993,"is_reserved":false,"is_disabled":false,"rental_uris":{"android":"levelo://app?vid=f4b0f5a8-c03c-4b41-943d-492929b86df7","ios":"levelo://app?vid=f4b0f5a8-c03c-4b41-943d-492929b86df7"},"vehicle_type_id":"4","last_reported":1691078801,"current_range_meters":30400,"station_id":"ce4bhpp2rcd13ifvqhgg","pricing_plan_id":"free"},{"bike_id":"4bea7dbd-1e1e-49f6-94c2-1b0edc11fda3","system_id":"levelo_inurba_marseille","lat":43.326605,"lon":5.409903,"is_reserved":false,"is_disabled":false,"rental_uris":{"android":"levelo://app?vid=4bea7dbd-1e1e-49f6-94c2-1b0edc11fda3","ios":"levelo://app?vid=4bea7dbd-1e1e-49f6-94c2-1b0edc11fda3"},"vehicle_type_id":"4","last_reported":1691078801,"current_range_meters":25600,"station_id":"ce4bhpp2rcd13ifvqhgg","pricing_plan_id":"free"},{"bike_id":"bea9524d-02ec-4526-b922-f8f292ac8394","system_id":"levelo_inurba_marseille","lat":43.326605,"lon":5.409903,"is_reserved":false,"is_disabled":false,"rental_uris":{"android":"levelo://app?vid=bea9524d-02ec-4526-b922-f8f292ac8394","ios":"levelo://app?vid=bea9524d-02ec-4526-b922-f8f292ac8394"},"vehicle_type_id":"4","last_reported":1691078801,"current_range_meters":22400,"station_id":"ce4bhpp2rcd13ifvqhgg","pricing_plan_id":"free"},{"bike_id":"483bb16b-3292-4482-9f52-c4ce9fb5e5aa","system_id":"levelo_inurba_marseille","lat":43.32653,"lon":5.40998,"is_reserved":false,"is_disabled":false,"rental_uris":{"android":"levelo://app?vid=483bb16b-3292-4482-9f52-c4ce9fb5e5aa","ios":"levelo://app?vid=483bb16b-3292-4482-9f52-c4ce9fb5e5aa"},"vehicle_type_id":"4","last_reported":1691078801,"current_range_meters":18800,"station_id":"ce4bhpp2rcd13ifvqhgg","pricing_plan_id":"free"},{"bike_id":"c4ff6eea-c693-4218-9bae-3820f7f4611f","system_id":"levelo_inurba_marseille","lat":43.32658,"lon":5.40996,"is_reserved":false,"is_disabled":false,"rental_uris":{"android":"levelo://app?vid=c4ff6eea-c693-4218-9bae-3820f7f4611f","ios":"levelo://app?vid=c4ff6eea-c693-4218-9bae-3820f7f4611f"},"vehicle_type_id":"4","last_reported":1691078801,"current_range_meters":19200,"station_id":"ce4bhpp2rcd13ifvqhgg","pricing_plan_id":"free"},{"bike_id":"c9a47dc1-ba0e-4c57-af46-76425dde6f7d","system_id":"levelo_inurba_marseille","lat":43.304188,"lon":5.412904,"is_reserved":false,"is_disabled":false,"rental_uris":{"android":"levelo://app?vid=c9a47dc1-ba0e-4c57-af46-76425dde6f7d","ios":"levelo://app?vid=c9a47dc1-ba0e-4c57-af46-76425dde6f7d"},"vehicle_type_id":"4","last_reported":1691078801,"current_range_meters":31200,"station_id":"ce4bhop2rcd13ifvqh8g","pricing_plan_id":"free"},{"bike_id":"949f5d42-8336-4141-ac66-46ea3ee63a6d","system_id":"levelo_inurba_marseille","lat":43.304188,"lon":5.412904,"is_reserved":false,"is_disabled":false,"rental_uris":{"android":"levelo://app?vid=949f5d42-8336-4141-ac66-46ea3ee63a6d","ios":"levelo://app?vid=949f5d42-8336-4141-ac66-46ea3ee63a6d"},"vehicle_type_id":"4","last_reported":1691078801,"current_range_meters":7200,"station_id":"ce4bhop2rcd13ifvqh8g","pricing_plan_id":"free"},{"bike_id":"da74851f-183f-4ed8-bc32-44e1d656b516","system_id":"levelo_inurba_marseille","lat":43.32095,"lon":5.41512,"is_reserved":false,"is_disabled":false,"rental_uris":{"android":"levelo://app?vid=da74851f-183f-4ed8-bc32-44e1d656b516","ios":"levelo://app?vid=da74851f-183f-4ed8-bc32-44e1d656b516"},"vehicle_type_id":"4","last_reported":1691078801,"current_range_meters":2800,"station_id":"","pricing_plan_id":"free"},{"bike_id":"e9fbe7f4-c376-4a74-9a01-c2dfa71d30c2","system_id":"levelo_inurba_marseille","lat":43.3209,"lon":5.41514,"is_reserved":false,"is_disabled":false,"rental_uris":{"android":"levelo://app?vid=e9fbe7f4-c376-4a74-9a01-c2dfa71d30c2","ios":"levelo://app?vid=e9fbe7f4-c376-4a74-9a01-c2dfa71d30c2"},"vehicle_type_id":"4","last_reported":1691078801,"current_range_meters":0,"station_id":"","pricing_plan_id":"free"},{"bike_id":"f2e3d519-ddf6-4ca2-8294-3468297a54c1","system_id":"levelo_inurba_marseille","lat":43.299579,"lon":5.413255,"is_reserved":false,"is_disabled":false,"rental_uris":{"android":"levelo://app?vid=f2e3d519-ddf6-4ca2-8294-3468297a54c1","ios":"levelo://app?vid=f2e3d519-ddf6-4ca2-8294-3468297a54c1"},"vehicle_type_id":"4","last_reported":1691078801,"current_range_meters":12000,"station_id":"ce4bhp12rcd13ifvqh9g","pricing_plan_id":"free"},{"bike_id":"c327718a-8fe6-4791-a349-aba0f8f94e82","system_id":"levelo_inurba_marseille","lat":43.279742,"lon":5.38744,"is_reserved":false,"is_disabled":false,"rental_uris":{"android":"levelo://app?vid=c327718a-8fe6-4791-a349-aba0f8f94e82","ios":"levelo://app?vid=c327718a-8fe6-4791-a349-aba0f8f94e82"},"vehicle_type_id":"4","last_reported":1691078801,"current_range_meters":31200,"station_id":"ce4bhg12rcd13ifvqf80","pricing_plan_id":"free"},{"bike_id":"b21f904b-9f8c-49ff-8ff0-d6cdfefa6c9e","system_id":"levelo_inurba_marseille","lat":43.32038,"lon":5.41574,"is_reserved":false,"is_disabled":false,"rental_uris":{"android":"levelo://app?vid=b21f904b-9f8c-49ff-8ff0-d6cdfefa6c9e","ios":"levelo://app?vid=b21f904b-9f8c-49ff-8ff0-d6cdfefa6c9e"},"vehicle_type_id":"4","last_reported":1691078801,"current_range_meters":29600,"station_id":"ce4bhq92rcd13ifvqhkg","pricing_plan_id":"free"},{"bike_id":"91baffef-cbd4-4ce1-9659-163096b5dc3a","system_id":"levelo_inurba_marseille","lat":43.292569,"lon":5.409107,"is_reserved":false,"is_disabled":false,"rental_uris":{"android":"levelo://app?vid=91baffef-cbd4-4ce1-9659-163096b5dc3a","ios":"levelo://app?vid=91baffef-cbd4-4ce1-9659-163096b5dc3a"},"vehicle_type_id":"4","last_reported":1691078801,"current_range_meters":7600,"station_id":"ce4bh192rcd13ifvqdc0","pricing_plan_id":"free"},{"bike_id":"53fa3584-3641-42da-95a4-eceeb0ac0c65","system_id":"levelo_inurba_marseille","lat":43.292571,"lon":5.409107,"is_reserved":false,"is_disabled":false,"rental_uris":{"android":"levelo://app?vid=53fa3584-3641-42da-95a4-eceeb0ac0c65","ios":"levelo://app?vid=53fa3584-3641-42da-95a4-eceeb0ac0c65"},"vehicle_type_id":"4","last_reported":1691078801,"current_range_meters":24000,"station_id":"ce4bh192rcd13ifvqdc0","pricing_plan_id":"free"},{"bike_id":"29aafe6a-4291-40f1-8784-3b0a61506a6e","system_id":"levelo_inurba_marseille","lat":43.292569,"lon":5.409107,"is_reserved":false,"is_disabled":false,"rental_uris":{"android":"levelo://app?vid=29aafe6a-4291-40f1-8784-3b0a61506a6e","ios":"levelo://app?vid=29aafe6a-4291-40f1-8784-3b0a61506a6e"},"vehicle_type_id":"4","last_reported":1691078801,"current_range_meters":28400,"station_id":"ce4bh192rcd13ifvqdc0","pricing_plan_id":"free"},{"bike_id":"9bb98e7e-9bc7-462b-815c-674e6d1393b4","system_id":"levelo_inurba_marseille","lat":43.27618,"lon":5.361009,"is_reserved":false,"is_disabled":false,"rental_uris":{"android":"levelo://app?vid=9bb98e7e-9bc7-462b-815c-674e6d1393b4","ios":"levelo://app?vid=9bb98e7e-9bc7-462b-815c-674e6d1393b4"},"vehicle_type_id":"4","last_reported":1691078801,"current_range_meters":17600,"station_id":"ce4bgj92rcd13ifvqbe0","pricing_plan_id":"free"},{"bike_id":"386ed8e3-b71e-4f68-86af-202c5b76503e","system_id":"levelo_inurba_marseille","lat":43.27618,"lon":5.361009,"is_reserved":false,"is_disabled":false,"rental_uris":{"android":"levelo://app?vid=386ed8e3-b71e-4f68-86af-202c5b76503e","ios":"levelo://app?vid=386ed8e3-b71e-4f68-86af-202c5b76503e"},"vehicle_type_id":"4","last_reported":1691078801,"current_range_meters":21200,"station_id":"ce4bgj92rcd13ifvqbe0","pricing_plan_id":"free"},{"bike_id":"8031415e-329e-4184-b77d-53df7ab8bf09","system_id":"levelo_inurba_marseille","lat":43.276131,"lon":5.361117,"is_reserved":false,"is_disabled":false,"rental_uris":{"android":"levelo://app?vid=8031415e-329e-4184-b77d-53df7ab8bf09","ios":"levelo://app?vid=8031415e-329e-4184-b77d-53df7ab8bf09"},"vehicle_type_id":"4","last_reported":1691078801,"current_range_meters":31600,"station_id":"ce4bgj92rcd13ifvqbe0","pricing_plan_id":"free"},{"bike_id":"df3d1163-2642-4b7e-8123-5b398a366830","system_id":"levelo_inurba_marseille","lat":43.276119,"lon":5.361116,"is_reserved":false,"is_disabled":false,"rental_uris":{"android":"levelo://app?vid=df3d1163-2642-4b7e-8123-5b398a366830","ios":"levelo://app?vid=df3d1163-2642-4b7e-8123-5b398a366830"},"vehicle_type_id":"4","last_reported":1691078801,"current_range_meters":28800,"station_id":"ce4bgj92rcd13ifvqbe0","pricing_plan_id":"free"},{"bike_id":"05c45c5c-487f-4c36-85cb-cf4607186775","system_id":"levelo_inurba_marseille","lat":43.28646,"lon":5.40615,"is_reserved":false,"is_disabled":false,"rental_uris":{"android":"levelo://app?vid=05c45c5c-487f-4c36-85cb-cf4607186775","ios":"levelo://app?vid=05c45c5c-487f-4c36-85cb-cf4607186775"},"vehicle_type_id":"4","last_reported":1691078801,"current_range_meters":22000,"station_id":"","pricing_plan_id":"free"},{"bike_id":"2daf0722-46bd-4fd2-bde0-ab0b63426f75","system_id":"levelo_inurba_marseille","lat":43.303837,"lon":5.418724,"is_reserved":false,"is_disabled":false,"rental_uris":{"android":"levelo://app?vid=2daf0722-46bd-4fd2-bde0-ab0b63426f75","ios":"levelo://app?vid=2daf0722-46bd-4fd2-bde0-ab0b63426f75"},"vehicle_type_id":"4","last_reported":1691078801,"current_range_meters":11600,"station_id":"ce4bhop2rcd13ifvqh7g","pricing_plan_id":"free"},{"bike_id":"6c692802-e7db-4d6a-9f1f-872ee354b4f2","system_id":"levelo_inurba_marseille","lat":43.303837,"lon":5.418724,"is_reserved":false,"is_disabled":false,"rental_uris":{"android":"levelo://app?vid=6c692802-e7db-4d6a-9f1f-872ee354b4f2","ios":"levelo://app?vid=6c692802-e7db-4d6a-9f1f-872ee354b4f2"},"vehicle_type_id":"4","last_reported":1691078801,"current_range_meters":21600,"station_id":"ce4bhop2rcd13ifvqh7g","pricing_plan_id":"free"},{"bike_id":"07a4aedd-96d4-4e72-8a1b-46acf8c56f80","system_id":"levelo_inurba_marseille","lat":43.278399,"lon":5.392139,"is_reserved":false,"is_disabled":false,"rental_uris":{"android":"levelo://app?vid=07a4aedd-96d4-4e72-8a1b-46acf8c56f80","ios":"levelo://app?vid=07a4aedd-96d4-4e72-8a1b-46acf8c56f80"},"vehicle_type_id":"4","last_reported":1691078801,"current_range_meters":25600,"station_id":"ce4bhjp2rcd13ifvqga0","pricing_plan_id":"free"},{"bike_id":"2d30f072-35f7-470e-8fa4-1add4f087463","system_id":"levelo_inurba_marseille","lat":43.273613,"lon":5.362705,"is_reserved":false,"is_disabled":false,"rental_uris":{"android":"levelo://app?vid=2d30f072-35f7-470e-8fa4-1add4f087463","ios":"levelo://app?vid=2d30f072-35f7-470e-8fa4-1add4f087463"},"vehicle_type_id":"4","last_reported":1691078801,"current_range_meters":30000,"station_id":"ce4bhbh2rcd13ifvqeo0","pricing_plan_id":"free"},{"bike_id":"a5c2eb0d-d145-43fb-b1df-75aed2f2e617","system_id":"levelo_inurba_marseille","lat":43.273613,"lon":5.362705,"is_reserved":false,"is_disabled":false,"rental_uris":{"android":"levelo://app?vid=a5c2eb0d-d145-43fb-b1df-75aed2f2e617","ios":"levelo://app?vid=a5c2eb0d-d145-43fb-b1df-75aed2f2e617"},"vehicle_type_id":"4","last_reported":1691078801,"current_range_meters":15200,"station_id":"ce4bhbh2rcd13ifvqeo0","pricing_plan_id":"free"},{"bike_id":"ad2c2a3c-a185-41cc-8978-59311f02b167","system_id":"levelo_inurba_marseille","lat":43.273613,"lon":5.362705,"is_reserved":false,"is_disabled":false,"rental_uris":{"android":"levelo://app?vid=ad2c2a3c-a185-41cc-8978-59311f02b167","ios":"levelo://app?vid=ad2c2a3c-a185-41cc-8978-59311f02b167"},"vehicle_type_id":"4","last_reported":1691078801,"current_range_meters":31200,"station_id":"ce4bhbh2rcd13ifvqeo0","pricing_plan_id":"free"},{"bike_id":"ee5c7946-ad9a-4da1-b817-68ba01d97c87","system_id":"levelo_inurba_marseille","lat":43.273613,"lon":5.362705,"is_reserved":false,"is_disabled":false,"rental_uris":{"android":"levelo://app?vid=ee5c7946-ad9a-4da1-b817-68ba01d97c87","ios":"levelo://app?vid=ee5c7946-ad9a-4da1-b817-68ba01d97c87"},"vehicle_type_id":"4","last_reported":1691078801,"current_range_meters":31200,"station_id":"ce4bhbh2rcd13ifvqeo0","pricing_plan_id":"free"},{"bike_id":"6bbb1656-5139-49f5-b3f1-001b3564a6d5","system_id":"levelo_inurba_marseille","lat":43.273613,"lon":5.362705,"is_reserved":false,"is_disabled":false,"rental_uris":{"android":"levelo://app?vid=6bbb1656-5139-49f5-b3f1-001b3564a6d5","ios":"levelo://app?vid=6bbb1656-5139-49f5-b3f1-001b3564a6d5"},"vehicle_type_id":"4","last_reported":1691078801,"current_range_meters":17600,"station_id":"ce4bhbh2rcd13ifvqeo0","pricing_plan_id":"free"},{"bike_id":"2381c871-a648-4c7e-8482-fd6a1403e4c7","system_id":"levelo_inurba_marseille","lat":43.273613,"lon":5.362705,"is_reserved":false,"is_disabled":false,"rental_uris":{"android":"levelo://app?vid=2381c871-a648-4c7e-8482-fd6a1403e4c7","ios":"levelo://app?vid=2381c871-a648-4c7e-8482-fd6a1403e4c7"},"vehicle_type_id":"4","last_reported":1691078801,"current_range_meters":6400,"station_id":"ce4bhbh2rcd13ifvqeo0","pricing_plan_id":"free"},{"bike_id":"23c48106-0bf1-4550-93ee-c824ae14279a","system_id":"levelo_inurba_marseille","lat":43.273613,"lon":5.362705,"is_reserved":false,"is_disabled":false,"rental_uris":{"android":"levelo://app?vid=23c48106-0bf1-4550-93ee-c824ae14279a","ios":"levelo://app?vid=23c48106-0bf1-4550-93ee-c824ae14279a"},"vehicle_type_id":"4","last_reported":1691078801,"current_range_meters":16800,"station_id":"ce4bhbh2rcd13ifvqeo0","pricing_plan_id":"free"},{"bike_id":"316c0d5f-c9b1-42e9-94ce-0377f7e5d495","system_id":"levelo_inurba_marseille","lat":43.273613,"lon":5.362705,"is_reserved":false,"is_disabled":false,"rental_uris":{"android":"levelo://app?vid=316c0d5f-c9b1-42e9-94ce-0377f7e5d495","ios":"levelo://app?vid=316c0d5f-c9b1-42e9-94ce-0377f7e5d495"},"vehicle_type_id":"4","last_reported":1691078801,"current_range_meters":31200,"station_id":"ce4bhbh2rcd13ifvqeo0","pricing_plan_id":"free"},{"bike_id":"744cdd1d-a252-44f3-900d-f71a41b33de0","system_id":"levelo_inurba_marseille","lat":43.273757,"lon":5.362371,"is_reserved":false,"is_disabled":false,"rental_uris":{"android":"levelo://app?vid=744cdd1d-a252-44f3-900d-f71a41b33de0","ios":"levelo://app?vid=744cdd1d-a252-44f3-900d-f71a41b33de0"},"vehicle_type_id":"4","last_reported":1691078801,"current_range_meters":14400,"station_id":"ce4bhbh2rcd13ifvqeo0","pricing_plan_id":"free"},{"bike_id":"dce46d5c-500f-4a0d-ab6e-3ba41359bf22","system_id":"levelo_inurba_marseille","lat":43.273609,"lon":5.362708,"is_reserved":false,"is_disabled":false,"rental_uris":{"android":"levelo://app?vid=dce46d5c-500f-4a0d-ab6e-3ba41359bf22","ios":"levelo://app?vid=dce46d5c-500f-4a0d-ab6e-3ba41359bf22"},"vehicle_type_id":"4","last_reported":1691078801,"current_range_meters":31600,"station_id":"ce4bhbh2rcd13ifvqeo0","pricing_plan_id":"free"},{"bike_id":"9e2a257a-9352-4b99-b2b7-bf06c280bf79","system_id":"levelo_inurba_marseille","lat":43.273609,"lon":5.362708,"is_reserved":false,"is_disabled":false,"rental_uris":{"android":"levelo://app?vid=9e2a257a-9352-4b99-b2b7-bf06c280bf79","ios":"levelo://app?vid=9e2a257a-9352-4b99-b2b7-bf06c280bf79"},"vehicle_type_id":"4","last_reported":1691078801,"current_range_meters":22000,"station_id":"ce4bhbh2rcd13ifvqeo0","pricing_plan_id":"free"},{"bike_id":"a179c8f7-40ef-467f-998a-71431dc5eee4","system_id":"levelo_inurba_marseille","lat":43.273609,"lon":5.362708,"is_reserved":false,"is_disabled":false,"rental_uris":{"android":"levelo://app?vid=a179c8f7-40ef-467f-998a-71431dc5eee4","ios":"levelo://app?vid=a179c8f7-40ef-467f-998a-71431dc5eee4"},"vehicle_type_id":"4","last_reported":1691078801,"current_range_meters":24800,"station_id":"ce4bhbh2rcd13ifvqeo0","pricing_plan_id":"free"},{"bike_id":"2b876f7e-ec2a-47fb-9697-f6fe645d7b0f","system_id":"levelo_inurba_marseille","lat":43.273613,"lon":5.362705,"is_reserved":false,"is_disabled":false,"rental_uris":{"android":"levelo://app?vid=2b876f7e-ec2a-47fb-9697-f6fe645d7b0f","ios":"levelo://app?vid=2b876f7e-ec2a-47fb-9697-f6fe645d7b0f"},"vehicle_type_id":"4","last_reported":1691078801,"current_range_meters":31200,"station_id":"ce4bhbh2rcd13ifvqeo0","pricing_plan_id":"free"},{"bike_id":"5554be9e-ea6d-448b-a933-772bf8ca7cdf","system_id":"levelo_inurba_marseille","lat":43.33612,"lon":5.410321,"is_reserved":false,"is_disabled":false,"rental_uris":{"android":"levelo://app?vid=5554be9e-ea6d-448b-a933-772bf8ca7cdf","ios":"levelo://app?vid=5554be9e-ea6d-448b-a933-772bf8ca7cdf"},"vehicle_type_id":"4","last_reported":1691078801,"current_range_meters":30800,"station_id":"ce4bhqh2rcd13ifvqhmg","pricing_plan_id":"free"},{"bike_id":"17e0a33e-07d2-423f-bd69-22350aad8b32","system_id":"levelo_inurba_marseille","lat":43.273609,"lon":5.362708,"is_reserved":false,"is_disabled":false,"rental_uris":{"android":"levelo://app?vid=17e0a33e-07d2-423f-bd69-22350aad8b32","ios":"levelo://app?vid=17e0a33e-07d2-423f-bd69-22350aad8b32"},"vehicle_type_id":"4","last_reported":1691078801,"current_range_meters":30800,"station_id":"ce4bhbh2rcd13ifvqeo0","pricing_plan_id":"free"},{"bike_id":"1611d1a8-c4e8-47e1-bb57-8bc78447cd2a","system_id":"levelo_inurba_marseille","lat":43.33612,"lon":5.410321,"is_reserved":false,"is_disabled":false,"rental_uris":{"android":"levelo://app?vid=1611d1a8-c4e8-47e1-bb57-8bc78447cd2a","ios":"levelo://app?vid=1611d1a8-c4e8-47e1-bb57-8bc78447cd2a"},"vehicle_type_id":"4","last_reported":1691078801,"current_range_meters":30400,"station_id":"ce4bhqh2rcd13ifvqhmg","pricing_plan_id":"free"},{"bike_id":"71d1f10e-f000-48b9-abea-e76331e703e0","system_id":"levelo_inurba_marseille","lat":43.33606,"lon":5.41023,"is_reserved":false,"is_disabled":false,"rental_uris":{"android":"levelo://app?vid=71d1f10e-f000-48b9-abea-e76331e703e0","ios":"levelo://app?vid=71d1f10e-f000-48b9-abea-e76331e703e0"},