{"last_updated":1746969464,"ttl":60,"version":"2.2","data":{"bikes":[{"bike_id":"c0b9fd4f-e181-46ce-b0bf-f5119973334f","system_id":"levelo_inurba_marseille","lat":43.33771,"lon":5.37424,"is_reserved":false,"is_disabled":false,"rental_uris":{"android":"levelo://app?vid=c0b9fd4f-e181-46ce-b0bf-f5119973334f","ios":"levelo://app?vid=c0b9fd4f-e181-46ce-b0bf-f5119973334f"},"vehicle_type_id":"4","last_reported":1746969464,"current_range_meters":32800,"station_id":"","pricing_plan_id":"cebpf4jnsgd1na2vs0mg"},{"bike_id":"ad17c5b4-973a-4cb5-ad8c-32068ccae9d2","system_id":"levelo_inurba_marseille","lat":43.28988,"lon":5.432497,"is_reserved":false,"is_disabled":true,"rental_uris":{"android":"levelo://app?vid=ad17c5b4-973a-4cb5-ad8c-32068ccae9d2","ios":"levelo://app?vid=ad17c5b4-973a-4cb5-ad8c-32068ccae9d2"},"vehicle_type_id":"4","last_reported":1746969464,"current_range_meters":0,"station_id":"","pricing_plan_id":"cebpf4jnsgd1na2vs0mg"},{"bike_id":"a72028ca-425b-4f2c-9e2d-16be28a01f65","system_id":"levelo_inurba_marseille","lat":43.26019,"lon":5.41735,"is_reserved":false,"is_disabled":true,"rental_uris":{"android":"levelo://app?vid=a72028ca-425b-4f2c-9e2d-16be28a01f65","ios":"levelo://app?vid=a72028ca-425b-4f2c-9e2d-16be28a01f65"},"vehicle_type_id":"4","last_reported":1746969464,"current_range_meters":0,"station_id":"","pricing_plan_id":"cebpf4jnsgd1na2vs0mg"},{"bike_id":"e43d995b-a136-4201-b650-ca62eacfe18a","system_id":"levelo_inurba_marseille","lat":43.27141,"lon":5.36342,"is_reserved":false,"is_disabled":true,"rental_uris":{"android":"levelo://app?vid=e43d995b-a136-4201-b650-ca62eacfe18a","ios":"levelo://app?vid=e43d995b-a136-4201-b650-ca62eacfe18a"},"vehicle_type_id":"4","last_reported":1746969464,"current_range_meters":0,"station_id":"","pricing_plan_id":"cebpf4jnsgd1na2vs0mg"},{"bike_id":"caf9033d-5f00-49c3-b1ee-1328b62008dc","system_id":"levelo_inurba_marseille","lat":43.33589,"lon":5.42817,"is_reserved":false,"is_disabled":true,"rental_uris":{"android":"levelo://app?vid=caf9033d-5f00-49c3-b1ee-1328b62008dc","ios":"levelo://app?vid=caf9033d-5f00-49c3-b1ee-1328b62008dc"},"vehicle_type_id":"4","last_reported":1746969464,"current_range_meters":0,"station_id":"","pricing_plan_id":"cebpf4jnsgd1na2vs0mg"},{"bike_id":"689d1ebc-80c1-4c8c-9647-6e072db7ae2b","system_id":"levelo_inurba_marseille","lat":43.26877,"lon":5.37032,"is_reserved":false,"is_disabled":true,"rental_uris":{"android":"levelo://app?vid=689d1ebc-80c1-4c8c-9647-6e072db7ae2b","ios":"levelo://app?vid=689d1ebc-80c1-4c8c-9647-6e072db7ae2b"},"vehicle_type_id":"4","last_reported":1746969464,"current_range_meters":0,"station_id":"","pricing_plan_id":"cebpf4jnsgd1na2vs0mg"},{"bike_id":"e1dc35ab-8d93-4040-9d60-ff9c2a1cf351","system_id":"levelo_inurba_marseille","lat":43.337444,"lon":5.374475,"is_reserved":false,"is_disabled":true,"rental_uris":{"android":"levelo://app?vid=e1dc35ab-8d93-4040-9d60-ff9c2a1cf351","ios":"levelo://app?vid=e1dc35ab-8d93-4040-9d60-ff9c2a1cf351"},"vehicle_type_id":"4","last_reported":1746969464,"current_range_meters":0,"station_id":"","pricing_plan_id":"cebpf4jnsgd1na2vs0mg"},{"bike_id":"2d46911a-8d75-4d63-9057-acbaafb11eea","system_id":"levelo_inurba_marseille","lat":43.267439,"lon":5.372007,"is_reserved":false,"is_disabled":true,"rental_uris":{"android":"levelo://app?vid=2d46911a-8d75-4d63-9057-acbaafb11eea","ios":"levelo://app?vid=2d46911a-8d75-4d63-9057-acbaafb11eea"},"vehicle_type_id":"4","last_reported":1746969464,"current_range_meters":0,"station_id":"","pricing_plan_id":"cebpf4jnsgd1na2vs0mg"},{"bike_id":"7fa99896-ccf4-425e-8111-cb9140080e22","system_id":"levelo_inurba_marseille","lat":43.30878,"lon":5.39621,"is_reserved":false,"is_disabled":true,"rental_uris":{"android":"levelo://app?vid=7fa99896-ccf4-425e-8111-cb9140080e22","ios":"levelo://app?vid=7fa99896-ccf4-425e-8111-cb9140080e22"},"vehicle_type_id":"4","last_reported":1746969464,"current_range_meters":0,"station_id":"ce4bh012rcd13ifvqcv0","pricing_plan_id":"cebpf4jnsgd1na2vs0mg"},{"bike_id":"cc375370-738f-403c-8284-70be150669d5","system_id":"levelo_inurba_marseille","lat":43.27379,"lon":5.362493,"is_reserved":false,"is_disabled":true,"rental_uris":{"android":"levelo://app?vid=cc375370-738f-403c-8284-70be150669d5","ios":"levelo://app?vid=cc375370-738f-403c-8284-70be150669d5"},"vehicle_type_id":"4","last_reported":1746969464,"current_range_meters":0,"station_id":"ce4bhbh2rcd13ifvqeo0","pricing_plan_id":"cebpf4jnsgd1na2vs0mg"},{"bike_id":"43f0a375-7ff3-4b03-b4e5-a0a94a59f00c","system_id":"levelo_inurba_marseille","lat":43.24185,"lon":5.39726,"is_reserved":false,"is_disabled":true,"rental_uris":{"android":"levelo://app?vid=43f0a375-7ff3-4b03-b4e5-a0a94a59f00c","ios":"levelo://app?vid=43f0a375-7ff3-4b03-b4e5-a0a94a59f00c"},"vehicle_type_id":"4","last_reported":1746969464,"current_range_meters":0,"station_id":"ce4bhn12rcd13ifvqgpg","pricing_plan_id":"cebpf4jnsgd1na2vs0mg"},{"bike_id":"017d91ea-a462-40f8-8d65-68758bbfbb12","system_id":"levelo_inurba_marseille","lat":43.30378,"lon":5.42482,"is_reserved":false,"is_disabled":true,"rental_uris":{"android":"levelo://app?vid=017d91ea-a462-40f8-8d65-68758bbfbb12","ios":"levelo://app?vid=017d91ea-a462-40f8-8d65-68758bbfbb12"},"vehicle_type_id":"4","last_reported":1746969464,"current_range_meters":0,"station_id":"ce4bhoh2rcd13ifvqh6g","pricing_plan_id":"cebpf4jnsgd1na2vs0mg"},{"bike_id":"2fae3c6a-0b86-46a7-b0b4-621f9de79a85","system_id":"levelo_inurba_marseille","lat":43.32495,"lon":5.36537,"is_reserved":false,"is_disabled":true,"rental_uris":{"android":"levelo://app?vid=2fae3c6a-0b86-46a7-b0b4-621f9de79a85","ios":"levelo://app?vid=2fae3c6a-0b86-46a7-b0b4-621f9de79a85"},"vehicle_type_id":"4","last_reported":1746969464,"current_range_meters":0,"station_id":"ce4bhs12rcd13ifvqhvg","pricing_plan_id":"cebpf4jnsgd1na2vs0mg"},{"bike_id":"5835d87c-ac89-4fdf-9cf9-9780d6ebc1c6","system_id":"levelo_inurba_marseille","lat":43.32482,"lon":5.36567,"is_reserved":false,"is_disabled":true,"rental_uris":{"android":"levelo://app?vid=5835d87c-ac89-4fdf-9cf9-9780d6ebc1c6","ios":"levelo://app?vid=5835d87c-ac89-4fdf-9cf9-9780d6ebc1c6"},"vehicle_type_id":"4","last_reported":1746969464,"current_range_meters":0,"station_id":"ce4bhs12rcd13ifvqhvg","pricing_plan_id":"cebpf4jnsgd1na2vs0mg"},{"bike_id":"229001d2-7627-43e0-aeea-2d75580fd339","system_id":"levelo_inurba_marseille","lat":43.28299,"lon":5.43246,"is_reserved":false,"is_disabled":true,"rental_uris":{"android":"levelo://app?vid=229001d2-7627-43e0-aeea-2d75580fd339","ios":"levelo://app?vid=229001d2-7627-43e0-aeea-2d75580fd339"},"vehicle_type_id":"4","last_reported":1746969464,"current_range_meters":1200,"station_id":"","pricing_plan_id":"cebpf4jnsgd1na2vs0mg"},{"bike_id":"59bdf495-a2fd-49e7-ae47-872cf527d22f","system_id":"levelo_inurba_marseille","lat":43.296,"lon":5.38102,"is_reserved":false,"is_disabled":true,"rental_uris":{"android":"levelo://app?vid=59bdf495-a2fd-49e7-ae47-872cf527d22f","ios":"levelo://app?vid=59bdf495-a2fd-49e7-ae47-872cf527d22f"},"vehicle_type_id":"4","last_reported":1746969464,"current_range_meters":1200,"station_id":"ce4bgl12rcd13ifvqbo0","pricing_plan_id":"cebpf4jnsgd1na2vs0mg"},{"bike_id":"ea549dea-4d7f-4f26-a789-c8bf84068238","system_id":"levelo_inurba_marseille","lat":43.29874,"lon":5.39738,"is_reserved":false,"is_disabled":true,"rental_uris":{"android":"levelo://app?vid=ea549dea-4d7f-4f26-a789-c8bf84068238","ios":"levelo://app?vid=ea549dea-4d7f-4f26-a789-c8bf84068238"},"vehicle_type_id":"4","last_reported":1746969464,"current_range_meters":1200,"station_id":"ce4bh0h2rcd13ifvqd50","pricing_plan_id":"cebpf4jnsgd1na2vs0mg"},{"bike_id":"43da1e2e-1814-4391-b982-c71ad85f810c","system_id":"levelo_inurba_marseille","lat":43.27363,"lon":5.36252,"is_reserved":false,"is_disabled":true,"rental_uris":{"android":"levelo://app?vid=43da1e2e-1814-4391-b982-c71ad85f810c","ios":"levelo://app?vid=43da1e2e-1814-4391-b982-c71ad85f810c"},"vehicle_type_id":"4","last_reported":1746969464,"current_range_meters":1200,"station_id":"ce4bhbh2rcd13ifvqeo0","pricing_plan_id":"cebpf4jnsgd1na2vs0mg"},{"bike_id":"351ef218-24e5-4670-825d-fc1ac5cd3c19","system_id":"levelo_inurba_marseille","lat":43.30813,"lon":5.38138,"is_reserved":false,"is_disabled":false,"rental_uris":{"android":"levelo://app?vid=351ef218-24e5-4670-825d-fc1ac5cd3c19","ios":"levelo://app?vid=351ef218-24e5-4670-825d-fc1ac5cd3c19"},"vehicle_type_id":"4","last_reported":1746969464,"current_range_meters":2800,"station_id":"ce4bgt12rcd13ifvqce0","pricing_plan_id":"cebpf4jnsgd1na2vs0mg"},{"bike_id":"d0af6956-3c1a-482c-b1cc-50dd1447307f","system_id":"levelo_inurba_marseille","lat":43.324755,"lon":5.365643,"is_reserved":false,"is_disabled":false,"rental_uris":{"android":"levelo://app?vid=d0af6956-3c1a-482c-b1cc-50dd1447307f","ios":"levelo://app?vid=d0af6956-3c1a-482c-b1cc-50dd1447307f"},"vehicle_type_id":"4","last_reported":1746969464,"current_range_meters":2800,"station_id":"ce4bhs12rcd13ifvqhvg","pricing_plan_id":"cebpf4jnsgd1na2vs0mg"},{"bike_id":"3cb16701-ac93-405b-835e-4a6dc7737210","system_id":"levelo_inurba_marseille","lat":43.30159,"lon":5.38068,"is_reserved":false,"is_disabled":false,"rental_uris":{"android":"levelo://app?vid=3cb16701-ac93-405b-835e-4a6dc7737210","ios":"levelo://app?vid=3cb16701-ac93-405b-835e-4a6dc7737210"},"vehicle_type_id":"4","last_reported":1746969464,"current_range_meters":3200,"station_id":"ce4bgjp2rcd13ifvqbh0","pricing_plan_id":"cebpf4jnsgd1na2vs0mg"},{"bike_id":"d26cf249-14cc-4753-9164-8b075f6c818f","system_id":"levelo_inurba_marseille","lat":43.25008,"lon":5.38911,"is_reserved":false,"is_disabled":false,"rental_uris":{"android":"levelo://app?vid=d26cf249-14cc-4753-9164-8b075f6c818f","ios":"levelo://app?vid=d26cf249-14cc-4753-9164-8b075f6c818f"},"vehicle_type_id":"4","last_reported":1746969464,"current_range_meters":3200,"station_id":"ce4bhgp2rcd13ifvqfd0","pricing_plan_id":"cebpf4jnsgd1na2vs0mg"},{"bike_id":"02b38b87-517a-4cb9-b6bb-346b3443190b","system_id":"levelo_inurba_marseille","lat":43.27916,"lon":5.39579,"is_reserved":false,"is_disabled":false,"rental_uris":{"android":"levelo://app?vid=02b38b87-517a-4cb9-b6bb-346b3443190b","ios":"levelo://app?vid=02b38b87-517a-4cb9-b6bb-346b3443190b"},"vehicle_type_id":"4","last_reported":1746969464,"current_range_meters":3600,"station_id":"ce4bhf92rcd13ifvqf40","pricing_plan_id":"cebpf4jnsgd1na2vs0mg"},{"bike_id":"ec2e562c-9d0c-46ba-b6a7-90e2f536904b","system_id":"levelo_inurba_marseille","lat":43.31714,"lon":5.43708,"is_reserved":false,"is_disabled":false,"rental_uris":{"android":"levelo://app?vid=ec2e562c-9d0c-46ba-b6a7-90e2f536904b","ios":"levelo://app?vid=ec2e562c-9d0c-46ba-b6a7-90e2f536904b"},"vehicle_type_id":"4","last_reported":1746969464,"current_range_meters":3600,"station_id":"ce4bhp92rcd13ifvqhcg","pricing_plan_id":"cebpf4jnsgd1na2vs0mg"},{"bike_id":"904c7fc2-540f-4043-a405-5f5658266117","system_id":"levelo_inurba_marseille","lat":43.27607,"lon":5.37794,"is_reserved":false,"is_disabled":false,"rental_uris":{"android":"levelo://app?vid=904c7fc2-540f-4043-a405-5f5658266117","ios":"levelo://app?vid=904c7fc2-540f-4043-a405-5f5658266117"},"vehicle_type_id":"4","last_reported":1746969464,"current_range_meters":4000,"station_id":"","pricing_plan_id":"cebpf4jnsgd1na2vs0mg"},{"bike_id":"a2c63fe2-1a4c-4119-974b-15d485603b06","system_id":"levelo_inurba_marseille","lat":43.28059,"lon":5.36877,"is_reserved":false,"is_disabled":false,"rental_uris":{"android":"levelo://app?vid=a2c63fe2-1a4c-4119-974b-15d485603b06","ios":"levelo://app?vid=a2c63fe2-1a4c-4119-974b-15d485603b06"},"vehicle_type_id":"4","last_reported":1746969464,"current_range_meters":4000,"station_id":"ce4bha12rcd13ifvqef0","pricing_plan_id":"cebpf4jnsgd1na2vs0mg"},{"bike_id":"f065877b-1fab-4146-b542-62e0007a4496","system_id":"levelo_inurba_marseille","lat":43.29032,"lon":5.35918,"is_reserved":false,"is_disabled":false,"rental_uris":{"android":"levelo://app?vid=f065877b-1fab-4146-b542-62e0007a4496","ios":"levelo://app?vid=f065877b-1fab-4146-b542-62e0007a4496"},"vehicle_type_id":"4","last_reported":1746969464,"current_range_meters":4000,"station_id":"ce4bha92rcd13ifvqeg0","pricing_plan_id":"cebpf4jnsgd1na2vs0mg"},{"bike_id":"ca912f22-1d11-4451-a3a1-38bd74d26ab1","system_id":"levelo_inurba_marseille","lat":43.28701,"lon":5.37388,"is_reserved":false,"is_disabled":false,"rental_uris":{"android":"levelo://app?vid=ca912f22-1d11-4451-a3a1-38bd74d26ab1","ios":"levelo://app?vid=ca912f22-1d11-4451-a3a1-38bd74d26ab1"},"vehicle_type_id":"4","last_reported":1746969464,"current_range_meters":4400,"station_id":"ce4bh3p2rcd13ifvqdq0","pricing_plan_id":"cebpf4jnsgd1na2vs0mg"},{"bike_id":"eb47cb4c-1f5f-49f7-94bc-a0364631a907","system_id":"levelo_inurba_marseille","lat":43.25494,"lon":5.37644,"is_reserved":false,"is_disabled":false,"rental_uris":{"android":"levelo://app?vid=eb47cb4c-1f5f-49f7-94bc-a0364631a907","ios":"levelo://app?vid=eb47cb4c-1f5f-49f7-94bc-a0364631a907"},"vehicle_type_id":"4","last_reported":1746969464,"current_range_meters":4400,"station_id":"ce4bhh12rcd13ifvqff0","pricing_plan_id":"cebpf4jnsgd1na2vs0mg"},{"bike_id":"6f45363f-0cad-43ea-ad2b-ae192fe8e301","system_id":"levelo_inurba_marseille","lat":43.29286,"lon":5.36853,"is_reserved":false,"is_disabled":false,"rental_uris":{"android":"levelo://app?vid=6f45363f-0cad-43ea-ad2b-ae192fe8e301","ios":"levelo://app?vid=6f45363f-0cad-43ea-ad2b-ae192fe8e301"},"vehicle_type_id":"4","last_reported":1746969464,"current_range_meters":4800,"station_id":"ce4bhbp2rcd13ifvqesg","pricing_plan_id":"cebpf4jnsgd1na2vs0mg"},{"bike_id":"c8871d60-de65-4dc9-8457-ca42730446e7","system_id":"levelo_inurba_marseille","lat":43.317469,"lon":5.387764,"is_reserved":false,"is_disabled":false,"rental_uris":{"android":"levelo://app?vid=c8871d60-de65-4dc9-8457-ca42730446e7","ios":"levelo://app?vid=c8871d60-de65-4dc9-8457-ca42730446e7"},"vehicle_type_id":"4","last_reported":1746969464,"current_range_meters":5600,"station_id":"","pricing_plan_id":"cebpf4jnsgd1na2vs0mg"},{"bike_id":"f85aa849-2fe7-49c4-9d06-6641919bddd2","system_id":"levelo_inurba_marseille","lat":43.2971,"lon":5.37707,"is_reserved":false,"is_disabled":false,"rental_uris":{"android":"levelo://app?vid=f85aa849-2fe7-49c4-9d06-6641919bddd2","ios":"levelo://app?vid=f85aa849-2fe7-49c4-9d06-6641919bddd2"},"vehicle_type_id":"4","last_reported":1746969464,"current_range_meters":5600,"station_id":"ce4bgkh2rcd13ifvqbl0","pricing_plan_id":"cebpf4jnsgd1na2vs0mg"},{"bike_id":"f25b4c53-27db-48ee-aeee-6292af4d562e","system_id":"levelo_inurba_marseille","lat":43.29032,"lon":5.3996,"is_reserved":false,"is_disabled":false,"rental_uris":{"android":"levelo://app?vid=f25b4c53-27db-48ee-aeee-6292af4d562e","ios":"levelo://app?vid=f25b4c53-27db-48ee-aeee-6292af4d562e"},"vehicle_type_id":"4","last_reported":1746969464,"current_range_meters":5600,"station_id":"ce4bh392rcd13ifvqdm0","pricing_plan_id":"cebpf4jnsgd1na2vs0mg"},{"bike_id":"1a6cda5e-272e-4fe1-8a54-fc8bf3d5691c","system_id":"levelo_inurba_marseille","lat":43.29103,"lon":5.38145,"is_reserved":false,"is_disabled":false,"rental_uris":{"android":"levelo://app?vid=1a6cda5e-272e-4fe1-8a54-fc8bf3d5691c","ios":"levelo://app?vid=1a6cda5e-272e-4fe1-8a54-fc8bf3d5691c"},"vehicle_type_id":"4","last_reported":1746969464,"current_range_meters":6000,"station_id":"ce4bh512rcd13ifvqe2g","pricing_plan_id":"cebpf4jnsgd1na2vs0mg"},{"bike_id":"4f39ef46-c182-492f-a9f2-8b71081efeff","system_id":"levelo_inurba_marseille","lat":43.25735,"lon":5.41107,"is_reserved":false,"is_disabled":false,"rental_uris":{"android":"levelo://app?vid=4f39ef46-c182-492f-a9f2-8b71081efeff","ios":"levelo://app?vid=4f39ef46-c182-492f-a9f2-8b71081efeff"},"vehicle_type_id":"4","last_reported":1746969464,"current_range_meters":6000,"station_id":"ce4bhkp2rcd13ifvqgd0","pricing_plan_id":"cebpf4jnsgd1na2vs0mg"},{"bike_id":"7ce9efa1-96a5-4497-bbcf-312996771c24","system_id":"levelo_inurba_marseille","lat":43.29048,"lon":5.39993,"is_reserved":false,"is_disabled":false,"rental_uris":{"android":"levelo://app?vid=7ce9efa1-96a5-4497-bbcf-312996771c24","ios":"levelo://app?vid=7ce9efa1-96a5-4497-bbcf-312996771c24"},"vehicle_type_id":"4","last_reported":1746969464,"current_range_meters":6400,"station_id":"ce4bh392rcd13ifvqdm0","pricing_plan_id":"cebpf4jnsgd1na2vs0mg"},{"bike_id":"10ee2d0e-ca01-4e83-bbdf-6c08178a202f","system_id":"levelo_inurba_marseille","lat":43.28605,"lon":5.41277,"is_reserved":false,"is_disabled":false,"rental_uris":{"android":"levelo://app?vid=10ee2d0e-ca01-4e83-bbdf-6c08178a202f","ios":"levelo://app?vid=10ee2d0e-ca01-4e83-bbdf-6c08178a202f"},"vehicle_type_id":"4","last_reported":1746969464,"current_range_meters":6800,"station_id":"","pricing_plan_id":"cebpf4jnsgd1na2vs0mg"},{"bike_id":"56aa5f06-62dd-42c5-acd9-f3edc14af8a6","system_id":"levelo_inurba_marseille","lat":43.29276,"lon":5.40112,"is_reserved":false,"is_disabled":false,"rental_uris":{"android":"levelo://app?vid=56aa5f06-62dd-42c5-acd9-f3edc14af8a6","ios":"levelo://app?vid=56aa5f06-62dd-42c5-acd9-f3edc14af8a6"},"vehicle_type_id":"4","last_reported":1746969464,"current_range_meters":6800,"station_id":"ce4bh312rcd13ifvqdk0","pricing_plan_id":"cebpf4jnsgd1na2vs0mg"},{"bike_id":"da720f27-4eda-4c57-90d3-1dce2f6ab566","system_id":"levelo_inurba_marseille","lat":43.27989,"lon":5.41662,"is_reserved":false,"is_disabled":false,"rental_uris":{"android":"levelo://app?vid=da720f27-4eda-4c57-90d3-1dce2f6ab566","ios":"levelo://app?vid=da720f27-4eda-4c57-90d3-1dce2f6ab566"},"vehicle_type_id":"4","last_reported":1746969464,"current_range_meters":6800,"station_id":"ce4bho12rcd13ifvqh1g","pricing_plan_id":"cebpf4jnsgd1na2vs0mg"},{"bike_id":"aedac110-9a80-4055-b3bc-6fbbff4ed0bc","system_id":"levelo_inurba_marseille","lat":43.31751,"lon":5.37228,"is_reserved":false,"is_disabled":false,"rental_uris":{"android":"levelo://app?vid=aedac110-9a80-4055-b3bc-6fbbff4ed0bc","ios":"levelo://app?vid=aedac110-9a80-4055-b3bc-6fbbff4ed0bc"},"vehicle_type_id":"4","last_reported":1746969464,"current_range_meters":7200,"station_id":"","pricing_plan_id":"cebpf4jnsgd1na2vs0mg"},{"bike_id":"6e6cde16-3c27-47dc-883f-eeb1ab424d27","system_id":"levelo_inurba_marseille","lat":43.27202,"lon":5.39181,"is_reserved":false,"is_disabled":false,"rental_uris":{"android":"levelo://app?vid=6e6cde16-3c27-47dc-883f-eeb1ab424d27","ios":"levelo://app?vid=6e6cde16-3c27-47dc-883f-eeb1ab424d27"},"vehicle_type_id":"4","last_reported":1746969464,"current_range_meters":7200,"station_id":"ce4bhhp2rcd13ifvqfm0","pricing_plan_id":"cebpf4jnsgd1na2vs0mg"},{"bike_id":"e9ff74fd-25f7-4eb7-b2d3-93563e7d9f73","system_id":"levelo_inurba_marseille","lat":43.26942,"lon":5.38914,"is_reserved":false,"is_disabled":false,"rental_uris":{"android":"levelo://app?vid=e9ff74fd-25f7-4eb7-b2d3-93563e7d9f73","ios":"levelo://app?vid=e9ff74fd-25f7-4eb7-b2d3-93563e7d9f73"},"vehicle_type_id":"4","last_reported":1746969464,"current_range_meters":8000,"station_id":"ce4bhhh2rcd13ifvqfl0","pricing_plan_id":"cebpf4jnsgd1na2vs0mg"},{"bike_id":"d897ae5a-305a-4dfe-9639-e8ab90ae791e","system_id":"levelo_inurba_marseille","lat":43.23149,"lon":5.43709,"is_reserved":false,"is_disabled":false,"rental_uris":{"android":"levelo://app?vid=d897ae5a-305a-4dfe-9639-e8ab90ae791e","ios":"levelo://app?vid=d897ae5a-305a-4dfe-9639-e8ab90ae791e"},"vehicle_type_id":"4","last_reported":1746969464,"current_range_meters":8000,"station_id":"ce4bhmp2rcd13ifvqgog","pricing_plan_id":"cebpf4jnsgd1na2vs0mg"},{"bike_id":"90699213-8274-436f-bb67-aab198828d40","system_id":"levelo_inurba_marseille","lat":43.32338,"lon":5.4063,"is_reserved":false,"is_disabled":false,"rental_uris":{"android":"levelo://app?vid=90699213-8274-436f-bb67-aab198828d40","ios":"levelo://app?vid=90699213-8274-436f-bb67-aab198828d40"},"vehicle_type_id":"4","last_reported":1746969464,"current_range_meters":8000,"station_id":"ce4bhq92rcd13ifvqhjg","pricing_plan_id":"cebpf4jnsgd1na2vs0mg"},{"bike_id":"04c1226f-faa4-4a45-b805-4b9bcac57fa8","system_id":"levelo_inurba_marseille","lat":43.29274,"lon":5.39117,"is_reserved":false,"is_disabled":false,"rental_uris":{"android":"levelo://app?vid=04c1226f-faa4-4a45-b805-4b9bcac57fa8","ios":"levelo://app?vid=04c1226f-faa4-4a45-b805-4b9bcac57fa8"},"vehicle_type_id":"4","last_reported":1746969464,"current_range_meters":8400,"station_id":"","pricing_plan_id":"cebpf4jnsgd1na2vs0mg"},{"bike_id":"ba92aa2b-e215-4b9d-96cd-4ce87723f5e1","system_id":"levelo_inurba_marseille","lat":43.27373,"lon":5.36258,"is_reserved":false,"is_disabled":false,"rental_uris":{"android":"levelo://app?vid=ba92aa2b-e215-4b9d-96cd-4ce87723f5e1","ios":"levelo://app?vid=ba92aa2b-e215-4b9d-96cd-4ce87723f5e1"},"vehicle_type_id":"4","last_reported":1746969464,"current_range_meters":8400,"station_id":"ce4bhbh2rcd13ifvqeo0","pricing_plan_id":"cebpf4jnsgd1na2vs0mg"},{"bike_id":"c7b2c172-c868-409b-94b2-994d10fee645","system_id":"levelo_inurba_marseille","lat":43.26068,"lon":5.394,"is_reserved":false,"is_disabled":false,"rental_uris":{"android":"levelo://app?vid=c7b2c172-c868-409b-94b2-994d10fee645","ios":"levelo://app?vid=c7b2c172-c868-409b-94b2-994d10fee645"},"vehicle_type_id":"4","last_reported":1746969464,"current_range_meters":8400,"station_id":"ce4bhh92rcd13ifvqfj0","pricing_plan_id":"cebpf4jnsgd1na2vs0mg"},{"bike_id":"ed2ee6fd-6ade-47b3-88bd-ac0fe3fa400f","system_id":"levelo_inurba_marseille","lat":43.24166,"lon":5.39741,"is_reserved":false,"is_disabled":false,"rental_uris":{"android":"levelo://app?vid=ed2ee6fd-6ade-47b3-88bd-ac0fe3fa400f","ios":"levelo://app?vid=ed2ee6fd-6ade-47b3-88bd-ac0fe3fa400f"},"vehicle_type_id":"4","last_reported":1746969464,"current_range_meters":8400,"station_id":"ce4bhn12rcd13ifvqgpg","pricing_plan_id":"cebpf4jnsgd1na2vs0mg"},{"bike_id":"7bf0c1bc-a224-4e74-9e57-e6f6d4679611","system_id":"levelo_inurba_marseille","lat":43.28621,"lon":5.35101,"is_reserved":false,"is_disabled":false,"rental_uris":{"android":"levelo://app?vid=7bf0c1bc-a224-4e74-9e57-e6f6d4679611","ios":"levelo://app?vid=7bf0c1bc-a224-4e74-9e57-e6f6d4679611"},"vehicle_type_id":"4","last_reported":1746969464,"current_range_meters":9200,"station_id":"ce4bhch2rcd13ifvqeug","pricing_plan_id":"cebpf4jnsgd1na2vs0mg"},{"bike_id":"091b2495-8506-43b4-b374-57e577b837c4","system_id":"levelo_inurba_marseille","lat":43.25144,"lon":5.40336,"is_reserved":false,"is_disabled":false,"rental_uris":{"android":"levelo://app?vid=091b2495-8506-43b4-b374-57e577b837c4","ios":"levelo://app?vid=091b2495-8506-43b4-b374-57e577b837c4"},"vehicle_type_id":"4","last_reported":1746969464,"current_range_meters":9200,"station_id":"ce4bhlh2rcd13ifvqgig","pricing_plan_id":"cebpf4jnsgd1na2vs0mg"},{"bike_id":"24a40667-661d-4b2a-b265-049a415d871e","system_id":"levelo_inurba_marseille","lat":43.21187,"lon":5.35093,"is_reserved":false,"is_disabled":false,"rental_uris":{"android":"levelo://app?vid=24a40667-661d-4b2a-b265-049a415d871e","ios":"levelo://app?vid=24a40667-661d-4b2a-b265-049a415d871e"},"vehicle_type_id":"4","last_reported":1746969464,"current_range_meters":9200,"station_id":"st_cvj6sg6p6f1abm77japg","pricing_plan_id":"cebpf4jnsgd1na2vs0mg"},{"bike_id":"fc2577e7-1497-425b-9d4f-ab8d7dc843c6","system_id":"levelo_inurba_marseille","lat":43.33771,"lon":5.37485,"is_reserved":false,"is_disabled":false,"rental_uris":{"android":"levelo://app?vid=fc2577e7-1497-425b-9d4f-ab8d7dc843c6","ios":"levelo://app?vid=fc2577e7-1497-425b-9d4f-ab8d7dc843c6"},"vehicle_type_id":"4","last_reported":1746969464,"current_range_meters":10000,"station_id":"","pricing_plan_id":"cebpf4jnsgd1na2vs0mg"},{"bike_id":"7fc9c4dc-db5a-4098-a92c-747ab31c39d2","system_id":"levelo_inurba_marseille","lat":43.28849,"lon":5.39299,"is_reserved":false,"is_disabled":false,"rental_uris":{"android":"levelo://app?vid=7fc9c4dc-db5a-4098-a92c-747ab31c39d2","ios":"levelo://app?vid=7fc9c4dc-db5a-4098-a92c-747ab31c39d2"},"vehicle_type_id":"4","last_reported":1746969464,"current_range_meters":10000,"station_id":"ce4bh2p2rcd13ifvqdi0","pricing_plan_id":"cebpf4jnsgd1na2vs0mg"},{"bike_id":"373af2a9-02ea-46a9-bee0-62db936fdf3a","system_id":"levelo_inurba_marseille","lat":43.30577,"lon":5.36524,"is_reserved":false,"is_disabled":false,"rental_uris":{"android":"levelo://app?vid=373af2a9-02ea-46a9-bee0-62db936fdf3a","ios":"levelo://app?vid=373af2a9-02ea-46a9-bee0-62db936fdf3a"},"vehicle_type_id":"4","last_reported":1746969464,"current_range_meters":10800,"station_id":"ce4bgs12rcd13ifvqcag","pricing_plan_id":"cebpf4jnsgd1na2vs0mg"},{"bike_id":"d83b7170-8eed-47c1-b0ec-1140d3a45dea","system_id":"levelo_inurba_marseille","lat":43.308112,"lon":5.435292,"is_reserved":false,"is_disabled":false,"rental_uris":{"android":"levelo://app?vid=d83b7170-8eed-47c1-b0ec-1140d3a45dea","ios":"levelo://app?vid=d83b7170-8eed-47c1-b0ec-1140d3a45dea"},"vehicle_type_id":"4","last_reported":1746969464,"current_range_meters":11600,"station_id":"ce4bhph2rcd13ifvqheg","pricing_plan_id":"cebpf4jnsgd1na2vs0mg"},{"bike_id":"a1121b36-b5cd-4dda-96ef-13a3dfaa55e1","system_id":"levelo_inurba_marseille","lat":43.301401,"lon":5.387791,"is_reserved":false,"is_disabled":false,"rental_uris":{"android":"levelo://app?vid=a1121b36-b5cd-4dda-96ef-13a3dfaa55e1","ios":"levelo://app?vid=a1121b36-b5cd-4dda-96ef-13a3dfaa55e1"},"vehicle_type_id":"4","last_reported":1746969464,"current_range_meters":12000,"station_id":"","pricing_plan_id":"cebpf4jnsgd1na2vs0mg"},{"bike_id":"b03d973a-294f-48ce-86a1-c77f306d028c","system_id":"levelo_inurba_marseille","lat":43.307878,"lon":5.376322,"is_reserved":false,"is_disabled":false,"rental_uris":{"android":"levelo://app?vid=b03d973a-294f-48ce-86a1-c77f306d028c","ios":"levelo://app?vid=b03d973a-294f-48ce-86a1-c77f306d028c"},"vehicle_type_id":"4","last_reported":1746969464,"current_range_meters":12000,"station_id":"ce4bgpp2rcd13ifvqc3g","pricing_plan_id":"cebpf4jnsgd1na2vs0mg"},{"bike_id":"ad49afff-d03a-4111-83b1-9cb14048738c","system_id":"levelo_inurba_marseille","lat":43.26198,"lon":5.37444,"is_reserved":false,"is_disabled":false,"rental_uris":{"android":"levelo://app?vid=ad49afff-d03a-4111-83b1-9cb14048738c","ios":"levelo://app?vid=ad49afff-d03a-4111-83b1-9cb14048738c"},"vehicle_type_id":"4","last_reported":1746969464,"current_range_meters":12000,"station_id":"ce4bhgp2rcd13ifvqfc0","pricing_plan_id":"cebpf4jnsgd1na2vs0mg"},{"bike_id":"efc0a0d5-a353-4db4-9aad-8fb20bd2a998","system_id":"levelo_inurba_marseille","lat":43.2573,"lon":5.41108,"is_reserved":false,"is_disabled":false,"rental_uris":{"android":"levelo://app?vid=efc0a0d5-a353-4db4-9aad-8fb20bd2a998","ios":"levelo://app?vid=efc0a0d5-a353-4db4-9aad-8fb20bd2a998"},"vehicle_type_id":"4","last_reported":1746969464,"current_range_meters":12000,"station_id":"ce4bhkp2rcd13ifvqgd0","pricing_plan_id":"cebpf4jnsgd1na2vs0mg"},{"bike_id":"cbe5e661-c3e6-4a61-bcb7-bf5eab36baff","system_id":"levelo_inurba_marseille","lat":43.3032,"lon":5.40431,"is_reserved":false,"is_disabled":false,"rental_uris":{"android":"levelo://app?vid=cbe5e661-c3e6-4a61-bcb7-bf5eab36baff","ios":"levelo://app?vid=cbe5e661-c3e6-4a61-bcb7-bf5eab36baff"},"vehicle_type_id":"4","last_reported":1746969464,"current_range_meters":12400,"station_id":"ce4bh012rcd13ifvqd10","pricing_plan_id":"cebpf4jnsgd1na2vs0mg"},{"bike_id":"b87af031-e2b9-4387-acac-c6df9dd52f59","system_id":"levelo_inurba_marseille","lat":43.290435,"lon":5.375763,"is_reserved":false,"is_disabled":false,"rental_uris":{"android":"levelo://app?vid=b87af031-e2b9-4387-acac-c6df9dd52f59","ios":"levelo://app?vid=b87af031-e2b9-4387-acac-c6df9dd52f59"},"vehicle_type_id":"4","last_reported":1746969464,"current_range_meters":12400,"station_id":"ce4bh692rcd13ifvqe90","pricing_plan_id":"cebpf4jnsgd1na2vs0mg"},{"bike_id":"084d9854-57e1-4e3d-b816-1cc98ef6369f","system_id":"levelo_inurba_marseille","lat":43.26562,"lon":5.37281,"is_reserved":false,"is_disabled":false,"rental_uris":{"android":"levelo://app?vid=084d9854-57e1-4e3d-b816-1cc98ef6369f","ios":"levelo://app?vid=084d9854-57e1-4e3d-b816-1cc98ef6369f"},"vehicle_type_id":"4","last_reported":1746969464,"current_range_meters":12400,"station_id":"ce4bhg12rcd13ifvqf70","pricing_plan_id":"cebpf4jnsgd1na2vs0mg"},{"bike_id":"9086a547-f8a3-47a2-a7ce-48620a88254c","system_id":"levelo_inurba_marseille","lat":43.317106,"lon":5.437039,"is_reserved":false,"is_disabled":false,"rental_uris":{"android":"levelo://app?vid=9086a547-f8a3-47a2-a7ce-48620a88254c","ios":"levelo://app?vid=9086a547-f8a3-47a2-a7ce-48620a88254c"},"vehicle_type_id":"4","last_reported":1746969464,"current_range_meters":12400,"station_id":"ce4bhp92rcd13ifvqhcg","pricing_plan_id":"cebpf4jnsgd1na2vs0mg"},{"bike_id":"26ef6a94-542c-403b-a0b5-efc65a2d73d2","system_id":"levelo_inurba_marseille","lat":43.3189,"lon":5.40736,"is_reserved":false,"is_disabled":false,"rental_uris":{"android":"levelo://app?vid=26ef6a94-542c-403b-a0b5-efc65a2d73d2","ios":"levelo://app?vid=26ef6a94-542c-403b-a0b5-efc65a2d73d2"},"vehicle_type_id":"4","last_reported":1746969464,"current_range_meters":12400,"station_id":"ce4bhq12rcd13ifvqhig","pricing_plan_id":"cebpf4jnsgd1na2vs0mg"},{"bike_id":"3691c980-f5c0-4500-9ae5-f84d3b22b112","system_id":"levelo_inurba_marseille","lat":43.33027,"lon":5.39038,"is_reserved":false,"is_disabled":false,"rental_uris":{"android":"levelo://app?vid=3691c980-f5c0-4500-9ae5-f84d3b22b112","ios":"levelo://app?vid=3691c980-f5c0-4500-9ae5-f84d3b22b112"},"vehicle_type_id":"4","last_reported":1746969464,"current_range_meters":12400,"station_id":"ce4bhr92rcd13ifvqhrg","pricing_plan_id":"cebpf4jnsgd1na2vs0mg"},{"bike_id":"4b1d3cd9-9d1d-4f4d-9d7d-640eed242da7","system_id":"levelo_inurba_marseille","lat":43.29271,"lon":5.36847,"is_reserved":false,"is_disabled":false,"rental_uris":{"android":"levelo://app?vid=4b1d3cd9-9d1d-4f4d-9d7d-640eed242da7","ios":"levelo://app?vid=4b1d3cd9-9d1d-4f4d-9d7d-640eed242da7"},"vehicle_type_id":"4","last_reported":1746969464,"current_range_meters":14000,"station_id":"ce4bhbp2rcd13ifvqesg","pricing_plan_id":"cebpf4jnsgd1na2vs0mg"},{"bike_id":"3e89ec98-4dc0-47d6-98d5-e2482abd8e99","system_id":"levelo_inurba_marseille","lat":43.31691,"lon":5.40425,"is_reserved":false,"is_disabled":false,"rental_uris":{"android":"levelo://app?vid=3e89ec98-4dc0-47d6-98d5-e2482abd8e99","ios":"levelo://app?vid=3e89ec98-4dc0-47d6-98d5-e2482abd8e99"},"vehicle_type_id":"4","last_reported":1746969464,"current_range_meters":14400,"station_id":"ce4bh012rcd13ifvqd00","pricing_plan_id":"cebpf4jnsgd1na2vs0mg"},{"bike_id":"23a9280e-b4dc-429c-8b0e-977c8aee8e37","system_id":"levelo_inurba_marseille","lat":43.287,"lon":5.37394,"is_reserved":false,"is_disabled":false,"rental_uris":{"android":"levelo://app?vid=23a9280e-b4dc-429c-8b0e-977c8aee8e37","ios":"levelo://app?vid=23a9280e-b4dc-429c-8b0e-977c8aee8e37"},"vehicle_type_id":"4","last_reported":1746969464,"current_range_meters":14400,"station_id":"ce4bh3p2rcd13ifvqdq0","pricing_plan_id":"cebpf4jnsgd1na2vs0mg"},{"bike_id":"c13cbb12-74dd-4816-95dd-8d316156432c","system_id":"levelo_inurba_marseille","lat":43.26562,"lon":5.37281,"is_reserved":false,"is_disabled":false,"rental_uris":{"android":"levelo://app?vid=c13cbb12-74dd-4816-95dd-8d316156432c","ios":"levelo://app?vid=c13cbb12-74dd-4816-95dd-8d316156432c"},"vehicle_type_id":"4","last_reported":1746969464,"current_range_meters":14400,"station_id":"ce4bhg12rcd13ifvqf70","pricing_plan_id":"cebpf4jnsgd1na2vs0mg"},{"bike_id":"107122ea-6833-49a8-a726-be25ffc5353c","system_id":"levelo_inurba_marseille","lat":43.2622,"lon":5.40466,"is_reserved":false,"is_disabled":false,"rental_uris":{"android":"levelo://app?vid=107122ea-6833-49a8-a726-be25ffc5353c","ios":"levelo://app?vid=107122ea-6833-49a8-a726-be25ffc5353c"},"vehicle_type_id":"4","last_reported":1746969464,"current_range_meters":14400,"station_id":"ce4bhmh2rcd13ifvqgmg","pricing_plan_id":"cebpf4jnsgd1na2vs0mg"},{"bike_id":"9a449d44-e2c1-4137-9bbd-e4d897a4c9fe","system_id":"levelo_inurba_marseille","lat":43.3053,"lon":5.36536,"is_reserved":false,"is_disabled":false,"rental_uris":{"android":"levelo://app?vid=9a449d44-e2c1-4137-9bbd-e4d897a4c9fe","ios":"levelo://app?vid=9a449d44-e2c1-4137-9bbd-e4d897a4c9fe"},"vehicle_type_id":"4","last_reported":1746969464,"current_range_meters":14800,"station_id":"ce4bgs12rcd13ifvqcag","pricing_plan_id":"cebpf4jnsgd1na2vs0mg"},{"bike_id":"f52c819d-ca4b-4640-b458-b877db1bf990","system_id":"levelo_inurba_marseille","lat":43.298651,"lon":5.410129,"is_reserved":false,"is_disabled":false,"rental_uris":{"android":"levelo://app?vid=f52c819d-ca4b-4640-b458-b877db1bf990","ios":"levelo://app?vid=f52c819d-ca4b-4640-b458-b877db1bf990"},"vehicle_type_id":"4","last_reported":1746969464,"current_range_meters":15200,"station_id":"","pricing_plan_id":"cebpf4jnsgd1na2vs0mg"},{"bike_id":"75de0b39-95c8-48a4-b129-a8b3b0b58b2b","system_id":"levelo_inurba_marseille","lat":43.28616,"lon":5.35104,"is_reserved":false,"is_disabled":false,"rental_uris":{"android":"levelo://app?vid=75de0b39-95c8-48a4-b129-a8b3b0b58b2b","ios":"levelo://app?vid=75de0b39-95c8-48a4-b129-a8b3b0b58b2b"},"vehicle_type_id":"4","last_reported":1746969464,"current_range_meters":15200,"station_id":"ce4bhch2rcd13ifvqeug","pricing_plan_id":"cebpf4jnsgd1na2vs0mg"},{"bike_id":"fe8a300c-df4c-42e1-b092-cce77e5975ce","system_id":"levelo_inurba_marseille","lat":43.2573,"lon":5.41107,"is_reserved":false,"is_disabled":false,"rental_uris":{"android":"levelo://app?vid=fe8a300c-df4c-42e1-b092-cce77e5975ce","ios":"levelo://app?vid=fe8a300c-df4c-42e1-b092-cce77e5975ce"},"vehicle_type_id":"4","last_reported":1746969464,"current_range_meters":15200,"station_id":"ce4bhkp2rcd13ifvqgd0","pricing_plan_id":"cebpf4jnsgd1na2vs0mg"},{"bike_id":"7162d1ee-ae7c-45b6-bbf4-462c94a7bd85","system_id":"levelo_inurba_marseille","lat":43.284387,"lon":5.375144,"is_reserved":false,"is_disabled":false,"rental_uris":{"android":"levelo://app?vid=7162d1ee-ae7c-45b6-bbf4-462c94a7bd85","ios":"levelo://app?vid=7162d1ee-ae7c-45b6-bbf4-462c94a7bd85"},"vehicle_type_id":"4","last_reported":1746969464,"current_range_meters":16000,"station_id":"","pricing_plan_id":"cebpf4jnsgd1na2vs0mg"},{"bike_id":"0e9a568c-80c5-46e1-a46b-20fbbee38704","system_id":"levelo_inurba_marseille","lat":43.29205,"lon":5.40031,"is_reserved":false,"is_disabled":false,"rental_uris":{"android":"levelo://app?vid=0e9a568c-80c5-46e1-a46b-20fbbee38704","ios":"levelo://app?vid=0e9a568c-80c5-46e1-a46b-20fbbee38704"},"vehicle_type_id":"4","last_reported":1746969464,"current_range_meters":16000,"station_id":"","pricing_plan_id":"cebpf4jnsgd1na2vs0mg"},{"bike_id":"c37ca2b1-69dc-46e9-94be-7c01aebc93d5","system_id":"levelo_inurba_marseille","lat":43.30277,"lon":5.36665,"is_reserved":false,"is_disabled":false,"rental_uris":{"android":"levelo://app?vid=c37ca2b1-69dc-46e9-94be-7c01aebc93d5","ios":"levelo://app?vid=c37ca2b1-69dc-46e9-94be-7c01aebc93d5"},"vehicle_type_id":"4","last_reported":1746969464,"current_range_meters":16800,"station_id":"","pricing_plan_id":"cebpf4jnsgd1na2vs0mg"},{"bike_id":"a3cfbeb5-0ed1-4c8e-8d1d-c9603b834a27","system_id":"levelo_inurba_marseille","lat":43.322704,"lon":5.406494,"is_reserved":false,"is_disabled":false,"rental_uris":{"android":"levelo://app?vid=a3cfbeb5-0ed1-4c8e-8d1d-c9603b834a27","ios":"levelo://app?vid=a3cfbeb5-0ed1-4c8e-8d1d-c9603b834a27"},"vehicle_type_id":"4","last_reported":1746969464,"current_range_meters":16800,"station_id":"","pricing_plan_id":"cebpf4jnsgd1na2vs0mg"},{"bike_id":"e384f6c9-cbe3-498a-a272-dd5e1faee80f","system_id":"levelo_inurba_marseille","lat":43.24066,"lon":5.37767,"is_reserved":false,"is_disabled":false,"rental_uris":{"android":"levelo://app?vid=e384f6c9-cbe3-498a-a272-dd5e1faee80f","ios":"levelo://app?vid=e384f6c9-cbe3-498a-a272-dd5e1faee80f"},"vehicle_type_id":"4","last_reported":1746969464,"current_range_meters":16800,"station_id":"ce4bhnp2rcd13ifvqgvg","pricing_plan_id":"cebpf4jnsgd1na2vs0mg"},{"bike_id":"4cf4ecd3-c607-4df5-ae4e-a1c0497bd65b","system_id":"levelo_inurba_marseille","lat":43.29268,"lon":5.38444,"is_reserved":false,"is_disabled":false,"rental_uris":{"android":"levelo://app?vid=4cf4ecd3-c607-4df5-ae4e-a1c0497bd65b","ios":"levelo://app?vid=4cf4ecd3-c607-4df5-ae4e-a1c0497bd65b"},"vehicle_type_id":"4","last_reported":1746969464,"current_range_meters":17200,"station_id":"ce4bh692rcd13ifvqea0","pricing_plan_id":"cebpf4jnsgd1na2vs0mg"},{"bike_id":"2d1d434f-7a3a-4330-92a0-dc26e69910fe","system_id":"levelo_inurba_marseille","lat":43.2705,"lon":5.40257,"is_reserved":false,"is_disabled":false,"rental_uris":{"android":"levelo://app?vid=2d1d434f-7a3a-4330-92a0-dc26e69910fe","ios":"levelo://app?vid=2d1d434f-7a3a-4330-92a0-dc26e69910fe"},"vehicle_type_id":"4","last_reported":1746969464,"current_range_meters":17200,"station_id":"ce4bhk92rcd13ifvqgc0","pricing_plan_id":"cebpf4jnsgd1na2vs0mg"},{"bike_id":"2fa6eff1-f15a-4dcf-ad73-5fcb89a4a9b6","system_id":"levelo_inurba_marseille","lat":43.29525,"lon":5.39046,"is_reserved":false,"is_disabled":false,"rental_uris":{"android":"levelo://app?vid=2fa6eff1-f15a-4dcf-ad73-5fcb89a4a9b6","ios":"levelo://app?vid=2fa6eff1-f15a-4dcf-ad73-5fcb89a4a9b6"},"vehicle_type_id":"4","last_reported":1746969464,"current_range_meters":17600,"station_id":"ce4bh3p2rcd13ifvqdp0","pricing_plan_id":"cebpf4jnsgd1na2vs0mg"},{"bike_id":"83a5dddc-f08f-476e-a316-d0e0dfb65037","system_id":"levelo_inurba_marseille","lat":43.31735,"lon":5.42423,"is_reserved":false,"is_disabled":false,"rental_uris":{"android":"levelo://app?vid=83a5dddc-f08f-476e-a316-d0e0dfb65037","ios":"levelo://app?vid=83a5dddc-f08f-476e-a316-d0e0dfb65037"},"vehicle_type_id":"4","last_reported":1746969464,"current_range_meters":17600,"station_id":"ce4bhp92rcd13ifvqhbg","pricing_plan_id":"cebpf4jnsgd1na2vs0mg"},{"bike_id":"b690fd5d-cc39-4354-b447-67201705df29","system_id":"levelo_inurba_marseille","lat":43.21191,"lon":5.35072,"is_reserved":false,"is_disabled":false,"rental_uris":{"android":"levelo://app?vid=b690fd5d-cc39-4354-b447-67201705df29","ios":"levelo://app?vid=b690fd5d-cc39-4354-b447-67201705df29"},"vehicle_type_id":"4","last_reported":1746969464,"current_range_meters":17600,"station_id":"st_cvj6sg6p6f1abm77japg","pricing_plan_id":"cebpf4jnsgd1na2vs0mg"},{"bike_id":"d740be2a-867c-42f0-893b-a550f7411c44","system_id":"levelo_inurba_marseille","lat":43.30344,"lon":5.40444,"is_reserved":false,"is_disabled":false,"rental_uris":{"android":"levelo://app?vid=d740be2a-867c-42f0-893b-a550f7411c44","ios":"levelo://app?vid=d740be2a-867c-42f0-893b-a550f7411c44"},"vehicle_type_id":"4","last_reported":1746969464,"current_range_meters":18000,"station_id":"ce4bh012rcd13ifvqd10","pricing_plan_id":"cebpf4jnsgd1na2vs0mg"},{"bike_id":"b6f0504a-f7d7-4a97-b810-e7c9e7b1c671","system_id":"levelo_inurba_marseille","lat":43.27919,"lon":5.41216,"is_reserved":false,"is_disabled":false,"rental_uris":{"android":"levelo://app?vid=b6f0504a-f7d7-4a97-b810-e7c9e7b1c671","ios":"levelo://app?vid=b6f0504a-f7d7-4a97-b810-e7c9e7b1c671"},"vehicle_type_id":"4","last_reported":1746969464,"current_range_meters":18800,"station_id":"","pricing_plan_id":"cebpf4jnsgd1na2vs0mg"},{"bike_id":"36a5c11b-0cfd-4fde-ba39-eeadc35dedb1","system_id":"levelo_inurba_marseille","lat":43.25114,"lon":5.40324,"is_reserved":false,"is_disabled":false,"rental_uris":{"android":"levelo://app?vid=36a5c11b-0cfd-4fde-ba39-eeadc35dedb1","ios":"levelo://app?vid=36a5c11b-0cfd-4fde-ba39-eeadc35dedb1"},"vehicle_type_id":"4","last_reported":1746969464,"current_range_meters":18800,"station_id":"ce4bhlh2rcd13ifvqgig","pricing_plan_id":"cebpf4jnsgd1na2vs0mg"},{"bike_id":"38bc3caf-c321-4107-a67e-0091289aa092","system_id":"levelo_inurba_marseille","lat":43.27809,"lon":5.40721,"is_reserved":false,"is_disabled":false,"rental_uris":{"android":"levelo://app?vid=38bc3caf-c321-4107-a67e-0091289aa092","ios":"levelo://app?vid=38bc3caf-c321-4107-a67e-0091289aa092"},"vehicle_type_id":"4","last_reported":1746969464,"current_range_meters":18800,"station_id":"ce4bhnh2rcd13ifvqgtg","pricing_plan_id":"cebpf4jnsgd1na2vs0mg"},{"bike_id":"395bf3fb-f048-4a74-afbe-e9fb0235e768","system_id":"levelo_inurba_marseille","lat":43.31299,"lon":5.37593,"is_reserved":false,"is_disabled":false,"rental_uris":{"android":"levelo://app?vid=395bf3fb-f048-4a74-afbe-e9fb0235e768","ios":"levelo://app?vid=395bf3fb-f048-4a74-afbe-e9fb0235e768"},"vehicle_type_id":"4","last_reported":1746969464,"current_range_meters":19200,"station_id":"","pricing_plan_id":"cebpf4jnsgd1na2vs0mg"},{"bike_id":"923bc3c8-9653-42f6-ab2d-a12cb585d499","system_id":"levelo_inurba_marseille","lat":43.29445,"lon":5.38691,"is_reserved":false,"is_disabled":false,"rental_uris":{"android":"levelo://app?vid=923bc3c8-9653-42f6-ab2d-a12cb585d499","ios":"levelo://app?vid=923bc3c8-9653-42f6-ab2d-a12cb585d499"},"vehicle_type_id":"4","last_reported":1746969464,"current_range_meters":19200,"station_id":"","pricing_plan_id":"cebpf4jnsgd1na2vs0mg"},{"bike_id":"83ed56d0-22db-4ad2-86de-988581bcdefa","system_id":"levelo_inurba_marseille","lat":43.25875,"lon":5.39923,"is_reserved":false,"is_disabled":false,"rental_uris":{"android":"levelo://app?vid=83ed56d0-22db-4ad2-86de-988581bcdefa","ios":"levelo://app?vid=83ed56d0-22db-4ad2-86de-988581bcdefa"},"vehicle_type_id":"4","last_reported":1746969464,"current_range_meters":19200,"station_id":"ce4bhl92rcd13ifvqghg","pricing_plan_id":"cebpf4jnsgd1na2vs0mg"},{"bike_id":"b11766cb-22b8-431e-9cb2-16a7d2e68527","system_id":"levelo_inurba_marseille","lat":43.27988,"lon":5.41661,"is_reserved":false,"is_disabled":false,"rental_uris":{"android":"levelo://app?vid=b11766cb-22b8-431e-9cb2-16a7d2e68527","ios":"levelo://app?vid=b11766cb-22b8-431e-9cb2-16a7d2e68527"},"vehicle_type_id":"4","last_reported":1746969464,"current_range_meters":19200,"station_id":"ce4bho12rcd13ifvqh1g","pricing_plan_id":"cebpf4jnsgd1na2vs0mg"},{"bike_id":"2a2e92a8-9be2-42a0-8f8b-e8c99ed20b3a","system_id":"levelo_inurba_marseille","lat":43.23156,"lon":5.39926,"is_reserved":false,"is_disabled":false,"rental_uris":{"android":"levelo://app?vid=2a2e92a8-9be2-42a0-8f8b-e8c99ed20b3a","ios":"levelo://app?vid=2a2e92a8-9be2-42a0-8f8b-e8c99ed20b3a"},"vehicle_type_id":"4","last_reported":1746969464,"current_range_meters":19600,"station_id":"","pricing_plan_id":"cebpf4jnsgd1na2vs0mg"},{"bike_id":"75cc06aa-cb7f-4e5d-9d48-741efbb7acc7","system_id":"levelo_inurba_marseille","lat":43.32333,"lon":5.40645,"is_reserved":false,"is_disabled":false,"rental_uris":{"android":"levelo://app?vid=75cc06aa-cb7f-4e5d-9d48-741efbb7acc7","ios":"levelo://app?vid=75cc06aa-cb7f-4e5d-9d48-741efbb7acc7"},"vehicle_type_id":"4","last_reported":1746969464,"current_range_meters":19600,"station_id":"ce4bhq92rcd13ifvqhjg","pricing_plan_id":"cebpf4jnsgd1na2vs0mg"},{"bike_id":"2da1674f-49ff-46a0-98eb-4248a5ed1897","system_id":"levelo_inurba_marseille","lat":43.32353,"lon":5.36756,"is_reserved":false,"is_disabled":false,"rental_uris":{"android":"levelo://app?vid=2da1674f-49ff-46a0-98eb-4248a5ed1897","ios":"levelo://app?vid=2da1674f-49ff-46a0-98eb-4248a5ed1897"},"vehicle_type_id":"4","last_reported":1746969464,"current_range_meters":19600,"station_id":"ce4bhsh2rcd13ifvqi2g","pricing_plan_id":"cebpf4jnsgd1na2vs0mg"},{"bike_id":"901d25d5-e0a4-4b9d-9519-beabbed3efe8","system_id":"levelo_inurba_marseille","lat":43.21198,"lon":5.35072,"is_reserved":false,"is_disabled":false,"rental_uris":{"android":"levelo://app?vid=901d25d5-e0a4-4b9d-9519-beabbed3efe8","ios":"levelo://app?vid=901d25d5-e0a4-4b9d-9519-beabbed3efe8"},"vehicle_type_id":"4","last_reported":1746969464,"current_range_meters":19600,"station_id":"st_cvj6sg6p6f1abm77japg","pricing_plan_id":"cebpf4jnsgd1na2vs0mg"},{"bike_id":"aca142bd-2716-4ee3-8c04-bd27c952c647","system_id":"levelo_inurba_marseille","lat":43.264584,"lon":5.374951,"is_reserved":false,"is_disabled":false,"rental_uris":{"android":"levelo://app?vid=aca142bd-2716-4ee3-8c04-bd27c952c647","ios":"levelo://app?vid=aca142bd-2716-4ee3-8c04-bd27c952c647"},"vehicle_type_id":"4","last_reported":1746969464,"current_range_meters":20000,"station_id":"","pricing_plan_id":"cebpf4jnsgd1na2vs0mg"},{"bike_id":"b07bfc09-4ee4-480d-951d-bf310d1d8d6c","system_id":"levelo_inurba_marseille","lat":43.32149,"lon":5.38473,"is_reserved":false,"is_disabled":false,"rental_uris":{"android":"levelo://app?vid=b07bfc09-4ee4-480d-951d-bf310d1d8d6c","ios":"levelo://app?vid=b07bfc09-4ee4-480d-951d-bf310d1d8d6c"},"vehicle_type_id":"4","last_reported":1746969464,"current_range_meters":20000,"station_id":"","pricing_plan_id":"cebpf4jnsgd1na2vs0mg"},{"bike_id":"8843f52c-45f0-4346-a281-c080f0468998","system_id":"levelo_inurba_marseille","lat":43.299296,"lon":5.365406,"is_reserved":false,"is_disabled":false,"rental_uris":{"android":"levelo://app?vid=8843f52c-45f0-4346-a281-c080f0468998","ios":"levelo://app?vid=8843f52c-45f0-4346-a281-c080f0468998"},"vehicle_type_id":"4","last_reported":1746969464,"current_range_meters":20000,"station_id":"ce4bgm92rcd13ifvqbr0","pricing_plan_id":"cebpf4jnsgd1na2vs0mg"},{"bike_id":"c77dd33e-2190-4e48-9fba-7243a6e2ea2f","system_id":"levelo_inurba_marseille","lat":43.24067,"lon":5.3774,"is_reserved":false,"is_disabled":false,"rental_uris":{"android":"levelo://app?vid=c77dd33e-2190-4e48-9fba-7243a6e2ea2f","ios":"levelo://app?vid=c77dd33e-2190-4e48-9fba-7243a6e2ea2f"},"vehicle_type_id":"4","last_reported":1746969464,"current_range_meters":20400,"station_id":"ce4bhnp2rcd13ifvqgvg","pricing_plan_id":"cebpf4jnsgd1na2vs0mg"},{"bike_id":"97eea31d-d650-4d69-8b1c-0402ce705e72","system_id":"levelo_inurba_marseille","lat":43.3234,"lon":5.40623,"is_reserved":false,"is_disabled":false,"rental_uris":{"android":"levelo://app?vid=97eea31d-d650-4d69-8b1c-0402ce705e72","ios":"levelo://app?vid=97eea31d-d650-4d69-8b1c-0402ce705e72"},"vehicle_type_id":"4","last_reported":1746969464,"current_range_meters":20400,"station_id":"ce4bhq92rcd13ifvqhjg","pricing_plan_id":"cebpf4jnsgd1na2vs0mg"},{"bike_id":"903870a4-0671-4511-8241-238838a5e0e3","system_id":"levelo_inurba_marseille","lat":43.30141,"lon":5.37416,"is_reserved":false,"is_disabled":false,"rental_uris":{"android":"levelo://app?vid=903870a4-0671-4511-8241-238838a5e0e3","ios":"levelo://app?vid=903870a4-0671-4511-8241-238838a5e0e3"},"vehicle_type_id":"4","last_reported":1746969464,"current_range_meters":20800,"station_id":"ce4bgs92rcd13ifvqcc0","pricing_plan_id":"cebpf4jnsgd1na2vs0mg"},{"bike_id":"a3cac922-e7a8-4783-90b9-077bb4b0f509","system_id":"levelo_inurba_marseille","lat":43.29281,"lon":5.40116,"is_reserved":false,"is_disabled":false,"rental_uris":{"android":"levelo://app?vid=a3cac922-e7a8-4783-90b9-077bb4b0f509","ios":"levelo://app?vid=a3cac922-e7a8-4783-90b9-077bb4b0f509"},"vehicle_type_id":"4","last_reported":1746969464,"current_range_meters":20800,"station_id":"ce4bh312rcd13ifvqdk0","pricing_plan_id":"cebpf4jnsgd1na2vs0mg"},{"bike_id":"3b19c3f2-6859-4a32-883d-4c07f0fd947c","system_id":"levelo_inurba_marseille","lat":43.30833,"lon":5.37172,"is_reserved":false,"is_disabled":false,"rental_uris":{"android":"levelo://app?vid=3b19c3f2-6859-4a32-883d-4c07f0fd947c","ios":"levelo://app?vid=3b19c3f2-6859-4a32-883d-4c07f0fd947c"},"vehicle_type_id":"4","last_reported":1746969464,"current_range_meters":21600,"station_id":"","pricing_plan_id":"cebpf4jnsgd1na2vs0mg"},{"bike_id":"7a6ed785-f117-4cc7-9784-cccccec64d0b","system_id":"levelo_inurba_marseille","lat":43.30315,"lon":5.39215,"is_reserved":false,"is_disabled":false,"rental_uris":{"android":"levelo://app?vid=7a6ed785-f117-4cc7-9784-cccccec64d0b","ios":"levelo://app?vid=7a6ed785-f117-4cc7-9784-cccccec64d0b"},"vehicle_type_id":"4","last_reported":1746969464,"current_range_meters":21600,"station_id":"ce4bgkh2rcd13ifvqbk0","pricing_plan_id":"cebpf4jnsgd1na2vs0mg"},{"bike_id":"ae21bdbd-bed5-424c-9162-957dc49771b2","system_id":"levelo_inurba_marseille","lat":43.31711,"lon":5.37736,"is_reserved":false,"is_disabled":false,"rental_uris":{"android":"levelo://app?vid=ae21bdbd-bed5-424c-9162-957dc49771b2","ios":"levelo://app?vid=ae21bdbd-bed5-424c-9162-957dc49771b2"},"vehicle_type_id":"4","last_reported":1746969464,"current_range_meters":21600,"station_id":"ce4bgth2rcd13ifvqch0","pricing_plan_id":"cebpf4jnsgd1na2vs0mg"},{"bike_id":"a30caeef-10cc-433b-ab2e-0e5695eed2d1","system_id":"levelo_inurba_marseille","lat":43.295328,"lon":5.385393,"is_reserved":false,"is_disabled":false,"rental_uris":{"android":"levelo://app?vid=a30caeef-10cc-433b-ab2e-0e5695eed2d1","ios":"levelo://app?vid=a30caeef-10cc-433b-ab2e-0e5695eed2d1"},"vehicle_type_id":"4","last_reported":1746969464,"current_range_meters":22400,"station_id":"ce4bgih2rcd13ifvqba0","pricing_plan_id":"cebpf4jnsgd1na2vs0mg"},{"bike_id":"847d6692-e6d3-4857-ad02-806de247bacc","system_id":"levelo_inurba_marseille","lat":43.24377,"lon":5.37062,"is_reserved":false,"is_disabled":false,"rental_uris":{"android":"levelo://app?vid=847d6692-e6d3-4857-ad02-806de247bacc","ios":"levelo://app?vid=847d6692-e6d3-4857-ad02-806de247bacc"},"vehicle_type_id":"4","last_reported":1746969464,"current_range_meters":22400,"station_id":"ce4bhhh2rcd13ifvqfk0","pricing_plan_id":"cebpf4jnsgd1na2vs0mg"},{"bike_id":"cf96c7fb-c4cf-471a-9bde-df3142a2f178","system_id":"levelo_inurba_marseille","lat":43.25121,"lon":5.40346,"is_reserved":false,"is_disabled":false,"rental_uris":{"android":"levelo://app?vid=cf96c7fb-c4cf-471a-9bde-df3142a2f178","ios":"levelo://app?vid=cf96c7fb-c4cf-471a-9bde-df3142a2f178"},"vehicle_type_id":"4","last_reported":1746969464,"current_range_meters":22400,"station_id":"ce4bhlh2rcd13ifvqgig","pricing_plan_id":"cebpf4jnsgd1na2vs0mg"},{"bike_id":"55c209c7-d0f7-4c3b-b5ba-1c447e9c2f36","system_id":"levelo_inurba_marseille","lat":43.27991,"lon":5.41658,"is_reserved":false,"is_disabled":false,"rental_uris":{"android":"levelo://app?vid=55c209c7-d0f7-4c3b-b5ba-1c447e9c2f36","ios":"levelo://app?vid=55c209c7-d0f7-4c3b-b5ba-1c447e9c2f36"},"vehicle_type_id":"4","last_reported":1746969464,"current_range_meters":22400,"station_id":"ce4bho12rcd13ifvqh1g","pricing_plan_id":"cebpf4jnsgd1na2vs0mg"},{"bike_id":"14269fe1-60cd-4b6d-aac5-f248bc584035","system_id":"levelo_inurba_marseille","lat":43.30336,"lon":5.42489,"is_reserved":false,"is_disabled":false,"rental_uris":{"android":"levelo://app?vid=14269fe1-60cd-4b6d-aac5-f248bc584035","ios":"levelo://app?vid=14269fe1-60cd-4b6d-aac5-f248bc584035"},"vehicle_type_id":"4","last_reported":1746969464,"current_range_meters":22800,"station_id":"ce4bhoh2rcd13ifvqh6g","pricing_plan_id":"cebpf4jnsgd1na2vs0mg"},{"bike_id":"ec6f8fb4-b2fc-43ad-b49d-67b63c87be7d","system_id":"levelo_inurba_marseille","lat":43.28407,"lon":5.37506,"is_reserved":false,"is_disabled":false,"rental_uris":{"android":"levelo://app?vid=ec6f8fb4-b2fc-43ad-b49d-67b63c87be7d","ios":"levelo://app?vid=ec6f8fb4-b2fc-43ad-b49d-67b63c87be7d"},"vehicle_type_id":"4","last_reported":1746969464,"current_range_meters":23200,"station_id":"ce4bh412rcd13ifvqds0","pricing_plan_id":"cebpf4jnsgd1na2vs0mg"},{"bike_id":"cba05ecd-3461-4df1-857b-fdeb9e500d56","system_id":"levelo_inurba_marseille","lat":43.28264,"lon":5.35061,"is_reserved":false,"is_disabled":false,"rental_uris":{"android":"levelo://app?vid=cba05ecd-3461-4df1-857b-fdeb9e500d56","ios":"levelo://app?vid=cba05ecd-3461-4df1-857b-fdeb9e500d56"},"vehicle_type_id":"4","last_reported":1746969464,"current_range_meters":23200,"station_id":"ce4bhbp2rcd13ifvqerg","pricing_plan_id":"cebpf4jnsgd1na2vs0mg"},{"bike_id":"36277d4e-75ae-42ac-8663-2764cfc04117","system_id":"levelo_inurba_marseille","lat":43.27065,"lon":5.4227,"is_reserved":false,"is_disabled":false,"rental_uris":{"android":"levelo://app?vid=36277d4e-75ae-42ac-8663-2764cfc04117","ios":"levelo://app?vid=36277d4e-75ae-42ac-8663-2764cfc04117"},"vehicle_type_id":"4","last_reported":1746969464,"current_range_meters":23200,"station_id":"ce4bhk92rcd13ifvqgb0","pricing_plan_id":"cebpf4jnsgd1na2vs0mg"},{"bike_id":"8f4cb402-1c29-4c11-b45b-ee3c7d75f48f","system_id":"levelo_inurba_marseille","lat":43.32681,"lon":5.41003,"is_reserved":false,"is_disabled":false,"rental_uris":{"android":"levelo://app?vid=8f4cb402-1c29-4c11-b45b-ee3c7d75f48f","ios":"levelo://app?vid=8f4cb402-1c29-4c11-b45b-ee3c7d75f48f"},"vehicle_type_id":"4","last_reported":1746969464,"current_range_meters":23200,"station_id":"ce4bhpp2rcd13ifvqhgg","pricing_plan_id":"cebpf4jnsgd1na2vs0mg"},{"bike_id":"c65512c4-82c1-47c2-bf84-cd1ad20db18e","system_id":"levelo_inurba_marseille","lat":43.32492,"lon":5.36567,"is_reserved":false,"is_disabled":false,"rental_uris":{"android":"levelo://app?vid=c65512c4-82c1-47c2-bf84-cd1ad20db18e","ios":"levelo://app?vid=c65512c4-82c1-47c2-bf84-cd1ad20db18e"},"vehicle_type_id":"4","last_reported":1746969464,"current_range_meters":23200,"station_id":"ce4bhs12rcd13ifvqhvg","pricing_plan_id":"cebpf4jnsgd1na2vs0mg"},{"bike_id":"2a96a40c-2f62-4a43-a1c1-fa8d235cb68d","system_id":"levelo_inurba_marseille","lat":43.31358,"lon":5.37635,"is_reserved":false,"is_disabled":false,"rental_uris":{"android":"levelo://app?vid=2a96a40c-2f62-4a43-a1c1-fa8d235cb68d","ios":"levelo://app?vid=2a96a40c-2f62-4a43-a1c1-fa8d235cb68d"},"vehicle_type_id":"4","last_reported":1746969464,"current_range_meters":24000,"station_id":"","pricing_plan_id":"cebpf4jnsgd1na2vs0mg"},{"bike_id":"a546a166-3357-42b2-be14-012e05b92d7d","system_id":"levelo_inurba_marseille","lat":43.32584,"lon":5.43083,"is_reserved":false,"is_disabled":false,"rental_uris":{"android":"levelo://app?vid=a546a166-3357-42b2-be14-012e05b92d7d","ios":"levelo://app?vid=a546a166-3357-42b2-be14-012e05b92d7d"},"vehicle_type_id":"4","last_reported":1746969464,"current_range_meters":24000,"station_id":"","pricing_plan_id":"cebpf4jnsgd1na2vs0mg"},{"bike_id":"349c5b1e-973a-4fde-8b61-2d73f1a0b034","system_id":"levelo_inurba_marseille","lat":43.29908,"lon":5.38137,"is_reserved":false,"is_disabled":false,"rental_uris":{"android":"levelo://app?vid=349c5b1e-973a-4fde-8b61-2d73f1a0b034","ios":"levelo://app?vid=349c5b1e-973a-4fde-8b61-2d73f1a0b034"},"vehicle_type_id":"4","last_reported":1746969464,"current_range_meters":24000,"station_id":"ce4bgj12rcd13ifvqbc0","pricing_plan_id":"cebpf4jnsgd1na2vs0mg"},{"bike_id":"64d85f3c-2a21-4d55-818b-b51e2ea2d90e","system_id":"levelo_inurba_marseille","lat":43.243853,"lon":5.370523,"is_reserved":false,"is_disabled":false,"rental_uris":{"android":"levelo://app?vid=64d85f3c-2a21-4d55-818b-b51e2ea2d90e","ios":"levelo://app?vid=64d85f3c-2a21-4d55-818b-b51e2ea2d90e"},"vehicle_type_id":"4","last_reported":1746969464,"current_range_meters":24000,"station_id":"ce4bhhh2rcd13ifvqfk0","pricing_plan_id":"cebpf4jnsgd1na2vs0mg"},{"bike_id":"9c6dad96-8547-4228-a9fe-325dcaf87884","system_id":"levelo_inurba_marseille","lat":43.319951,"lon":5.381431,"is_reserved":false,"is_disabled":false,"rental_uris":{"android":"levelo://app?vid=9c6dad96-8547-4228-a9fe-325dcaf87884","ios":"levelo://app?vid=9c6dad96-8547-4228-a9fe-325dcaf87884"},"vehicle_type_id":"4","last_reported":1746969464,"current_range_meters":24000,"station_id":"ce4bhr12rcd13ifvqhpg","pricing_plan_id":"cebpf4jnsgd1na2vs0mg"},{"bike_id":"54910485-93b9-4759-bd44-c9e78c37b07d","system_id":"levelo_inurba_marseille","lat":43.3168,"lon":5.40447,"is_reserved":false,"is_disabled":false,"rental_uris":{"android":"levelo://app?vid=54910485-93b9-4759-bd44-c9e78c37b07d","ios":"levelo://app?vid=54910485-93b9-4759-bd44-c9e78c37b07d"},"vehicle_type_id":"4","last_reported":1746969464,"current_range_meters":24400,"station_id":"ce4bh012rcd13ifvqd00","pricing_plan_id":"cebpf4jnsgd1na2vs0mg"},{"bike_id":"be272b63-d7f7-4a8b-aa4d-2a878efea06b","system_id":"levelo_inurba_marseille","lat":43.29885,"lon":5.38897,"is_reserved":false,"is_disabled":false,"rental_uris":{"android":"levelo://app?vid=be272b63-d7f7-4a8b-aa4d-2a878efea06b","ios":"levelo://app?vid=be272b63-d7f7-4a8b-aa4d-2a878efea06b"},"vehicle_type_id":"4","last_reported":1746969464,"current_range_meters":24400,"station_id":"ce4bh392rcd13ifvqdl0","pricing_plan_id":"cebpf4jnsgd1na2vs0mg"},{"bike_id":"ff56a57e-4f08-4f87-9037-3a6daf0c9e8f","system_id":"levelo_inurba_marseille","lat":43.28462,"lon":5.35886,"is_reserved":false,"is_disabled":false,"rental_uris":{"android":"levelo://app?vid=ff56a57e-4f08-4f87-9037-3a6daf0c9e8f","ios":"levelo://app?vid=ff56a57e-4f08-4f87-9037-3a6daf0c9e8f"},"vehicle_type_id":"4","last_reported":1746969464,"current_range_meters":24400,"station_id":"ce4bhah2rcd13ifvqei0","pricing_plan_id":"cebpf4jnsgd1na2vs0mg"},{"bike_id":"0a58c277-b2a9-4dc8-87aa-cf12f87fe675","system_id":"levelo_inurba_marseille","lat":43.25079,"lon":5.40316,"is_reserved":false,"is_disabled":false,"rental_uris":{"android":"levelo://app?vid=0a58c277-b2a9-4dc8-87aa-cf12f87fe675","ios":"levelo://app?vid=0a58c277-b2a9-4dc8-87aa-cf12f87fe675"},"vehicle_type_id":"4","last_reported":1746969464,"current_range_meters":24400,"station_id":"ce4bhlh2rcd13ifvqgig","pricing_plan_id":"cebpf4jnsgd1na2vs0mg"},{"bike_id":"f986adab-af95-4003-91be-196549f1a6e5","system_id":"levelo_inurba_marseille","lat":43.29699,"lon":5.38394,"is_reserved":false,"is_disabled":false,"rental_uris":{"android":"levelo://app?vid=f986adab-af95-4003-91be-196549f1a6e5","ios":"levelo://app?vid=f986adab-af95-4003-91be-196549f1a6e5"},"vehicle_type_id":"4","last_reported":1746969464,"current_range_meters":24800,"station_id":"","pricing_plan_id":"cebpf4jnsgd1na2vs0mg"},{"bike_id":"fcf9463b-401b-4157-a5a9-4c36ca7d015d","system_id":"levelo_inurba_marseille","lat":43.30683,"lon":5.370586,"is_reserved":false,"is_disabled":false,"rental_uris":{"android":"levelo://app?vid=fcf9463b-401b-4157-a5a9-4c36ca7d015d","ios":"levelo://app?vid=fcf9463b-401b-4157-a5a9-4c36ca7d015d"},"vehicle_type_id":"4","last_reported":1746969464,"current_range_meters":24800,"station_id":"","pricing_plan_id":"cebpf4jnsgd1na2vs0mg"},{"bike_id":"a6bda440-793c-4973-af86-1f655d1d7bb8","system_id":"levelo_inurba_marseille","lat":43.29527,"lon":5.38531,"is_reserved":false,"is_disabled":false,"rental_uris":{"android":"levelo://app?vid=a6bda440-793c-4973-af86-1f655d1d7bb8","ios":"levelo://app?vid=a6bda440-793c-4973-af86-1f655d1d7bb8"},"vehicle_type_id":"4","last_reported":1746969464,"current_range_meters":24800,"station_id":"ce4bgih2rcd13ifvqba0","pricing_plan_id":"cebpf4jnsgd1na2vs0mg"},{"bike_id":"57c73e44-ba83-4b6d-a6db-ae00f6480819","system_id":"levelo_inurba_marseille","lat":43.29525,"lon":5.37499,"is_reserved":false,"is_disabled":false,"rental_uris":{"android":"levelo://app?vid=57c73e44-ba83-4b6d-a6db-ae00f6480819","ios":"levelo://app?vid=57c73e44-ba83-4b6d-a6db-ae00f6480819"},"vehicle_type_id":"4","last_reported":1746969464,"current_range_meters":24800,"station_id":"ce4bgkp2rcd13ifvqbmg","pricing_plan_id":"cebpf4jnsgd1na2vs0mg"},{"bike_id":"3470a215-6dd1-4f04-b22d-3ca604446d06","system_id":"levelo_inurba_marseille","lat":43.25005,"lon":5.38921,"is_reserved":false,"is_disabled":false,"rental_uris":{"android":"levelo://app?vid=3470a215-6dd1-4f04-b22d-3ca604446d06","ios":"levelo://app?vid=3470a215-6dd1-4f04-b22d-3ca604446d06"},"vehicle_type_id":"4","last_reported":1746969464,"current_range_meters":24800,"station_id":"ce4bhgp2rcd13ifvqfd0","pricing_plan_id":"cebpf4jnsgd1na2vs0mg"},{"bike_id":"1174da09-e822-4701-b7f1-f05137291668","system_id":"levelo_inurba_marseille","lat":43.30235,"lon":5.40049,"is_reserved":false,"is_disabled":false,"rental_uris":{"android":"levelo://app?vid=1174da09-e822-4701-b7f1-f05137291668","ios":"levelo://app?vid=1174da09-e822-4701-b7f1-f05137291668"},"vehicle_type_id":"4","last_reported":1746969464,"current_range_meters":25200,"station_id":"","pricing_plan_id":"cebpf4jnsgd1na2vs0mg"},{"bike_id":"ac754be4-9e6a-4394-8db1-1077f1394b37","system_id":"levelo_inurba_marseille","lat":43.30591,"lon":5.37185,"is_reserved":false,"is_disabled":false,"rental_uris":{"android":"levelo://app?vid=ac754be4-9e6a-4394-8db1-1077f1394b37","ios":"levelo://app?vid=ac754be4-9e6a-4394-8db1-1077f1394b37"},"vehicle_type_id":"4","last_reported":1746969464,"current_range_meters":25200,"station_id":"","pricing_plan_id":"cebpf4jnsgd1na2vs0mg"},{"bike_id":"04c8bb79-0240-4e06-aa8f-235c4a0633a0","system_id":"levelo_inurba_marseille","lat":43.29297,"lon":5.37157,"is_reserved":false,"is_disabled":false,"rental_uris":{"android":"levelo://app?vid=04c8bb79-0240-4e06-aa8f-235c4a0633a0","ios":"levelo://app?vid=04c8bb79-0240-4e06-aa8f-235c4a0633a0"},"vehicle_type_id":"4","last_reported":1746969464,"current_range_meters":25600,"station_id":"ce4bgh92rcd13ifvqb40","pricing_plan_id":"cebpf4jnsgd1na2vs0mg"},{"bike_id":"81e69b2b-4364-4278-9e31-5464b9c10f02","system_id":"levelo_inurba_marseille","lat":43.30305,"lon":5.3922,"is_reserved":false,"is_disabled":false,"rental_uris":{"android":"levelo://app?vid=81e69b2b-4364-4278-9e31-5464b9c10f02","ios":"levelo://app?vid=81e69b2b-4364-4278-9e31-5464b9c10f02"},"vehicle_type_id":"4","last_reported":1746969464,"current_range_meters":25600,"station_id":"ce4bgkh2rcd13ifvqbk0","pricing_plan_id":"cebpf4jnsgd1na2vs0mg"},{"bike_id":"bc4c164b-6f81-47e2-8c40-5dbb9b3c9196","system_id":"levelo_inurba_marseille","lat":43.30265,"lon":5.40075,"is_reserved":false,"is_disabled":false,"rental_uris":{"android":"levelo://app?vid=bc4c164b-6f81-47e2-8c40-5dbb9b3c9196","ios":"levelo://app?vid=bc4c164b-6f81-47e2-8c40-5dbb9b3c9196"},"vehicle_type_id":"4","last_reported":1746969464,"current_range_meters":25600,"station_id":"ce4bgvh2rcd13ifvqcs0","pricing_plan_id":"cebpf4jnsgd1na2vs0mg"},{"bike_id":"909c32ec-c3b5-4731-994a-441bd73d11e5","system_id":"levelo_inurba_marseille","lat":43.29418,"lon":5.3862,"is_reserved":false,"is_disabled":false,"rental_uris":{"android":"levelo://app?vid=909c32ec-c3b5-4731-994a-441bd73d11e5","ios":"levelo://app?vid=909c32ec-c3b5-4731-994a-441bd73d11e5"},"vehicle_type_id":"4","last_reported":1746969464,"current_range_meters":25600,"station_id":"ce4bh2h2rcd13ifvqdh0","pricing_plan_id":"cebpf4jnsgd1na2vs0mg"},{"bike_id":"f3ae402e-52d1-45e0-b21d-08973ce507e8","system_id":"levelo_inurba_marseille","lat":43.2928,"lon":5.40129,"is_reserved":false,"is_disabled":false,"rental_uris":{"android":"levelo://app?vid=f3ae402e-52d1-45e0-b21d-08973ce507e8","ios":"levelo://app?vid=f3ae402e-52d1-45e0-b21d-08973ce507e8"},"vehicle_type_id":"4","last_reported":1746969464,"current_range_meters":25600,"station_id":"ce4bh312rcd13ifvqdk0","pricing_plan_id":"cebpf4jnsgd1na2vs0mg"},{"bike_id":"6d12bb88-0c21-4c1e-a58d-92b763d667c3","system_id":"levelo_inurba_marseille","lat":43.29033,"lon":5.40001,"is_reserved":false,"is_disabled":false,"rental_uris":{"android":"levelo://app?vid=6d12bb88-0c21-4c1e-a58d-92b763d667c3","ios":"levelo://app?vid=6d12bb88-0c21-4c1e-a58d-92b763d667c3"},"vehicle_type_id":"4","last_reported":1746969464,"current_range_meters":25600,"station_id":"ce4bh392rcd13ifvqdm0","pricing_plan_id":"cebpf4jnsgd1na2vs0mg"},{"bike_id":"1a176fb6-25b9-4451-958c-d89c73d57ac7","system_id":"levelo_inurba_marseille","lat":43.287032,"lon":5.37379,"is_reserved":false,"is_disabled":false,"rental_uris":{"android":"levelo://app?vid=1a176fb6-25b9-4451-958c-d89c73d57ac7","ios":"levelo://app?vid=1a176fb6-25b9-4451-958c-d89c73d57ac7"},"vehicle_type_id":"4","last_reported":1746969464,"current_range_meters":25600,"station_id":"ce4bh3p2rcd13ifvqdq0","pricing_plan_id":"cebpf4jnsgd1na2vs0mg"},{"bike_id":"a7a8b398-61bf-4393-8f38-d495b8af8be5","system_id":"levelo_inurba_marseille","lat":43.2846,"lon":5.35883,"is_reserved":false,"is_disabled":false,"rental_uris":{"android":"levelo://app?vid=a7a8b398-61bf-4393-8f38-d495b8af8be5","ios":"levelo://app?vid=a7a8b398-61bf-4393-8f38-d495b8af8be5"},"vehicle_type_id":"4","last_reported":1746969464,"current_range_meters":25600,"station_id":"ce4bhah2rcd13ifvqei0","pricing_plan_id":"cebpf4jnsgd1na2vs0mg"},{"bike_id":"7910e557-9a57-40cf-9985-b0370dedcfb9","system_id":"levelo_inurba_marseille","lat":43.29266,"lon":5.36857,"is_reserved":false,"is_disabled":false,"rental_uris":{"android":"levelo://app?vid=7910e557-9a57-40cf-9985-b0370dedcfb9","ios":"levelo://app?vid=7910e557-9a57-40cf-9985-b0370dedcfb9"},"vehicle_type_id":"4","last_reported":1746969464,"current_range_meters":25600,"station_id":"ce4bhbp2rcd13ifvqesg","pricing_plan_id":"cebpf4jnsgd1na2vs0mg"},{"bike_id":"543a09e9-f3f2-482a-a555-071e7374f5c6","system_id":"levelo_inurba_marseille","lat":43.21791,"lon":5.34609,"is_reserved":false,"is_disabled":false,"rental_uris":{"android":"levelo://app?vid=543a09e9-f3f2-482a-a555-071e7374f5c6","ios":"levelo://app?vid=543a09e9-f3f2-482a-a555-071e7374f5c6"},"vehicle_type_id":"4","last_reported":1746969464,"current_range_meters":25600,"station_id":"st_cvj6r9ubvosntc0bgbag","pricing_plan_id":"cebpf4jnsgd1na2vs0mg"},{"bike_id":"362c81a6-8d17-4b29-a3db-7caf0cb06275","system_id":"levelo_inurba_marseille","lat":43.29186,"lon":5.3558,"is_reserved":false,"is_disabled":false,"rental_uris":{"android":"levelo://app?vid=362c81a6-8d17-4b29-a3db-7caf0cb06275","ios":"levelo://app?vid=362c81a6-8d17-4b29-a3db-7caf0cb06275"},"vehicle_type_id":"4","last_reported":1746969464,"current_range_meters":26000,"station_id":"","pricing_plan_id":"cebpf4jnsgd1na2vs0mg"},{"bike_id":"426aebb0-3632-4815-ac62-c565515de17d","system_id":"levelo_inurba_marseille","lat":43.308824,"lon":5.396356,"is_reserved":false,"is_disabled":false,"rental_uris":{"android":"levelo://app?vid=426aebb0-3632-4815-ac62-c565515de17d","ios":"levelo://app?vid=426aebb0-3632-4815-ac62-c565515de17d"},"vehicle_type_id":"4","last_reported":1746969464,"current_range_meters":26000,"station_id":"ce4bh012rcd13ifvqcv0","pricing_plan_id":"cebpf4jnsgd1na2vs0mg"},{"bike_id":"5e1f4e2d-606d-462c-91a3-1d48f0226846","system_id":"levelo_inurba_marseille","lat":43.30321,"lon":5.40435,"is_reserved":false,"is_disabled":false,"rental_uris":{"android":"levelo://app?vid=5e1f4e2d-606d-462c-91a3-1d48f0226846","ios":"levelo://app?vid=5e1f4e2d-606d-462c-91a3-1d48f0226846"},"vehicle_type_id":"4","last_reported":1746969464,"current_range_meters":26000,"station_id":"ce4bh012rcd13ifvqd10","pricing_plan_id":"cebpf4jnsgd1na2vs0mg"},{"bike_id":"9b0fef64-2ee7-434b-9661-646e0f69c4b4","system_id":"levelo_inurba_marseille","lat":43.30324,"lon":5.40441,"is_reserved":false,"is_disabled":false,"rental_uris":{"android":"levelo://app?vid=9b0fef64-2ee7-434b-9661-646e0f69c4b4","ios":"levelo://app?vid=9b0fef64-2ee7-434b-9661-646e0f69c4b4"},"vehicle_type_id":"4","last_reported":1746969464,"current_range_meters":26000,"station_id":"ce4bh012rcd13ifvqd10","pricing_plan_id":"cebpf4jnsgd1na2vs0mg"},{"bike_id":"54d1070c-f552-4648-86fc-3018cd66c023","system_id":"levelo_inurba_marseille","lat":43.25583,"lon":5.38231,"is_reserved":false,"is_disabled":false,"rental_uris":{"android":"levelo://app?vid=54d1070c-f552-4648-86fc-3018cd66c023","ios":"levelo://app?vid=54d1070c-f552-4648-86fc-3018cd66c023"},"vehicle_type_id":"4","last_reported":1746969464,"current_range_meters":26000,"station_id":"ce4bhih2rcd13ifvqfs0","pricing_plan_id":"cebpf4jnsgd1na2vs0mg"},{"bike_id":"32cee0d7-3560-42ce-9933-e38d6615fd61","system_id":"levelo_inurba_marseille","lat":43.30155,"lon":5.38083,"is_reserved":false,"is_disabled":false,"rental_uris":{"android":"levelo://app?vid=32cee0d7-3560-42ce-9933-e38d6615fd61","ios":"levelo://app?vid=32cee0d7-3560-42ce-9933-e38d6615fd61"},"vehicle_type_id":"4","last_reported":1746969464,"current_range_meters":26800,"station_id":"ce4bgjp2rcd13ifvqbh0","pricing_plan_id":"cebpf4jnsgd1na2vs0mg"},{"bike_id":"b7311931-b9e8-4040-951c-8d8e886a703f","system_id":"levelo_inurba_marseille","lat":43.30933,"lon":5.40142,"is_reserved":false,"is_disabled":false,"rental_uris":{"android":"levelo://app?vid=b7311931-b9e8-4040-951c-8d8e886a703f","ios":"levelo://app?vid=b7311931-b9e8-4040-951c-8d8e886a703f"},"vehicle_type_id":"4","last_reported":1746969464,"current_range_meters":26800,"station_id":"ce4bgvp2rcd13ifvqct0","pricing_plan_id":"cebpf4jnsgd1na2vs0mg"},{"bike_id":"58201c6a-51fe-407d-a8ec-aa0e69fc13af","system_id":"levelo_inurba_marseille","lat":43.294059,"lon":5.386221,"is_reserved":false,"is_disabled":false,"rental_uris":{"android":"levelo://app?vid=58201c6a-51fe-407d-a8ec-aa0e69fc13af","ios":"levelo://app?vid=58201c6a-51fe-407d-a8ec-aa0e69fc13af"},"vehicle_type_id":"4","last_reported":1746969464,"current_range_meters":26800,"station_id":"ce4bhq92rcd13ifvqhkg","pricing_plan_id":"cebpf4jnsgd1na2vs0mg"},{"bike_id":"a7e802e3-fbee-4690-bf1a-1f50a4fb4867","system_id":"levelo_inurba_marseille","lat":43.27952,"lon":5.41041,"is_reserved":false,"is_disabled":false,"rental_uris":{"android":"levelo://app?vid=a7e802e3-fbee-4690-bf1a-1f50a4fb4867","ios":"levelo://app?vid=a7e802e3-fbee-4690-bf1a-1f50a4fb4867"},"vehicle_type_id":"4","last_reported":1746969464,"current_range_meters":27200,"station_id":"ce4bhnp2rcd13ifvqh0g","pricing_plan_id":"cebpf4jnsgd1na2vs0mg"},{"bike_id":"1ba33c3a-fe17-4365-ab79-89799f300a2f","system_id":"levelo_inurba_marseille","lat":43.30129,"lon":5.37416,"is_reserved":false,"is_disabled":false,"rental_uris":{"android":"levelo://app?vid=1ba33c3a-fe17-4365-ab79-89799f300a2f","ios":"levelo://app?vid=1ba33c3a-fe17-4365-ab79-89799f300a2f"},"vehicle_type_id":"4","last_reported":1746969464,"current_range_meters":27600,"station_id":"ce4bgs92rcd13ifvqcc0","pricing_plan_id":"cebpf4jnsgd1na2vs0mg"},{"bike_id":"4ec76d6f-5519-4ef9-abb7-06d515bb3740","system_id":"levelo_inurba_marseille","lat":43.27578,"lon":5.3842,"is_reserved":false,"is_disabled":false,"rental_uris":{"android":"levelo://app?vid=4ec76d6f-5519-4ef9-abb7-06d515bb3740","ios":"levelo://app?vid=4ec76d6f-5519-4ef9-abb7-06d515bb3740"},"vehicle_type_id":"4","last_reported":1746969464,"current_range_meters":27600,"station_id":"ce4bhh92rcd13ifvqfi0","pricing_plan_id":"cebpf4jnsgd1na2vs0mg"},{"bike_id":"f30700cd-2b15-4379-bae3-a617af060209","system_id":"levelo_inurba_marseille","lat":43.2176,"lon":5.34607,"is_reserved":false,"is_disabled":false,"rental_uris":{"android":"levelo://app?vid=f30700cd-2b15-4379-bae3-a617af060209","ios":"levelo://app?vid=f30700cd-2b15-4379-bae3-a617af060209"},"vehicle_type_id":"4","last_reported":1746969464,"current_range_meters":27600,"station_id":"st_cvj6r9ubvosntc0bgbag","pricing_plan_id":"cebpf4jnsgd1na2vs0mg"},{"bike_id":"cd948459-ebcd-456c-8dfc-3a73d07bbcde","system_id":"levelo_inurba_marseille","lat":43.29942,"lon":5.36516,"is_reserved":false,"is_disabled":false,"rental_uris":{"android":"levelo://app?vid=cd948459-ebcd-456c-8dfc-3a73d07bbcde","ios":"levelo://app?vid=cd948459-ebcd-456c-8dfc-3a73d07bbcde"},"vehicle_type_id":"4","last_reported":1746969464,"current_range_meters":28000,"station_id":"ce4bgm92rcd13ifvqbr0","pricing_plan_id":"cebpf4jnsgd1na2vs0mg"},{"bike_id":"f62b46a9-a6f2-42eb-81aa-cac3a592032c","system_id":"levelo_inurba_marseille","lat":43.294158,"lon":5.386201,"is_reserved":false,"is_disabled":false,"rental_uris":{"android":"levelo://app?vid=f62b46a9-a6f2-42eb-81aa-cac3a592032c","ios":"levelo://app?vid=f62b46a9-a6f2-42eb-81aa-cac3a592032c"},"vehicle_type_id":"4","last_reported":1746969464,"current_range_meters":28000,"station_id":"ce4bh2h2rcd13ifvqdh0","pricing_plan_id":"cebpf4jnsgd1na2vs0mg"},{"bike_id":"a625a40f-c320-4a83-b627-b9e1e5e9f448","system_id":"levelo_inurba_marseille","lat":43.28936,"lon":5.36627,"is_reserved":false,"is_disabled":false,"rental_uris":{"android":"levelo://app?vid=a625a40f-c320-4a83-b627-b9e1e5e9f448","ios":"levelo://app?vid=a625a40f-c320-4a83-b627-b9e1e5e9f448"},"vehicle_type_id":"4","last_reported":1746969464,"current_range_meters":28000,"station_id":"ce4bhap2rcd13ifvqek0","pricing_plan_id":"cebpf4jnsgd1na2vs0mg"},{"bike_id":"a6f40057-630f-4f15-af0e-5ca022368b43","system_id":"levelo_inurba_marseille","lat":43.27058,"lon":5.4025,"is_reserved":false,"is_disabled":false,"rental_uris":{"android":"levelo://app?vid=a6f40057-630f-4f15-af0e-5ca022368b43","ios":"levelo://app?vid=a6f40057-630f-4f15-af0e-5ca022368b43"},"vehicle_type_id":"4","last_reported":1746969464,"current_range_meters":28000,"station_id":"ce4bhk92rcd13ifvqgc0","pricing_plan_id":"cebpf4jnsgd1na2vs0mg"},{"bike_id":"3b2529ba-f111-4706-be56-7b3096805db9","system_id":"levelo_inurba_marseille","lat":43.27937,"lon":5.4104,"is_reserved":false,"is_disabled":false,"rental_uris":{"android":"levelo://app?vid=3b2529ba-f111-4706-be56-7b3096805db9","ios":"levelo://app?vid=3b2529ba-f111-4706-be56-7b3096805db9"},"vehicle_type_id":"4","last_reported":1746969464,"current_range_meters":28000,"station_id":"ce4bhnp2rcd13ifvqh0g","pricing_plan_id":"cebpf4jnsgd1na2vs0mg"},{"bike_id":"31c19bbc-5621-4ebd-9813-d3ac73812f2b","system_id":"levelo_inurba_marseille","lat":43.24171,"lon":5.36395,"is_reserved":false,"is_disabled":false,"rental_uris":{"android":"levelo://app?vid=31c19bbc-5621-4ebd-9813-d3ac73812f2b","ios":"levelo://app?vid=31c19bbc-5621-4ebd-9813-d3ac73812f2b"},"vehicle_type_id":"4","last_reported":1746969464,"current_range_meters":28000,"station_id":"cpo36qri1sfpv3e86is0","pricing_plan_id":"cebpf4jnsgd1na2vs0mg"},{"bike_id":"e648a593-d519-4638-a96b-e759c1833772","system_id":"levelo_inurba_marseille","lat":43.241687,"lon":5.363983,"is_reserved":false,"is_disabled":false,"rental_uris":{"android":"levelo://app?vid=e648a593-d519-4638-a96b-e759c1833772","ios":"levelo://app?vid=e648a593-d519-4638-a96b-e759c1833772"},"vehicle_type_id":"4","last_reported":1746969464,"current_range_meters":28000,"station_id":"cpo36qri1sfpv3e86is0","pricing_plan_id":"cebpf4jnsgd1na2vs0mg"},{"bike_id":"06426f58-e01e-4c8a-8dcf-b1b6281cbae5","system_id":"levelo_inurba_marseille","lat":43.29039,"lon":5.35758,"is_reserved":false,"is_disabled":false,"rental_uris":{"android":"levelo://app?vid=06426f58-e01e-4c8a-8dcf-b1b6281cbae5","ios":"levelo://app?vid=06426f58-e01e-4c8a-8dcf-b1b6281cbae5"},"vehicle_type_id":"4","last_reported":1746969464,"current_range_meters":28400,"station_id":"","pricing_plan_id":"cebpf4jnsgd1na2vs0mg"},{"bike_id":"e172af54-51e9-411c-9765-01487529519e","system_id":"levelo_inurba_marseille","lat":43.29806,"lon":5.36196,"is_reserved":false,"is_disabled":false,"rental_uris":{"android":"levelo://app?vid=e172af54-51e9-411c-9765-01487529519e","ios":"levelo://app?vid=e172af54-51e9-411c-9765-01487529519e"},"vehicle_type_id":"4","last_reported":1746969464,"current_range_meters":28400,"station_id":"","pricing_plan_id":"cebpf4jnsgd1na2vs0mg"},{"bike_id":"81db0a94-8f1c-4269-96b5-813d661d2194","system_id":"levelo_inurba_marseille","lat":43.29532,"lon":5.38534,"is_reserved":false,"is_disabled":false,"rental_uris":{"android":"levelo://app?vid=81db0a94-8f1c-4269-96b5-813d661d2194","ios":"levelo://app?vid=81db0a94-8f1c-4269-96b5-813d661d2194"},"vehicle_type_id":"4","last_reported":1746969464,"current_range_meters":28400,"station_id":"ce4bgih2rcd13ifvqba0","pricing_plan_id":"cebpf4jnsgd1na2vs0mg"},{"bike_id":"eb1516b2-11da-4fef-95e5-bdf0aca6ca3d","system_id":"levelo_inurba_marseille","lat":43.31233,"lon":5.36865,"is_reserved":false,"is_disabled":false,"rental_uris":{"android":"levelo://app?vid=eb1516b2-11da-4fef-95e5-bdf0aca6ca3d","ios":"levelo://app?vid=eb1516b2-11da-4fef-95e5-bdf0aca6ca3d"},"vehicle_type_id":"4","last_reported":1746969464,"current_range_meters":28400,"station_id":"ce4bgl92rcd13ifvqbq0","pricing_plan_id":"cebpf4jnsgd1na2vs0mg"},{"bike_id":"5b819b0a-2b5a-4c46-b7e9-d397b91c77e3","system_id":"levelo_inurba_marseille","lat":43.31722,"lon":5.404207,"is_reserved":false,"is_disabled":false,"rental_uris":{"android":"levelo://app?vid=5b819b0a-2b5a-4c46-b7e9-d397b91c77e3","ios":"levelo://app?vid=5b819b0a-2b5a-4c46-b7e9-d397b91c77e3"},"vehicle_type_id":"4","last_reported":1746969464,"current_range_meters":28400,"station_id":"ce4bh012rcd13ifvqd00","pricing_plan_id":"cebpf4jnsgd1na2vs0mg"},{"bike_id":"fe73e9fe-3da9-4675-9eb0-3974f6bdf55a","system_id":"levelo_inurba_marseille","lat":43.27949,"lon":5.41039,"is_reserved":false,"is_disabled":false,"rental_uris":{"android":"levelo://app?vid=fe73e9fe-3da9-4675-9eb0-3974f6bdf55a","ios":"levelo://app?vid=fe73e9fe-3da9-4675-9eb0-3974f6bdf55a"},"vehicle_type_id":"4","last_reported":1746969464,"current_range_meters":28400,"station_id":"ce4bhnp2rcd13ifvqh0g","pricing_plan_id":"cebpf4jnsgd1na2vs0mg"},{"bike_id":"77c5cb01-3103-4826-b819-f1dfa427f2a2","system_id":"levelo_inurba_marseille","lat":43.29262,"lon":5.40906,"is_reserved":false,"is_disabled":false,"rental_uris":{"android":"levelo://app?vid=77c5cb01-3103-4826-b819-f1dfa427f2a2","ios":"levelo://app?vid=77c5cb01-3103-4826-b819-f1dfa427f2a2"},"vehicle_type_id":"4","last_reported":1746969464,"current_range_meters":28800,"station_id":"ce4bh192rcd13ifvqdc0","pricing_plan_id":"cebpf4jnsgd1na2vs0mg"},{"bike_id":"c1880fc6-027e-4614-9a81-7f20dfae398a","system_id":"levelo_inurba_marseille","lat":43.24804,"lon":5.3745,"is_reserved":false,"is_disabled":false,"rental_uris":{"android":"levelo://app?vid=c1880fc6-027e-4614-9a81-7f20dfae398a","ios":"levelo://app?vid=c1880fc6-027e-4614-9a81-7f20dfae398a"},"vehicle_type_id":"4","last_reported":1746969464,"current_range_meters":28800,"station_id":"ce4bhgh2rcd13ifvqfb0","pricing_plan_id":"cebpf4jnsgd1na2vs0mg"},{"bike_id":"1297402a-0699-4324-a067-80a0da342625","system_id":"levelo_inurba_marseille","lat":43.25738,"lon":5.41129,"is_reserved":false,"is_disabled":false,"rental_uris":{"android":"levelo://app?vid=1297402a-0699-4324-a067-80a0da342625","ios":"levelo://app?vid=1297402a-0699-4324-a067-80a0da342625"},"vehicle_type_id":"4","last_reported":1746969464,"current_range_meters":28800,"station_id":"ce4bhkp2rcd13ifvqgd0","pricing_plan_id":"cebpf4jnsgd1na2vs0mg"},{"bike_id":"9adfc852-0050-401b-ae90-e75d1847a329","system_id":"levelo_inurba_marseille","lat":43.242,"lon":5.39727,"is_reserved":false,"is_disabled":false,"rental_uris":{"android":"levelo://app?vid=9adfc852-0050-401b-ae90-e75d1847a329","ios":"levelo://app?vid=9adfc852-0050-401b-ae90-e75d1847a329"},"vehicle_type_id":"4","last_reported":1746969464,"current_range_meters":28800,"station_id":"ce4bhn12rcd13ifvqgpg","pricing_plan_id":"cebpf4jnsgd1na2vs0mg"},{"bike_id":"1f441a1d-51ee-4b07-87b2-150ad5446233","system_id":"levelo_inurba_marseille","lat":43.28151,"lon":5.4265,"is_reserved":false,"is_disabled":false,"rental_uris":{"android":"levelo://app?vid=1f441a1d-51ee-4b07-87b2-150ad5446233","ios":"levelo://app?vid=1f441a1d-51ee-4b07-87b2-150ad5446233"},"vehicle_type_id":"4","last_reported":1746969464,"current_range_meters":28800,"station_id":"ce4bhnh2rcd13ifvqgug","pricing_plan_id":"cebpf4jnsgd1na2vs0mg"},{"bike_id":"9bab3335-b94e-4440-8517-6d191e301ffb","system_id":"levelo_inurba_marseille","lat":43.31787,"lon":5.39012,"is_reserved":false,"is_disabled":false,"rental_uris":{"android":"levelo://app?vid=9bab3335-b94e-4440-8517-6d191e301ffb","ios":"levelo://app?vid=9bab3335-b94e-4440-8517-6d191e301ffb"},"vehicle_type_id":"4","last_reported":1746969464,"current_range_meters":28800,"station_id":"ce4bhqp2rcd13ifvqhng","pricing_plan_id":"cebpf4jnsgd1na2vs0mg"},{"bike_id":"89996d0f-8ca7-4264-b7d0-86131436a61c","system_id":"levelo_inurba_marseille","lat":43.21746,"lon":5.34611,"is_reserved":false,"is_disabled":false,"rental_uris":{"android":"levelo://app?vid=89996d0f-8ca7-4264-b7d0-86131436a61c","ios":"levelo://app?vid=89996d0f-8ca7-4264-b7d0-86131436a61c"},"vehicle_type_id":"4","last_reported":1746969464,"current_range_meters":28800,"station_id":"st_cvj6r9ubvosntc0bgbag","pricing_plan_id":"cebpf4jnsgd1na2vs0mg"},{"bike_id":"94535284-a91b-43ae-a96a-f4c618bb0e3d","system_id":"levelo_inurba_marseille","lat":43.30467,"lon":5.37899,"is_reserved":false,"is_disabled":false,"rental_uris":{"android":"levelo://app?vid=94535284-a91b-43ae-a96a-f4c618bb0e3d","ios":"levelo://app?vid=94535284-a91b-43ae-a96a-f4c618bb0e3d"},"vehicle_type_id":"4","last_reported":1746969464,"current_range_meters":29600,"station_id":"ce4bgup2rcd13ifvqcn0","pricing_plan_id":"cebpf4jnsgd1na2vs0mg"},{"bike_id":"e735cc6f-7322-48cc-a6e5-18ccf5733adb","system_id":"levelo_inurba_marseille","lat":43.22505,"lon":5.34703,"is_reserved":false,"is_disabled":false,"rental_uris":{"android":"levelo://app?vid=e735cc6f-7322-48cc-a6e5-18ccf5733adb","ios":"levelo://app?vid=e735cc6f-7322-48cc-a6e5-18ccf5733adb"},"vehicle_type_id":"4","last_reported":1746969464,"current_range_meters":30000,"station_id":"","pricing_plan_id":"cebpf4jnsgd1na2vs0mg"},{"bike_id":"15449efe-46c6-4d75-a8f9-ed6a2655a9f0","system_id":"levelo_inurba_marseille","lat":43.29917,"lon":5.36507,"is_reserved":false,"is_disabled":false,"rental_uris":{"android":"levelo://app?vid=15449efe-46c6-4d75-a8f9-ed6a2655a9f0","ios":"levelo://app?vid=15449efe-46c6-4d75-a8f9-ed6a2655a9f0"},"vehicle_type_id":"4","last_reported":1746969464,"current_range_meters":30000,"station_id":"ce4bgm92rcd13ifvqbr0","pricing_plan_id":"cebpf4jnsgd1na2vs0mg"},{"bike_id":"61a07a51-a776-48b7-b8d0-2f78f3ba88a1","system_id":"levelo_inurba_marseille","lat":43.31343,"lon":5.36726,"is_reserved":false,"is_disabled":false,"rental_uris":{"android":"levelo://app?vid=61a07a51-a776-48b7-b8d0-2f78f3ba88a1","ios":"levelo://app?vid=61a07a51-a776-48b7-b8d0-2f78f3ba88a1"},"vehicle_type_id":"4","last_reported":1746969464,"current_range_meters":30000,"station_id":"ce4bgr92rcd13ifvqc6g","pricing_plan_id":"cebpf4jnsgd1na2vs0mg"},{"bike_id":"7a8e64c1-1a2e-40fa-9cad-da6031f80a86","system_id":"levelo_inurba_marseille","lat":43.31278,"lon":5.40167,"is_reserved":false,"is_disabled":false,"rental_uris":{"android":"levelo://app?vid=7a8e64c1-1a2e-40fa-9cad-da6031f80a86","ios":"levelo://app?vid=7a8e64c1-1a2e-40fa-9cad-da6031f80a86"},"vehicle_type_id":"4","last_reported":1746969464,"current_range_meters":30000,"station_id":"ce4bh092rcd13ifvqd30","pricing_plan_id":"cebpf4jnsgd1na2vs0mg"},{"bike_id":"1d358451-4e2f-4fe5-be6d-a658c2e52dde","system_id":"levelo_inurba_marseille","lat":43.290344,"lon":5.399739,"is_reserved":false,"is_disabled":false,"rental_uris":{"android":"levelo://app?vid=1d358451-4e2f-4fe5-be6d-a658c2e52dde","ios":"levelo://app?vid=1d358451-4e2f-4fe5-be6d-a658c2e52dde"},"vehicle_type_id":"4","last_reported":1746969464,"current_range_meters":30000,"station_id":"ce4bh392rcd13ifvqdm0","pricing_plan_id":"cebpf4jnsgd1na2vs0mg"},{"bike_id":"097e9326-8978-4c95-baf6-c76eaeee10bf","system_id":"levelo_inurba_marseille","lat":43.287057,"lon":5.373946,"is_reserved":false,"is_disabled":false,"rental_uris":{"android":"levelo://app?vid=097e9326-8978-4c95-baf6-c76eaeee10bf","ios":"levelo://app?vid=097e9326-8978-4c95-baf6-c76eaeee10bf"},"vehicle_type_id":"4","last_reported":1746969464,"current_range_meters":30000,"station_id":"ce4bh3p2rcd13ifvqdq0","pricing_plan_id":"cebpf4jnsgd1na2vs0mg"},{"bike_id":"e8b813fb-db0e-4be9-acd8-523e547a691d","system_id":"levelo_inurba_marseille","lat":43.29271,"lon":5.3685,"is_reserved":false,"is_disabled":false,"rental_uris":{"android":"levelo://app?vid=e8b813fb-db0e-4be9-acd8-523e547a691d","ios":"levelo://app?vid=e8b813fb-db0e-4be9-acd8-523e547a691d"},"vehicle_type_id":"4","last_reported":1746969464,"current_range_meters":30000,"station_id":"ce4bhbp2rcd13ifvqesg","pricing_plan_id":"cebpf4jnsgd1na2vs0mg"},{"bike_id":"596c5539-c13b-4d82-89b9-77c7aa0ecbfe","system_id":"levelo_inurba_marseille","lat":43.34199,"lon":5.38565,"is_reserved":false,"is_disabled":false,"rental_uris":{"android":"levelo://app?vid=596c5539-c13b-4d82-89b9-77c7aa0ecbfe","ios":"levelo://app?vid=596c5539-c13b-4d82-89b9-77c7aa0ecbfe"},"vehicle_type_id":"4","last_reported":1746969464,"current_range_meters":30400,"station_id":"","pricing_plan_id":"cebpf4jnsgd1na2vs0mg"},{"bike_id":"af3b002b-6ec8-4b37-a9d2-1d999a3cb8b2","system_id":"levelo_inurba_marseille","lat":43.299365,"lon":5.365465,"is_reserved":false,"is_disabled":false,"rental_uris":{"android":"levelo://app?vid=af3b002b-6ec8-4b37-a9d2-1d999a3cb8b2","ios":"levelo://app?vid=af3b002b-6ec8-4b37-a9d2-1d999a3cb8b2"},"vehicle_type_id":"4","last_reported":1746969464,"current_range_meters":30400,"station_id":"ce4bgm92rcd13ifvqbr0","pricing_plan_id":"cebpf4jnsgd1na2vs0mg"},{"bike_id":"c2c25735-fe10-481b-a5eb-89e95bf28e21","system_id":"levelo_inurba_marseille","lat":43.29864,"lon":5.39733,"is_reserved":false,"is_disabled":false,"rental_uris":{"android":"levelo://app?vid=c2c25735-fe10-481b-a5eb-89e95bf28e21","ios":"levelo://app?vid=c2c25735-fe10-481b-a5eb-89e95bf28e21"},"vehicle_type_id":"4","last_reported":1746969464,"current_range_meters":30400,"station_id":"ce4bh0h2rcd13ifvqd50","pricing_plan_id":"cebpf4jnsgd1na2vs0mg"},{"bike_id":"e3dfc59c-2b4e-408e-bf35-0178e2d3d9e5","system_id":"levelo_inurba_marseille","lat":43.32366,"lon":5.36772,"is_reserved":false,"is_disabled":false,"rental_uris":{"android":"levelo://app?vid=e3dfc59c-2b4e-408e-bf35-0178e2d3d9e5","ios":"levelo://app?vid=e3dfc59c-2b4e-408e-bf35-0178e2d3d9e5"},"vehicle_type_id":"4","last_reported":1746969464,"current_range_meters":30400,"station_id":"ce4bhsh2rcd13ifvqi2g","pricing_plan_id":"cebpf4jnsgd1na2vs0mg"},{"bike_id":"4c553312-7a56-4420-94be-4db995548186","system_id":"levelo_inurba_marseille","lat":43.293437,"lon":5.434336,"is_reserved":false,"is_disabled":false,"rental_uris":{"android":"levelo://app?vid=4c553312-7a56-4420-94be-4db995548186","ios":"levelo://app?vid=4c553312-7a56-4420-94be-4db995548186"},"vehicle_type_id":"4","last_reported":1746969464,"current_range_meters":30800,"station_id":"","pricing_plan_id":"cebpf4jnsgd1na2vs0mg"},{"bike_id":"c76d723c-f216-4468-9eba-dc9a0d8f3aee","system_id":"levelo_inurba_marseille","lat":43.2926,"lon":5.37623,"is_reserved":false,"is_disabled":false,"rental_uris":{"android":"levelo://app?vid=c76d723c-f216-4468-9eba-dc9a0d8f3aee","ios":"levelo://app?vid=c76d723c-f216-4468-9eba-dc9a0d8f3aee"},"vehicle_type_id":"4","last_reported":1746969464,"current_range_meters":30800,"station_id":"ce4bgi12rcd13ifvqb80","pricing_plan_id":"cebpf4jnsgd1na2vs0mg"},{"bike_id":"701dcd63-5a47-4bca-b899-10ffff901c1a","system_id":"levelo_inurba_marseille","lat":43.29845,"lon":5.36272,"is_reserved":false,"is_disabled":false,"rental_uris":{"android":"levelo://app?vid=701dcd63-5a47-4bca-b899-10ffff901c1a","ios":"levelo://app?vid=701dcd63-5a47-4bca-b899-10ffff901c1a"},"vehicle_type_id":"4","last_reported":1746969464,"current_range_meters":30800,"station_id":"ce4bgpp2rcd13ifvqc3g","pricing_plan_id":"cebpf4jnsgd1na2vs0mg"},{"bike_id":"26b59bc0-5784-494b-9538-bc5a657ddb8b","system_id":"levelo_inurba_marseille","lat":43.309261,"lon":5.401338,"is_reserved":false,"is_disabled":false,"rental_uris":{"android":"levelo://app?vid=26b59bc0-5784-494b-9538-bc5a657ddb8b","ios":"levelo://app?vid=26b59bc0-5784-494b-9538-bc5a657ddb8b"},"vehicle_type_id":"4","last_reported":1746969464,"current_range_meters":30800,"station_id":"ce4bgvp2rcd13ifvqct0","pricing_plan_id":"cebpf4jnsgd1na2vs0mg"},{"bike_id":"a300e9b5-143d-4074-8c14-e3949f3172cc","system_id":"levelo_inurba_marseille","lat":43.260623,"lon":5.393995,"is_reserved":false,"is_disabled":false,"rental_uris":{"android":"levelo://app?vid=a300e9b5-143d-4074-8c14-e3949f3172cc","ios":"levelo://app?vid=a300e9b5-143d-4074-8c14-e3949f3172cc"},"vehicle_type_id":"4","last_reported":1746969464,"current_range_meters":30800,"station_id":"ce4bhh92rcd13ifvqfj0","pricing_plan_id":"cebpf4jnsgd1na2vs0mg"},{"bike_id":"e10a524d-d607-4afb-b245-25cd9b55ee21","system_id":"levelo_inurba_marseille","lat":43.26223,"lon":5.37924,"is_reserved":false,"is_disabled":false,"rental_uris":{"android":"levelo://app?vid=e10a524d-d607-4afb-b245-25cd9b55ee21","ios":"levelo://app?vid=e10a524d-d607-4afb-b245-25cd9b55ee21"},"vehicle_type_id":"4","last_reported":1746969464,"current_range_meters":30800,"station_id":"ce4bhjp2rcd13ifvqg90","pricing_plan_id":"cebpf4jnsgd1na2vs0mg"},{"bike_id":"eeac8dfd-00a7-403f-a41e-6d6ecedd79be","system_id":"levelo_inurba_marseille","lat":43.30306,"lon":5.39208,"is_reserved":false,"is_disabled":false,"rental_uris":{"android":"levelo://app?vid=eeac8dfd-00a7-403f-a41e-6d6ecedd79be","ios":"levelo://app?vid=eeac8dfd-00a7-403f-a41e-6d6ecedd79be"},"vehicle_type_id":"4","last_reported":1746969464,"current_range_meters":31200,"station_id":"ce4bgkh2rcd13ifvqbk0","pricing_plan_id":"cebpf4jnsgd1na2vs0mg"},{"bike_id":"f7ccd831-32e8-450b-9e09-23542eb3912e","system_id":"levelo_inurba_marseille","lat":43.30202,"lon":5.36612,"is_reserved":false,"is_disabled":false,"rental_uris":{"android":"levelo://app?vid=f7ccd831-32e8-450b-9e09-23542eb3912e","ios":"levelo://app?vid=f7ccd831-32e8-450b-9e09-23542eb3912e"},"vehicle_type_id":"4","last_reported":1746969464,"current_range_meters":31200,"station_id":"ce4bgrh2rcd13ifvqc8g","pricing_plan_id":"cebpf4jnsgd1na2vs0mg"},{"bike_id":"18ea0ca0-2e42-400e-a7f2-6b5a546466db","system_id":"levelo_inurba_marseille","lat":43.292768,"lon":5.368433,"is_reserved":false,"is_disabled":false,"rental_uris":{"android":"levelo://app?vid=18ea0ca0-2e42-400e-a7f2-6b5a546466db","ios":"levelo://app?vid=18ea0ca0-2e42-400e-a7f2-6b5a546466db"},"vehicle_type_id":"4","last_reported":1746969464,"current_range_meters":31200,"station_id":"ce4bhbp2rcd13ifvqesg","pricing_plan_id":"cebpf4jnsgd1na2vs0mg"},{"bike_id":"8ca7f4be-37fb-47ec-8f0d-00dcb483855b","system_id":"levelo_inurba_marseille","lat":43.2827,"lon":5.42394,"is_reserved":false,"is_disabled":false,"rental_uris":{"android":"levelo://app?vid=8ca7f4be-37fb-47ec-8f0d-00dcb483855b","ios":"levelo://app?vid=8ca7f4be-37fb-47ec-8f0d-00dcb483855b"},"vehicle_type_id":"4","last_reported":1746969464,"current_range_meters":32000,"station_id":"","pricing_plan_id":"cebpf4jnsgd1na2vs0mg"},{"bike_id":"1e7b033c-cba5-48de-ba4b-e623673e75cc","system_id":"levelo_inurba_marseille","lat":43.28625,"lon":5.37068,"is_reserved":false,"is_disabled":false,"rental_uris":{"android":"levelo://app?vid=1e7b033c-cba5-48de-ba4b-e623673e75cc","ios":"levelo://app?vid=1e7b033c-cba5-48de-ba4b-e623673e75cc"},"vehicle_type_id":"4","last_reported":1746969464,"current_range_meters":32000,"station_id":"ce4bht12rcd13ifvqi60","pricing_plan_id":"cebpf4jnsgd1na2vs0mg"},{"bike_id":"cdc62916-98c5-4459-a4cd-4b71ee75b9fc","system_id":"levelo_inurba_marseille","lat":43.26007,"lon":5.41735,"is_reserved":false,"is_disabled":false,"rental_uris":{"android":"levelo://app?vid=cdc62916-98c5-4459-a4cd-4b71ee75b9fc","ios":"levelo://app?vid=cdc62916-98c5-4459-a4cd-4b71ee75b9fc"},"vehicle_type_id":"4","last_reported":1746969464,"current_range_meters":32400,"station_id":"","pricing_plan_id":"cebpf4jnsgd1na2vs0mg"},{"bike_id":"fd65a19a-f913-4aed-aaa0-ef691513d462","system_id":"levelo_inurba_marseille","lat":43.28614,"lon":5.35102,"is_reserved":false,"is_disabled":false,"rental_uris":{"android":"levelo://app?vid=fd65a19a-f913-4aed-aaa0-ef691513d462","ios":"levelo://app?vid=fd65a19a-f913-4aed-aaa0-ef691513d462"},"vehicle_type_id":"4","last_reported":1746969464,"current_range_meters":32400,"station_id":"ce4bhch2rcd13ifvqeug","pricing_plan_id":"cebpf4jnsgd1na2vs0mg"},{"bike_id":"3f23882c-4eb6-4589-941f-bfc1ac069732","system_id":"levelo_inurba_marseille","lat":43.2657,"lon":5.38995,"is_reserved":false,"is_disabled":false,"rental_uris":{"android":"levelo://app?vid=3f23882c-4eb6-4589-941f-bfc1ac069732","ios":"levelo://app?vid=3f23882c-4eb6-4589-941f-bfc1ac069732"},"vehicle_type_id":"4","last_reported":1746969464,"current_range_meters":32400,"station_id":"ce4bhe12rcd13ifvqf30","pricing_plan_id":"cebpf4jnsgd1na2vs0mg"},{"bike_id":"c94b4ae4-ff44-4bd1-afc9-a3d12cc4bbc2","system_id":"levelo_inurba_marseille","lat":43.26216,"lon":5.37438,"is_reserved":false,"is_disabled":false,"rental_uris":{"android":"levelo://app?vid=c94b4ae4-ff44-4bd1-afc9-a3d12cc4bbc2","ios":"levelo://app?vid=c94b4ae4-ff44-4bd1-afc9-a3d12cc4bbc2"},"vehicle_type_id":"4","last_reported":1746969464,"current_range_meters":32400,"station_id":"ce4bhgp2rcd13ifvqfc0","pricing_plan_id":"cebpf4jnsgd1na2vs0mg"},{"bike_id":"58fe4998-a76c-4cd0-8895-95215441316b","system_id":"levelo_inurba_marseille","lat":43.26931,"lon":5.38915,"is_reserved":false,"is_disabled":false,"rental_uris":{"android":"levelo://app?vid=58fe4998-a76c-4cd0-8895-95215441316b","ios":"levelo://app?vid=58fe4998-a76c-4cd0-8895-95215441316b"},"vehicle_type_id":"4","last_reported":1746969464,"current_range_meters":32400,"station_id":"ce4bhhh2rcd13ifvqfl0","pricing_plan_id":"cebpf4jnsgd1na2vs0mg"},{"bike_id":"e105fb40-1d13-41e3-b725-60c416e170c8","system_id":"levelo_inurba_marseille","lat":43.30541,"lon":5.36698,"is_reserved":false,"is_disabled":false,"rental_uris":{"android":"levelo://app?vid=e105fb40-1d13-41e3-b725-60c416e170c8","ios":"levelo://app?vid=e105fb40-1d13-41e3-b725-60c416e170c8"},"vehicle_type_id":"4","last_reported":1746969464,"current_range_meters":32800,"station_id":"ce4bgrp2rcd13ifvqc9g","pricing_plan_id":"cebpf4jnsgd1na2vs0mg"},{"bike_id":"7745e058-1a8f-4094-b174-9001912aa0e3","system_id":"levelo_inurba_marseille","lat":43.30335,"lon":5.40436,"is_reserved":false,"is_disabled":false,"rental_uris":{"android":"levelo://app?vid=7745e058-1a8f-4094-b174-9001912aa0e3","ios":"levelo://app?vid=7745e058-1a8f-4094-b174-9001912aa0e3"},"vehicle_type_id":"4","last_reported":1746969464,"current_range_meters":32800,"station_id":"ce4bh012rcd13ifvqd10","pricing_plan_id":"cebpf4jnsgd1na2vs0mg"},{"bike_id":"e5e41115-a0d9-4f50-9514-7b0dc576943e","system_id":"levelo_inurba_marseille","lat":43.30335,"lon":5.40438,"is_reserved":false,"is_disabled":false,"rental_uris":{"android":"levelo://app?vid=e5e41115-a0d9-4f50-9514-7b0dc576943e","ios":"levelo://app?vid=e5e41115-a0d9-4f50-9514-7b0dc576943e"},"vehicle_type_id":"4","last_reported":1746969464,"current_range_meters":32800,"station_id":"ce4bh012rcd13ifvqd10","pricing_plan_id":"cebpf4jnsgd1na2vs0mg"},{"bike_id":"b12ba6b7-158a-4ccf-acc5-cad5db857798","system_id":"levelo_inurba_marseille","lat":43.28668,"lon":5.36348,"is_reserved":false,"is_disabled":false,"rental_uris":{"android":"levelo://app?vid=b12ba6b7-158a-4ccf-acc5-cad5db857798","ios":"levelo://app?vid=b12ba6b7-158a-4ccf-acc5-cad5db857798"},"vehicle_type_id":"4","last_reported":1746969464,"current_range_meters":32800,"station_id":"ce4bhah2rcd13ifvqej0","pricing_plan_id":"cebpf4jnsgd1na2vs0mg"},{"bike_id":"70b78d74-03b8-4168-85a5-40514a8ae8a9","system_id":"levelo_inurba_marseille","lat":43.24648,"lon":5.38898,"is_reserved":false,"is_disabled":false,"rental_uris":{"android":"levelo://app?vid=70b78d74-03b8-4168-85a5-40514a8ae8a9","ios":"levelo://app?vid=70b78d74-03b8-4168-85a5-40514a8ae8a9"},"vehicle_type_id":"4","last_reported":1746969464,"current_range_meters":32800,"station_id":"ce4bhg12rcd13ifvqf60","pricing_plan_id":"cebpf4jnsgd1na2vs0mg"},{"bike_id":"fc54b34e-77c1-4700-b44a-469ff3dcd354","system_id":"levelo_inurba_marseille","lat":43.24802,"lon":5.37463,"is_reserved":false,"is_disabled":false,"rental_uris":{"android":"levelo://app?vid=fc54b34e-77c1-4700-b44a-469ff3dcd354","ios":"levelo://app?vid=fc54b34e-77c1-4700-b44a-469ff3dcd354"},"vehicle_type_id":"4","last_reported":1746969464,"current_range_meters":32800,"station_id":"ce4bhgh2rcd13ifvqfb0","pricing_plan_id":"cebpf4jnsgd1na2vs0mg"},{"bike_id":"eeb3f12e-07bc-4ec7-b5fe-2bd88e46c9c1","system_id":"levelo_inurba_marseille","lat":43.298448,"lon":5.362903,"is_reserved":false,"is_disabled":false,"rental_uris":{"android":"levelo://app?vid=eeb3f12e-07bc-4ec7-b5fe-2bd88e46c9c1","ios":"levelo://app?vid=eeb3f12e-07bc-4ec7-b5fe-2bd88e46c9c1"},"vehicle_type_id":"4","last_reported":1746969464,"current_range_meters":33200,"station_id":"ce4bgpp2rcd13ifvqc3g","pricing_plan_id":"cebpf4jnsgd1na2vs0mg"},{"bike_id":"46fb7de5-9ad3-450d-9bde-e45a5a509987","system_id":"levelo_inurba_marseille","lat":43.30541,"lon":5.36555,"is_reserved":false,"is_disabled":false,"rental_uris":{"android":"levelo://app?vid=46fb7de5-9ad3-450d-9bde-e45a5a509987","ios":"levelo://app?vid=46fb7de5-9ad3-450d-9bde-e45a5a509987"},"vehicle_type_id":"4","last_reported":1746969464,"current_range_meters":33200,"station_id":"ce4bgs12rcd13ifvqcag","pricing_plan_id":"cebpf4jnsgd1na2vs0mg"},{"bike_id":"4b6b523e-c76a-4263-8a18-9acdc655be7e","system_id":"levelo_inurba_marseille","lat":43.28953,"lon":5.36635,"is_reserved":false,"is_disabled":false,"rental_uris":{"android":"levelo://app?vid=4b6b523e-c76a-4263-8a18-9acdc655be7e","ios":"levelo://app?vid=4b6b523e-c76a-4263-8a18-9acdc655be7e"},"vehicle_type_id":"4","last_reported":1746969464,"current_range_meters":33200,"station_id":"ce4bhap2rcd13ifvqek0","pricing_plan_id":"cebpf4jnsgd1na2vs0mg"},{"bike_id":"a1132df7-36aa-49b1-9d5c-66ebc2c32f6f","system_id":"levelo_inurba_marseille","lat":43.31712,"lon":5.43704,"is_reserved":false,"is_disabled":false,"rental_uris":{"android":"levelo://app?vid=a1132df7-36aa-49b1-9d5c-66ebc2c32f6f","ios":"levelo://app?vid=a1132df7-36aa-49b1-9d5c-66ebc2c32f6f"},"vehicle_type_id":"4","last_reported":1746969464,"current_range_meters":33200,"station_id":"ce4bhp92rcd13ifvqhcg","pricing_plan_id":"cebpf4jnsgd1na2vs0mg"},{"bike_id":"a08e94e8-1388-46b3-bd18-86e1ae0b7976","system_id":"levelo_inurba_marseille","lat":43.315302,"lon":5.380292,"is_reserved":false,"is_disabled":false,"rental_uris":{"android":"levelo://app?vid=a08e94e8-1388-46b3-bd18-86e1ae0b7976","ios":"levelo://app?vid=a08e94e8-1388-46b3-bd18-86e1ae0b7976"},"vehicle_type_id":"4","last_reported":1746969464,"current_range_meters":33200,"station_id":"ce4bhsp2rcd13ifvqi50","pricing_plan_id":"cebpf4jnsgd1na2vs0mg"},{"bike_id":"5c046693-3fbd-4755-81fd-1c6b34ebf07b","system_id":"levelo_inurba_marseille","lat":43.337605,"lon":5.374426,"is_reserved":false,"is_disabled":false,"rental_uris":{"android":"levelo://app?vid=5c046693-3fbd-4755-81fd-1c6b34ebf07b","ios":"levelo://app?vid=5c046693-3fbd-4755-81fd-1c6b34ebf07b"},"vehicle_type_id":"4","last_reported":1746969464,"current_range_meters":33600,"station_id":"","pricing_plan_id":"cebpf4jnsgd1na2vs0mg"},{"bike_id":"9fa58f71-3a8e-4022-b8d9-510de02e0ea5","system_id":"levelo_inurba_marseille","lat":43.305253,"lon":5.365268,"is_reserved":false,"is_disabled":false,"rental_uris":{"android":"levelo://app?vid=9fa58f71-3a8e-4022-b8d9-510de02e0ea5","ios":"levelo://app?vid=9fa58f71-3a8e-4022-b8d9-510de02e0ea5"},"vehicle_type_id":"4","last_reported":1746969464,"current_range_meters":33600,"station_id":"ce4bgs12rcd13ifvqcag","pricing_plan_id":"cebpf4jnsgd1na2vs0mg"},{"bike_id":"243da4c1-5be3-4630-b49d-d3c50f0eeb07","system_id":"levelo_inurba_marseille","lat":43.28618,"lon":5.35111,"is_reserved":false,"is_disabled":false,"rental_uris":{"android":"levelo://app?vid=243da4c1-5be3-4630-b49d-d3c50f0eeb07","ios":"levelo://app?vid=243da4c1-5be3-4630-b49d-d3c50f0eeb07"},"vehicle_type_id":"4","last_reported":1746969464,"current_range_meters":33600,"station_id":"ce4bhch2rcd13ifvqeug","pricing_plan_id":"cebpf4jnsgd1na2vs0mg"},{"bike_id":"ba37e599-22f6-416a-b7f7-2003aa6a2ea9","system_id":"levelo_inurba_marseille","lat":43.26065,"lon":5.39393,"is_reserved":false,"is_disabled":false,"rental_uris":{"android":"levelo://app?vid=ba37e599-22f6-416a-b7f7-2003aa6a2ea9","ios":"levelo://app?vid=ba37e599-22f6-416a-b7f7-2003aa6a2ea9"},"vehicle_type_id":"4","last_reported":1746969464,"current_range_meters":33600,"station_id":"ce4bhh92rcd13ifvqfj0","pricing_plan_id":"cebpf4jnsgd1na2vs0mg"},{"bike_id":"f64a83ec-2629-4a50-830a-0eec5af6a0b0","system_id":"levelo_inurba_marseille","lat":43.25729,"lon":5.41117,"is_reserved":false,"is_disabled":false,"rental_uris":{"android":"levelo://app?vid=f64a83ec-2629-4a50-830a-0eec5af6a0b0","ios":"levelo://app?vid=f64a83ec-2629-4a50-830a-0eec5af6a0b0"},"vehicle_type_id":"4","last_reported":1746969464,"current_range_meters":33600,"station_id":"ce4bhkp2rcd13ifvqgd0","pricing_plan_id":"cebpf4jnsgd1na2vs0mg"},{"bike_id":"3f09ae83-0672-44a7-8fc3-a446f86c5505","system_id":"levelo_inurba_marseille","lat":43.29583,"lon":5.38096,"is_reserved":false,"is_disabled":false,"rental_uris":{"android":"levelo://app?vid=3f09ae83-0672-44a7-8fc3-a446f86c5505","ios":"levelo://app?vid=3f09ae83-0672-44a7-8fc3-a446f86c5505"},"vehicle_type_id":"4","last_reported":1746969464,"current_range_meters":34000,"station_id":"ce4bgl12rcd13ifvqbo0","pricing_plan_id":"cebpf4jnsgd1na2vs0mg"},{"bike_id":"a3e8fa8a-4858-400d-921e-26b5a92184d1","system_id":"levelo_inurba_marseille","lat":43.2929,"lon":5.40111,"is_reserved":false,"is_disabled":false,"rental_uris":{"android":"levelo://app?vid=a3e8fa8a-4858-400d-921e-26b5a92184d1","ios":"levelo://app?vid=a3e8fa8a-4858-400d-921e-26b5a92184d1"},"vehicle_type_id":"4","last_reported":1746969464,"current_range_meters":34000,"station_id":"ce4bh312rcd13ifvqdk0","pricing_plan_id":"cebpf4jnsgd1na2vs0mg"},{"bike_id":"7f11480a-3659-4fdb-b780-a4e058b0c4cb","system_id":"levelo_inurba_marseille","lat":43.217509,"lon":5.346056,"is_reserved":false,"is_disabled":false,"rental_uris":{"android":"levelo://app?vid=7f11480a-3659-4fdb-b780-a4e058b0c4cb","ios":"levelo://app?vid=7f11480a-3659-4fdb-b780-a4e058b0c4cb"},