{"last_updated":1685038102,"ttl":30,"version":"2.2","data":{"bikes":[{"bike_id":"16886ed2-3efc-4514-9fb3-465b9327ab39","system_id":"levelo_inurba_marseille","lat":43.312239,"lon":5.368562,"is_reserved":false,"is_disabled":false,"rental_uris":{"android":"levelo://app?vid=16886ed2-3efc-4514-9fb3-465b9327ab39","ios":"levelo://app?vid=16886ed2-3efc-4514-9fb3-465b9327ab39"},"vehicle_type_id":"4","last_reported":1685038103,"current_range_meters":2000,"station_id":"ce4bgl92rcd13ifvqbq0","pricing_plan_id":"free"},{"bike_id":"86c86bc8-c681-4496-944f-c78eb4655bdb","system_id":"levelo_inurba_marseille","lat":43.309076,"lon":5.368465,"is_reserved":false,"is_disabled":false,"rental_uris":{"android":"levelo://app?vid=86c86bc8-c681-4496-944f-c78eb4655bdb","ios":"levelo://app?vid=86c86bc8-c681-4496-944f-c78eb4655bdb"},"vehicle_type_id":"4","last_reported":1685038103,"current_range_meters":4800,"station_id":"ce4bgn92rcd13ifvqbvg","pricing_plan_id":"free"},{"bike_id":"8b09bf5b-e46f-4e49-b262-56c99e7d92e9","system_id":"levelo_inurba_marseille","lat":43.309076,"lon":5.368465,"is_reserved":false,"is_disabled":false,"rental_uris":{"android":"levelo://app?vid=8b09bf5b-e46f-4e49-b262-56c99e7d92e9","ios":"levelo://app?vid=8b09bf5b-e46f-4e49-b262-56c99e7d92e9"},"vehicle_type_id":"4","last_reported":1685038103,"current_range_meters":4000,"station_id":"ce4bgn92rcd13ifvqbvg","pricing_plan_id":"free"},{"bike_id":"5faddb9d-a20b-4d47-b2ea-a6c19f13ccf6","system_id":"levelo_inurba_marseille","lat":43.309076,"lon":5.368465,"is_reserved":false,"is_disabled":false,"rental_uris":{"android":"levelo://app?vid=5faddb9d-a20b-4d47-b2ea-a6c19f13ccf6","ios":"levelo://app?vid=5faddb9d-a20b-4d47-b2ea-a6c19f13ccf6"},"vehicle_type_id":"4","last_reported":1685038103,"current_range_meters":23600,"station_id":"ce4bgn92rcd13ifvqbvg","pricing_plan_id":"free"},{"bike_id":"59ece59f-1c84-4943-9a8b-14961a00f501","system_id":"levelo_inurba_marseille","lat":43.309076,"lon":5.368465,"is_reserved":false,"is_disabled":false,"rental_uris":{"android":"levelo://app?vid=59ece59f-1c84-4943-9a8b-14961a00f501","ios":"levelo://app?vid=59ece59f-1c84-4943-9a8b-14961a00f501"},"vehicle_type_id":"4","last_reported":1685038103,"current_range_meters":9200,"station_id":"ce4bgn92rcd13ifvqbvg","pricing_plan_id":"free"},{"bike_id":"4a309130-ec91-475e-b625-15aca5acc5d0","system_id":"levelo_inurba_marseille","lat":43.314811,"lon":5.373104,"is_reserved":false,"is_disabled":false,"rental_uris":{"android":"levelo://app?vid=4a309130-ec91-475e-b625-15aca5acc5d0","ios":"levelo://app?vid=4a309130-ec91-475e-b625-15aca5acc5d0"},"vehicle_type_id":"4","last_reported":1685038103,"current_range_meters":24400,"station_id":"ce4bgt12rcd13ifvqcd0","pricing_plan_id":"free"},{"bike_id":"b9937ae5-f4c7-425e-a342-a27fd8a31d38","system_id":"levelo_inurba_marseille","lat":43.314811,"lon":5.373104,"is_reserved":false,"is_disabled":false,"rental_uris":{"android":"levelo://app?vid=b9937ae5-f4c7-425e-a342-a27fd8a31d38","ios":"levelo://app?vid=b9937ae5-f4c7-425e-a342-a27fd8a31d38"},"vehicle_type_id":"4","last_reported":1685038103,"current_range_meters":26000,"station_id":"ce4bgt12rcd13ifvqcd0","pricing_plan_id":"free"},{"bike_id":"7b06dc8c-a57b-40ab-a84e-e88877074cf1","system_id":"levelo_inurba_marseille","lat":43.317075,"lon":5.377367,"is_reserved":false,"is_disabled":false,"rental_uris":{"android":"levelo://app?vid=7b06dc8c-a57b-40ab-a84e-e88877074cf1","ios":"levelo://app?vid=7b06dc8c-a57b-40ab-a84e-e88877074cf1"},"vehicle_type_id":"4","last_reported":1685038103,"current_range_meters":6000,"station_id":"ce4bgth2rcd13ifvqch0","pricing_plan_id":"free"},{"bike_id":"68553df9-2b4c-4244-a834-2447f191355a","system_id":"levelo_inurba_marseille","lat":43.317075,"lon":5.377367,"is_reserved":false,"is_disabled":false,"rental_uris":{"android":"levelo://app?vid=68553df9-2b4c-4244-a834-2447f191355a","ios":"levelo://app?vid=68553df9-2b4c-4244-a834-2447f191355a"},"vehicle_type_id":"4","last_reported":1685038103,"current_range_meters":6000,"station_id":"ce4bgth2rcd13ifvqch0","pricing_plan_id":"free"},{"bike_id":"85d5b758-9ee4-4b21-9663-bf6538753ecc","system_id":"levelo_inurba_marseille","lat":43.317075,"lon":5.377367,"is_reserved":false,"is_disabled":false,"rental_uris":{"android":"levelo://app?vid=85d5b758-9ee4-4b21-9663-bf6538753ecc","ios":"levelo://app?vid=85d5b758-9ee4-4b21-9663-bf6538753ecc"},"vehicle_type_id":"4","last_reported":1685038103,"current_range_meters":10800,"station_id":"ce4bgth2rcd13ifvqch0","pricing_plan_id":"free"},{"bike_id":"1e3654da-4ca8-4941-8c9e-d7ae66415c19","system_id":"levelo_inurba_marseille","lat":43.317075,"lon":5.377367,"is_reserved":false,"is_disabled":false,"rental_uris":{"android":"levelo://app?vid=1e3654da-4ca8-4941-8c9e-d7ae66415c19","ios":"levelo://app?vid=1e3654da-4ca8-4941-8c9e-d7ae66415c19"},"vehicle_type_id":"4","last_reported":1685038103,"current_range_meters":20400,"station_id":"ce4bgth2rcd13ifvqch0","pricing_plan_id":"free"},{"bike_id":"8d3b898a-41aa-4f28-b1a2-33ce656ae17f","system_id":"levelo_inurba_marseille","lat":43.317075,"lon":5.377367,"is_reserved":false,"is_disabled":false,"rental_uris":{"android":"levelo://app?vid=8d3b898a-41aa-4f28-b1a2-33ce656ae17f","ios":"levelo://app?vid=8d3b898a-41aa-4f28-b1a2-33ce656ae17f"},"vehicle_type_id":"4","last_reported":1685038103,"current_range_meters":24000,"station_id":"ce4bgth2rcd13ifvqch0","pricing_plan_id":"free"},{"bike_id":"16e7282a-4eed-47c3-83b3-d7e0dee6c006","system_id":"levelo_inurba_marseille","lat":43.317075,"lon":5.377367,"is_reserved":false,"is_disabled":false,"rental_uris":{"android":"levelo://app?vid=16e7282a-4eed-47c3-83b3-d7e0dee6c006","ios":"levelo://app?vid=16e7282a-4eed-47c3-83b3-d7e0dee6c006"},"vehicle_type_id":"4","last_reported":1685038103,"current_range_meters":22000,"station_id":"ce4bgth2rcd13ifvqch0","pricing_plan_id":"free"},{"bike_id":"3022569d-6af5-45bd-8997-a0f8c384be8e","system_id":"levelo_inurba_marseille","lat":43.317075,"lon":5.377367,"is_reserved":false,"is_disabled":false,"rental_uris":{"android":"levelo://app?vid=3022569d-6af5-45bd-8997-a0f8c384be8e","ios":"levelo://app?vid=3022569d-6af5-45bd-8997-a0f8c384be8e"},"vehicle_type_id":"4","last_reported":1685038103,"current_range_meters":27600,"station_id":"ce4bgth2rcd13ifvqch0","pricing_plan_id":"free"},{"bike_id":"2ab4639f-70ee-4cae-8aea-667b4c6c63d0","system_id":"levelo_inurba_marseille","lat":43.317075,"lon":5.377367,"is_reserved":false,"is_disabled":false,"rental_uris":{"android":"levelo://app?vid=2ab4639f-70ee-4cae-8aea-667b4c6c63d0","ios":"levelo://app?vid=2ab4639f-70ee-4cae-8aea-667b4c6c63d0"},"vehicle_type_id":"4","last_reported":1685038103,"current_range_meters":16400,"station_id":"ce4bgth2rcd13ifvqch0","pricing_plan_id":"free"},{"bike_id":"b6855b1f-51d1-440e-8236-2a00d5254915","system_id":"levelo_inurba_marseille","lat":43.317075,"lon":5.377367,"is_reserved":false,"is_disabled":false,"rental_uris":{"android":"levelo://app?vid=b6855b1f-51d1-440e-8236-2a00d5254915","ios":"levelo://app?vid=b6855b1f-51d1-440e-8236-2a00d5254915"},"vehicle_type_id":"4","last_reported":1685038103,"current_range_meters":18800,"station_id":"ce4bgth2rcd13ifvqch0","pricing_plan_id":"free"},{"bike_id":"fd38c318-e10c-4ea0-8386-140691495f8d","system_id":"levelo_inurba_marseille","lat":43.31713,"lon":5.37832,"is_reserved":false,"is_disabled":false,"rental_uris":{"android":"levelo://app?vid=fd38c318-e10c-4ea0-8386-140691495f8d","ios":"levelo://app?vid=fd38c318-e10c-4ea0-8386-140691495f8d"},"vehicle_type_id":"4","last_reported":1685038103,"current_range_meters":27600,"station_id":"","pricing_plan_id":"free"},{"bike_id":"4c5ae5f9-3932-4f1e-9e4f-ebe0a11e0845","system_id":"levelo_inurba_marseille","lat":43.31529,"lon":5.38032,"is_reserved":false,"is_disabled":false,"rental_uris":{"android":"levelo://app?vid=4c5ae5f9-3932-4f1e-9e4f-ebe0a11e0845","ios":"levelo://app?vid=4c5ae5f9-3932-4f1e-9e4f-ebe0a11e0845"},"vehicle_type_id":"4","last_reported":1685038103,"current_range_meters":16000,"station_id":"ce4bhsp2rcd13ifvqi50","pricing_plan_id":"free"},{"bike_id":"158480b5-70e7-4425-a5ba-1cd69d6f5fe9","system_id":"levelo_inurba_marseille","lat":43.315289,"lon":5.380349,"is_reserved":false,"is_disabled":false,"rental_uris":{"android":"levelo://app?vid=158480b5-70e7-4425-a5ba-1cd69d6f5fe9","ios":"levelo://app?vid=158480b5-70e7-4425-a5ba-1cd69d6f5fe9"},"vehicle_type_id":"4","last_reported":1685038103,"current_range_meters":28800,"station_id":"ce4bhsp2rcd13ifvqi50","pricing_plan_id":"free"},{"bike_id":"0f2040cc-e19c-4917-b2a6-8047c1ffcc28","system_id":"levelo_inurba_marseille","lat":43.304606,"lon":5.379026,"is_reserved":false,"is_disabled":false,"rental_uris":{"android":"levelo://app?vid=0f2040cc-e19c-4917-b2a6-8047c1ffcc28","ios":"levelo://app?vid=0f2040cc-e19c-4917-b2a6-8047c1ffcc28"},"vehicle_type_id":"4","last_reported":1685038103,"current_range_meters":2800,"station_id":"ce4bgup2rcd13ifvqcn0","pricing_plan_id":"free"},{"bike_id":"e5571f58-adb6-49b7-8c86-2d757ae8e1a0","system_id":"levelo_inurba_marseille","lat":43.319935,"lon":5.381699,"is_reserved":false,"is_disabled":false,"rental_uris":{"android":"levelo://app?vid=e5571f58-adb6-49b7-8c86-2d757ae8e1a0","ios":"levelo://app?vid=e5571f58-adb6-49b7-8c86-2d757ae8e1a0"},"vehicle_type_id":"4","last_reported":1685038103,"current_range_meters":21600,"station_id":"ce4bhr12rcd13ifvqhpg","pricing_plan_id":"free"},{"bike_id":"c906fdd5-8c40-4206-a3b9-d22b9704e528","system_id":"levelo_inurba_marseille","lat":43.31995,"lon":5.38143,"is_reserved":false,"is_disabled":false,"rental_uris":{"android":"levelo://app?vid=c906fdd5-8c40-4206-a3b9-d22b9704e528","ios":"levelo://app?vid=c906fdd5-8c40-4206-a3b9-d22b9704e528"},"vehicle_type_id":"4","last_reported":1685038103,"current_range_meters":14000,"station_id":"ce4bhr12rcd13ifvqhpg","pricing_plan_id":"free"},{"bike_id":"bfdcad51-97fc-4fc5-8b82-c545596782cd","system_id":"levelo_inurba_marseille","lat":43.319935,"lon":5.381699,"is_reserved":false,"is_disabled":false,"rental_uris":{"android":"levelo://app?vid=bfdcad51-97fc-4fc5-8b82-c545596782cd","ios":"levelo://app?vid=bfdcad51-97fc-4fc5-8b82-c545596782cd"},"vehicle_type_id":"4","last_reported":1685038103,"current_range_meters":31200,"station_id":"ce4bhr12rcd13ifvqhpg","pricing_plan_id":"free"},{"bike_id":"530a238a-2fe4-4ada-b174-d32325afbdf2","system_id":"levelo_inurba_marseille","lat":43.31995,"lon":5.38149,"is_reserved":false,"is_disabled":false,"rental_uris":{"android":"levelo://app?vid=530a238a-2fe4-4ada-b174-d32325afbdf2","ios":"levelo://app?vid=530a238a-2fe4-4ada-b174-d32325afbdf2"},"vehicle_type_id":"4","last_reported":1685038103,"current_range_meters":29200,"station_id":"ce4bhr12rcd13ifvqhpg","pricing_plan_id":"free"},{"bike_id":"ec2bf9d8-bdcd-4d00-823b-5e25cb80cc6b","system_id":"levelo_inurba_marseille","lat":43.319935,"lon":5.381699,"is_reserved":false,"is_disabled":false,"rental_uris":{"android":"levelo://app?vid=ec2bf9d8-bdcd-4d00-823b-5e25cb80cc6b","ios":"levelo://app?vid=ec2bf9d8-bdcd-4d00-823b-5e25cb80cc6b"},"vehicle_type_id":"4","last_reported":1685038103,"current_range_meters":31200,"station_id":"ce4bhr12rcd13ifvqhpg","pricing_plan_id":"free"},{"bike_id":"67d771cf-5063-4f6f-8d01-432caa748b18","system_id":"levelo_inurba_marseille","lat":43.31997,"lon":5.38163,"is_reserved":false,"is_disabled":false,"rental_uris":{"android":"levelo://app?vid=67d771cf-5063-4f6f-8d01-432caa748b18","ios":"levelo://app?vid=67d771cf-5063-4f6f-8d01-432caa748b18"},"vehicle_type_id":"4","last_reported":1685038103,"current_range_meters":10400,"station_id":"ce4bhr12rcd13ifvqhpg","pricing_plan_id":"free"},{"bike_id":"e7f9e557-7aab-43d8-8e20-32a2b55893af","system_id":"levelo_inurba_marseille","lat":43.31996,"lon":5.38165,"is_reserved":false,"is_disabled":false,"rental_uris":{"android":"levelo://app?vid=e7f9e557-7aab-43d8-8e20-32a2b55893af","ios":"levelo://app?vid=e7f9e557-7aab-43d8-8e20-32a2b55893af"},"vehicle_type_id":"4","last_reported":1685038103,"current_range_meters":8400,"station_id":"ce4bhr12rcd13ifvqhpg","pricing_plan_id":"free"},{"bike_id":"ed0af2c9-d311-4056-bf56-2135ca45404c","system_id":"levelo_inurba_marseille","lat":43.32005,"lon":5.38157,"is_reserved":false,"is_disabled":false,"rental_uris":{"android":"levelo://app?vid=ed0af2c9-d311-4056-bf56-2135ca45404c","ios":"levelo://app?vid=ed0af2c9-d311-4056-bf56-2135ca45404c"},"vehicle_type_id":"4","last_reported":1685038103,"current_range_meters":22000,"station_id":"ce4bhr12rcd13ifvqhpg","pricing_plan_id":"free"},{"bike_id":"5ac2fe43-85c7-472b-b3f7-4192c6da01ce","system_id":"levelo_inurba_marseille","lat":43.320076,"lon":5.381696,"is_reserved":false,"is_disabled":false,"rental_uris":{"android":"levelo://app?vid=5ac2fe43-85c7-472b-b3f7-4192c6da01ce","ios":"levelo://app?vid=5ac2fe43-85c7-472b-b3f7-4192c6da01ce"},"vehicle_type_id":"4","last_reported":1685038103,"current_range_meters":20400,"station_id":"","pricing_plan_id":"free"},{"bike_id":"f38a78a7-3cb5-47fa-8038-2208de50ea38","system_id":"levelo_inurba_marseille","lat":43.313571,"lon":5.384829,"is_reserved":false,"is_disabled":false,"rental_uris":{"android":"levelo://app?vid=f38a78a7-3cb5-47fa-8038-2208de50ea38","ios":"levelo://app?vid=f38a78a7-3cb5-47fa-8038-2208de50ea38"},"vehicle_type_id":"4","last_reported":1685038103,"current_range_meters":6800,"station_id":"ce4bgt92rcd13ifvqcf0","pricing_plan_id":"free"},{"bike_id":"d4b0c2b6-4e7a-43aa-b1a1-ee583cc5e17a","system_id":"levelo_inurba_marseille","lat":43.313571,"lon":5.384829,"is_reserved":false,"is_disabled":false,"rental_uris":{"android":"levelo://app?vid=d4b0c2b6-4e7a-43aa-b1a1-ee583cc5e17a","ios":"levelo://app?vid=d4b0c2b6-4e7a-43aa-b1a1-ee583cc5e17a"},"vehicle_type_id":"4","last_reported":1685038103,"current_range_meters":29200,"station_id":"ce4bgt92rcd13ifvqcf0","pricing_plan_id":"free"},{"bike_id":"f5a4def4-33af-42aa-b3e9-fdd1c8544708","system_id":"levelo_inurba_marseille","lat":43.313571,"lon":5.384829,"is_reserved":false,"is_disabled":false,"rental_uris":{"android":"levelo://app?vid=f5a4def4-33af-42aa-b3e9-fdd1c8544708","ios":"levelo://app?vid=f5a4def4-33af-42aa-b3e9-fdd1c8544708"},"vehicle_type_id":"4","last_reported":1685038103,"current_range_meters":30400,"station_id":"ce4bgt92rcd13ifvqcf0","pricing_plan_id":"free"},{"bike_id":"3822388a-a307-4bb3-bd87-f7cf392cd2bf","system_id":"levelo_inurba_marseille","lat":43.31365,"lon":5.38498,"is_reserved":false,"is_disabled":false,"rental_uris":{"android":"levelo://app?vid=3822388a-a307-4bb3-bd87-f7cf392cd2bf","ios":"levelo://app?vid=3822388a-a307-4bb3-bd87-f7cf392cd2bf"},"vehicle_type_id":"4","last_reported":1685038103,"current_range_meters":22400,"station_id":"ce4bgt92rcd13ifvqcf0","pricing_plan_id":"free"},{"bike_id":"7ff0cf0c-f9cb-4047-bca4-1219b301fb5d","system_id":"levelo_inurba_marseille","lat":43.313571,"lon":5.384829,"is_reserved":false,"is_disabled":false,"rental_uris":{"android":"levelo://app?vid=7ff0cf0c-f9cb-4047-bca4-1219b301fb5d","ios":"levelo://app?vid=7ff0cf0c-f9cb-4047-bca4-1219b301fb5d"},"vehicle_type_id":"4","last_reported":1685038103,"current_range_meters":32000,"station_id":"ce4bgt92rcd13ifvqcf0","pricing_plan_id":"free"},{"bike_id":"2bcae5bf-4a8c-4409-8465-fe7b2a623f94","system_id":"levelo_inurba_marseille","lat":43.313571,"lon":5.384829,"is_reserved":false,"is_disabled":false,"rental_uris":{"android":"levelo://app?vid=2bcae5bf-4a8c-4409-8465-fe7b2a623f94","ios":"levelo://app?vid=2bcae5bf-4a8c-4409-8465-fe7b2a623f94"},"vehicle_type_id":"4","last_reported":1685038103,"current_range_meters":31600,"station_id":"ce4bgt92rcd13ifvqcf0","pricing_plan_id":"free"},{"bike_id":"f55e4134-39f4-4986-bf03-aed9ef054d2a","system_id":"levelo_inurba_marseille","lat":43.31365,"lon":5.38503,"is_reserved":false,"is_disabled":false,"rental_uris":{"android":"levelo://app?vid=f55e4134-39f4-4986-bf03-aed9ef054d2a","ios":"levelo://app?vid=f55e4134-39f4-4986-bf03-aed9ef054d2a"},"vehicle_type_id":"4","last_reported":1685038103,"current_range_meters":30000,"station_id":"ce4bgt92rcd13ifvqcf0","pricing_plan_id":"free"},{"bike_id":"0c720b82-381d-4ab9-9d1e-99c9d3ba7e6e","system_id":"levelo_inurba_marseille","lat":43.313571,"lon":5.384829,"is_reserved":false,"is_disabled":false,"rental_uris":{"android":"levelo://app?vid=0c720b82-381d-4ab9-9d1e-99c9d3ba7e6e","ios":"levelo://app?vid=0c720b82-381d-4ab9-9d1e-99c9d3ba7e6e"},"vehicle_type_id":"4","last_reported":1685038103,"current_range_meters":31600,"station_id":"ce4bgt92rcd13ifvqcf0","pricing_plan_id":"free"},{"bike_id":"13f776fd-0e0c-436e-a670-4eb784225e2e","system_id":"levelo_inurba_marseille","lat":43.31357,"lon":5.38509,"is_reserved":false,"is_disabled":false,"rental_uris":{"android":"levelo://app?vid=13f776fd-0e0c-436e-a670-4eb784225e2e","ios":"levelo://app?vid=13f776fd-0e0c-436e-a670-4eb784225e2e"},"vehicle_type_id":"4","last_reported":1685038103,"current_range_meters":14800,"station_id":"ce4bgt92rcd13ifvqcf0","pricing_plan_id":"free"},{"bike_id":"0d6739ca-c2fe-4c7a-a843-4491068a992b","system_id":"levelo_inurba_marseille","lat":43.31367,"lon":5.38512,"is_reserved":false,"is_disabled":false,"rental_uris":{"android":"levelo://app?vid=0d6739ca-c2fe-4c7a-a843-4491068a992b","ios":"levelo://app?vid=0d6739ca-c2fe-4c7a-a843-4491068a992b"},"vehicle_type_id":"4","last_reported":1685038103,"current_range_meters":27600,"station_id":"","pricing_plan_id":"free"},{"bike_id":"5339a935-c4ef-4b6d-b760-80774f81fbb7","system_id":"levelo_inurba_marseille","lat":43.299222,"lon":5.365554,"is_reserved":false,"is_disabled":false,"rental_uris":{"android":"levelo://app?vid=5339a935-c4ef-4b6d-b760-80774f81fbb7","ios":"levelo://app?vid=5339a935-c4ef-4b6d-b760-80774f81fbb7"},"vehicle_type_id":"4","last_reported":1685038103,"current_range_meters":1200,"station_id":"ce4bgm92rcd13ifvqbr0","pricing_plan_id":"free"},{"bike_id":"7422ea19-494b-4ad0-961e-3775d9619193","system_id":"levelo_inurba_marseille","lat":43.297794,"lon":5.370888,"is_reserved":false,"is_disabled":false,"rental_uris":{"android":"levelo://app?vid=7422ea19-494b-4ad0-961e-3775d9619193","ios":"levelo://app?vid=7422ea19-494b-4ad0-961e-3775d9619193"},"vehicle_type_id":"4","last_reported":1685038103,"current_range_meters":20800,"station_id":"ce4bgop2rcd13ifvqc1g","pricing_plan_id":"free"},{"bike_id":"f33548ac-b0a5-43fe-a6ee-8186d1b76a69","system_id":"levelo_inurba_marseille","lat":43.297794,"lon":5.370888,"is_reserved":false,"is_disabled":false,"rental_uris":{"android":"levelo://app?vid=f33548ac-b0a5-43fe-a6ee-8186d1b76a69","ios":"levelo://app?vid=f33548ac-b0a5-43fe-a6ee-8186d1b76a69"},"vehicle_type_id":"4","last_reported":1685038103,"current_range_meters":6400,"station_id":"ce4bgop2rcd13ifvqc1g","pricing_plan_id":"free"},{"bike_id":"d8ec24b9-0363-49fb-b1c4-b00ca046fde7","system_id":"levelo_inurba_marseille","lat":43.297794,"lon":5.370888,"is_reserved":false,"is_disabled":false,"rental_uris":{"android":"levelo://app?vid=d8ec24b9-0363-49fb-b1c4-b00ca046fde7","ios":"levelo://app?vid=d8ec24b9-0363-49fb-b1c4-b00ca046fde7"},"vehicle_type_id":"4","last_reported":1685038103,"current_range_meters":16400,"station_id":"ce4bgop2rcd13ifvqc1g","pricing_plan_id":"free"},{"bike_id":"e9384cc6-136d-447f-8562-875ccec7a6fe","system_id":"levelo_inurba_marseille","lat":43.298433,"lon":5.362774,"is_reserved":false,"is_disabled":false,"rental_uris":{"android":"levelo://app?vid=e9384cc6-136d-447f-8562-875ccec7a6fe","ios":"levelo://app?vid=e9384cc6-136d-447f-8562-875ccec7a6fe"},"vehicle_type_id":"4","last_reported":1685038103,"current_range_meters":23200,"station_id":"ce4bgpp2rcd13ifvqc3g","pricing_plan_id":"free"},{"bike_id":"33d64a15-7d9d-4fb0-ae0e-1b1b07ff9aea","system_id":"levelo_inurba_marseille","lat":43.328371,"lon":5.366909,"is_reserved":false,"is_disabled":false,"rental_uris":{"android":"levelo://app?vid=33d64a15-7d9d-4fb0-ae0e-1b1b07ff9aea","ios":"levelo://app?vid=33d64a15-7d9d-4fb0-ae0e-1b1b07ff9aea"},"vehicle_type_id":"4","last_reported":1685038103,"current_range_meters":30400,"station_id":"ce4bhs92rcd13ifvqi0g","pricing_plan_id":"free"},{"bike_id":"07d0f5f8-594a-4c99-bd5f-efd86e16327f","system_id":"levelo_inurba_marseille","lat":43.328371,"lon":5.366912,"is_reserved":false,"is_disabled":false,"rental_uris":{"android":"levelo://app?vid=07d0f5f8-594a-4c99-bd5f-efd86e16327f","ios":"levelo://app?vid=07d0f5f8-594a-4c99-bd5f-efd86e16327f"},"vehicle_type_id":"4","last_reported":1685038103,"current_range_meters":11600,"station_id":"ce4bhs92rcd13ifvqi0g","pricing_plan_id":"free"},{"bike_id":"5776c0fc-b7c8-471b-bce1-ca30f47e9fb9","system_id":"levelo_inurba_marseille","lat":43.328371,"lon":5.366909,"is_reserved":false,"is_disabled":false,"rental_uris":{"android":"levelo://app?vid=5776c0fc-b7c8-471b-bce1-ca30f47e9fb9","ios":"levelo://app?vid=5776c0fc-b7c8-471b-bce1-ca30f47e9fb9"},"vehicle_type_id":"4","last_reported":1685038103,"current_range_meters":4400,"station_id":"ce4bhs92rcd13ifvqi0g","pricing_plan_id":"free"},{"bike_id":"beb58a24-32df-4292-805e-75c74c187706","system_id":"levelo_inurba_marseille","lat":43.328371,"lon":5.366912,"is_reserved":false,"is_disabled":false,"rental_uris":{"android":"levelo://app?vid=beb58a24-32df-4292-805e-75c74c187706","ios":"levelo://app?vid=beb58a24-32df-4292-805e-75c74c187706"},"vehicle_type_id":"4","last_reported":1685038103,"current_range_meters":30400,"station_id":"ce4bhs92rcd13ifvqi0g","pricing_plan_id":"free"},{"bike_id":"1acc9c82-a049-49b2-8802-6e37cdd32a71","system_id":"levelo_inurba_marseille","lat":43.328371,"lon":5.366912,"is_reserved":false,"is_disabled":false,"rental_uris":{"android":"levelo://app?vid=1acc9c82-a049-49b2-8802-6e37cdd32a71","ios":"levelo://app?vid=1acc9c82-a049-49b2-8802-6e37cdd32a71"},"vehicle_type_id":"4","last_reported":1685038103,"current_range_meters":26400,"station_id":"ce4bhs92rcd13ifvqi0g","pricing_plan_id":"free"},{"bike_id":"fad50468-bff6-4eb0-bc39-08e7203bec60","system_id":"levelo_inurba_marseille","lat":43.328371,"lon":5.366912,"is_reserved":false,"is_disabled":false,"rental_uris":{"android":"levelo://app?vid=fad50468-bff6-4eb0-bc39-08e7203bec60","ios":"levelo://app?vid=fad50468-bff6-4eb0-bc39-08e7203bec60"},"vehicle_type_id":"4","last_reported":1685038103,"current_range_meters":17200,"station_id":"ce4bhs92rcd13ifvqi0g","pricing_plan_id":"free"},{"bike_id":"cd2ff10f-681c-4c0d-b23b-ed356d56ba93","system_id":"levelo_inurba_marseille","lat":43.328371,"lon":5.366912,"is_reserved":false,"is_disabled":false,"rental_uris":{"android":"levelo://app?vid=cd2ff10f-681c-4c0d-b23b-ed356d56ba93","ios":"levelo://app?vid=cd2ff10f-681c-4c0d-b23b-ed356d56ba93"},"vehicle_type_id":"4","last_reported":1685038103,"current_range_meters":28000,"station_id":"ce4bhs92rcd13ifvqi0g","pricing_plan_id":"free"},{"bike_id":"4fe812b5-a152-4f6f-a5e4-5b2d482ba70f","system_id":"levelo_inurba_marseille","lat":43.32836,"lon":5.36685,"is_reserved":false,"is_disabled":false,"rental_uris":{"android":"levelo://app?vid=4fe812b5-a152-4f6f-a5e4-5b2d482ba70f","ios":"levelo://app?vid=4fe812b5-a152-4f6f-a5e4-5b2d482ba70f"},"vehicle_type_id":"4","last_reported":1685038103,"current_range_meters":18400,"station_id":"ce4bhs92rcd13ifvqi0g","pricing_plan_id":"free"},{"bike_id":"ac62dc5e-8af1-409c-ad23-66209b64113a","system_id":"levelo_inurba_marseille","lat":43.29712,"lon":5.36602,"is_reserved":false,"is_disabled":false,"rental_uris":{"android":"levelo://app?vid=ac62dc5e-8af1-409c-ad23-66209b64113a","ios":"levelo://app?vid=ac62dc5e-8af1-409c-ad23-66209b64113a"},"vehicle_type_id":"4","last_reported":1685038103,"current_range_meters":2800,"station_id":"","pricing_plan_id":"free"},{"bike_id":"140480ab-ebd6-4edc-85f7-cdaacead3b2f","system_id":"levelo_inurba_marseille","lat":43.296129,"lon":5.370777,"is_reserved":false,"is_disabled":false,"rental_uris":{"android":"levelo://app?vid=140480ab-ebd6-4edc-85f7-cdaacead3b2f","ios":"levelo://app?vid=140480ab-ebd6-4edc-85f7-cdaacead3b2f"},"vehicle_type_id":"4","last_reported":1685038103,"current_range_meters":5600,"station_id":"ce4bgnh2rcd13ifvqc0g","pricing_plan_id":"free"},{"bike_id":"7187ccfd-8c7a-4cc5-91e7-248a68a678e4","system_id":"levelo_inurba_marseille","lat":43.3168,"lon":5.38953,"is_reserved":false,"is_disabled":false,"rental_uris":{"android":"levelo://app?vid=7187ccfd-8c7a-4cc5-91e7-248a68a678e4","ios":"levelo://app?vid=7187ccfd-8c7a-4cc5-91e7-248a68a678e4"},"vehicle_type_id":"4","last_reported":1685038103,"current_range_meters":800,"station_id":"","pricing_plan_id":"free"},{"bike_id":"fcabca5a-2884-4478-9a81-19994fe86ceb","system_id":"levelo_inurba_marseille","lat":43.31758,"lon":5.39005,"is_reserved":false,"is_disabled":false,"rental_uris":{"android":"levelo://app?vid=fcabca5a-2884-4478-9a81-19994fe86ceb","ios":"levelo://app?vid=fcabca5a-2884-4478-9a81-19994fe86ceb"},"vehicle_type_id":"4","last_reported":1685038103,"current_range_meters":13600,"station_id":"ce4bhqp2rcd13ifvqhng","pricing_plan_id":"free"},{"bike_id":"2813de7a-5053-4219-8ae4-5362f9f39205","system_id":"levelo_inurba_marseille","lat":43.317557,"lon":5.390173,"is_reserved":false,"is_disabled":false,"rental_uris":{"android":"levelo://app?vid=2813de7a-5053-4219-8ae4-5362f9f39205","ios":"levelo://app?vid=2813de7a-5053-4219-8ae4-5362f9f39205"},"vehicle_type_id":"4","last_reported":1685038103,"current_range_meters":28400,"station_id":"ce4bhqp2rcd13ifvqhng","pricing_plan_id":"free"},{"bike_id":"5b32b1e8-c723-476c-af48-33ab3bfd2e02","system_id":"levelo_inurba_marseille","lat":43.31756,"lon":5.39018,"is_reserved":false,"is_disabled":false,"rental_uris":{"android":"levelo://app?vid=5b32b1e8-c723-476c-af48-33ab3bfd2e02","ios":"levelo://app?vid=5b32b1e8-c723-476c-af48-33ab3bfd2e02"},"vehicle_type_id":"4","last_reported":1685038103,"current_range_meters":21200,"station_id":"ce4bhqp2rcd13ifvqhng","pricing_plan_id":"free"},{"bike_id":"d76ee61b-5059-4b6a-bdab-72fb0b53aea0","system_id":"levelo_inurba_marseille","lat":43.317557,"lon":5.390173,"is_reserved":false,"is_disabled":false,"rental_uris":{"android":"levelo://app?vid=d76ee61b-5059-4b6a-bdab-72fb0b53aea0","ios":"levelo://app?vid=d76ee61b-5059-4b6a-bdab-72fb0b53aea0"},"vehicle_type_id":"4","last_reported":1685038103,"current_range_meters":29200,"station_id":"ce4bhqp2rcd13ifvqhng","pricing_plan_id":"free"},{"bike_id":"17449c76-734e-4863-ac24-3d73eb534327","system_id":"levelo_inurba_marseille","lat":43.29622,"lon":5.3772,"is_reserved":false,"is_disabled":false,"rental_uris":{"android":"levelo://app?vid=17449c76-734e-4863-ac24-3d73eb534327","ios":"levelo://app?vid=17449c76-734e-4863-ac24-3d73eb534327"},"vehicle_type_id":"4","last_reported":1685038103,"current_range_meters":15200,"station_id":"ce4bgi92rcd13ifvqb90","pricing_plan_id":"free"},{"bike_id":"916cf4f7-fa3c-4f3b-974a-5b25014c2455","system_id":"levelo_inurba_marseille","lat":43.304274,"lon":5.388873,"is_reserved":false,"is_disabled":false,"rental_uris":{"android":"levelo://app?vid=916cf4f7-fa3c-4f3b-974a-5b25014c2455","ios":"levelo://app?vid=916cf4f7-fa3c-4f3b-974a-5b25014c2455"},"vehicle_type_id":"4","last_reported":1685038103,"current_range_meters":15200,"station_id":"ce4bgk12rcd13ifvqbi0","pricing_plan_id":"free"},{"bike_id":"3d39b48d-c19b-4941-bd80-9be9be2037de","system_id":"levelo_inurba_marseille","lat":43.29536,"lon":5.37415,"is_reserved":false,"is_disabled":false,"rental_uris":{"android":"levelo://app?vid=3d39b48d-c19b-4941-bd80-9be9be2037de","ios":"levelo://app?vid=3d39b48d-c19b-4941-bd80-9be9be2037de"},"vehicle_type_id":"4","last_reported":1685038103,"current_range_meters":13600,"station_id":"","pricing_plan_id":"free"},{"bike_id":"f4c6b92f-8637-4d3f-b104-65861721a589","system_id":"levelo_inurba_marseille","lat":43.296277,"lon":5.377108,"is_reserved":false,"is_disabled":false,"rental_uris":{"android":"levelo://app?vid=f4c6b92f-8637-4d3f-b104-65861721a589","ios":"levelo://app?vid=f4c6b92f-8637-4d3f-b104-65861721a589"},"vehicle_type_id":"4","last_reported":1685038103,"current_range_meters":26800,"station_id":"ce4bgi92rcd13ifvqb90","pricing_plan_id":"free"},{"bike_id":"6ba613f0-91f7-499a-8359-63530522f65c","system_id":"levelo_inurba_marseille","lat":43.2479,"lon":5.374457,"is_reserved":false,"is_disabled":false,"rental_uris":{"android":"levelo://app?vid=6ba613f0-91f7-499a-8359-63530522f65c","ios":"levelo://app?vid=6ba613f0-91f7-499a-8359-63530522f65c"},"vehicle_type_id":"4","last_reported":1685038103,"current_range_meters":2000,"station_id":"ce4bhgh2rcd13ifvqfb0","pricing_plan_id":"free"},{"bike_id":"96c91e5e-1df6-4a07-8ff7-600bd9d1f35f","system_id":"levelo_inurba_marseille","lat":43.32367,"lon":5.388836,"is_reserved":false,"is_disabled":false,"rental_uris":{"android":"levelo://app?vid=96c91e5e-1df6-4a07-8ff7-600bd9d1f35f","ios":"levelo://app?vid=96c91e5e-1df6-4a07-8ff7-600bd9d1f35f"},"vehicle_type_id":"4","last_reported":1685038103,"current_range_meters":22800,"station_id":"ce4bhqp2rcd13ifvqhog","pricing_plan_id":"free"},{"bike_id":"eb919dee-7924-4349-b9ec-b54f7f96aefd","system_id":"levelo_inurba_marseille","lat":43.32367,"lon":5.388836,"is_reserved":false,"is_disabled":false,"rental_uris":{"android":"levelo://app?vid=eb919dee-7924-4349-b9ec-b54f7f96aefd","ios":"levelo://app?vid=eb919dee-7924-4349-b9ec-b54f7f96aefd"},"vehicle_type_id":"4","last_reported":1685038103,"current_range_meters":23200,"station_id":"ce4bhqp2rcd13ifvqhog","pricing_plan_id":"free"},{"bike_id":"3f245026-7545-4924-a951-14be0bedc89e","system_id":"levelo_inurba_marseille","lat":43.31292,"lon":5.39379,"is_reserved":false,"is_disabled":false,"rental_uris":{"android":"levelo://app?vid=3f245026-7545-4924-a951-14be0bedc89e","ios":"levelo://app?vid=3f245026-7545-4924-a951-14be0bedc89e"},"vehicle_type_id":"4","last_reported":1685038103,"current_range_meters":1200,"station_id":"","pricing_plan_id":"free"},{"bike_id":"82915d77-2a86-4040-a490-7a460e7dc45e","system_id":"levelo_inurba_marseille","lat":43.292749,"lon":5.368402,"is_reserved":false,"is_disabled":false,"rental_uris":{"android":"levelo://app?vid=82915d77-2a86-4040-a490-7a460e7dc45e","ios":"levelo://app?vid=82915d77-2a86-4040-a490-7a460e7dc45e"},"vehicle_type_id":"4","last_reported":1685038103,"current_range_meters":31200,"station_id":"ce4bhbp2rcd13ifvqesg","pricing_plan_id":"free"},{"bike_id":"0e05fd59-c055-4075-bfd3-44843d5f4dcf","system_id":"levelo_inurba_marseille","lat":43.29274,"lon":5.3684,"is_reserved":false,"is_disabled":false,"rental_uris":{"android":"levelo://app?vid=0e05fd59-c055-4075-bfd3-44843d5f4dcf","ios":"levelo://app?vid=0e05fd59-c055-4075-bfd3-44843d5f4dcf"},"vehicle_type_id":"4","last_reported":1685038103,"current_range_meters":3600,"station_id":"ce4bhbp2rcd13ifvqesg","pricing_plan_id":"free"},{"bike_id":"d9c4f0a3-b7ec-496a-b58f-a50769e2ebdf","system_id":"levelo_inurba_marseille","lat":43.305994,"lon":5.393687,"is_reserved":false,"is_disabled":false,"rental_uris":{"android":"levelo://app?vid=d9c4f0a3-b7ec-496a-b58f-a50769e2ebdf","ios":"levelo://app?vid=d9c4f0a3-b7ec-496a-b58f-a50769e2ebdf"},"vehicle_type_id":"4","last_reported":1685038103,"current_range_meters":31600,"station_id":"ce4bh0p2rcd13ifvqd80","pricing_plan_id":"free"},{"bike_id":"23ee111a-b23f-4bee-b37e-74749198d341","system_id":"levelo_inurba_marseille","lat":43.305994,"lon":5.393687,"is_reserved":false,"is_disabled":false,"rental_uris":{"android":"levelo://app?vid=23ee111a-b23f-4bee-b37e-74749198d341","ios":"levelo://app?vid=23ee111a-b23f-4bee-b37e-74749198d341"},"vehicle_type_id":"4","last_reported":1685038103,"current_range_meters":31600,"station_id":"ce4bh0p2rcd13ifvqd80","pricing_plan_id":"free"},{"bike_id":"5f133778-755b-4382-8763-9575f970644d","system_id":"levelo_inurba_marseille","lat":43.300852,"lon":5.390859,"is_reserved":false,"is_disabled":false,"rental_uris":{"android":"levelo://app?vid=5f133778-755b-4382-8763-9575f970644d","ios":"levelo://app?vid=5f133778-755b-4382-8763-9575f970644d"},"vehicle_type_id":"4","last_reported":1685038103,"current_range_meters":0,"station_id":"ce4bh192rcd13ifvqdb0","pricing_plan_id":"free"},{"bike_id":"b7b816a8-d8a0-46fc-9479-726909c92753","system_id":"levelo_inurba_marseille","lat":43.29226,"lon":5.36067,"is_reserved":false,"is_disabled":false,"rental_uris":{"android":"levelo://app?vid=b7b816a8-d8a0-46fc-9479-726909c92753","ios":"levelo://app?vid=b7b816a8-d8a0-46fc-9479-726909c92753"},"vehicle_type_id":"4","last_reported":1685038103,"current_range_meters":4400,"station_id":"ce4bhbh2rcd13ifvqeqg","pricing_plan_id":"free"},{"bike_id":"09cc53dc-b047-4496-8a75-c8cf90a9f78d","system_id":"levelo_inurba_marseille","lat":43.292311,"lon":5.360731,"is_reserved":false,"is_disabled":false,"rental_uris":{"android":"levelo://app?vid=09cc53dc-b047-4496-8a75-c8cf90a9f78d","ios":"levelo://app?vid=09cc53dc-b047-4496-8a75-c8cf90a9f78d"},"vehicle_type_id":"4","last_reported":1685038103,"current_range_meters":21600,"station_id":"ce4bhbh2rcd13ifvqeqg","pricing_plan_id":"free"},{"bike_id":"62f0994c-05cf-460f-a030-61e0802a6ba0","system_id":"levelo_inurba_marseille","lat":43.291675,"lon":5.371583,"is_reserved":false,"is_disabled":false,"rental_uris":{"android":"levelo://app?vid=62f0994c-05cf-460f-a030-61e0802a6ba0","ios":"levelo://app?vid=62f0994c-05cf-460f-a030-61e0802a6ba0"},"vehicle_type_id":"4","last_reported":1685038103,"current_range_meters":6000,"station_id":"ce4bha92rcd13ifvqeh0","pricing_plan_id":"free"},{"bike_id":"896faa22-6c0b-4387-91d9-809afcb6a1ac","system_id":"levelo_inurba_marseille","lat":43.291675,"lon":5.371583,"is_reserved":false,"is_disabled":false,"rental_uris":{"android":"levelo://app?vid=896faa22-6c0b-4387-91d9-809afcb6a1ac","ios":"levelo://app?vid=896faa22-6c0b-4387-91d9-809afcb6a1ac"},"vehicle_type_id":"4","last_reported":1685038103,"current_range_meters":4400,"station_id":"ce4bha92rcd13ifvqeh0","pricing_plan_id":"free"},{"bike_id":"1a837ef2-df25-417b-9706-2b77786873bc","system_id":"levelo_inurba_marseille","lat":43.291994,"lon":5.357886,"is_reserved":false,"is_disabled":false,"rental_uris":{"android":"levelo://app?vid=1a837ef2-df25-417b-9706-2b77786873bc","ios":"levelo://app?vid=1a837ef2-df25-417b-9706-2b77786873bc"},"vehicle_type_id":"4","last_reported":1685038103,"current_range_meters":6800,"station_id":"ce4bhb12rcd13ifvqel0","pricing_plan_id":"free"},{"bike_id":"c9006334-6215-4ddd-ba74-6c0f9230cb37","system_id":"levelo_inurba_marseille","lat":43.291994,"lon":5.357886,"is_reserved":false,"is_disabled":false,"rental_uris":{"android":"levelo://app?vid=c9006334-6215-4ddd-ba74-6c0f9230cb37","ios":"levelo://app?vid=c9006334-6215-4ddd-ba74-6c0f9230cb37"},"vehicle_type_id":"4","last_reported":1685038103,"current_range_meters":10000,"station_id":"ce4bhb12rcd13ifvqel0","pricing_plan_id":"free"},{"bike_id":"afe40065-e5f7-4a78-8131-0318e56b47ff","system_id":"levelo_inurba_marseille","lat":43.291994,"lon":5.357886,"is_reserved":false,"is_disabled":false,"rental_uris":{"android":"levelo://app?vid=afe40065-e5f7-4a78-8131-0318e56b47ff","ios":"levelo://app?vid=afe40065-e5f7-4a78-8131-0318e56b47ff"},"vehicle_type_id":"4","last_reported":1685038103,"current_range_meters":18400,"station_id":"ce4bhb12rcd13ifvqel0","pricing_plan_id":"free"},{"bike_id":"6feebd77-cb49-4b15-b996-841c1d34ad3f","system_id":"levelo_inurba_marseille","lat":43.29198,"lon":5.35798,"is_reserved":false,"is_disabled":false,"rental_uris":{"android":"levelo://app?vid=6feebd77-cb49-4b15-b996-841c1d34ad3f","ios":"levelo://app?vid=6feebd77-cb49-4b15-b996-841c1d34ad3f"},"vehicle_type_id":"4","last_reported":1685038103,"current_range_meters":23600,"station_id":"ce4bhb12rcd13ifvqel0","pricing_plan_id":"free"},{"bike_id":"d403d187-ba93-4366-aacd-3fa0a5c8c91d","system_id":"levelo_inurba_marseille","lat":43.291994,"lon":5.357886,"is_reserved":false,"is_disabled":false,"rental_uris":{"android":"levelo://app?vid=d403d187-ba93-4366-aacd-3fa0a5c8c91d","ios":"levelo://app?vid=d403d187-ba93-4366-aacd-3fa0a5c8c91d"},"vehicle_type_id":"4","last_reported":1685038103,"current_range_meters":6800,"station_id":"ce4bhb12rcd13ifvqel0","pricing_plan_id":"free"},{"bike_id":"0f978702-b106-43e0-a10e-680e6d9adaad","system_id":"levelo_inurba_marseille","lat":43.30887,"lon":5.39641,"is_reserved":false,"is_disabled":false,"rental_uris":{"android":"levelo://app?vid=0f978702-b106-43e0-a10e-680e6d9adaad","ios":"levelo://app?vid=0f978702-b106-43e0-a10e-680e6d9adaad"},"vehicle_type_id":"4","last_reported":1685038103,"current_range_meters":4400,"station_id":"ce4bh012rcd13ifvqcv0","pricing_plan_id":"free"},{"bike_id":"57664484-835a-468a-be02-139f838f1d1c","system_id":"levelo_inurba_marseille","lat":43.31324,"lon":5.39691,"is_reserved":false,"is_disabled":false,"rental_uris":{"android":"levelo://app?vid=57664484-835a-468a-be02-139f838f1d1c","ios":"levelo://app?vid=57664484-835a-468a-be02-139f838f1d1c"},"vehicle_type_id":"4","last_reported":1685038103,"current_range_meters":15600,"station_id":"ce4bgvp2rcd13ifvqcu0","pricing_plan_id":"free"},{"bike_id":"8344e5c1-f4db-45f1-bcb4-31122ce74860","system_id":"levelo_inurba_marseille","lat":43.31331,"lon":5.39692,"is_reserved":false,"is_disabled":false,"rental_uris":{"android":"levelo://app?vid=8344e5c1-f4db-45f1-bcb4-31122ce74860","ios":"levelo://app?vid=8344e5c1-f4db-45f1-bcb4-31122ce74860"},"vehicle_type_id":"4","last_reported":1685038103,"current_range_meters":26000,"station_id":"ce4bgvp2rcd13ifvqcu0","pricing_plan_id":"free"},{"bike_id":"e02f95be-d3b8-4492-af7e-5c18369a125e","system_id":"levelo_inurba_marseille","lat":43.31326,"lon":5.39693,"is_reserved":false,"is_disabled":false,"rental_uris":{"android":"levelo://app?vid=e02f95be-d3b8-4492-af7e-5c18369a125e","ios":"levelo://app?vid=e02f95be-d3b8-4492-af7e-5c18369a125e"},"vehicle_type_id":"4","last_reported":1685038103,"current_range_meters":12000,"station_id":"ce4bgvp2rcd13ifvqcu0","pricing_plan_id":"free"},{"bike_id":"2672ac12-4489-4faa-9202-cf9080d4db0b","system_id":"levelo_inurba_marseille","lat":43.31329,"lon":5.39693,"is_reserved":false,"is_disabled":false,"rental_uris":{"android":"levelo://app?vid=2672ac12-4489-4faa-9202-cf9080d4db0b","ios":"levelo://app?vid=2672ac12-4489-4faa-9202-cf9080d4db0b"},"vehicle_type_id":"4","last_reported":1685038103,"current_range_meters":21200,"station_id":"ce4bgvp2rcd13ifvqcu0","pricing_plan_id":"free"},{"bike_id":"c6e6e02c-dc44-4728-9e2c-a48dc35086fd","system_id":"levelo_inurba_marseille","lat":43.31331,"lon":5.39693,"is_reserved":false,"is_disabled":false,"rental_uris":{"android":"levelo://app?vid=c6e6e02c-dc44-4728-9e2c-a48dc35086fd","ios":"levelo://app?vid=c6e6e02c-dc44-4728-9e2c-a48dc35086fd"},"vehicle_type_id":"4","last_reported":1685038103,"current_range_meters":31200,"station_id":"ce4bgvp2rcd13ifvqcu0","pricing_plan_id":"free"},{"bike_id":"c937aa2c-6bb3-4485-9f4a-93f044777dc5","system_id":"levelo_inurba_marseille","lat":43.31329,"lon":5.39694,"is_reserved":false,"is_disabled":false,"rental_uris":{"android":"levelo://app?vid=c937aa2c-6bb3-4485-9f4a-93f044777dc5","ios":"levelo://app?vid=c937aa2c-6bb3-4485-9f4a-93f044777dc5"},"vehicle_type_id":"4","last_reported":1685038103,"current_range_meters":30800,"station_id":"ce4bgvp2rcd13ifvqcu0","pricing_plan_id":"free"},{"bike_id":"dde9dbd3-7076-4e5e-aeeb-ab5f4b156427","system_id":"levelo_inurba_marseille","lat":43.29188,"lon":5.358,"is_reserved":false,"is_disabled":false,"rental_uris":{"android":"levelo://app?vid=dde9dbd3-7076-4e5e-aeeb-ab5f4b156427","ios":"levelo://app?vid=dde9dbd3-7076-4e5e-aeeb-ab5f4b156427"},"vehicle_type_id":"4","last_reported":1685038103,"current_range_meters":28800,"station_id":"ce4bhb12rcd13ifvqel0","pricing_plan_id":"free"},{"bike_id":"ce6dba37-9887-49c1-9106-bf1b39eb4f3e","system_id":"levelo_inurba_marseille","lat":43.3133,"lon":5.39695,"is_reserved":false,"is_disabled":false,"rental_uris":{"android":"levelo://app?vid=ce6dba37-9887-49c1-9106-bf1b39eb4f3e","ios":"levelo://app?vid=ce6dba37-9887-49c1-9106-bf1b39eb4f3e"},"vehicle_type_id":"4","last_reported":1685038103,"current_range_meters":31200,"station_id":"ce4bgvp2rcd13ifvqcu0","pricing_plan_id":"free"},{"bike_id":"c7c7f819-f196-43ce-9356-6bf838b2caff","system_id":"levelo_inurba_marseille","lat":43.31331,"lon":5.39696,"is_reserved":false,"is_disabled":false,"rental_uris":{"android":"levelo://app?vid=c7c7f819-f196-43ce-9356-6bf838b2caff","ios":"levelo://app?vid=c7c7f819-f196-43ce-9356-6bf838b2caff"},"vehicle_type_id":"4","last_reported":1685038103,"current_range_meters":20400,"station_id":"ce4bgvp2rcd13ifvqcu0","pricing_plan_id":"free"},{"bike_id":"42532ece-1c94-4b86-85cb-a0830d342fe9","system_id":"levelo_inurba_marseille","lat":43.309038,"lon":5.396546,"is_reserved":false,"is_disabled":false,"rental_uris":{"android":"levelo://app?vid=42532ece-1c94-4b86-85cb-a0830d342fe9","ios":"levelo://app?vid=42532ece-1c94-4b86-85cb-a0830d342fe9"},"vehicle_type_id":"4","last_reported":1685038103,"current_range_meters":21600,"station_id":"ce4bh012rcd13ifvqcv0","pricing_plan_id":"free"},{"bike_id":"67843c64-397d-4728-a46c-88274731f089","system_id":"levelo_inurba_marseille","lat":43.30895,"lon":5.39657,"is_reserved":false,"is_disabled":false,"rental_uris":{"android":"levelo://app?vid=67843c64-397d-4728-a46c-88274731f089","ios":"levelo://app?vid=67843c64-397d-4728-a46c-88274731f089"},"vehicle_type_id":"4","last_reported":1685038103,"current_range_meters":15600,"station_id":"ce4bh012rcd13ifvqcv0","pricing_plan_id":"free"},{"bike_id":"4ac2f2e0-4766-4402-bd1c-38574693fd63","system_id":"levelo_inurba_marseille","lat":43.29529,"lon":5.385581,"is_reserved":false,"is_disabled":false,"rental_uris":{"android":"levelo://app?vid=4ac2f2e0-4766-4402-bd1c-38574693fd63","ios":"levelo://app?vid=4ac2f2e0-4766-4402-bd1c-38574693fd63"},"vehicle_type_id":"4","last_reported":1685038103,"current_range_meters":0,"station_id":"ce4bgih2rcd13ifvqba0","pricing_plan_id":"free"},{"bike_id":"f1935305-e45f-409c-9600-0f44bd0e44d0","system_id":"levelo_inurba_marseille","lat":43.2953,"lon":5.38549,"is_reserved":false,"is_disabled":false,"rental_uris":{"android":"levelo://app?vid=f1935305-e45f-409c-9600-0f44bd0e44d0","ios":"levelo://app?vid=f1935305-e45f-409c-9600-0f44bd0e44d0"},"vehicle_type_id":"4","last_reported":1685038103,"current_range_meters":16400,"station_id":"ce4bgih2rcd13ifvqba0","pricing_plan_id":"free"},{"bike_id":"b2663214-a825-468e-98bc-ea6072285689","system_id":"levelo_inurba_marseille","lat":43.29057,"lon":5.36539,"is_reserved":false,"is_disabled":false,"rental_uris":{"android":"levelo://app?vid=b2663214-a825-468e-98bc-ea6072285689","ios":"levelo://app?vid=b2663214-a825-468e-98bc-ea6072285689"},"vehicle_type_id":"4","last_reported":1685038103,"current_range_meters":23600,"station_id":"","pricing_plan_id":"free"},{"bike_id":"3b3247f3-53ab-4666-9393-34706745e033","system_id":"levelo_inurba_marseille","lat":43.3021,"lon":5.39461,"is_reserved":false,"is_disabled":false,"rental_uris":{"android":"levelo://app?vid=3b3247f3-53ab-4666-9393-34706745e033","ios":"levelo://app?vid=3b3247f3-53ab-4666-9393-34706745e033"},"vehicle_type_id":"4","last_reported":1685038103,"current_range_meters":2800,"station_id":"ce4bh0p2rcd13ifvqd70","pricing_plan_id":"free"},{"bike_id":"b7ec7cda-98c1-472d-b555-db07409eef84","system_id":"levelo_inurba_marseille","lat":43.290624,"lon":5.359245,"is_reserved":false,"is_disabled":false,"rental_uris":{"android":"levelo://app?vid=b7ec7cda-98c1-472d-b555-db07409eef84","ios":"levelo://app?vid=b7ec7cda-98c1-472d-b555-db07409eef84"},"vehicle_type_id":"4","last_reported":1685038103,"current_range_meters":8000,"station_id":"ce4bha92rcd13ifvqeg0","pricing_plan_id":"free"},{"bike_id":"46094afd-0c11-450e-9b85-5f7881e02939","system_id":"levelo_inurba_marseille","lat":43.290624,"lon":5.359245,"is_reserved":false,"is_disabled":false,"rental_uris":{"android":"levelo://app?vid=46094afd-0c11-450e-9b85-5f7881e02939","ios":"levelo://app?vid=46094afd-0c11-450e-9b85-5f7881e02939"},"vehicle_type_id":"4","last_reported":1685038103,"current_range_meters":9200,"station_id":"ce4bha92rcd13ifvqeg0","pricing_plan_id":"free"},{"bike_id":"c076431b-3949-407d-979f-eb31085c912c","system_id":"levelo_inurba_marseille","lat":43.290624,"lon":5.359245,"is_reserved":false,"is_disabled":false,"rental_uris":{"android":"levelo://app?vid=c076431b-3949-407d-979f-eb31085c912c","ios":"levelo://app?vid=c076431b-3949-407d-979f-eb31085c912c"},"vehicle_type_id":"4","last_reported":1685038103,"current_range_meters":4000,"station_id":"ce4bha92rcd13ifvqeg0","pricing_plan_id":"free"},{"bike_id":"484c67a2-f8ae-49bb-93c4-9d570b435853","system_id":"levelo_inurba_marseille","lat":43.290631,"lon":5.359244,"is_reserved":false,"is_disabled":false,"rental_uris":{"android":"levelo://app?vid=484c67a2-f8ae-49bb-93c4-9d570b435853","ios":"levelo://app?vid=484c67a2-f8ae-49bb-93c4-9d570b435853"},"vehicle_type_id":"4","last_reported":1685038103,"current_range_meters":16800,"station_id":"ce4bha92rcd13ifvqeg0","pricing_plan_id":"free"},{"bike_id":"623b4ff2-73b0-4bfc-962f-1a6e9235de6a","system_id":"levelo_inurba_marseille","lat":43.29127,"lon":5.355774,"is_reserved":false,"is_disabled":false,"rental_uris":{"android":"levelo://app?vid=623b4ff2-73b0-4bfc-962f-1a6e9235de6a","ios":"levelo://app?vid=623b4ff2-73b0-4bfc-962f-1a6e9235de6a"},"vehicle_type_id":"4","last_reported":1685038103,"current_range_meters":1600,"station_id":"","pricing_plan_id":"free"},{"bike_id":"9f6364d8-19f9-4aaf-aef4-8da7486be773","system_id":"levelo_inurba_marseille","lat":43.290631,"lon":5.359244,"is_reserved":false,"is_disabled":false,"rental_uris":{"android":"levelo://app?vid=9f6364d8-19f9-4aaf-aef4-8da7486be773","ios":"levelo://app?vid=9f6364d8-19f9-4aaf-aef4-8da7486be773"},"vehicle_type_id":"4","last_reported":1685038103,"current_range_meters":15600,"station_id":"ce4bha92rcd13ifvqeg0","pricing_plan_id":"free"},{"bike_id":"659f1738-695f-447a-be8c-a3e6e4bbc674","system_id":"levelo_inurba_marseille","lat":43.290631,"lon":5.359244,"is_reserved":false,"is_disabled":false,"rental_uris":{"android":"levelo://app?vid=659f1738-695f-447a-be8c-a3e6e4bbc674","ios":"levelo://app?vid=659f1738-695f-447a-be8c-a3e6e4bbc674"},"vehicle_type_id":"4","last_reported":1685038103,"current_range_meters":24800,"station_id":"ce4bha92rcd13ifvqeg0","pricing_plan_id":"free"},{"bike_id":"6d6b5c49-5c5b-4e8f-967a-aec84d73abbe","system_id":"levelo_inurba_marseille","lat":43.294153,"lon":5.386305,"is_reserved":false,"is_disabled":false,"rental_uris":{"android":"levelo://app?vid=6d6b5c49-5c5b-4e8f-967a-aec84d73abbe","ios":"levelo://app?vid=6d6b5c49-5c5b-4e8f-967a-aec84d73abbe"},"vehicle_type_id":"4","last_reported":1685038103,"current_range_meters":4800,"station_id":"ce4bh2h2rcd13ifvqdh0","pricing_plan_id":"free"},{"bike_id":"41b55e76-239b-4672-9b77-cd75043533e9","system_id":"levelo_inurba_marseille","lat":43.294153,"lon":5.386305,"is_reserved":false,"is_disabled":false,"rental_uris":{"android":"levelo://app?vid=41b55e76-239b-4672-9b77-cd75043533e9","ios":"levelo://app?vid=41b55e76-239b-4672-9b77-cd75043533e9"},"vehicle_type_id":"4","last_reported":1685038103,"current_range_meters":24400,"station_id":"ce4bh2h2rcd13ifvqdh0","pricing_plan_id":"free"},{"bike_id":"bd756035-c4b2-41d2-949c-1b4d861412fe","system_id":"levelo_inurba_marseille","lat":43.29418,"lon":5.38622,"is_reserved":false,"is_disabled":false,"rental_uris":{"android":"levelo://app?vid=bd756035-c4b2-41d2-949c-1b4d861412fe","ios":"levelo://app?vid=bd756035-c4b2-41d2-949c-1b4d861412fe"},"vehicle_type_id":"4","last_reported":1685038103,"current_range_meters":14400,"station_id":"ce4bh2h2rcd13ifvqdh0","pricing_plan_id":"free"},{"bike_id":"e8d5a651-f22b-4b84-bb07-19b443584e03","system_id":"levelo_inurba_marseille","lat":43.29418,"lon":5.38629,"is_reserved":false,"is_disabled":false,"rental_uris":{"android":"levelo://app?vid=e8d5a651-f22b-4b84-bb07-19b443584e03","ios":"levelo://app?vid=e8d5a651-f22b-4b84-bb07-19b443584e03"},"vehicle_type_id":"4","last_reported":1685038103,"current_range_meters":12800,"station_id":"ce4bh2h2rcd13ifvqdh0","pricing_plan_id":"free"},{"bike_id":"202386d6-cd55-4ce9-be0d-2a8095652d60","system_id":"levelo_inurba_marseille","lat":43.29416,"lon":5.38626,"is_reserved":false,"is_disabled":false,"rental_uris":{"android":"levelo://app?vid=202386d6-cd55-4ce9-be0d-2a8095652d60","ios":"levelo://app?vid=202386d6-cd55-4ce9-be0d-2a8095652d60"},"vehicle_type_id":"4","last_reported":1685038103,"current_range_meters":4800,"station_id":"ce4bh2h2rcd13ifvqdh0","pricing_plan_id":"free"},{"bike_id":"c0eea4df-1b62-4c91-b5b4-66983e4608b6","system_id":"levelo_inurba_marseille","lat":43.289468,"lon":5.363719,"is_reserved":false,"is_disabled":false,"rental_uris":{"android":"levelo://app?vid=c0eea4df-1b62-4c91-b5b4-66983e4608b6","ios":"levelo://app?vid=c0eea4df-1b62-4c91-b5b4-66983e4608b6"},"vehicle_type_id":"4","last_reported":1685038103,"current_range_meters":9600,"station_id":"ce4bhc92rcd13ifvqetg","pricing_plan_id":"free"},{"bike_id":"3bc46c11-3781-4da9-8c87-07e7afb12cd6","system_id":"levelo_inurba_marseille","lat":43.294162,"lon":5.386292,"is_reserved":false,"is_disabled":false,"rental_uris":{"android":"levelo://app?vid=3bc46c11-3781-4da9-8c87-07e7afb12cd6","ios":"levelo://app?vid=3bc46c11-3781-4da9-8c87-07e7afb12cd6"},"vehicle_type_id":"4","last_reported":1685038103,"current_range_meters":13600,"station_id":"ce4bh2h2rcd13ifvqdh0","pricing_plan_id":"free"},{"bike_id":"68945396-e549-4752-b8d1-5403d849a218","system_id":"levelo_inurba_marseille","lat":43.289184,"lon":5.366408,"is_reserved":false,"is_disabled":false,"rental_uris":{"android":"levelo://app?vid=68945396-e549-4752-b8d1-5403d849a218","ios":"levelo://app?vid=68945396-e549-4752-b8d1-5403d849a218"},"vehicle_type_id":"4","last_reported":1685038103,"current_range_meters":13200,"station_id":"ce4bhap2rcd13ifvqek0","pricing_plan_id":"free"},{"bike_id":"023435c7-71ee-4de5-bf34-b751028e5f8d","system_id":"levelo_inurba_marseille","lat":43.289184,"lon":5.366408,"is_reserved":false,"is_disabled":false,"rental_uris":{"android":"levelo://app?vid=023435c7-71ee-4de5-bf34-b751028e5f8d","ios":"levelo://app?vid=023435c7-71ee-4de5-bf34-b751028e5f8d"},"vehicle_type_id":"4","last_reported":1685038103,"current_range_meters":20400,"station_id":"ce4bhap2rcd13ifvqek0","pricing_plan_id":"free"},{"bike_id":"e11e447b-4672-4915-80ce-e7fc4a8b5cf3","system_id":"levelo_inurba_marseille","lat":43.289184,"lon":5.366408,"is_reserved":false,"is_disabled":false,"rental_uris":{"android":"levelo://app?vid=e11e447b-4672-4915-80ce-e7fc4a8b5cf3","ios":"levelo://app?vid=e11e447b-4672-4915-80ce-e7fc4a8b5cf3"},"vehicle_type_id":"4","last_reported":1685038103,"current_range_meters":21600,"station_id":"ce4bhap2rcd13ifvqek0","pricing_plan_id":"free"},{"bike_id":"174ec496-e863-4b99-a8d1-e78e40cd6e7c","system_id":"levelo_inurba_marseille","lat":43.28931,"lon":5.36402,"is_reserved":false,"is_disabled":false,"rental_uris":{"android":"levelo://app?vid=174ec496-e863-4b99-a8d1-e78e40cd6e7c","ios":"levelo://app?vid=174ec496-e863-4b99-a8d1-e78e40cd6e7c"},"vehicle_type_id":"4","last_reported":1685038103,"current_range_meters":8400,"station_id":"","pricing_plan_id":"free"},{"bike_id":"29abd998-b656-41ae-ad7e-143e31a690c1","system_id":"levelo_inurba_marseille","lat":43.292644,"lon":5.384257,"is_reserved":false,"is_disabled":false,"rental_uris":{"android":"levelo://app?vid=29abd998-b656-41ae-ad7e-143e31a690c1","ios":"levelo://app?vid=29abd998-b656-41ae-ad7e-143e31a690c1"},"vehicle_type_id":"4","last_reported":1685038103,"current_range_meters":12000,"station_id":"ce4bh692rcd13ifvqea0","pricing_plan_id":"free"},{"bike_id":"a93470f3-f36a-40d7-9251-452dda564f68","system_id":"levelo_inurba_marseille","lat":43.292642,"lon":5.384254,"is_reserved":false,"is_disabled":false,"rental_uris":{"android":"levelo://app?vid=a93470f3-f36a-40d7-9251-452dda564f68","ios":"levelo://app?vid=a93470f3-f36a-40d7-9251-452dda564f68"},"vehicle_type_id":"4","last_reported":1685038103,"current_range_meters":1600,"station_id":"ce4bh692rcd13ifvqea0","pricing_plan_id":"free"},{"bike_id":"00ee59c9-dfb1-4d98-a678-65c9ff428432","system_id":"levelo_inurba_marseille","lat":43.292642,"lon":5.384254,"is_reserved":false,"is_disabled":false,"rental_uris":{"android":"levelo://app?vid=00ee59c9-dfb1-4d98-a678-65c9ff428432","ios":"levelo://app?vid=00ee59c9-dfb1-4d98-a678-65c9ff428432"},"vehicle_type_id":"4","last_reported":1685038103,"current_range_meters":2400,"station_id":"ce4bh692rcd13ifvqea0","pricing_plan_id":"free"},{"bike_id":"6fd5886f-b301-41b0-86b9-7b38920d5e9d","system_id":"levelo_inurba_marseille","lat":43.292644,"lon":5.384257,"is_reserved":false,"is_disabled":false,"rental_uris":{"android":"levelo://app?vid=6fd5886f-b301-41b0-86b9-7b38920d5e9d","ios":"levelo://app?vid=6fd5886f-b301-41b0-86b9-7b38920d5e9d"},"vehicle_type_id":"4","last_reported":1685038103,"current_range_meters":16800,"station_id":"ce4bh692rcd13ifvqea0","pricing_plan_id":"free"},{"bike_id":"977e0a4f-49d9-4bc7-84d0-be71724e35d8","system_id":"levelo_inurba_marseille","lat":43.292642,"lon":5.384254,"is_reserved":false,"is_disabled":false,"rental_uris":{"android":"levelo://app?vid=977e0a4f-49d9-4bc7-84d0-be71724e35d8","ios":"levelo://app?vid=977e0a4f-49d9-4bc7-84d0-be71724e35d8"},"vehicle_type_id":"4","last_reported":1685038103,"current_range_meters":0,"station_id":"ce4bh692rcd13ifvqea0","pricing_plan_id":"free"},{"bike_id":"a872d810-285d-4461-b6ab-222db558740f","system_id":"levelo_inurba_marseille","lat":43.292644,"lon":5.384257,"is_reserved":false,"is_disabled":false,"rental_uris":{"android":"levelo://app?vid=a872d810-285d-4461-b6ab-222db558740f","ios":"levelo://app?vid=a872d810-285d-4461-b6ab-222db558740f"},"vehicle_type_id":"4","last_reported":1685038103,"current_range_meters":17200,"station_id":"ce4bh692rcd13ifvqea0","pricing_plan_id":"free"},{"bike_id":"edd1a1ff-20f8-4a57-9471-19c0bb954abf","system_id":"levelo_inurba_marseille","lat":43.292642,"lon":5.384254,"is_reserved":false,"is_disabled":false,"rental_uris":{"android":"levelo://app?vid=edd1a1ff-20f8-4a57-9471-19c0bb954abf","ios":"levelo://app?vid=edd1a1ff-20f8-4a57-9471-19c0bb954abf"},"vehicle_type_id":"4","last_reported":1685038103,"current_range_meters":20800,"station_id":"ce4bh692rcd13ifvqea0","pricing_plan_id":"free"},{"bike_id":"abded4cf-7dc6-446b-8392-39bb47aa9914","system_id":"levelo_inurba_marseille","lat":43.292642,"lon":5.384254,"is_reserved":false,"is_disabled":false,"rental_uris":{"android":"levelo://app?vid=abded4cf-7dc6-446b-8392-39bb47aa9914","ios":"levelo://app?vid=abded4cf-7dc6-446b-8392-39bb47aa9914"},"vehicle_type_id":"4","last_reported":1685038103,"current_range_meters":0,"station_id":"ce4bh692rcd13ifvqea0","pricing_plan_id":"free"},{"bike_id":"9eeccb6f-b5b7-4e7a-980e-55b49deb6390","system_id":"levelo_inurba_marseille","lat":43.29012,"lon":5.35614,"is_reserved":false,"is_disabled":false,"rental_uris":{"android":"levelo://app?vid=9eeccb6f-b5b7-4e7a-980e-55b49deb6390","ios":"levelo://app?vid=9eeccb6f-b5b7-4e7a-980e-55b49deb6390"},"vehicle_type_id":"4","last_reported":1685038103,"current_range_meters":26400,"station_id":"ce4bhb92rcd13ifvqen0","pricing_plan_id":"free"},{"bike_id":"9eebde97-ce25-4c7f-a052-9a91292f993a","system_id":"levelo_inurba_marseille","lat":43.29011,"lon":5.3561,"is_reserved":false,"is_disabled":false,"rental_uris":{"android":"levelo://app?vid=9eebde97-ce25-4c7f-a052-9a91292f993a","ios":"levelo://app?vid=9eebde97-ce25-4c7f-a052-9a91292f993a"},"vehicle_type_id":"4","last_reported":1685038103,"current_range_meters":2400,"station_id":"ce4bhb92rcd13ifvqen0","pricing_plan_id":"free"},{"bike_id":"2035fdd0-8648-4caa-ae48-33706c77e0cf","system_id":"levelo_inurba_marseille","lat":43.290104,"lon":5.356111,"is_reserved":false,"is_disabled":false,"rental_uris":{"android":"levelo://app?vid=2035fdd0-8648-4caa-ae48-33706c77e0cf","ios":"levelo://app?vid=2035fdd0-8648-4caa-ae48-33706c77e0cf"},"vehicle_type_id":"4","last_reported":1685038103,"current_range_meters":14000,"station_id":"ce4bhb92rcd13ifvqen0","pricing_plan_id":"free"},{"bike_id":"338428cd-a510-4ae4-9e4f-37a39f4e1d5b","system_id":"levelo_inurba_marseille","lat":43.290104,"lon":5.356111,"is_reserved":false,"is_disabled":false,"rental_uris":{"android":"levelo://app?vid=338428cd-a510-4ae4-9e4f-37a39f4e1d5b","ios":"levelo://app?vid=338428cd-a510-4ae4-9e4f-37a39f4e1d5b"},"vehicle_type_id":"4","last_reported":1685038103,"current_range_meters":4000,"station_id":"ce4bhb92rcd13ifvqen0","pricing_plan_id":"free"},{"bike_id":"90ec86d0-f96b-4569-8bbf-eeac430c7a6f","system_id":"levelo_inurba_marseille","lat":43.290104,"lon":5.356111,"is_reserved":false,"is_disabled":false,"rental_uris":{"android":"levelo://app?vid=90ec86d0-f96b-4569-8bbf-eeac430c7a6f","ios":"levelo://app?vid=90ec86d0-f96b-4569-8bbf-eeac430c7a6f"},"vehicle_type_id":"4","last_reported":1685038103,"current_range_meters":14400,"station_id":"ce4bhb92rcd13ifvqen0","pricing_plan_id":"free"},{"bike_id":"c6a5616a-9f0f-484e-8508-8e6a342418d3","system_id":"levelo_inurba_marseille","lat":43.290104,"lon":5.356111,"is_reserved":false,"is_disabled":false,"rental_uris":{"android":"levelo://app?vid=c6a5616a-9f0f-484e-8508-8e6a342418d3","ios":"levelo://app?vid=c6a5616a-9f0f-484e-8508-8e6a342418d3"},"vehicle_type_id":"4","last_reported":1685038103,"current_range_meters":14400,"station_id":"ce4bhb92rcd13ifvqen0","pricing_plan_id":"free"},{"bike_id":"84ddf49c-44cf-483d-9e2a-c4da15a8b840","system_id":"levelo_inurba_marseille","lat":43.290104,"lon":5.356111,"is_reserved":false,"is_disabled":false,"rental_uris":{"android":"levelo://app?vid=84ddf49c-44cf-483d-9e2a-c4da15a8b840","ios":"levelo://app?vid=84ddf49c-44cf-483d-9e2a-c4da15a8b840"},"vehicle_type_id":"4","last_reported":1685038103,"current_range_meters":400,"station_id":"ce4bhb92rcd13ifvqen0","pricing_plan_id":"free"},{"bike_id":"ef4714e3-c532-4b61-8fa6-f5dd6d8ed9c8","system_id":"levelo_inurba_marseille","lat":43.29007,"lon":5.35615,"is_reserved":false,"is_disabled":false,"rental_uris":{"android":"levelo://app?vid=ef4714e3-c532-4b61-8fa6-f5dd6d8ed9c8","ios":"levelo://app?vid=ef4714e3-c532-4b61-8fa6-f5dd6d8ed9c8"},"vehicle_type_id":"4","last_reported":1685038103,"current_range_meters":17200,"station_id":"ce4bhb92rcd13ifvqen0","pricing_plan_id":"free"},{"bike_id":"f23b8ee7-9d8d-46e3-a023-99f4e72095bd","system_id":"levelo_inurba_marseille","lat":43.29007,"lon":5.35612,"is_reserved":false,"is_disabled":false,"rental_uris":{"android":"levelo://app?vid=f23b8ee7-9d8d-46e3-a023-99f4e72095bd","ios":"levelo://app?vid=f23b8ee7-9d8d-46e3-a023-99f4e72095bd"},"vehicle_type_id":"4","last_reported":1685038103,"current_range_meters":12400,"station_id":"ce4bhb92rcd13ifvqen0","pricing_plan_id":"free"},{"bike_id":"a3e7d48f-417e-42b5-aac7-8e3854ee99cf","system_id":"levelo_inurba_marseille","lat":43.29006,"lon":5.35614,"is_reserved":false,"is_disabled":false,"rental_uris":{"android":"levelo://app?vid=a3e7d48f-417e-42b5-aac7-8e3854ee99cf","ios":"levelo://app?vid=a3e7d48f-417e-42b5-aac7-8e3854ee99cf"},"vehicle_type_id":"4","last_reported":1685038103,"current_range_meters":6800,"station_id":"ce4bhb92rcd13ifvqen0","pricing_plan_id":"free"},{"bike_id":"b8334d63-ff0e-473e-a041-7eca2e0e1dc1","system_id":"levelo_inurba_marseille","lat":43.29007,"lon":5.35608,"is_reserved":false,"is_disabled":false,"rental_uris":{"android":"levelo://app?vid=b8334d63-ff0e-473e-a041-7eca2e0e1dc1","ios":"levelo://app?vid=b8334d63-ff0e-473e-a041-7eca2e0e1dc1"},"vehicle_type_id":"4","last_reported":1685038103,"current_range_meters":1600,"station_id":"ce4bhb92rcd13ifvqen0","pricing_plan_id":"free"},{"bike_id":"9bebf53f-f78d-4bc3-a85d-030cc4cb303f","system_id":"levelo_inurba_marseille","lat":43.29005,"lon":5.35614,"is_reserved":false,"is_disabled":false,"rental_uris":{"android":"levelo://app?vid=9bebf53f-f78d-4bc3-a85d-030cc4cb303f","ios":"levelo://app?vid=9bebf53f-f78d-4bc3-a85d-030cc4cb303f"},"vehicle_type_id":"4","last_reported":1685038103,"current_range_meters":1600,"station_id":"ce4bhb92rcd13ifvqen0","pricing_plan_id":"free"},{"bike_id":"7e799437-8dc5-437f-9d27-9254640b5d43","system_id":"levelo_inurba_marseille","lat":43.29005,"lon":5.3561,"is_reserved":false,"is_disabled":false,"rental_uris":{"android":"levelo://app?vid=7e799437-8dc5-437f-9d27-9254640b5d43","ios":"levelo://app?vid=7e799437-8dc5-437f-9d27-9254640b5d43"},"vehicle_type_id":"4","last_reported":1685038103,"current_range_meters":14400,"station_id":"ce4bhb92rcd13ifvqen0","pricing_plan_id":"free"},{"bike_id":"e38d4b70-3698-4015-a54d-ee038d9d7e36","system_id":"levelo_inurba_marseille","lat":43.290104,"lon":5.356111,"is_reserved":false,"is_disabled":false,"rental_uris":{"android":"levelo://app?vid=e38d4b70-3698-4015-a54d-ee038d9d7e36","ios":"levelo://app?vid=e38d4b70-3698-4015-a54d-ee038d9d7e36"},"vehicle_type_id":"4","last_reported":1685038103,"current_range_meters":19600,"station_id":"ce4bhb92rcd13ifvqen0","pricing_plan_id":"free"},{"bike_id":"9c4d8a27-8546-4d56-b366-570f965f705b","system_id":"levelo_inurba_marseille","lat":43.290104,"lon":5.356111,"is_reserved":false,"is_disabled":false,"rental_uris":{"android":"levelo://app?vid=9c4d8a27-8546-4d56-b366-570f965f705b","ios":"levelo://app?vid=9c4d8a27-8546-4d56-b366-570f965f705b"},"vehicle_type_id":"4","last_reported":1685038103,"current_range_meters":2000,"station_id":"ce4bhb92rcd13ifvqen0","pricing_plan_id":"free"},{"bike_id":"8a140b90-e261-4e7e-ad45-25552e00c742","system_id":"levelo_inurba_marseille","lat":43.29003,"lon":5.35613,"is_reserved":false,"is_disabled":false,"rental_uris":{"android":"levelo://app?vid=8a140b90-e261-4e7e-ad45-25552e00c742","ios":"levelo://app?vid=8a140b90-e261-4e7e-ad45-25552e00c742"},"vehicle_type_id":"4","last_reported":1685038103,"current_range_meters":6800,"station_id":"ce4bhb92rcd13ifvqen0","pricing_plan_id":"free"},{"bike_id":"6fff2e10-ab2a-4a3d-9796-a27739d7d9f1","system_id":"levelo_inurba_marseille","lat":43.28999,"lon":5.35594,"is_reserved":false,"is_disabled":false,"rental_uris":{"android":"levelo://app?vid=6fff2e10-ab2a-4a3d-9796-a27739d7d9f1","ios":"levelo://app?vid=6fff2e10-ab2a-4a3d-9796-a27739d7d9f1"},"vehicle_type_id":"4","last_reported":1685038103,"current_range_meters":23600,"station_id":"","pricing_plan_id":"free"},{"bike_id":"9838698d-aee1-47c7-8a64-77e3ff5ff69b","system_id":"levelo_inurba_marseille","lat":43.30642,"lon":5.401031,"is_reserved":false,"is_disabled":false,"rental_uris":{"android":"levelo://app?vid=9838698d-aee1-47c7-8a64-77e3ff5ff69b","ios":"levelo://app?vid=9838698d-aee1-47c7-8a64-77e3ff5ff69b"},"vehicle_type_id":"4","last_reported":1685038103,"current_range_meters":31200,"station_id":"ce4bh112rcd13ifvqda0","pricing_plan_id":"free"},{"bike_id":"deccdead-3a19-4eb1-a04e-30061fe6dc26","system_id":"levelo_inurba_marseille","lat":43.33748,"lon":5.37462,"is_reserved":false,"is_disabled":false,"rental_uris":{"android":"levelo://app?vid=deccdead-3a19-4eb1-a04e-30061fe6dc26","ios":"levelo://app?vid=deccdead-3a19-4eb1-a04e-30061fe6dc26"},"vehicle_type_id":"4","last_reported":1685038103,"current_range_meters":20400,"station_id":"","pricing_plan_id":"free"},{"bike_id":"5d058b52-6859-4deb-9e6f-85d1f5b0a8f9","system_id":"levelo_inurba_marseille","lat":43.30642,"lon":5.401031,"is_reserved":false,"is_disabled":false,"rental_uris":{"android":"levelo://app?vid=5d058b52-6859-4deb-9e6f-85d1f5b0a8f9","ios":"levelo://app?vid=5d058b52-6859-4deb-9e6f-85d1f5b0a8f9"},"vehicle_type_id":"4","last_reported":1685038103,"current_range_meters":31200,"station_id":"ce4bh112rcd13ifvqda0","pricing_plan_id":"free"},{"bike_id":"083096cd-c3bb-4705-a074-9b9d2c67bf25","system_id":"levelo_inurba_marseille","lat":43.30642,"lon":5.401031,"is_reserved":false,"is_disabled":false,"rental_uris":{"android":"levelo://app?vid=083096cd-c3bb-4705-a074-9b9d2c67bf25","ios":"levelo://app?vid=083096cd-c3bb-4705-a074-9b9d2c67bf25"},"vehicle_type_id":"4","last_reported":1685038103,"current_range_meters":30400,"station_id":"ce4bh112rcd13ifvqda0","pricing_plan_id":"free"},{"bike_id":"6fad0bd5-3c7c-4da1-bb0f-f0eef050ba54","system_id":"levelo_inurba_marseille","lat":43.30642,"lon":5.401031,"is_reserved":false,"is_disabled":false,"rental_uris":{"android":"levelo://app?vid=6fad0bd5-3c7c-4da1-bb0f-f0eef050ba54","ios":"levelo://app?vid=6fad0bd5-3c7c-4da1-bb0f-f0eef050ba54"},"vehicle_type_id":"4","last_reported":1685038103,"current_range_meters":31200,"station_id":"ce4bh112rcd13ifvqda0","pricing_plan_id":"free"},{"bike_id":"c404d6e6-404f-444a-9595-2682f786fda0","system_id":"levelo_inurba_marseille","lat":43.30642,"lon":5.401031,"is_reserved":false,"is_disabled":false,"rental_uris":{"android":"levelo://app?vid=c404d6e6-404f-444a-9595-2682f786fda0","ios":"levelo://app?vid=c404d6e6-404f-444a-9595-2682f786fda0"},"vehicle_type_id":"4","last_reported":1685038103,"current_range_meters":31200,"station_id":"ce4bh112rcd13ifvqda0","pricing_plan_id":"free"},{"bike_id":"723c7f60-e36b-43b7-a0a0-d10f187d1139","system_id":"levelo_inurba_marseille","lat":43.30642,"lon":5.401031,"is_reserved":false,"is_disabled":false,"rental_uris":{"android":"levelo://app?vid=723c7f60-e36b-43b7-a0a0-d10f187d1139","ios":"levelo://app?vid=723c7f60-e36b-43b7-a0a0-d10f187d1139"},"vehicle_type_id":"4","last_reported":1685038103,"current_range_meters":13600,"station_id":"ce4bh112rcd13ifvqda0","pricing_plan_id":"free"},{"bike_id":"cc5f86cf-3f4d-447d-bb4a-7bead1e1614b","system_id":"levelo_inurba_marseille","lat":43.30645,"lon":5.40088,"is_reserved":false,"is_disabled":false,"rental_uris":{"android":"levelo://app?vid=cc5f86cf-3f4d-447d-bb4a-7bead1e1614b","ios":"levelo://app?vid=cc5f86cf-3f4d-447d-bb4a-7bead1e1614b"},"vehicle_type_id":"4","last_reported":1685038103,"current_range_meters":24400,"station_id":"ce4bh112rcd13ifvqda0","pricing_plan_id":"free"},{"bike_id":"404c5057-4303-4274-84b3-daa7e08dc265","system_id":"levelo_inurba_marseille","lat":43.30642,"lon":5.401031,"is_reserved":false,"is_disabled":false,"rental_uris":{"android":"levelo://app?vid=404c5057-4303-4274-84b3-daa7e08dc265","ios":"levelo://app?vid=404c5057-4303-4274-84b3-daa7e08dc265"},"vehicle_type_id":"4","last_reported":1685038103,"current_range_meters":31600,"station_id":"ce4bh112rcd13ifvqda0","pricing_plan_id":"free"},{"bike_id":"95d058cb-87d4-419b-b1eb-8e2b82398b0a","system_id":"levelo_inurba_marseille","lat":43.33775,"lon":5.37428,"is_reserved":false,"is_disabled":false,"rental_uris":{"android":"levelo://app?vid=95d058cb-87d4-419b-b1eb-8e2b82398b0a","ios":"levelo://app?vid=95d058cb-87d4-419b-b1eb-8e2b82398b0a"},"vehicle_type_id":"4","last_reported":1685038103,"current_range_meters":31200,"station_id":"","pricing_plan_id":"free"},{"bike_id":"36c1bea0-1448-4850-b4f1-3e5f50adc30f","system_id":"levelo_inurba_marseille","lat":43.3045,"lon":5.40095,"is_reserved":false,"is_disabled":false,"rental_uris":{"android":"levelo://app?vid=36c1bea0-1448-4850-b4f1-3e5f50adc30f","ios":"levelo://app?vid=36c1bea0-1448-4850-b4f1-3e5f50adc30f"},"vehicle_type_id":"4","last_reported":1685038103,"current_range_meters":23200,"station_id":"","pricing_plan_id":"free"},{"bike_id":"1713220b-d444-46b9-9b54-9512b7b168cf","system_id":"levelo_inurba_marseille","lat":43.30426,"lon":5.40088,"is_reserved":false,"is_disabled":false,"rental_uris":{"android":"levelo://app?vid=1713220b-d444-46b9-9b54-9512b7b168cf","ios":"levelo://app?vid=1713220b-d444-46b9-9b54-9512b7b168cf"},"vehicle_type_id":"4","last_reported":1685038103,"current_range_meters":8800,"station_id":"","pricing_plan_id":"free"},{"bike_id":"d86f862c-beae-4b61-8a8f-93971ceb480c","system_id":"levelo_inurba_marseille","lat":43.298681,"lon":5.397225,"is_reserved":false,"is_disabled":false,"rental_uris":{"android":"levelo://app?vid=d86f862c-beae-4b61-8a8f-93971ceb480c","ios":"levelo://app?vid=d86f862c-beae-4b61-8a8f-93971ceb480c"},"vehicle_type_id":"4","last_reported":1685038103,"current_range_meters":10800,"station_id":"ce4bh0h2rcd13ifvqd50","pricing_plan_id":"free"},{"bike_id":"a2bb0666-c859-421e-ab52-07d384189399","system_id":"levelo_inurba_marseille","lat":43.29867,"lon":5.39731,"is_reserved":false,"is_disabled":false,"rental_uris":{"android":"levelo://app?vid=a2bb0666-c859-421e-ab52-07d384189399","ios":"levelo://app?vid=a2bb0666-c859-421e-ab52-07d384189399"},"vehicle_type_id":"4","last_reported":1685038103,"current_range_meters":8800,"station_id":"ce4bh0h2rcd13ifvqd50","pricing_plan_id":"free"},{"bike_id":"2f111a07-3767-4a7c-a99e-e14a820dd34d","system_id":"levelo_inurba_marseille","lat":43.286593,"lon":5.363346,"is_reserved":false,"is_disabled":false,"rental_uris":{"android":"levelo://app?vid=2f111a07-3767-4a7c-a99e-e14a820dd34d","ios":"levelo://app?vid=2f111a07-3767-4a7c-a99e-e14a820dd34d"},"vehicle_type_id":"4","last_reported":1685038103,"current_range_meters":0,"station_id":"ce4bhah2rcd13ifvqej0","pricing_plan_id":"free"},{"bike_id":"3fc95961-f65a-4147-b1e6-7c2b90b20912","system_id":"levelo_inurba_marseille","lat":43.298681,"lon":5.397225,"is_reserved":false,"is_disabled":false,"rental_uris":{"android":"levelo://app?vid=3fc95961-f65a-4147-b1e6-7c2b90b20912","ios":"levelo://app?vid=3fc95961-f65a-4147-b1e6-7c2b90b20912"},"vehicle_type_id":"4","last_reported":1685038103,"current_range_meters":800,"station_id":"ce4bh0h2rcd13ifvqd50","pricing_plan_id":"free"},{"bike_id":"97723fcf-64df-4039-95c7-c6d1c4289357","system_id":"levelo_inurba_marseille","lat":43.2987,"lon":5.39746,"is_reserved":false,"is_disabled":false,"rental_uris":{"android":"levelo://app?vid=97723fcf-64df-4039-95c7-c6d1c4289357","ios":"levelo://app?vid=97723fcf-64df-4039-95c7-c6d1c4289357"},"vehicle_type_id":"4","last_reported":1685038103,"current_range_meters":29600,"station_id":"ce4bh0h2rcd13ifvqd50","pricing_plan_id":"free"},{"bike_id":"2104205f-a58b-47ac-81af-4a5b31047263","system_id":"levelo_inurba_marseille","lat":43.2952,"lon":5.39402,"is_reserved":false,"is_disabled":false,"rental_uris":{"android":"levelo://app?vid=2104205f-a58b-47ac-81af-4a5b31047263","ios":"levelo://app?vid=2104205f-a58b-47ac-81af-4a5b31047263"},"vehicle_type_id":"4","last_reported":1685038103,"current_range_meters":0,"station_id":"ce4bh292rcd13ifvqdf0","pricing_plan_id":"free"},{"bike_id":"e6c23490-410d-4a4d-a331-679f50287761","system_id":"levelo_inurba_marseille","lat":43.295196,"lon":5.39397,"is_reserved":false,"is_disabled":false,"rental_uris":{"android":"levelo://app?vid=e6c23490-410d-4a4d-a331-679f50287761","ios":"levelo://app?vid=e6c23490-410d-4a4d-a331-679f50287761"},"vehicle_type_id":"4","last_reported":1685038103,"current_range_meters":30800,"station_id":"ce4bh292rcd13ifvqdf0","pricing_plan_id":"free"},{"bike_id":"c9d9d546-8e87-4ff3-a00b-009c362c4227","system_id":"levelo_inurba_marseille","lat":43.30642,"lon":5.401031,"is_reserved":false,"is_disabled":false,"rental_uris":{"android":"levelo://app?vid=c9d9d546-8e87-4ff3-a00b-009c362c4227","ios":"levelo://app?vid=c9d9d546-8e87-4ff3-a00b-009c362c4227"},"vehicle_type_id":"4","last_reported":1685038103,"current_range_meters":24400,"station_id":"ce4bh112rcd13ifvqda0","pricing_plan_id":"free"},{"bike_id":"526faae9-6083-4f8d-8ead-50696a1e8359","system_id":"levelo_inurba_marseille","lat":43.290345,"lon":5.38646,"is_reserved":false,"is_disabled":false,"rental_uris":{"android":"levelo://app?vid=526faae9-6083-4f8d-8ead-50696a1e8359","ios":"levelo://app?vid=526faae9-6083-4f8d-8ead-50696a1e8359"},"vehicle_type_id":"4","last_reported":1685038103,"current_range_meters":0,"station_id":"ce4bh4p2rcd13ifvqe0g","pricing_plan_id":"free"},{"bike_id":"a27782b1-416e-4079-81fe-fc5f31270a8a","system_id":"levelo_inurba_marseille","lat":43.290336,"lon":5.386425,"is_reserved":false,"is_disabled":false,"rental_uris":{"android":"levelo://app?vid=a27782b1-416e-4079-81fe-fc5f31270a8a","ios":"levelo://app?vid=a27782b1-416e-4079-81fe-fc5f31270a8a"},"vehicle_type_id":"4","last_reported":1685038103,"current_range_meters":22800,"station_id":"ce4bh4p2rcd13ifvqe0g","pricing_plan_id":"free"},{"bike_id":"0ff25c0c-b311-46f2-bdcc-04750e212bc5","system_id":"levelo_inurba_marseille","lat":43.290336,"lon":5.386425,"is_reserved":false,"is_disabled":false,"rental_uris":{"android":"levelo://app?vid=0ff25c0c-b311-46f2-bdcc-04750e212bc5","ios":"levelo://app?vid=0ff25c0c-b311-46f2-bdcc-04750e212bc5"},"vehicle_type_id":"4","last_reported":1685038103,"current_range_meters":400,"station_id":"ce4bh4p2rcd13ifvqe0g","pricing_plan_id":"free"},{"bike_id":"1f2c6668-f3c9-49c6-b4c0-ba74ad231ced","system_id":"levelo_inurba_marseille","lat":43.290336,"lon":5.386425,"is_reserved":false,"is_disabled":false,"rental_uris":{"android":"levelo://app?vid=1f2c6668-f3c9-49c6-b4c0-ba74ad231ced","ios":"levelo://app?vid=1f2c6668-f3c9-49c6-b4c0-ba74ad231ced"},"vehicle_type_id":"4","last_reported":1685038103,"current_range_meters":19200,"station_id":"ce4bh4p2rcd13ifvqe0g","pricing_plan_id":"free"},{"bike_id":"e72e9d66-0074-4358-9e47-30785ab18eca","system_id":"levelo_inurba_marseille","lat":43.316517,"lon":5.404375,"is_reserved":false,"is_disabled":false,"rental_uris":{"android":"levelo://app?vid=e72e9d66-0074-4358-9e47-30785ab18eca","ios":"levelo://app?vid=e72e9d66-0074-4358-9e47-30785ab18eca"},"vehicle_type_id":"4","last_reported":1685038103,"current_range_meters":17600,"station_id":"ce4bh012rcd13ifvqd00","pricing_plan_id":"free"},{"bike_id":"61c6624a-ba9d-4d32-a276-2d94fbbac671","system_id":"levelo_inurba_marseille","lat":43.316517,"lon":5.404375,"is_reserved":false,"is_disabled":false,"rental_uris":{"android":"levelo://app?vid=61c6624a-ba9d-4d32-a276-2d94fbbac671","ios":"levelo://app?vid=61c6624a-ba9d-4d32-a276-2d94fbbac671"},"vehicle_type_id":"4","last_reported":1685038103,"current_range_meters":0,"station_id":"ce4bh012rcd13ifvqd00","pricing_plan_id":"free"},{"bike_id":"e694d489-2a1a-4739-8d27-f911574cea5e","system_id":"levelo_inurba_marseille","lat":43.291994,"lon":5.392907,"is_reserved":false,"is_disabled":false,"rental_uris":{"android":"levelo://app?vid=e694d489-2a1a-4739-8d27-f911574cea5e","ios":"levelo://app?vid=e694d489-2a1a-4739-8d27-f911574cea5e"},"vehicle_type_id":"4","last_reported":1685038103,"current_range_meters":6800,"station_id":"ce4bh192rcd13ifvqdd0","pricing_plan_id":"free"},{"bike_id":"a8b23f92-cf21-4c6b-9ecb-314ff9206227","system_id":"levelo_inurba_marseille","lat":43.284534,"lon":5.358662,"is_reserved":false,"is_disabled":false,"rental_uris":{"android":"levelo://app?vid=a8b23f92-cf21-4c6b-9ecb-314ff9206227","ios":"levelo://app?vid=a8b23f92-cf21-4c6b-9ecb-314ff9206227"},"vehicle_type_id":"4","last_reported":1685038103,"current_range_meters":18000,"station_id":"ce4bhah2rcd13ifvqei0","pricing_plan_id":"free"},{"bike_id":"0f6947f8-4306-4f26-8629-f3f5f8847239","system_id":"levelo_inurba_marseille","lat":43.284534,"lon":5.358662,"is_reserved":false,"is_disabled":false,"rental_uris":{"android":"levelo://app?vid=0f6947f8-4306-4f26-8629-f3f5f8847239","ios":"levelo://app?vid=0f6947f8-4306-4f26-8629-f3f5f8847239"},"vehicle_type_id":"4","last_reported":1685038103,"current_range_meters":3200,"station_id":"ce4bhah2rcd13ifvqei0","pricing_plan_id":"free"},{"bike_id":"27f80011-001e-48bb-ba92-6962f1eac4c3","system_id":"levelo_inurba_marseille","lat":43.284534,"lon":5.358662,"is_reserved":false,"is_disabled":false,"rental_uris":{"android":"levelo://app?vid=27f80011-001e-48bb-ba92-6962f1eac4c3","ios":"levelo://app?vid=27f80011-001e-48bb-ba92-6962f1eac4c3"},"vehicle_type_id":"4","last_reported":1685038103,"current_range_meters":2400,"station_id":"ce4bhah2rcd13ifvqei0","pricing_plan_id":"free"},{"bike_id":"e9d12227-3906-47e6-bec4-9dd5fa5036e5","system_id":"levelo_inurba_marseille","lat":43.284534,"lon":5.358662,"is_reserved":false,"is_disabled":false,"rental_uris":{"android":"levelo://app?vid=e9d12227-3906-47e6-bec4-9dd5fa5036e5","ios":"levelo://app?vid=e9d12227-3906-47e6-bec4-9dd5fa5036e5"},"vehicle_type_id":"4","last_reported":1685038103,"current_range_meters":4000,"station_id":"ce4bhah2rcd13ifvqei0","pricing_plan_id":"free"},{"bike_id":"9593a73d-befe-4460-93db-546cb3f70e81","system_id":"levelo_inurba_marseille","lat":43.284534,"lon":5.358662,"is_reserved":false,"is_disabled":false,"rental_uris":{"android":"levelo://app?vid=9593a73d-befe-4460-93db-546cb3f70e81","ios":"levelo://app?vid=9593a73d-befe-4460-93db-546cb3f70e81"},"vehicle_type_id":"4","last_reported":1685038103,"current_range_meters":29200,"station_id":"ce4bhah2rcd13ifvqei0","pricing_plan_id":"free"},{"bike_id":"ae9be2f9-a030-4f4e-bd9c-4a596aa94062","system_id":"levelo_inurba_marseille","lat":43.28463,"lon":5.35892,"is_reserved":false,"is_disabled":false,"rental_uris":{"android":"levelo://app?vid=ae9be2f9-a030-4f4e-bd9c-4a596aa94062","ios":"levelo://app?vid=ae9be2f9-a030-4f4e-bd9c-4a596aa94062"},"vehicle_type_id":"4","last_reported":1685038103,"current_range_meters":11200,"station_id":"ce4bhah2rcd13ifvqei0","pricing_plan_id":"free"},{"bike_id":"7962ad5d-ad33-4204-9d55-4a8d329337a5","system_id":"levelo_inurba_marseille","lat":43.284534,"lon":5.358662,"is_reserved":false,"is_disabled":false,"rental_uris":{"android":"levelo://app?vid=7962ad5d-ad33-4204-9d55-4a8d329337a5","ios":"levelo://app?vid=7962ad5d-ad33-4204-9d55-4a8d329337a5"},"vehicle_type_id":"4","last_reported":1685038103,"current_range_meters":23600,"station_id":"ce4bhah2rcd13ifvqei0","pricing_plan_id":"free"},{"bike_id":"9692d33d-b6bf-4011-ad22-61c8db77ae77","system_id":"levelo_inurba_marseille","lat":43.28458,"lon":5.35905,"is_reserved":false,"is_disabled":false,"rental_uris":{"android":"levelo://app?vid=9692d33d-b6bf-4011-ad22-61c8db77ae77","ios":"levelo://app?vid=9692d33d-b6bf-4011-ad22-61c8db77ae77"},"vehicle_type_id":"4","last_reported":1685038103,"current_range_meters":20000,"station_id":"","pricing_plan_id":"free"},{"bike_id":"b01c1a66-fcc3-47da-b008-3af627f4a41d","system_id":"levelo_inurba_marseille","lat":43.284534,"lon":5.358662,"is_reserved":false,"is_disabled":false,"rental_uris":{"android":"levelo://app?vid=b01c1a66-fcc3-47da-b008-3af627f4a41d","ios":"levelo://app?vid=b01c1a66-fcc3-47da-b008-3af627f4a41d"},"vehicle_type_id":"4","last_reported":1685038103,"current_range_meters":13600,"station_id":"ce4bhah2rcd13ifvqei0","pricing_plan_id":"free"},{"bike_id":"3a986c88-10e0-409d-8334-15e95451b916","system_id":"levelo_inurba_marseille","lat":43.284534,"lon":5.358662,"is_reserved":false,"is_disabled":false,"rental_uris":{"android":"levelo://app?vid=3a986c88-10e0-409d-8334-15e95451b916","ios":"levelo://app?vid=3a986c88-10e0-409d-8334-15e95451b916"},"vehicle_type_id":"4","last_reported":1685038103,"current_range_meters":22800,"station_id":"ce4bhah2rcd13ifvqei0","pricing_plan_id":"free"},{"bike_id":"e808930f-460b-4f29-93a1-454345034d26","system_id":"levelo_inurba_marseille","lat":43.285848,"lon":5.350787,"is_reserved":false,"is_disabled":false,"rental_uris":{"android":"levelo://app?vid=e808930f-460b-4f29-93a1-454345034d26","ios":"levelo://app?vid=e808930f-460b-4f29-93a1-454345034d26"},"vehicle_type_id":"4","last_reported":1685038103,"current_range_meters":22000,"station_id":"ce4bhch2rcd13ifvqeug","pricing_plan_id":"free"},{"bike_id":"603980ea-167d-444b-8ee5-4a47c85b0552","system_id":"levelo_inurba_marseille","lat":43.285848,"lon":5.350787,"is_reserved":false,"is_disabled":false,"rental_uris":{"android":"levelo://app?vid=603980ea-167d-444b-8ee5-4a47c85b0552","ios":"levelo://app?vid=603980ea-167d-444b-8ee5-4a47c85b0552"},"vehicle_type_id":"4","last_reported":1685038103,"current_range_meters":15200,"station_id":"ce4bhch2rcd13ifvqeug","pricing_plan_id":"free"},{"bike_id":"d6f0b22c-5c20-42b4-91a7-ddc7a3d1ec12","system_id":"levelo_inurba_marseille","lat":43.285848,"lon":5.350787,"is_reserved":false,"is_disabled":false,"rental_uris":{"android":"levelo://app?vid=d6f0b22c-5c20-42b4-91a7-ddc7a3d1ec12","ios":"levelo://app?vid=d6f0b22c-5c20-42b4-91a7-ddc7a3d1ec12"},"vehicle_type_id":"4","last_reported":1685038103,"current_range_meters":28800,"station_id":"ce4bhch2rcd13ifvqeug","pricing_plan_id":"free"},{"bike_id":"4e14ca5b-c462-4cf6-84ba-fa4f2b01d9e8","system_id":"levelo_inurba_marseille","lat":43.285848,"lon":5.350787,"is_reserved":false,"is_disabled":false,"rental_uris":{"android":"levelo://app?vid=4e14ca5b-c462-4cf6-84ba-fa4f2b01d9e8","ios":"levelo://app?vid=4e14ca5b-c462-4cf6-84ba-fa4f2b01d9e8"},"vehicle_type_id":"4","last_reported":1685038103,"current_range_meters":24000,"station_id":"ce4bhch2rcd13ifvqeug","pricing_plan_id":"free"},{"bike_id":"df6f627d-b282-4cb1-b6d3-dfcaee964372","system_id":"levelo_inurba_marseille","lat":43.285848,"lon":5.350787,"is_reserved":false,"is_disabled":false,"rental_uris":{"android":"levelo://app?vid=df6f627d-b282-4cb1-b6d3-dfcaee964372","ios":"levelo://app?vid=df6f627d-b282-4cb1-b6d3-dfcaee964372"},"vehicle_type_id":"4","last_reported":1685038103,"current_range_meters":19600,"station_id":"ce4bhch2rcd13ifvqeug","pricing_plan_id":"free"},{"bike_id":"f0fca903-41a2-463f-9611-4e8ab79f123e","system_id":"levelo_inurba_marseille","lat":43.285848,"lon":5.350787,"is_reserved":false,"is_disabled":false,"rental_uris":{"android":"levelo://app?vid=f0fca903-41a2-463f-9611-4e8ab79f123e","ios":"levelo://app?vid=f0fca903-41a2-463f-9611-4e8ab79f123e"},"vehicle_type_id":"4","last_reported":1685038103,"current_range_meters":23600,"station_id":"ce4bhch2rcd13ifvqeug","pricing_plan_id":"free"},{"bike_id":"8f7c2740-6c7c-46b8-a94c-9fe7ac6224fc","system_id":"levelo_inurba_marseille","lat":43.285848,"lon":5.350787,"is_reserved":false,"is_disabled":false,"rental_uris":{"android":"levelo://app?vid=8f7c2740-6c7c-46b8-a94c-9fe7ac6224fc","ios":"levelo://app?vid=8f7c2740-6c7c-46b8-a94c-9fe7ac6224fc"},"vehicle_type_id":"4","last_reported":1685038103,"current_range_meters":24800,"station_id":"ce4bhch2rcd13ifvqeug","pricing_plan_id":"free"},{"bike_id":"235cc89c-291d-4a5a-9c79-e9fc2e36f557","system_id":"levelo_inurba_marseille","lat":43.285848,"lon":5.350787,"is_reserved":false,"is_disabled":false,"rental_uris":{"android":"levelo://app?vid=235cc89c-291d-4a5a-9c79-e9fc2e36f557","ios":"levelo://app?vid=235cc89c-291d-4a5a-9c79-e9fc2e36f557"},"vehicle_type_id":"4","last_reported":1685038103,"current_range_meters":3600,"station_id":"ce4bhch2rcd13ifvqeug","pricing_plan_id":"free"},{"bike_id":"3bfc1e1d-dba6-4b3e-9159-7de725dff9fe","system_id":"levelo_inurba_marseille","lat":43.285856,"lon":5.350771,"is_reserved":false,"is_disabled":false,"rental_uris":{"android":"levelo://app?vid=3bfc1e1d-dba6-4b3e-9159-7de725dff9fe","ios":"levelo://app?vid=3bfc1e1d-dba6-4b3e-9159-7de725dff9fe"},"vehicle_type_id":"4","last_reported":1685038103,"current_range_meters":3200,"station_id":"ce4bhch2rcd13ifvqeug","pricing_plan_id":"free"},{"bike_id":"c63d323c-280a-4add-989f-321b3a242dda","system_id":"levelo_inurba_marseille","lat":43.285856,"lon":5.350771,"is_reserved":false,"is_disabled":false,"rental_uris":{"android":"levelo://app?vid=c63d323c-280a-4add-989f-321b3a242dda","ios":"levelo://app?vid=c63d323c-280a-4add-989f-321b3a242dda"},"vehicle_type_id":"4","last_reported":1685038103,"current_range_meters":6000,"station_id":"ce4bhch2rcd13ifvqeug","pricing_plan_id":"free"},{"bike_id":"ed8aa8c3-46ee-4ade-8d23-f36943ce8df2","system_id":"levelo_inurba_marseille","lat":43.295713,"lon":5.399639,"is_reserved":false,"is_disabled":false,"rental_uris":{"android":"levelo://app?vid=ed8aa8c3-46ee-4ade-8d23-f36943ce8df2","ios":"levelo://app?vid=ed8aa8c3-46ee-4ade-8d23-f36943ce8df2"},"vehicle_type_id":"4","last_reported":1685038103,"current_range_meters":28000,"station_id":"ce4bh312rcd13ifvqdj0","pricing_plan_id":"free"},{"bike_id":"c7675e98-db95-41eb-b4bb-3820e0b35d0b","system_id":"levelo_inurba_marseille","lat":43.32335,"lon":5.40613,"is_reserved":false,"is_disabled":false,"rental_uris":{"android":"levelo://app?vid=c7675e98-db95-41eb-b4bb-3820e0b35d0b","ios":"levelo://app?vid=c7675e98-db95-41eb-b4bb-3820e0b35d0b"},"vehicle_type_id":"4","last_reported":1685038103,"current_range_meters":25600,"station_id":"ce4bhq92rcd13ifvqhjg","pricing_plan_id":"free"},{"bike_id":"0bf2293a-8310-44ca-bd9c-5e0da3780606","system_id":"levelo_inurba_marseille","lat":43.323464,"lon":5.406297,"is_reserved":false,"is_disabled":false,"rental_uris":{"android":"levelo://app?vid=0bf2293a-8310-44ca-bd9c-5e0da3780606","ios":"levelo://app?vid=0bf2293a-8310-44ca-bd9c-5e0da3780606"},"vehicle_type_id":"4","last_reported":1685038103,"current_range_meters":32000,"station_id":"ce4bhq92rcd13ifvqhjg","pricing_plan_id":"free"},{"bike_id":"d0248441-1b9c-410f-918e-bda3250b3bf5","system_id":"levelo_inurba_marseille","lat":43.323464,"lon":5.406297,"is_reserved":false,"is_disabled":false,"rental_uris":{"android":"levelo://app?vid=d0248441-1b9c-410f-918e-bda3250b3bf5","ios":"levelo://app?vid=d0248441-1b9c-410f-918e-bda3250b3bf5"},"vehicle_type_id":"4","last_reported":1685038103,"current_range_meters":32000,"station_id":"ce4bhq92rcd13ifvqhjg","pricing_plan_id":"free"},{"bike_id":"c6dd1343-97b1-4973-83cc-c2d989982782","system_id":"levelo_inurba_marseille","lat":43.323464,"lon":5.406297,"is_reserved":false,"is_disabled":false,"rental_uris":{"android":"levelo://app?vid=c6dd1343-97b1-4973-83cc-c2d989982782","ios":"levelo://app?vid=c6dd1343-97b1-4973-83cc-c2d989982782"},"vehicle_type_id":"4","last_reported":1685038103,"current_range_meters":32000,"station_id":"ce4bhq92rcd13ifvqhjg","pricing_plan_id":"free"},{"bike_id":"4da9b35b-a4a6-431e-b878-9d1b08e8e239","system_id":"levelo_inurba_marseille","lat":43.323464,"lon":5.406297,"is_reserved":false,"is_disabled":false,"rental_uris":{"android":"levelo://app?vid=4da9b35b-a4a6-431e-b878-9d1b08e8e239","ios":"levelo://app?vid=4da9b35b-a4a6-431e-b878-9d1b08e8e239"},"vehicle_type_id":"4","last_reported":1685038103,"current_range_meters":24000,"station_id":"ce4bhq92rcd13ifvqhjg","pricing_plan_id":"free"},{"bike_id":"c1227df7-654b-4e98-9442-075b32b11607","system_id":"levelo_inurba_marseille","lat":43.28855,"lon":5.39311,"is_reserved":false,"is_disabled":false,"rental_uris":{"android":"levelo://app?vid=c1227df7-654b-4e98-9442-075b32b11607","ios":"levelo://app?vid=c1227df7-654b-4e98-9442-075b32b11607"},"vehicle_type_id":"4","last_reported":1685038103,"current_range_meters":7200,"station_id":"ce4bh2p2rcd13ifvqdi0","pricing_plan_id":"free"},{"bike_id":"a81ca00c-2e2c-4419-9590-b325de0a0178","system_id":"levelo_inurba_marseille","lat":43.28851,"lon":5.39305,"is_reserved":false,"is_disabled":false,"rental_uris":{"android":"levelo://app?vid=a81ca00c-2e2c-4419-9590-b325de0a0178","ios":"levelo://app?vid=a81ca00c-2e2c-4419-9590-b325de0a0178"},"vehicle_type_id":"4","last_reported":1685038103,"current_range_meters":17200,"station_id":"ce4bh2p2rcd13ifvqdi0","pricing_plan_id":"free"},{"bike_id":"c1dba7f0-a046-4e42-8280-076bbe07d934","system_id":"levelo_inurba_marseille","lat":43.283494,"lon":5.380945,"is_reserved":false,"is_disabled":false,"rental_uris":{"android":"levelo://app?vid=c1dba7f0-a046-4e42-8280-076bbe07d934","ios":"levelo://app?vid=c1dba7f0-a046-4e42-8280-076bbe07d934"},"vehicle_type_id":"4","last_reported":1685038103,"current_range_meters":16000,"station_id":"ce4bh412rcd13ifvqdr0","pricing_plan_id":"free"},{"bike_id":"3732221a-d415-4c3c-9572-73f56a05f529","system_id":"levelo_inurba_marseille","lat":43.284219,"lon":5.3497,"is_reserved":false,"is_disabled":false,"rental_uris":{"android":"levelo://app?vid=3732221a-d415-4c3c-9572-73f56a05f529","ios":"levelo://app?vid=3732221a-d415-4c3c-9572-73f56a05f529"},"vehicle_type_id":"4","last_reported":1685038103,"current_range_meters":30800,"station_id":"ce4bhbh2rcd13ifvqepg","pricing_plan_id":"free"},{"bike_id":"cb15ba1e-ccad-4e3e-afdb-2f079a6b4a93","system_id":"levelo_inurba_marseille","lat":43.284219,"lon":5.3497,"is_reserved":false,"is_disabled":false,"rental_uris":{"android":"levelo://app?vid=cb15ba1e-ccad-4e3e-afdb-2f079a6b4a93","ios":"levelo://app?vid=cb15ba1e-ccad-4e3e-afdb-2f079a6b4a93"},"vehicle_type_id":"4","last_reported":1685038103,"current_range_meters":19600,"station_id":"ce4bhbh2rcd13ifvqepg","pricing_plan_id":"free"},{"bike_id":"f64a03f6-6dff-4528-bba3-28338e9ee032","system_id":"levelo_inurba_marseille","lat":43.283498,"lon":5.380948,"is_reserved":false,"is_disabled":false,"rental_uris":{"android":"levelo://app?vid=f64a03f6-6dff-4528-bba3-28338e9ee032","ios":"levelo://app?vid=f64a03f6-6dff-4528-bba3-28338e9ee032"},"vehicle_type_id":"4","last_reported":1685038103,"current_range_meters":17600,"station_id":"ce4bh412rcd13ifvqdr0","pricing_plan_id":"free"},{"bike_id":"3be4a096-30ea-41f4-be9b-57ec72515514","system_id":"levelo_inurba_marseille","lat":43.284219,"lon":5.3497,"is_reserved":false,"is_disabled":false,"rental_uris":{"android":"levelo://app?vid=3be4a096-30ea-41f4-be9b-57ec72515514","ios":"levelo://app?vid=3be4a096-30ea-41f4-be9b-57ec72515514"},"vehicle_type_id":"4","last_reported":1685038103,"current_range_meters":27600,"station_id":"ce4bhbh2rcd13ifvqepg","pricing_plan_id":"free"},{"bike_id":"df1880ac-d231-4326-8b39-c3d013dbb8ca","system_id":"levelo_inurba_marseille","lat":43.32147,"lon":5.40782,"is_reserved":false,"is_disabled":false,"rental_uris":{"android":"levelo://app?vid=df1880ac-d231-4326-8b39-c3d013dbb8ca","ios":"levelo://app?vid=df1880ac-d231-4326-8b39-c3d013dbb8ca"},"vehicle_type_id":"4","last_reported":1685038103,"current_range_meters":22400,"station_id":"","pricing_plan_id":"free"},{"bike_id":"3410b6b1-78c4-4363-aab7-2b2a3fee5fc9","system_id":"levelo_inurba_marseille","lat":43.284219,"lon":5.3497,"is_reserved":false,"is_disabled":false,"rental_uris":{"android":"levelo://app?vid=3410b6b1-78c4-4363-aab7-2b2a3fee5fc9","ios":"levelo://app?vid=3410b6b1-78c4-4363-aab7-2b2a3fee5fc9"},"vehicle_type_id":"4","last_reported":1685038103,"current_range_meters":6800,"station_id":"ce4bhbh2rcd13ifvqepg","pricing_plan_id":"free"},{"bike_id":"234d2dc2-ffb5-4180-a8a5-e1e9ced296c8","system_id":"levelo_inurba_marseille","lat":43.284219,"lon":5.3497,"is_reserved":false,"is_disabled":false,"rental_uris":{"android":"levelo://app?vid=234d2dc2-ffb5-4180-a8a5-e1e9ced296c8","ios":"levelo://app?vid=234d2dc2-ffb5-4180-a8a5-e1e9ced296c8"},"vehicle_type_id":"4","last_reported":1685038103,"current_range_meters":6800,"station_id":"ce4bhbh2rcd13ifvqepg","pricing_plan_id":"free"},{"bike_id":"e2ec6e30-3b62-47e8-8e4a-ccd53ddcee53","system_id":"levelo_inurba_marseille","lat":43.284217,"lon":5.349697,"is_reserved":false,"is_disabled":false,"rental_uris":{"android":"levelo://app?vid=e2ec6e30-3b62-47e8-8e4a-ccd53ddcee53","ios":"levelo://app?vid=e2ec6e30-3b62-47e8-8e4a-ccd53ddcee53"},"vehicle_type_id":"4","last_reported":1685038103,"current_range_meters":10400,"station_id":"ce4bhbh2rcd13ifvqepg","pricing_plan_id":"free"},{"bike_id":"8ec1bd61-f31d-44a5-bfca-7ca7424f690a","system_id":"levelo_inurba_marseille","lat":43.284219,"lon":5.3497,"is_reserved":false,"is_disabled":false,"rental_uris":{"android":"levelo://app?vid=8ec1bd61-f31d-44a5-bfca-7ca7424f690a","ios":"levelo://app?vid=8ec1bd61-f31d-44a5-bfca-7ca7424f690a"},"vehicle_type_id":"4","last_reported":1685038103,"current_range_meters":16000,"station_id":"ce4bhbh2rcd13ifvqepg","pricing_plan_id":"free"},{"bike_id":"7144baa7-71a1-4900-bd5c-45218abac798","system_id":"levelo_inurba_marseille","lat":43.289363,"lon":5.396322,"is_reserved":false,"is_disabled":false,"rental_uris":{"android":"levelo://app?vid=7144baa7-71a1-4900-bd5c-45218abac798","ios":"levelo://app?vid=7144baa7-71a1-4900-bd5c-45218abac798"},"vehicle_type_id":"4","last_reported":1685038103,"current_range_meters":13600,"station_id":"ce4bh3h2rcd13ifvqdn0","pricing_plan_id":"free"},{"bike_id":"61454170-be10-4fcb-bd45-90eec6a69796","system_id":"levelo_inurba_marseille","lat":43.292724,"lon":5.401131,"is_reserved":false,"is_disabled":false,"rental_uris":{"android":"levelo://app?vid=61454170-be10-4fcb-bd45-90eec6a69796","ios":"levelo://app?vid=61454170-be10-4fcb-bd45-90eec6a69796"},"vehicle_type_id":"4","last_reported":1685038103,"current_range_meters":25600,"station_id":"ce4bh312rcd13ifvqdk0","pricing_plan_id":"free"},{"bike_id":"518cccc6-d27a-4957-a476-0de36fb5a963","system_id":"levelo_inurba_marseille","lat":43.292724,"lon":5.401131,"is_reserved":false,"is_disabled":false,"rental_uris":{"android":"levelo://app?vid=518cccc6-d27a-4957-a476-0de36fb5a963","ios":"levelo://app?vid=518cccc6-d27a-4957-a476-0de36fb5a963"},"vehicle_type_id":"4","last_reported":1685038103,"current_range_meters":6400,"station_id":"ce4bh312rcd13ifvqdk0","pricing_plan_id":"free"},{"bike_id":"f831e325-a27f-470d-9325-7826c69d2563","system_id":"levelo_inurba_marseille","lat":43.292724,"lon":5.401131,"is_reserved":false,"is_disabled":false,"rental_uris":{"android":"levelo://app?vid=f831e325-a27f-470d-9325-7826c69d2563","ios":"levelo://app?vid=f831e325-a27f-470d-9325-7826c69d2563"},"vehicle_type_id":"4","last_reported":1685038103,"current_range_meters":1600,"station_id":"ce4bh312rcd13ifvqdk0","pricing_plan_id":"free"},{"bike_id":"36001f53-e601-4fb1-9cc7-0174c799b27d","system_id":"levelo_inurba_marseille","lat":43.292724,"lon":5.401131,"is_reserved":false,"is_disabled":false,"rental_uris":{"android":"levelo://app?vid=36001f53-e601-4fb1-9cc7-0174c799b27d","ios":"levelo://app?vid=36001f53-e601-4fb1-9cc7-0174c799b27d"},"vehicle_type_id":"4","last_reported":1685038103,"current_range_meters":5600,"station_id":"ce4bh312rcd13ifvqdk0","pricing_plan_id":"free"},{"bike_id":"17c7bb87-c8d5-4c46-9219-4e29a2cd6b31","system_id":"levelo_inurba_marseille","lat":43.292724,"lon":5.401131,"is_reserved":false,"is_disabled":false,"rental_uris":{"android":"levelo://app?vid=17c7bb87-c8d5-4c46-9219-4e29a2cd6b31","ios":"levelo://app?vid=17c7bb87-c8d5-4c46-9219-4e29a2cd6b31"},"vehicle_type_id":"4","last_reported":1685038103,"current_range_meters":2000,"station_id":"ce4bh312rcd13ifvqdk0","pricing_plan_id":"free"},{"bike_id":"8bb247b9-aa81-4190-9e33-6e8e4bb1a78b","system_id":"levelo_inurba_marseille","lat":43.292724,"lon":5.401131,"is_reserved":false,"is_disabled":false,"rental_uris":{"android":"levelo://app?vid=8bb247b9-aa81-4190-9e33-6e8e4bb1a78b","ios":"levelo://app?vid=8bb247b9-aa81-4190-9e33-6e8e4bb1a78b"},"vehicle_type_id":"4","last_reported":1685038103,"current_range_meters":4400,"station_id":"ce4bh312rcd13ifvqdk0","pricing_plan_id":"free"},{"bike_id":"c3e938af-76b0-4cf4-9544-e5d44895ae95","system_id":"levelo_inurba_marseille","lat":43.28273,"lon":5.35087,"is_reserved":false,"is_disabled":false,"rental_uris":{"android":"levelo://app?vid=c3e938af-76b0-4cf4-9544-e5d44895ae95","ios":"levelo://app?vid=c3e938af-76b0-4cf4-9544-e5d44895ae95"},"vehicle_type_id":"4","last_reported":1685038103,"current_range_meters":0,"station_id":"","pricing_plan_id":"free"},{"bike_id":"961062f4-a93d-4ced-95a4-50ec8378a415","system_id":"levelo_inurba_marseille","lat":43.282754,"lon":5.350519,"is_reserved":false,"is_disabled":false,"rental_uris":{"android":"levelo://app?vid=961062f4-a93d-4ced-95a4-50ec8378a415","ios":"levelo://app?vid=961062f4-a93d-4ced-95a4-50ec8378a415"},"vehicle_type_id":"4","last_reported":1685038103,"current_range_meters":26400,"station_id":"ce4bhbp2rcd13ifvqerg","pricing_plan_id":"free"},{"bike_id":"75fd5187-c330-4b7e-a9b3-44dd9f246d95","system_id":"levelo_inurba_marseille","lat":43.28271,"lon":5.35069,"is_reserved":false,"is_disabled":false,"rental_uris":{"android":"levelo://app?vid=75fd5187-c330-4b7e-a9b3-44dd9f246d95","ios":"levelo://app?vid=75fd5187-c330-4b7e-a9b3-44dd9f246d95"},"vehicle_type_id":"4","last_reported":1685038103,"current_range_meters":21200,"station_id":"ce4bhbp2rcd13ifvqerg","pricing_plan_id":"free"},{"bike_id":"40183e7b-8cd2-4138-9659-5d597d6f45d3","system_id":"levelo_inurba_marseille","lat":43.2827,"lon":5.3507,"is_reserved":false,"is_disabled":false,"rental_uris":{"android":"levelo://app?vid=40183e7b-8cd2-4138-9659-5d597d6f45d3","ios":"levelo://app?vid=40183e7b-8cd2-4138-9659-5d597d6f45d3"},"vehicle_type_id":"4","last_reported":1685038103,"current_range_meters":31600,"station_id":"ce4bhbp2rcd13ifvqerg","pricing_plan_id":"free"},{"bike_id":"6050709f-f304-43ed-87e0-f9b42abe44f5","system_id":"levelo_inurba_marseille","lat":43.282754,"lon":5.350519,"is_reserved":false,"is_disabled":false,"rental_uris":{"android":"levelo://app?vid=6050709f-f304-43ed-87e0-f9b42abe44f5","ios":"levelo://app?vid=6050709f-f304-43ed-87e0-f9b42abe44f5"},"vehicle_type_id":"4","last_reported":1685038103,"current_range_meters":28000,"station_id":"ce4bhbp2rcd13ifvqerg","pricing_plan_id":"free"},{"bike_id":"c6bf70bb-58bf-4e21-afd6-1c7fa706af55","system_id":"levelo_inurba_marseille","lat":43.28268,"lon":5.35065,"is_reserved":false,"is_disabled":false,"rental_uris":{"android":"levelo://app?vid=c6bf70bb-58bf-4e21-afd6-1c7fa706af55","ios":"levelo://app?vid=c6bf70bb-58bf-4e21-afd6-1c7fa706af55"},"vehicle_type_id":"4","last_reported":1685038103,"current_range_meters":0,"station_id":"ce4bhbp2rcd13ifvqerg","pricing_plan_id":"free"},{"bike_id":"0b60ef14-6a18-47f6-aeae-4296229626f1","system_id":"levelo_inurba_marseille","lat":43.28266,"lon":5.35063,"is_reserved":false,"is_disabled":false,"rental_uris":{"android":"levelo://app?vid=0b60ef14-6a18-47f6-aeae-4296229626f1","ios":"levelo://app?vid=0b60ef14-6a18-47f6-aeae-4296229626f1"},"vehicle_type_id":"4","last_reported":1685038103,"current_range_meters":1600,"station_id":"ce4bhbp2rcd13ifvqerg","pricing_plan_id":"free"},{"bike_id":"f09fe043-a705-41fc-b680-04e6e11818c0","system_id":"levelo_inurba_marseille","lat":43.282661,"lon":5.350623,"is_reserved":false,"is_disabled":false,"rental_uris":{"android":"levelo://app?vid=f09fe043-a705-41fc-b680-04e6e11818c0","ios":"levelo://app?vid=f09fe043-a705-41fc-b680-04e6e11818c0"},"vehicle_type_id":"4","last_reported":1685038103,"current_range_meters":3600,"station_id":"ce4bhbp2rcd13ifvqerg","pricing_plan_id":"free"},{"bike_id":"fe99f279-118d-438a-92d5-27a985df4b49","system_id":"levelo_inurba_marseille","lat":43.28266,"lon":5.35062,"is_reserved":false,"is_disabled":false,"rental_uris":{"android":"levelo://app?vid=fe99f279-118d-438a-92d5-27a985df4b49","ios":"levelo://app?vid=fe99f279-118d-438a-92d5-27a985df4b49"},"vehicle_type_id":"4","last_reported":1685038103,"current_range_meters":0,"station_id":"ce4bhbp2rcd13ifvqerg","pricing_plan_id":"free"},{"bike_id":"0f657de7-1e70-4261-a309-469af7822799","system_id":"levelo_inurba_marseille","lat":43.28265,"lon":5.35062,"is_reserved":false,"is_disabled":false,"rental_uris":{"android":"levelo://app?vid=0f657de7-1e70-4261-a309-469af7822799","ios":"levelo://app?vid=0f657de7-1e70-4261-a309-469af7822799"},"vehicle_type_id":"4","last_reported":1685038103,"current_range_meters":25600,"station_id":"ce4bhbp2rcd13ifvqerg","pricing_plan_id":"free"},{"bike_id":"504ea726-bd7b-4d32-8218-8ce48528c3cd","system_id":"levelo_inurba_marseille","lat":43.28265,"lon":5.3506,"is_reserved":false,"is_disabled":false,"rental_uris":{"android":"levelo://app?vid=504ea726-bd7b-4d32-8218-8ce48528c3cd","ios":"levelo://app?vid=504ea726-bd7b-4d32-8218-8ce48528c3cd"},"vehicle_type_id":"4","last_reported":1685038103,"current_range_meters":7600,"station_id":"ce4bhbp2rcd13ifvqerg","pricing_plan_id":"free"},{"bike_id":"d143ebc1-6c8b-43e3-a287-96d280cfb139","system_id":"levelo_inurba_marseille","lat":43.28262,"lon":5.35065,"is_reserved":false,"is_disabled":false,"rental_uris":{"android":"levelo://app?vid=d143ebc1-6c8b-43e3-a287-96d280cfb139","ios":"levelo://app?vid=d143ebc1-6c8b-43e3-a287-96d280cfb139"},"vehicle_type_id":"4","last_reported":1685038103,"current_range_meters":16000,"station_id":"ce4bhbp2rcd13ifvqerg","pricing_plan_id":"free"},{"bike_id":"796b9fd5-ff53-4a5c-8855-ba347cfb5dd6","system_id":"levelo_inurba_marseille","lat":43.28039,"lon":5.369297,"is_reserved":false,"is_disabled":false,"rental_uris":{"android":"levelo://app?vid=796b9fd5-ff53-4a5c-8855-ba347cfb5dd6","ios":"levelo://app?vid=796b9fd5-ff53-4a5c-8855-ba347cfb5dd6"},"vehicle_type_id":"4","last_reported":1685038103,"current_range_meters":15200,"station_id":"ce4bha12rcd13ifvqef0","pricing_plan_id":"free"},{"bike_id":"39edcba6-a4e8-4e43-b10c-27b798caff4b","system_id":"levelo_inurba_marseille","lat":43.28039,"lon":5.369297,"is_reserved":false,"is_disabled":false,"rental_uris":{"android":"levelo://app?vid=39edcba6-a4e8-4e43-b10c-27b798caff4b","ios":"levelo://app?vid=39edcba6-a4e8-4e43-b10c-27b798caff4b"},"vehicle_type_id":"4","last_reported":1685038103,"current_range_meters":13600,"station_id":"ce4bha12rcd13ifvqef0","pricing_plan_id":"free"},{"bike_id":"af9107d3-8d0c-4333-b11d-5185d75f2240","system_id":"levelo_inurba_marseille","lat":43.2826,"lon":5.35059,"is_reserved":false,"is_disabled":false,"rental_uris":{"android":"levelo://app?vid=af9107d3-8d0c-4333-b11d-5185d75f2240","ios":"levelo://app?vid=af9107d3-8d0c-4333-b11d-5185d75f2240"},"vehicle_type_id":"4","last_reported":1685038103,"current_range_meters":5200,"station_id":"ce4bhbp2rcd13ifvqerg","pricing_plan_id":"free"},