{"last_updated":1706558824,"ttl":30,"version":"2.2","data":{"bikes":[{"bike_id":"11aa1806-2a9e-4420-a41b-496cf08fc739","system_id":"levelo_inurba_marseille","lat":43.312239,"lon":5.368562,"is_reserved":false,"is_disabled":false,"rental_uris":{"android":"levelo://app?vid=11aa1806-2a9e-4420-a41b-496cf08fc739","ios":"levelo://app?vid=11aa1806-2a9e-4420-a41b-496cf08fc739"},"vehicle_type_id":"4","last_reported":1706558824,"current_range_meters":400,"station_id":"ce4bgl92rcd13ifvqbq0","pricing_plan_id":"free"},{"bike_id":"73a5ba56-273f-43db-a8f6-7310985235df","system_id":"levelo_inurba_marseille","lat":43.312239,"lon":5.368562,"is_reserved":false,"is_disabled":false,"rental_uris":{"android":"levelo://app?vid=73a5ba56-273f-43db-a8f6-7310985235df","ios":"levelo://app?vid=73a5ba56-273f-43db-a8f6-7310985235df"},"vehicle_type_id":"4","last_reported":1706558824,"current_range_meters":13200,"station_id":"ce4bgl92rcd13ifvqbq0","pricing_plan_id":"free"},{"bike_id":"c1bda3ae-fbd3-4604-9da6-15403ac2caf7","system_id":"levelo_inurba_marseille","lat":43.314811,"lon":5.373103,"is_reserved":false,"is_disabled":false,"rental_uris":{"android":"levelo://app?vid=c1bda3ae-fbd3-4604-9da6-15403ac2caf7","ios":"levelo://app?vid=c1bda3ae-fbd3-4604-9da6-15403ac2caf7"},"vehicle_type_id":"4","last_reported":1706558824,"current_range_meters":0,"station_id":"ce4bgt12rcd13ifvqcd0","pricing_plan_id":"free"},{"bike_id":"12b67795-e658-4fa1-8c61-6dc7a65f0425","system_id":"levelo_inurba_marseille","lat":43.305989,"lon":5.37225,"is_reserved":false,"is_disabled":false,"rental_uris":{"android":"levelo://app?vid=12b67795-e658-4fa1-8c61-6dc7a65f0425","ios":"levelo://app?vid=12b67795-e658-4fa1-8c61-6dc7a65f0425"},"vehicle_type_id":"4","last_reported":1706558824,"current_range_meters":17600,"station_id":"ce4bgqh2rcd13ifvqc4g","pricing_plan_id":"free"},{"bike_id":"02da4e10-15d5-4aac-b37d-d7200c112f76","system_id":"levelo_inurba_marseille","lat":43.305989,"lon":5.37225,"is_reserved":false,"is_disabled":false,"rental_uris":{"android":"levelo://app?vid=02da4e10-15d5-4aac-b37d-d7200c112f76","ios":"levelo://app?vid=02da4e10-15d5-4aac-b37d-d7200c112f76"},"vehicle_type_id":"4","last_reported":1706558824,"current_range_meters":9200,"station_id":"ce4bgqh2rcd13ifvqc4g","pricing_plan_id":"free"},{"bike_id":"25f791d2-c444-42b4-908b-a7cb2958acb8","system_id":"levelo_inurba_marseille","lat":43.305989,"lon":5.37225,"is_reserved":false,"is_disabled":false,"rental_uris":{"android":"levelo://app?vid=25f791d2-c444-42b4-908b-a7cb2958acb8","ios":"levelo://app?vid=25f791d2-c444-42b4-908b-a7cb2958acb8"},"vehicle_type_id":"4","last_reported":1706558824,"current_range_meters":4000,"station_id":"ce4bgqh2rcd13ifvqc4g","pricing_plan_id":"free"},{"bike_id":"67729521-91ce-482e-89d2-f1b57d900451","system_id":"levelo_inurba_marseille","lat":43.305882,"lon":5.372265,"is_reserved":false,"is_disabled":false,"rental_uris":{"android":"levelo://app?vid=67729521-91ce-482e-89d2-f1b57d900451","ios":"levelo://app?vid=67729521-91ce-482e-89d2-f1b57d900451"},"vehicle_type_id":"4","last_reported":1706558824,"current_range_meters":0,"station_id":"ce4bgqh2rcd13ifvqc4g","pricing_plan_id":"free"},{"bike_id":"3e7143e6-9bb8-48ee-a4d3-ecd334eb6c36","system_id":"levelo_inurba_marseille","lat":43.31115,"lon":5.377692,"is_reserved":false,"is_disabled":false,"rental_uris":{"android":"levelo://app?vid=3e7143e6-9bb8-48ee-a4d3-ecd334eb6c36","ios":"levelo://app?vid=3e7143e6-9bb8-48ee-a4d3-ecd334eb6c36"},"vehicle_type_id":"4","last_reported":1706558824,"current_range_meters":0,"station_id":"ce4bgt92rcd13ifvqcg0","pricing_plan_id":"free"},{"bike_id":"d3f31ab8-054b-4b16-9d12-a2cea84be87d","system_id":"levelo_inurba_marseille","lat":43.311186,"lon":5.377718,"is_reserved":false,"is_disabled":false,"rental_uris":{"android":"levelo://app?vid=d3f31ab8-054b-4b16-9d12-a2cea84be87d","ios":"levelo://app?vid=d3f31ab8-054b-4b16-9d12-a2cea84be87d"},"vehicle_type_id":"4","last_reported":1706558824,"current_range_meters":14800,"station_id":"ce4bgt92rcd13ifvqcg0","pricing_plan_id":"free"},{"bike_id":"1b11d15c-b8e9-4001-b846-93af21c26777","system_id":"levelo_inurba_marseille","lat":43.311125,"lon":5.377624,"is_reserved":false,"is_disabled":false,"rental_uris":{"android":"levelo://app?vid=1b11d15c-b8e9-4001-b846-93af21c26777","ios":"levelo://app?vid=1b11d15c-b8e9-4001-b846-93af21c26777"},"vehicle_type_id":"4","last_reported":1706558824,"current_range_meters":6800,"station_id":"ce4bgt92rcd13ifvqcg0","pricing_plan_id":"free"},{"bike_id":"01967f21-c536-4b6f-86d5-73214529ea28","system_id":"levelo_inurba_marseille","lat":43.311125,"lon":5.377624,"is_reserved":false,"is_disabled":false,"rental_uris":{"android":"levelo://app?vid=01967f21-c536-4b6f-86d5-73214529ea28","ios":"levelo://app?vid=01967f21-c536-4b6f-86d5-73214529ea28"},"vehicle_type_id":"4","last_reported":1706558824,"current_range_meters":22000,"station_id":"ce4bgt92rcd13ifvqcg0","pricing_plan_id":"free"},{"bike_id":"8c5ac694-eff1-404d-b152-34324e267510","system_id":"levelo_inurba_marseille","lat":43.311131,"lon":5.377651,"is_reserved":false,"is_disabled":false,"rental_uris":{"android":"levelo://app?vid=8c5ac694-eff1-404d-b152-34324e267510","ios":"levelo://app?vid=8c5ac694-eff1-404d-b152-34324e267510"},"vehicle_type_id":"4","last_reported":1706558824,"current_range_meters":12800,"station_id":"ce4bgt92rcd13ifvqcg0","pricing_plan_id":"free"},{"bike_id":"6aa58277-35a2-4ba5-a6e7-cb6b6ddbc785","system_id":"levelo_inurba_marseille","lat":43.311131,"lon":5.377651,"is_reserved":false,"is_disabled":false,"rental_uris":{"android":"levelo://app?vid=6aa58277-35a2-4ba5-a6e7-cb6b6ddbc785","ios":"levelo://app?vid=6aa58277-35a2-4ba5-a6e7-cb6b6ddbc785"},"vehicle_type_id":"4","last_reported":1706558824,"current_range_meters":10800,"station_id":"ce4bgt92rcd13ifvqcg0","pricing_plan_id":"free"},{"bike_id":"86667817-f37a-4975-8302-233220cdf3c8","system_id":"levelo_inurba_marseille","lat":43.307945,"lon":5.376487,"is_reserved":false,"is_disabled":false,"rental_uris":{"android":"levelo://app?vid=86667817-f37a-4975-8302-233220cdf3c8","ios":"levelo://app?vid=86667817-f37a-4975-8302-233220cdf3c8"},"vehicle_type_id":"4","last_reported":1706558824,"current_range_meters":14000,"station_id":"ce4bgv92rcd13ifvqcq0","pricing_plan_id":"free"},{"bike_id":"9f22572f-6f75-40e5-bcd2-bf04a3a6e156","system_id":"levelo_inurba_marseille","lat":43.307945,"lon":5.376487,"is_reserved":false,"is_disabled":false,"rental_uris":{"android":"levelo://app?vid=9f22572f-6f75-40e5-bcd2-bf04a3a6e156","ios":"levelo://app?vid=9f22572f-6f75-40e5-bcd2-bf04a3a6e156"},"vehicle_type_id":"4","last_reported":1706558824,"current_range_meters":11600,"station_id":"ce4bgv92rcd13ifvqcq0","pricing_plan_id":"free"},{"bike_id":"494d44a0-de2d-4c2d-a1da-9a5d00123fff","system_id":"levelo_inurba_marseille","lat":43.307945,"lon":5.376487,"is_reserved":false,"is_disabled":false,"rental_uris":{"android":"levelo://app?vid=494d44a0-de2d-4c2d-a1da-9a5d00123fff","ios":"levelo://app?vid=494d44a0-de2d-4c2d-a1da-9a5d00123fff"},"vehicle_type_id":"4","last_reported":1706558824,"current_range_meters":6800,"station_id":"ce4bgv92rcd13ifvqcq0","pricing_plan_id":"free"},{"bike_id":"fa7fc8ff-bb1a-4210-aabf-edfd43824bee","system_id":"levelo_inurba_marseille","lat":43.317075,"lon":5.377367,"is_reserved":false,"is_disabled":false,"rental_uris":{"android":"levelo://app?vid=fa7fc8ff-bb1a-4210-aabf-edfd43824bee","ios":"levelo://app?vid=fa7fc8ff-bb1a-4210-aabf-edfd43824bee"},"vehicle_type_id":"4","last_reported":1706558824,"current_range_meters":2400,"station_id":"ce4bgth2rcd13ifvqch0","pricing_plan_id":"free"},{"bike_id":"2b52b93e-e3e3-42d1-b526-a6ebf3f9a6ae","system_id":"levelo_inurba_marseille","lat":43.317075,"lon":5.377367,"is_reserved":false,"is_disabled":false,"rental_uris":{"android":"levelo://app?vid=2b52b93e-e3e3-42d1-b526-a6ebf3f9a6ae","ios":"levelo://app?vid=2b52b93e-e3e3-42d1-b526-a6ebf3f9a6ae"},"vehicle_type_id":"4","last_reported":1706558824,"current_range_meters":18000,"station_id":"ce4bgth2rcd13ifvqch0","pricing_plan_id":"free"},{"bike_id":"b83daeb9-a39c-4884-86e2-16a37c651f7f","system_id":"levelo_inurba_marseille","lat":43.31995,"lon":5.376254,"is_reserved":false,"is_disabled":false,"rental_uris":{"android":"levelo://app?vid=b83daeb9-a39c-4884-86e2-16a37c651f7f","ios":"levelo://app?vid=b83daeb9-a39c-4884-86e2-16a37c651f7f"},"vehicle_type_id":"4","last_reported":1706558824,"current_range_meters":0,"station_id":"","pricing_plan_id":"free"},{"bike_id":"78331664-9b25-472a-85e9-f61051304054","system_id":"levelo_inurba_marseille","lat":43.315293,"lon":5.380349,"is_reserved":false,"is_disabled":false,"rental_uris":{"android":"levelo://app?vid=78331664-9b25-472a-85e9-f61051304054","ios":"levelo://app?vid=78331664-9b25-472a-85e9-f61051304054"},"vehicle_type_id":"4","last_reported":1706558824,"current_range_meters":4800,"station_id":"ce4bhsp2rcd13ifvqi50","pricing_plan_id":"free"},{"bike_id":"40bf74c6-fa85-41bf-8ccf-c971c74caf77","system_id":"levelo_inurba_marseille","lat":43.315296,"lon":5.3804,"is_reserved":false,"is_disabled":false,"rental_uris":{"android":"levelo://app?vid=40bf74c6-fa85-41bf-8ccf-c971c74caf77","ios":"levelo://app?vid=40bf74c6-fa85-41bf-8ccf-c971c74caf77"},"vehicle_type_id":"4","last_reported":1706558824,"current_range_meters":12000,"station_id":"ce4bhsp2rcd13ifvqi50","pricing_plan_id":"free"},{"bike_id":"dd11690c-1bdc-496d-8c2b-becd0f85a4b6","system_id":"levelo_inurba_marseille","lat":43.315293,"lon":5.380349,"is_reserved":false,"is_disabled":false,"rental_uris":{"android":"levelo://app?vid=dd11690c-1bdc-496d-8c2b-becd0f85a4b6","ios":"levelo://app?vid=dd11690c-1bdc-496d-8c2b-becd0f85a4b6"},"vehicle_type_id":"4","last_reported":1706558824,"current_range_meters":12800,"station_id":"ce4bhsp2rcd13ifvqi50","pricing_plan_id":"free"},{"bike_id":"6aea28b5-5222-4288-9866-ae8d21436b41","system_id":"levelo_inurba_marseille","lat":43.301939,"lon":5.366286,"is_reserved":false,"is_disabled":false,"rental_uris":{"android":"levelo://app?vid=6aea28b5-5222-4288-9866-ae8d21436b41","ios":"levelo://app?vid=6aea28b5-5222-4288-9866-ae8d21436b41"},"vehicle_type_id":"4","last_reported":1706558824,"current_range_meters":26400,"station_id":"ce4bgrh2rcd13ifvqc8g","pricing_plan_id":"free"},{"bike_id":"7e1e0c0c-1119-45e1-ba9a-b180cc1aba6a","system_id":"levelo_inurba_marseille","lat":43.308012,"lon":5.381511,"is_reserved":false,"is_disabled":false,"rental_uris":{"android":"levelo://app?vid=7e1e0c0c-1119-45e1-ba9a-b180cc1aba6a","ios":"levelo://app?vid=7e1e0c0c-1119-45e1-ba9a-b180cc1aba6a"},"vehicle_type_id":"4","last_reported":1706558824,"current_range_meters":20000,"station_id":"ce4bgt12rcd13ifvqce0","pricing_plan_id":"free"},{"bike_id":"2d40c143-6cb5-4df6-a200-396289dcd0f5","system_id":"levelo_inurba_marseille","lat":43.324771,"lon":5.36557,"is_reserved":false,"is_disabled":false,"rental_uris":{"android":"levelo://app?vid=2d40c143-6cb5-4df6-a200-396289dcd0f5","ios":"levelo://app?vid=2d40c143-6cb5-4df6-a200-396289dcd0f5"},"vehicle_type_id":"4","last_reported":1706558824,"current_range_meters":2800,"station_id":"ce4bhs12rcd13ifvqhvg","pricing_plan_id":"free"},{"bike_id":"13bd44b9-8ecb-46da-981f-fe222ffce708","system_id":"levelo_inurba_marseille","lat":43.324771,"lon":5.36557,"is_reserved":false,"is_disabled":false,"rental_uris":{"android":"levelo://app?vid=13bd44b9-8ecb-46da-981f-fe222ffce708","ios":"levelo://app?vid=13bd44b9-8ecb-46da-981f-fe222ffce708"},"vehicle_type_id":"4","last_reported":1706558824,"current_range_meters":12800,"station_id":"ce4bhs12rcd13ifvqhvg","pricing_plan_id":"free"},{"bike_id":"11c30585-a193-4157-8eb9-d99a32e94516","system_id":"levelo_inurba_marseille","lat":43.324771,"lon":5.36557,"is_reserved":false,"is_disabled":false,"rental_uris":{"android":"levelo://app?vid=11c30585-a193-4157-8eb9-d99a32e94516","ios":"levelo://app?vid=11c30585-a193-4157-8eb9-d99a32e94516"},"vehicle_type_id":"4","last_reported":1706558824,"current_range_meters":19200,"station_id":"ce4bhs12rcd13ifvqhvg","pricing_plan_id":"free"},{"bike_id":"4c1d912b-8425-4b28-bcd4-0691a1724560","system_id":"levelo_inurba_marseille","lat":43.324865,"lon":5.365788,"is_reserved":false,"is_disabled":false,"rental_uris":{"android":"levelo://app?vid=4c1d912b-8425-4b28-bcd4-0691a1724560","ios":"levelo://app?vid=4c1d912b-8425-4b28-bcd4-0691a1724560"},"vehicle_type_id":"4","last_reported":1706558824,"current_range_meters":27600,"station_id":"ce4bhs12rcd13ifvqhvg","pricing_plan_id":"free"},{"bike_id":"dc00bdf8-dc57-4b02-8d44-8ea4906debe3","system_id":"levelo_inurba_marseille","lat":43.324771,"lon":5.36557,"is_reserved":false,"is_disabled":false,"rental_uris":{"android":"levelo://app?vid=dc00bdf8-dc57-4b02-8d44-8ea4906debe3","ios":"levelo://app?vid=dc00bdf8-dc57-4b02-8d44-8ea4906debe3"},"vehicle_type_id":"4","last_reported":1706558824,"current_range_meters":12400,"station_id":"ce4bhs12rcd13ifvqhvg","pricing_plan_id":"free"},{"bike_id":"96bada0b-1fa9-4706-87e9-8f67e261e440","system_id":"levelo_inurba_marseille","lat":43.324771,"lon":5.36557,"is_reserved":false,"is_disabled":false,"rental_uris":{"android":"levelo://app?vid=96bada0b-1fa9-4706-87e9-8f67e261e440","ios":"levelo://app?vid=96bada0b-1fa9-4706-87e9-8f67e261e440"},"vehicle_type_id":"4","last_reported":1706558824,"current_range_meters":23600,"station_id":"ce4bhs12rcd13ifvqhvg","pricing_plan_id":"free"},{"bike_id":"dd6b7008-c30f-4316-8921-b5028f9d3f38","system_id":"levelo_inurba_marseille","lat":43.319935,"lon":5.381699,"is_reserved":false,"is_disabled":false,"rental_uris":{"android":"levelo://app?vid=dd6b7008-c30f-4316-8921-b5028f9d3f38","ios":"levelo://app?vid=dd6b7008-c30f-4316-8921-b5028f9d3f38"},"vehicle_type_id":"4","last_reported":1706558824,"current_range_meters":20800,"station_id":"ce4bhr12rcd13ifvqhpg","pricing_plan_id":"free"},{"bike_id":"0ca84510-6630-47d1-867a-145dbc99d2a1","system_id":"levelo_inurba_marseille","lat":43.319935,"lon":5.381699,"is_reserved":false,"is_disabled":false,"rental_uris":{"android":"levelo://app?vid=0ca84510-6630-47d1-867a-145dbc99d2a1","ios":"levelo://app?vid=0ca84510-6630-47d1-867a-145dbc99d2a1"},"vehicle_type_id":"4","last_reported":1706558824,"current_range_meters":20800,"station_id":"ce4bhr12rcd13ifvqhpg","pricing_plan_id":"free"},{"bike_id":"a6345780-30db-47f2-acfb-6adc1facc2d6","system_id":"levelo_inurba_marseille","lat":43.319935,"lon":5.381699,"is_reserved":false,"is_disabled":false,"rental_uris":{"android":"levelo://app?vid=a6345780-30db-47f2-acfb-6adc1facc2d6","ios":"levelo://app?vid=a6345780-30db-47f2-acfb-6adc1facc2d6"},"vehicle_type_id":"4","last_reported":1706558824,"current_range_meters":1600,"station_id":"ce4bhr12rcd13ifvqhpg","pricing_plan_id":"free"},{"bike_id":"db221131-c386-47ca-b2fd-68cdd3449415","system_id":"levelo_inurba_marseille","lat":43.319935,"lon":5.381699,"is_reserved":false,"is_disabled":false,"rental_uris":{"android":"levelo://app?vid=db221131-c386-47ca-b2fd-68cdd3449415","ios":"levelo://app?vid=db221131-c386-47ca-b2fd-68cdd3449415"},"vehicle_type_id":"4","last_reported":1706558824,"current_range_meters":6000,"station_id":"ce4bhr12rcd13ifvqhpg","pricing_plan_id":"free"},{"bike_id":"62359dd4-e5a2-43d3-8c03-a9073c8bb30e","system_id":"levelo_inurba_marseille","lat":43.314811,"lon":5.373103,"is_reserved":false,"is_disabled":false,"rental_uris":{"android":"levelo://app?vid=62359dd4-e5a2-43d3-8c03-a9073c8bb30e","ios":"levelo://app?vid=62359dd4-e5a2-43d3-8c03-a9073c8bb30e"},"vehicle_type_id":"4","last_reported":1706558824,"current_range_meters":17200,"station_id":"ce4bgt12rcd13ifvqcd0","pricing_plan_id":"free"},{"bike_id":"e163d0f3-cac3-48a6-9514-1f57ae24562b","system_id":"levelo_inurba_marseille","lat":43.319935,"lon":5.381699,"is_reserved":false,"is_disabled":false,"rental_uris":{"android":"levelo://app?vid=e163d0f3-cac3-48a6-9514-1f57ae24562b","ios":"levelo://app?vid=e163d0f3-cac3-48a6-9514-1f57ae24562b"},"vehicle_type_id":"4","last_reported":1706558824,"current_range_meters":19600,"station_id":"ce4bhr12rcd13ifvqhpg","pricing_plan_id":"free"},{"bike_id":"bb929bd9-481f-47ef-b3a2-06363540c0cc","system_id":"levelo_inurba_marseille","lat":43.319935,"lon":5.381699,"is_reserved":false,"is_disabled":false,"rental_uris":{"android":"levelo://app?vid=bb929bd9-481f-47ef-b3a2-06363540c0cc","ios":"levelo://app?vid=bb929bd9-481f-47ef-b3a2-06363540c0cc"},"vehicle_type_id":"4","last_reported":1706558824,"current_range_meters":5200,"station_id":"ce4bhr12rcd13ifvqhpg","pricing_plan_id":"free"},{"bike_id":"bcff8e8c-f51f-47bc-95e6-f6d6da3e1a3a","system_id":"levelo_inurba_marseille","lat":43.313571,"lon":5.384829,"is_reserved":false,"is_disabled":false,"rental_uris":{"android":"levelo://app?vid=bcff8e8c-f51f-47bc-95e6-f6d6da3e1a3a","ios":"levelo://app?vid=bcff8e8c-f51f-47bc-95e6-f6d6da3e1a3a"},"vehicle_type_id":"4","last_reported":1706558824,"current_range_meters":10400,"station_id":"ce4bgt92rcd13ifvqcf0","pricing_plan_id":"free"},{"bike_id":"a5a18d65-e430-48ad-afa0-784b5cd11fce","system_id":"levelo_inurba_marseille","lat":43.31358,"lon":5.3849,"is_reserved":false,"is_disabled":false,"rental_uris":{"android":"levelo://app?vid=a5a18d65-e430-48ad-afa0-784b5cd11fce","ios":"levelo://app?vid=a5a18d65-e430-48ad-afa0-784b5cd11fce"},"vehicle_type_id":"4","last_reported":1706558824,"current_range_meters":20800,"station_id":"ce4bgt92rcd13ifvqcf0","pricing_plan_id":"free"},{"bike_id":"e655e91b-10df-46e7-b5f6-feb56137cc3a","system_id":"levelo_inurba_marseille","lat":43.313571,"lon":5.384829,"is_reserved":false,"is_disabled":false,"rental_uris":{"android":"levelo://app?vid=e655e91b-10df-46e7-b5f6-feb56137cc3a","ios":"levelo://app?vid=e655e91b-10df-46e7-b5f6-feb56137cc3a"},"vehicle_type_id":"4","last_reported":1706558824,"current_range_meters":28400,"station_id":"ce4bgt92rcd13ifvqcf0","pricing_plan_id":"free"},{"bike_id":"a0a55396-692c-4805-bb09-fd3a79d9db74","system_id":"levelo_inurba_marseille","lat":43.31366,"lon":5.38492,"is_reserved":false,"is_disabled":false,"rental_uris":{"android":"levelo://app?vid=a0a55396-692c-4805-bb09-fd3a79d9db74","ios":"levelo://app?vid=a0a55396-692c-4805-bb09-fd3a79d9db74"},"vehicle_type_id":"4","last_reported":1706558824,"current_range_meters":13200,"station_id":"ce4bgt92rcd13ifvqcf0","pricing_plan_id":"free"},{"bike_id":"89c84ddc-d0f7-4fa9-b5fb-cf3c79c1de46","system_id":"levelo_inurba_marseille","lat":43.31367,"lon":5.38492,"is_reserved":false,"is_disabled":false,"rental_uris":{"android":"levelo://app?vid=89c84ddc-d0f7-4fa9-b5fb-cf3c79c1de46","ios":"levelo://app?vid=89c84ddc-d0f7-4fa9-b5fb-cf3c79c1de46"},"vehicle_type_id":"4","last_reported":1706558824,"current_range_meters":0,"station_id":"ce4bgt92rcd13ifvqcf0","pricing_plan_id":"free"},{"bike_id":"4ac11a0b-9d9e-4805-915b-d93d712359f4","system_id":"levelo_inurba_marseille","lat":43.313571,"lon":5.384829,"is_reserved":false,"is_disabled":false,"rental_uris":{"android":"levelo://app?vid=4ac11a0b-9d9e-4805-915b-d93d712359f4","ios":"levelo://app?vid=4ac11a0b-9d9e-4805-915b-d93d712359f4"},"vehicle_type_id":"4","last_reported":1706558824,"current_range_meters":3600,"station_id":"ce4bgt92rcd13ifvqcf0","pricing_plan_id":"free"},{"bike_id":"90af10d2-7f4f-4866-a073-0f8d9da53454","system_id":"levelo_inurba_marseille","lat":43.299222,"lon":5.365554,"is_reserved":false,"is_disabled":false,"rental_uris":{"android":"levelo://app?vid=90af10d2-7f4f-4866-a073-0f8d9da53454","ios":"levelo://app?vid=90af10d2-7f4f-4866-a073-0f8d9da53454"},"vehicle_type_id":"4","last_reported":1706558824,"current_range_meters":6400,"station_id":"ce4bgm92rcd13ifvqbr0","pricing_plan_id":"free"},{"bike_id":"dc2bf67f-f517-44a7-acda-bd91fa2751b5","system_id":"levelo_inurba_marseille","lat":43.299724,"lon":5.371829,"is_reserved":false,"is_disabled":false,"rental_uris":{"android":"levelo://app?vid=dc2bf67f-f517-44a7-acda-bd91fa2751b5","ios":"levelo://app?vid=dc2bf67f-f517-44a7-acda-bd91fa2751b5"},"vehicle_type_id":"4","last_reported":1706558824,"current_range_meters":19600,"station_id":"ce4bgr92rcd13ifvqc7g","pricing_plan_id":"free"},{"bike_id":"a913d053-372c-4a4e-a0c3-ba513a7d66f2","system_id":"levelo_inurba_marseille","lat":43.305364,"lon":5.384119,"is_reserved":false,"is_disabled":false,"rental_uris":{"android":"levelo://app?vid=a913d053-372c-4a4e-a0c3-ba513a7d66f2","ios":"levelo://app?vid=a913d053-372c-4a4e-a0c3-ba513a7d66f2"},"vehicle_type_id":"4","last_reported":1706558824,"current_range_meters":2000,"station_id":"ce4bgg92rcd13ifvqb30","pricing_plan_id":"free"},{"bike_id":"eb1982e9-45d5-4723-bfc6-955d7547f834","system_id":"levelo_inurba_marseille","lat":43.305364,"lon":5.384119,"is_reserved":false,"is_disabled":false,"rental_uris":{"android":"levelo://app?vid=eb1982e9-45d5-4723-bfc6-955d7547f834","ios":"levelo://app?vid=eb1982e9-45d5-4723-bfc6-955d7547f834"},"vehicle_type_id":"4","last_reported":1706558824,"current_range_meters":16000,"station_id":"ce4bgg92rcd13ifvqb30","pricing_plan_id":"free"},{"bike_id":"52c0ddbb-c50b-44be-820a-25591618067a","system_id":"levelo_inurba_marseille","lat":43.31167,"lon":5.38714,"is_reserved":false,"is_disabled":false,"rental_uris":{"android":"levelo://app?vid=52c0ddbb-c50b-44be-820a-25591618067a","ios":"levelo://app?vid=52c0ddbb-c50b-44be-820a-25591618067a"},"vehicle_type_id":"4","last_reported":1706558824,"current_range_meters":400,"station_id":"ce4bgv12rcd13ifvqcp0","pricing_plan_id":"free"},{"bike_id":"0f204089-8036-41aa-8154-73e73ef85fae","system_id":"levelo_inurba_marseille","lat":43.311648,"lon":5.38716,"is_reserved":false,"is_disabled":false,"rental_uris":{"android":"levelo://app?vid=0f204089-8036-41aa-8154-73e73ef85fae","ios":"levelo://app?vid=0f204089-8036-41aa-8154-73e73ef85fae"},"vehicle_type_id":"4","last_reported":1706558824,"current_range_meters":0,"station_id":"ce4bgv12rcd13ifvqcp0","pricing_plan_id":"free"},{"bike_id":"bbfd2fe8-5ab8-4046-a597-96677d792067","system_id":"levelo_inurba_marseille","lat":43.311696,"lon":5.387168,"is_reserved":false,"is_disabled":false,"rental_uris":{"android":"levelo://app?vid=bbfd2fe8-5ab8-4046-a597-96677d792067","ios":"levelo://app?vid=bbfd2fe8-5ab8-4046-a597-96677d792067"},"vehicle_type_id":"4","last_reported":1706558824,"current_range_meters":30800,"station_id":"ce4bgv12rcd13ifvqcp0","pricing_plan_id":"free"},{"bike_id":"bf6d7d92-c6fb-483b-962e-c72bfff71072","system_id":"levelo_inurba_marseille","lat":43.3117,"lon":5.38717,"is_reserved":false,"is_disabled":false,"rental_uris":{"android":"levelo://app?vid=bf6d7d92-c6fb-483b-962e-c72bfff71072","ios":"levelo://app?vid=bf6d7d92-c6fb-483b-962e-c72bfff71072"},"vehicle_type_id":"4","last_reported":1706558824,"current_range_meters":16800,"station_id":"ce4bgv12rcd13ifvqcp0","pricing_plan_id":"free"},{"bike_id":"284b9475-c25a-42a1-a880-056f23495685","system_id":"levelo_inurba_marseille","lat":43.31161,"lon":5.38719,"is_reserved":false,"is_disabled":false,"rental_uris":{"android":"levelo://app?vid=284b9475-c25a-42a1-a880-056f23495685","ios":"levelo://app?vid=284b9475-c25a-42a1-a880-056f23495685"},"vehicle_type_id":"4","last_reported":1706558824,"current_range_meters":12000,"station_id":"ce4bgv12rcd13ifvqcp0","pricing_plan_id":"free"},{"bike_id":"7a3928fa-6b7a-4170-bb54-1e67555b930f","system_id":"levelo_inurba_marseille","lat":43.311722,"lon":5.387247,"is_reserved":false,"is_disabled":false,"rental_uris":{"android":"levelo://app?vid=7a3928fa-6b7a-4170-bb54-1e67555b930f","ios":"levelo://app?vid=7a3928fa-6b7a-4170-bb54-1e67555b930f"},"vehicle_type_id":"4","last_reported":1706558824,"current_range_meters":14400,"station_id":"ce4bgv12rcd13ifvqcp0","pricing_plan_id":"free"},{"bike_id":"11276585-f17b-4b0c-9778-7880d29226f1","system_id":"levelo_inurba_marseille","lat":43.3117,"lon":5.38722,"is_reserved":false,"is_disabled":false,"rental_uris":{"android":"levelo://app?vid=11276585-f17b-4b0c-9778-7880d29226f1","ios":"levelo://app?vid=11276585-f17b-4b0c-9778-7880d29226f1"},"vehicle_type_id":"4","last_reported":1706558824,"current_range_meters":24400,"station_id":"ce4bgv12rcd13ifvqcp0","pricing_plan_id":"free"},{"bike_id":"ecc16a4e-aa68-43b2-a249-41326e74d1fd","system_id":"levelo_inurba_marseille","lat":43.311722,"lon":5.387247,"is_reserved":false,"is_disabled":false,"rental_uris":{"android":"levelo://app?vid=ecc16a4e-aa68-43b2-a249-41326e74d1fd","ios":"levelo://app?vid=ecc16a4e-aa68-43b2-a249-41326e74d1fd"},"vehicle_type_id":"4","last_reported":1706558824,"current_range_meters":28400,"station_id":"ce4bgv12rcd13ifvqcp0","pricing_plan_id":"free"},{"bike_id":"b1f20554-a69e-4b47-8cbd-a32dbe8662f3","system_id":"levelo_inurba_marseille","lat":43.311722,"lon":5.387247,"is_reserved":false,"is_disabled":false,"rental_uris":{"android":"levelo://app?vid=b1f20554-a69e-4b47-8cbd-a32dbe8662f3","ios":"levelo://app?vid=b1f20554-a69e-4b47-8cbd-a32dbe8662f3"},"vehicle_type_id":"4","last_reported":1706558824,"current_range_meters":4000,"station_id":"ce4bgv12rcd13ifvqcp0","pricing_plan_id":"free"},{"bike_id":"9682a7c6-061d-4c37-838e-25e3b59af541","system_id":"levelo_inurba_marseille","lat":43.299243,"lon":5.37481,"is_reserved":false,"is_disabled":false,"rental_uris":{"android":"levelo://app?vid=9682a7c6-061d-4c37-838e-25e3b59af541","ios":"levelo://app?vid=9682a7c6-061d-4c37-838e-25e3b59af541"},"vehicle_type_id":"4","last_reported":1706558824,"current_range_meters":2800,"station_id":"ce4bgjh2rcd13ifvqbg0","pricing_plan_id":"free"},{"bike_id":"e1539f0d-02e3-46ca-8fd2-b115fd55a782","system_id":"levelo_inurba_marseille","lat":43.322872,"lon":5.382756,"is_reserved":false,"is_disabled":false,"rental_uris":{"android":"levelo://app?vid=e1539f0d-02e3-46ca-8fd2-b115fd55a782","ios":"levelo://app?vid=e1539f0d-02e3-46ca-8fd2-b115fd55a782"},"vehicle_type_id":"4","last_reported":1706558824,"current_range_meters":19200,"station_id":"ce4bhr12rcd13ifvqhqg","pricing_plan_id":"free"},{"bike_id":"792c74ed-b81a-4b41-8359-1eefda119ec3","system_id":"levelo_inurba_marseille","lat":43.322872,"lon":5.382756,"is_reserved":false,"is_disabled":false,"rental_uris":{"android":"levelo://app?vid=792c74ed-b81a-4b41-8359-1eefda119ec3","ios":"levelo://app?vid=792c74ed-b81a-4b41-8359-1eefda119ec3"},"vehicle_type_id":"4","last_reported":1706558824,"current_range_meters":16000,"station_id":"ce4bhr12rcd13ifvqhqg","pricing_plan_id":"free"},{"bike_id":"4c76a369-40e2-427c-bdd2-4ff8a4634e1e","system_id":"levelo_inurba_marseille","lat":43.322872,"lon":5.382756,"is_reserved":false,"is_disabled":false,"rental_uris":{"android":"levelo://app?vid=4c76a369-40e2-427c-bdd2-4ff8a4634e1e","ios":"levelo://app?vid=4c76a369-40e2-427c-bdd2-4ff8a4634e1e"},"vehicle_type_id":"4","last_reported":1706558824,"current_range_meters":22800,"station_id":"ce4bhr12rcd13ifvqhqg","pricing_plan_id":"free"},{"bike_id":"b393d938-03e9-4493-bb59-0ad2df777920","system_id":"levelo_inurba_marseille","lat":43.322872,"lon":5.382756,"is_reserved":false,"is_disabled":false,"rental_uris":{"android":"levelo://app?vid=b393d938-03e9-4493-bb59-0ad2df777920","ios":"levelo://app?vid=b393d938-03e9-4493-bb59-0ad2df777920"},"vehicle_type_id":"4","last_reported":1706558824,"current_range_meters":20800,"station_id":"ce4bhr12rcd13ifvqhqg","pricing_plan_id":"free"},{"bike_id":"09ec5261-6dc4-4f45-a640-bac2ae33bdc0","system_id":"levelo_inurba_marseille","lat":43.322872,"lon":5.382756,"is_reserved":false,"is_disabled":false,"rental_uris":{"android":"levelo://app?vid=09ec5261-6dc4-4f45-a640-bac2ae33bdc0","ios":"levelo://app?vid=09ec5261-6dc4-4f45-a640-bac2ae33bdc0"},"vehicle_type_id":"4","last_reported":1706558824,"current_range_meters":16800,"station_id":"ce4bhr12rcd13ifvqhqg","pricing_plan_id":"free"},{"bike_id":"889580a8-390b-425d-ba86-1d259400af7d","system_id":"levelo_inurba_marseille","lat":43.322872,"lon":5.382756,"is_reserved":false,"is_disabled":false,"rental_uris":{"android":"levelo://app?vid=889580a8-390b-425d-ba86-1d259400af7d","ios":"levelo://app?vid=889580a8-390b-425d-ba86-1d259400af7d"},"vehicle_type_id":"4","last_reported":1706558824,"current_range_meters":30000,"station_id":"ce4bhr12rcd13ifvqhqg","pricing_plan_id":"free"},{"bike_id":"1c9d37d0-9c22-419e-afa7-1697cb75aab3","system_id":"levelo_inurba_marseille","lat":43.328283,"lon":5.36689,"is_reserved":false,"is_disabled":false,"rental_uris":{"android":"levelo://app?vid=1c9d37d0-9c22-419e-afa7-1697cb75aab3","ios":"levelo://app?vid=1c9d37d0-9c22-419e-afa7-1697cb75aab3"},"vehicle_type_id":"4","last_reported":1706558824,"current_range_meters":17200,"station_id":"ce4bhs92rcd13ifvqi0g","pricing_plan_id":"free"},{"bike_id":"12d7300c-7281-4d65-b928-1f4a31310a0c","system_id":"levelo_inurba_marseille","lat":43.32834,"lon":5.36685,"is_reserved":false,"is_disabled":false,"rental_uris":{"android":"levelo://app?vid=12d7300c-7281-4d65-b928-1f4a31310a0c","ios":"levelo://app?vid=12d7300c-7281-4d65-b928-1f4a31310a0c"},"vehicle_type_id":"4","last_reported":1706558824,"current_range_meters":19600,"station_id":"ce4bhs92rcd13ifvqi0g","pricing_plan_id":"free"},{"bike_id":"9cc30769-75e2-40a7-b116-b561ec6b360f","system_id":"levelo_inurba_marseille","lat":43.32836,"lon":5.366803,"is_reserved":false,"is_disabled":false,"rental_uris":{"android":"levelo://app?vid=9cc30769-75e2-40a7-b116-b561ec6b360f","ios":"levelo://app?vid=9cc30769-75e2-40a7-b116-b561ec6b360f"},"vehicle_type_id":"4","last_reported":1706558824,"current_range_meters":2000,"station_id":"ce4bhs92rcd13ifvqi0g","pricing_plan_id":"free"},{"bike_id":"8b120c8b-1ecf-47eb-bfec-8c5b904aeb13","system_id":"levelo_inurba_marseille","lat":43.29713,"lon":5.36614,"is_reserved":false,"is_disabled":false,"rental_uris":{"android":"levelo://app?vid=8b120c8b-1ecf-47eb-bfec-8c5b904aeb13","ios":"levelo://app?vid=8b120c8b-1ecf-47eb-bfec-8c5b904aeb13"},"vehicle_type_id":"4","last_reported":1706558824,"current_range_meters":13200,"station_id":"","pricing_plan_id":"free"},{"bike_id":"a7b46d30-9a70-4680-b75f-47377b8b9b0a","system_id":"levelo_inurba_marseille","lat":43.309589,"lon":5.390258,"is_reserved":false,"is_disabled":false,"rental_uris":{"android":"levelo://app?vid=a7b46d30-9a70-4680-b75f-47377b8b9b0a","ios":"levelo://app?vid=a7b46d30-9a70-4680-b75f-47377b8b9b0a"},"vehicle_type_id":"4","last_reported":1706558824,"current_range_meters":6000,"station_id":"ce4bgup2rcd13ifvqco0","pricing_plan_id":"free"},{"bike_id":"f2cc2235-5373-4eb6-9528-765bfe55cf45","system_id":"levelo_inurba_marseille","lat":43.309589,"lon":5.390258,"is_reserved":false,"is_disabled":false,"rental_uris":{"android":"levelo://app?vid=f2cc2235-5373-4eb6-9528-765bfe55cf45","ios":"levelo://app?vid=f2cc2235-5373-4eb6-9528-765bfe55cf45"},"vehicle_type_id":"4","last_reported":1706558824,"current_range_meters":12000,"station_id":"ce4bgup2rcd13ifvqco0","pricing_plan_id":"free"},{"bike_id":"792ca53d-a85b-4708-a86b-198a6178534c","system_id":"levelo_inurba_marseille","lat":43.317557,"lon":5.390173,"is_reserved":false,"is_disabled":false,"rental_uris":{"android":"levelo://app?vid=792ca53d-a85b-4708-a86b-198a6178534c","ios":"levelo://app?vid=792ca53d-a85b-4708-a86b-198a6178534c"},"vehicle_type_id":"4","last_reported":1706558824,"current_range_meters":26800,"station_id":"ce4bhqp2rcd13ifvqhng","pricing_plan_id":"free"},{"bike_id":"7d22c466-10de-4b03-b798-6fb673450e43","system_id":"levelo_inurba_marseille","lat":43.296935,"lon":5.376544,"is_reserved":false,"is_disabled":false,"rental_uris":{"android":"levelo://app?vid=7d22c466-10de-4b03-b798-6fb673450e43","ios":"levelo://app?vid=7d22c466-10de-4b03-b798-6fb673450e43"},"vehicle_type_id":"4","last_reported":1706558824,"current_range_meters":5200,"station_id":"ce4bgkh2rcd13ifvqbl0","pricing_plan_id":"free"},{"bike_id":"e089453b-319c-4b50-8352-cfa6bbc27328","system_id":"levelo_inurba_marseille","lat":43.317557,"lon":5.390173,"is_reserved":false,"is_disabled":false,"rental_uris":{"android":"levelo://app?vid=e089453b-319c-4b50-8352-cfa6bbc27328","ios":"levelo://app?vid=e089453b-319c-4b50-8352-cfa6bbc27328"},"vehicle_type_id":"4","last_reported":1706558824,"current_range_meters":26400,"station_id":"ce4bhqp2rcd13ifvqhng","pricing_plan_id":"free"},{"bike_id":"fb36bf10-06e0-47da-8793-500b296d3495","system_id":"levelo_inurba_marseille","lat":43.2981,"lon":5.38105,"is_reserved":false,"is_disabled":false,"rental_uris":{"android":"levelo://app?vid=fb36bf10-06e0-47da-8793-500b296d3495","ios":"levelo://app?vid=fb36bf10-06e0-47da-8793-500b296d3495"},"vehicle_type_id":"4","last_reported":1706558824,"current_range_meters":0,"station_id":"ce4bgip2rcd13ifvqbb0","pricing_plan_id":"free"},{"bike_id":"2285c2b3-11bc-4528-8dce-893279ebd53e","system_id":"levelo_inurba_marseille","lat":43.29805,"lon":5.38106,"is_reserved":false,"is_disabled":false,"rental_uris":{"android":"levelo://app?vid=2285c2b3-11bc-4528-8dce-893279ebd53e","ios":"levelo://app?vid=2285c2b3-11bc-4528-8dce-893279ebd53e"},"vehicle_type_id":"4","last_reported":1706558824,"current_range_meters":3600,"station_id":"ce4bgip2rcd13ifvqbb0","pricing_plan_id":"free"},{"bike_id":"48b99258-2c58-40e6-a47d-a1adbc2c8ceb","system_id":"levelo_inurba_marseille","lat":43.298037,"lon":5.381066,"is_reserved":false,"is_disabled":false,"rental_uris":{"android":"levelo://app?vid=48b99258-2c58-40e6-a47d-a1adbc2c8ceb","ios":"levelo://app?vid=48b99258-2c58-40e6-a47d-a1adbc2c8ceb"},"vehicle_type_id":"4","last_reported":1706558824,"current_range_meters":3600,"station_id":"ce4bgip2rcd13ifvqbb0","pricing_plan_id":"free"},{"bike_id":"11774811-71ac-4a3b-90a1-50bda41dfa74","system_id":"levelo_inurba_marseille","lat":43.297866,"lon":5.381257,"is_reserved":false,"is_disabled":false,"rental_uris":{"android":"levelo://app?vid=11774811-71ac-4a3b-90a1-50bda41dfa74","ios":"levelo://app?vid=11774811-71ac-4a3b-90a1-50bda41dfa74"},"vehicle_type_id":"4","last_reported":1706558824,"current_range_meters":0,"station_id":"ce4bgip2rcd13ifvqbb0","pricing_plan_id":"free"},{"bike_id":"685ff067-cd9a-452b-9ae0-aac93173f915","system_id":"levelo_inurba_marseille","lat":43.299724,"lon":5.384848,"is_reserved":false,"is_disabled":false,"rental_uris":{"android":"levelo://app?vid=685ff067-cd9a-452b-9ae0-aac93173f915","ios":"levelo://app?vid=685ff067-cd9a-452b-9ae0-aac93173f915"},"vehicle_type_id":"4","last_reported":1706558824,"current_range_meters":2400,"station_id":"ce4bgj92rcd13ifvqbd0","pricing_plan_id":"free"},{"bike_id":"bb958374-3dfd-476b-9391-9e6320c5150e","system_id":"levelo_inurba_marseille","lat":43.2953,"lon":5.37501,"is_reserved":false,"is_disabled":false,"rental_uris":{"android":"levelo://app?vid=bb958374-3dfd-476b-9391-9e6320c5150e","ios":"levelo://app?vid=bb958374-3dfd-476b-9391-9e6320c5150e"},"vehicle_type_id":"4","last_reported":1706558824,"current_range_meters":0,"station_id":"ce4bgkp2rcd13ifvqbmg","pricing_plan_id":"free"},{"bike_id":"92c21dbd-b8d3-45f6-a167-4b95afa720a6","system_id":"levelo_inurba_marseille","lat":43.299724,"lon":5.384848,"is_reserved":false,"is_disabled":false,"rental_uris":{"android":"levelo://app?vid=92c21dbd-b8d3-45f6-a167-4b95afa720a6","ios":"levelo://app?vid=92c21dbd-b8d3-45f6-a167-4b95afa720a6"},"vehicle_type_id":"4","last_reported":1706558824,"current_range_meters":14400,"station_id":"ce4bgj92rcd13ifvqbd0","pricing_plan_id":"free"},{"bike_id":"de25d637-84ec-4203-b892-3e1c2d7c4ddb","system_id":"levelo_inurba_marseille","lat":43.33174,"lon":5.36449,"is_reserved":false,"is_disabled":false,"rental_uris":{"android":"levelo://app?vid=de25d637-84ec-4203-b892-3e1c2d7c4ddb","ios":"levelo://app?vid=de25d637-84ec-4203-b892-3e1c2d7c4ddb"},"vehicle_type_id":"4","last_reported":1706558824,"current_range_meters":15600,"station_id":"","pricing_plan_id":"free"},{"bike_id":"12dd9e47-1ac3-44a4-b056-e02bc32175a7","system_id":"levelo_inurba_marseille","lat":43.32365,"lon":5.38876,"is_reserved":false,"is_disabled":false,"rental_uris":{"android":"levelo://app?vid=12dd9e47-1ac3-44a4-b056-e02bc32175a7","ios":"levelo://app?vid=12dd9e47-1ac3-44a4-b056-e02bc32175a7"},"vehicle_type_id":"4","last_reported":1706558824,"current_range_meters":28000,"station_id":"ce4bhqp2rcd13ifvqhog","pricing_plan_id":"free"},{"bike_id":"25e224de-8b9c-45ce-8303-81296717e208","system_id":"levelo_inurba_marseille","lat":43.323656,"lon":5.388822,"is_reserved":false,"is_disabled":false,"rental_uris":{"android":"levelo://app?vid=25e224de-8b9c-45ce-8303-81296717e208","ios":"levelo://app?vid=25e224de-8b9c-45ce-8303-81296717e208"},"vehicle_type_id":"4","last_reported":1706558824,"current_range_meters":4800,"station_id":"ce4bhqp2rcd13ifvqhog","pricing_plan_id":"free"},{"bike_id":"b7033815-9ecb-4819-92e9-ca6e0dfcaa69","system_id":"levelo_inurba_marseille","lat":43.3237,"lon":5.38887,"is_reserved":false,"is_disabled":false,"rental_uris":{"android":"levelo://app?vid=b7033815-9ecb-4819-92e9-ca6e0dfcaa69","ios":"levelo://app?vid=b7033815-9ecb-4819-92e9-ca6e0dfcaa69"},"vehicle_type_id":"4","last_reported":1706558824,"current_range_meters":6000,"station_id":"ce4bhqp2rcd13ifvqhog","pricing_plan_id":"free"},{"bike_id":"a7f52bc0-829c-44b6-b2d5-2aa6bc2d37cc","system_id":"levelo_inurba_marseille","lat":43.292749,"lon":5.368402,"is_reserved":false,"is_disabled":false,"rental_uris":{"android":"levelo://app?vid=a7f52bc0-829c-44b6-b2d5-2aa6bc2d37cc","ios":"levelo://app?vid=a7f52bc0-829c-44b6-b2d5-2aa6bc2d37cc"},"vehicle_type_id":"4","last_reported":1706558824,"current_range_meters":4400,"station_id":"ce4bhbp2rcd13ifvqesg","pricing_plan_id":"free"},{"bike_id":"fdafe058-d370-460d-a83a-9c4eb1d51fc4","system_id":"levelo_inurba_marseille","lat":43.305994,"lon":5.393687,"is_reserved":false,"is_disabled":false,"rental_uris":{"android":"levelo://app?vid=fdafe058-d370-460d-a83a-9c4eb1d51fc4","ios":"levelo://app?vid=fdafe058-d370-460d-a83a-9c4eb1d51fc4"},"vehicle_type_id":"4","last_reported":1706558824,"current_range_meters":1200,"station_id":"ce4bh0p2rcd13ifvqd80","pricing_plan_id":"free"},{"bike_id":"5e06e23e-11df-475e-ada2-84ce20c8bc33","system_id":"levelo_inurba_marseille","lat":43.30603,"lon":5.39363,"is_reserved":false,"is_disabled":false,"rental_uris":{"android":"levelo://app?vid=5e06e23e-11df-475e-ada2-84ce20c8bc33","ios":"levelo://app?vid=5e06e23e-11df-475e-ada2-84ce20c8bc33"},"vehicle_type_id":"4","last_reported":1706558824,"current_range_meters":0,"station_id":"ce4bh0p2rcd13ifvqd80","pricing_plan_id":"free"},{"bike_id":"356e7324-a3dc-45b5-830a-8696f1691edc","system_id":"levelo_inurba_marseille","lat":43.302992,"lon":5.392136,"is_reserved":false,"is_disabled":false,"rental_uris":{"android":"levelo://app?vid=356e7324-a3dc-45b5-830a-8696f1691edc","ios":"levelo://app?vid=356e7324-a3dc-45b5-830a-8696f1691edc"},"vehicle_type_id":"4","last_reported":1706558824,"current_range_meters":21600,"station_id":"ce4bgkh2rcd13ifvqbk0","pricing_plan_id":"free"},{"bike_id":"3764c221-dc5a-4c4c-a456-07c28cea824f","system_id":"levelo_inurba_marseille","lat":43.300852,"lon":5.390859,"is_reserved":false,"is_disabled":false,"rental_uris":{"android":"levelo://app?vid=3764c221-dc5a-4c4c-a456-07c28cea824f","ios":"levelo://app?vid=3764c221-dc5a-4c4c-a456-07c28cea824f"},"vehicle_type_id":"4","last_reported":1706558824,"current_range_meters":17200,"station_id":"ce4bh192rcd13ifvqdb0","pricing_plan_id":"free"},{"bike_id":"20b9c75f-12e2-477e-a438-7161bacc2fcc","system_id":"levelo_inurba_marseille","lat":43.300852,"lon":5.390859,"is_reserved":false,"is_disabled":false,"rental_uris":{"android":"levelo://app?vid=20b9c75f-12e2-477e-a438-7161bacc2fcc","ios":"levelo://app?vid=20b9c75f-12e2-477e-a438-7161bacc2fcc"},"vehicle_type_id":"4","last_reported":1706558824,"current_range_meters":8800,"station_id":"ce4bh192rcd13ifvqdb0","pricing_plan_id":"free"},{"bike_id":"896dd327-23d7-4a25-8512-a6fa3dd64c43","system_id":"levelo_inurba_marseille","lat":43.300852,"lon":5.390859,"is_reserved":false,"is_disabled":false,"rental_uris":{"android":"levelo://app?vid=896dd327-23d7-4a25-8512-a6fa3dd64c43","ios":"levelo://app?vid=896dd327-23d7-4a25-8512-a6fa3dd64c43"},"vehicle_type_id":"4","last_reported":1706558824,"current_range_meters":11600,"station_id":"ce4bh192rcd13ifvqdb0","pricing_plan_id":"free"},{"bike_id":"b5488a67-d9f4-4d5f-bb81-25fd912ed749","system_id":"levelo_inurba_marseille","lat":43.300852,"lon":5.390859,"is_reserved":false,"is_disabled":false,"rental_uris":{"android":"levelo://app?vid=b5488a67-d9f4-4d5f-bb81-25fd912ed749","ios":"levelo://app?vid=b5488a67-d9f4-4d5f-bb81-25fd912ed749"},"vehicle_type_id":"4","last_reported":1706558824,"current_range_meters":24800,"station_id":"ce4bh192rcd13ifvqdb0","pricing_plan_id":"free"},{"bike_id":"28057ab2-2612-4033-b02a-c9ddec5c3107","system_id":"levelo_inurba_marseille","lat":43.302992,"lon":5.392136,"is_reserved":false,"is_disabled":false,"rental_uris":{"android":"levelo://app?vid=28057ab2-2612-4033-b02a-c9ddec5c3107","ios":"levelo://app?vid=28057ab2-2612-4033-b02a-c9ddec5c3107"},"vehicle_type_id":"4","last_reported":1706558824,"current_range_meters":14000,"station_id":"ce4bgkh2rcd13ifvqbk0","pricing_plan_id":"free"},{"bike_id":"42752d60-ce5a-4aba-bb4d-6befb053704d","system_id":"levelo_inurba_marseille","lat":43.298778,"lon":5.389198,"is_reserved":false,"is_disabled":false,"rental_uris":{"android":"levelo://app?vid=42752d60-ce5a-4aba-bb4d-6befb053704d","ios":"levelo://app?vid=42752d60-ce5a-4aba-bb4d-6befb053704d"},"vehicle_type_id":"4","last_reported":1706558824,"current_range_meters":27600,"station_id":"","pricing_plan_id":"free"},{"bike_id":"f53485f9-f98f-46e0-b0ca-bab93f000b79","system_id":"levelo_inurba_marseille","lat":43.31328,"lon":5.3969,"is_reserved":false,"is_disabled":false,"rental_uris":{"android":"levelo://app?vid=f53485f9-f98f-46e0-b0ca-bab93f000b79","ios":"levelo://app?vid=f53485f9-f98f-46e0-b0ca-bab93f000b79"},"vehicle_type_id":"4","last_reported":1706558824,"current_range_meters":20000,"station_id":"ce4bgvp2rcd13ifvqcu0","pricing_plan_id":"free"},{"bike_id":"c07daf04-e21b-4f24-a83e-49b9ec655b9c","system_id":"levelo_inurba_marseille","lat":43.309038,"lon":5.396546,"is_reserved":false,"is_disabled":false,"rental_uris":{"android":"levelo://app?vid=c07daf04-e21b-4f24-a83e-49b9ec655b9c","ios":"levelo://app?vid=c07daf04-e21b-4f24-a83e-49b9ec655b9c"},"vehicle_type_id":"4","last_reported":1706558824,"current_range_meters":31200,"station_id":"ce4bh012rcd13ifvqcv0","pricing_plan_id":"free"},{"bike_id":"0c9e817e-c7c8-48a7-a32d-61161f33e401","system_id":"levelo_inurba_marseille","lat":43.31332,"lon":5.39691,"is_reserved":false,"is_disabled":false,"rental_uris":{"android":"levelo://app?vid=0c9e817e-c7c8-48a7-a32d-61161f33e401","ios":"levelo://app?vid=0c9e817e-c7c8-48a7-a32d-61161f33e401"},"vehicle_type_id":"4","last_reported":1706558824,"current_range_meters":14800,"station_id":"","pricing_plan_id":"free"},{"bike_id":"501f33e0-d3d6-4ec9-a581-afb47d0e8dcb","system_id":"levelo_inurba_marseille","lat":43.309038,"lon":5.396546,"is_reserved":false,"is_disabled":false,"rental_uris":{"android":"levelo://app?vid=501f33e0-d3d6-4ec9-a581-afb47d0e8dcb","ios":"levelo://app?vid=501f33e0-d3d6-4ec9-a581-afb47d0e8dcb"},"vehicle_type_id":"4","last_reported":1706558824,"current_range_meters":0,"station_id":"ce4bh012rcd13ifvqcv0","pricing_plan_id":"free"},{"bike_id":"05342dcd-fa39-4a3d-8efe-7144b2b91637","system_id":"levelo_inurba_marseille","lat":43.313291,"lon":5.396838,"is_reserved":false,"is_disabled":false,"rental_uris":{"android":"levelo://app?vid=05342dcd-fa39-4a3d-8efe-7144b2b91637","ios":"levelo://app?vid=05342dcd-fa39-4a3d-8efe-7144b2b91637"},"vehicle_type_id":"4","last_reported":1706558824,"current_range_meters":31600,"station_id":"ce4bgvp2rcd13ifvqcu0","pricing_plan_id":"free"},{"bike_id":"b36fd92c-f2dc-4b9f-b79f-68b10cd4ccd8","system_id":"levelo_inurba_marseille","lat":43.31325,"lon":5.39694,"is_reserved":false,"is_disabled":false,"rental_uris":{"android":"levelo://app?vid=b36fd92c-f2dc-4b9f-b79f-68b10cd4ccd8","ios":"levelo://app?vid=b36fd92c-f2dc-4b9f-b79f-68b10cd4ccd8"},"vehicle_type_id":"4","last_reported":1706558824,"current_range_meters":14800,"station_id":"ce4bgvp2rcd13ifvqcu0","pricing_plan_id":"free"},{"bike_id":"f5e7ae9a-d3e2-40d7-b6a6-13962af8917f","system_id":"levelo_inurba_marseille","lat":43.31329,"lon":5.39694,"is_reserved":false,"is_disabled":false,"rental_uris":{"android":"levelo://app?vid=f5e7ae9a-d3e2-40d7-b6a6-13962af8917f","ios":"levelo://app?vid=f5e7ae9a-d3e2-40d7-b6a6-13962af8917f"},"vehicle_type_id":"4","last_reported":1706558824,"current_range_meters":27200,"station_id":"ce4bgvp2rcd13ifvqcu0","pricing_plan_id":"free"},{"bike_id":"067a3f54-cdb1-4351-888c-7235aaac275f","system_id":"levelo_inurba_marseille","lat":43.313291,"lon":5.396838,"is_reserved":false,"is_disabled":false,"rental_uris":{"android":"levelo://app?vid=067a3f54-cdb1-4351-888c-7235aaac275f","ios":"levelo://app?vid=067a3f54-cdb1-4351-888c-7235aaac275f"},"vehicle_type_id":"4","last_reported":1706558824,"current_range_meters":10400,"station_id":"ce4bgvp2rcd13ifvqcu0","pricing_plan_id":"free"},{"bike_id":"a98330eb-a9a0-4a2e-a8a3-4dd1858a8ab0","system_id":"levelo_inurba_marseille","lat":43.313291,"lon":5.396838,"is_reserved":false,"is_disabled":false,"rental_uris":{"android":"levelo://app?vid=a98330eb-a9a0-4a2e-a8a3-4dd1858a8ab0","ios":"levelo://app?vid=a98330eb-a9a0-4a2e-a8a3-4dd1858a8ab0"},"vehicle_type_id":"4","last_reported":1706558824,"current_range_meters":0,"station_id":"ce4bgvp2rcd13ifvqcu0","pricing_plan_id":"free"},{"bike_id":"d485ecf2-367c-43a1-b72b-feb3e4b25e11","system_id":"levelo_inurba_marseille","lat":43.31324,"lon":5.39696,"is_reserved":false,"is_disabled":false,"rental_uris":{"android":"levelo://app?vid=d485ecf2-367c-43a1-b72b-feb3e4b25e11","ios":"levelo://app?vid=d485ecf2-367c-43a1-b72b-feb3e4b25e11"},"vehicle_type_id":"4","last_reported":1706558824,"current_range_meters":17600,"station_id":"ce4bgvp2rcd13ifvqcu0","pricing_plan_id":"free"},{"bike_id":"2ba9c382-4c2a-41d5-a599-588cca805834","system_id":"levelo_inurba_marseille","lat":43.313291,"lon":5.396838,"is_reserved":false,"is_disabled":false,"rental_uris":{"android":"levelo://app?vid=2ba9c382-4c2a-41d5-a599-588cca805834","ios":"levelo://app?vid=2ba9c382-4c2a-41d5-a599-588cca805834"},"vehicle_type_id":"4","last_reported":1706558824,"current_range_meters":17600,"station_id":"ce4bgvp2rcd13ifvqcu0","pricing_plan_id":"free"},{"bike_id":"82d14565-9ce5-48c6-889c-ad4a6e64384d","system_id":"levelo_inurba_marseille","lat":43.309038,"lon":5.396546,"is_reserved":false,"is_disabled":false,"rental_uris":{"android":"levelo://app?vid=82d14565-9ce5-48c6-889c-ad4a6e64384d","ios":"levelo://app?vid=82d14565-9ce5-48c6-889c-ad4a6e64384d"},"vehicle_type_id":"4","last_reported":1706558824,"current_range_meters":10800,"station_id":"ce4bh012rcd13ifvqcv0","pricing_plan_id":"free"},{"bike_id":"aa5f2382-8921-4a1f-a1de-1ef8869aed4d","system_id":"levelo_inurba_marseille","lat":43.313291,"lon":5.396838,"is_reserved":false,"is_disabled":false,"rental_uris":{"android":"levelo://app?vid=aa5f2382-8921-4a1f-a1de-1ef8869aed4d","ios":"levelo://app?vid=aa5f2382-8921-4a1f-a1de-1ef8869aed4d"},"vehicle_type_id":"4","last_reported":1706558824,"current_range_meters":16400,"station_id":"ce4bgvp2rcd13ifvqcu0","pricing_plan_id":"free"},{"bike_id":"64681a53-470d-4f05-826d-d693647d8d27","system_id":"levelo_inurba_marseille","lat":43.313291,"lon":5.396838,"is_reserved":false,"is_disabled":false,"rental_uris":{"android":"levelo://app?vid=64681a53-470d-4f05-826d-d693647d8d27","ios":"levelo://app?vid=64681a53-470d-4f05-826d-d693647d8d27"},"vehicle_type_id":"4","last_reported":1706558824,"current_range_meters":0,"station_id":"ce4bgvp2rcd13ifvqcu0","pricing_plan_id":"free"},{"bike_id":"60d917f5-4d65-481e-ba20-ebcaf446e790","system_id":"levelo_inurba_marseille","lat":43.309038,"lon":5.396546,"is_reserved":false,"is_disabled":false,"rental_uris":{"android":"levelo://app?vid=60d917f5-4d65-481e-ba20-ebcaf446e790","ios":"levelo://app?vid=60d917f5-4d65-481e-ba20-ebcaf446e790"},"vehicle_type_id":"4","last_reported":1706558824,"current_range_meters":31200,"station_id":"ce4bh012rcd13ifvqcv0","pricing_plan_id":"free"},{"bike_id":"3cbb31ed-3822-4085-a4ef-bbbd315fc6b4","system_id":"levelo_inurba_marseille","lat":43.29529,"lon":5.385581,"is_reserved":false,"is_disabled":false,"rental_uris":{"android":"levelo://app?vid=3cbb31ed-3822-4085-a4ef-bbbd315fc6b4","ios":"levelo://app?vid=3cbb31ed-3822-4085-a4ef-bbbd315fc6b4"},"vehicle_type_id":"4","last_reported":1706558824,"current_range_meters":11600,"station_id":"ce4bgih2rcd13ifvqba0","pricing_plan_id":"free"},{"bike_id":"04b167fc-65ac-443a-ac45-bbf9f18b5adc","system_id":"levelo_inurba_marseille","lat":43.29529,"lon":5.385581,"is_reserved":false,"is_disabled":false,"rental_uris":{"android":"levelo://app?vid=04b167fc-65ac-443a-ac45-bbf9f18b5adc","ios":"levelo://app?vid=04b167fc-65ac-443a-ac45-bbf9f18b5adc"},"vehicle_type_id":"4","last_reported":1706558824,"current_range_meters":1200,"station_id":"ce4bgih2rcd13ifvqba0","pricing_plan_id":"free"},{"bike_id":"e669b42e-750c-4050-84bc-89c30168fee0","system_id":"levelo_inurba_marseille","lat":43.290779,"lon":5.371482,"is_reserved":false,"is_disabled":false,"rental_uris":{"android":"levelo://app?vid=e669b42e-750c-4050-84bc-89c30168fee0","ios":"levelo://app?vid=e669b42e-750c-4050-84bc-89c30168fee0"},"vehicle_type_id":"4","last_reported":1706558824,"current_range_meters":0,"station_id":"ce4bh5p2rcd13ifvqe4g","pricing_plan_id":"free"},{"bike_id":"562eaa91-9a04-49df-bb49-2a84abd4b30e","system_id":"levelo_inurba_marseille","lat":43.294964,"lon":5.385937,"is_reserved":false,"is_disabled":false,"rental_uris":{"android":"levelo://app?vid=562eaa91-9a04-49df-bb49-2a84abd4b30e","ios":"levelo://app?vid=562eaa91-9a04-49df-bb49-2a84abd4b30e"},"vehicle_type_id":"4","last_reported":1706558824,"current_range_meters":0,"station_id":"","pricing_plan_id":"free"},{"bike_id":"60f1cf31-39c9-48e4-a389-3f64a40a8605","system_id":"levelo_inurba_marseille","lat":43.290624,"lon":5.359245,"is_reserved":false,"is_disabled":false,"rental_uris":{"android":"levelo://app?vid=60f1cf31-39c9-48e4-a389-3f64a40a8605","ios":"levelo://app?vid=60f1cf31-39c9-48e4-a389-3f64a40a8605"},"vehicle_type_id":"4","last_reported":1706558824,"current_range_meters":16000,"station_id":"ce4bha92rcd13ifvqeg0","pricing_plan_id":"free"},{"bike_id":"e6b43842-d1a9-4fb8-ac46-a2bd56703062","system_id":"levelo_inurba_marseille","lat":43.290624,"lon":5.359245,"is_reserved":false,"is_disabled":false,"rental_uris":{"android":"levelo://app?vid=e6b43842-d1a9-4fb8-ac46-a2bd56703062","ios":"levelo://app?vid=e6b43842-d1a9-4fb8-ac46-a2bd56703062"},"vehicle_type_id":"4","last_reported":1706558824,"current_range_meters":8800,"station_id":"ce4bha92rcd13ifvqeg0","pricing_plan_id":"free"},{"bike_id":"2c1e47ad-3478-424c-8c66-23a600b1f0dc","system_id":"levelo_inurba_marseille","lat":43.290441,"lon":5.359123,"is_reserved":false,"is_disabled":false,"rental_uris":{"android":"levelo://app?vid=2c1e47ad-3478-424c-8c66-23a600b1f0dc","ios":"levelo://app?vid=2c1e47ad-3478-424c-8c66-23a600b1f0dc"},"vehicle_type_id":"4","last_reported":1706558824,"current_range_meters":20800,"station_id":"","pricing_plan_id":"free"},{"bike_id":"f454b6ee-7b00-46e8-9190-972000ad44cf","system_id":"levelo_inurba_marseille","lat":43.290631,"lon":5.359244,"is_reserved":false,"is_disabled":false,"rental_uris":{"android":"levelo://app?vid=f454b6ee-7b00-46e8-9190-972000ad44cf","ios":"levelo://app?vid=f454b6ee-7b00-46e8-9190-972000ad44cf"},"vehicle_type_id":"4","last_reported":1706558824,"current_range_meters":0,"station_id":"ce4bha92rcd13ifvqeg0","pricing_plan_id":"free"},{"bike_id":"f94697ea-c457-42da-918a-40a5b155f58e","system_id":"levelo_inurba_marseille","lat":43.290631,"lon":5.359244,"is_reserved":false,"is_disabled":false,"rental_uris":{"android":"levelo://app?vid=f94697ea-c457-42da-918a-40a5b155f58e","ios":"levelo://app?vid=f94697ea-c457-42da-918a-40a5b155f58e"},"vehicle_type_id":"4","last_reported":1706558824,"current_range_meters":4000,"station_id":"ce4bha92rcd13ifvqeg0","pricing_plan_id":"free"},{"bike_id":"97404771-33ec-4987-9af4-a9d4a5d3e747","system_id":"levelo_inurba_marseille","lat":43.290624,"lon":5.359245,"is_reserved":false,"is_disabled":false,"rental_uris":{"android":"levelo://app?vid=97404771-33ec-4987-9af4-a9d4a5d3e747","ios":"levelo://app?vid=97404771-33ec-4987-9af4-a9d4a5d3e747"},"vehicle_type_id":"4","last_reported":1706558824,"current_range_meters":8000,"station_id":"ce4bha92rcd13ifvqeg0","pricing_plan_id":"free"},{"bike_id":"16098070-14fb-4131-809b-5ff9499442e7","system_id":"levelo_inurba_marseille","lat":43.29421,"lon":5.3863,"is_reserved":false,"is_disabled":false,"rental_uris":{"android":"levelo://app?vid=16098070-14fb-4131-809b-5ff9499442e7","ios":"levelo://app?vid=16098070-14fb-4131-809b-5ff9499442e7"},"vehicle_type_id":"4","last_reported":1706558824,"current_range_meters":400,"station_id":"ce4bh2h2rcd13ifvqdh0","pricing_plan_id":"free"},{"bike_id":"d0dc1499-0c07-42eb-b26a-58fe94417f5b","system_id":"levelo_inurba_marseille","lat":43.29421,"lon":5.38632,"is_reserved":false,"is_disabled":false,"rental_uris":{"android":"levelo://app?vid=d0dc1499-0c07-42eb-b26a-58fe94417f5b","ios":"levelo://app?vid=d0dc1499-0c07-42eb-b26a-58fe94417f5b"},"vehicle_type_id":"4","last_reported":1706558824,"current_range_meters":17600,"station_id":"ce4bh2h2rcd13ifvqdh0","pricing_plan_id":"free"},{"bike_id":"0725ccbf-9f70-421c-85e5-3f5c8fe175a7","system_id":"levelo_inurba_marseille","lat":43.29419,"lon":5.38629,"is_reserved":false,"is_disabled":false,"rental_uris":{"android":"levelo://app?vid=0725ccbf-9f70-421c-85e5-3f5c8fe175a7","ios":"levelo://app?vid=0725ccbf-9f70-421c-85e5-3f5c8fe175a7"},"vehicle_type_id":"4","last_reported":1706558824,"current_range_meters":2000,"station_id":"ce4bh2h2rcd13ifvqdh0","pricing_plan_id":"free"},{"bike_id":"4d10671b-0feb-4feb-ba60-cceda73a4a14","system_id":"levelo_inurba_marseille","lat":43.294153,"lon":5.386305,"is_reserved":false,"is_disabled":false,"rental_uris":{"android":"levelo://app?vid=4d10671b-0feb-4feb-ba60-cceda73a4a14","ios":"levelo://app?vid=4d10671b-0feb-4feb-ba60-cceda73a4a14"},"vehicle_type_id":"4","last_reported":1706558824,"current_range_meters":28400,"station_id":"ce4bh2h2rcd13ifvqdh0","pricing_plan_id":"free"},{"bike_id":"1b865d7c-e8db-4e76-b301-a6ee3e1f0f46","system_id":"levelo_inurba_marseille","lat":43.289184,"lon":5.366408,"is_reserved":false,"is_disabled":false,"rental_uris":{"android":"levelo://app?vid=1b865d7c-e8db-4e76-b301-a6ee3e1f0f46","ios":"levelo://app?vid=1b865d7c-e8db-4e76-b301-a6ee3e1f0f46"},"vehicle_type_id":"4","last_reported":1706558824,"current_range_meters":5200,"station_id":"ce4bhap2rcd13ifvqek0","pricing_plan_id":"free"},{"bike_id":"79936108-49cc-437a-9fe2-509d1695c6d3","system_id":"levelo_inurba_marseille","lat":43.289184,"lon":5.366408,"is_reserved":false,"is_disabled":false,"rental_uris":{"android":"levelo://app?vid=79936108-49cc-437a-9fe2-509d1695c6d3","ios":"levelo://app?vid=79936108-49cc-437a-9fe2-509d1695c6d3"},"vehicle_type_id":"4","last_reported":1706558824,"current_range_meters":8800,"station_id":"ce4bhap2rcd13ifvqek0","pricing_plan_id":"free"},{"bike_id":"3232283e-e3ef-4ec2-92e0-a15a247a09ae","system_id":"levelo_inurba_marseille","lat":43.29418,"lon":5.38631,"is_reserved":false,"is_disabled":false,"rental_uris":{"android":"levelo://app?vid=3232283e-e3ef-4ec2-92e0-a15a247a09ae","ios":"levelo://app?vid=3232283e-e3ef-4ec2-92e0-a15a247a09ae"},"vehicle_type_id":"4","last_reported":1706558824,"current_range_meters":24400,"station_id":"ce4bh2h2rcd13ifvqdh0","pricing_plan_id":"free"},{"bike_id":"177c6148-7087-4a37-b934-4f8182d8990c","system_id":"levelo_inurba_marseille","lat":43.289184,"lon":5.366408,"is_reserved":false,"is_disabled":false,"rental_uris":{"android":"levelo://app?vid=177c6148-7087-4a37-b934-4f8182d8990c","ios":"levelo://app?vid=177c6148-7087-4a37-b934-4f8182d8990c"},"vehicle_type_id":"4","last_reported":1706558824,"current_range_meters":12800,"station_id":"ce4bhap2rcd13ifvqek0","pricing_plan_id":"free"},{"bike_id":"2bccb6e7-0d6b-4977-8fe0-e8b85c06f0e3","system_id":"levelo_inurba_marseille","lat":43.289184,"lon":5.366408,"is_reserved":false,"is_disabled":false,"rental_uris":{"android":"levelo://app?vid=2bccb6e7-0d6b-4977-8fe0-e8b85c06f0e3","ios":"levelo://app?vid=2bccb6e7-0d6b-4977-8fe0-e8b85c06f0e3"},"vehicle_type_id":"4","last_reported":1706558824,"current_range_meters":16400,"station_id":"ce4bhap2rcd13ifvqek0","pricing_plan_id":"free"},{"bike_id":"507e99fb-43e1-40ff-91e1-9cf7825ed419","system_id":"levelo_inurba_marseille","lat":43.289184,"lon":5.366408,"is_reserved":false,"is_disabled":false,"rental_uris":{"android":"levelo://app?vid=507e99fb-43e1-40ff-91e1-9cf7825ed419","ios":"levelo://app?vid=507e99fb-43e1-40ff-91e1-9cf7825ed419"},"vehicle_type_id":"4","last_reported":1706558824,"current_range_meters":23200,"station_id":"ce4bhap2rcd13ifvqek0","pricing_plan_id":"free"},{"bike_id":"ad745826-684e-4b08-8498-9e019989ec30","system_id":"levelo_inurba_marseille","lat":43.289184,"lon":5.366408,"is_reserved":false,"is_disabled":false,"rental_uris":{"android":"levelo://app?vid=ad745826-684e-4b08-8498-9e019989ec30","ios":"levelo://app?vid=ad745826-684e-4b08-8498-9e019989ec30"},"vehicle_type_id":"4","last_reported":1706558824,"current_range_meters":21200,"station_id":"ce4bhap2rcd13ifvqek0","pricing_plan_id":"free"},{"bike_id":"dd88e1bd-44ff-47c8-be6d-2a0d498073c1","system_id":"levelo_inurba_marseille","lat":43.294153,"lon":5.386305,"is_reserved":false,"is_disabled":false,"rental_uris":{"android":"levelo://app?vid=dd88e1bd-44ff-47c8-be6d-2a0d498073c1","ios":"levelo://app?vid=dd88e1bd-44ff-47c8-be6d-2a0d498073c1"},"vehicle_type_id":"4","last_reported":1706558824,"current_range_meters":2800,"station_id":"ce4bh2h2rcd13ifvqdh0","pricing_plan_id":"free"},{"bike_id":"16d589da-d935-40a8-adce-34bbbff47be4","system_id":"levelo_inurba_marseille","lat":43.29418,"lon":5.38638,"is_reserved":false,"is_disabled":false,"rental_uris":{"android":"levelo://app?vid=16d589da-d935-40a8-adce-34bbbff47be4","ios":"levelo://app?vid=16d589da-d935-40a8-adce-34bbbff47be4"},"vehicle_type_id":"4","last_reported":1706558824,"current_range_meters":29200,"station_id":"ce4bh2h2rcd13ifvqdh0","pricing_plan_id":"free"},{"bike_id":"b31a5c64-4f75-4e48-8e7a-d4e3915dd4fe","system_id":"levelo_inurba_marseille","lat":43.289468,"lon":5.363719,"is_reserved":false,"is_disabled":false,"rental_uris":{"android":"levelo://app?vid=b31a5c64-4f75-4e48-8e7a-d4e3915dd4fe","ios":"levelo://app?vid=b31a5c64-4f75-4e48-8e7a-d4e3915dd4fe"},"vehicle_type_id":"4","last_reported":1706558824,"current_range_meters":15200,"station_id":"ce4bhc92rcd13ifvqetg","pricing_plan_id":"free"},{"bike_id":"7cbf9fea-8bde-486f-a158-803192d57297","system_id":"levelo_inurba_marseille","lat":43.2894,"lon":5.36635,"is_reserved":false,"is_disabled":false,"rental_uris":{"android":"levelo://app?vid=7cbf9fea-8bde-486f-a158-803192d57297","ios":"levelo://app?vid=7cbf9fea-8bde-486f-a158-803192d57297"},"vehicle_type_id":"4","last_reported":1706558824,"current_range_meters":8000,"station_id":"ce4bhap2rcd13ifvqek0","pricing_plan_id":"free"},{"bike_id":"a3fe1707-371a-44cb-864c-e1e443bb9c06","system_id":"levelo_inurba_marseille","lat":43.289184,"lon":5.366408,"is_reserved":false,"is_disabled":false,"rental_uris":{"android":"levelo://app?vid=a3fe1707-371a-44cb-864c-e1e443bb9c06","ios":"levelo://app?vid=a3fe1707-371a-44cb-864c-e1e443bb9c06"},"vehicle_type_id":"4","last_reported":1706558824,"current_range_meters":16400,"station_id":"ce4bhap2rcd13ifvqek0","pricing_plan_id":"free"},{"bike_id":"947059b3-9f18-4094-95ea-9e84b5f296f6","system_id":"levelo_inurba_marseille","lat":43.289468,"lon":5.363719,"is_reserved":false,"is_disabled":false,"rental_uris":{"android":"levelo://app?vid=947059b3-9f18-4094-95ea-9e84b5f296f6","ios":"levelo://app?vid=947059b3-9f18-4094-95ea-9e84b5f296f6"},"vehicle_type_id":"4","last_reported":1706558824,"current_range_meters":0,"station_id":"ce4bhc92rcd13ifvqetg","pricing_plan_id":"free"},{"bike_id":"a34727ba-1b14-4630-b0b0-90339d599169","system_id":"levelo_inurba_marseille","lat":43.29413,"lon":5.38632,"is_reserved":false,"is_disabled":false,"rental_uris":{"android":"levelo://app?vid=a34727ba-1b14-4630-b0b0-90339d599169","ios":"levelo://app?vid=a34727ba-1b14-4630-b0b0-90339d599169"},"vehicle_type_id":"4","last_reported":1706558824,"current_range_meters":4800,"station_id":"ce4bh2h2rcd13ifvqdh0","pricing_plan_id":"free"},{"bike_id":"d2986293-5dc2-4ff1-a501-b9cc26f9c107","system_id":"levelo_inurba_marseille","lat":43.29416,"lon":5.38638,"is_reserved":false,"is_disabled":false,"rental_uris":{"android":"levelo://app?vid=d2986293-5dc2-4ff1-a501-b9cc26f9c107","ios":"levelo://app?vid=d2986293-5dc2-4ff1-a501-b9cc26f9c107"},"vehicle_type_id":"4","last_reported":1706558824,"current_range_meters":1600,"station_id":"ce4bh2h2rcd13ifvqdh0","pricing_plan_id":"free"},{"bike_id":"e727dfd3-6e41-4d83-ac06-8a9c97e4cb0f","system_id":"levelo_inurba_marseille","lat":43.289184,"lon":5.366408,"is_reserved":false,"is_disabled":false,"rental_uris":{"android":"levelo://app?vid=e727dfd3-6e41-4d83-ac06-8a9c97e4cb0f","ios":"levelo://app?vid=e727dfd3-6e41-4d83-ac06-8a9c97e4cb0f"},"vehicle_type_id":"4","last_reported":1706558824,"current_range_meters":12400,"station_id":"ce4bhap2rcd13ifvqek0","pricing_plan_id":"free"},{"bike_id":"dfaa0623-ce2f-471f-ab06-0508d1705b47","system_id":"levelo_inurba_marseille","lat":43.289184,"lon":5.366408,"is_reserved":false,"is_disabled":false,"rental_uris":{"android":"levelo://app?vid=dfaa0623-ce2f-471f-ab06-0508d1705b47","ios":"levelo://app?vid=dfaa0623-ce2f-471f-ab06-0508d1705b47"},"vehicle_type_id":"4","last_reported":1706558824,"current_range_meters":0,"station_id":"ce4bhap2rcd13ifvqek0","pricing_plan_id":"free"},{"bike_id":"fbb33163-4eda-46c1-b5ee-6042cb7e3646","system_id":"levelo_inurba_marseille","lat":43.289468,"lon":5.363719,"is_reserved":false,"is_disabled":false,"rental_uris":{"android":"levelo://app?vid=fbb33163-4eda-46c1-b5ee-6042cb7e3646","ios":"levelo://app?vid=fbb33163-4eda-46c1-b5ee-6042cb7e3646"},"vehicle_type_id":"4","last_reported":1706558824,"current_range_meters":23600,"station_id":"ce4bhc92rcd13ifvqetg","pricing_plan_id":"free"},{"bike_id":"81db44b2-2bc9-4893-81af-644e7036631c","system_id":"levelo_inurba_marseille","lat":43.289184,"lon":5.366408,"is_reserved":false,"is_disabled":false,"rental_uris":{"android":"levelo://app?vid=81db44b2-2bc9-4893-81af-644e7036631c","ios":"levelo://app?vid=81db44b2-2bc9-4893-81af-644e7036631c"},"vehicle_type_id":"4","last_reported":1706558824,"current_range_meters":13600,"station_id":"ce4bhap2rcd13ifvqek0","pricing_plan_id":"free"},{"bike_id":"16578063-4fcb-4d4b-8d03-c7cdfe57f6e8","system_id":"levelo_inurba_marseille","lat":43.30292,"lon":5.39609,"is_reserved":false,"is_disabled":false,"rental_uris":{"android":"levelo://app?vid=16578063-4fcb-4d4b-8d03-c7cdfe57f6e8","ios":"levelo://app?vid=16578063-4fcb-4d4b-8d03-c7cdfe57f6e8"},"vehicle_type_id":"4","last_reported":1706558824,"current_range_meters":16800,"station_id":"ce4bh0h2rcd13ifvqd40","pricing_plan_id":"free"},{"bike_id":"2934d0f9-3f42-4561-8114-cfcff3d630af","system_id":"levelo_inurba_marseille","lat":43.289184,"lon":5.366408,"is_reserved":false,"is_disabled":false,"rental_uris":{"android":"levelo://app?vid=2934d0f9-3f42-4561-8114-cfcff3d630af","ios":"levelo://app?vid=2934d0f9-3f42-4561-8114-cfcff3d630af"},"vehicle_type_id":"4","last_reported":1706558824,"current_range_meters":18000,"station_id":"ce4bhap2rcd13ifvqek0","pricing_plan_id":"free"},{"bike_id":"8e65bb9a-092a-41d7-81a4-2bfb64228907","system_id":"levelo_inurba_marseille","lat":43.289184,"lon":5.366408,"is_reserved":false,"is_disabled":false,"rental_uris":{"android":"levelo://app?vid=8e65bb9a-092a-41d7-81a4-2bfb64228907","ios":"levelo://app?vid=8e65bb9a-092a-41d7-81a4-2bfb64228907"},"vehicle_type_id":"4","last_reported":1706558824,"current_range_meters":4000,"station_id":"ce4bhap2rcd13ifvqek0","pricing_plan_id":"free"},{"bike_id":"e5e06735-33f8-488c-b6fc-9735cdb54e21","system_id":"levelo_inurba_marseille","lat":43.289184,"lon":5.366408,"is_reserved":false,"is_disabled":false,"rental_uris":{"android":"levelo://app?vid=e5e06735-33f8-488c-b6fc-9735cdb54e21","ios":"levelo://app?vid=e5e06735-33f8-488c-b6fc-9735cdb54e21"},"vehicle_type_id":"4","last_reported":1706558824,"current_range_meters":27600,"station_id":"ce4bhap2rcd13ifvqek0","pricing_plan_id":"free"},{"bike_id":"a1d81277-43c4-42ff-9e06-f67751bfaa5d","system_id":"levelo_inurba_marseille","lat":43.289184,"lon":5.366408,"is_reserved":false,"is_disabled":false,"rental_uris":{"android":"levelo://app?vid=a1d81277-43c4-42ff-9e06-f67751bfaa5d","ios":"levelo://app?vid=a1d81277-43c4-42ff-9e06-f67751bfaa5d"},"vehicle_type_id":"4","last_reported":1706558824,"current_range_meters":13200,"station_id":"ce4bhap2rcd13ifvqek0","pricing_plan_id":"free"},{"bike_id":"d26f5bdf-3c12-49a2-b03b-eb4fca799f15","system_id":"levelo_inurba_marseille","lat":43.289468,"lon":5.363719,"is_reserved":false,"is_disabled":false,"rental_uris":{"android":"levelo://app?vid=d26f5bdf-3c12-49a2-b03b-eb4fca799f15","ios":"levelo://app?vid=d26f5bdf-3c12-49a2-b03b-eb4fca799f15"},"vehicle_type_id":"4","last_reported":1706558824,"current_range_meters":28000,"station_id":"ce4bhc92rcd13ifvqetg","pricing_plan_id":"free"},{"bike_id":"2857e10e-86c6-4147-8bf1-2b8777925806","system_id":"levelo_inurba_marseille","lat":43.292644,"lon":5.384257,"is_reserved":false,"is_disabled":false,"rental_uris":{"android":"levelo://app?vid=2857e10e-86c6-4147-8bf1-2b8777925806","ios":"levelo://app?vid=2857e10e-86c6-4147-8bf1-2b8777925806"},"vehicle_type_id":"4","last_reported":1706558824,"current_range_meters":0,"station_id":"ce4bh692rcd13ifvqea0","pricing_plan_id":"free"},{"bike_id":"7246e719-ceec-4a41-bd5e-e8fe00af290f","system_id":"levelo_inurba_marseille","lat":43.292642,"lon":5.384254,"is_reserved":false,"is_disabled":false,"rental_uris":{"android":"levelo://app?vid=7246e719-ceec-4a41-bd5e-e8fe00af290f","ios":"levelo://app?vid=7246e719-ceec-4a41-bd5e-e8fe00af290f"},"vehicle_type_id":"4","last_reported":1706558824,"current_range_meters":12000,"station_id":"ce4bh692rcd13ifvqea0","pricing_plan_id":"free"},{"bike_id":"9bbfc14a-ac8c-4a2a-bbff-4f18477b35ca","system_id":"levelo_inurba_marseille","lat":43.29258,"lon":5.38441,"is_reserved":false,"is_disabled":false,"rental_uris":{"android":"levelo://app?vid=9bbfc14a-ac8c-4a2a-bbff-4f18477b35ca","ios":"levelo://app?vid=9bbfc14a-ac8c-4a2a-bbff-4f18477b35ca"},"vehicle_type_id":"4","last_reported":1706558824,"current_range_meters":4400,"station_id":"ce4bh692rcd13ifvqea0","pricing_plan_id":"free"},{"bike_id":"1526bec3-abf1-40ae-9305-72cebfa513b5","system_id":"levelo_inurba_marseille","lat":43.290104,"lon":5.356111,"is_reserved":false,"is_disabled":false,"rental_uris":{"android":"levelo://app?vid=1526bec3-abf1-40ae-9305-72cebfa513b5","ios":"levelo://app?vid=1526bec3-abf1-40ae-9305-72cebfa513b5"},"vehicle_type_id":"4","last_reported":1706558824,"current_range_meters":4000,"station_id":"ce4bhb92rcd13ifvqen0","pricing_plan_id":"free"},{"bike_id":"8476a004-82e9-4452-8afb-b12590fcfd55","system_id":"levelo_inurba_marseille","lat":43.290995,"lon":5.381361,"is_reserved":false,"is_disabled":false,"rental_uris":{"android":"levelo://app?vid=8476a004-82e9-4452-8afb-b12590fcfd55","ios":"levelo://app?vid=8476a004-82e9-4452-8afb-b12590fcfd55"},"vehicle_type_id":"4","last_reported":1706558824,"current_range_meters":12800,"station_id":"ce4bh512rcd13ifvqe2g","pricing_plan_id":"free"},{"bike_id":"d51b1970-66e9-4745-a2d3-9782ad9b9410","system_id":"levelo_inurba_marseille","lat":43.297815,"lon":5.393548,"is_reserved":false,"is_disabled":false,"rental_uris":{"android":"levelo://app?vid=d51b1970-66e9-4745-a2d3-9782ad9b9410","ios":"levelo://app?vid=d51b1970-66e9-4745-a2d3-9782ad9b9410"},"vehicle_type_id":"4","last_reported":1706558824,"current_range_meters":27200,"station_id":"chh1huq6cuj3fo74tm60","pricing_plan_id":"free"},{"bike_id":"8add903e-4a77-4a7a-b89a-7edd523512c0","system_id":"levelo_inurba_marseille","lat":43.29783,"lon":5.39335,"is_reserved":false,"is_disabled":false,"rental_uris":{"android":"levelo://app?vid=8add903e-4a77-4a7a-b89a-7edd523512c0","ios":"levelo://app?vid=8add903e-4a77-4a7a-b89a-7edd523512c0"},"vehicle_type_id":"4","last_reported":1706558824,"current_range_meters":23200,"station_id":"chh1huq6cuj3fo74tm60","pricing_plan_id":"free"},{"bike_id":"2c35eee9-0a73-4a36-80a9-96c0004dabf1","system_id":"levelo_inurba_marseille","lat":43.330442,"lon":5.389148,"is_reserved":false,"is_disabled":false,"rental_uris":{"android":"levelo://app?vid=2c35eee9-0a73-4a36-80a9-96c0004dabf1","ios":"levelo://app?vid=2c35eee9-0a73-4a36-80a9-96c0004dabf1"},"vehicle_type_id":"4","last_reported":1706558824,"current_range_meters":30000,"station_id":"ce4bhr92rcd13ifvqhrg","pricing_plan_id":"free"},{"bike_id":"4b7b2ce5-5e45-4157-b56a-87d13e473edc","system_id":"levelo_inurba_marseille","lat":43.29774,"lon":5.39335,"is_reserved":false,"is_disabled":false,"rental_uris":{"android":"levelo://app?vid=4b7b2ce5-5e45-4157-b56a-87d13e473edc","ios":"levelo://app?vid=4b7b2ce5-5e45-4157-b56a-87d13e473edc"},"vehicle_type_id":"4","last_reported":1706558824,"current_range_meters":400,"station_id":"chh1huq6cuj3fo74tm60","pricing_plan_id":"free"},{"bike_id":"e87b583a-d640-42ab-a628-61b09c329ce9","system_id":"levelo_inurba_marseille","lat":43.330442,"lon":5.389148,"is_reserved":false,"is_disabled":false,"rental_uris":{"android":"levelo://app?vid=e87b583a-d640-42ab-a628-61b09c329ce9","ios":"levelo://app?vid=e87b583a-d640-42ab-a628-61b09c329ce9"},"vehicle_type_id":"4","last_reported":1706558824,"current_range_meters":30000,"station_id":"ce4bhr92rcd13ifvqhrg","pricing_plan_id":"free"},{"bike_id":"f056a907-9fe9-41ab-b67d-3535913aa5c3","system_id":"levelo_inurba_marseille","lat":43.289741,"lon":5.378306,"is_reserved":false,"is_disabled":false,"rental_uris":{"android":"levelo://app?vid=f056a907-9fe9-41ab-b67d-3535913aa5c3","ios":"levelo://app?vid=f056a907-9fe9-41ab-b67d-3535913aa5c3"},"vehicle_type_id":"4","last_reported":1706558824,"current_range_meters":23600,"station_id":"ce4bh9p2rcd13ifvqed0","pricing_plan_id":"free"},{"bike_id":"e3773d17-b3ff-4c6d-a9e3-b9f663b101b1","system_id":"levelo_inurba_marseille","lat":43.29781,"lon":5.39346,"is_reserved":false,"is_disabled":false,"rental_uris":{"android":"levelo://app?vid=e3773d17-b3ff-4c6d-a9e3-b9f663b101b1","ios":"levelo://app?vid=e3773d17-b3ff-4c6d-a9e3-b9f663b101b1"},"vehicle_type_id":"4","last_reported":1706558824,"current_range_meters":800,"station_id":"chh1huq6cuj3fo74tm60","pricing_plan_id":"free"},{"bike_id":"536d2704-3927-4957-837a-b2b86a24d827","system_id":"levelo_inurba_marseille","lat":43.330442,"lon":5.389148,"is_reserved":false,"is_disabled":false,"rental_uris":{"android":"levelo://app?vid=536d2704-3927-4957-837a-b2b86a24d827","ios":"levelo://app?vid=536d2704-3927-4957-837a-b2b86a24d827"},"vehicle_type_id":"4","last_reported":1706558824,"current_range_meters":17600,"station_id":"ce4bhr92rcd13ifvqhrg","pricing_plan_id":"free"},{"bike_id":"ca0d8e53-0e04-4cb7-a2a9-e398803487ef","system_id":"levelo_inurba_marseille","lat":43.330442,"lon":5.389148,"is_reserved":false,"is_disabled":false,"rental_uris":{"android":"levelo://app?vid=ca0d8e53-0e04-4cb7-a2a9-e398803487ef","ios":"levelo://app?vid=ca0d8e53-0e04-4cb7-a2a9-e398803487ef"},"vehicle_type_id":"4","last_reported":1706558824,"current_range_meters":30400,"station_id":"ce4bhr92rcd13ifvqhrg","pricing_plan_id":"free"},{"bike_id":"560df544-b0a0-46e5-bc31-37959c9ad887","system_id":"levelo_inurba_marseille","lat":43.297815,"lon":5.393548,"is_reserved":false,"is_disabled":false,"rental_uris":{"android":"levelo://app?vid=560df544-b0a0-46e5-bc31-37959c9ad887","ios":"levelo://app?vid=560df544-b0a0-46e5-bc31-37959c9ad887"},"vehicle_type_id":"4","last_reported":1706558824,"current_range_meters":30800,"station_id":"chh1huq6cuj3fo74tm60","pricing_plan_id":"free"},{"bike_id":"b7e9febd-67eb-4972-9aa9-ea8a8f06e051","system_id":"levelo_inurba_marseille","lat":43.330442,"lon":5.389148,"is_reserved":false,"is_disabled":false,"rental_uris":{"android":"levelo://app?vid=b7e9febd-67eb-4972-9aa9-ea8a8f06e051","ios":"levelo://app?vid=b7e9febd-67eb-4972-9aa9-ea8a8f06e051"},"vehicle_type_id":"4","last_reported":1706558824,"current_range_meters":16400,"station_id":"ce4bhr92rcd13ifvqhrg","pricing_plan_id":"free"},{"bike_id":"8f7e4864-ee4d-4fc3-9d7d-1dd6b4489e99","system_id":"levelo_inurba_marseille","lat":43.295169,"lon":5.390426,"is_reserved":false,"is_disabled":false,"rental_uris":{"android":"levelo://app?vid=8f7e4864-ee4d-4fc3-9d7d-1dd6b4489e99","ios":"levelo://app?vid=8f7e4864-ee4d-4fc3-9d7d-1dd6b4489e99"},"vehicle_type_id":"4","last_reported":1706558824,"current_range_meters":5200,"station_id":"ce4bh3p2rcd13ifvqdp0","pricing_plan_id":"free"},{"bike_id":"84c18c5f-064f-4753-ad49-7892cdfac9ff","system_id":"levelo_inurba_marseille","lat":43.330442,"lon":5.389148,"is_reserved":false,"is_disabled":false,"rental_uris":{"android":"levelo://app?vid=84c18c5f-064f-4753-ad49-7892cdfac9ff","ios":"levelo://app?vid=84c18c5f-064f-4753-ad49-7892cdfac9ff"},"vehicle_type_id":"4","last_reported":1706558824,"current_range_meters":14800,"station_id":"ce4bhr92rcd13ifvqhrg","pricing_plan_id":"free"},{"bike_id":"20ea5f87-60a8-4c54-bf47-7cf5fe6c9a70","system_id":"levelo_inurba_marseille","lat":43.28976,"lon":5.37847,"is_reserved":false,"is_disabled":false,"rental_uris":{"android":"levelo://app?vid=20ea5f87-60a8-4c54-bf47-7cf5fe6c9a70","ios":"levelo://app?vid=20ea5f87-60a8-4c54-bf47-7cf5fe6c9a70"},"vehicle_type_id":"4","last_reported":1706558824,"current_range_meters":0,"station_id":"ce4bh9p2rcd13ifvqed0","pricing_plan_id":"free"},{"bike_id":"1b595fdb-dca1-4bb2-891b-d0665c2159f2","system_id":"levelo_inurba_marseille","lat":43.289764,"lon":5.378512,"is_reserved":false,"is_disabled":false,"rental_uris":{"android":"levelo://app?vid=1b595fdb-dca1-4bb2-891b-d0665c2159f2","ios":"levelo://app?vid=1b595fdb-dca1-4bb2-891b-d0665c2159f2"},"vehicle_type_id":"4","last_reported":1706558824,"current_range_meters":0,"station_id":"ce4bh9p2rcd13ifvqed0","pricing_plan_id":"free"},{"bike_id":"d63b2dfe-736b-417f-b8bf-416dcfe32c7f","system_id":"levelo_inurba_marseille","lat":43.295184,"lon":5.390491,"is_reserved":false,"is_disabled":false,"rental_uris":{"android":"levelo://app?vid=d63b2dfe-736b-417f-b8bf-416dcfe32c7f","ios":"levelo://app?vid=d63b2dfe-736b-417f-b8bf-416dcfe32c7f"},"vehicle_type_id":"4","last_reported":1706558824,"current_range_meters":15600,"station_id":"ce4bh3p2rcd13ifvqdp0","pricing_plan_id":"free"},{"bike_id":"bcb4a93d-67d3-41e9-bff5-adfd3537a796","system_id":"levelo_inurba_marseille","lat":43.28856,"lon":5.358371,"is_reserved":false,"is_disabled":false,"rental_uris":{"android":"levelo://app?vid=bcb4a93d-67d3-41e9-bff5-adfd3537a796","ios":"levelo://app?vid=bcb4a93d-67d3-41e9-bff5-adfd3537a796"},"vehicle_type_id":"4","last_reported":1706558824,"current_range_meters":24800,"station_id":"ce4bhb12rcd13ifvqem0","pricing_plan_id":"free"},{"bike_id":"1390820a-21ee-4be8-9142-26d4fe7aab03","system_id":"levelo_inurba_marseille","lat":43.2901,"lon":5.381269,"is_reserved":false,"is_disabled":false,"rental_uris":{"android":"levelo://app?vid=1390820a-21ee-4be8-9142-26d4fe7aab03","ios":"levelo://app?vid=1390820a-21ee-4be8-9142-26d4fe7aab03"},"vehicle_type_id":"4","last_reported":1706558824,"current_range_meters":0,"station_id":"ce4bh4p2rcd13ifvqe1g","pricing_plan_id":"free"},{"bike_id":"aa7aa871-37b1-4ba0-9e45-abce3106479d","system_id":"levelo_inurba_marseille","lat":43.28856,"lon":5.358371,"is_reserved":false,"is_disabled":false,"rental_uris":{"android":"levelo://app?vid=aa7aa871-37b1-4ba0-9e45-abce3106479d","ios":"levelo://app?vid=aa7aa871-37b1-4ba0-9e45-abce3106479d"},"vehicle_type_id":"4","last_reported":1706558824,"current_range_meters":4000,"station_id":"ce4bhb12rcd13ifvqem0","pricing_plan_id":"free"},{"bike_id":"dc0cb5b0-1098-450d-af84-8fb9ff29bf5f","system_id":"levelo_inurba_marseille","lat":43.28856,"lon":5.358371,"is_reserved":false,"is_disabled":false,"rental_uris":{"android":"levelo://app?vid=dc0cb5b0-1098-450d-af84-8fb9ff29bf5f","ios":"levelo://app?vid=dc0cb5b0-1098-450d-af84-8fb9ff29bf5f"},"vehicle_type_id":"4","last_reported":1706558824,"current_range_meters":10800,"station_id":"ce4bhb12rcd13ifvqem0","pricing_plan_id":"free"},{"bike_id":"bd3899d8-ec28-431b-bf01-9b6662f0824a","system_id":"levelo_inurba_marseille","lat":43.28856,"lon":5.358371,"is_reserved":false,"is_disabled":false,"rental_uris":{"android":"levelo://app?vid=bd3899d8-ec28-431b-bf01-9b6662f0824a","ios":"levelo://app?vid=bd3899d8-ec28-431b-bf01-9b6662f0824a"},"vehicle_type_id":"4","last_reported":1706558824,"current_range_meters":22800,"station_id":"ce4bhb12rcd13ifvqem0","pricing_plan_id":"free"},{"bike_id":"4729c0d4-9a73-419c-919f-11172d77f3d4","system_id":"levelo_inurba_marseille","lat":43.28856,"lon":5.358371,"is_reserved":false,"is_disabled":false,"rental_uris":{"android":"levelo://app?vid=4729c0d4-9a73-419c-919f-11172d77f3d4","ios":"levelo://app?vid=4729c0d4-9a73-419c-919f-11172d77f3d4"},"vehicle_type_id":"4","last_reported":1706558824,"current_range_meters":4400,"station_id":"ce4bhb12rcd13ifvqem0","pricing_plan_id":"free"},{"bike_id":"d745797d-d48b-41a2-a87a-e95b1ea7a4eb","system_id":"levelo_inurba_marseille","lat":43.28856,"lon":5.358371,"is_reserved":false,"is_disabled":false,"rental_uris":{"android":"levelo://app?vid=d745797d-d48b-41a2-a87a-e95b1ea7a4eb","ios":"levelo://app?vid=d745797d-d48b-41a2-a87a-e95b1ea7a4eb"},"vehicle_type_id":"4","last_reported":1706558824,"current_range_meters":13600,"station_id":"ce4bhb12rcd13ifvqem0","pricing_plan_id":"free"},{"bike_id":"996874ac-4858-428d-9bcb-6194a257f641","system_id":"levelo_inurba_marseille","lat":43.28856,"lon":5.358371,"is_reserved":false,"is_disabled":false,"rental_uris":{"android":"levelo://app?vid=996874ac-4858-428d-9bcb-6194a257f641","ios":"levelo://app?vid=996874ac-4858-428d-9bcb-6194a257f641"},"vehicle_type_id":"4","last_reported":1706558824,"current_range_meters":9200,"station_id":"ce4bhb12rcd13ifvqem0","pricing_plan_id":"free"},{"bike_id":"e5f85643-9354-4320-8a8c-f27a53056b80","system_id":"levelo_inurba_marseille","lat":43.312609,"lon":5.401662,"is_reserved":false,"is_disabled":false,"rental_uris":{"android":"levelo://app?vid=e5f85643-9354-4320-8a8c-f27a53056b80","ios":"levelo://app?vid=e5f85643-9354-4320-8a8c-f27a53056b80"},"vehicle_type_id":"4","last_reported":1706558824,"current_range_meters":16800,"station_id":"ce4bh092rcd13ifvqd30","pricing_plan_id":"free"},{"bike_id":"314b335f-2c6c-4600-a67a-03866bf0f584","system_id":"levelo_inurba_marseille","lat":43.30927,"lon":5.40141,"is_reserved":false,"is_disabled":false,"rental_uris":{"android":"levelo://app?vid=314b335f-2c6c-4600-a67a-03866bf0f584","ios":"levelo://app?vid=314b335f-2c6c-4600-a67a-03866bf0f584"},"vehicle_type_id":"4","last_reported":1706558824,"current_range_meters":1600,"station_id":"ce4bgvp2rcd13ifvqct0","pricing_plan_id":"free"},{"bike_id":"d09c1d21-a58f-43ac-b40e-5e7c7921070e","system_id":"levelo_inurba_marseille","lat":43.31269,"lon":5.40179,"is_reserved":false,"is_disabled":false,"rental_uris":{"android":"levelo://app?vid=d09c1d21-a58f-43ac-b40e-5e7c7921070e","ios":"levelo://app?vid=d09c1d21-a58f-43ac-b40e-5e7c7921070e"},"vehicle_type_id":"4","last_reported":1706558824,"current_range_meters":400,"station_id":"ce4bh092rcd13ifvqd30","pricing_plan_id":"free"},{"bike_id":"9bfe0baa-4a1f-486a-b844-835d94e8cc41","system_id":"levelo_inurba_marseille","lat":43.309371,"lon":5.401449,"is_reserved":false,"is_disabled":false,"rental_uris":{"android":"levelo://app?vid=9bfe0baa-4a1f-486a-b844-835d94e8cc41","ios":"levelo://app?vid=9bfe0baa-4a1f-486a-b844-835d94e8cc41"},"vehicle_type_id":"4","last_reported":1706558824,"current_range_meters":17600,"station_id":"ce4bgvp2rcd13ifvqct0","pricing_plan_id":"free"},{"bike_id":"f7e38767-d006-4982-a901-2c36f318c099","system_id":"levelo_inurba_marseille","lat":43.309371,"lon":5.401449,"is_reserved":false,"is_disabled":false,"rental_uris":{"android":"levelo://app?vid=f7e38767-d006-4982-a901-2c36f318c099","ios":"levelo://app?vid=f7e38767-d006-4982-a901-2c36f318c099"},"vehicle_type_id":"4","last_reported":1706558824,"current_range_meters":0,"station_id":"ce4bgvp2rcd13ifvqct0","pricing_plan_id":"free"},{"bike_id":"a563cdbf-78b8-441c-8dce-8da1c3325b92","system_id":"levelo_inurba_marseille","lat":43.337502,"lon":5.374518,"is_reserved":false,"is_disabled":false,"rental_uris":{"android":"levelo://app?vid=a563cdbf-78b8-441c-8dce-8da1c3325b92","ios":"levelo://app?vid=a563cdbf-78b8-441c-8dce-8da1c3325b92"},"vehicle_type_id":"4","last_reported":1706558824,"current_range_meters":19600,"station_id":"","pricing_plan_id":"free"},{"bike_id":"3f5a1704-2581-433f-baf0-646f390f1ba9","system_id":"levelo_inurba_marseille","lat":43.309371,"lon":5.401449,"is_reserved":false,"is_disabled":false,"rental_uris":{"android":"levelo://app?vid=3f5a1704-2581-433f-baf0-646f390f1ba9","ios":"levelo://app?vid=3f5a1704-2581-433f-baf0-646f390f1ba9"},"vehicle_type_id":"4","last_reported":1706558824,"current_range_meters":12800,"station_id":"ce4bgvp2rcd13ifvqct0","pricing_plan_id":"free"},{"bike_id":"b7f12eab-e0a6-499e-87ec-2b4381c4602a","system_id":"levelo_inurba_marseille","lat":43.337544,"lon":5.374554,"is_reserved":false,"is_disabled":false,"rental_uris":{"android":"levelo://app?vid=b7f12eab-e0a6-499e-87ec-2b4381c4602a","ios":"levelo://app?vid=b7f12eab-e0a6-499e-87ec-2b4381c4602a"},"vehicle_type_id":"4","last_reported":1706558824,"current_range_meters":21200,"station_id":"","pricing_plan_id":"free"},{"bike_id":"7128ed34-91ea-4022-82c3-1136ced4ab6f","system_id":"levelo_inurba_marseille","lat":43.30933,"lon":5.40159,"is_reserved":false,"is_disabled":false,"rental_uris":{"android":"levelo://app?vid=7128ed34-91ea-4022-82c3-1136ced4ab6f","ios":"levelo://app?vid=7128ed34-91ea-4022-82c3-1136ced4ab6f"},"vehicle_type_id":"4","last_reported":1706558824,"current_range_meters":0,"station_id":"ce4bgvp2rcd13ifvqct0","pricing_plan_id":"free"},{"bike_id":"91b6ff85-6ee5-4dda-afcf-7e77437e0e9c","system_id":"levelo_inurba_marseille","lat":43.337608,"lon":5.374382,"is_reserved":false,"is_disabled":false,"rental_uris":{"android":"levelo://app?vid=91b6ff85-6ee5-4dda-afcf-7e77437e0e9c","ios":"levelo://app?vid=91b6ff85-6ee5-4dda-afcf-7e77437e0e9c"},"vehicle_type_id":"4","last_reported":1706558824,"current_range_meters":22000,"station_id":"","pricing_plan_id":"free"},{"bike_id":"2fe24097-b1c2-4583-ba1f-cf8501171a4c","system_id":"levelo_inurba_marseille","lat":43.337523,"lon":5.374905,"is_reserved":false,"is_disabled":false,"rental_uris":{"android":"levelo://app?vid=2fe24097-b1c2-4583-ba1f-cf8501171a4c","ios":"levelo://app?vid=2fe24097-b1c2-4583-ba1f-cf8501171a4c"},"vehicle_type_id":"4","last_reported":1706558824,"current_range_meters":5600,"station_id":"","pricing_plan_id":"free"},{"bike_id":"663b4048-76fd-43f1-8346-64e09c2c7288","system_id":"levelo_inurba_marseille","lat":43.337579,"lon":5.374576,"is_reserved":false,"is_disabled":false,"rental_uris":{"android":"levelo://app?vid=663b4048-76fd-43f1-8346-64e09c2c7288","ios":"levelo://app?vid=663b4048-76fd-43f1-8346-64e09c2c7288"},"vehicle_type_id":"4","last_reported":1706558824,"current_range_meters":17600,"station_id":"","pricing_plan_id":"free"},{"bike_id":"b7d3b81d-d85a-44b5-a0c7-8f9c9f74639e","system_id":"levelo_inurba_marseille","lat":43.337652,"lon":5.374317,"is_reserved":false,"is_disabled":false,"rental_uris":{"android":"levelo://app?vid=b7d3b81d-d85a-44b5-a0c7-8f9c9f74639e","ios":"levelo://app?vid=b7d3b81d-d85a-44b5-a0c7-8f9c9f74639e"},"vehicle_type_id":"4","last_reported":1706558824,"current_range_meters":25200,"station_id":"","pricing_plan_id":"free"},{"bike_id":"849cef1c-12e9-4177-bd59-7d2b97bbbe0b","system_id":"levelo_inurba_marseille","lat":43.30642,"lon":5.401031,"is_reserved":false,"is_disabled":false,"rental_uris":{"android":"levelo://app?vid=849cef1c-12e9-4177-bd59-7d2b97bbbe0b","ios":"levelo://app?vid=849cef1c-12e9-4177-bd59-7d2b97bbbe0b"},"vehicle_type_id":"4","last_reported":1706558824,"current_range_meters":22800,"station_id":"ce4bh112rcd13ifvqda0","pricing_plan_id":"free"},{"bike_id":"22f2ddad-3b54-4c31-8db7-750ed6b09aaa","system_id":"levelo_inurba_marseille","lat":43.29949,"lon":5.396883,"is_reserved":false,"is_disabled":false,"rental_uris":{"android":"levelo://app?vid=22f2ddad-3b54-4c31-8db7-750ed6b09aaa","ios":"levelo://app?vid=22f2ddad-3b54-4c31-8db7-750ed6b09aaa"},"vehicle_type_id":"4","last_reported":1706558824,"current_range_meters":14000,"station_id":"","pricing_plan_id":"free"},{"bike_id":"1facbbf3-baac-42f8-85eb-cb1e36f3e4b9","system_id":"levelo_inurba_marseille","lat":43.33762,"lon":5.374955,"is_reserved":false,"is_disabled":false,"rental_uris":{"android":"levelo://app?vid=1facbbf3-baac-42f8-85eb-cb1e36f3e4b9","ios":"levelo://app?vid=1facbbf3-baac-42f8-85eb-cb1e36f3e4b9"},"vehicle_type_id":"4","last_reported":1706558824,"current_range_meters":7600,"station_id":"","pricing_plan_id":"free"},{"bike_id":"12568932-a9a7-4d52-8b2c-668683b75358","system_id":"levelo_inurba_marseille","lat":43.337646,"lon":5.374866,"is_reserved":false,"is_disabled":false,"rental_uris":{"android":"levelo://app?vid=12568932-a9a7-4d52-8b2c-668683b75358","ios":"levelo://app?vid=12568932-a9a7-4d52-8b2c-668683b75358"},"vehicle_type_id":"4","last_reported":1706558824,"current_range_meters":18000,"station_id":"","pricing_plan_id":"free"},{"bike_id":"7eac3962-a690-4207-8c72-c5ed1bdc896e","system_id":"levelo_inurba_marseille","lat":43.30644,"lon":5.40102,"is_reserved":false,"is_disabled":false,"rental_uris":{"android":"levelo://app?vid=7eac3962-a690-4207-8c72-c5ed1bdc896e","ios":"levelo://app?vid=7eac3962-a690-4207-8c72-c5ed1bdc896e"},"vehicle_type_id":"4","last_reported":1706558824,"current_range_meters":2800,"station_id":"ce4bh112rcd13ifvqda0","pricing_plan_id":"free"},{"bike_id":"e70056f7-7c7e-48bc-ac05-2016088c4f26","system_id":"levelo_inurba_marseille","lat":43.301343,"lon":5.398645,"is_reserved":false,"is_disabled":false,"rental_uris":{"android":"levelo://app?vid=e70056f7-7c7e-48bc-ac05-2016088c4f26","ios":"levelo://app?vid=e70056f7-7c7e-48bc-ac05-2016088c4f26"},"vehicle_type_id":"4","last_reported":1706558824,"current_range_meters":16800,"station_id":"ce4bh0h2rcd13ifvqd40","pricing_plan_id":"free"},{"bike_id":"d45e3cae-ae80-4865-b89a-b2e53cef2037","system_id":"levelo_inurba_marseille","lat":43.30123,"lon":5.39863,"is_reserved":false,"is_disabled":false,"rental_uris":{"android":"levelo://app?vid=d45e3cae-ae80-4865-b89a-b2e53cef2037","ios":"levelo://app?vid=d45e3cae-ae80-4865-b89a-b2e53cef2037"},"vehicle_type_id":"4","last_reported":1706558824,"current_range_meters":11600,"station_id":"ce4bh0h2rcd13ifvqd40","pricing_plan_id":"free"},{"bike_id":"c4f83dcc-dc22-4f8d-97de-a4419da5558f","system_id":"levelo_inurba_marseille","lat":43.30131,"lon":5.39872,"is_reserved":false,"is_disabled":false,"rental_uris":{"android":"levelo://app?vid=c4f83dcc-dc22-4f8d-97de-a4419da5558f","ios":"levelo://app?vid=c4f83dcc-dc22-4f8d-97de-a4419da5558f"},"vehicle_type_id":"4","last_reported":1706558824,"current_range_meters":1200,"station_id":"ce4bh0h2rcd13ifvqd40","pricing_plan_id":"free"},{"bike_id":"3c082ef8-998e-4b68-a29d-6b97c12f9805","system_id":"levelo_inurba_marseille","lat":43.304687,"lon":5.400653,"is_reserved":false,"is_disabled":false,"rental_uris":{"android":"levelo://app?vid=3c082ef8-998e-4b68-a29d-6b97c12f9805","ios":"levelo://app?vid=3c082ef8-998e-4b68-a29d-6b97c12f9805"},"vehicle_type_id":"4","last_reported":1706558824,"current_range_meters":24400,"station_id":"","pricing_plan_id":"free"},{"bike_id":"798e0fe7-cf02-4932-984d-dcf9b66a4e27","system_id":"levelo_inurba_marseille","lat":43.30142,"lon":5.39884,"is_reserved":false,"is_disabled":false,"rental_uris":{"android":"levelo://app?vid=798e0fe7-cf02-4932-984d-dcf9b66a4e27","ios":"levelo://app?vid=798e0fe7-cf02-4932-984d-dcf9b66a4e27"},"vehicle_type_id":"4","last_reported":1706558824,"current_range_meters":3200,"station_id":"ce4bh0h2rcd13ifvqd40","pricing_plan_id":"free"},{"bike_id":"a9f7717a-e8d8-4a4f-88e9-3ace7354dc50","system_id":"levelo_inurba_marseille","lat":43.30127,"lon":5.39874,"is_reserved":false,"is_disabled":false,"rental_uris":{"android":"levelo://app?vid=a9f7717a-e8d8-4a4f-88e9-3ace7354dc50","ios":"levelo://app?vid=a9f7717a-e8d8-4a4f-88e9-3ace7354dc50"},"vehicle_type_id":"4","last_reported":1706558824,"current_range_meters":10400,"station_id":"ce4bh0h2rcd13ifvqd40","pricing_plan_id":"free"},{"bike_id":"c77238a3-22c2-4cc0-978c-c10c0a714161","system_id":"levelo_inurba_marseille","lat":43.28727,"lon":5.36078,"is_reserved":false,"is_disabled":false,"rental_uris":{"android":"levelo://app?vid=c77238a3-22c2-4cc0-978c-c10c0a714161","ios":"levelo://app?vid=c77238a3-22c2-4cc0-978c-c10c0a714161"},"vehicle_type_id":"4","last_reported":1706558824,"current_range_meters":5600,"station_id":"cki0cbj6b192h4jlfktg","pricing_plan_id":"free"},{"bike_id":"ac4fa579-edec-4e5c-bd47-d17552f58267","system_id":"levelo_inurba_marseille","lat":43.28727,"lon":5.36078,"is_reserved":false,"is_disabled":false,"rental_uris":{"android":"levelo://app?vid=ac4fa579-edec-4e5c-bd47-d17552f58267","ios":"levelo://app?vid=ac4fa579-edec-4e5c-bd47-d17552f58267"},"vehicle_type_id":"4","last_reported":1706558824,"current_range_meters":16400,"station_id":"cki0cbj6b192h4jlfktg","pricing_plan_id":"free"},{"bike_id":"888fe018-6135-4210-94ff-19cc4fe60be8","system_id":"levelo_inurba_marseille","lat":43.28727,"lon":5.36078,"is_reserved":false,"is_disabled":false,"rental_uris":{"android":"levelo://app?vid=888fe018-6135-4210-94ff-19cc4fe60be8","ios":"levelo://app?vid=888fe018-6135-4210-94ff-19cc4fe60be8"},"vehicle_type_id":"4","last_reported":1706558824,"current_range_meters":2400,"station_id":"cki0cbj6b192h4jlfktg","pricing_plan_id":"free"},{"bike_id":"917f423e-d6b9-44e5-aad6-e9a19dfe6294","system_id":"levelo_inurba_marseille","lat":43.28727,"lon":5.36078,"is_reserved":false,"is_disabled":false,"rental_uris":{"android":"levelo://app?vid=917f423e-d6b9-44e5-aad6-e9a19dfe6294","ios":"levelo://app?vid=917f423e-d6b9-44e5-aad6-e9a19dfe6294"},"vehicle_type_id":"4","last_reported":1706558824,"current_range_meters":2800,"station_id":"cki0cbj6b192h4jlfktg","pricing_plan_id":"free"},{"bike_id":"bf7ee3d7-60c7-495d-8389-848bce99b53b","system_id":"levelo_inurba_marseille","lat":43.286593,"lon":5.363346,"is_reserved":false,"is_disabled":false,"rental_uris":{"android":"levelo://app?vid=bf7ee3d7-60c7-495d-8389-848bce99b53b","ios":"levelo://app?vid=bf7ee3d7-60c7-495d-8389-848bce99b53b"},"vehicle_type_id":"4","last_reported":1706558824,"current_range_meters":20800,"station_id":"ce4bhah2rcd13ifvqej0","pricing_plan_id":"free"},{"bike_id":"54c7e8bc-34b9-4735-9532-d5fc6184a089","system_id":"levelo_inurba_marseille","lat":43.286663,"lon":5.363462,"is_reserved":false,"is_disabled":false,"rental_uris":{"android":"levelo://app?vid=54c7e8bc-34b9-4735-9532-d5fc6184a089","ios":"levelo://app?vid=54c7e8bc-34b9-4735-9532-d5fc6184a089"},"vehicle_type_id":"4","last_reported":1706558824,"current_range_meters":15600,"station_id":"","pricing_plan_id":"free"},{"bike_id":"aa0b0188-9b90-44ea-8753-68e9a43b227e","system_id":"levelo_inurba_marseille","lat":43.298681,"lon":5.397225,"is_reserved":false,"is_disabled":false,"rental_uris":{"android":"levelo://app?vid=aa0b0188-9b90-44ea-8753-68e9a43b227e","ios":"levelo://app?vid=aa0b0188-9b90-44ea-8753-68e9a43b227e"},"vehicle_type_id":"4","last_reported":1706558824,"current_range_meters":15600,"station_id":"ce4bh0h2rcd13ifvqd50","pricing_plan_id":"free"},{"bike_id":"d1a0cf21-936d-4400-9e6f-64e581b84fbd","system_id":"levelo_inurba_marseille","lat":43.298681,"lon":5.397225,"is_reserved":false,"is_disabled":false,"rental_uris":{"android":"levelo://app?vid=d1a0cf21-936d-4400-9e6f-64e581b84fbd","ios":"levelo://app?vid=d1a0cf21-936d-4400-9e6f-64e581b84fbd"},"vehicle_type_id":"4","last_reported":1706558824,"current_range_meters":10800,"station_id":"ce4bh0h2rcd13ifvqd50","pricing_plan_id":"free"},{"bike_id":"1b1fb395-0bd7-4d4a-8dc5-30cc98791e6f","system_id":"levelo_inurba_marseille","lat":43.298681,"lon":5.397225,"is_reserved":false,"is_disabled":false,"rental_uris":{"android":"levelo://app?vid=1b1fb395-0bd7-4d4a-8dc5-30cc98791e6f","ios":"levelo://app?vid=1b1fb395-0bd7-4d4a-8dc5-30cc98791e6f"},"vehicle_type_id":"4","last_reported":1706558824,"current_range_meters":31200,"station_id":"ce4bh0h2rcd13ifvqd50","pricing_plan_id":"free"},{"bike_id":"9dc00ff7-ba5d-4354-9486-56278cd0763b","system_id":"levelo_inurba_marseille","lat":43.298814,"lon":5.397433,"is_reserved":false,"is_disabled":false,"rental_uris":{"android":"levelo://app?vid=9dc00ff7-ba5d-4354-9486-56278cd0763b","ios":"levelo://app?vid=9dc00ff7-ba5d-4354-9486-56278cd0763b"},"vehicle_type_id":"4","last_reported":1706558824,"current_range_meters":0,"station_id":"ce4bh0h2rcd13ifvqd50","pricing_plan_id":"free"},{"bike_id":"2f05243e-7104-4610-b155-12e5c5453ac9","system_id":"levelo_inurba_marseille","lat":43.298681,"lon":5.397225,"is_reserved":false,"is_disabled":false,"rental_uris":{"android":"levelo://app?vid=2f05243e-7104-4610-b155-12e5c5453ac9","ios":"levelo://app?vid=2f05243e-7104-4610-b155-12e5c5453ac9"},"vehicle_type_id":"4","last_reported":1706558824,"current_range_meters":18800,"station_id":"ce4bh0h2rcd13ifvqd50","pricing_plan_id":"free"},{"bike_id":"ceed7712-7f74-49b9-98f5-0c410889e5e3","system_id":"levelo_inurba_marseille","lat":43.286961,"lon":5.373785,"is_reserved":false,"is_disabled":false,"rental_uris":{"android":"levelo://app?vid=ceed7712-7f74-49b9-98f5-0c410889e5e3","ios":"levelo://app?vid=ceed7712-7f74-49b9-98f5-0c410889e5e3"},"vehicle_type_id":"4","last_reported":1706558824,"current_range_meters":0,"station_id":"ce4bh3p2rcd13ifvqdq0","pricing_plan_id":"free"},{"bike_id":"1fd652c2-e937-4b11-92c8-116e7dab50c5","system_id":"levelo_inurba_marseille","lat":43.298681,"lon":5.397225,"is_reserved":false,"is_disabled":false,"rental_uris":{"android":"levelo://app?vid=1fd652c2-e937-4b11-92c8-116e7dab50c5","ios":"levelo://app?vid=1fd652c2-e937-4b11-92c8-116e7dab50c5"},"vehicle_type_id":"4","last_reported":1706558824,"current_range_meters":10400,"station_id":"ce4bh0h2rcd13ifvqd50","pricing_plan_id":"free"},{"bike_id":"24abb9b3-76ae-40f1-a84a-4281315fbeb1","system_id":"levelo_inurba_marseille","lat":43.304168,"lon":5.401059,"is_reserved":false,"is_disabled":false,"rental_uris":{"android":"levelo://app?vid=24abb9b3-76ae-40f1-a84a-4281315fbeb1","ios":"levelo://app?vid=24abb9b3-76ae-40f1-a84a-4281315fbeb1"},"vehicle_type_id":"4","last_reported":1706558824,"current_range_meters":0,"station_id":"","pricing_plan_id":"free"},{"bike_id":"035e8b1d-38ee-4a2a-9c48-56623716c567","system_id":"levelo_inurba_marseille","lat":43.298681,"lon":5.397225,"is_reserved":false,"is_disabled":false,"rental_uris":{"android":"levelo://app?vid=035e8b1d-38ee-4a2a-9c48-56623716c567","ios":"levelo://app?vid=035e8b1d-38ee-4a2a-9c48-56623716c567"},"vehicle_type_id":"4","last_reported":1706558824,"current_range_meters":12400,"station_id":"ce4bh0h2rcd13ifvqd50","pricing_plan_id":"free"},{"bike_id":"7aa20bea-7b72-43a7-b075-b31596a87763","system_id":"levelo_inurba_marseille","lat":43.298681,"lon":5.397225,"is_reserved":false,"is_disabled":false,"rental_uris":{"android":"levelo://app?vid=7aa20bea-7b72-43a7-b075-b31596a87763","ios":"levelo://app?vid=7aa20bea-7b72-43a7-b075-b31596a87763"},"vehicle_type_id":"4","last_reported":1706558824,"current_range_meters":14800,"station_id":"ce4bh0h2rcd13ifvqd50","pricing_plan_id":"free"},{"bike_id":"0c1e6420-981b-4038-9f31-257c0eed4e7d","system_id":"levelo_inurba_marseille","lat":43.28695,"lon":5.37408,"is_reserved":false,"is_disabled":false,"rental_uris":{"android":"levelo://app?vid=0c1e6420-981b-4038-9f31-257c0eed4e7d","ios":"levelo://app?vid=0c1e6420-981b-4038-9f31-257c0eed4e7d"},"vehicle_type_id":"4","last_reported":1706558824,"current_range_meters":400,"station_id":"ce4bh3p2rcd13ifvqdq0","pricing_plan_id":"free"},{"bike_id":"8048f061-361d-46aa-b6c7-1a07e6561be1","system_id":"levelo_inurba_marseille","lat":43.298681,"lon":5.397225,"is_reserved":false,"is_disabled":false,"rental_uris":{"android":"levelo://app?vid=8048f061-361d-46aa-b6c7-1a07e6561be1","ios":"levelo://app?vid=8048f061-361d-46aa-b6c7-1a07e6561be1"},"vehicle_type_id":"4","last_reported":1706558824,"current_range_meters":15600,"station_id":"ce4bh0h2rcd13ifvqd50","pricing_plan_id":"free"},{"bike_id":"b0d57152-704f-42fb-b106-fcfe62a59d7a","system_id":"levelo_inurba_marseille","lat":43.295196,"lon":5.39397,"is_reserved":false,"is_disabled":false,"rental_uris":{"android":"levelo://app?vid=b0d57152-704f-42fb-b106-fcfe62a59d7a","ios":"levelo://app?vid=b0d57152-704f-42fb-b106-fcfe62a59d7a"},"vehicle_type_id":"4","last_reported":1706558824,"current_range_meters":0,"station_id":"ce4bh292rcd13ifvqdf0","pricing_plan_id":"free"},{"bike_id":"298a84aa-0619-4062-bf77-5c4c6bc9a560","system_id":"levelo_inurba_marseille","lat":43.302759,"lon":5.400793,"is_reserved":false,"is_disabled":false,"rental_uris":{"android":"levelo://app?vid=298a84aa-0619-4062-bf77-5c4c6bc9a560","ios":"levelo://app?vid=298a84aa-0619-4062-bf77-5c4c6bc9a560"},"vehicle_type_id":"4","last_reported":1706558824,"current_range_meters":4400,"station_id":"ce4bgvh2rcd13ifvqcs0","pricing_plan_id":"free"},{"bike_id":"ac38cde3-957c-4a5f-a4f3-ae4c61a09f20","system_id":"levelo_inurba_marseille","lat":43.289307,"lon":5.38406,"is_reserved":false,"is_disabled":false,"rental_uris":{"android":"levelo://app?vid=ac38cde3-957c-4a5f-a4f3-ae4c61a09f20","ios":"levelo://app?vid=ac38cde3-957c-4a5f-a4f3-ae4c61a09f20"},"vehicle_type_id":"4","last_reported":1706558824,"current_range_meters":4400,"station_id":"ce4bh612rcd13ifvqe6g","pricing_plan_id":"free"},{"bike_id":"0626904b-9525-455d-b4da-fc1463ef0c28","system_id":"levelo_inurba_marseille","lat":43.302759,"lon":5.400793,"is_reserved":false,"is_disabled":false,"rental_uris":{"android":"levelo://app?vid=0626904b-9525-455d-b4da-fc1463ef0c28","ios":"levelo://app?vid=0626904b-9525-455d-b4da-fc1463ef0c28"},"vehicle_type_id":"4","last_reported":1706558824,"current_range_meters":5200,"station_id":"ce4bgvh2rcd13ifvqcs0","pricing_plan_id":"free"},{"bike_id":"86ada100-8127-4ae6-83d1-bf8f63cff0b2","system_id":"levelo_inurba_marseille","lat":43.290336,"lon":5.386425,"is_reserved":false,"is_disabled":false,"rental_uris":{"android":"levelo://app?vid=86ada100-8127-4ae6-83d1-bf8f63cff0b2","ios":"levelo://app?vid=86ada100-8127-4ae6-83d1-bf8f63cff0b2"},"vehicle_type_id":"4","last_reported":1706558824,"current_range_meters":21200,"station_id":"ce4bh4p2rcd13ifvqe0g","pricing_plan_id":"free"},{"bike_id":"807665df-a4a0-4d1f-93e9-1a9c1f652134","system_id":"levelo_inurba_marseille","lat":43.286062,"lon":5.370684,"is_reserved":false,"is_disabled":false,"rental_uris":{"android":"levelo://app?vid=807665df-a4a0-4d1f-93e9-1a9c1f652134","ios":"levelo://app?vid=807665df-a4a0-4d1f-93e9-1a9c1f652134"},"vehicle_type_id":"4","last_reported":1706558824,"current_range_meters":2400,"station_id":"ce4bht12rcd13ifvqi60","pricing_plan_id":"free"},{"bike_id":"b0a81108-6938-414d-abd4-0220f16756ca","system_id":"levelo_inurba_marseille","lat":43.28604,"lon":5.37069,"is_reserved":false,"is_disabled":false,"rental_uris":{"android":"levelo://app?vid=b0a81108-6938-414d-abd4-0220f16756ca","ios":"levelo://app?vid=b0a81108-6938-414d-abd4-0220f16756ca"},"vehicle_type_id":"4","last_reported":1706558824,"current_range_meters":5200,"station_id":"ce4bht12rcd13ifvqi60","pricing_plan_id":"free"},{"bike_id":"482ea108-52f2-46b4-bb1a-e7d9d78c8a86","system_id":"levelo_inurba_marseille","lat":43.28722,"lon":5.379513,"is_reserved":false,"is_disabled":false,"rental_uris":{"android":"levelo://app?vid=482ea108-52f2-46b4-bb1a-e7d9d78c8a86","ios":"levelo://app?vid=482ea108-52f2-46b4-bb1a-e7d9d78c8a86"},"vehicle_type_id":"4","last_reported":1706558824,"current_range_meters":2800,"station_id":"ce4bh9p2rcd13ifvqec0","pricing_plan_id":"free"},{"bike_id":"2eef21de-df22-4ac0-8a41-87a9d2cc8193","system_id":"levelo_inurba_marseille","lat":43.287184,"lon":5.37937,"is_reserved":false,"is_disabled":false,"rental_uris":{"android":"levelo://app?vid=2eef21de-df22-4ac0-8a41-87a9d2cc8193","ios":"levelo://app?vid=2eef21de-df22-4ac0-8a41-87a9d2cc8193"},"vehicle_type_id":"4","last_reported":1706558824,"current_range_meters":6000,"station_id":"ce4bh9p2rcd13ifvqec0","pricing_plan_id":"free"},