{"last_updated":1703621242,"ttl":30,"version":"2.2","data":{"bikes":[{"bike_id":"4d184978-cfa5-4f87-b1d9-52b08a676b96","system_id":"levelo_inurba_marseille","lat":43.312239,"lon":5.368562,"is_reserved":false,"is_disabled":false,"rental_uris":{"android":"levelo://app?vid=4d184978-cfa5-4f87-b1d9-52b08a676b96","ios":"levelo://app?vid=4d184978-cfa5-4f87-b1d9-52b08a676b96"},"vehicle_type_id":"4","last_reported":1703621242,"current_range_meters":15600,"station_id":"ce4bgl92rcd13ifvqbq0","pricing_plan_id":"free"},{"bike_id":"359a5d7c-9e6a-470e-bb1c-233de3183714","system_id":"levelo_inurba_marseille","lat":43.312239,"lon":5.368562,"is_reserved":false,"is_disabled":false,"rental_uris":{"android":"levelo://app?vid=359a5d7c-9e6a-470e-bb1c-233de3183714","ios":"levelo://app?vid=359a5d7c-9e6a-470e-bb1c-233de3183714"},"vehicle_type_id":"4","last_reported":1703621242,"current_range_meters":26000,"station_id":"ce4bgl92rcd13ifvqbq0","pricing_plan_id":"free"},{"bike_id":"e075fba3-6aba-4538-a7e2-5aaeb94b9f46","system_id":"levelo_inurba_marseille","lat":43.312239,"lon":5.368562,"is_reserved":false,"is_disabled":false,"rental_uris":{"android":"levelo://app?vid=e075fba3-6aba-4538-a7e2-5aaeb94b9f46","ios":"levelo://app?vid=e075fba3-6aba-4538-a7e2-5aaeb94b9f46"},"vehicle_type_id":"4","last_reported":1703621242,"current_range_meters":20800,"station_id":"ce4bgl92rcd13ifvqbq0","pricing_plan_id":"free"},{"bike_id":"918d1ee6-ccef-43f1-a78b-6eb4343b5867","system_id":"levelo_inurba_marseille","lat":43.312239,"lon":5.368562,"is_reserved":false,"is_disabled":false,"rental_uris":{"android":"levelo://app?vid=918d1ee6-ccef-43f1-a78b-6eb4343b5867","ios":"levelo://app?vid=918d1ee6-ccef-43f1-a78b-6eb4343b5867"},"vehicle_type_id":"4","last_reported":1703621242,"current_range_meters":9200,"station_id":"ce4bgl92rcd13ifvqbq0","pricing_plan_id":"free"},{"bike_id":"750388b3-b6d6-461f-8fed-d482843d7a3c","system_id":"levelo_inurba_marseille","lat":43.314811,"lon":5.373104,"is_reserved":false,"is_disabled":false,"rental_uris":{"android":"levelo://app?vid=750388b3-b6d6-461f-8fed-d482843d7a3c","ios":"levelo://app?vid=750388b3-b6d6-461f-8fed-d482843d7a3c"},"vehicle_type_id":"4","last_reported":1703621242,"current_range_meters":30000,"station_id":"ce4bgt12rcd13ifvqcd0","pricing_plan_id":"free"},{"bike_id":"e1cc6dd0-c8d0-4617-9b95-e0dec567f259","system_id":"levelo_inurba_marseille","lat":43.309039,"lon":5.371797,"is_reserved":false,"is_disabled":false,"rental_uris":{"android":"levelo://app?vid=e1cc6dd0-c8d0-4617-9b95-e0dec567f259","ios":"levelo://app?vid=e1cc6dd0-c8d0-4617-9b95-e0dec567f259"},"vehicle_type_id":"4","last_reported":1703621242,"current_range_meters":25600,"station_id":"ce4bguh2rcd13ifvqckg","pricing_plan_id":"free"},{"bike_id":"98fc8f36-009c-49c0-bde9-eaacf0237add","system_id":"levelo_inurba_marseille","lat":43.314939,"lon":5.373903,"is_reserved":false,"is_disabled":false,"rental_uris":{"android":"levelo://app?vid=98fc8f36-009c-49c0-bde9-eaacf0237add","ios":"levelo://app?vid=98fc8f36-009c-49c0-bde9-eaacf0237add"},"vehicle_type_id":"4","last_reported":1703621242,"current_range_meters":24800,"station_id":"","pricing_plan_id":"free"},{"bike_id":"437be774-9347-4f56-865e-861017296255","system_id":"levelo_inurba_marseille","lat":43.318964,"lon":5.36877,"is_reserved":false,"is_disabled":false,"rental_uris":{"android":"levelo://app?vid=437be774-9347-4f56-865e-861017296255","ios":"levelo://app?vid=437be774-9347-4f56-865e-861017296255"},"vehicle_type_id":"4","last_reported":1703621242,"current_range_meters":10800,"station_id":"","pricing_plan_id":"free"},{"bike_id":"803374b6-a3bf-4797-b2c8-07d03e199f35","system_id":"levelo_inurba_marseille","lat":43.305989,"lon":5.37225,"is_reserved":false,"is_disabled":false,"rental_uris":{"android":"levelo://app?vid=803374b6-a3bf-4797-b2c8-07d03e199f35","ios":"levelo://app?vid=803374b6-a3bf-4797-b2c8-07d03e199f35"},"vehicle_type_id":"4","last_reported":1703621242,"current_range_meters":25600,"station_id":"ce4bgqh2rcd13ifvqc4g","pricing_plan_id":"free"},{"bike_id":"7df656ba-41e0-4f21-8e88-cdd0546ad5cc","system_id":"levelo_inurba_marseille","lat":43.305989,"lon":5.37225,"is_reserved":false,"is_disabled":false,"rental_uris":{"android":"levelo://app?vid=7df656ba-41e0-4f21-8e88-cdd0546ad5cc","ios":"levelo://app?vid=7df656ba-41e0-4f21-8e88-cdd0546ad5cc"},"vehicle_type_id":"4","last_reported":1703621242,"current_range_meters":1600,"station_id":"ce4bgqh2rcd13ifvqc4g","pricing_plan_id":"free"},{"bike_id":"60136220-8031-455a-8bb5-e4b5de34d648","system_id":"levelo_inurba_marseille","lat":43.305989,"lon":5.37225,"is_reserved":false,"is_disabled":false,"rental_uris":{"android":"levelo://app?vid=60136220-8031-455a-8bb5-e4b5de34d648","ios":"levelo://app?vid=60136220-8031-455a-8bb5-e4b5de34d648"},"vehicle_type_id":"4","last_reported":1703621242,"current_range_meters":26800,"station_id":"ce4bgqh2rcd13ifvqc4g","pricing_plan_id":"free"},{"bike_id":"de5a5de1-5fe5-42e3-9c3f-34e8b3df6b65","system_id":"levelo_inurba_marseille","lat":43.311162,"lon":5.377683,"is_reserved":false,"is_disabled":false,"rental_uris":{"android":"levelo://app?vid=de5a5de1-5fe5-42e3-9c3f-34e8b3df6b65","ios":"levelo://app?vid=de5a5de1-5fe5-42e3-9c3f-34e8b3df6b65"},"vehicle_type_id":"4","last_reported":1703621242,"current_range_meters":18000,"station_id":"ce4bgt92rcd13ifvqcg0","pricing_plan_id":"free"},{"bike_id":"e8f88ded-13b6-489c-a6f9-afa444ec13d3","system_id":"levelo_inurba_marseille","lat":43.307945,"lon":5.376487,"is_reserved":false,"is_disabled":false,"rental_uris":{"android":"levelo://app?vid=e8f88ded-13b6-489c-a6f9-afa444ec13d3","ios":"levelo://app?vid=e8f88ded-13b6-489c-a6f9-afa444ec13d3"},"vehicle_type_id":"4","last_reported":1703621242,"current_range_meters":19600,"station_id":"ce4bgv92rcd13ifvqcq0","pricing_plan_id":"free"},{"bike_id":"f5485fb3-6908-4a19-9802-f3271733bbef","system_id":"levelo_inurba_marseille","lat":43.307945,"lon":5.376487,"is_reserved":false,"is_disabled":false,"rental_uris":{"android":"levelo://app?vid=f5485fb3-6908-4a19-9802-f3271733bbef","ios":"levelo://app?vid=f5485fb3-6908-4a19-9802-f3271733bbef"},"vehicle_type_id":"4","last_reported":1703621242,"current_range_meters":25600,"station_id":"ce4bgv92rcd13ifvqcq0","pricing_plan_id":"free"},{"bike_id":"4d253966-2b1d-4f80-a6e0-281d872c687a","system_id":"levelo_inurba_marseille","lat":43.31711,"lon":5.37718,"is_reserved":false,"is_disabled":false,"rental_uris":{"android":"levelo://app?vid=4d253966-2b1d-4f80-a6e0-281d872c687a","ios":"levelo://app?vid=4d253966-2b1d-4f80-a6e0-281d872c687a"},"vehicle_type_id":"4","last_reported":1703621242,"current_range_meters":20400,"station_id":"ce4bgth2rcd13ifvqch0","pricing_plan_id":"free"},{"bike_id":"d01bea36-f5d3-4bd8-b117-209f24674382","system_id":"levelo_inurba_marseille","lat":43.317075,"lon":5.377367,"is_reserved":false,"is_disabled":false,"rental_uris":{"android":"levelo://app?vid=d01bea36-f5d3-4bd8-b117-209f24674382","ios":"levelo://app?vid=d01bea36-f5d3-4bd8-b117-209f24674382"},"vehicle_type_id":"4","last_reported":1703621242,"current_range_meters":29600,"station_id":"ce4bgth2rcd13ifvqch0","pricing_plan_id":"free"},{"bike_id":"2e6e535e-52f0-4fe4-8204-6f3fbd323108","system_id":"levelo_inurba_marseille","lat":43.317075,"lon":5.377367,"is_reserved":false,"is_disabled":false,"rental_uris":{"android":"levelo://app?vid=2e6e535e-52f0-4fe4-8204-6f3fbd323108","ios":"levelo://app?vid=2e6e535e-52f0-4fe4-8204-6f3fbd323108"},"vehicle_type_id":"4","last_reported":1703621242,"current_range_meters":29600,"station_id":"ce4bgth2rcd13ifvqch0","pricing_plan_id":"free"},{"bike_id":"57561aad-df5e-4abf-ac10-b65e331240f3","system_id":"levelo_inurba_marseille","lat":43.301939,"lon":5.366286,"is_reserved":false,"is_disabled":false,"rental_uris":{"android":"levelo://app?vid=57561aad-df5e-4abf-ac10-b65e331240f3","ios":"levelo://app?vid=57561aad-df5e-4abf-ac10-b65e331240f3"},"vehicle_type_id":"4","last_reported":1703621242,"current_range_meters":28000,"station_id":"ce4bgrh2rcd13ifvqc8g","pricing_plan_id":"free"},{"bike_id":"5b265290-4694-44d6-8842-e8fc3d1e5436","system_id":"levelo_inurba_marseille","lat":43.301939,"lon":5.366286,"is_reserved":false,"is_disabled":false,"rental_uris":{"android":"levelo://app?vid=5b265290-4694-44d6-8842-e8fc3d1e5436","ios":"levelo://app?vid=5b265290-4694-44d6-8842-e8fc3d1e5436"},"vehicle_type_id":"4","last_reported":1703621242,"current_range_meters":8800,"station_id":"ce4bgrh2rcd13ifvqc8g","pricing_plan_id":"free"},{"bike_id":"76c6d4ce-82c4-4373-a7bd-5379767155b5","system_id":"levelo_inurba_marseille","lat":43.308012,"lon":5.381511,"is_reserved":false,"is_disabled":false,"rental_uris":{"android":"levelo://app?vid=76c6d4ce-82c4-4373-a7bd-5379767155b5","ios":"levelo://app?vid=76c6d4ce-82c4-4373-a7bd-5379767155b5"},"vehicle_type_id":"4","last_reported":1703621242,"current_range_meters":31200,"station_id":"ce4bgt12rcd13ifvqce0","pricing_plan_id":"free"},{"bike_id":"f5c0e4d6-16bd-47eb-ba92-aa201d0984ce","system_id":"levelo_inurba_marseille","lat":43.324771,"lon":5.36557,"is_reserved":false,"is_disabled":false,"rental_uris":{"android":"levelo://app?vid=f5c0e4d6-16bd-47eb-ba92-aa201d0984ce","ios":"levelo://app?vid=f5c0e4d6-16bd-47eb-ba92-aa201d0984ce"},"vehicle_type_id":"4","last_reported":1703621242,"current_range_meters":28400,"station_id":"ce4bhs12rcd13ifvqhvg","pricing_plan_id":"free"},{"bike_id":"e101af2c-c501-4e28-8d72-12ad3a8d21a2","system_id":"levelo_inurba_marseille","lat":43.324771,"lon":5.36557,"is_reserved":false,"is_disabled":false,"rental_uris":{"android":"levelo://app?vid=e101af2c-c501-4e28-8d72-12ad3a8d21a2","ios":"levelo://app?vid=e101af2c-c501-4e28-8d72-12ad3a8d21a2"},"vehicle_type_id":"4","last_reported":1703621242,"current_range_meters":22400,"station_id":"ce4bhs12rcd13ifvqhvg","pricing_plan_id":"free"},{"bike_id":"a4c9db62-e396-4539-993a-7a0850c8f675","system_id":"levelo_inurba_marseille","lat":43.302907,"lon":5.37701,"is_reserved":false,"is_disabled":false,"rental_uris":{"android":"levelo://app?vid=a4c9db62-e396-4539-993a-7a0850c8f675","ios":"levelo://app?vid=a4c9db62-e396-4539-993a-7a0850c8f675"},"vehicle_type_id":"4","last_reported":1703621242,"current_range_meters":28800,"station_id":"ce4bguh2rcd13ifvqcj0","pricing_plan_id":"free"},{"bike_id":"3a70ba87-d511-4aaf-b0ab-bf41a847d3c0","system_id":"levelo_inurba_marseille","lat":43.30282,"lon":5.37702,"is_reserved":false,"is_disabled":false,"rental_uris":{"android":"levelo://app?vid=3a70ba87-d511-4aaf-b0ab-bf41a847d3c0","ios":"levelo://app?vid=3a70ba87-d511-4aaf-b0ab-bf41a847d3c0"},"vehicle_type_id":"4","last_reported":1703621242,"current_range_meters":24400,"station_id":"ce4bguh2rcd13ifvqcj0","pricing_plan_id":"free"},{"bike_id":"95525115-9f09-4501-8b32-ef3e7cd3b83f","system_id":"levelo_inurba_marseille","lat":43.302784,"lon":5.377158,"is_reserved":false,"is_disabled":false,"rental_uris":{"android":"levelo://app?vid=95525115-9f09-4501-8b32-ef3e7cd3b83f","ios":"levelo://app?vid=95525115-9f09-4501-8b32-ef3e7cd3b83f"},"vehicle_type_id":"4","last_reported":1703621242,"current_range_meters":9200,"station_id":"ce4bguh2rcd13ifvqcj0","pricing_plan_id":"free"},{"bike_id":"9fd0f1fb-194c-4d6c-a7e1-13975396e81c","system_id":"levelo_inurba_marseille","lat":43.301453,"lon":5.37416,"is_reserved":false,"is_disabled":false,"rental_uris":{"android":"levelo://app?vid=9fd0f1fb-194c-4d6c-a7e1-13975396e81c","ios":"levelo://app?vid=9fd0f1fb-194c-4d6c-a7e1-13975396e81c"},"vehicle_type_id":"4","last_reported":1703621242,"current_range_meters":12400,"station_id":"","pricing_plan_id":"free"},{"bike_id":"00918877-1345-4713-9b5a-28e9738e66ab","system_id":"levelo_inurba_marseille","lat":43.319935,"lon":5.381699,"is_reserved":false,"is_disabled":false,"rental_uris":{"android":"levelo://app?vid=00918877-1345-4713-9b5a-28e9738e66ab","ios":"levelo://app?vid=00918877-1345-4713-9b5a-28e9738e66ab"},"vehicle_type_id":"4","last_reported":1703621242,"current_range_meters":2800,"station_id":"ce4bhr12rcd13ifvqhpg","pricing_plan_id":"free"},{"bike_id":"d50a7df1-7e74-446f-b9f4-2754cff05bd9","system_id":"levelo_inurba_marseille","lat":43.31997,"lon":5.38157,"is_reserved":false,"is_disabled":false,"rental_uris":{"android":"levelo://app?vid=d50a7df1-7e74-446f-b9f4-2754cff05bd9","ios":"levelo://app?vid=d50a7df1-7e74-446f-b9f4-2754cff05bd9"},"vehicle_type_id":"4","last_reported":1703621242,"current_range_meters":8800,"station_id":"ce4bhr12rcd13ifvqhpg","pricing_plan_id":"free"},{"bike_id":"8aba050a-8811-4086-b8e8-4572cc6fcac0","system_id":"levelo_inurba_marseille","lat":43.319935,"lon":5.381699,"is_reserved":false,"is_disabled":false,"rental_uris":{"android":"levelo://app?vid=8aba050a-8811-4086-b8e8-4572cc6fcac0","ios":"levelo://app?vid=8aba050a-8811-4086-b8e8-4572cc6fcac0"},"vehicle_type_id":"4","last_reported":1703621242,"current_range_meters":21600,"station_id":"ce4bhr12rcd13ifvqhpg","pricing_plan_id":"free"},{"bike_id":"a971f3b5-927e-4921-a296-cc0107e3d66d","system_id":"levelo_inurba_marseille","lat":43.313571,"lon":5.384829,"is_reserved":false,"is_disabled":false,"rental_uris":{"android":"levelo://app?vid=a971f3b5-927e-4921-a296-cc0107e3d66d","ios":"levelo://app?vid=a971f3b5-927e-4921-a296-cc0107e3d66d"},"vehicle_type_id":"4","last_reported":1703621242,"current_range_meters":31200,"station_id":"ce4bgt92rcd13ifvqcf0","pricing_plan_id":"free"},{"bike_id":"91cae178-5578-4205-8818-d8bcaf5d929d","system_id":"levelo_inurba_marseille","lat":43.313571,"lon":5.384829,"is_reserved":false,"is_disabled":false,"rental_uris":{"android":"levelo://app?vid=91cae178-5578-4205-8818-d8bcaf5d929d","ios":"levelo://app?vid=91cae178-5578-4205-8818-d8bcaf5d929d"},"vehicle_type_id":"4","last_reported":1703621242,"current_range_meters":20800,"station_id":"ce4bgt92rcd13ifvqcf0","pricing_plan_id":"free"},{"bike_id":"a3620e20-0296-47a9-b20a-b20160667f0d","system_id":"levelo_inurba_marseille","lat":43.313571,"lon":5.384829,"is_reserved":false,"is_disabled":false,"rental_uris":{"android":"levelo://app?vid=a3620e20-0296-47a9-b20a-b20160667f0d","ios":"levelo://app?vid=a3620e20-0296-47a9-b20a-b20160667f0d"},"vehicle_type_id":"4","last_reported":1703621242,"current_range_meters":14800,"station_id":"ce4bgt92rcd13ifvqcf0","pricing_plan_id":"free"},{"bike_id":"9a6dbaa9-ce8f-4adf-92a5-13d99be18384","system_id":"levelo_inurba_marseille","lat":43.313571,"lon":5.384829,"is_reserved":false,"is_disabled":false,"rental_uris":{"android":"levelo://app?vid=9a6dbaa9-ce8f-4adf-92a5-13d99be18384","ios":"levelo://app?vid=9a6dbaa9-ce8f-4adf-92a5-13d99be18384"},"vehicle_type_id":"4","last_reported":1703621242,"current_range_meters":30800,"station_id":"ce4bgt92rcd13ifvqcf0","pricing_plan_id":"free"},{"bike_id":"5c521df4-606b-455d-8167-e197a1f393bb","system_id":"levelo_inurba_marseille","lat":43.300399,"lon":5.37435,"is_reserved":false,"is_disabled":false,"rental_uris":{"android":"levelo://app?vid=5c521df4-606b-455d-8167-e197a1f393bb","ios":"levelo://app?vid=5c521df4-606b-455d-8167-e197a1f393bb"},"vehicle_type_id":"4","last_reported":1703621242,"current_range_meters":6400,"station_id":"","pricing_plan_id":"free"},{"bike_id":"6e33b6f2-797c-4e8c-8af1-3add54dba90a","system_id":"levelo_inurba_marseille","lat":43.298444,"lon":5.362951,"is_reserved":false,"is_disabled":false,"rental_uris":{"android":"levelo://app?vid=6e33b6f2-797c-4e8c-8af1-3add54dba90a","ios":"levelo://app?vid=6e33b6f2-797c-4e8c-8af1-3add54dba90a"},"vehicle_type_id":"4","last_reported":1703621242,"current_range_meters":19200,"station_id":"ce4bgpp2rcd13ifvqc3g","pricing_plan_id":"free"},{"bike_id":"33805390-52be-4e65-ade7-eb9d44f2f3e8","system_id":"levelo_inurba_marseille","lat":43.298433,"lon":5.362774,"is_reserved":false,"is_disabled":false,"rental_uris":{"android":"levelo://app?vid=33805390-52be-4e65-ade7-eb9d44f2f3e8","ios":"levelo://app?vid=33805390-52be-4e65-ade7-eb9d44f2f3e8"},"vehicle_type_id":"4","last_reported":1703621242,"current_range_meters":23600,"station_id":"ce4bgpp2rcd13ifvqc3g","pricing_plan_id":"free"},{"bike_id":"3acfe0ca-90c0-4b18-82ab-c6179280234f","system_id":"levelo_inurba_marseille","lat":43.305364,"lon":5.384119,"is_reserved":false,"is_disabled":false,"rental_uris":{"android":"levelo://app?vid=3acfe0ca-90c0-4b18-82ab-c6179280234f","ios":"levelo://app?vid=3acfe0ca-90c0-4b18-82ab-c6179280234f"},"vehicle_type_id":"4","last_reported":1703621242,"current_range_meters":4800,"station_id":"ce4bgg92rcd13ifvqb30","pricing_plan_id":"free"},{"bike_id":"b49e7f7f-0e70-4f51-8fce-4b42ee16ac2d","system_id":"levelo_inurba_marseille","lat":43.299243,"lon":5.374807,"is_reserved":false,"is_disabled":false,"rental_uris":{"android":"levelo://app?vid=b49e7f7f-0e70-4f51-8fce-4b42ee16ac2d","ios":"levelo://app?vid=b49e7f7f-0e70-4f51-8fce-4b42ee16ac2d"},"vehicle_type_id":"4","last_reported":1703621242,"current_range_meters":30000,"station_id":"ce4bgjh2rcd13ifvqbg0","pricing_plan_id":"free"},{"bike_id":"654b0907-4525-436c-b567-f723da50a393","system_id":"levelo_inurba_marseille","lat":43.311707,"lon":5.387195,"is_reserved":false,"is_disabled":false,"rental_uris":{"android":"levelo://app?vid=654b0907-4525-436c-b567-f723da50a393","ios":"levelo://app?vid=654b0907-4525-436c-b567-f723da50a393"},"vehicle_type_id":"4","last_reported":1703621242,"current_range_meters":21200,"station_id":"ce4bgv12rcd13ifvqcp0","pricing_plan_id":"free"},{"bike_id":"352408a6-4fbb-447e-9619-ecd20c963fce","system_id":"levelo_inurba_marseille","lat":43.31165,"lon":5.38723,"is_reserved":false,"is_disabled":false,"rental_uris":{"android":"levelo://app?vid=352408a6-4fbb-447e-9619-ecd20c963fce","ios":"levelo://app?vid=352408a6-4fbb-447e-9619-ecd20c963fce"},"vehicle_type_id":"4","last_reported":1703621242,"current_range_meters":25200,"station_id":"ce4bgv12rcd13ifvqcp0","pricing_plan_id":"free"},{"bike_id":"c067068f-18e2-4ef4-a110-689e734887ae","system_id":"levelo_inurba_marseille","lat":43.311722,"lon":5.387247,"is_reserved":false,"is_disabled":false,"rental_uris":{"android":"levelo://app?vid=c067068f-18e2-4ef4-a110-689e734887ae","ios":"levelo://app?vid=c067068f-18e2-4ef4-a110-689e734887ae"},"vehicle_type_id":"4","last_reported":1703621242,"current_range_meters":3600,"station_id":"ce4bgv12rcd13ifvqcp0","pricing_plan_id":"free"},{"bike_id":"7019a909-056c-4aa8-890a-f10a41f5bc20","system_id":"levelo_inurba_marseille","lat":43.311722,"lon":5.387247,"is_reserved":false,"is_disabled":false,"rental_uris":{"android":"levelo://app?vid=7019a909-056c-4aa8-890a-f10a41f5bc20","ios":"levelo://app?vid=7019a909-056c-4aa8-890a-f10a41f5bc20"},"vehicle_type_id":"4","last_reported":1703621242,"current_range_meters":13600,"station_id":"ce4bgv12rcd13ifvqcp0","pricing_plan_id":"free"},{"bike_id":"9f5a96a2-0db8-4b1c-8450-c51d03940f00","system_id":"levelo_inurba_marseille","lat":43.322872,"lon":5.382756,"is_reserved":false,"is_disabled":false,"rental_uris":{"android":"levelo://app?vid=9f5a96a2-0db8-4b1c-8450-c51d03940f00","ios":"levelo://app?vid=9f5a96a2-0db8-4b1c-8450-c51d03940f00"},"vehicle_type_id":"4","last_reported":1703621242,"current_range_meters":28800,"station_id":"ce4bhr12rcd13ifvqhqg","pricing_plan_id":"free"},{"bike_id":"1cecd7ec-d453-43c5-a38d-0ee14477aaf1","system_id":"levelo_inurba_marseille","lat":43.322872,"lon":5.382756,"is_reserved":false,"is_disabled":false,"rental_uris":{"android":"levelo://app?vid=1cecd7ec-d453-43c5-a38d-0ee14477aaf1","ios":"levelo://app?vid=1cecd7ec-d453-43c5-a38d-0ee14477aaf1"},"vehicle_type_id":"4","last_reported":1703621242,"current_range_meters":28000,"station_id":"ce4bhr12rcd13ifvqhqg","pricing_plan_id":"free"},{"bike_id":"7b35961e-ce26-4a19-be21-bf42fab4fce9","system_id":"levelo_inurba_marseille","lat":43.322872,"lon":5.382756,"is_reserved":false,"is_disabled":false,"rental_uris":{"android":"levelo://app?vid=7b35961e-ce26-4a19-be21-bf42fab4fce9","ios":"levelo://app?vid=7b35961e-ce26-4a19-be21-bf42fab4fce9"},"vehicle_type_id":"4","last_reported":1703621242,"current_range_meters":29200,"station_id":"ce4bhr12rcd13ifvqhqg","pricing_plan_id":"free"},{"bike_id":"5fed18d1-7f81-4167-a351-7c4be7bb7921","system_id":"levelo_inurba_marseille","lat":43.328228,"lon":5.366635,"is_reserved":false,"is_disabled":false,"rental_uris":{"android":"levelo://app?vid=5fed18d1-7f81-4167-a351-7c4be7bb7921","ios":"levelo://app?vid=5fed18d1-7f81-4167-a351-7c4be7bb7921"},"vehicle_type_id":"4","last_reported":1703621242,"current_range_meters":24400,"station_id":"ce4bhs92rcd13ifvqi0g","pricing_plan_id":"free"},{"bike_id":"5c89eee7-6e83-42b4-bd81-efdcf68f6666","system_id":"levelo_inurba_marseille","lat":43.32824,"lon":5.366696,"is_reserved":false,"is_disabled":false,"rental_uris":{"android":"levelo://app?vid=5c89eee7-6e83-42b4-bd81-efdcf68f6666","ios":"levelo://app?vid=5c89eee7-6e83-42b4-bd81-efdcf68f6666"},"vehicle_type_id":"4","last_reported":1703621242,"current_range_meters":28800,"station_id":"ce4bhs92rcd13ifvqi0g","pricing_plan_id":"free"},{"bike_id":"51714c4a-3132-4951-88ec-80e85fa125e8","system_id":"levelo_inurba_marseille","lat":43.328259,"lon":5.366797,"is_reserved":false,"is_disabled":false,"rental_uris":{"android":"levelo://app?vid=51714c4a-3132-4951-88ec-80e85fa125e8","ios":"levelo://app?vid=51714c4a-3132-4951-88ec-80e85fa125e8"},"vehicle_type_id":"4","last_reported":1703621242,"current_range_meters":26800,"station_id":"ce4bhs92rcd13ifvqi0g","pricing_plan_id":"free"},{"bike_id":"be72c8fa-57ca-4b39-a06f-106528121e53","system_id":"levelo_inurba_marseille","lat":43.328371,"lon":5.366909,"is_reserved":false,"is_disabled":false,"rental_uris":{"android":"levelo://app?vid=be72c8fa-57ca-4b39-a06f-106528121e53","ios":"levelo://app?vid=be72c8fa-57ca-4b39-a06f-106528121e53"},"vehicle_type_id":"4","last_reported":1703621242,"current_range_meters":7200,"station_id":"ce4bhs92rcd13ifvqi0g","pricing_plan_id":"free"},{"bike_id":"a448ca86-2b35-41e1-89c4-32a99bab0563","system_id":"levelo_inurba_marseille","lat":43.328371,"lon":5.366912,"is_reserved":false,"is_disabled":false,"rental_uris":{"android":"levelo://app?vid=a448ca86-2b35-41e1-89c4-32a99bab0563","ios":"levelo://app?vid=a448ca86-2b35-41e1-89c4-32a99bab0563"},"vehicle_type_id":"4","last_reported":1703621242,"current_range_meters":30800,"station_id":"ce4bhs92rcd13ifvqi0g","pricing_plan_id":"free"},{"bike_id":"6f67326a-1664-406f-9978-902e013e2357","system_id":"levelo_inurba_marseille","lat":43.328371,"lon":5.366909,"is_reserved":false,"is_disabled":false,"rental_uris":{"android":"levelo://app?vid=6f67326a-1664-406f-9978-902e013e2357","ios":"levelo://app?vid=6f67326a-1664-406f-9978-902e013e2357"},"vehicle_type_id":"4","last_reported":1703621242,"current_range_meters":30400,"station_id":"ce4bhs92rcd13ifvqi0g","pricing_plan_id":"free"},{"bike_id":"de708f00-7118-4d7c-9021-d7dcbd798473","system_id":"levelo_inurba_marseille","lat":43.328371,"lon":5.366909,"is_reserved":false,"is_disabled":false,"rental_uris":{"android":"levelo://app?vid=de708f00-7118-4d7c-9021-d7dcbd798473","ios":"levelo://app?vid=de708f00-7118-4d7c-9021-d7dcbd798473"},"vehicle_type_id":"4","last_reported":1703621242,"current_range_meters":24000,"station_id":"ce4bhs92rcd13ifvqi0g","pricing_plan_id":"free"},{"bike_id":"904f83aa-e9ab-401d-84c1-9edfed82b884","system_id":"levelo_inurba_marseille","lat":43.328371,"lon":5.366909,"is_reserved":false,"is_disabled":false,"rental_uris":{"android":"levelo://app?vid=904f83aa-e9ab-401d-84c1-9edfed82b884","ios":"levelo://app?vid=904f83aa-e9ab-401d-84c1-9edfed82b884"},"vehicle_type_id":"4","last_reported":1703621242,"current_range_meters":18000,"station_id":"ce4bhs92rcd13ifvqi0g","pricing_plan_id":"free"},{"bike_id":"ea7074d7-b7c9-4941-82c2-dff391bae9cb","system_id":"levelo_inurba_marseille","lat":43.328371,"lon":5.366909,"is_reserved":false,"is_disabled":false,"rental_uris":{"android":"levelo://app?vid=ea7074d7-b7c9-4941-82c2-dff391bae9cb","ios":"levelo://app?vid=ea7074d7-b7c9-4941-82c2-dff391bae9cb"},"vehicle_type_id":"4","last_reported":1703621242,"current_range_meters":22800,"station_id":"ce4bhs92rcd13ifvqi0g","pricing_plan_id":"free"},{"bike_id":"921b424d-ad0d-4c7a-9d74-66e3a49bfa19","system_id":"levelo_inurba_marseille","lat":43.32934,"lon":5.36612,"is_reserved":false,"is_disabled":false,"rental_uris":{"android":"levelo://app?vid=921b424d-ad0d-4c7a-9d74-66e3a49bfa19","ios":"levelo://app?vid=921b424d-ad0d-4c7a-9d74-66e3a49bfa19"},"vehicle_type_id":"4","last_reported":1703621242,"current_range_meters":20000,"station_id":"","pricing_plan_id":"free"},{"bike_id":"5df20435-a963-4a82-812e-bed677a27a9b","system_id":"levelo_inurba_marseille","lat":43.296131,"lon":5.370773,"is_reserved":false,"is_disabled":false,"rental_uris":{"android":"levelo://app?vid=5df20435-a963-4a82-812e-bed677a27a9b","ios":"levelo://app?vid=5df20435-a963-4a82-812e-bed677a27a9b"},"vehicle_type_id":"4","last_reported":1703621242,"current_range_meters":29600,"station_id":"ce4bgnh2rcd13ifvqc0g","pricing_plan_id":"free"},{"bike_id":"d87b0f0f-011f-4d50-a572-b27e4b980b9d","system_id":"levelo_inurba_marseille","lat":43.29573,"lon":5.367355,"is_reserved":false,"is_disabled":false,"rental_uris":{"android":"levelo://app?vid=d87b0f0f-011f-4d50-a572-b27e4b980b9d","ios":"levelo://app?vid=d87b0f0f-011f-4d50-a572-b27e4b980b9d"},"vehicle_type_id":"4","last_reported":1703621242,"current_range_meters":26800,"station_id":"ce4bgph2rcd13ifvqc2g","pricing_plan_id":"free"},{"bike_id":"b83c8fd4-a17a-4b11-9bb1-c71fbbfa6596","system_id":"levelo_inurba_marseille","lat":43.29613,"lon":5.37215,"is_reserved":false,"is_disabled":false,"rental_uris":{"android":"levelo://app?vid=b83c8fd4-a17a-4b11-9bb1-c71fbbfa6596","ios":"levelo://app?vid=b83c8fd4-a17a-4b11-9bb1-c71fbbfa6596"},"vehicle_type_id":"4","last_reported":1703621242,"current_range_meters":22400,"station_id":"","pricing_plan_id":"free"},{"bike_id":"21bb924c-1bdf-43a2-a6c2-0857ce651fd0","system_id":"levelo_inurba_marseille","lat":43.299028,"lon":5.381509,"is_reserved":false,"is_disabled":false,"rental_uris":{"android":"levelo://app?vid=21bb924c-1bdf-43a2-a6c2-0857ce651fd0","ios":"levelo://app?vid=21bb924c-1bdf-43a2-a6c2-0857ce651fd0"},"vehicle_type_id":"4","last_reported":1703621242,"current_range_meters":29200,"station_id":"ce4bgj12rcd13ifvqbc0","pricing_plan_id":"free"},{"bike_id":"7eb95160-3508-4a71-8804-a76cad02fe58","system_id":"levelo_inurba_marseille","lat":43.296921,"lon":5.376579,"is_reserved":false,"is_disabled":false,"rental_uris":{"android":"levelo://app?vid=7eb95160-3508-4a71-8804-a76cad02fe58","ios":"levelo://app?vid=7eb95160-3508-4a71-8804-a76cad02fe58"},"vehicle_type_id":"4","last_reported":1703621242,"current_range_meters":23200,"station_id":"ce4bgkh2rcd13ifvqbl0","pricing_plan_id":"free"},{"bike_id":"11a450a5-1df3-45ed-90fc-ffc21ef858f6","system_id":"levelo_inurba_marseille","lat":43.30411,"lon":5.38786,"is_reserved":false,"is_disabled":false,"rental_uris":{"android":"levelo://app?vid=11a450a5-1df3-45ed-90fc-ffc21ef858f6","ios":"levelo://app?vid=11a450a5-1df3-45ed-90fc-ffc21ef858f6"},"vehicle_type_id":"4","last_reported":1703621242,"current_range_meters":20000,"station_id":"","pricing_plan_id":"free"},{"bike_id":"14ab3560-2354-4f11-9358-4e47520a0c26","system_id":"levelo_inurba_marseille","lat":43.317557,"lon":5.390173,"is_reserved":false,"is_disabled":false,"rental_uris":{"android":"levelo://app?vid=14ab3560-2354-4f11-9358-4e47520a0c26","ios":"levelo://app?vid=14ab3560-2354-4f11-9358-4e47520a0c26"},"vehicle_type_id":"4","last_reported":1703621242,"current_range_meters":17200,"station_id":"ce4bhqp2rcd13ifvqhng","pricing_plan_id":"free"},{"bike_id":"1674897f-6b79-4348-b8df-58bbd2a04fcd","system_id":"levelo_inurba_marseille","lat":43.317557,"lon":5.390173,"is_reserved":false,"is_disabled":false,"rental_uris":{"android":"levelo://app?vid=1674897f-6b79-4348-b8df-58bbd2a04fcd","ios":"levelo://app?vid=1674897f-6b79-4348-b8df-58bbd2a04fcd"},"vehicle_type_id":"4","last_reported":1703621242,"current_range_meters":22800,"station_id":"ce4bhqp2rcd13ifvqhng","pricing_plan_id":"free"},{"bike_id":"f192d185-78e6-4e96-a92a-a2efd4bee7fc","system_id":"levelo_inurba_marseille","lat":43.317557,"lon":5.390173,"is_reserved":false,"is_disabled":false,"rental_uris":{"android":"levelo://app?vid=f192d185-78e6-4e96-a92a-a2efd4bee7fc","ios":"levelo://app?vid=f192d185-78e6-4e96-a92a-a2efd4bee7fc"},"vehicle_type_id":"4","last_reported":1703621242,"current_range_meters":16000,"station_id":"ce4bhqp2rcd13ifvqhng","pricing_plan_id":"free"},{"bike_id":"d28b5595-c291-460b-b4be-bc10253cff55","system_id":"levelo_inurba_marseille","lat":43.317557,"lon":5.390173,"is_reserved":false,"is_disabled":false,"rental_uris":{"android":"levelo://app?vid=d28b5595-c291-460b-b4be-bc10253cff55","ios":"levelo://app?vid=d28b5595-c291-460b-b4be-bc10253cff55"},"vehicle_type_id":"4","last_reported":1703621242,"current_range_meters":14000,"station_id":"ce4bhqp2rcd13ifvqhng","pricing_plan_id":"free"},{"bike_id":"6630e8ed-1566-484d-9bc5-1cd9908d4453","system_id":"levelo_inurba_marseille","lat":43.317557,"lon":5.390173,"is_reserved":false,"is_disabled":false,"rental_uris":{"android":"levelo://app?vid=6630e8ed-1566-484d-9bc5-1cd9908d4453","ios":"levelo://app?vid=6630e8ed-1566-484d-9bc5-1cd9908d4453"},"vehicle_type_id":"4","last_reported":1703621242,"current_range_meters":31200,"station_id":"ce4bhqp2rcd13ifvqhng","pricing_plan_id":"free"},{"bike_id":"02b31deb-8d27-47bf-bbf0-4ae52b237d44","system_id":"levelo_inurba_marseille","lat":43.317557,"lon":5.390173,"is_reserved":false,"is_disabled":false,"rental_uris":{"android":"levelo://app?vid=02b31deb-8d27-47bf-bbf0-4ae52b237d44","ios":"levelo://app?vid=02b31deb-8d27-47bf-bbf0-4ae52b237d44"},"vehicle_type_id":"4","last_reported":1703621242,"current_range_meters":18400,"station_id":"ce4bhqp2rcd13ifvqhng","pricing_plan_id":"free"},{"bike_id":"de2f3d0f-bb84-4735-b057-a702054ddfa7","system_id":"levelo_inurba_marseille","lat":43.29797,"lon":5.38107,"is_reserved":false,"is_disabled":false,"rental_uris":{"android":"levelo://app?vid=de2f3d0f-bb84-4735-b057-a702054ddfa7","ios":"levelo://app?vid=de2f3d0f-bb84-4735-b057-a702054ddfa7"},"vehicle_type_id":"4","last_reported":1703621242,"current_range_meters":0,"station_id":"ce4bgip2rcd13ifvqbb0","pricing_plan_id":"free"},{"bike_id":"1497aaed-d225-48a3-8b9f-7d3c6fa53228","system_id":"levelo_inurba_marseille","lat":43.304274,"lon":5.388873,"is_reserved":false,"is_disabled":false,"rental_uris":{"android":"levelo://app?vid=1497aaed-d225-48a3-8b9f-7d3c6fa53228","ios":"levelo://app?vid=1497aaed-d225-48a3-8b9f-7d3c6fa53228"},"vehicle_type_id":"4","last_reported":1703621242,"current_range_meters":26400,"station_id":"ce4bgk12rcd13ifvqbi0","pricing_plan_id":"free"},{"bike_id":"541b8871-672f-4f9c-8bb1-1b8581c8bfa7","system_id":"levelo_inurba_marseille","lat":43.304274,"lon":5.388873,"is_reserved":false,"is_disabled":false,"rental_uris":{"android":"levelo://app?vid=541b8871-672f-4f9c-8bb1-1b8581c8bfa7","ios":"levelo://app?vid=541b8871-672f-4f9c-8bb1-1b8581c8bfa7"},"vehicle_type_id":"4","last_reported":1703621242,"current_range_meters":26800,"station_id":"ce4bgk12rcd13ifvqbi0","pricing_plan_id":"free"},{"bike_id":"4f04956c-f64f-4e1b-a719-e99d12eeddb8","system_id":"levelo_inurba_marseille","lat":43.304274,"lon":5.388873,"is_reserved":false,"is_disabled":false,"rental_uris":{"android":"levelo://app?vid=4f04956c-f64f-4e1b-a719-e99d12eeddb8","ios":"levelo://app?vid=4f04956c-f64f-4e1b-a719-e99d12eeddb8"},"vehicle_type_id":"4","last_reported":1703621242,"current_range_meters":20400,"station_id":"ce4bgk12rcd13ifvqbi0","pricing_plan_id":"free"},{"bike_id":"be0c1bd1-5d16-4190-8c9d-35298f681787","system_id":"levelo_inurba_marseille","lat":43.296263,"lon":5.377094,"is_reserved":false,"is_disabled":false,"rental_uris":{"android":"levelo://app?vid=be0c1bd1-5d16-4190-8c9d-35298f681787","ios":"levelo://app?vid=be0c1bd1-5d16-4190-8c9d-35298f681787"},"vehicle_type_id":"4","last_reported":1703621242,"current_range_meters":22000,"station_id":"ce4bgi92rcd13ifvqb90","pricing_plan_id":"free"},{"bike_id":"d0ac6edd-9ae9-4fe4-9b7b-1cb7e7bd22c0","system_id":"levelo_inurba_marseille","lat":43.299724,"lon":5.384848,"is_reserved":false,"is_disabled":false,"rental_uris":{"android":"levelo://app?vid=d0ac6edd-9ae9-4fe4-9b7b-1cb7e7bd22c0","ios":"levelo://app?vid=d0ac6edd-9ae9-4fe4-9b7b-1cb7e7bd22c0"},"vehicle_type_id":"4","last_reported":1703621242,"current_range_meters":11200,"station_id":"ce4bgj92rcd13ifvqbd0","pricing_plan_id":"free"},{"bike_id":"b28037bb-a9f5-4150-8758-7d7f6f529dac","system_id":"levelo_inurba_marseille","lat":43.32367,"lon":5.388836,"is_reserved":false,"is_disabled":false,"rental_uris":{"android":"levelo://app?vid=b28037bb-a9f5-4150-8758-7d7f6f529dac","ios":"levelo://app?vid=b28037bb-a9f5-4150-8758-7d7f6f529dac"},"vehicle_type_id":"4","last_reported":1703621242,"current_range_meters":12400,"station_id":"ce4bhqp2rcd13ifvqhog","pricing_plan_id":"free"},{"bike_id":"ba60a7fd-b6ae-4676-b1e3-1e3a495e619d","system_id":"levelo_inurba_marseille","lat":43.32367,"lon":5.388836,"is_reserved":false,"is_disabled":false,"rental_uris":{"android":"levelo://app?vid=ba60a7fd-b6ae-4676-b1e3-1e3a495e619d","ios":"levelo://app?vid=ba60a7fd-b6ae-4676-b1e3-1e3a495e619d"},"vehicle_type_id":"4","last_reported":1703621242,"current_range_meters":16000,"station_id":"ce4bhqp2rcd13ifvqhog","pricing_plan_id":"free"},{"bike_id":"1f490a88-c0c6-4e08-9853-b79b8ffa03a6","system_id":"levelo_inurba_marseille","lat":43.32367,"lon":5.38879,"is_reserved":false,"is_disabled":false,"rental_uris":{"android":"levelo://app?vid=1f490a88-c0c6-4e08-9853-b79b8ffa03a6","ios":"levelo://app?vid=1f490a88-c0c6-4e08-9853-b79b8ffa03a6"},"vehicle_type_id":"4","last_reported":1703621242,"current_range_meters":18000,"station_id":"ce4bhqp2rcd13ifvqhog","pricing_plan_id":"free"},{"bike_id":"6229a11e-67ff-4128-994f-a106996e1234","system_id":"levelo_inurba_marseille","lat":43.32367,"lon":5.388836,"is_reserved":false,"is_disabled":false,"rental_uris":{"android":"levelo://app?vid=6229a11e-67ff-4128-994f-a106996e1234","ios":"levelo://app?vid=6229a11e-67ff-4128-994f-a106996e1234"},"vehicle_type_id":"4","last_reported":1703621242,"current_range_meters":6800,"station_id":"ce4bhqp2rcd13ifvqhog","pricing_plan_id":"free"},{"bike_id":"0aeff03b-c088-4633-a9b9-ca0ac8a59c2c","system_id":"levelo_inurba_marseille","lat":43.32375,"lon":5.38878,"is_reserved":false,"is_disabled":false,"rental_uris":{"android":"levelo://app?vid=0aeff03b-c088-4633-a9b9-ca0ac8a59c2c","ios":"levelo://app?vid=0aeff03b-c088-4633-a9b9-ca0ac8a59c2c"},"vehicle_type_id":"4","last_reported":1703621242,"current_range_meters":4800,"station_id":"ce4bhqp2rcd13ifvqhog","pricing_plan_id":"free"},{"bike_id":"6e952da2-48ad-4943-be6f-346090bddc41","system_id":"levelo_inurba_marseille","lat":43.29602,"lon":5.381084,"is_reserved":false,"is_disabled":false,"rental_uris":{"android":"levelo://app?vid=6e952da2-48ad-4943-be6f-346090bddc41","ios":"levelo://app?vid=6e952da2-48ad-4943-be6f-346090bddc41"},"vehicle_type_id":"4","last_reported":1703621242,"current_range_meters":26800,"station_id":"ce4bgl12rcd13ifvqbo0","pricing_plan_id":"free"},{"bike_id":"743e5348-3370-4500-9620-24474e1c431c","system_id":"levelo_inurba_marseille","lat":43.29602,"lon":5.381084,"is_reserved":false,"is_disabled":false,"rental_uris":{"android":"levelo://app?vid=743e5348-3370-4500-9620-24474e1c431c","ios":"levelo://app?vid=743e5348-3370-4500-9620-24474e1c431c"},"vehicle_type_id":"4","last_reported":1703621242,"current_range_meters":10800,"station_id":"ce4bgl12rcd13ifvqbo0","pricing_plan_id":"free"},{"bike_id":"c7a02207-ff11-4e58-9d79-aae3b59c6d1e","system_id":"levelo_inurba_marseille","lat":43.293009,"lon":5.374584,"is_reserved":false,"is_disabled":false,"rental_uris":{"android":"levelo://app?vid=c7a02207-ff11-4e58-9d79-aae3b59c6d1e","ios":"levelo://app?vid=c7a02207-ff11-4e58-9d79-aae3b59c6d1e"},"vehicle_type_id":"4","last_reported":1703621242,"current_range_meters":27200,"station_id":"ce4bgi12rcd13ifvqb70","pricing_plan_id":"free"},{"bike_id":"07c2a101-4d07-470d-b92a-3de9ba80b0a0","system_id":"levelo_inurba_marseille","lat":43.305994,"lon":5.393687,"is_reserved":false,"is_disabled":false,"rental_uris":{"android":"levelo://app?vid=07c2a101-4d07-470d-b92a-3de9ba80b0a0","ios":"levelo://app?vid=07c2a101-4d07-470d-b92a-3de9ba80b0a0"},"vehicle_type_id":"4","last_reported":1703621242,"current_range_meters":29600,"station_id":"ce4bh0p2rcd13ifvqd80","pricing_plan_id":"free"},{"bike_id":"5040e064-09bc-40cc-b0d8-e738004c131c","system_id":"levelo_inurba_marseille","lat":43.303002,"lon":5.392142,"is_reserved":false,"is_disabled":false,"rental_uris":{"android":"levelo://app?vid=5040e064-09bc-40cc-b0d8-e738004c131c","ios":"levelo://app?vid=5040e064-09bc-40cc-b0d8-e738004c131c"},"vehicle_type_id":"4","last_reported":1703621242,"current_range_meters":17600,"station_id":"ce4bgkh2rcd13ifvqbk0","pricing_plan_id":"free"},{"bike_id":"24dc201a-0176-4847-9ecb-1e1b983ff550","system_id":"levelo_inurba_marseille","lat":43.2936,"lon":5.37835,"is_reserved":false,"is_disabled":false,"rental_uris":{"android":"levelo://app?vid=24dc201a-0176-4847-9ecb-1e1b983ff550","ios":"levelo://app?vid=24dc201a-0176-4847-9ecb-1e1b983ff550"},"vehicle_type_id":"4","last_reported":1703621242,"current_range_meters":27600,"station_id":"ce4bgjh2rcd13ifvqbf0","pricing_plan_id":"free"},{"bike_id":"8a3dedcb-a47f-4b5b-952c-beb123a987f0","system_id":"levelo_inurba_marseille","lat":43.292311,"lon":5.360731,"is_reserved":false,"is_disabled":false,"rental_uris":{"android":"levelo://app?vid=8a3dedcb-a47f-4b5b-952c-beb123a987f0","ios":"levelo://app?vid=8a3dedcb-a47f-4b5b-952c-beb123a987f0"},"vehicle_type_id":"4","last_reported":1703621242,"current_range_meters":30000,"station_id":"ce4bhbh2rcd13ifvqeqg","pricing_plan_id":"free"},{"bike_id":"ab21644d-9424-410a-ac57-5021452a1250","system_id":"levelo_inurba_marseille","lat":43.300852,"lon":5.390859,"is_reserved":false,"is_disabled":false,"rental_uris":{"android":"levelo://app?vid=ab21644d-9424-410a-ac57-5021452a1250","ios":"levelo://app?vid=ab21644d-9424-410a-ac57-5021452a1250"},"vehicle_type_id":"4","last_reported":1703621242,"current_range_meters":26400,"station_id":"ce4bh192rcd13ifvqdb0","pricing_plan_id":"free"},{"bike_id":"75afdb1b-bdb7-4519-926c-1bb317741ca8","system_id":"levelo_inurba_marseille","lat":43.2936,"lon":5.37835,"is_reserved":false,"is_disabled":false,"rental_uris":{"android":"levelo://app?vid=75afdb1b-bdb7-4519-926c-1bb317741ca8","ios":"levelo://app?vid=75afdb1b-bdb7-4519-926c-1bb317741ca8"},"vehicle_type_id":"4","last_reported":1703621242,"current_range_meters":16800,"station_id":"ce4bgjh2rcd13ifvqbf0","pricing_plan_id":"free"},{"bike_id":"247b6e4f-62f7-4cfb-9c57-8f0d14286b5f","system_id":"levelo_inurba_marseille","lat":43.297794,"lon":5.370888,"is_reserved":false,"is_disabled":false,"rental_uris":{"android":"levelo://app?vid=247b6e4f-62f7-4cfb-9c57-8f0d14286b5f","ios":"levelo://app?vid=247b6e4f-62f7-4cfb-9c57-8f0d14286b5f"},"vehicle_type_id":"4","last_reported":1703621242,"current_range_meters":9600,"station_id":"ce4bgop2rcd13ifvqc1g","pricing_plan_id":"free"},{"bike_id":"3bb8d376-dbd2-41c8-81d7-29c11ff68e70","system_id":"levelo_inurba_marseille","lat":43.298725,"lon":5.389017,"is_reserved":false,"is_disabled":false,"rental_uris":{"android":"levelo://app?vid=3bb8d376-dbd2-41c8-81d7-29c11ff68e70","ios":"levelo://app?vid=3bb8d376-dbd2-41c8-81d7-29c11ff68e70"},"vehicle_type_id":"4","last_reported":1703621242,"current_range_meters":19600,"station_id":"","pricing_plan_id":"free"},{"bike_id":"c8c356bf-163b-41f9-8cb0-b59dc7b254c4","system_id":"levelo_inurba_marseille","lat":43.291671,"lon":5.371575,"is_reserved":false,"is_disabled":false,"rental_uris":{"android":"levelo://app?vid=c8c356bf-163b-41f9-8cb0-b59dc7b254c4","ios":"levelo://app?vid=c8c356bf-163b-41f9-8cb0-b59dc7b254c4"},"vehicle_type_id":"4","last_reported":1703621242,"current_range_meters":18800,"station_id":"ce4bha92rcd13ifvqeh0","pricing_plan_id":"free"},{"bike_id":"f8ad87fb-faf9-4310-8434-bc415fdf4816","system_id":"levelo_inurba_marseille","lat":43.298661,"lon":5.389086,"is_reserved":false,"is_disabled":false,"rental_uris":{"android":"levelo://app?vid=f8ad87fb-faf9-4310-8434-bc415fdf4816","ios":"levelo://app?vid=f8ad87fb-faf9-4310-8434-bc415fdf4816"},"vehicle_type_id":"4","last_reported":1703621242,"current_range_meters":21200,"station_id":"","pricing_plan_id":"free"},{"bike_id":"83da56ef-c98e-4a29-9845-cefd5b085f83","system_id":"levelo_inurba_marseille","lat":43.309038,"lon":5.396546,"is_reserved":false,"is_disabled":false,"rental_uris":{"android":"levelo://app?vid=83da56ef-c98e-4a29-9845-cefd5b085f83","ios":"levelo://app?vid=83da56ef-c98e-4a29-9845-cefd5b085f83"},"vehicle_type_id":"4","last_reported":1703621242,"current_range_meters":31200,"station_id":"ce4bh012rcd13ifvqcv0","pricing_plan_id":"free"},{"bike_id":"dce5a95d-3708-473f-b69d-a5b6db17ba84","system_id":"levelo_inurba_marseille","lat":43.309047,"lon":5.396551,"is_reserved":false,"is_disabled":false,"rental_uris":{"android":"levelo://app?vid=dce5a95d-3708-473f-b69d-a5b6db17ba84","ios":"levelo://app?vid=dce5a95d-3708-473f-b69d-a5b6db17ba84"},"vehicle_type_id":"4","last_reported":1703621242,"current_range_meters":8000,"station_id":"ce4bh012rcd13ifvqcv0","pricing_plan_id":"free"},{"bike_id":"c45e1210-13e4-4afa-9226-9ab93dc1e814","system_id":"levelo_inurba_marseille","lat":43.309038,"lon":5.396546,"is_reserved":false,"is_disabled":false,"rental_uris":{"android":"levelo://app?vid=c45e1210-13e4-4afa-9226-9ab93dc1e814","ios":"levelo://app?vid=c45e1210-13e4-4afa-9226-9ab93dc1e814"},"vehicle_type_id":"4","last_reported":1703621242,"current_range_meters":28000,"station_id":"ce4bh012rcd13ifvqcv0","pricing_plan_id":"free"},{"bike_id":"94113dfe-1841-4eb4-a206-dfb275cb371b","system_id":"levelo_inurba_marseille","lat":43.309047,"lon":5.396551,"is_reserved":false,"is_disabled":false,"rental_uris":{"android":"levelo://app?vid=94113dfe-1841-4eb4-a206-dfb275cb371b","ios":"levelo://app?vid=94113dfe-1841-4eb4-a206-dfb275cb371b"},"vehicle_type_id":"4","last_reported":1703621242,"current_range_meters":28800,"station_id":"ce4bh012rcd13ifvqcv0","pricing_plan_id":"free"},{"bike_id":"6f29375d-7942-46ea-b9d4-225799a47ccd","system_id":"levelo_inurba_marseille","lat":43.309038,"lon":5.396546,"is_reserved":false,"is_disabled":false,"rental_uris":{"android":"levelo://app?vid=6f29375d-7942-46ea-b9d4-225799a47ccd","ios":"levelo://app?vid=6f29375d-7942-46ea-b9d4-225799a47ccd"},"vehicle_type_id":"4","last_reported":1703621242,"current_range_meters":14000,"station_id":"ce4bh012rcd13ifvqcv0","pricing_plan_id":"free"},{"bike_id":"9ac3d446-5ebd-44be-b20a-21849522d3f5","system_id":"levelo_inurba_marseille","lat":43.309047,"lon":5.396551,"is_reserved":false,"is_disabled":false,"rental_uris":{"android":"levelo://app?vid=9ac3d446-5ebd-44be-b20a-21849522d3f5","ios":"levelo://app?vid=9ac3d446-5ebd-44be-b20a-21849522d3f5"},"vehicle_type_id":"4","last_reported":1703621242,"current_range_meters":16000,"station_id":"ce4bh012rcd13ifvqcv0","pricing_plan_id":"free"},{"bike_id":"0aa5d323-407a-4d75-a8e9-b77fe5e8bf6e","system_id":"levelo_inurba_marseille","lat":43.29529,"lon":5.385581,"is_reserved":false,"is_disabled":false,"rental_uris":{"android":"levelo://app?vid=0aa5d323-407a-4d75-a8e9-b77fe5e8bf6e","ios":"levelo://app?vid=0aa5d323-407a-4d75-a8e9-b77fe5e8bf6e"},"vehicle_type_id":"4","last_reported":1703621242,"current_range_meters":10400,"station_id":"ce4bgih2rcd13ifvqba0","pricing_plan_id":"free"},{"bike_id":"9114c455-379e-4c38-93d4-c0929a71d731","system_id":"levelo_inurba_marseille","lat":43.29529,"lon":5.385581,"is_reserved":false,"is_disabled":false,"rental_uris":{"android":"levelo://app?vid=9114c455-379e-4c38-93d4-c0929a71d731","ios":"levelo://app?vid=9114c455-379e-4c38-93d4-c0929a71d731"},"vehicle_type_id":"4","last_reported":1703621242,"current_range_meters":4800,"station_id":"ce4bgih2rcd13ifvqba0","pricing_plan_id":"free"},{"bike_id":"b406cc4a-93b3-4ffc-a76d-1a0bc4b380d7","system_id":"levelo_inurba_marseille","lat":43.29529,"lon":5.385581,"is_reserved":false,"is_disabled":false,"rental_uris":{"android":"levelo://app?vid=b406cc4a-93b3-4ffc-a76d-1a0bc4b380d7","ios":"levelo://app?vid=b406cc4a-93b3-4ffc-a76d-1a0bc4b380d7"},"vehicle_type_id":"4","last_reported":1703621242,"current_range_meters":7200,"station_id":"ce4bgih2rcd13ifvqba0","pricing_plan_id":"free"},{"bike_id":"37aa2ace-07a4-4393-888a-98e42e1ffc78","system_id":"levelo_inurba_marseille","lat":43.29529,"lon":5.385581,"is_reserved":false,"is_disabled":false,"rental_uris":{"android":"levelo://app?vid=37aa2ace-07a4-4393-888a-98e42e1ffc78","ios":"levelo://app?vid=37aa2ace-07a4-4393-888a-98e42e1ffc78"},"vehicle_type_id":"4","last_reported":1703621242,"current_range_meters":31600,"station_id":"ce4bgih2rcd13ifvqba0","pricing_plan_id":"free"},{"bike_id":"abca5585-8772-4df7-8a52-bfa81147501b","system_id":"levelo_inurba_marseille","lat":43.29529,"lon":5.385581,"is_reserved":false,"is_disabled":false,"rental_uris":{"android":"levelo://app?vid=abca5585-8772-4df7-8a52-bfa81147501b","ios":"levelo://app?vid=abca5585-8772-4df7-8a52-bfa81147501b"},"vehicle_type_id":"4","last_reported":1703621242,"current_range_meters":14400,"station_id":"ce4bgih2rcd13ifvqba0","pricing_plan_id":"free"},{"bike_id":"7b76e13c-3849-45cc-8a43-2b23ce1c1f94","system_id":"levelo_inurba_marseille","lat":43.290779,"lon":5.371482,"is_reserved":false,"is_disabled":false,"rental_uris":{"android":"levelo://app?vid=7b76e13c-3849-45cc-8a43-2b23ce1c1f94","ios":"levelo://app?vid=7b76e13c-3849-45cc-8a43-2b23ce1c1f94"},"vehicle_type_id":"4","last_reported":1703621242,"current_range_meters":30000,"station_id":"ce4bh5p2rcd13ifvqe4g","pricing_plan_id":"free"},{"bike_id":"b661a9f5-3549-44d0-accf-3b270df0df9b","system_id":"levelo_inurba_marseille","lat":43.290779,"lon":5.371482,"is_reserved":false,"is_disabled":false,"rental_uris":{"android":"levelo://app?vid=b661a9f5-3549-44d0-accf-3b270df0df9b","ios":"levelo://app?vid=b661a9f5-3549-44d0-accf-3b270df0df9b"},"vehicle_type_id":"4","last_reported":1703621242,"current_range_meters":25200,"station_id":"ce4bh5p2rcd13ifvqe4g","pricing_plan_id":"free"},{"bike_id":"1e5cf9c4-c357-4519-81a8-055640605e8f","system_id":"levelo_inurba_marseille","lat":43.290779,"lon":5.371482,"is_reserved":false,"is_disabled":false,"rental_uris":{"android":"levelo://app?vid=1e5cf9c4-c357-4519-81a8-055640605e8f","ios":"levelo://app?vid=1e5cf9c4-c357-4519-81a8-055640605e8f"},"vehicle_type_id":"4","last_reported":1703621242,"current_range_meters":27200,"station_id":"ce4bh5p2rcd13ifvqe4g","pricing_plan_id":"free"},{"bike_id":"2383e45b-d3e4-417b-919e-42dabd7f68d8","system_id":"levelo_inurba_marseille","lat":43.290779,"lon":5.371482,"is_reserved":false,"is_disabled":false,"rental_uris":{"android":"levelo://app?vid=2383e45b-d3e4-417b-919e-42dabd7f68d8","ios":"levelo://app?vid=2383e45b-d3e4-417b-919e-42dabd7f68d8"},"vehicle_type_id":"4","last_reported":1703621242,"current_range_meters":24400,"station_id":"ce4bh5p2rcd13ifvqe4g","pricing_plan_id":"free"},{"bike_id":"f02e4c69-774a-4070-9c8a-6992a383f7a2","system_id":"levelo_inurba_marseille","lat":43.290779,"lon":5.371482,"is_reserved":false,"is_disabled":false,"rental_uris":{"android":"levelo://app?vid=f02e4c69-774a-4070-9c8a-6992a383f7a2","ios":"levelo://app?vid=f02e4c69-774a-4070-9c8a-6992a383f7a2"},"vehicle_type_id":"4","last_reported":1703621242,"current_range_meters":8000,"station_id":"ce4bh5p2rcd13ifvqe4g","pricing_plan_id":"free"},{"bike_id":"12a53069-04ef-44f7-b78a-b77c9e0fcbba","system_id":"levelo_inurba_marseille","lat":43.302008,"lon":5.394694,"is_reserved":false,"is_disabled":false,"rental_uris":{"android":"levelo://app?vid=12a53069-04ef-44f7-b78a-b77c9e0fcbba","ios":"levelo://app?vid=12a53069-04ef-44f7-b78a-b77c9e0fcbba"},"vehicle_type_id":"4","last_reported":1703621242,"current_range_meters":15600,"station_id":"ce4bh0p2rcd13ifvqd70","pricing_plan_id":"free"},{"bike_id":"7cc2ae08-16ed-4643-83b3-4bb950f32f6b","system_id":"levelo_inurba_marseille","lat":43.290631,"lon":5.359244,"is_reserved":false,"is_disabled":false,"rental_uris":{"android":"levelo://app?vid=7cc2ae08-16ed-4643-83b3-4bb950f32f6b","ios":"levelo://app?vid=7cc2ae08-16ed-4643-83b3-4bb950f32f6b"},"vehicle_type_id":"4","last_reported":1703621242,"current_range_meters":0,"station_id":"ce4bha92rcd13ifvqeg0","pricing_plan_id":"free"},{"bike_id":"e8993941-c0bb-4dd1-8dc2-1ed268351c26","system_id":"levelo_inurba_marseille","lat":43.290631,"lon":5.359244,"is_reserved":false,"is_disabled":false,"rental_uris":{"android":"levelo://app?vid=e8993941-c0bb-4dd1-8dc2-1ed268351c26","ios":"levelo://app?vid=e8993941-c0bb-4dd1-8dc2-1ed268351c26"},"vehicle_type_id":"4","last_reported":1703621242,"current_range_meters":20000,"station_id":"ce4bha92rcd13ifvqeg0","pricing_plan_id":"free"},{"bike_id":"16387516-36c0-4864-8f6c-3e9035f7855e","system_id":"levelo_inurba_marseille","lat":43.290327,"lon":5.375711,"is_reserved":false,"is_disabled":false,"rental_uris":{"android":"levelo://app?vid=16387516-36c0-4864-8f6c-3e9035f7855e","ios":"levelo://app?vid=16387516-36c0-4864-8f6c-3e9035f7855e"},"vehicle_type_id":"4","last_reported":1703621242,"current_range_meters":26000,"station_id":"ce4bh692rcd13ifvqe90","pricing_plan_id":"free"},{"bike_id":"4b01aa01-7c79-414f-8b83-fe6d525111c0","system_id":"levelo_inurba_marseille","lat":43.294153,"lon":5.386305,"is_reserved":false,"is_disabled":false,"rental_uris":{"android":"levelo://app?vid=4b01aa01-7c79-414f-8b83-fe6d525111c0","ios":"levelo://app?vid=4b01aa01-7c79-414f-8b83-fe6d525111c0"},"vehicle_type_id":"4","last_reported":1703621242,"current_range_meters":11600,"station_id":"ce4bh2h2rcd13ifvqdh0","pricing_plan_id":"free"},{"bike_id":"e3542953-4022-4a32-a0e2-1a23f2a8be9b","system_id":"levelo_inurba_marseille","lat":43.29418,"lon":5.38625,"is_reserved":false,"is_disabled":false,"rental_uris":{"android":"levelo://app?vid=e3542953-4022-4a32-a0e2-1a23f2a8be9b","ios":"levelo://app?vid=e3542953-4022-4a32-a0e2-1a23f2a8be9b"},"vehicle_type_id":"4","last_reported":1703621242,"current_range_meters":19200,"station_id":"ce4bh2h2rcd13ifvqdh0","pricing_plan_id":"free"},{"bike_id":"6d4532a3-ee0d-45af-abbb-94b9d8de78d9","system_id":"levelo_inurba_marseille","lat":43.29415,"lon":5.38627,"is_reserved":false,"is_disabled":false,"rental_uris":{"android":"levelo://app?vid=6d4532a3-ee0d-45af-abbb-94b9d8de78d9","ios":"levelo://app?vid=6d4532a3-ee0d-45af-abbb-94b9d8de78d9"},"vehicle_type_id":"4","last_reported":1703621242,"current_range_meters":3600,"station_id":"ce4bh2h2rcd13ifvqdh0","pricing_plan_id":"free"},{"bike_id":"9d70b7f5-6e57-42b1-b79c-a82c59f17725","system_id":"levelo_inurba_marseille","lat":43.289468,"lon":5.363719,"is_reserved":false,"is_disabled":false,"rental_uris":{"android":"levelo://app?vid=9d70b7f5-6e57-42b1-b79c-a82c59f17725","ios":"levelo://app?vid=9d70b7f5-6e57-42b1-b79c-a82c59f17725"},"vehicle_type_id":"4","last_reported":1703621242,"current_range_meters":23600,"station_id":"ce4bhc92rcd13ifvqetg","pricing_plan_id":"free"},{"bike_id":"8fc6dc51-1558-4258-8a5f-ce0063fbbaa3","system_id":"levelo_inurba_marseille","lat":43.289468,"lon":5.363719,"is_reserved":false,"is_disabled":false,"rental_uris":{"android":"levelo://app?vid=8fc6dc51-1558-4258-8a5f-ce0063fbbaa3","ios":"levelo://app?vid=8fc6dc51-1558-4258-8a5f-ce0063fbbaa3"},"vehicle_type_id":"4","last_reported":1703621242,"current_range_meters":30400,"station_id":"ce4bhc92rcd13ifvqetg","pricing_plan_id":"free"},{"bike_id":"bda2865d-b873-4ec2-b238-bcafb1efddd4","system_id":"levelo_inurba_marseille","lat":43.304274,"lon":5.397513,"is_reserved":false,"is_disabled":false,"rental_uris":{"android":"levelo://app?vid=bda2865d-b873-4ec2-b238-bcafb1efddd4","ios":"levelo://app?vid=bda2865d-b873-4ec2-b238-bcafb1efddd4"},"vehicle_type_id":"4","last_reported":1703621242,"current_range_meters":16400,"station_id":"ce4bh092rcd13ifvqd20","pricing_plan_id":"free"},{"bike_id":"0a5283ad-c1e3-4154-8926-97ef69636c54","system_id":"levelo_inurba_marseille","lat":43.290995,"lon":5.381361,"is_reserved":false,"is_disabled":false,"rental_uris":{"android":"levelo://app?vid=0a5283ad-c1e3-4154-8926-97ef69636c54","ios":"levelo://app?vid=0a5283ad-c1e3-4154-8926-97ef69636c54"},"vehicle_type_id":"4","last_reported":1703621242,"current_range_meters":14400,"station_id":"ce4bh512rcd13ifvqe2g","pricing_plan_id":"free"},{"bike_id":"d40c84ca-6ac7-43a3-a05e-0754c369c109","system_id":"levelo_inurba_marseille","lat":43.295169,"lon":5.390426,"is_reserved":false,"is_disabled":false,"rental_uris":{"android":"levelo://app?vid=d40c84ca-6ac7-43a3-a05e-0754c369c109","ios":"levelo://app?vid=d40c84ca-6ac7-43a3-a05e-0754c369c109"},"vehicle_type_id":"4","last_reported":1703621242,"current_range_meters":18400,"station_id":"ce4bh3p2rcd13ifvqdp0","pricing_plan_id":"free"},{"bike_id":"5d94fdb3-fca3-4009-9e79-b425b7366543","system_id":"levelo_inurba_marseille","lat":43.295169,"lon":5.390426,"is_reserved":false,"is_disabled":false,"rental_uris":{"android":"levelo://app?vid=5d94fdb3-fca3-4009-9e79-b425b7366543","ios":"levelo://app?vid=5d94fdb3-fca3-4009-9e79-b425b7366543"},"vehicle_type_id":"4","last_reported":1703621242,"current_range_meters":27200,"station_id":"ce4bh3p2rcd13ifvqdp0","pricing_plan_id":"free"},{"bike_id":"dc0ccc7c-ba1b-4cde-b242-23dbe62099b9","system_id":"levelo_inurba_marseille","lat":43.295169,"lon":5.390426,"is_reserved":false,"is_disabled":false,"rental_uris":{"android":"levelo://app?vid=dc0ccc7c-ba1b-4cde-b242-23dbe62099b9","ios":"levelo://app?vid=dc0ccc7c-ba1b-4cde-b242-23dbe62099b9"},"vehicle_type_id":"4","last_reported":1703621242,"current_range_meters":29600,"station_id":"ce4bh3p2rcd13ifvqdp0","pricing_plan_id":"free"},{"bike_id":"79cb188f-f44d-4894-b8d8-ba585adda99c","system_id":"levelo_inurba_marseille","lat":43.330442,"lon":5.389148,"is_reserved":false,"is_disabled":false,"rental_uris":{"android":"levelo://app?vid=79cb188f-f44d-4894-b8d8-ba585adda99c","ios":"levelo://app?vid=79cb188f-f44d-4894-b8d8-ba585adda99c"},"vehicle_type_id":"4","last_reported":1703621242,"current_range_meters":0,"station_id":"ce4bhr92rcd13ifvqhrg","pricing_plan_id":"free"},{"bike_id":"495faf64-a935-4c6e-b77f-2b296d14493a","system_id":"levelo_inurba_marseille","lat":43.331017,"lon":5.389194,"is_reserved":false,"is_disabled":false,"rental_uris":{"android":"levelo://app?vid=495faf64-a935-4c6e-b77f-2b296d14493a","ios":"levelo://app?vid=495faf64-a935-4c6e-b77f-2b296d14493a"},"vehicle_type_id":"4","last_reported":1703621242,"current_range_meters":19600,"station_id":"","pricing_plan_id":"free"},{"bike_id":"f3c63c7b-09e2-4734-8986-14ad4d133994","system_id":"levelo_inurba_marseille","lat":43.33018,"lon":5.39043,"is_reserved":false,"is_disabled":false,"rental_uris":{"android":"levelo://app?vid=f3c63c7b-09e2-4734-8986-14ad4d133994","ios":"levelo://app?vid=f3c63c7b-09e2-4734-8986-14ad4d133994"},"vehicle_type_id":"4","last_reported":1703621242,"current_range_meters":10000,"station_id":"","pricing_plan_id":"free"},{"bike_id":"18ec1453-63e5-4b22-a54e-20e51e1a0d8d","system_id":"levelo_inurba_marseille","lat":43.33019,"lon":5.39043,"is_reserved":false,"is_disabled":false,"rental_uris":{"android":"levelo://app?vid=18ec1453-63e5-4b22-a54e-20e51e1a0d8d","ios":"levelo://app?vid=18ec1453-63e5-4b22-a54e-20e51e1a0d8d"},"vehicle_type_id":"4","last_reported":1703621242,"current_range_meters":19200,"station_id":"","pricing_plan_id":"free"},{"bike_id":"58552a59-a61c-4841-aa0c-f5d0e8a77749","system_id":"levelo_inurba_marseille","lat":43.295169,"lon":5.390426,"is_reserved":false,"is_disabled":false,"rental_uris":{"android":"levelo://app?vid=58552a59-a61c-4841-aa0c-f5d0e8a77749","ios":"levelo://app?vid=58552a59-a61c-4841-aa0c-f5d0e8a77749"},"vehicle_type_id":"4","last_reported":1703621242,"current_range_meters":4000,"station_id":"ce4bh3p2rcd13ifvqdp0","pricing_plan_id":"free"},{"bike_id":"56ad788c-7021-4c9f-ad08-982d35fc1bfa","system_id":"levelo_inurba_marseille","lat":43.295169,"lon":5.390426,"is_reserved":false,"is_disabled":false,"rental_uris":{"android":"levelo://app?vid=56ad788c-7021-4c9f-ad08-982d35fc1bfa","ios":"levelo://app?vid=56ad788c-7021-4c9f-ad08-982d35fc1bfa"},"vehicle_type_id":"4","last_reported":1703621242,"current_range_meters":25200,"station_id":"ce4bh3p2rcd13ifvqdp0","pricing_plan_id":"free"},{"bike_id":"01eec893-cb22-47ea-ba6f-18aee64380c7","system_id":"levelo_inurba_marseille","lat":43.330337,"lon":5.390887,"is_reserved":false,"is_disabled":false,"rental_uris":{"android":"levelo://app?vid=01eec893-cb22-47ea-ba6f-18aee64380c7","ios":"levelo://app?vid=01eec893-cb22-47ea-ba6f-18aee64380c7"},"vehicle_type_id":"4","last_reported":1703621242,"current_range_meters":8400,"station_id":"","pricing_plan_id":"free"},{"bike_id":"7a543b19-90cd-4a87-b80d-37f423d89307","system_id":"levelo_inurba_marseille","lat":43.33035,"lon":5.391265,"is_reserved":false,"is_disabled":false,"rental_uris":{"android":"levelo://app?vid=7a543b19-90cd-4a87-b80d-37f423d89307","ios":"levelo://app?vid=7a543b19-90cd-4a87-b80d-37f423d89307"},"vehicle_type_id":"4","last_reported":1703621242,"current_range_meters":7200,"station_id":"","pricing_plan_id":"free"},{"bike_id":"cd5fd400-a29e-4902-962a-4d43e6e03f56","system_id":"levelo_inurba_marseille","lat":43.28856,"lon":5.358371,"is_reserved":false,"is_disabled":false,"rental_uris":{"android":"levelo://app?vid=cd5fd400-a29e-4902-962a-4d43e6e03f56","ios":"levelo://app?vid=cd5fd400-a29e-4902-962a-4d43e6e03f56"},"vehicle_type_id":"4","last_reported":1703621242,"current_range_meters":0,"station_id":"ce4bhb12rcd13ifvqem0","pricing_plan_id":"free"},{"bike_id":"eb72e6e2-2555-4c83-9a0b-0b7f6df4c805","system_id":"levelo_inurba_marseille","lat":43.312609,"lon":5.401662,"is_reserved":false,"is_disabled":false,"rental_uris":{"android":"levelo://app?vid=eb72e6e2-2555-4c83-9a0b-0b7f6df4c805","ios":"levelo://app?vid=eb72e6e2-2555-4c83-9a0b-0b7f6df4c805"},"vehicle_type_id":"4","last_reported":1703621242,"current_range_meters":22400,"station_id":"ce4bh092rcd13ifvqd30","pricing_plan_id":"free"},{"bike_id":"b8ad220d-c11d-4378-a8cf-420aaf9df86f","system_id":"levelo_inurba_marseille","lat":43.3374,"lon":5.37451,"is_reserved":false,"is_disabled":false,"rental_uris":{"android":"levelo://app?vid=b8ad220d-c11d-4378-a8cf-420aaf9df86f","ios":"levelo://app?vid=b8ad220d-c11d-4378-a8cf-420aaf9df86f"},"vehicle_type_id":"4","last_reported":1703621242,"current_range_meters":28800,"station_id":"","pricing_plan_id":"free"},{"bike_id":"e80f0ed0-6a4e-405a-8da1-244c0c09f819","system_id":"levelo_inurba_marseille","lat":43.312609,"lon":5.401662,"is_reserved":false,"is_disabled":false,"rental_uris":{"android":"levelo://app?vid=e80f0ed0-6a4e-405a-8da1-244c0c09f819","ios":"levelo://app?vid=e80f0ed0-6a4e-405a-8da1-244c0c09f819"},"vehicle_type_id":"4","last_reported":1703621242,"current_range_meters":22000,"station_id":"ce4bh092rcd13ifvqd30","pricing_plan_id":"free"},{"bike_id":"6ea70d67-ec7b-4741-9252-48c7c0a9c6bd","system_id":"levelo_inurba_marseille","lat":43.312609,"lon":5.401662,"is_reserved":false,"is_disabled":false,"rental_uris":{"android":"levelo://app?vid=6ea70d67-ec7b-4741-9252-48c7c0a9c6bd","ios":"levelo://app?vid=6ea70d67-ec7b-4741-9252-48c7c0a9c6bd"},"vehicle_type_id":"4","last_reported":1703621242,"current_range_meters":19200,"station_id":"ce4bh092rcd13ifvqd30","pricing_plan_id":"free"},{"bike_id":"ab67d1f4-6ff9-4d42-828d-b35f207922bf","system_id":"levelo_inurba_marseille","lat":43.309248,"lon":5.401378,"is_reserved":false,"is_disabled":false,"rental_uris":{"android":"levelo://app?vid=ab67d1f4-6ff9-4d42-828d-b35f207922bf","ios":"levelo://app?vid=ab67d1f4-6ff9-4d42-828d-b35f207922bf"},"vehicle_type_id":"4","last_reported":1703621242,"current_range_meters":12400,"station_id":"","pricing_plan_id":"free"},{"bike_id":"ebfe6fb4-dca5-4644-983c-b19c6f78c74e","system_id":"levelo_inurba_marseille","lat":43.312609,"lon":5.401662,"is_reserved":false,"is_disabled":false,"rental_uris":{"android":"levelo://app?vid=ebfe6fb4-dca5-4644-983c-b19c6f78c74e","ios":"levelo://app?vid=ebfe6fb4-dca5-4644-983c-b19c6f78c74e"},"vehicle_type_id":"4","last_reported":1703621242,"current_range_meters":18000,"station_id":"ce4bh092rcd13ifvqd30","pricing_plan_id":"free"},{"bike_id":"690eccad-9069-43a9-a974-0f635be67caa","system_id":"levelo_inurba_marseille","lat":43.309371,"lon":5.401449,"is_reserved":false,"is_disabled":false,"rental_uris":{"android":"levelo://app?vid=690eccad-9069-43a9-a974-0f635be67caa","ios":"levelo://app?vid=690eccad-9069-43a9-a974-0f635be67caa"},"vehicle_type_id":"4","last_reported":1703621242,"current_range_meters":22000,"station_id":"ce4bgvp2rcd13ifvqct0","pricing_plan_id":"free"},{"bike_id":"f9d09c26-936d-4f22-b7c5-2b95cbb8da91","system_id":"levelo_inurba_marseille","lat":43.312609,"lon":5.401662,"is_reserved":false,"is_disabled":false,"rental_uris":{"android":"levelo://app?vid=f9d09c26-936d-4f22-b7c5-2b95cbb8da91","ios":"levelo://app?vid=f9d09c26-936d-4f22-b7c5-2b95cbb8da91"},"vehicle_type_id":"4","last_reported":1703621242,"current_range_meters":15200,"station_id":"ce4bh092rcd13ifvqd30","pricing_plan_id":"free"},{"bike_id":"bfea4373-68d7-4ffc-884c-d7e273317940","system_id":"levelo_inurba_marseille","lat":43.30931,"lon":5.401467,"is_reserved":false,"is_disabled":false,"rental_uris":{"android":"levelo://app?vid=bfea4373-68d7-4ffc-884c-d7e273317940","ios":"levelo://app?vid=bfea4373-68d7-4ffc-884c-d7e273317940"},"vehicle_type_id":"4","last_reported":1703621242,"current_range_meters":23200,"station_id":"ce4bgvp2rcd13ifvqct0","pricing_plan_id":"free"},{"bike_id":"82e63813-1898-472f-9b60-5596423b9d95","system_id":"levelo_inurba_marseille","lat":43.33754,"lon":5.37456,"is_reserved":false,"is_disabled":false,"rental_uris":{"android":"levelo://app?vid=82e63813-1898-472f-9b60-5596423b9d95","ios":"levelo://app?vid=82e63813-1898-472f-9b60-5596423b9d95"},"vehicle_type_id":"4","last_reported":1703621242,"current_range_meters":23600,"station_id":"","pricing_plan_id":"free"},{"bike_id":"e8333dc6-0a00-4918-9bf4-210e7c543756","system_id":"levelo_inurba_marseille","lat":43.306412,"lon":5.401035,"is_reserved":false,"is_disabled":false,"rental_uris":{"android":"levelo://app?vid=e8333dc6-0a00-4918-9bf4-210e7c543756","ios":"levelo://app?vid=e8333dc6-0a00-4918-9bf4-210e7c543756"},"vehicle_type_id":"4","last_reported":1703621242,"current_range_meters":30400,"station_id":"ce4bh112rcd13ifvqda0","pricing_plan_id":"free"},{"bike_id":"088eacfa-022a-45c3-be1f-39a115813f60","system_id":"levelo_inurba_marseille","lat":43.306412,"lon":5.401035,"is_reserved":false,"is_disabled":false,"rental_uris":{"android":"levelo://app?vid=088eacfa-022a-45c3-be1f-39a115813f60","ios":"levelo://app?vid=088eacfa-022a-45c3-be1f-39a115813f60"},"vehicle_type_id":"4","last_reported":1703621242,"current_range_meters":31200,"station_id":"ce4bh112rcd13ifvqda0","pricing_plan_id":"free"},{"bike_id":"990249c1-31d5-4323-86fa-d90df9a357b6","system_id":"levelo_inurba_marseille","lat":43.299028,"lon":5.381509,"is_reserved":false,"is_disabled":false,"rental_uris":{"android":"levelo://app?vid=990249c1-31d5-4323-86fa-d90df9a357b6","ios":"levelo://app?vid=990249c1-31d5-4323-86fa-d90df9a357b6"},"vehicle_type_id":"4","last_reported":1703621242,"current_range_meters":26800,"station_id":"ce4bgj12rcd13ifvqbc0","pricing_plan_id":"free"},{"bike_id":"b188ea05-75d2-48e4-9a1d-c00cacf47457","system_id":"levelo_inurba_marseille","lat":43.337627,"lon":5.374439,"is_reserved":false,"is_disabled":false,"rental_uris":{"android":"levelo://app?vid=b188ea05-75d2-48e4-9a1d-c00cacf47457","ios":"levelo://app?vid=b188ea05-75d2-48e4-9a1d-c00cacf47457"},"vehicle_type_id":"4","last_reported":1703621242,"current_range_meters":27600,"station_id":"","pricing_plan_id":"free"},{"bike_id":"be7018ef-6800-4949-bbff-57f6f7ea3f65","system_id":"levelo_inurba_marseille","lat":43.30642,"lon":5.401031,"is_reserved":false,"is_disabled":false,"rental_uris":{"android":"levelo://app?vid=be7018ef-6800-4949-bbff-57f6f7ea3f65","ios":"levelo://app?vid=be7018ef-6800-4949-bbff-57f6f7ea3f65"},"vehicle_type_id":"4","last_reported":1703621242,"current_range_meters":31200,"station_id":"ce4bh112rcd13ifvqda0","pricing_plan_id":"free"},{"bike_id":"190ce0f2-3c90-4d3d-94a0-eb4e6b273154","system_id":"levelo_inurba_marseille","lat":43.306412,"lon":5.401035,"is_reserved":false,"is_disabled":false,"rental_uris":{"android":"levelo://app?vid=190ce0f2-3c90-4d3d-94a0-eb4e6b273154","ios":"levelo://app?vid=190ce0f2-3c90-4d3d-94a0-eb4e6b273154"},"vehicle_type_id":"4","last_reported":1703621242,"current_range_meters":22000,"station_id":"ce4bh112rcd13ifvqda0","pricing_plan_id":"free"},{"bike_id":"8fbbbffa-7bee-4afd-8bd1-ac1734e61144","system_id":"levelo_inurba_marseille","lat":43.30642,"lon":5.401031,"is_reserved":false,"is_disabled":false,"rental_uris":{"android":"levelo://app?vid=8fbbbffa-7bee-4afd-8bd1-ac1734e61144","ios":"levelo://app?vid=8fbbbffa-7bee-4afd-8bd1-ac1734e61144"},"vehicle_type_id":"4","last_reported":1703621242,"current_range_meters":10800,"station_id":"ce4bh112rcd13ifvqda0","pricing_plan_id":"free"},{"bike_id":"395b4c6b-2846-48f8-adf3-a7b6e4defa20","system_id":"levelo_inurba_marseille","lat":43.28727,"lon":5.36078,"is_reserved":false,"is_disabled":false,"rental_uris":{"android":"levelo://app?vid=395b4c6b-2846-48f8-adf3-a7b6e4defa20","ios":"levelo://app?vid=395b4c6b-2846-48f8-adf3-a7b6e4defa20"},"vehicle_type_id":"4","last_reported":1703621242,"current_range_meters":27600,"station_id":"cki0cbj6b192h4jlfktg","pricing_plan_id":"free"},{"bike_id":"aa743935-8558-45a1-aa4e-06dd50e5fa89","system_id":"levelo_inurba_marseille","lat":43.28727,"lon":5.36078,"is_reserved":false,"is_disabled":false,"rental_uris":{"android":"levelo://app?vid=aa743935-8558-45a1-aa4e-06dd50e5fa89","ios":"levelo://app?vid=aa743935-8558-45a1-aa4e-06dd50e5fa89"},"vehicle_type_id":"4","last_reported":1703621242,"current_range_meters":29600,"station_id":"cki0cbj6b192h4jlfktg","pricing_plan_id":"free"},{"bike_id":"91720a86-83e3-4909-9469-824364526d66","system_id":"levelo_inurba_marseille","lat":43.298681,"lon":5.397225,"is_reserved":false,"is_disabled":false,"rental_uris":{"android":"levelo://app?vid=91720a86-83e3-4909-9469-824364526d66","ios":"levelo://app?vid=91720a86-83e3-4909-9469-824364526d66"},"vehicle_type_id":"4","last_reported":1703621242,"current_range_meters":10800,"station_id":"ce4bh0h2rcd13ifvqd50","pricing_plan_id":"free"},{"bike_id":"f5430d8c-dbc0-4e31-a003-95dde548e7cc","system_id":"levelo_inurba_marseille","lat":43.298681,"lon":5.397225,"is_reserved":false,"is_disabled":false,"rental_uris":{"android":"levelo://app?vid=f5430d8c-dbc0-4e31-a003-95dde548e7cc","ios":"levelo://app?vid=f5430d8c-dbc0-4e31-a003-95dde548e7cc"},"vehicle_type_id":"4","last_reported":1703621242,"current_range_meters":26400,"station_id":"ce4bh0h2rcd13ifvqd50","pricing_plan_id":"free"},{"bike_id":"b7681a99-f7c4-4efc-b51e-0779935b20b6","system_id":"levelo_inurba_marseille","lat":43.298681,"lon":5.397225,"is_reserved":false,"is_disabled":false,"rental_uris":{"android":"levelo://app?vid=b7681a99-f7c4-4efc-b51e-0779935b20b6","ios":"levelo://app?vid=b7681a99-f7c4-4efc-b51e-0779935b20b6"},"vehicle_type_id":"4","last_reported":1703621242,"current_range_meters":11200,"station_id":"ce4bh0h2rcd13ifvqd50","pricing_plan_id":"free"},{"bike_id":"3047a84a-afb8-4bac-a4b8-f4cf2dd1af39","system_id":"levelo_inurba_marseille","lat":43.286961,"lon":5.373785,"is_reserved":false,"is_disabled":false,"rental_uris":{"android":"levelo://app?vid=3047a84a-afb8-4bac-a4b8-f4cf2dd1af39","ios":"levelo://app?vid=3047a84a-afb8-4bac-a4b8-f4cf2dd1af39"},"vehicle_type_id":"4","last_reported":1703621242,"current_range_meters":27200,"station_id":"ce4bh3p2rcd13ifvqdq0","pricing_plan_id":"free"},{"bike_id":"c9c9bda5-31b6-4788-b7e2-a35eab64ee2b","system_id":"levelo_inurba_marseille","lat":43.287027,"lon":5.37397,"is_reserved":false,"is_disabled":false,"rental_uris":{"android":"levelo://app?vid=c9c9bda5-31b6-4788-b7e2-a35eab64ee2b","ios":"levelo://app?vid=c9c9bda5-31b6-4788-b7e2-a35eab64ee2b"},"vehicle_type_id":"4","last_reported":1703621242,"current_range_meters":24800,"station_id":"ce4bh3p2rcd13ifvqdq0","pricing_plan_id":"free"},{"bike_id":"75d4feda-8251-469a-80c3-bb478c0224e1","system_id":"levelo_inurba_marseille","lat":43.298681,"lon":5.397225,"is_reserved":false,"is_disabled":false,"rental_uris":{"android":"levelo://app?vid=75d4feda-8251-469a-80c3-bb478c0224e1","ios":"levelo://app?vid=75d4feda-8251-469a-80c3-bb478c0224e1"},"vehicle_type_id":"4","last_reported":1703621242,"current_range_meters":22400,"station_id":"ce4bh0h2rcd13ifvqd50","pricing_plan_id":"free"},{"bike_id":"2c1d02d6-b2e4-4752-a57c-527c51f22245","system_id":"levelo_inurba_marseille","lat":43.287,"lon":5.37395,"is_reserved":false,"is_disabled":false,"rental_uris":{"android":"levelo://app?vid=2c1d02d6-b2e4-4752-a57c-527c51f22245","ios":"levelo://app?vid=2c1d02d6-b2e4-4752-a57c-527c51f22245"},"vehicle_type_id":"4","last_reported":1703621242,"current_range_meters":25200,"station_id":"ce4bh3p2rcd13ifvqdq0","pricing_plan_id":"free"},{"bike_id":"246dae9c-e250-49e7-872b-21d774351781","system_id":"levelo_inurba_marseille","lat":43.2866,"lon":5.36349,"is_reserved":false,"is_disabled":false,"rental_uris":{"android":"levelo://app?vid=246dae9c-e250-49e7-872b-21d774351781","ios":"levelo://app?vid=246dae9c-e250-49e7-872b-21d774351781"},"vehicle_type_id":"4","last_reported":1703621242,"current_range_meters":0,"station_id":"ce4bhah2rcd13ifvqej0","pricing_plan_id":"free"},{"bike_id":"e56e991a-bbbb-4287-b92c-1cbf046bf9b8","system_id":"levelo_inurba_marseille","lat":43.295196,"lon":5.39397,"is_reserved":false,"is_disabled":false,"rental_uris":{"android":"levelo://app?vid=e56e991a-bbbb-4287-b92c-1cbf046bf9b8","ios":"levelo://app?vid=e56e991a-bbbb-4287-b92c-1cbf046bf9b8"},"vehicle_type_id":"4","last_reported":1703621242,"current_range_meters":22400,"station_id":"ce4bh292rcd13ifvqdf0","pricing_plan_id":"free"},{"bike_id":"b41e0663-479e-4700-bf61-c7a7db7233a4","system_id":"levelo_inurba_marseille","lat":43.298681,"lon":5.397225,"is_reserved":false,"is_disabled":false,"rental_uris":{"android":"levelo://app?vid=b41e0663-479e-4700-bf61-c7a7db7233a4","ios":"levelo://app?vid=b41e0663-479e-4700-bf61-c7a7db7233a4"},"vehicle_type_id":"4","last_reported":1703621242,"current_range_meters":20400,"station_id":"ce4bh0h2rcd13ifvqd50","pricing_plan_id":"free"},{"bike_id":"a01141fb-6390-4660-b19d-ea3abbe2ea9e","system_id":"levelo_inurba_marseille","lat":43.289307,"lon":5.38406,"is_reserved":false,"is_disabled":false,"rental_uris":{"android":"levelo://app?vid=a01141fb-6390-4660-b19d-ea3abbe2ea9e","ios":"levelo://app?vid=a01141fb-6390-4660-b19d-ea3abbe2ea9e"},"vehicle_type_id":"4","last_reported":1703621242,"current_range_meters":16000,"station_id":"ce4bh612rcd13ifvqe6g","pricing_plan_id":"free"},{"bike_id":"9486134a-8d8e-4019-b85a-607fbb40525e","system_id":"levelo_inurba_marseille","lat":43.290345,"lon":5.38646,"is_reserved":false,"is_disabled":false,"rental_uris":{"android":"levelo://app?vid=9486134a-8d8e-4019-b85a-607fbb40525e","ios":"levelo://app?vid=9486134a-8d8e-4019-b85a-607fbb40525e"},"vehicle_type_id":"4","last_reported":1703621242,"current_range_meters":27600,"station_id":"ce4bh4p2rcd13ifvqe0g","pricing_plan_id":"free"},{"bike_id":"24d1fe63-dc56-4b92-97ac-6dd140861387","system_id":"levelo_inurba_marseille","lat":43.289307,"lon":5.38406,"is_reserved":false,"is_disabled":false,"rental_uris":{"android":"levelo://app?vid=24d1fe63-dc56-4b92-97ac-6dd140861387","ios":"levelo://app?vid=24d1fe63-dc56-4b92-97ac-6dd140861387"},"vehicle_type_id":"4","last_reported":1703621242,"current_range_meters":27200,"station_id":"ce4bh612rcd13ifvqe6g","pricing_plan_id":"free"},{"bike_id":"a58925da-6d6d-44bc-8238-945d6019fcc5","system_id":"levelo_inurba_marseille","lat":43.302759,"lon":5.400793,"is_reserved":false,"is_disabled":false,"rental_uris":{"android":"levelo://app?vid=a58925da-6d6d-44bc-8238-945d6019fcc5","ios":"levelo://app?vid=a58925da-6d6d-44bc-8238-945d6019fcc5"},"vehicle_type_id":"4","last_reported":1703621242,"current_range_meters":26800,"station_id":"ce4bgvh2rcd13ifvqcs0","pricing_plan_id":"free"},{"bike_id":"333b5726-0773-495a-9bd8-4b9bd3346647","system_id":"levelo_inurba_marseille","lat":43.302759,"lon":5.400793,"is_reserved":false,"is_disabled":false,"rental_uris":{"android":"levelo://app?vid=333b5726-0773-495a-9bd8-4b9bd3346647","ios":"levelo://app?vid=333b5726-0773-495a-9bd8-4b9bd3346647"},"vehicle_type_id":"4","last_reported":1703621242,"current_range_meters":28400,"station_id":"ce4bgvh2rcd13ifvqcs0","pricing_plan_id":"free"},{"bike_id":"e5f9edb9-f4b5-4eae-a948-f7bc64862ff2","system_id":"levelo_inurba_marseille","lat":43.302759,"lon":5.400793,"is_reserved":false,"is_disabled":false,"rental_uris":{"android":"levelo://app?vid=e5f9edb9-f4b5-4eae-a948-f7bc64862ff2","ios":"levelo://app?vid=e5f9edb9-f4b5-4eae-a948-f7bc64862ff2"},"vehicle_type_id":"4","last_reported":1703621242,"current_range_meters":30400,"station_id":"ce4bgvh2rcd13ifvqcs0","pricing_plan_id":"free"},{"bike_id":"1bafe52b-de01-4b2b-ba84-f729c4d660ef","system_id":"levelo_inurba_marseille","lat":43.286039,"lon":5.370679,"is_reserved":false,"is_disabled":false,"rental_uris":{"android":"levelo://app?vid=1bafe52b-de01-4b2b-ba84-f729c4d660ef","ios":"levelo://app?vid=1bafe52b-de01-4b2b-ba84-f729c4d660ef"},"vehicle_type_id":"4","last_reported":1703621242,"current_range_meters":17200,"station_id":"ce4bht12rcd13ifvqi60","pricing_plan_id":"free"},{"bike_id":"7260845c-a0df-4ce3-b635-e91590bb4f9a","system_id":"levelo_inurba_marseille","lat":43.286073,"lon":5.370691,"is_reserved":false,"is_disabled":false,"rental_uris":{"android":"levelo://app?vid=7260845c-a0df-4ce3-b635-e91590bb4f9a","ios":"levelo://app?vid=7260845c-a0df-4ce3-b635-e91590bb4f9a"},"vehicle_type_id":"4","last_reported":1703621242,"current_range_meters":19200,"station_id":"ce4bht12rcd13ifvqi60","pricing_plan_id":"free"},{"bike_id":"e42f2d48-1eac-4ea9-97da-9a200b97c493","system_id":"levelo_inurba_marseille","lat":43.28604,"lon":5.37065,"is_reserved":false,"is_disabled":false,"rental_uris":{"android":"levelo://app?vid=e42f2d48-1eac-4ea9-97da-9a200b97c493","ios":"levelo://app?vid=e42f2d48-1eac-4ea9-97da-9a200b97c493"},"vehicle_type_id":"4","last_reported":1703621242,"current_range_meters":23200,"station_id":"ce4bht12rcd13ifvqi60","pricing_plan_id":"free"},{"bike_id":"47b716f5-8e75-4c4d-ad26-d15ea90f5f09","system_id":"levelo_inurba_marseille","lat":43.287185,"lon":5.379373,"is_reserved":false,"is_disabled":false,"rental_uris":{"android":"levelo://app?vid=47b716f5-8e75-4c4d-ad26-d15ea90f5f09","ios":"levelo://app?vid=47b716f5-8e75-4c4d-ad26-d15ea90f5f09"},"vehicle_type_id":"4","last_reported":1703621242,"current_range_meters":20400,"station_id":"ce4bh9p2rcd13ifvqec0","pricing_plan_id":"free"},{"bike_id":"fa7570f2-256e-4948-b3fc-55402630ffd7","system_id":"levelo_inurba_marseille","lat":43.291994,"lon":5.392907,"is_reserved":false,"is_disabled":false,"rental_uris":{"android":"levelo://app?vid=fa7570f2-256e-4948-b3fc-55402630ffd7","ios":"levelo://app?vid=fa7570f2-256e-4948-b3fc-55402630ffd7"},"vehicle_type_id":"4","last_reported":1703621242,"current_range_meters":0,"station_id":"ce4bh192rcd13ifvqdd0","pricing_plan_id":"free"},{"bike_id":"6eaa031f-1c12-4e13-8c29-868e6eafb553","system_id":"levelo_inurba_marseille","lat":43.29195,"lon":5.39327,"is_reserved":false,"is_disabled":false,"rental_uris":{"android":"levelo://app?vid=6eaa031f-1c12-4e13-8c29-868e6eafb553","ios":"levelo://app?vid=6eaa031f-1c12-4e13-8c29-868e6eafb553"},"vehicle_type_id":"4","last_reported":1703621242,"current_range_meters":26800,"station_id":"ce4bh192rcd13ifvqdd0","pricing_plan_id":"free"},{"bike_id":"1ad829ab-d157-4f45-8bed-2032bf0d2399","system_id":"levelo_inurba_marseille","lat":43.29198,"lon":5.39332,"is_reserved":false,"is_disabled":false,"rental_uris":{"android":"levelo://app?vid=1ad829ab-d157-4f45-8bed-2032bf0d2399","ios":"levelo://app?vid=1ad829ab-d157-4f45-8bed-2032bf0d2399"},"vehicle_type_id":"4","last_reported":1703621242,"current_range_meters":7200,"station_id":"ce4bh192rcd13ifvqdd0","pricing_plan_id":"free"},{"bike_id":"bf5587c6-0562-49c6-a59c-ea8ae5c66a61","system_id":"levelo_inurba_marseille","lat":43.29198,"lon":5.39339,"is_reserved":false,"is_disabled":false,"rental_uris":{"android":"levelo://app?vid=bf5587c6-0562-49c6-a59c-ea8ae5c66a61","ios":"levelo://app?vid=bf5587c6-0562-49c6-a59c-ea8ae5c66a61"},"vehicle_type_id":"4","last_reported":1703621242,"current_range_meters":7600,"station_id":"ce4bh192rcd13ifvqdd0","pricing_plan_id":"free"},{"bike_id":"e2adfa7c-882e-48a1-9ee4-b36e6186ebbf","system_id":"levelo_inurba_marseille","lat":43.330912,"lon":5.396935,"is_reserved":false,"is_disabled":false,"rental_uris":{"android":"levelo://app?vid=e2adfa7c-882e-48a1-9ee4-b36e6186ebbf","ios":"levelo://app?vid=e2adfa7c-882e-48a1-9ee4-b36e6186ebbf"},"vehicle_type_id":"4","last_reported":1703621242,"current_range_meters":2000,"station_id":"","pricing_plan_id":"free"},{"bike_id":"ec5235d9-7d6f-4082-8172-2e3bfe7b18e3","system_id":"levelo_inurba_marseille","lat":43.284538,"lon":5.358657,"is_reserved":false,"is_disabled":false,"rental_uris":{"android":"levelo://app?vid=ec5235d9-7d6f-4082-8172-2e3bfe7b18e3","ios":"levelo://app?vid=ec5235d9-7d6f-4082-8172-2e3bfe7b18e3"},"vehicle_type_id":"4","last_reported":1703621242,"current_range_meters":2400,"station_id":"ce4bhah2rcd13ifvqei0","pricing_plan_id":"free"},{"bike_id":"8e66fad7-0713-4093-8fa1-8d19cacc0042","system_id":"levelo_inurba_marseille","lat":43.28455,"lon":5.35896,"is_reserved":false,"is_disabled":false,"rental_uris":{"android":"levelo://app?vid=8e66fad7-0713-4093-8fa1-8d19cacc0042","ios":"levelo://app?vid=8e66fad7-0713-4093-8fa1-8d19cacc0042"},"vehicle_type_id":"4","last_reported":1703621242,"current_range_meters":24800,"station_id":"ce4bhah2rcd13ifvqei0","pricing_plan_id":"free"},{"bike_id":"4cd86e13-8bfc-45f2-9ab8-42e6de13b38c","system_id":"levelo_inurba_marseille","lat":43.294314,"lon":5.397498,"is_reserved":false,"is_disabled":false,"rental_uris":{"android":"levelo://app?vid=4cd86e13-8bfc-45f2-9ab8-42e6de13b38c","ios":"levelo://app?vid=4cd86e13-8bfc-45f2-9ab8-42e6de13b38c"},"vehicle_type_id":"4","last_reported":1703621242,"current_range_meters":23600,"station_id":"ce4bh3h2rcd13ifvqdo0","pricing_plan_id":"free"},{"bike_id":"ee34b0cb-3b36-4a75-b0a7-d9f1e13f004d","system_id":"levelo_inurba_marseille","lat":43.284548,"lon":5.358936,"is_reserved":false,"is_disabled":false,"rental_uris":{"android":"levelo://app?vid=ee34b0cb-3b36-4a75-b0a7-d9f1e13f004d","ios":"levelo://app?vid=ee34b0cb-3b36-4a75-b0a7-d9f1e13f004d"},"vehicle_type_id":"4","last_reported":1703621242,"current_range_meters":8000,"station_id":"ce4bhah2rcd13ifvqei0","pricing_plan_id":"free"},{"bike_id":"3ab71d57-f31d-4921-8d19-d8aa06494a99","system_id":"levelo_inurba_marseille","lat":43.284543,"lon":5.35889,"is_reserved":false,"is_disabled":false,"rental_uris":{"android":"levelo://app?vid=3ab71d57-f31d-4921-8d19-d8aa06494a99","ios":"levelo://app?vid=3ab71d57-f31d-4921-8d19-d8aa06494a99"},"vehicle_type_id":"4","last_reported":1703621242,"current_range_meters":12000,"station_id":"ce4bhah2rcd13ifvqei0","pricing_plan_id":"free"},{"bike_id":"af5398c9-a830-4575-9907-dc9ba8c9dda4","system_id":"levelo_inurba_marseille","lat":43.294314,"lon":5.397498,"is_reserved":false,"is_disabled":false,"rental_uris":{"android":"levelo://app?vid=af5398c9-a830-4575-9907-dc9ba8c9dda4","ios":"levelo://app?vid=af5398c9-a830-4575-9907-dc9ba8c9dda4"},"vehicle_type_id":"4","last_reported":1703621242,"current_range_meters":24400,"station_id":"ce4bh3h2rcd13ifvqdo0","pricing_plan_id":"free"},{"bike_id":"51e17138-6637-4300-b9a2-aa8c98496572","system_id":"levelo_inurba_marseille","lat":43.285856,"lon":5.350771,"is_reserved":false,"is_disabled":false,"rental_uris":{"android":"levelo://app?vid=51e17138-6637-4300-b9a2-aa8c98496572","ios":"levelo://app?vid=51e17138-6637-4300-b9a2-aa8c98496572"},"vehicle_type_id":"4","last_reported":1703621242,"current_range_meters":22000,"station_id":"ce4bhch2rcd13ifvqeug","pricing_plan_id":"free"},{"bike_id":"16b3cce2-cf5a-4dee-a946-e4486b8806b1","system_id":"levelo_inurba_marseille","lat":43.283998,"lon":5.375062,"is_reserved":false,"is_disabled":false,"rental_uris":{"android":"levelo://app?vid=16b3cce2-cf5a-4dee-a946-e4486b8806b1","ios":"levelo://app?vid=16b3cce2-cf5a-4dee-a946-e4486b8806b1"},"vehicle_type_id":"4","last_reported":1703621242,"current_range_meters":21200,"station_id":"ce4bh412rcd13ifvqds0","pricing_plan_id":"free"},{"bike_id":"96b2ffa9-ebc1-4a7c-8400-482a164dc524","system_id":"levelo_inurba_marseille","lat":43.283998,"lon":5.375062,"is_reserved":false,"is_disabled":false,"rental_uris":{"android":"levelo://app?vid=96b2ffa9-ebc1-4a7c-8400-482a164dc524","ios":"levelo://app?vid=96b2ffa9-ebc1-4a7c-8400-482a164dc524"},"vehicle_type_id":"4","last_reported":1703621242,"current_range_meters":0,"station_id":"ce4bh412rcd13ifvqds0","pricing_plan_id":"free"},{"bike_id":"b3c74a90-056c-47f9-bf2e-21253b84e506","system_id":"levelo_inurba_marseille","lat":43.283998,"lon":5.375062,"is_reserved":false,"is_disabled":false,"rental_uris":{"android":"levelo://app?vid=b3c74a90-056c-47f9-bf2e-21253b84e506","ios":"levelo://app?vid=b3c74a90-056c-47f9-bf2e-21253b84e506"},"vehicle_type_id":"4","last_reported":1703621242,"current_range_meters":22400,"station_id":"ce4bh412rcd13ifvqds0","pricing_plan_id":"free"},{"bike_id":"9fc83a59-6d18-4958-b15e-f5582f950c8d","system_id":"levelo_inurba_marseille","lat":43.283998,"lon":5.375062,"is_reserved":false,"is_disabled":false,"rental_uris":{"android":"levelo://app?vid=9fc83a59-6d18-4958-b15e-f5582f950c8d","ios":"levelo://app?vid=9fc83a59-6d18-4958-b15e-f5582f950c8d"},"vehicle_type_id":"4","last_reported":1703621242,"current_range_meters":17600,"station_id":"ce4bh412rcd13ifvqds0","pricing_plan_id":"free"},{"bike_id":"44953fe9-572e-49de-bf8e-b54173e85a2d","system_id":"levelo_inurba_marseille","lat":43.283998,"lon":5.375062,"is_reserved":false,"is_disabled":false,"rental_uris":{"android":"levelo://app?vid=44953fe9-572e-49de-bf8e-b54173e85a2d","ios":"levelo://app?vid=44953fe9-572e-49de-bf8e-b54173e85a2d"},"vehicle_type_id":"4","last_reported":1703621242,"current_range_meters":24000,"station_id":"ce4bh412rcd13ifvqds0","pricing_plan_id":"free"},{"bike_id":"7b3b3815-9f14-4d83-aa9b-dba5ead3db3b","system_id":"levelo_inurba_marseille","lat":43.286595,"lon":5.386795,"is_reserved":false,"is_disabled":false,"rental_uris":{"android":"levelo://app?vid=7b3b3815-9f14-4d83-aa9b-dba5ead3db3b","ios":"levelo://app?vid=7b3b3815-9f14-4d83-aa9b-dba5ead3db3b"},"vehicle_type_id":"4","last_reported":1703621242,"current_range_meters":12800,"station_id":"ce4bh492rcd13ifvqdug","pricing_plan_id":"free"},{"bike_id":"826589f8-856e-4430-84c2-071b20d27bee","system_id":"levelo_inurba_marseille","lat":43.319179,"lon":5.407725,"is_reserved":false,"is_disabled":false,"rental_uris":{"android":"levelo://app?vid=826589f8-856e-4430-84c2-071b20d27bee","ios":"levelo://app?vid=826589f8-856e-4430-84c2-071b20d27bee"},"vehicle_type_id":"4","last_reported":1703621242,"current_range_meters":28400,"station_id":"ce4bhq12rcd13ifvqhig","pricing_plan_id":"free"},{"bike_id":"769019c4-eb9e-4a31-95b4-3ef192cc753f","system_id":"levelo_inurba_marseille","lat":43.28741,"lon":5.38986,"is_reserved":false,"is_disabled":false,"rental_uris":{"android":"levelo://app?vid=769019c4-eb9e-4a31-95b4-3ef192cc753f","ios":"levelo://app?vid=769019c4-eb9e-4a31-95b4-3ef192cc753f"},"vehicle_type_id":"4","last_reported":1703621242,"current_range_meters":5600,"station_id":"","pricing_plan_id":"free"},{"bike_id":"6785c669-7e9f-4db7-a773-6efaf3dc4d52","system_id":"levelo_inurba_marseille","lat":43.284793,"lon":5.384119,"is_reserved":false,"is_disabled":false,"rental_uris":{"android":"levelo://app?vid=6785c669-7e9f-4db7-a773-6efaf3dc4d52","ios":"levelo://app?vid=6785c669-7e9f-4db7-a773-6efaf3dc4d52"},"vehicle_type_id":"4","last_reported":1703621242,"current_range_meters":17600,"station_id":"ce4bh512rcd13ifvqe3g","pricing_plan_id":"free"},{"bike_id":"ababee87-f87d-47ef-8f50-db4350fab918","system_id":"levelo_inurba_marseille","lat":43.284793,"lon":5.384113,"is_reserved":false,"is_disabled":false,"rental_uris":{"android":"levelo://app?vid=ababee87-f87d-47ef-8f50-db4350fab918","ios":"levelo://app?vid=ababee87-f87d-47ef-8f50-db4350fab918"},"vehicle_type_id":"4","last_reported":1703621242,"current_range_meters":26000,"station_id":"ce4bh512rcd13ifvqe3g","pricing_plan_id":"free"},{"bike_id":"e38ec44e-98cf-4c5f-8985-6926cd227506","system_id":"levelo_inurba_marseille","lat":43.284793,"lon":5.384119,"is_reserved":false,"is_disabled":false,"rental_uris":{"android":"levelo://app?vid=e38ec44e-98cf-4c5f-8985-6926cd227506","ios":"levelo://app?vid=e38ec44e-98cf-4c5f-8985-6926cd227506"},"vehicle_type_id":"4","last_reported":1703621242,"current_range_meters":18800,"station_id":"ce4bh512rcd13ifvqe3g","pricing_plan_id":"free"},{"bike_id":"d6139828-260f-4232-b2f0-da8e95bc6f94","system_id":"levelo_inurba_marseille","lat":43.284787,"lon":5.384116,"is_reserved":false,"is_disabled":false,"rental_uris":{"android":"levelo://app?vid=d6139828-260f-4232-b2f0-da8e95bc6f94","ios":"levelo://app?vid=d6139828-260f-4232-b2f0-da8e95bc6f94"},"vehicle_type_id":"4","last_reported":1703621242,"current_range_meters":16000,"station_id":"ce4bh512rcd13ifvqe3g","pricing_plan_id":"free"},{"bike_id":"ddedd4db-7bba-4397-8ccb-787f9d9ddabe","system_id":"levelo_inurba_marseille","lat":43.283498,"lon":5.380948,"is_reserved":false,"is_disabled":false,"rental_uris":{"android":"levelo://app?vid=ddedd4db-7bba-4397-8ccb-787f9d9ddabe","ios":"levelo://app?vid=ddedd4db-7bba-4397-8ccb-787f9d9ddabe"},"vehicle_type_id":"4","last_reported":1703621242,"current_range_meters":7600,"station_id":"ce4bh412rcd13ifvqdr0","pricing_plan_id":"free"},{"bike_id":"e0b68692-8b72-46fb-ac41-394761fb3425","system_id":"levelo_inurba_marseille","lat":43.283494,"lon":5.380945,"is_reserved":false,"is_disabled":false,"rental_uris":{"android":"levelo://app?vid=e0b68692-8b72-46fb-ac41-394761fb3425","ios":"levelo://app?vid=e0b68692-8b72-46fb-ac41-394761fb3425"},"vehicle_type_id":"4","last_reported":1703621242,"current_range_meters":31200,"station_id":"ce4bh412rcd13ifvqdr0","pricing_plan_id":"free"},{"bike_id":"dd56f053-76e9-4b1a-be9a-a855afb8a653","system_id":"levelo_inurba_marseille","lat":43.283494,"lon":5.380945,"is_reserved":false,"is_disabled":false,"rental_uris":{"android":"levelo://app?vid=dd56f053-76e9-4b1a-be9a-a855afb8a653","ios":"levelo://app?vid=dd56f053-76e9-4b1a-be9a-a855afb8a653"},"vehicle_type_id":"4","last_reported":1703621242,"current_range_meters":23200,"station_id":"ce4bh412rcd13ifvqdr0","pricing_plan_id":"free"},{"bike_id":"8752f406-7ee5-452b-aa39-8aaf354476cc","system_id":"levelo_inurba_marseille","lat":43.283498,"lon":5.380948,"is_reserved":false,"is_disabled":false,"rental_uris":{"android":"levelo://app?vid=8752f406-7ee5-452b-aa39-8aaf354476cc","ios":"levelo://app?vid=8752f406-7ee5-452b-aa39-8aaf354476cc"},"vehicle_type_id":"4","last_reported":1703621242,"current_range_meters":16400,"station_id":"ce4bh412rcd13ifvqdr0","pricing_plan_id":"free"},{"bike_id":"96f08949-9741-46b9-b3c5-0056fdb3c07d","system_id":"levelo_inurba_marseille","lat":43.283494,"lon":5.380945,"is_reserved":false,"is_disabled":false,"rental_uris":{"android":"levelo://app?vid=96f08949-9741-46b9-b3c5-0056fdb3c07d","ios":"levelo://app?vid=96f08949-9741-46b9-b3c5-0056fdb3c07d"},"vehicle_type_id":"4","last_reported":1703621242,"current_range_meters":17600,"station_id":"ce4bh412rcd13ifvqdr0","pricing_plan_id":"free"},{"bike_id":"f13ec3b6-4233-4299-8051-736bcb56f9bc","system_id":"levelo_inurba_marseille","lat":43.283498,"lon":5.380948,"is_reserved":false,"is_disabled":false,"rental_uris":{"android":"levelo://app?vid=f13ec3b6-4233-4299-8051-736bcb56f9bc","ios":"levelo://app?vid=f13ec3b6-4233-4299-8051-736bcb56f9bc"},"vehicle_type_id":"4","last_reported":1703621242,"current_range_meters":12800,"station_id":"ce4bh412rcd13ifvqdr0","pricing_plan_id":"free"},{"bike_id":"bd70cfc0-cbcf-4770-8b6c-efb9dbd68efa","system_id":"levelo_inurba_marseille","lat":43.283498,"lon":5.380948,"is_reserved":false,"is_disabled":false,"rental_uris":{"android":"levelo://app?vid=bd70cfc0-cbcf-4770-8b6c-efb9dbd68efa","ios":"levelo://app?vid=bd70cfc0-cbcf-4770-8b6c-efb9dbd68efa"},"vehicle_type_id":"4","last_reported":1703621242,"current_range_meters":23200,"station_id":"ce4bh412rcd13ifvqdr0","pricing_plan_id":"free"},{"bike_id":"c17cf6bd-767b-4bd0-8d7e-872b5c64c3a6","system_id":"levelo_inurba_marseille","lat":43.283498,"lon":5.380948,"is_reserved":false,"is_disabled":false,"rental_uris":{"android":"levelo://app?vid=c17cf6bd-767b-4bd0-8d7e-872b5c64c3a6","ios":"levelo://app?vid=c17cf6bd-767b-4bd0-8d7e-872b5c64c3a6"},"vehicle_type_id":"4","last_reported":1703621242,"current_range_meters":18000,"station_id":"ce4bh412rcd13ifvqdr0","pricing_plan_id":"free"},{"bike_id":"e485450b-2736-4f4c-b94b-0da5a69b88aa","system_id":"levelo_inurba_marseille","lat":43.33385,"lon":5.39822,"is_reserved":false,"is_disabled":false,"rental_uris":{"android":"levelo://app?vid=e485450b-2736-4f4c-b94b-0da5a69b88aa","ios":"levelo://app?vid=e485450b-2736-4f4c-b94b-0da5a69b88aa"},"vehicle_type_id":"4","last_reported":1703621242,"current_range_meters":21200,"station_id":"","pricing_plan_id":"free"},{"bike_id":"af981f2c-aaee-4441-8c42-99a12e0aa8fc","system_id":"levelo_inurba_marseille","lat":43.289363,"lon":5.396322,"is_reserved":false,"is_disabled":false,"rental_uris":{"android":"levelo://app?vid=af981f2c-aaee-4441-8c42-99a12e0aa8fc","ios":"levelo://app?vid=af981f2c-aaee-4441-8c42-99a12e0aa8fc"},"vehicle_type_id":"4","last_reported":1703621242,"current_range_meters":27200,"station_id":"ce4bh3h2rcd13ifvqdn0","pricing_plan_id":"free"},{"bike_id":"37e35540-b466-4795-8c0e-8ad6f212cf9b","system_id":"levelo_inurba_marseille","lat":43.28275,"lon":5.35059,"is_reserved":false,"is_disabled":false,"rental_uris":{"android":"levelo://app?vid=37e35540-b466-4795-8c0e-8ad6f212cf9b","ios":"levelo://app?vid=37e35540-b466-4795-8c0e-8ad6f212cf9b"},"vehicle_type_id":"4","last_reported":1703621242,"current_range_meters":11600,"station_id":"ce4bhbp2rcd13ifvqerg","pricing_plan_id":"free"},{"bike_id":"787fc710-c520-40d9-ae3d-3491dbbb263b","system_id":"levelo_inurba_marseille","lat":43.283502,"lon":5.386471,"is_reserved":false,"is_disabled":false,"rental_uris":{"android":"levelo://app?vid=787fc710-c520-40d9-ae3d-3491dbbb263b","ios":"levelo://app?vid=787fc710-c520-40d9-ae3d-3491dbbb263b"},"vehicle_type_id":"4","last_reported":1703621242,"current_range_meters":10000,"station_id":"ce4bh492rcd13ifvqdvg","pricing_plan_id":"free"},{"bike_id":"ccc034cc-109e-4698-90c9-6cf535e482fc","system_id":"levelo_inurba_marseille","lat":43.283502,"lon":5.386471,"is_reserved":false,"is_disabled":false,"rental_uris":{"android":"levelo://app?vid=ccc034cc-109e-4698-90c9-6cf535e482fc","ios":"levelo://app?vid=ccc034cc-109e-4698-90c9-6cf535e482fc"},"vehicle_type_id":"4","last_reported":1703621242,"current_range_meters":15600,"station_id":"ce4bh492rcd13ifvqdvg","pricing_plan_id":"free"},{"bike_id":"ba3e5f0f-ed4a-48cc-8a92-f35f9f83ccbc","system_id":"levelo_inurba_marseille","lat":43.283502,"lon":5.386471,"is_reserved":false,"is_disabled":false,"rental_uris":{"android":"levelo://app?vid=ba3e5f0f-ed4a-48cc-8a92-f35f9f83ccbc","ios":"levelo://app?vid=ba3e5f0f-ed4a-48cc-8a92-f35f9f83ccbc"},"vehicle_type_id":"4","last_reported":1703621242,"current_range_meters":12400,"station_id":"ce4bh492rcd13ifvqdvg","pricing_plan_id":"free"},{"bike_id":"d32da828-8310-4c2f-9593-fdcc8392e945","system_id":"levelo_inurba_marseille","lat":43.283502,"lon":5.386471,"is_reserved":false,"is_disabled":false,"rental_uris":{"android":"levelo://app?vid=d32da828-8310-4c2f-9593-fdcc8392e945","ios":"levelo://app?vid=d32da828-8310-4c2f-9593-fdcc8392e945"},"vehicle_type_id":"4","last_reported":1703621242,"current_range_meters":24000,"station_id":"ce4bh492rcd13ifvqdvg","pricing_plan_id":"free"},{"bike_id":"1a95d4de-1fa3-4c2b-8aed-0dc809aa8770","system_id":"levelo_inurba_marseille","lat":43.28039,"lon":5.369297,"is_reserved":false,"is_disabled":false,"rental_uris":{"android":"levelo://app?vid=1a95d4de-1fa3-4c2b-8aed-0dc809aa8770","ios":"levelo://app?vid=1a95d4de-1fa3-4c2b-8aed-0dc809aa8770"},"vehicle_type_id":"4","last_reported":1703621242,"current_range_meters":10000,"station_id":"ce4bha12rcd13ifvqef0","pricing_plan_id":"free"},{"bike_id":"24e2c243-d810-4cb0-bf16-4757ab160c8b","system_id":"levelo_inurba_marseille","lat":43.28039,"lon":5.369297,"is_reserved":false,"is_disabled":false,"rental_uris":{"android":"levelo://app?vid=24e2c243-d810-4cb0-bf16-4757ab160c8b","ios":"levelo://app?vid=24e2c243-d810-4cb0-bf16-4757ab160c8b"},"vehicle_type_id":"4","last_reported":1703621242,"current_range_meters":31200,"station_id":"ce4bha12rcd13ifvqef0","pricing_plan_id":"free"},{"bike_id":"21cdddc6-61d7-4c4d-8e98-9b6c2f0d4480","system_id":"levelo_inurba_marseille","lat":43.280382,"lon":5.369291,"is_reserved":false,"is_disabled":false,"rental_uris":{"android":"levelo://app?vid=21cdddc6-61d7-4c4d-8e98-9b6c2f0d4480","ios":"levelo://app?vid=21cdddc6-61d7-4c4d-8e98-9b6c2f0d4480"},"vehicle_type_id":"4","last_reported":1703621242,"current_range_meters":23600,"station_id":"ce4bha12rcd13ifvqef0","pricing_plan_id":"free"},{"bike_id":"874247a8-b851-4752-bb55-16e8eebdc42c","system_id":"levelo_inurba_marseille","lat":43.280382,"lon":5.369291,"is_reserved":false,"is_disabled":false,"rental_uris":{"android":"levelo://app?vid=874247a8-b851-4752-bb55-16e8eebdc42c","ios":"levelo://app?vid=874247a8-b851-4752-bb55-16e8eebdc42c"},"vehicle_type_id":"4","last_reported":1703621242,"current_range_meters":30400,"station_id":"ce4bha12rcd13ifvqef0","pricing_plan_id":"free"},{"bike_id":"36bc9061-66e5-4d94-8862-b8e6edfb8e4c","system_id":"levelo_inurba_marseille","lat":43.296263,"lon":5.40601,"is_reserved":false,"is_disabled":false,"rental_uris":{"android":"levelo://app?vid=36bc9061-66e5-4d94-8862-b8e6edfb8e4c","ios":"levelo://app?vid=36bc9061-66e5-4d94-8862-b8e6edfb8e4c"},"vehicle_type_id":"4","last_reported":1703621242,"current_range_meters":22400,"station_id":"ce4bh0h2rcd13ifvqd60","pricing_plan_id":"free"},{"bike_id":"2f480e3f-e459-45f1-8d71-e0a8ac0a6abe","system_id":"levelo_inurba_marseille","lat":43.284462,"lon":5.392121,"is_reserved":false,"is_disabled":false,"rental_uris":{"android":"levelo://app?vid=2f480e3f-e459-45f1-8d71-e0a8ac0a6abe","ios":"levelo://app?vid=2f480e3f-e459-45f1-8d71-e0a8ac0a6abe"},"vehicle_type_id":"4","last_reported":1703621242,"current_range_meters":30000,"station_id":"ce4bhoh2rcd13ifvqh5g","pricing_plan_id":"free"},{"bike_id":"fd45b25c-3e48-4f17-a138-8c28fba2f227","system_id":"levelo_inurba_marseille","lat":43.28573,"lon":5.394992,"is_reserved":false,"is_disabled":false,"rental_uris":{"android":"levelo://app?vid=fd45b25c-3e48-4f17-a138-8c28fba2f227","ios":"levelo://app?vid=fd45b25c-3e48-4f17-a138-8c28fba2f227"},"vehicle_type_id":"4","last_reported":1703621242,"current_range_meters":24800,"station_id":"ce4bh292rcd13ifvqdg0","pricing_plan_id":"free"},{"bike_id":"a4a5ccde-62af-4c28-95c1-d68b50703509","system_id":"levelo_inurba_marseille","lat":43.326605,"lon":5.409903,"is_reserved":false,"is_disabled":false,"rental_uris":{"android":"levelo://app?vid=a4a5ccde-62af-4c28-95c1-d68b50703509","ios":"levelo://app?vid=a4a5ccde-62af-4c28-95c1-d68b50703509"},"vehicle_type_id":"4","last_reported":1703621242,"current_range_meters":30400,"station_id":"ce4bhpp2rcd13ifvqhgg","pricing_plan_id":"free"},{"bike_id":"23a18914-adeb-4148-a7d9-94eed249347d","system_id":"levelo_inurba_marseille","lat":43.304188,"lon":5.412904,"is_reserved":false,"is_disabled":false,"rental_uris":{"android":"levelo://app?vid=23a18914-adeb-4148-a7d9-94eed249347d","ios":"levelo://app?vid=23a18914-adeb-4148-a7d9-94eed249347d"},"vehicle_type_id":"4","last_reported":1703621242,"current_range_meters":30000,"station_id":"ce4bhop2rcd13ifvqh8g","pricing_plan_id":"free"},{"bike_id":"1f8efa67-e4f6-4da0-8267-59f2cd1f5024","system_id":"levelo_inurba_marseille","lat":43.287154,"lon":5.399979,"is_reserved":false,"is_disabled":false,"rental_uris":{"android":"levelo://app?vid=1f8efa67-e4f6-4da0-8267-59f2cd1f5024","ios":"levelo://app?vid=1f8efa67-e4f6-4da0-8267-59f2cd1f5024"},"vehicle_type_id":"4","last_reported":1703621242,"current_range_meters":23200,"station_id":"ce4bho92rcd13ifvqh3g","pricing_plan_id":"free"},{"bike_id":"8983853d-f403-4311-ac90-5bf84d6f5b58","system_id":"levelo_inurba_marseille","lat":43.287154,"lon":5.399979,"is_reserved":false,"is_disabled":false,"rental_uris":{"android":"levelo://app?vid=8983853d-f403-4311-ac90-5bf84d6f5b58","ios":"levelo://app?vid=8983853d-f403-4311-ac90-5bf84d6f5b58"},"vehicle_type_id":"4","last_reported":1703621242,"current_range_meters":10800,"station_id":"ce4bho92rcd13ifvqh3g","pricing_plan_id":"free"},{"bike_id":"852be2f0-a33a-46f1-83fe-1ad5fafdbfe1","system_id":"levelo_inurba_marseille","lat":43.287154,"lon":5.399979,"is_reserved":false,"is_disabled":false,"rental_uris":{"android":"levelo://app?vid=852be2f0-a33a-46f1-83fe-1ad5fafdbfe1","ios":"levelo://app?vid=852be2f0-a33a-46f1-83fe-1ad5fafdbfe1"},"vehicle_type_id":"4","last_reported":1703621242,"current_range_meters":19600,"station_id":"ce4bho92rcd13ifvqh3g","pricing_plan_id":"free"},{"bike_id":"1f49b234-69ed-438e-8d08-179a4fc9c8c6","system_id":"levelo_inurba_marseille","lat":43.320045,"lon":5.415046,"is_reserved":false,"is_disabled":false,"rental_uris":{"android":"levelo://app?vid=1f49b234-69ed-438e-8d08-179a4fc9c8c6","ios":"levelo://app?vid=1f49b234-69ed-438e-8d08-179a4fc9c8c6"},"vehicle_type_id":"4","last_reported":1703621242,"current_range_meters":31200,"station_id":"ce4bhq92rcd13ifvqhkg","pricing_plan_id":"free"},{"bike_id":"4967baab-67e7-4f41-b67f-8ca7fc154b22","system_id":"levelo_inurba_marseille","lat":43.279742,"lon":5.38744,"is_reserved":false,"is_disabled":false,"rental_uris":{"android":"levelo://app?vid=4967baab-67e7-4f41-b67f-8ca7fc154b22","ios":"levelo://app?vid=4967baab-67e7-4f41-b67f-8ca7fc154b22"},"vehicle_type_id":"4","last_reported":1703621242,"current_range_meters":21600,"station_id":"ce4bhg12rcd13ifvqf80","pricing_plan_id":"free"},{"bike_id":"3c8ad6a7-2997-4fbc-93ef-a0d395345b41","system_id":"levelo_inurba_marseille","lat":43.279742,"lon":5.38744,"is_reserved":false,"is_disabled":false,"rental_uris":{"android":"levelo://app?vid=3c8ad6a7-2997-4fbc-93ef-a0d395345b41","ios":"levelo://app?vid=3c8ad6a7-2997-4fbc-93ef-a0d395345b41"},"vehicle_type_id":"4","last_reported":1703621242,"current_range_meters":27200,"station_id":"ce4bhg12rcd13ifvqf80","pricing_plan_id":"free"},{"bike_id":"ac1d0848-b1ea-46cb-8369-abe3e59bbb1d","system_id":"levelo_inurba_marseille","lat":43.276179,"lon":5.361009,"is_reserved":false,"is_disabled":false,"rental_uris":{"android":"levelo://app?vid=ac1d0848-b1ea-46cb-8369-abe3e59bbb1d","ios":"levelo://app?vid=ac1d0848-b1ea-46cb-8369-abe3e59bbb1d"},"vehicle_type_id":"4","last_reported":1703621242,"current_range_meters":23600,"station_id":"ce4bgj92rcd13ifvqbe0","pricing_plan_id":"free"},{"bike_id":"ddf6ee76-df1d-4211-a047-b58bf2672a56","system_id":"levelo_inurba_marseille","lat":43.303837,"lon":5.418724,"is_reserved":false,"is_disabled":false,"rental_uris":{"android":"levelo://app?vid=ddf6ee76-df1d-4211-a047-b58bf2672a56","ios":"levelo://app?vid=ddf6ee76-df1d-4211-a047-b58bf2672a56"},"vehicle_type_id":"4","last_reported":1703621242,"current_range_meters":28400,"station_id":"ce4bhop2rcd13ifvqh7g","pricing_plan_id":"free"},{"bike_id":"92f8f4b3-b930-4560-8bcd-4f0b4d7cc283","system_id":"levelo_inurba_marseille","lat":43.275667,"lon":5.384277,"is_reserved":false,"is_disabled":false,"rental_uris":{"android":"levelo://app?vid=92f8f4b3-b930-4560-8bcd-4f0b4d7cc283","ios":"levelo://app?vid=92f8f4b3-b930-4560-8bcd-4f0b4d7cc283"},"vehicle_type_id":"4","last_reported":1703621242,"current_range_meters":6000,"station_id":"ce4bhh92rcd13ifvqfi0","pricing_plan_id":"free"},{"bike_id":"88bfcab4-2322-402d-ac14-e5e089db449c","system_id":"levelo_inurba_marseille","lat":43.336134,"lon":5.410341,"is_reserved":false,"is_disabled":false,"rental_uris":{"android":"levelo://app?vid=88bfcab4-2322-402d-ac14-e5e089db449c","ios":"levelo://app?vid=88bfcab4-2322-402d-ac14-e5e089db449c"},