{"last_updated":1736849349,"ttl":60,"version":"2.2","data":{"bikes":[{"bike_id":"9f319ee0-23b8-44d4-b7e2-87147125c52f","system_id":"levelo_inurba_marseille","lat":43.30534,"lon":5.36547,"is_reserved":false,"is_disabled":false,"rental_uris":{"android":"levelo://app?vid=9f319ee0-23b8-44d4-b7e2-87147125c52f","ios":"levelo://app?vid=9f319ee0-23b8-44d4-b7e2-87147125c52f"},"vehicle_type_id":"4","last_reported":1736849350,"current_range_meters":24400,"station_id":"ce4bgs12rcd13ifvqcag","pricing_plan_id":"cebpf4jnsgd1na2vs0mg"},{"bike_id":"8b877a16-2c6f-4913-a8ea-b53aacb81218","system_id":"levelo_inurba_marseille","lat":43.280893,"lon":5.396681,"is_reserved":false,"is_disabled":false,"rental_uris":{"android":"levelo://app?vid=8b877a16-2c6f-4913-a8ea-b53aacb81218","ios":"levelo://app?vid=8b877a16-2c6f-4913-a8ea-b53aacb81218"},"vehicle_type_id":"4","last_reported":1736849350,"current_range_meters":38400,"station_id":"ce4bho12rcd13ifvqh2g","pricing_plan_id":"cebpf4jnsgd1na2vs0mg"},{"bike_id":"928f5105-106d-43d7-aaac-363a5a5d6914","system_id":"levelo_inurba_marseille","lat":43.29017,"lon":5.38137,"is_reserved":false,"is_disabled":false,"rental_uris":{"android":"levelo://app?vid=928f5105-106d-43d7-aaac-363a5a5d6914","ios":"levelo://app?vid=928f5105-106d-43d7-aaac-363a5a5d6914"},"vehicle_type_id":"4","last_reported":1736849350,"current_range_meters":20800,"station_id":"ce4bh4p2rcd13ifvqe1g","pricing_plan_id":"cebpf4jnsgd1na2vs0mg"},{"bike_id":"43a19ec7-681f-474f-9505-3bcc52563126","system_id":"levelo_inurba_marseille","lat":43.30322,"lon":5.36889,"is_reserved":false,"is_disabled":false,"rental_uris":{"android":"levelo://app?vid=43a19ec7-681f-474f-9505-3bcc52563126","ios":"levelo://app?vid=43a19ec7-681f-474f-9505-3bcc52563126"},"vehicle_type_id":"4","last_reported":1736849350,"current_range_meters":25600,"station_id":"ce4bgqh2rcd13ifvqc5g","pricing_plan_id":"cebpf4jnsgd1na2vs0mg"},{"bike_id":"40acc673-8efe-465f-8502-1c32dbb757b1","system_id":"levelo_inurba_marseille","lat":43.30137,"lon":5.39863,"is_reserved":false,"is_disabled":false,"rental_uris":{"android":"levelo://app?vid=40acc673-8efe-465f-8502-1c32dbb757b1","ios":"levelo://app?vid=40acc673-8efe-465f-8502-1c32dbb757b1"},"vehicle_type_id":"4","last_reported":1736849350,"current_range_meters":32000,"station_id":"ce4bh0h2rcd13ifvqd40","pricing_plan_id":"cebpf4jnsgd1na2vs0mg"},{"bike_id":"8066198f-5e7b-4dcf-b299-6ccbfe957fcc","system_id":"levelo_inurba_marseille","lat":43.29296,"lon":5.37464,"is_reserved":false,"is_disabled":false,"rental_uris":{"android":"levelo://app?vid=8066198f-5e7b-4dcf-b299-6ccbfe957fcc","ios":"levelo://app?vid=8066198f-5e7b-4dcf-b299-6ccbfe957fcc"},"vehicle_type_id":"4","last_reported":1736849350,"current_range_meters":24800,"station_id":"ce4bgi12rcd13ifvqb70","pricing_plan_id":"cebpf4jnsgd1na2vs0mg"},{"bike_id":"a9caf45c-9b62-4fad-bb25-cf9cfd1dff86","system_id":"levelo_inurba_marseille","lat":43.33722,"lon":5.3921,"is_reserved":false,"is_disabled":false,"rental_uris":{"android":"levelo://app?vid=a9caf45c-9b62-4fad-bb25-cf9cfd1dff86","ios":"levelo://app?vid=a9caf45c-9b62-4fad-bb25-cf9cfd1dff86"},"vehicle_type_id":"4","last_reported":1736849350,"current_range_meters":37600,"station_id":"ce4bhr92rcd13ifvqhsg","pricing_plan_id":"cebpf4jnsgd1na2vs0mg"},{"bike_id":"c2d7ef64-1d75-4945-b382-218ebf1b0cbf","system_id":"levelo_inurba_marseille","lat":43.26194,"lon":5.37464,"is_reserved":false,"is_disabled":false,"rental_uris":{"android":"levelo://app?vid=c2d7ef64-1d75-4945-b382-218ebf1b0cbf","ios":"levelo://app?vid=c2d7ef64-1d75-4945-b382-218ebf1b0cbf"},"vehicle_type_id":"4","last_reported":1736849350,"current_range_meters":28800,"station_id":"ce4bhgp2rcd13ifvqfc0","pricing_plan_id":"cebpf4jnsgd1na2vs0mg"},{"bike_id":"5e0b46d4-53a6-4a9b-81ed-42b3629948b7","system_id":"levelo_inurba_marseille","lat":43.3209,"lon":5.36788,"is_reserved":false,"is_disabled":false,"rental_uris":{"android":"levelo://app?vid=5e0b46d4-53a6-4a9b-81ed-42b3629948b7","ios":"levelo://app?vid=5e0b46d4-53a6-4a9b-81ed-42b3629948b7"},"vehicle_type_id":"4","last_reported":1736849350,"current_range_meters":38000,"station_id":"ce4bhrh2rcd13ifvqhug","pricing_plan_id":"cebpf4jnsgd1na2vs0mg"},{"bike_id":"ac511c71-61c9-4661-85d6-510ca657315b","system_id":"levelo_inurba_marseille","lat":43.26195,"lon":5.37451,"is_reserved":false,"is_disabled":false,"rental_uris":{"android":"levelo://app?vid=ac511c71-61c9-4661-85d6-510ca657315b","ios":"levelo://app?vid=ac511c71-61c9-4661-85d6-510ca657315b"},"vehicle_type_id":"4","last_reported":1736849350,"current_range_meters":12400,"station_id":"ce4bhgp2rcd13ifvqfc0","pricing_plan_id":"cebpf4jnsgd1na2vs0mg"},{"bike_id":"d7f851be-3276-40aa-8188-4dc6d2538f9f","system_id":"levelo_inurba_marseille","lat":43.26952,"lon":5.38656,"is_reserved":false,"is_disabled":false,"rental_uris":{"android":"levelo://app?vid=d7f851be-3276-40aa-8188-4dc6d2538f9f","ios":"levelo://app?vid=d7f851be-3276-40aa-8188-4dc6d2538f9f"},"vehicle_type_id":"4","last_reported":1736849350,"current_range_meters":32800,"station_id":"ce4bhh92rcd13ifvqfh0","pricing_plan_id":"cebpf4jnsgd1na2vs0mg"},{"bike_id":"5bb5758f-37be-496e-ac0a-3712e6b43125","system_id":"levelo_inurba_marseille","lat":43.26187,"lon":5.37932,"is_reserved":false,"is_disabled":false,"rental_uris":{"android":"levelo://app?vid=5bb5758f-37be-496e-ac0a-3712e6b43125","ios":"levelo://app?vid=5bb5758f-37be-496e-ac0a-3712e6b43125"},"vehicle_type_id":"4","last_reported":1736849350,"current_range_meters":38800,"station_id":"ce4bhjp2rcd13ifvqg90","pricing_plan_id":"cebpf4jnsgd1na2vs0mg"},{"bike_id":"7930a3c9-36f5-46e8-86ce-d8e7c8150c0c","system_id":"levelo_inurba_marseille","lat":43.26497,"lon":5.39536,"is_reserved":false,"is_disabled":false,"rental_uris":{"android":"levelo://app?vid=7930a3c9-36f5-46e8-86ce-d8e7c8150c0c","ios":"levelo://app?vid=7930a3c9-36f5-46e8-86ce-d8e7c8150c0c"},"vehicle_type_id":"4","last_reported":1736849350,"current_range_meters":6800,"station_id":"ce4bhi12rcd13ifvqfq0","pricing_plan_id":"cebpf4jnsgd1na2vs0mg"},{"bike_id":"afa956c1-a024-460a-8f3b-934d75beef2c","system_id":"levelo_inurba_marseille","lat":43.2796,"lon":5.38705,"is_reserved":false,"is_disabled":false,"rental_uris":{"android":"levelo://app?vid=afa956c1-a024-460a-8f3b-934d75beef2c","ios":"levelo://app?vid=afa956c1-a024-460a-8f3b-934d75beef2c"},"vehicle_type_id":"4","last_reported":1736849350,"current_range_meters":33200,"station_id":"ce4bhg12rcd13ifvqf80","pricing_plan_id":"cebpf4jnsgd1na2vs0mg"},{"bike_id":"962cc5cc-fec7-46f8-84df-102fbfaf51f6","system_id":"levelo_inurba_marseille","lat":43.25921,"lon":5.40911,"is_reserved":false,"is_disabled":false,"rental_uris":{"android":"levelo://app?vid=962cc5cc-fec7-46f8-84df-102fbfaf51f6","ios":"levelo://app?vid=962cc5cc-fec7-46f8-84df-102fbfaf51f6"},"vehicle_type_id":"4","last_reported":1736849350,"current_range_meters":38000,"station_id":"ce4bhm92rcd13ifvqglg","pricing_plan_id":"cebpf4jnsgd1na2vs0mg"},{"bike_id":"29a9ed2d-851f-4096-8afb-4abdc1d84956","system_id":"levelo_inurba_marseille","lat":43.3134,"lon":5.36718,"is_reserved":false,"is_disabled":false,"rental_uris":{"android":"levelo://app?vid=29a9ed2d-851f-4096-8afb-4abdc1d84956","ios":"levelo://app?vid=29a9ed2d-851f-4096-8afb-4abdc1d84956"},"vehicle_type_id":"4","last_reported":1736849350,"current_range_meters":24400,"station_id":"ce4bgr92rcd13ifvqc6g","pricing_plan_id":"cebpf4jnsgd1na2vs0mg"},{"bike_id":"766fcbc5-2274-4a2f-90b2-b81c8e781bf8","system_id":"levelo_inurba_marseille","lat":43.29604,"lon":5.37737,"is_reserved":false,"is_disabled":false,"rental_uris":{"android":"levelo://app?vid=766fcbc5-2274-4a2f-90b2-b81c8e781bf8","ios":"levelo://app?vid=766fcbc5-2274-4a2f-90b2-b81c8e781bf8"},"vehicle_type_id":"4","last_reported":1736849350,"current_range_meters":37600,"station_id":"ce4bgi92rcd13ifvqb90","pricing_plan_id":"cebpf4jnsgd1na2vs0mg"},{"bike_id":"b130ce1b-0a59-478f-8453-c9f5cf6aa63a","system_id":"levelo_inurba_marseille","lat":43.2649,"lon":5.3957,"is_reserved":false,"is_disabled":false,"rental_uris":{"android":"levelo://app?vid=b130ce1b-0a59-478f-8453-c9f5cf6aa63a","ios":"levelo://app?vid=b130ce1b-0a59-478f-8453-c9f5cf6aa63a"},"vehicle_type_id":"4","last_reported":1736849350,"current_range_meters":18000,"station_id":"ce4bhi12rcd13ifvqfq0","pricing_plan_id":"cebpf4jnsgd1na2vs0mg"},{"bike_id":"405d663a-1e19-46aa-90f9-71d83dcf93dc","system_id":"levelo_inurba_marseille","lat":43.33729,"lon":5.39205,"is_reserved":false,"is_disabled":false,"rental_uris":{"android":"levelo://app?vid=405d663a-1e19-46aa-90f9-71d83dcf93dc","ios":"levelo://app?vid=405d663a-1e19-46aa-90f9-71d83dcf93dc"},"vehicle_type_id":"4","last_reported":1736849350,"current_range_meters":10000,"station_id":"ce4bhr92rcd13ifvqhsg","pricing_plan_id":"cebpf4jnsgd1na2vs0mg"},{"bike_id":"e0ca69a2-8f04-4664-9d47-26dea82cc9f8","system_id":"levelo_inurba_marseille","lat":43.29978,"lon":5.38519,"is_reserved":false,"is_disabled":true,"rental_uris":{"android":"levelo://app?vid=e0ca69a2-8f04-4664-9d47-26dea82cc9f8","ios":"levelo://app?vid=e0ca69a2-8f04-4664-9d47-26dea82cc9f8"},"vehicle_type_id":"4","last_reported":1736849350,"current_range_meters":38800,"station_id":"ce4bgj92rcd13ifvqbd0","pricing_plan_id":"cebpf4jnsgd1na2vs0mg"},{"bike_id":"94440fca-9d66-4315-a057-b48311229f6d","system_id":"levelo_inurba_marseille","lat":43.33596,"lon":5.4101,"is_reserved":false,"is_disabled":false,"rental_uris":{"android":"levelo://app?vid=94440fca-9d66-4315-a057-b48311229f6d","ios":"levelo://app?vid=94440fca-9d66-4315-a057-b48311229f6d"},"vehicle_type_id":"4","last_reported":1736849350,"current_range_meters":34800,"station_id":"ce4bhqh2rcd13ifvqhmg","pricing_plan_id":"cebpf4jnsgd1na2vs0mg"},{"bike_id":"6488d31b-271d-42cd-b8e6-1cc70ce610e8","system_id":"levelo_inurba_marseille","lat":43.28969,"lon":5.37853,"is_reserved":false,"is_disabled":false,"rental_uris":{"android":"levelo://app?vid=6488d31b-271d-42cd-b8e6-1cc70ce610e8","ios":"levelo://app?vid=6488d31b-271d-42cd-b8e6-1cc70ce610e8"},"vehicle_type_id":"4","last_reported":1736849350,"current_range_meters":14400,"station_id":"ce4bh9p2rcd13ifvqed0","pricing_plan_id":"cebpf4jnsgd1na2vs0mg"},{"bike_id":"571caa5a-a983-48f8-8c22-8b979894359c","system_id":"levelo_inurba_marseille","lat":43.2988,"lon":5.38906,"is_reserved":false,"is_disabled":true,"rental_uris":{"android":"levelo://app?vid=571caa5a-a983-48f8-8c22-8b979894359c","ios":"levelo://app?vid=571caa5a-a983-48f8-8c22-8b979894359c"},"vehicle_type_id":"4","last_reported":1736849350,"current_range_meters":38000,"station_id":"ce4bh392rcd13ifvqdl0","pricing_plan_id":"cebpf4jnsgd1na2vs0mg"},{"bike_id":"1ca9fc25-ccc8-4a68-82aa-93e184d4ffee","system_id":"levelo_inurba_marseille","lat":43.30957,"lon":5.39069,"is_reserved":false,"is_disabled":true,"rental_uris":{"android":"levelo://app?vid=1ca9fc25-ccc8-4a68-82aa-93e184d4ffee","ios":"levelo://app?vid=1ca9fc25-ccc8-4a68-82aa-93e184d4ffee"},"vehicle_type_id":"4","last_reported":1736849350,"current_range_meters":0,"station_id":"ce4bgup2rcd13ifvqco0","pricing_plan_id":"cebpf4jnsgd1na2vs0mg"},{"bike_id":"bdab11e4-0b4c-4df8-8ae1-6fa926fce99e","system_id":"levelo_inurba_marseille","lat":43.2794,"lon":5.41045,"is_reserved":false,"is_disabled":true,"rental_uris":{"android":"levelo://app?vid=bdab11e4-0b4c-4df8-8ae1-6fa926fce99e","ios":"levelo://app?vid=bdab11e4-0b4c-4df8-8ae1-6fa926fce99e"},"vehicle_type_id":"4","last_reported":1736849350,"current_range_meters":0,"station_id":"ce4bhnp2rcd13ifvqh0g","pricing_plan_id":"cebpf4jnsgd1na2vs0mg"},{"bike_id":"eee11371-2924-4946-b434-8143dbaa4fd3","system_id":"levelo_inurba_marseille","lat":43.30529,"lon":5.36501,"is_reserved":false,"is_disabled":false,"rental_uris":{"android":"levelo://app?vid=eee11371-2924-4946-b434-8143dbaa4fd3","ios":"levelo://app?vid=eee11371-2924-4946-b434-8143dbaa4fd3"},"vehicle_type_id":"4","last_reported":1736849350,"current_range_meters":20400,"station_id":"ce4bgs12rcd13ifvqcag","pricing_plan_id":"cebpf4jnsgd1na2vs0mg"},{"bike_id":"94d00723-79f7-443c-bc62-0c89ddbb1d1c","system_id":"levelo_inurba_marseille","lat":43.28151,"lon":5.42637,"is_reserved":false,"is_disabled":false,"rental_uris":{"android":"levelo://app?vid=94d00723-79f7-443c-bc62-0c89ddbb1d1c","ios":"levelo://app?vid=94d00723-79f7-443c-bc62-0c89ddbb1d1c"},"vehicle_type_id":"4","last_reported":1736849350,"current_range_meters":16800,"station_id":"ce4bhnh2rcd13ifvqgug","pricing_plan_id":"cebpf4jnsgd1na2vs0mg"},{"bike_id":"8e776daf-9af9-422c-91a7-9e376f57e49f","system_id":"levelo_inurba_marseille","lat":43.31327,"lon":5.39689,"is_reserved":false,"is_disabled":false,"rental_uris":{"android":"levelo://app?vid=8e776daf-9af9-422c-91a7-9e376f57e49f","ios":"levelo://app?vid=8e776daf-9af9-422c-91a7-9e376f57e49f"},"vehicle_type_id":"4","last_reported":1736849350,"current_range_meters":37600,"station_id":"ce4bgvp2rcd13ifvqcu0","pricing_plan_id":"cebpf4jnsgd1na2vs0mg"},{"bike_id":"29a5cbd9-65c4-419c-9a97-09f4fd054b93","system_id":"levelo_inurba_marseille","lat":43.30551,"lon":5.3653,"is_reserved":false,"is_disabled":false,"rental_uris":{"android":"levelo://app?vid=29a5cbd9-65c4-419c-9a97-09f4fd054b93","ios":"levelo://app?vid=29a5cbd9-65c4-419c-9a97-09f4fd054b93"},"vehicle_type_id":"4","last_reported":1736849350,"current_range_meters":24400,"station_id":"ce4bgs12rcd13ifvqcag","pricing_plan_id":"cebpf4jnsgd1na2vs0mg"},{"bike_id":"e3082228-4e20-4b2e-a947-f98b25cbae4a","system_id":"levelo_inurba_marseille","lat":43.2971,"lon":5.37696,"is_reserved":false,"is_disabled":false,"rental_uris":{"android":"levelo://app?vid=e3082228-4e20-4b2e-a947-f98b25cbae4a","ios":"levelo://app?vid=e3082228-4e20-4b2e-a947-f98b25cbae4a"},"vehicle_type_id":"4","last_reported":1736849350,"current_range_meters":22000,"station_id":"ce4bgkh2rcd13ifvqbl0","pricing_plan_id":"cebpf4jnsgd1na2vs0mg"},{"bike_id":"15e73dd5-b3d5-4879-81a8-72e783e5d381","system_id":"levelo_inurba_marseille","lat":43.26569,"lon":5.39047,"is_reserved":false,"is_disabled":false,"rental_uris":{"android":"levelo://app?vid=15e73dd5-b3d5-4879-81a8-72e783e5d381","ios":"levelo://app?vid=15e73dd5-b3d5-4879-81a8-72e783e5d381"},"vehicle_type_id":"4","last_reported":1736849350,"current_range_meters":20800,"station_id":"ce4bhe12rcd13ifvqf30","pricing_plan_id":"cebpf4jnsgd1na2vs0mg"},{"bike_id":"7ced0135-1286-4817-bef0-3fa55de62cf3","system_id":"levelo_inurba_marseille","lat":43.29563,"lon":5.3751,"is_reserved":false,"is_disabled":false,"rental_uris":{"android":"levelo://app?vid=7ced0135-1286-4817-bef0-3fa55de62cf3","ios":"levelo://app?vid=7ced0135-1286-4817-bef0-3fa55de62cf3"},"vehicle_type_id":"4","last_reported":1736849350,"current_range_meters":24000,"station_id":"ce4bgh92rcd13ifvqb50","pricing_plan_id":"cebpf4jnsgd1na2vs0mg"},{"bike_id":"edaae5f4-f840-439b-8d8a-04561c36b49c","system_id":"levelo_inurba_marseille","lat":43.2927,"lon":5.37442,"is_reserved":false,"is_disabled":false,"rental_uris":{"android":"levelo://app?vid=edaae5f4-f840-439b-8d8a-04561c36b49c","ios":"levelo://app?vid=edaae5f4-f840-439b-8d8a-04561c36b49c"},"vehicle_type_id":"4","last_reported":1736849350,"current_range_meters":38800,"station_id":"ce4bgi12rcd13ifvqb70","pricing_plan_id":"cebpf4jnsgd1na2vs0mg"},{"bike_id":"a402044d-1041-4786-a63f-9d18af3bc82f","system_id":"levelo_inurba_marseille","lat":43.24168,"lon":5.36408,"is_reserved":false,"is_disabled":false,"rental_uris":{"android":"levelo://app?vid=a402044d-1041-4786-a63f-9d18af3bc82f","ios":"levelo://app?vid=a402044d-1041-4786-a63f-9d18af3bc82f"},"vehicle_type_id":"4","last_reported":1736849350,"current_range_meters":8800,"station_id":"cpo36qri1sfpv3e86is0","pricing_plan_id":"cebpf4jnsgd1na2vs0mg"},{"bike_id":"04242d7d-6524-4840-9376-c0bce1fa64bb","system_id":"levelo_inurba_marseille","lat":43.25497,"lon":5.37656,"is_reserved":false,"is_disabled":false,"rental_uris":{"android":"levelo://app?vid=04242d7d-6524-4840-9376-c0bce1fa64bb","ios":"levelo://app?vid=04242d7d-6524-4840-9376-c0bce1fa64bb"},"vehicle_type_id":"4","last_reported":1736849350,"current_range_meters":33600,"station_id":"ce4bhh12rcd13ifvqff0","pricing_plan_id":"cebpf4jnsgd1na2vs0mg"},{"bike_id":"87ecfd66-ef43-4d79-bb7a-de8e0aaaaf45","system_id":"levelo_inurba_marseille","lat":43.26938,"lon":5.38652,"is_reserved":false,"is_disabled":false,"rental_uris":{"android":"levelo://app?vid=87ecfd66-ef43-4d79-bb7a-de8e0aaaaf45","ios":"levelo://app?vid=87ecfd66-ef43-4d79-bb7a-de8e0aaaaf45"},"vehicle_type_id":"4","last_reported":1736849350,"current_range_meters":35600,"station_id":"ce4bhh92rcd13ifvqfh0","pricing_plan_id":"cebpf4jnsgd1na2vs0mg"},{"bike_id":"0be51738-d57f-4e23-877e-205a9a4ca8c1","system_id":"levelo_inurba_marseille","lat":43.26945,"lon":5.38643,"is_reserved":false,"is_disabled":false,"rental_uris":{"android":"levelo://app?vid=0be51738-d57f-4e23-877e-205a9a4ca8c1","ios":"levelo://app?vid=0be51738-d57f-4e23-877e-205a9a4ca8c1"},"vehicle_type_id":"4","last_reported":1736849350,"current_range_meters":9600,"station_id":"ce4bhh92rcd13ifvqfh0","pricing_plan_id":"cebpf4jnsgd1na2vs0mg"},{"bike_id":"7855b5cd-fbd6-4d6d-8731-19c257408fa0","system_id":"levelo_inurba_marseille","lat":43.24156,"lon":5.39744,"is_reserved":false,"is_disabled":false,"rental_uris":{"android":"levelo://app?vid=7855b5cd-fbd6-4d6d-8731-19c257408fa0","ios":"levelo://app?vid=7855b5cd-fbd6-4d6d-8731-19c257408fa0"},"vehicle_type_id":"4","last_reported":1736849350,"current_range_meters":27200,"station_id":"ce4bhn12rcd13ifvqgpg","pricing_plan_id":"cebpf4jnsgd1na2vs0mg"},{"bike_id":"4038810c-3e7f-4d23-ac15-da1a29ec7b0c","system_id":"levelo_inurba_marseille","lat":43.30415,"lon":5.41281,"is_reserved":false,"is_disabled":false,"rental_uris":{"android":"levelo://app?vid=4038810c-3e7f-4d23-ac15-da1a29ec7b0c","ios":"levelo://app?vid=4038810c-3e7f-4d23-ac15-da1a29ec7b0c"},"vehicle_type_id":"4","last_reported":1736849350,"current_range_meters":26000,"station_id":"ce4bhop2rcd13ifvqh8g","pricing_plan_id":"cebpf4jnsgd1na2vs0mg"},{"bike_id":"c8e997c0-8580-4d0f-8d9f-0766596381e1","system_id":"levelo_inurba_marseille","lat":43.33989,"lon":5.37544,"is_reserved":false,"is_disabled":true,"rental_uris":{"android":"levelo://app?vid=c8e997c0-8580-4d0f-8d9f-0766596381e1","ios":"levelo://app?vid=c8e997c0-8580-4d0f-8d9f-0766596381e1"},"vehicle_type_id":"4","last_reported":1736849350,"current_range_meters":0,"station_id":"","pricing_plan_id":"cebpf4jnsgd1na2vs0mg"},{"bike_id":"74126fec-dae1-4ee9-84d1-a94c78c517b3","system_id":"levelo_inurba_marseille","lat":43.25109,"lon":5.40323,"is_reserved":false,"is_disabled":false,"rental_uris":{"android":"levelo://app?vid=74126fec-dae1-4ee9-84d1-a94c78c517b3","ios":"levelo://app?vid=74126fec-dae1-4ee9-84d1-a94c78c517b3"},"vehicle_type_id":"4","last_reported":1736849350,"current_range_meters":24400,"station_id":"ce4bhlh2rcd13ifvqgig","pricing_plan_id":"cebpf4jnsgd1na2vs0mg"},{"bike_id":"5e16ec8e-2e42-41a5-98c3-d7ec14fc7cea","system_id":"levelo_inurba_marseille","lat":43.23146,"lon":5.43716,"is_reserved":false,"is_disabled":false,"rental_uris":{"android":"levelo://app?vid=5e16ec8e-2e42-41a5-98c3-d7ec14fc7cea","ios":"levelo://app?vid=5e16ec8e-2e42-41a5-98c3-d7ec14fc7cea"},"vehicle_type_id":"4","last_reported":1736849350,"current_range_meters":9200,"station_id":"ce4bhmp2rcd13ifvqgog","pricing_plan_id":"cebpf4jnsgd1na2vs0mg"},{"bike_id":"ba5df164-d25c-4a1c-8679-1bd1a1db0642","system_id":"levelo_inurba_marseille","lat":43.337328,"lon":5.391941,"is_reserved":false,"is_disabled":false,"rental_uris":{"android":"levelo://app?vid=ba5df164-d25c-4a1c-8679-1bd1a1db0642","ios":"levelo://app?vid=ba5df164-d25c-4a1c-8679-1bd1a1db0642"},"vehicle_type_id":"4","last_reported":1736849350,"current_range_meters":36400,"station_id":"ce4bhr92rcd13ifvqhsg","pricing_plan_id":"cebpf4jnsgd1na2vs0mg"},{"bike_id":"ee3a8e62-9612-4383-a90d-e2bce1f472cd","system_id":"levelo_inurba_marseille","lat":43.27494,"lon":5.42469,"is_reserved":false,"is_disabled":false,"rental_uris":{"android":"levelo://app?vid=ee3a8e62-9612-4383-a90d-e2bce1f472cd","ios":"levelo://app?vid=ee3a8e62-9612-4383-a90d-e2bce1f472cd"},"vehicle_type_id":"4","last_reported":1736849350,"current_range_meters":18800,"station_id":"ce4bhn92rcd13ifvqgrg","pricing_plan_id":"cebpf4jnsgd1na2vs0mg"},{"bike_id":"ddb41cf1-08d5-4912-801d-fd0c3b376b8a","system_id":"levelo_inurba_marseille","lat":43.29966,"lon":5.37184,"is_reserved":false,"is_disabled":false,"rental_uris":{"android":"levelo://app?vid=ddb41cf1-08d5-4912-801d-fd0c3b376b8a","ios":"levelo://app?vid=ddb41cf1-08d5-4912-801d-fd0c3b376b8a"},"vehicle_type_id":"4","last_reported":1736849350,"current_range_meters":35600,"station_id":"ce4bgr92rcd13ifvqc7g","pricing_plan_id":"cebpf4jnsgd1na2vs0mg"},{"bike_id":"1e72500a-a638-4270-b0f0-d3bef5f78eaa","system_id":"levelo_inurba_marseille","lat":43.23158,"lon":5.43745,"is_reserved":false,"is_disabled":false,"rental_uris":{"android":"levelo://app?vid=1e72500a-a638-4270-b0f0-d3bef5f78eaa","ios":"levelo://app?vid=1e72500a-a638-4270-b0f0-d3bef5f78eaa"},"vehicle_type_id":"4","last_reported":1736849350,"current_range_meters":33600,"station_id":"ce4bhmp2rcd13ifvqgog","pricing_plan_id":"cebpf4jnsgd1na2vs0mg"},{"bike_id":"d85a1d9b-f035-4b2a-858c-2526acab5ed6","system_id":"levelo_inurba_marseille","lat":43.301631,"lon":5.374209,"is_reserved":false,"is_disabled":true,"rental_uris":{"android":"levelo://app?vid=d85a1d9b-f035-4b2a-858c-2526acab5ed6","ios":"levelo://app?vid=d85a1d9b-f035-4b2a-858c-2526acab5ed6"},"vehicle_type_id":"4","last_reported":1736849350,"current_range_meters":35600,"station_id":"ce4bgs92rcd13ifvqcc0","pricing_plan_id":"cebpf4jnsgd1na2vs0mg"},{"bike_id":"c0b74adc-1200-45f2-b990-75a202f7838e","system_id":"levelo_inurba_marseille","lat":43.30276,"lon":5.37722,"is_reserved":false,"is_disabled":false,"rental_uris":{"android":"levelo://app?vid=c0b74adc-1200-45f2-b990-75a202f7838e","ios":"levelo://app?vid=c0b74adc-1200-45f2-b990-75a202f7838e"},"vehicle_type_id":"4","last_reported":1736849350,"current_range_meters":24800,"station_id":"ce4bguh2rcd13ifvqcj0","pricing_plan_id":"cebpf4jnsgd1na2vs0mg"},{"bike_id":"5901f4de-f320-42a7-a3ee-cdd54016ad77","system_id":"levelo_inurba_marseille","lat":43.27961,"lon":5.3874,"is_reserved":false,"is_disabled":false,"rental_uris":{"android":"levelo://app?vid=5901f4de-f320-42a7-a3ee-cdd54016ad77","ios":"levelo://app?vid=5901f4de-f320-42a7-a3ee-cdd54016ad77"},"vehicle_type_id":"4","last_reported":1736849350,"current_range_meters":38400,"station_id":"ce4bhg12rcd13ifvqf80","pricing_plan_id":"cebpf4jnsgd1na2vs0mg"},{"bike_id":"4d8f2bd3-28e6-4a6b-bf9a-7e46e3c91edf","system_id":"levelo_inurba_marseille","lat":43.3013,"lon":5.37425,"is_reserved":false,"is_disabled":false,"rental_uris":{"android":"levelo://app?vid=4d8f2bd3-28e6-4a6b-bf9a-7e46e3c91edf","ios":"levelo://app?vid=4d8f2bd3-28e6-4a6b-bf9a-7e46e3c91edf"},"vehicle_type_id":"4","last_reported":1736849350,"current_range_meters":38800,"station_id":"ce4bgs92rcd13ifvqcc0","pricing_plan_id":"cebpf4jnsgd1na2vs0mg"},{"bike_id":"42cfeef1-ded8-43ac-8888-284da4376b57","system_id":"levelo_inurba_marseille","lat":43.32415,"lon":5.36618,"is_reserved":false,"is_disabled":false,"rental_uris":{"android":"levelo://app?vid=42cfeef1-ded8-43ac-8888-284da4376b57","ios":"levelo://app?vid=42cfeef1-ded8-43ac-8888-284da4376b57"},"vehicle_type_id":"4","last_reported":1736849350,"current_range_meters":28400,"station_id":"ce4bhs12rcd13ifvqhvg","pricing_plan_id":"cebpf4jnsgd1na2vs0mg"},{"bike_id":"2f2fd48e-c1a7-40e7-aa64-ce721b4345b6","system_id":"levelo_inurba_marseille","lat":43.28259,"lon":5.35076,"is_reserved":false,"is_disabled":false,"rental_uris":{"android":"levelo://app?vid=2f2fd48e-c1a7-40e7-aa64-ce721b4345b6","ios":"levelo://app?vid=2f2fd48e-c1a7-40e7-aa64-ce721b4345b6"},"vehicle_type_id":"4","last_reported":1736849350,"current_range_meters":8800,"station_id":"ce4bhbp2rcd13ifvqerg","pricing_plan_id":"cebpf4jnsgd1na2vs0mg"},{"bike_id":"6ba8d844-4be9-4966-b91c-0b5bcfe6a94b","system_id":"levelo_inurba_marseille","lat":43.29168,"lon":5.37154,"is_reserved":false,"is_disabled":true,"rental_uris":{"android":"levelo://app?vid=6ba8d844-4be9-4966-b91c-0b5bcfe6a94b","ios":"levelo://app?vid=6ba8d844-4be9-4966-b91c-0b5bcfe6a94b"},"vehicle_type_id":"4","last_reported":1736849350,"current_range_meters":37600,"station_id":"ce4bha92rcd13ifvqeh0","pricing_plan_id":"cebpf4jnsgd1na2vs0mg"},{"bike_id":"59d914a9-7941-4d0c-ad3f-66ae0befc663","system_id":"levelo_inurba_marseille","lat":43.28027,"lon":5.36975,"is_reserved":false,"is_disabled":false,"rental_uris":{"android":"levelo://app?vid=59d914a9-7941-4d0c-ad3f-66ae0befc663","ios":"levelo://app?vid=59d914a9-7941-4d0c-ad3f-66ae0befc663"},"vehicle_type_id":"4","last_reported":1736849350,"current_range_meters":8000,"station_id":"ce4bha12rcd13ifvqef0","pricing_plan_id":"cebpf4jnsgd1na2vs0mg"},{"bike_id":"426ee80e-06b0-4d0f-86a5-ea8ad64aaa11","system_id":"levelo_inurba_marseille","lat":43.28907,"lon":5.43781,"is_reserved":false,"is_disabled":false,"rental_uris":{"android":"levelo://app?vid=426ee80e-06b0-4d0f-86a5-ea8ad64aaa11","ios":"levelo://app?vid=426ee80e-06b0-4d0f-86a5-ea8ad64aaa11"},"vehicle_type_id":"4","last_reported":1736849350,"current_range_meters":6400,"station_id":"","pricing_plan_id":"cebpf4jnsgd1na2vs0mg"},{"bike_id":"0e149c29-3117-4028-b082-f697f135dae1","system_id":"levelo_inurba_marseille","lat":43.33615,"lon":5.40986,"is_reserved":false,"is_disabled":false,"rental_uris":{"android":"levelo://app?vid=0e149c29-3117-4028-b082-f697f135dae1","ios":"levelo://app?vid=0e149c29-3117-4028-b082-f697f135dae1"},"vehicle_type_id":"4","last_reported":1736849350,"current_range_meters":17600,"station_id":"ce4bhqh2rcd13ifvqhmg","pricing_plan_id":"cebpf4jnsgd1na2vs0mg"},{"bike_id":"192943ff-6579-4067-8b54-834fbf6d8760","system_id":"levelo_inurba_marseille","lat":43.27637,"lon":5.36098,"is_reserved":false,"is_disabled":false,"rental_uris":{"android":"levelo://app?vid=192943ff-6579-4067-8b54-834fbf6d8760","ios":"levelo://app?vid=192943ff-6579-4067-8b54-834fbf6d8760"},"vehicle_type_id":"4","last_reported":1736849350,"current_range_meters":27600,"station_id":"ce4bgj92rcd13ifvqbe0","pricing_plan_id":"cebpf4jnsgd1na2vs0mg"},{"bike_id":"969e27ab-5a9e-459e-9526-3b57e6f57682","system_id":"levelo_inurba_marseille","lat":43.22912,"lon":5.35378,"is_reserved":false,"is_disabled":false,"rental_uris":{"android":"levelo://app?vid=969e27ab-5a9e-459e-9526-3b57e6f57682","ios":"levelo://app?vid=969e27ab-5a9e-459e-9526-3b57e6f57682"},"vehicle_type_id":"4","last_reported":1736849350,"current_range_meters":38800,"station_id":"cpo3532slgdg3j2ikp40","pricing_plan_id":"cebpf4jnsgd1na2vs0mg"},{"bike_id":"1a0edb26-6918-425b-8387-f290be87a2c0","system_id":"levelo_inurba_marseille","lat":43.3311,"lon":5.38226,"is_reserved":false,"is_disabled":false,"rental_uris":{"android":"levelo://app?vid=1a0edb26-6918-425b-8387-f290be87a2c0","ios":"levelo://app?vid=1a0edb26-6918-425b-8387-f290be87a2c0"},"vehicle_type_id":"4","last_reported":1736849350,"current_range_meters":36400,"station_id":"","pricing_plan_id":"cebpf4jnsgd1na2vs0mg"},{"bike_id":"ce380c6a-e56b-470a-834a-e83eaabaa1f8","system_id":"levelo_inurba_marseille","lat":43.29963,"lon":5.38502,"is_reserved":false,"is_disabled":false,"rental_uris":{"android":"levelo://app?vid=ce380c6a-e56b-470a-834a-e83eaabaa1f8","ios":"levelo://app?vid=ce380c6a-e56b-470a-834a-e83eaabaa1f8"},"vehicle_type_id":"4","last_reported":1736849350,"current_range_meters":25600,"station_id":"ce4bgj92rcd13ifvqbd0","pricing_plan_id":"cebpf4jnsgd1na2vs0mg"},{"bike_id":"13fe195f-e01b-4420-aa12-4802e9b2b635","system_id":"levelo_inurba_marseille","lat":43.31352,"lon":5.36712,"is_reserved":false,"is_disabled":false,"rental_uris":{"android":"levelo://app?vid=13fe195f-e01b-4420-aa12-4802e9b2b635","ios":"levelo://app?vid=13fe195f-e01b-4420-aa12-4802e9b2b635"},"vehicle_type_id":"4","last_reported":1736849350,"current_range_meters":38000,"station_id":"ce4bgr92rcd13ifvqc6g","pricing_plan_id":"cebpf4jnsgd1na2vs0mg"},{"bike_id":"ac7622ab-4830-458c-b11f-ed9612c9d1cb","system_id":"levelo_inurba_marseille","lat":43.2961,"lon":5.3772,"is_reserved":false,"is_disabled":false,"rental_uris":{"android":"levelo://app?vid=ac7622ab-4830-458c-b11f-ed9612c9d1cb","ios":"levelo://app?vid=ac7622ab-4830-458c-b11f-ed9612c9d1cb"},"vehicle_type_id":"4","last_reported":1736849350,"current_range_meters":25200,"station_id":"ce4bgi92rcd13ifvqb90","pricing_plan_id":"cebpf4jnsgd1na2vs0mg"},{"bike_id":"ab10846d-13f2-4f21-8075-25b6583e29b0","system_id":"levelo_inurba_marseille","lat":43.25943,"lon":5.40909,"is_reserved":false,"is_disabled":false,"rental_uris":{"android":"levelo://app?vid=ab10846d-13f2-4f21-8075-25b6583e29b0","ios":"levelo://app?vid=ab10846d-13f2-4f21-8075-25b6583e29b0"},"vehicle_type_id":"4","last_reported":1736849350,"current_range_meters":18800,"station_id":"ce4bhm92rcd13ifvqglg","pricing_plan_id":"cebpf4jnsgd1na2vs0mg"},{"bike_id":"f4dbc556-58b0-4dfd-be99-18a51c032520","system_id":"levelo_inurba_marseille","lat":43.24188,"lon":5.397,"is_reserved":false,"is_disabled":false,"rental_uris":{"android":"levelo://app?vid=f4dbc556-58b0-4dfd-be99-18a51c032520","ios":"levelo://app?vid=f4dbc556-58b0-4dfd-be99-18a51c032520"},"vehicle_type_id":"4","last_reported":1736849350,"current_range_meters":27600,"station_id":"ce4bhn12rcd13ifvqgpg","pricing_plan_id":"cebpf4jnsgd1na2vs0mg"},{"bike_id":"ccd411af-8ccc-4cc2-844f-953f5dc15dc3","system_id":"levelo_inurba_marseille","lat":43.30303,"lon":5.36889,"is_reserved":false,"is_disabled":false,"rental_uris":{"android":"levelo://app?vid=ccd411af-8ccc-4cc2-844f-953f5dc15dc3","ios":"levelo://app?vid=ccd411af-8ccc-4cc2-844f-953f5dc15dc3"},"vehicle_type_id":"4","last_reported":1736849350,"current_range_meters":29600,"station_id":"ce4bgqh2rcd13ifvqc5g","pricing_plan_id":"cebpf4jnsgd1na2vs0mg"},{"bike_id":"2c706f5e-b3a2-4f62-b5b0-817900f3e0ad","system_id":"levelo_inurba_marseille","lat":43.30551,"lon":5.36688,"is_reserved":false,"is_disabled":false,"rental_uris":{"android":"levelo://app?vid=2c706f5e-b3a2-4f62-b5b0-817900f3e0ad","ios":"levelo://app?vid=2c706f5e-b3a2-4f62-b5b0-817900f3e0ad"},"vehicle_type_id":"4","last_reported":1736849350,"current_range_meters":38800,"station_id":"ce4bgrp2rcd13ifvqc9g","pricing_plan_id":"cebpf4jnsgd1na2vs0mg"},{"bike_id":"d868d77f-7805-419a-a8ab-84b74acf4c18","system_id":"levelo_inurba_marseille","lat":43.30543,"lon":5.3656,"is_reserved":false,"is_disabled":false,"rental_uris":{"android":"levelo://app?vid=d868d77f-7805-419a-a8ab-84b74acf4c18","ios":"levelo://app?vid=d868d77f-7805-419a-a8ab-84b74acf4c18"},"vehicle_type_id":"4","last_reported":1736849350,"current_range_meters":33200,"station_id":"ce4bgs12rcd13ifvqcag","pricing_plan_id":"cebpf4jnsgd1na2vs0mg"},{"bike_id":"a9d6e941-c378-47e2-8f05-e8f71bdb383e","system_id":"levelo_inurba_marseille","lat":43.26794,"lon":5.39413,"is_reserved":false,"is_disabled":false,"rental_uris":{"android":"levelo://app?vid=a9d6e941-c378-47e2-8f05-e8f71bdb383e","ios":"levelo://app?vid=a9d6e941-c378-47e2-8f05-e8f71bdb383e"},"vehicle_type_id":"4","last_reported":1736849350,"current_range_meters":39200,"station_id":"ce4bhh12rcd13ifvqfg0","pricing_plan_id":"cebpf4jnsgd1na2vs0mg"},{"bike_id":"766b2c1d-63aa-4d1e-afec-cad329be1783","system_id":"levelo_inurba_marseille","lat":43.29414,"lon":5.3863,"is_reserved":false,"is_disabled":false,"rental_uris":{"android":"levelo://app?vid=766b2c1d-63aa-4d1e-afec-cad329be1783","ios":"levelo://app?vid=766b2c1d-63aa-4d1e-afec-cad329be1783"},"vehicle_type_id":"4","last_reported":1736849350,"current_range_meters":38800,"station_id":"ce4bh2h2rcd13ifvqdh0","pricing_plan_id":"cebpf4jnsgd1na2vs0mg"},{"bike_id":"9f6f071c-7c59-4d08-9963-df26a1256e44","system_id":"levelo_inurba_marseille","lat":43.24651,"lon":5.38901,"is_reserved":false,"is_disabled":false,"rental_uris":{"android":"levelo://app?vid=9f6f071c-7c59-4d08-9963-df26a1256e44","ios":"levelo://app?vid=9f6f071c-7c59-4d08-9963-df26a1256e44"},"vehicle_type_id":"4","last_reported":1736849350,"current_range_meters":39200,"station_id":"ce4bhg12rcd13ifvqf60","pricing_plan_id":"cebpf4jnsgd1na2vs0mg"},{"bike_id":"54f47887-32c4-4025-b7d6-6a9c8fa58f61","system_id":"levelo_inurba_marseille","lat":43.28441,"lon":5.39206,"is_reserved":false,"is_disabled":false,"rental_uris":{"android":"levelo://app?vid=54f47887-32c4-4025-b7d6-6a9c8fa58f61","ios":"levelo://app?vid=54f47887-32c4-4025-b7d6-6a9c8fa58f61"},"vehicle_type_id":"4","last_reported":1736849350,"current_range_meters":36400,"station_id":"ce4bhoh2rcd13ifvqh5g","pricing_plan_id":"cebpf4jnsgd1na2vs0mg"},{"bike_id":"0f0e1c4e-08f0-424e-9fdc-37fa8fa62462","system_id":"levelo_inurba_marseille","lat":43.29598,"lon":5.38107,"is_reserved":false,"is_disabled":false,"rental_uris":{"android":"levelo://app?vid=0f0e1c4e-08f0-424e-9fdc-37fa8fa62462","ios":"levelo://app?vid=0f0e1c4e-08f0-424e-9fdc-37fa8fa62462"},"vehicle_type_id":"4","last_reported":1736849350,"current_range_meters":19600,"station_id":"ce4bgl12rcd13ifvqbo0","pricing_plan_id":"cebpf4jnsgd1na2vs0mg"},{"bike_id":"ade1ffd7-379f-44ee-93e1-8c261178e187","system_id":"levelo_inurba_marseille","lat":43.24805,"lon":5.37454,"is_reserved":false,"is_disabled":false,"rental_uris":{"android":"levelo://app?vid=ade1ffd7-379f-44ee-93e1-8c261178e187","ios":"levelo://app?vid=ade1ffd7-379f-44ee-93e1-8c261178e187"},"vehicle_type_id":"4","last_reported":1736849350,"current_range_meters":20800,"station_id":"ce4bhgh2rcd13ifvqfb0","pricing_plan_id":"cebpf4jnsgd1na2vs0mg"},{"bike_id":"d819cb7c-c333-40a5-9025-e41e1275b43f","system_id":"levelo_inurba_marseille","lat":43.28456,"lon":5.35892,"is_reserved":false,"is_disabled":false,"rental_uris":{"android":"levelo://app?vid=d819cb7c-c333-40a5-9025-e41e1275b43f","ios":"levelo://app?vid=d819cb7c-c333-40a5-9025-e41e1275b43f"},"vehicle_type_id":"4","last_reported":1736849350,"current_range_meters":17600,"station_id":"ce4bhah2rcd13ifvqei0","pricing_plan_id":"cebpf4jnsgd1na2vs0mg"},{"bike_id":"755e5c0a-8de7-4ee5-9d4e-5ec609711170","system_id":"levelo_inurba_marseille","lat":43.29599,"lon":5.38084,"is_reserved":false,"is_disabled":true,"rental_uris":{"android":"levelo://app?vid=755e5c0a-8de7-4ee5-9d4e-5ec609711170","ios":"levelo://app?vid=755e5c0a-8de7-4ee5-9d4e-5ec609711170"},"vehicle_type_id":"4","last_reported":1736849350,"current_range_meters":31200,"station_id":"ce4bgl12rcd13ifvqbo0","pricing_plan_id":"cebpf4jnsgd1na2vs0mg"},{"bike_id":"89096f8f-b31f-4f84-85ad-b01b669e00f2","system_id":"levelo_inurba_marseille","lat":43.29744,"lon":5.37682,"is_reserved":false,"is_disabled":false,"rental_uris":{"android":"levelo://app?vid=89096f8f-b31f-4f84-85ad-b01b669e00f2","ios":"levelo://app?vid=89096f8f-b31f-4f84-85ad-b01b669e00f2"},"vehicle_type_id":"4","last_reported":1736849350,"current_range_meters":25600,"station_id":"ce4bgkh2rcd13ifvqbl0","pricing_plan_id":"cebpf4jnsgd1na2vs0mg"},{"bike_id":"7a1457f0-7f09-4eea-b1f3-2e9174a14fd4","system_id":"levelo_inurba_marseille","lat":43.28415,"lon":5.37528,"is_reserved":false,"is_disabled":true,"rental_uris":{"android":"levelo://app?vid=7a1457f0-7f09-4eea-b1f3-2e9174a14fd4","ios":"levelo://app?vid=7a1457f0-7f09-4eea-b1f3-2e9174a14fd4"},"vehicle_type_id":"4","last_reported":1736849350,"current_range_meters":2000,"station_id":"ce4bh412rcd13ifvqds0","pricing_plan_id":"cebpf4jnsgd1na2vs0mg"},{"bike_id":"cc9cf4e4-bd05-4828-9c34-27bb5e5951f4","system_id":"levelo_inurba_marseille","lat":43.25931,"lon":5.40907,"is_reserved":false,"is_disabled":false,"rental_uris":{"android":"levelo://app?vid=cc9cf4e4-bd05-4828-9c34-27bb5e5951f4","ios":"levelo://app?vid=cc9cf4e4-bd05-4828-9c34-27bb5e5951f4"},"vehicle_type_id":"4","last_reported":1736849350,"current_range_meters":4800,"station_id":"ce4bhm92rcd13ifvqglg","pricing_plan_id":"cebpf4jnsgd1na2vs0mg"},{"bike_id":"d33744cd-ebfe-4100-8a8a-ae550561ad04","system_id":"levelo_inurba_marseille","lat":43.3254,"lon":5.4148,"is_reserved":false,"is_disabled":false,"rental_uris":{"android":"levelo://app?vid=d33744cd-ebfe-4100-8a8a-ae550561ad04","ios":"levelo://app?vid=d33744cd-ebfe-4100-8a8a-ae550561ad04"},"vehicle_type_id":"4","last_reported":1736849350,"current_range_meters":9600,"station_id":"ce4bhq12rcd13ifvqhhg","pricing_plan_id":"cebpf4jnsgd1na2vs0mg"},{"bike_id":"a15980ac-c225-4e68-8982-6cc8c4cbfd79","system_id":"levelo_inurba_marseille","lat":43.23185,"lon":5.35554,"is_reserved":false,"is_disabled":false,"rental_uris":{"android":"levelo://app?vid=a15980ac-c225-4e68-8982-6cc8c4cbfd79","ios":"levelo://app?vid=a15980ac-c225-4e68-8982-6cc8c4cbfd79"},"vehicle_type_id":"4","last_reported":1736849350,"current_range_meters":6800,"station_id":"ce4bhu92rcd13ifvqi70","pricing_plan_id":"cebpf4jnsgd1na2vs0mg"},{"bike_id":"10116162-4267-4ce4-b7dc-9ee3e321d159","system_id":"levelo_inurba_marseille","lat":43.24067,"lon":5.37765,"is_reserved":false,"is_disabled":false,"rental_uris":{"android":"levelo://app?vid=10116162-4267-4ce4-b7dc-9ee3e321d159","ios":"levelo://app?vid=10116162-4267-4ce4-b7dc-9ee3e321d159"},"vehicle_type_id":"4","last_reported":1736849350,"current_range_meters":14000,"station_id":"ce4bhnp2rcd13ifvqgvg","pricing_plan_id":"cebpf4jnsgd1na2vs0mg"},{"bike_id":"4ce341d0-587a-4da8-a763-1eff0cb53c70","system_id":"levelo_inurba_marseille","lat":43.30275,"lon":5.37709,"is_reserved":false,"is_disabled":false,"rental_uris":{"android":"levelo://app?vid=4ce341d0-587a-4da8-a763-1eff0cb53c70","ios":"levelo://app?vid=4ce341d0-587a-4da8-a763-1eff0cb53c70"},"vehicle_type_id":"4","last_reported":1736849350,"current_range_meters":38400,"station_id":"ce4bguh2rcd13ifvqcj0","pricing_plan_id":"cebpf4jnsgd1na2vs0mg"},{"bike_id":"3b9d8bd4-42e6-461b-8794-9af02bd014c6","system_id":"levelo_inurba_marseille","lat":43.30941,"lon":5.39069,"is_reserved":false,"is_disabled":false,"rental_uris":{"android":"levelo://app?vid=3b9d8bd4-42e6-461b-8794-9af02bd014c6","ios":"levelo://app?vid=3b9d8bd4-42e6-461b-8794-9af02bd014c6"},"vehicle_type_id":"4","last_reported":1736849350,"current_range_meters":30000,"station_id":"ce4bgup2rcd13ifvqco0","pricing_plan_id":"cebpf4jnsgd1na2vs0mg"},{"bike_id":"3b74a056-c0cf-4f44-8772-22ed33115fcd","system_id":"levelo_inurba_marseille","lat":43.232,"lon":5.39975,"is_reserved":false,"is_disabled":false,"rental_uris":{"android":"levelo://app?vid=3b74a056-c0cf-4f44-8772-22ed33115fcd","ios":"levelo://app?vid=3b74a056-c0cf-4f44-8772-22ed33115fcd"},"vehicle_type_id":"4","last_reported":1736849350,"current_range_meters":38800,"station_id":"ce4bhn12rcd13ifvqgqg","pricing_plan_id":"cebpf4jnsgd1na2vs0mg"},{"bike_id":"8ea63c67-c242-4094-beda-b37084591416","system_id":"levelo_inurba_marseille","lat":43.29613,"lon":5.37724,"is_reserved":false,"is_disabled":false,"rental_uris":{"android":"levelo://app?vid=8ea63c67-c242-4094-beda-b37084591416","ios":"levelo://app?vid=8ea63c67-c242-4094-beda-b37084591416"},"vehicle_type_id":"4","last_reported":1736849350,"current_range_meters":30400,"station_id":"ce4bgi92rcd13ifvqb90","pricing_plan_id":"cebpf4jnsgd1na2vs0mg"},{"bike_id":"3f404148-f2c7-44b8-a466-977741fe2f8d","system_id":"levelo_inurba_marseille","lat":43.279167,"lon":5.395767,"is_reserved":false,"is_disabled":false,"rental_uris":{"android":"levelo://app?vid=3f404148-f2c7-44b8-a466-977741fe2f8d","ios":"levelo://app?vid=3f404148-f2c7-44b8-a466-977741fe2f8d"},"vehicle_type_id":"4","last_reported":1736849350,"current_range_meters":29600,"station_id":"ce4bhf92rcd13ifvqf40","pricing_plan_id":"cebpf4jnsgd1na2vs0mg"},{"bike_id":"7a6c262a-cea0-4455-9870-5049b5036297","system_id":"levelo_inurba_marseille","lat":43.24075,"lon":5.37742,"is_reserved":false,"is_disabled":false,"rental_uris":{"android":"levelo://app?vid=7a6c262a-cea0-4455-9870-5049b5036297","ios":"levelo://app?vid=7a6c262a-cea0-4455-9870-5049b5036297"},"vehicle_type_id":"4","last_reported":1736849350,"current_range_meters":23200,"station_id":"ce4bhnp2rcd13ifvqgvg","pricing_plan_id":"cebpf4jnsgd1na2vs0mg"},{"bike_id":"988277d2-e4af-4d55-b043-26d410f9bb0c","system_id":"levelo_inurba_marseille","lat":43.25715,"lon":5.41088,"is_reserved":false,"is_disabled":false,"rental_uris":{"android":"levelo://app?vid=988277d2-e4af-4d55-b043-26d410f9bb0c","ios":"levelo://app?vid=988277d2-e4af-4d55-b043-26d410f9bb0c"},"vehicle_type_id":"4","last_reported":1736849350,"current_range_meters":27600,"station_id":"ce4bhkp2rcd13ifvqgd0","pricing_plan_id":"cebpf4jnsgd1na2vs0mg"},{"bike_id":"51bb6953-dea8-4e82-96bf-52696267905f","system_id":"levelo_inurba_marseille","lat":43.23053,"lon":5.35499,"is_reserved":false,"is_disabled":false,"rental_uris":{"android":"levelo://app?vid=51bb6953-dea8-4e82-96bf-52696267905f","ios":"levelo://app?vid=51bb6953-dea8-4e82-96bf-52696267905f"},"vehicle_type_id":"4","last_reported":1736849350,"current_range_meters":8800,"station_id":"cpo3342slgdg3j2ifvpg","pricing_plan_id":"cebpf4jnsgd1na2vs0mg"},{"bike_id":"ae1b2fa7-b6f8-4ffa-90ee-2a5773459d24","system_id":"levelo_inurba_marseille","lat":43.30177,"lon":5.36624,"is_reserved":false,"is_disabled":false,"rental_uris":{"android":"levelo://app?vid=ae1b2fa7-b6f8-4ffa-90ee-2a5773459d24","ios":"levelo://app?vid=ae1b2fa7-b6f8-4ffa-90ee-2a5773459d24"},"vehicle_type_id":"4","last_reported":1736849350,"current_range_meters":38800,"station_id":"ce4bgrh2rcd13ifvqc8g","pricing_plan_id":"cebpf4jnsgd1na2vs0mg"},{"bike_id":"a66780a5-bc12-4740-a93c-6b52209daab3","system_id":"levelo_inurba_marseille","lat":43.3135,"lon":5.36749,"is_reserved":false,"is_disabled":false,"rental_uris":{"android":"levelo://app?vid=a66780a5-bc12-4740-a93c-6b52209daab3","ios":"levelo://app?vid=a66780a5-bc12-4740-a93c-6b52209daab3"},"vehicle_type_id":"4","last_reported":1736849350,"current_range_meters":22800,"station_id":"ce4bgr92rcd13ifvqc6g","pricing_plan_id":"cebpf4jnsgd1na2vs0mg"},{"bike_id":"26f0d560-e21c-4ccf-971b-31c08094238b","system_id":"levelo_inurba_marseille","lat":43.30139,"lon":5.37423,"is_reserved":false,"is_disabled":false,"rental_uris":{"android":"levelo://app?vid=26f0d560-e21c-4ccf-971b-31c08094238b","ios":"levelo://app?vid=26f0d560-e21c-4ccf-971b-31c08094238b"},"vehicle_type_id":"4","last_reported":1736849350,"current_range_meters":12400,"station_id":"ce4bgs92rcd13ifvqcc0","pricing_plan_id":"cebpf4jnsgd1na2vs0mg"},{"bike_id":"a4e288a5-ac6a-42fd-81ad-5d913c49f177","system_id":"levelo_inurba_marseille","lat":43.27612,"lon":5.36117,"is_reserved":false,"is_disabled":false,"rental_uris":{"android":"levelo://app?vid=a4e288a5-ac6a-42fd-81ad-5d913c49f177","ios":"levelo://app?vid=a4e288a5-ac6a-42fd-81ad-5d913c49f177"},"vehicle_type_id":"4","last_reported":1736849350,"current_range_meters":38800,"station_id":"ce4bgj92rcd13ifvqbe0","pricing_plan_id":"cebpf4jnsgd1na2vs0mg"},{"bike_id":"43f0aab3-581c-4ae5-a07f-bffcc27a96c2","system_id":"levelo_inurba_marseille","lat":43.29557,"lon":5.37497,"is_reserved":false,"is_disabled":true,"rental_uris":{"android":"levelo://app?vid=43f0aab3-581c-4ae5-a07f-bffcc27a96c2","ios":"levelo://app?vid=43f0aab3-581c-4ae5-a07f-bffcc27a96c2"},"vehicle_type_id":"4","last_reported":1736849350,"current_range_meters":38800,"station_id":"ce4bgh92rcd13ifvqb50","pricing_plan_id":"cebpf4jnsgd1na2vs0mg"},{"bike_id":"f4181291-26ce-4ba8-8c6c-edabefdc9f05","system_id":"levelo_inurba_marseille","lat":43.25498,"lon":5.3766,"is_reserved":false,"is_disabled":false,"rental_uris":{"android":"levelo://app?vid=f4181291-26ce-4ba8-8c6c-edabefdc9f05","ios":"levelo://app?vid=f4181291-26ce-4ba8-8c6c-edabefdc9f05"},"vehicle_type_id":"4","last_reported":1736849350,"current_range_meters":35200,"station_id":"ce4bhh12rcd13ifvqff0","pricing_plan_id":"cebpf4jnsgd1na2vs0mg"},{"bike_id":"0692f5cb-322a-4ce9-bdd8-a8004dac8c3a","system_id":"levelo_inurba_marseille","lat":43.30111,"lon":5.37433,"is_reserved":false,"is_disabled":false,"rental_uris":{"android":"levelo://app?vid=0692f5cb-322a-4ce9-bdd8-a8004dac8c3a","ios":"levelo://app?vid=0692f5cb-322a-4ce9-bdd8-a8004dac8c3a"},"vehicle_type_id":"4","last_reported":1736849350,"current_range_meters":28000,"station_id":"ce4bgs92rcd13ifvqcc0","pricing_plan_id":"cebpf4jnsgd1na2vs0mg"},{"bike_id":"a31e74df-a4bd-47b0-b70f-97ec6ff3ac39","system_id":"levelo_inurba_marseille","lat":43.24537,"lon":5.39533,"is_reserved":false,"is_disabled":false,"rental_uris":{"android":"levelo://app?vid=a31e74df-a4bd-47b0-b70f-97ec6ff3ac39","ios":"levelo://app?vid=a31e74df-a4bd-47b0-b70f-97ec6ff3ac39"},"vehicle_type_id":"4","last_reported":1736849350,"current_range_meters":22800,"station_id":"ce4bhlp2rcd13ifvqgjg","pricing_plan_id":"cebpf4jnsgd1na2vs0mg"},{"bike_id":"5990c77e-0c3e-49e6-8740-517768f80344","system_id":"levelo_inurba_marseille","lat":43.24163,"lon":5.39741,"is_reserved":false,"is_disabled":false,"rental_uris":{"android":"levelo://app?vid=5990c77e-0c3e-49e6-8740-517768f80344","ios":"levelo://app?vid=5990c77e-0c3e-49e6-8740-517768f80344"},"vehicle_type_id":"4","last_reported":1736849350,"current_range_meters":36800,"station_id":"ce4bhn12rcd13ifvqgpg","pricing_plan_id":"cebpf4jnsgd1na2vs0mg"},{"bike_id":"56a37990-c381-414a-8c27-59f20eae88ce","system_id":"levelo_inurba_marseille","lat":43.25,"lon":5.38934,"is_reserved":false,"is_disabled":false,"rental_uris":{"android":"levelo://app?vid=56a37990-c381-414a-8c27-59f20eae88ce","ios":"levelo://app?vid=56a37990-c381-414a-8c27-59f20eae88ce"},"vehicle_type_id":"4","last_reported":1736849350,"current_range_meters":15200,"station_id":"ce4bhgp2rcd13ifvqfd0","pricing_plan_id":"cebpf4jnsgd1na2vs0mg"},{"bike_id":"b0159d0c-74f0-403f-833d-d964c3d598e3","system_id":"levelo_inurba_marseille","lat":43.26198,"lon":5.37482,"is_reserved":false,"is_disabled":false,"rental_uris":{"android":"levelo://app?vid=b0159d0c-74f0-403f-833d-d964c3d598e3","ios":"levelo://app?vid=b0159d0c-74f0-403f-833d-d964c3d598e3"},"vehicle_type_id":"4","last_reported":1736849350,"current_range_meters":29600,"station_id":"ce4bhgp2rcd13ifvqfc0","pricing_plan_id":"cebpf4jnsgd1na2vs0mg"},{"bike_id":"a56bdef2-14b8-4e02-b3bc-538917283971","system_id":"levelo_inurba_marseille","lat":43.25082,"lon":5.3952,"is_reserved":false,"is_disabled":false,"rental_uris":{"android":"levelo://app?vid=a56bdef2-14b8-4e02-b3bc-538917283971","ios":"levelo://app?vid=a56bdef2-14b8-4e02-b3bc-538917283971"},"vehicle_type_id":"4","last_reported":1736849350,"current_range_meters":32400,"station_id":"ce4bhm12rcd13ifvqgkg","pricing_plan_id":"cebpf4jnsgd1na2vs0mg"},{"bike_id":"037031b6-39dd-486b-99bb-ebe05f9a77df","system_id":"levelo_inurba_marseille","lat":43.26946,"lon":5.38679,"is_reserved":false,"is_disabled":false,"rental_uris":{"android":"levelo://app?vid=037031b6-39dd-486b-99bb-ebe05f9a77df","ios":"levelo://app?vid=037031b6-39dd-486b-99bb-ebe05f9a77df"},"vehicle_type_id":"4","last_reported":1736849350,"current_range_meters":37600,"station_id":"ce4bhh92rcd13ifvqfh0","pricing_plan_id":"cebpf4jnsgd1na2vs0mg"},{"bike_id":"a2f62a70-5bf9-4e29-9b68-e4a8567d4fb8","system_id":"levelo_inurba_marseille","lat":43.29303,"lon":5.37183,"is_reserved":false,"is_disabled":false,"rental_uris":{"android":"levelo://app?vid=a2f62a70-5bf9-4e29-9b68-e4a8567d4fb8","ios":"levelo://app?vid=a2f62a70-5bf9-4e29-9b68-e4a8567d4fb8"},"vehicle_type_id":"4","last_reported":1736849350,"current_range_meters":37600,"station_id":"ce4bgh92rcd13ifvqb40","pricing_plan_id":"cebpf4jnsgd1na2vs0mg"},{"bike_id":"0019777d-3037-4e94-9b73-13bb16679035","system_id":"levelo_inurba_marseille","lat":43.31319,"lon":5.39706,"is_reserved":false,"is_disabled":false,"rental_uris":{"android":"levelo://app?vid=0019777d-3037-4e94-9b73-13bb16679035","ios":"levelo://app?vid=0019777d-3037-4e94-9b73-13bb16679035"},"vehicle_type_id":"4","last_reported":1736849350,"current_range_meters":23200,"station_id":"ce4bgvp2rcd13ifvqcu0","pricing_plan_id":"cebpf4jnsgd1na2vs0mg"},{"bike_id":"b51b8509-c21e-40ac-802b-edd56e55cdd0","system_id":"levelo_inurba_marseille","lat":43.30367,"lon":5.41877,"is_reserved":false,"is_disabled":true,"rental_uris":{"android":"levelo://app?vid=b51b8509-c21e-40ac-802b-edd56e55cdd0","ios":"levelo://app?vid=b51b8509-c21e-40ac-802b-edd56e55cdd0"},"vehicle_type_id":"4","last_reported":1736849350,"current_range_meters":20800,"station_id":"ce4bhop2rcd13ifvqh7g","pricing_plan_id":"cebpf4jnsgd1na2vs0mg"},{"bike_id":"512c7bd5-5643-4f7d-a8c3-5cceff4f5ebd","system_id":"levelo_inurba_marseille","lat":43.27353,"lon":5.36239,"is_reserved":false,"is_disabled":false,"rental_uris":{"android":"levelo://app?vid=512c7bd5-5643-4f7d-a8c3-5cceff4f5ebd","ios":"levelo://app?vid=512c7bd5-5643-4f7d-a8c3-5cceff4f5ebd"},"vehicle_type_id":"4","last_reported":1736849350,"current_range_meters":9600,"station_id":"ce4bhbh2rcd13ifvqeo0","pricing_plan_id":"cebpf4jnsgd1na2vs0mg"},{"bike_id":"78fc2529-851e-44ea-9e17-e5a76c9197b1","system_id":"levelo_inurba_marseille","lat":43.297217,"lon":5.37696,"is_reserved":false,"is_disabled":true,"rental_uris":{"android":"levelo://app?vid=78fc2529-851e-44ea-9e17-e5a76c9197b1","ios":"levelo://app?vid=78fc2529-851e-44ea-9e17-e5a76c9197b1"},"vehicle_type_id":"4","last_reported":1736849350,"current_range_meters":35200,"station_id":"ce4bgkh2rcd13ifvqbl0","pricing_plan_id":"cebpf4jnsgd1na2vs0mg"},{"bike_id":"018313d9-eaeb-4426-bc4b-d6b85b690c64","system_id":"levelo_inurba_marseille","lat":43.32542,"lon":5.41466,"is_reserved":false,"is_disabled":false,"rental_uris":{"android":"levelo://app?vid=018313d9-eaeb-4426-bc4b-d6b85b690c64","ios":"levelo://app?vid=018313d9-eaeb-4426-bc4b-d6b85b690c64"},"vehicle_type_id":"4","last_reported":1736849350,"current_range_meters":7200,"station_id":"ce4bhq12rcd13ifvqhhg","pricing_plan_id":"cebpf4jnsgd1na2vs0mg"},{"bike_id":"526dd1cc-89ce-48bf-bf8c-c113d03a552f","system_id":"levelo_inurba_marseille","lat":43.29574,"lon":5.37516,"is_reserved":false,"is_disabled":false,"rental_uris":{"android":"levelo://app?vid=526dd1cc-89ce-48bf-bf8c-c113d03a552f","ios":"levelo://app?vid=526dd1cc-89ce-48bf-bf8c-c113d03a552f"},"vehicle_type_id":"4","last_reported":1736849350,"current_range_meters":38800,"station_id":"ce4bgh92rcd13ifvqb50","pricing_plan_id":"cebpf4jnsgd1na2vs0mg"},{"bike_id":"23e3dc7e-8426-4547-ad72-0a247a82c950","system_id":"levelo_inurba_marseille","lat":43.2983,"lon":5.3627,"is_reserved":false,"is_disabled":false,"rental_uris":{"android":"levelo://app?vid=23e3dc7e-8426-4547-ad72-0a247a82c950","ios":"levelo://app?vid=23e3dc7e-8426-4547-ad72-0a247a82c950"},"vehicle_type_id":"4","last_reported":1736849350,"current_range_meters":39200,"station_id":"ce4bgpp2rcd13ifvqc3g","pricing_plan_id":"cebpf4jnsgd1na2vs0mg"},{"bike_id":"297fe3a9-b61b-49d2-b16c-9f94aaaf7d40","system_id":"levelo_inurba_marseille","lat":43.26656,"lon":5.3826,"is_reserved":false,"is_disabled":false,"rental_uris":{"android":"levelo://app?vid=297fe3a9-b61b-49d2-b16c-9f94aaaf7d40","ios":"levelo://app?vid=297fe3a9-b61b-49d2-b16c-9f94aaaf7d40"},"vehicle_type_id":"4","last_reported":1736849350,"current_range_meters":38800,"station_id":"ce4bhg92rcd13ifvqf90","pricing_plan_id":"cebpf4jnsgd1na2vs0mg"},{"bike_id":"68b1e43b-9c71-4641-91bf-78c3b9641aaa","system_id":"levelo_inurba_marseille","lat":43.27416,"lon":5.39384,"is_reserved":false,"is_disabled":false,"rental_uris":{"android":"levelo://app?vid=68b1e43b-9c71-4641-91bf-78c3b9641aaa","ios":"levelo://app?vid=68b1e43b-9c71-4641-91bf-78c3b9641aaa"},"vehicle_type_id":"4","last_reported":1736849350,"current_range_meters":38800,"station_id":"ce4bhdp2rcd13ifvqf20","pricing_plan_id":"cebpf4jnsgd1na2vs0mg"},{"bike_id":"0afc7826-9d37-482d-9261-bcf7fddfeae9","system_id":"levelo_inurba_marseille","lat":43.26938,"lon":5.38646,"is_reserved":false,"is_disabled":false,"rental_uris":{"android":"levelo://app?vid=0afc7826-9d37-482d-9261-bcf7fddfeae9","ios":"levelo://app?vid=0afc7826-9d37-482d-9261-bcf7fddfeae9"},"vehicle_type_id":"4","last_reported":1736849350,"current_range_meters":38800,"station_id":"ce4bhh92rcd13ifvqfh0","pricing_plan_id":"cebpf4jnsgd1na2vs0mg"},{"bike_id":"1666fb4e-d472-427b-85c1-4bed9c30c3c3","system_id":"levelo_inurba_marseille","lat":43.337444,"lon":5.374475,"is_reserved":false,"is_disabled":true,"rental_uris":{"android":"levelo://app?vid=1666fb4e-d472-427b-85c1-4bed9c30c3c3","ios":"levelo://app?vid=1666fb4e-d472-427b-85c1-4bed9c30c3c3"},"vehicle_type_id":"4","last_reported":1736849350,"current_range_meters":800,"station_id":"","pricing_plan_id":"cebpf4jnsgd1na2vs0mg"},{"bike_id":"24017be9-d1a6-4333-9509-641e776c3c03","system_id":"levelo_inurba_marseille","lat":43.24648,"lon":5.38898,"is_reserved":false,"is_disabled":false,"rental_uris":{"android":"levelo://app?vid=24017be9-d1a6-4333-9509-641e776c3c03","ios":"levelo://app?vid=24017be9-d1a6-4333-9509-641e776c3c03"},"vehicle_type_id":"4","last_reported":1736849350,"current_range_meters":39200,"station_id":"ce4bhg12rcd13ifvqf60","pricing_plan_id":"cebpf4jnsgd1na2vs0mg"},{"bike_id":"55a485d2-e04e-46aa-bdc4-35acee25f5cb","system_id":"levelo_inurba_marseille","lat":43.30879,"lon":5.3966,"is_reserved":false,"is_disabled":false,"rental_uris":{"android":"levelo://app?vid=55a485d2-e04e-46aa-bdc4-35acee25f5cb","ios":"levelo://app?vid=55a485d2-e04e-46aa-bdc4-35acee25f5cb"},"vehicle_type_id":"4","last_reported":1736849350,"current_range_meters":17600,"station_id":"ce4bh012rcd13ifvqcv0","pricing_plan_id":"cebpf4jnsgd1na2vs0mg"},{"bike_id":"9d32d530-2e9c-4c59-8595-4fc68709b756","system_id":"levelo_inurba_marseille","lat":43.25854,"lon":5.39906,"is_reserved":false,"is_disabled":false,"rental_uris":{"android":"levelo://app?vid=9d32d530-2e9c-4c59-8595-4fc68709b756","ios":"levelo://app?vid=9d32d530-2e9c-4c59-8595-4fc68709b756"},"vehicle_type_id":"4","last_reported":1736849350,"current_range_meters":2800,"station_id":"ce4bhl92rcd13ifvqghg","pricing_plan_id":"cebpf4jnsgd1na2vs0mg"},{"bike_id":"45324790-abcf-4a91-8b9e-6b7c17eae013","system_id":"levelo_inurba_marseille","lat":43.27371,"lon":5.36262,"is_reserved":false,"is_disabled":false,"rental_uris":{"android":"levelo://app?vid=45324790-abcf-4a91-8b9e-6b7c17eae013","ios":"levelo://app?vid=45324790-abcf-4a91-8b9e-6b7c17eae013"},"vehicle_type_id":"4","last_reported":1736849350,"current_range_meters":6000,"station_id":"ce4bhbh2rcd13ifvqeo0","pricing_plan_id":"cebpf4jnsgd1na2vs0mg"},{"bike_id":"72602ff9-e633-4ab9-926e-a56b25830ac5","system_id":"levelo_inurba_marseille","lat":43.273247,"lon":5.391167,"is_reserved":false,"is_disabled":false,"rental_uris":{"android":"levelo://app?vid=72602ff9-e633-4ab9-926e-a56b25830ac5","ios":"levelo://app?vid=72602ff9-e633-4ab9-926e-a56b25830ac5"},"vehicle_type_id":"4","last_reported":1736849350,"current_range_meters":6800,"station_id":"ce4bhgp2rcd13ifvqfe0","pricing_plan_id":"cebpf4jnsgd1na2vs0mg"},{"bike_id":"9abd3c86-26d6-4936-b14d-46ac2d8e06c2","system_id":"levelo_inurba_marseille","lat":43.24391,"lon":5.37072,"is_reserved":false,"is_disabled":false,"rental_uris":{"android":"levelo://app?vid=9abd3c86-26d6-4936-b14d-46ac2d8e06c2","ios":"levelo://app?vid=9abd3c86-26d6-4936-b14d-46ac2d8e06c2"},"vehicle_type_id":"4","last_reported":1736849350,"current_range_meters":8800,"station_id":"ce4bhhh2rcd13ifvqfk0","pricing_plan_id":"cebpf4jnsgd1na2vs0mg"},{"bike_id":"47f63191-6673-4167-8a58-1a164b7d4b7e","system_id":"levelo_inurba_marseille","lat":43.24059,"lon":5.37788,"is_reserved":false,"is_disabled":false,"rental_uris":{"android":"levelo://app?vid=47f63191-6673-4167-8a58-1a164b7d4b7e","ios":"levelo://app?vid=47f63191-6673-4167-8a58-1a164b7d4b7e"},"vehicle_type_id":"4","last_reported":1736849350,"current_range_meters":37600,"station_id":"ce4bhnp2rcd13ifvqgvg","pricing_plan_id":"cebpf4jnsgd1na2vs0mg"},{"bike_id":"70918db5-00cc-4843-a9f7-9d932aead9b0","system_id":"levelo_inurba_marseille","lat":43.29918,"lon":5.3753,"is_reserved":false,"is_disabled":false,"rental_uris":{"android":"levelo://app?vid=70918db5-00cc-4843-a9f7-9d932aead9b0","ios":"levelo://app?vid=70918db5-00cc-4843-a9f7-9d932aead9b0"},"vehicle_type_id":"4","last_reported":1736849350,"current_range_meters":36400,"station_id":"ce4bgjh2rcd13ifvqbg0","pricing_plan_id":"cebpf4jnsgd1na2vs0mg"},{"bike_id":"a86fe1f4-7545-4b33-8097-0e91725c0bb3","system_id":"levelo_inurba_marseille","lat":43.32481,"lon":5.36579,"is_reserved":false,"is_disabled":true,"rental_uris":{"android":"levelo://app?vid=a86fe1f4-7545-4b33-8097-0e91725c0bb3","ios":"levelo://app?vid=a86fe1f4-7545-4b33-8097-0e91725c0bb3"},"vehicle_type_id":"4","last_reported":1736849350,"current_range_meters":0,"station_id":"ce4bhs12rcd13ifvqhvg","pricing_plan_id":"cebpf4jnsgd1na2vs0mg"},{"bike_id":"321a1127-d864-44e1-88ee-18a86707c918","system_id":"levelo_inurba_marseille","lat":43.24555,"lon":5.39534,"is_reserved":false,"is_disabled":false,"rental_uris":{"android":"levelo://app?vid=321a1127-d864-44e1-88ee-18a86707c918","ios":"levelo://app?vid=321a1127-d864-44e1-88ee-18a86707c918"},"vehicle_type_id":"4","last_reported":1736849350,"current_range_meters":23200,"station_id":"ce4bhlp2rcd13ifvqgjg","pricing_plan_id":"cebpf4jnsgd1na2vs0mg"},{"bike_id":"279e52d2-2f12-4ed8-9d2b-12da84813751","system_id":"levelo_inurba_marseille","lat":43.26494,"lon":5.3954,"is_reserved":false,"is_disabled":false,"rental_uris":{"android":"levelo://app?vid=279e52d2-2f12-4ed8-9d2b-12da84813751","ios":"levelo://app?vid=279e52d2-2f12-4ed8-9d2b-12da84813751"},"vehicle_type_id":"4","last_reported":1736849350,"current_range_meters":28800,"station_id":"ce4bhi12rcd13ifvqfq0","pricing_plan_id":"cebpf4jnsgd1na2vs0mg"},{"bike_id":"cabf8291-28b5-410d-9d76-1bb844eb26f7","system_id":"levelo_inurba_marseille","lat":43.26667,"lon":5.38276,"is_reserved":false,"is_disabled":false,"rental_uris":{"android":"levelo://app?vid=cabf8291-28b5-410d-9d76-1bb844eb26f7","ios":"levelo://app?vid=cabf8291-28b5-410d-9d76-1bb844eb26f7"},"vehicle_type_id":"4","last_reported":1736849350,"current_range_meters":36400,"station_id":"ce4bhg92rcd13ifvqf90","pricing_plan_id":"cebpf4jnsgd1na2vs0mg"},{"bike_id":"f871aa82-bce1-42e5-88a2-521ae30af21a","system_id":"levelo_inurba_marseille","lat":43.30304,"lon":5.36892,"is_reserved":false,"is_disabled":false,"rental_uris":{"android":"levelo://app?vid=f871aa82-bce1-42e5-88a2-521ae30af21a","ios":"levelo://app?vid=f871aa82-bce1-42e5-88a2-521ae30af21a"},"vehicle_type_id":"4","last_reported":1736849350,"current_range_meters":25600,"station_id":"ce4bgqh2rcd13ifvqc5g","pricing_plan_id":"cebpf4jnsgd1na2vs0mg"},{"bike_id":"8ca57a1a-ed8d-4ff6-9696-9e64713deb6f","system_id":"levelo_inurba_marseille","lat":43.30136,"lon":5.37429,"is_reserved":false,"is_disabled":false,"rental_uris":{"android":"levelo://app?vid=8ca57a1a-ed8d-4ff6-9696-9e64713deb6f","ios":"levelo://app?vid=8ca57a1a-ed8d-4ff6-9696-9e64713deb6f"},"vehicle_type_id":"4","last_reported":1736849350,"current_range_meters":36000,"station_id":"ce4bgs92rcd13ifvqcc0","pricing_plan_id":"cebpf4jnsgd1na2vs0mg"},{"bike_id":"a4c108d4-411d-4a66-ac0a-33ca30029180","system_id":"levelo_inurba_marseille","lat":43.23963,"lon":5.36634,"is_reserved":false,"is_disabled":true,"rental_uris":{"android":"levelo://app?vid=a4c108d4-411d-4a66-ac0a-33ca30029180","ios":"levelo://app?vid=a4c108d4-411d-4a66-ac0a-33ca30029180"},"vehicle_type_id":"4","last_reported":1736849350,"current_range_meters":0,"station_id":"ce4bhi12rcd13ifvqfp0","pricing_plan_id":"cebpf4jnsgd1na2vs0mg"},{"bike_id":"4f33525b-ad77-45f3-a5ca-48f52317317a","system_id":"levelo_inurba_marseille","lat":43.29221,"lon":5.36072,"is_reserved":false,"is_disabled":true,"rental_uris":{"android":"levelo://app?vid=4f33525b-ad77-45f3-a5ca-48f52317317a","ios":"levelo://app?vid=4f33525b-ad77-45f3-a5ca-48f52317317a"},"vehicle_type_id":"4","last_reported":1736849350,"current_range_meters":0,"station_id":"ce4bhbh2rcd13ifvqeqg","pricing_plan_id":"cebpf4jnsgd1na2vs0mg"},{"bike_id":"3f1871b0-62e6-472a-a371-7699a3389f00","system_id":"levelo_inurba_marseille","lat":43.25824,"lon":5.39433,"is_reserved":false,"is_disabled":false,"rental_uris":{"android":"levelo://app?vid=3f1871b0-62e6-472a-a371-7699a3389f00","ios":"levelo://app?vid=3f1871b0-62e6-472a-a371-7699a3389f00"},"vehicle_type_id":"4","last_reported":1736849350,"current_range_meters":38000,"station_id":"ce4bhip2rcd13ifvqft0","pricing_plan_id":"cebpf4jnsgd1na2vs0mg"},{"bike_id":"1299e77e-6da9-45c1-9a42-231380813012","system_id":"levelo_inurba_marseille","lat":43.283433,"lon":5.381144,"is_reserved":false,"is_disabled":true,"rental_uris":{"android":"levelo://app?vid=1299e77e-6da9-45c1-9a42-231380813012","ios":"levelo://app?vid=1299e77e-6da9-45c1-9a42-231380813012"},"vehicle_type_id":"4","last_reported":1736849350,"current_range_meters":24400,"station_id":"","pricing_plan_id":"cebpf4jnsgd1na2vs0mg"},{"bike_id":"df738507-29bf-424c-ae24-7598b3845357","system_id":"levelo_inurba_marseille","lat":43.295337,"lon":5.378465,"is_reserved":false,"is_disabled":true,"rental_uris":{"android":"levelo://app?vid=df738507-29bf-424c-ae24-7598b3845357","ios":"levelo://app?vid=df738507-29bf-424c-ae24-7598b3845357"},"vehicle_type_id":"4","last_reported":1736849350,"current_range_meters":3200,"station_id":"ce4bh0p2rcd13ifvqd70","pricing_plan_id":"cebpf4jnsgd1na2vs0mg"},{"bike_id":"6f1783cd-8eba-4fac-a347-62963d126f95","system_id":"levelo_inurba_marseille","lat":43.29293,"lon":5.37464,"is_reserved":false,"is_disabled":false,"rental_uris":{"android":"levelo://app?vid=6f1783cd-8eba-4fac-a347-62963d126f95","ios":"levelo://app?vid=6f1783cd-8eba-4fac-a347-62963d126f95"},"vehicle_type_id":"4","last_reported":1736849350,"current_range_meters":30800,"station_id":"ce4bgi12rcd13ifvqb70","pricing_plan_id":"cebpf4jnsgd1na2vs0mg"},{"bike_id":"624fd665-76a1-4073-91c0-a4db8dfd6228","system_id":"levelo_inurba_marseille","lat":43.313055,"lon":5.368321,"is_reserved":false,"is_disabled":false,"rental_uris":{"android":"levelo://app?vid=624fd665-76a1-4073-91c0-a4db8dfd6228","ios":"levelo://app?vid=624fd665-76a1-4073-91c0-a4db8dfd6228"},"vehicle_type_id":"4","last_reported":1736849350,"current_range_meters":30000,"station_id":"","pricing_plan_id":"cebpf4jnsgd1na2vs0mg"},{"bike_id":"7b4d1b47-5678-441b-99e6-d51f2a1e45e8","system_id":"levelo_inurba_marseille","lat":43.24181,"lon":5.39729,"is_reserved":false,"is_disabled":false,"rental_uris":{"android":"levelo://app?vid=7b4d1b47-5678-441b-99e6-d51f2a1e45e8","ios":"levelo://app?vid=7b4d1b47-5678-441b-99e6-d51f2a1e45e8"},"vehicle_type_id":"4","last_reported":1736849350,"current_range_meters":39200,"station_id":"ce4bhn12rcd13ifvqgpg","pricing_plan_id":"cebpf4jnsgd1na2vs0mg"},{"bike_id":"acb789d3-c42d-465c-982b-20d6256e9026","system_id":"levelo_inurba_marseille","lat":43.243914,"lon":5.370573,"is_reserved":false,"is_disabled":false,"rental_uris":{"android":"levelo://app?vid=acb789d3-c42d-465c-982b-20d6256e9026","ios":"levelo://app?vid=acb789d3-c42d-465c-982b-20d6256e9026"},"vehicle_type_id":"4","last_reported":1736849350,"current_range_meters":36800,"station_id":"ce4bhhh2rcd13ifvqfk0","pricing_plan_id":"cebpf4jnsgd1na2vs0mg"},{"bike_id":"d6e6a9fd-aeff-44ad-be5d-a44bac6c9180","system_id":"levelo_inurba_marseille","lat":43.29374,"lon":5.37848,"is_reserved":false,"is_disabled":false,"rental_uris":{"android":"levelo://app?vid=d6e6a9fd-aeff-44ad-be5d-a44bac6c9180","ios":"levelo://app?vid=d6e6a9fd-aeff-44ad-be5d-a44bac6c9180"},"vehicle_type_id":"4","last_reported":1736849350,"current_range_meters":32400,"station_id":"ce4bgjh2rcd13ifvqbf0","pricing_plan_id":"cebpf4jnsgd1na2vs0mg"},{"bike_id":"2fddc15e-04aa-4382-b037-006c18d06765","system_id":"levelo_inurba_marseille","lat":43.2794,"lon":5.38722,"is_reserved":false,"is_disabled":false,"rental_uris":{"android":"levelo://app?vid=2fddc15e-04aa-4382-b037-006c18d06765","ios":"levelo://app?vid=2fddc15e-04aa-4382-b037-006c18d06765"},"vehicle_type_id":"4","last_reported":1736849350,"current_range_meters":28800,"station_id":"ce4bhg12rcd13ifvqf80","pricing_plan_id":"cebpf4jnsgd1na2vs0mg"},{"bike_id":"c2d5fd29-d5c7-4c17-84cd-2259421931b6","system_id":"levelo_inurba_marseille","lat":43.27493,"lon":5.42463,"is_reserved":false,"is_disabled":true,"rental_uris":{"android":"levelo://app?vid=c2d5fd29-d5c7-4c17-84cd-2259421931b6","ios":"levelo://app?vid=c2d5fd29-d5c7-4c17-84cd-2259421931b6"},"vehicle_type_id":"4","last_reported":1736849350,"current_range_meters":400,"station_id":"ce4bhn92rcd13ifvqgrg","pricing_plan_id":"cebpf4jnsgd1na2vs0mg"},{"bike_id":"295bd26f-64bb-4f9a-b1ce-9227768f18ec","system_id":"levelo_inurba_marseille","lat":43.29125,"lon":5.37159,"is_reserved":false,"is_disabled":true,"rental_uris":{"android":"levelo://app?vid=295bd26f-64bb-4f9a-b1ce-9227768f18ec","ios":"levelo://app?vid=295bd26f-64bb-4f9a-b1ce-9227768f18ec"},"vehicle_type_id":"4","last_reported":1736849350,"current_range_meters":25600,"station_id":"ce4bha92rcd13ifvqeh0","pricing_plan_id":"cebpf4jnsgd1na2vs0mg"},{"bike_id":"2cf85a70-b6bf-48de-83de-04510c401ba3","system_id":"levelo_inurba_marseille","lat":43.23192,"lon":5.35555,"is_reserved":false,"is_disabled":false,"rental_uris":{"android":"levelo://app?vid=2cf85a70-b6bf-48de-83de-04510c401ba3","ios":"levelo://app?vid=2cf85a70-b6bf-48de-83de-04510c401ba3"},"vehicle_type_id":"4","last_reported":1736849350,"current_range_meters":4000,"station_id":"ce4bhu92rcd13ifvqi70","pricing_plan_id":"cebpf4jnsgd1na2vs0mg"},{"bike_id":"c5c775a5-ba5a-4301-bd66-178419f98cb2","system_id":"levelo_inurba_marseille","lat":43.30209,"lon":5.39465,"is_reserved":false,"is_disabled":false,"rental_uris":{"android":"levelo://app?vid=c5c775a5-ba5a-4301-bd66-178419f98cb2","ios":"levelo://app?vid=c5c775a5-ba5a-4301-bd66-178419f98cb2"},"vehicle_type_id":"4","last_reported":1736849350,"current_range_meters":13600,"station_id":"ce4bh0p2rcd13ifvqd70","pricing_plan_id":"cebpf4jnsgd1na2vs0mg"},{"bike_id":"6864a2b6-2bea-4209-b879-9d46523b6956","system_id":"levelo_inurba_marseille","lat":43.27988,"lon":5.41668,"is_reserved":false,"is_disabled":false,"rental_uris":{"android":"levelo://app?vid=6864a2b6-2bea-4209-b879-9d46523b6956","ios":"levelo://app?vid=6864a2b6-2bea-4209-b879-9d46523b6956"},"vehicle_type_id":"4","last_reported":1736849350,"current_range_meters":38000,"station_id":"ce4bho12rcd13ifvqh1g","pricing_plan_id":"cebpf4jnsgd1na2vs0mg"},{"bike_id":"e6420d84-c994-49b5-ac1c-76abc8fcf8df","system_id":"levelo_inurba_marseille","lat":43.26018,"lon":5.37556,"is_reserved":false,"is_disabled":false,"rental_uris":{"android":"levelo://app?vid=e6420d84-c994-49b5-ac1c-76abc8fcf8df","ios":"levelo://app?vid=e6420d84-c994-49b5-ac1c-76abc8fcf8df"},"vehicle_type_id":"4","last_reported":1736849350,"current_range_meters":38000,"station_id":"ce4bhgh2rcd13ifvqfa0","pricing_plan_id":"cebpf4jnsgd1na2vs0mg"},{"bike_id":"ce4f9219-d241-4008-9aec-b8a5f369f454","system_id":"levelo_inurba_marseille","lat":43.32482,"lon":5.36562,"is_reserved":false,"is_disabled":false,"rental_uris":{"android":"levelo://app?vid=ce4f9219-d241-4008-9aec-b8a5f369f454","ios":"levelo://app?vid=ce4f9219-d241-4008-9aec-b8a5f369f454"},"vehicle_type_id":"4","last_reported":1736849350,"current_range_meters":30800,"station_id":"ce4bhs12rcd13ifvqhvg","pricing_plan_id":"cebpf4jnsgd1na2vs0mg"},{"bike_id":"60c48e84-151f-4edd-83cd-789ff87c7f63","system_id":"levelo_inurba_marseille","lat":43.28681,"lon":5.37398,"is_reserved":false,"is_disabled":true,"rental_uris":{"android":"levelo://app?vid=60c48e84-151f-4edd-83cd-789ff87c7f63","ios":"levelo://app?vid=60c48e84-151f-4edd-83cd-789ff87c7f63"},"vehicle_type_id":"4","last_reported":1736849350,"current_range_meters":34000,"station_id":"ce4bh3p2rcd13ifvqdq0","pricing_plan_id":"cebpf4jnsgd1na2vs0mg"},{"bike_id":"03349009-e6e3-4cde-b992-a2acca682bbe","system_id":"levelo_inurba_marseille","lat":43.28081,"lon":5.39664,"is_reserved":false,"is_disabled":true,"rental_uris":{"android":"levelo://app?vid=03349009-e6e3-4cde-b992-a2acca682bbe","ios":"levelo://app?vid=03349009-e6e3-4cde-b992-a2acca682bbe"},"vehicle_type_id":"4","last_reported":1736849350,"current_range_meters":0,"station_id":"ce4bho12rcd13ifvqh2g","pricing_plan_id":"cebpf4jnsgd1na2vs0mg"},{"bike_id":"65e4bbbc-3a81-48a5-8ddf-1dbbd6fe93d5","system_id":"levelo_inurba_marseille","lat":43.29572,"lon":5.37526,"is_reserved":false,"is_disabled":false,"rental_uris":{"android":"levelo://app?vid=65e4bbbc-3a81-48a5-8ddf-1dbbd6fe93d5","ios":"levelo://app?vid=65e4bbbc-3a81-48a5-8ddf-1dbbd6fe93d5"},"vehicle_type_id":"4","last_reported":1736849350,"current_range_meters":38800,"station_id":"ce4bgh92rcd13ifvqb50","pricing_plan_id":"cebpf4jnsgd1na2vs0mg"},{"bike_id":"d1dc4ad9-186b-444e-9d19-7e7fc8f9a273","system_id":"levelo_inurba_marseille","lat":43.25571,"lon":5.38249,"is_reserved":false,"is_disabled":false,"rental_uris":{"android":"levelo://app?vid=d1dc4ad9-186b-444e-9d19-7e7fc8f9a273","ios":"levelo://app?vid=d1dc4ad9-186b-444e-9d19-7e7fc8f9a273"},"vehicle_type_id":"4","last_reported":1736849350,"current_range_meters":38000,"station_id":"ce4bhih2rcd13ifvqfs0","pricing_plan_id":"cebpf4jnsgd1na2vs0mg"},{"bike_id":"de05f028-7450-4792-8d5b-e268410faa9d","system_id":"levelo_inurba_marseille","lat":43.32121,"lon":5.36779,"is_reserved":false,"is_disabled":false,"rental_uris":{"android":"levelo://app?vid=de05f028-7450-4792-8d5b-e268410faa9d","ios":"levelo://app?vid=de05f028-7450-4792-8d5b-e268410faa9d"},"vehicle_type_id":"4","last_reported":1736849350,"current_range_meters":28800,"station_id":"ce4bhrh2rcd13ifvqhug","pricing_plan_id":"cebpf4jnsgd1na2vs0mg"},{"bike_id":"691faab1-7662-427b-9f0d-19c810c9f963","system_id":"levelo_inurba_marseille","lat":43.26927,"lon":5.38929,"is_reserved":false,"is_disabled":false,"rental_uris":{"android":"levelo://app?vid=691faab1-7662-427b-9f0d-19c810c9f963","ios":"levelo://app?vid=691faab1-7662-427b-9f0d-19c810c9f963"},"vehicle_type_id":"4","last_reported":1736849350,"current_range_meters":38000,"station_id":"ce4bhhh2rcd13ifvqfl0","pricing_plan_id":"cebpf4jnsgd1na2vs0mg"},{"bike_id":"4218abb1-97a1-4e69-a779-b2859c95cf9a","system_id":"levelo_inurba_marseille","lat":43.23955,"lon":5.36642,"is_reserved":false,"is_disabled":false,"rental_uris":{"android":"levelo://app?vid=4218abb1-97a1-4e69-a779-b2859c95cf9a","ios":"levelo://app?vid=4218abb1-97a1-4e69-a779-b2859c95cf9a"},"vehicle_type_id":"4","last_reported":1736849350,"current_range_meters":15200,"station_id":"ce4bhi12rcd13ifvqfp0","pricing_plan_id":"cebpf4jnsgd1na2vs0mg"},{"bike_id":"7da73b08-06e3-43ca-8e0f-9447fe50ccbf","system_id":"levelo_inurba_marseille","lat":43.2749,"lon":5.42468,"is_reserved":false,"is_disabled":true,"rental_uris":{"android":"levelo://app?vid=7da73b08-06e3-43ca-8e0f-9447fe50ccbf","ios":"levelo://app?vid=7da73b08-06e3-43ca-8e0f-9447fe50ccbf"},"vehicle_type_id":"4","last_reported":1736849350,"current_range_meters":0,"station_id":"ce4bhn92rcd13ifvqgrg","pricing_plan_id":"cebpf4jnsgd1na2vs0mg"},{"bike_id":"645142ff-aed8-4d15-9b5e-904f264f9569","system_id":"levelo_inurba_marseille","lat":43.283642,"lon":5.386352,"is_reserved":false,"is_disabled":false,"rental_uris":{"android":"levelo://app?vid=645142ff-aed8-4d15-9b5e-904f264f9569","ios":"levelo://app?vid=645142ff-aed8-4d15-9b5e-904f264f9569"},"vehicle_type_id":"4","last_reported":1736849350,"current_range_meters":10000,"station_id":"ce4bhnh2rcd13ifvqgtg","pricing_plan_id":"cebpf4jnsgd1na2vs0mg"},{"bike_id":"16fe64a5-a88c-46e1-995c-f1307d3f5af2","system_id":"levelo_inurba_marseille","lat":43.29066,"lon":5.37139,"is_reserved":false,"is_disabled":false,"rental_uris":{"android":"levelo://app?vid=16fe64a5-a88c-46e1-995c-f1307d3f5af2","ios":"levelo://app?vid=16fe64a5-a88c-46e1-995c-f1307d3f5af2"},"vehicle_type_id":"4","last_reported":1736849350,"current_range_meters":18800,"station_id":"ce4bh5p2rcd13ifvqe4g","pricing_plan_id":"cebpf4jnsgd1na2vs0mg"},{"bike_id":"5ec30fe6-d84e-493a-8eb1-5a6f8f13d92c","system_id":"levelo_inurba_marseille","lat":43.250851,"lon":5.395308,"is_reserved":false,"is_disabled":false,"rental_uris":{"android":"levelo://app?vid=5ec30fe6-d84e-493a-8eb1-5a6f8f13d92c","ios":"levelo://app?vid=5ec30fe6-d84e-493a-8eb1-5a6f8f13d92c"},"vehicle_type_id":"4","last_reported":1736849350,"current_range_meters":9200,"station_id":"ce4bhm12rcd13ifvqgkg","pricing_plan_id":"cebpf4jnsgd1na2vs0mg"},{"bike_id":"90e23443-521f-4a93-ac55-0d93191a3092","system_id":"levelo_inurba_marseille","lat":43.27068,"lon":5.42276,"is_reserved":false,"is_disabled":false,"rental_uris":{"android":"levelo://app?vid=90e23443-521f-4a93-ac55-0d93191a3092","ios":"levelo://app?vid=90e23443-521f-4a93-ac55-0d93191a3092"},"vehicle_type_id":"4","last_reported":1736849350,"current_range_meters":17600,"station_id":"ce4bhk92rcd13ifvqgb0","pricing_plan_id":"cebpf4jnsgd1na2vs0mg"},{"bike_id":"34d1187a-0d2f-42da-8bcd-6376169d385a","system_id":"levelo_inurba_marseille","lat":43.259247,"lon":5.40913,"is_reserved":false,"is_disabled":false,"rental_uris":{"android":"levelo://app?vid=34d1187a-0d2f-42da-8bcd-6376169d385a","ios":"levelo://app?vid=34d1187a-0d2f-42da-8bcd-6376169d385a"},"vehicle_type_id":"4","last_reported":1736849350,"current_range_meters":37600,"station_id":"ce4bhm92rcd13ifvqglg","pricing_plan_id":"cebpf4jnsgd1na2vs0mg"},{"bike_id":"8f3d19ca-6788-4fa8-a3b9-31a1f06d17f5","system_id":"levelo_inurba_marseille","lat":43.2804,"lon":5.36967,"is_reserved":false,"is_disabled":true,"rental_uris":{"android":"levelo://app?vid=8f3d19ca-6788-4fa8-a3b9-31a1f06d17f5","ios":"levelo://app?vid=8f3d19ca-6788-4fa8-a3b9-31a1f06d17f5"},"vehicle_type_id":"4","last_reported":1736849350,"current_range_meters":800,"station_id":"ce4bha12rcd13ifvqef0","pricing_plan_id":"cebpf4jnsgd1na2vs0mg"},{"bike_id":"b704bf42-2bc7-4506-b669-8ca7a3330fef","system_id":"levelo_inurba_marseille","lat":43.28151,"lon":5.42646,"is_reserved":false,"is_disabled":false,"rental_uris":{"android":"levelo://app?vid=b704bf42-2bc7-4506-b669-8ca7a3330fef","ios":"levelo://app?vid=b704bf42-2bc7-4506-b669-8ca7a3330fef"},"vehicle_type_id":"4","last_reported":1736849350,"current_range_meters":21600,"station_id":"ce4bhnh2rcd13ifvqgug","pricing_plan_id":"cebpf4jnsgd1na2vs0mg"},{"bike_id":"a048c638-bc64-432f-b13c-9572667cfd5f","system_id":"levelo_inurba_marseille","lat":43.32467,"lon":5.36567,"is_reserved":false,"is_disabled":false,"rental_uris":{"android":"levelo://app?vid=a048c638-bc64-432f-b13c-9572667cfd5f","ios":"levelo://app?vid=a048c638-bc64-432f-b13c-9572667cfd5f"},"vehicle_type_id":"4","last_reported":1736849350,"current_range_meters":31200,"station_id":"ce4bhs12rcd13ifvqhvg","pricing_plan_id":"cebpf4jnsgd1na2vs0mg"},{"bike_id":"daa70077-5fa4-4d97-84e7-221619162efd","system_id":"levelo_inurba_marseille","lat":43.29527,"lon":5.38534,"is_reserved":false,"is_disabled":false,"rental_uris":{"android":"levelo://app?vid=daa70077-5fa4-4d97-84e7-221619162efd","ios":"levelo://app?vid=daa70077-5fa4-4d97-84e7-221619162efd"},"vehicle_type_id":"4","last_reported":1736849350,"current_range_meters":18800,"station_id":"ce4bgih2rcd13ifvqba0","pricing_plan_id":"cebpf4jnsgd1na2vs0mg"},{"bike_id":"35f7835f-69b0-41f2-a40d-4a337c9dc57d","system_id":"levelo_inurba_marseille","lat":43.27175,"lon":5.40993,"is_reserved":false,"is_disabled":false,"rental_uris":{"android":"levelo://app?vid=35f7835f-69b0-41f2-a40d-4a337c9dc57d","ios":"levelo://app?vid=35f7835f-69b0-41f2-a40d-4a337c9dc57d"},"vehicle_type_id":"4","last_reported":1736849350,"current_range_meters":38400,"station_id":"ce4bhl12rcd13ifvqgf0","pricing_plan_id":"cebpf4jnsgd1na2vs0mg"},{"bike_id":"f62a7ed4-7c80-4ed8-9568-a4dea62069d1","system_id":"levelo_inurba_marseille","lat":43.28085,"lon":5.39659,"is_reserved":false,"is_disabled":false,"rental_uris":{"android":"levelo://app?vid=f62a7ed4-7c80-4ed8-9568-a4dea62069d1","ios":"levelo://app?vid=f62a7ed4-7c80-4ed8-9568-a4dea62069d1"},"vehicle_type_id":"4","last_reported":1736849350,"current_range_meters":25200,"station_id":"ce4bho12rcd13ifvqh2g","pricing_plan_id":"cebpf4jnsgd1na2vs0mg"},{"bike_id":"6b12ee66-809f-4b5e-9c16-325ceee1f017","system_id":"levelo_inurba_marseille","lat":43.26687,"lon":5.38287,"is_reserved":false,"is_disabled":false,"rental_uris":{"android":"levelo://app?vid=6b12ee66-809f-4b5e-9c16-325ceee1f017","ios":"levelo://app?vid=6b12ee66-809f-4b5e-9c16-325ceee1f017"},"vehicle_type_id":"4","last_reported":1736849350,"current_range_meters":24000,"station_id":"ce4bhg92rcd13ifvqf90","pricing_plan_id":"cebpf4jnsgd1na2vs0mg"},{"bike_id":"e3ce0a6d-84df-4747-bda1-48ca26d77468","system_id":"levelo_inurba_marseille","lat":43.26795,"lon":5.3951,"is_reserved":false,"is_disabled":false,"rental_uris":{"android":"levelo://app?vid=e3ce0a6d-84df-4747-bda1-48ca26d77468","ios":"levelo://app?vid=e3ce0a6d-84df-4747-bda1-48ca26d77468"},"vehicle_type_id":"4","last_reported":1736849350,"current_range_meters":39200,"station_id":"ce4bhh12rcd13ifvqfg0","pricing_plan_id":"cebpf4jnsgd1na2vs0mg"},{"bike_id":"bfdc1c53-74a1-4f64-b32d-a2601c0c2029","system_id":"levelo_inurba_marseille","lat":43.336046,"lon":5.410339,"is_reserved":false,"is_disabled":false,"rental_uris":{"android":"levelo://app?vid=bfdc1c53-74a1-4f64-b32d-a2601c0c2029","ios":"levelo://app?vid=bfdc1c53-74a1-4f64-b32d-a2601c0c2029"},"vehicle_type_id":"4","last_reported":1736849350,"current_range_meters":25600,"station_id":"ce4bhqh2rcd13ifvqhmg","pricing_plan_id":"cebpf4jnsgd1na2vs0mg"},{"bike_id":"52b86d23-bb78-4ec5-b77d-73bb1b705963","system_id":"levelo_inurba_marseille","lat":43.274926,"lon":5.4246,"is_reserved":false,"is_disabled":false,"rental_uris":{"android":"levelo://app?vid=52b86d23-bb78-4ec5-b77d-73bb1b705963","ios":"levelo://app?vid=52b86d23-bb78-4ec5-b77d-73bb1b705963"},"vehicle_type_id":"4","last_reported":1736849350,"current_range_meters":8000,"station_id":"ce4bhn92rcd13ifvqgrg","pricing_plan_id":"cebpf4jnsgd1na2vs0mg"},{"bike_id":"2d3f3a09-98fc-43a6-b7d2-a60093e17580","system_id":"levelo_inurba_marseille","lat":43.29867,"lon":5.39748,"is_reserved":false,"is_disabled":false,"rental_uris":{"android":"levelo://app?vid=2d3f3a09-98fc-43a6-b7d2-a60093e17580","ios":"levelo://app?vid=2d3f3a09-98fc-43a6-b7d2-a60093e17580"},"vehicle_type_id":"4","last_reported":1736849350,"current_range_meters":36800,"station_id":"ce4bh0h2rcd13ifvqd50","pricing_plan_id":"cebpf4jnsgd1na2vs0mg"},{"bike_id":"65254beb-41a1-4871-a9a5-5d19989181c6","system_id":"levelo_inurba_marseille","lat":43.24074,"lon":5.37751,"is_reserved":false,"is_disabled":false,"rental_uris":{"android":"levelo://app?vid=65254beb-41a1-4871-a9a5-5d19989181c6","ios":"levelo://app?vid=65254beb-41a1-4871-a9a5-5d19989181c6"},"vehicle_type_id":"4","last_reported":1736849350,"current_range_meters":32000,"station_id":"ce4bhnp2rcd13ifvqgvg","pricing_plan_id":"cebpf4jnsgd1na2vs0mg"},{"bike_id":"56319cf7-adb1-4f1e-8057-252da0132dc4","system_id":"levelo_inurba_marseille","lat":43.30264,"lon":5.37705,"is_reserved":false,"is_disabled":false,"rental_uris":{"android":"levelo://app?vid=56319cf7-adb1-4f1e-8057-252da0132dc4","ios":"levelo://app?vid=56319cf7-adb1-4f1e-8057-252da0132dc4"},"vehicle_type_id":"4","last_reported":1736849350,"current_range_meters":39200,"station_id":"ce4bguh2rcd13ifvqcj0","pricing_plan_id":"cebpf4jnsgd1na2vs0mg"},{"bike_id":"c57da018-bfbb-4cbc-9a23-aaed6c1fa365","system_id":"levelo_inurba_marseille","lat":43.27616,"lon":5.36105,"is_reserved":false,"is_disabled":false,"rental_uris":{"android":"levelo://app?vid=c57da018-bfbb-4cbc-9a23-aaed6c1fa365","ios":"levelo://app?vid=c57da018-bfbb-4cbc-9a23-aaed6c1fa365"},"vehicle_type_id":"4","last_reported":1736849350,"current_range_meters":33200,"station_id":"ce4bgj92rcd13ifvqbe0","pricing_plan_id":"cebpf4jnsgd1na2vs0mg"},{"bike_id":"a0484738-d857-4285-b51d-0f78805e7ea7","system_id":"levelo_inurba_marseille","lat":43.2929,"lon":5.37454,"is_reserved":false,"is_disabled":false,"rental_uris":{"android":"levelo://app?vid=a0484738-d857-4285-b51d-0f78805e7ea7","ios":"levelo://app?vid=a0484738-d857-4285-b51d-0f78805e7ea7"},"vehicle_type_id":"4","last_reported":1736849350,"current_range_meters":11600,"station_id":"ce4bgi12rcd13ifvqb70","pricing_plan_id":"cebpf4jnsgd1na2vs0mg"},{"bike_id":"735ec82c-3ba1-4c1f-99f4-15a352013b3d","system_id":"levelo_inurba_marseille","lat":43.29204,"lon":5.3606,"is_reserved":false,"is_disabled":true,"rental_uris":{"android":"levelo://app?vid=735ec82c-3ba1-4c1f-99f4-15a352013b3d","ios":"levelo://app?vid=735ec82c-3ba1-4c1f-99f4-15a352013b3d"},"vehicle_type_id":"4","last_reported":1736849350,"current_range_meters":37600,"station_id":"ce4bhbh2rcd13ifvqeqg","pricing_plan_id":"cebpf4jnsgd1na2vs0mg"},{"bike_id":"04c4acfe-460f-4fee-a445-0befff4463d3","system_id":"levelo_inurba_marseille","lat":43.27214,"lon":5.39189,"is_reserved":false,"is_disabled":false,"rental_uris":{"android":"levelo://app?vid=04c4acfe-460f-4fee-a445-0befff4463d3","ios":"levelo://app?vid=04c4acfe-460f-4fee-a445-0befff4463d3"},"vehicle_type_id":"4","last_reported":1736849350,"current_range_meters":37600,"station_id":"ce4bhhp2rcd13ifvqfm0","pricing_plan_id":"cebpf4jnsgd1na2vs0mg"},{"bike_id":"fc8be740-0043-4f9d-b31c-15f19071a736","system_id":"levelo_inurba_marseille","lat":43.25501,"lon":5.37663,"is_reserved":false,"is_disabled":false,"rental_uris":{"android":"levelo://app?vid=fc8be740-0043-4f9d-b31c-15f19071a736","ios":"levelo://app?vid=fc8be740-0043-4f9d-b31c-15f19071a736"},"vehicle_type_id":"4","last_reported":1736849350,"current_range_meters":39200,"station_id":"ce4bhh12rcd13ifvqff0","pricing_plan_id":"cebpf4jnsgd1na2vs0mg"},{"bike_id":"be4d2e54-0dd1-4cd3-b09d-67e8bbee42f5","system_id":"levelo_inurba_marseille","lat":43.26771,"lon":5.39432,"is_reserved":false,"is_disabled":false,"rental_uris":{"android":"levelo://app?vid=be4d2e54-0dd1-4cd3-b09d-67e8bbee42f5","ios":"levelo://app?vid=be4d2e54-0dd1-4cd3-b09d-67e8bbee42f5"},"vehicle_type_id":"4","last_reported":1736849350,"current_range_meters":38800,"station_id":"ce4bhh12rcd13ifvqfg0","pricing_plan_id":"cebpf4jnsgd1na2vs0mg"},{"bike_id":"3e5f7793-ebba-4a40-8ff7-c6e20b8ef702","system_id":"levelo_inurba_marseille","lat":43.33758,"lon":5.37482,"is_reserved":false,"is_disabled":false,"rental_uris":{"android":"levelo://app?vid=3e5f7793-ebba-4a40-8ff7-c6e20b8ef702","ios":"levelo://app?vid=3e5f7793-ebba-4a40-8ff7-c6e20b8ef702"},"vehicle_type_id":"4","last_reported":1736849350,"current_range_meters":36800,"station_id":"","pricing_plan_id":"cebpf4jnsgd1na2vs0mg"},{"bike_id":"3e80b2fb-3555-4ac9-b768-2084968df978","system_id":"levelo_inurba_marseille","lat":43.24087,"lon":5.37758,"is_reserved":false,"is_disabled":false,"rental_uris":{"android":"levelo://app?vid=3e80b2fb-3555-4ac9-b768-2084968df978","ios":"levelo://app?vid=3e80b2fb-3555-4ac9-b768-2084968df978"},"vehicle_type_id":"4","last_reported":1736849350,"current_range_meters":34800,"station_id":"ce4bhnp2rcd13ifvqgvg","pricing_plan_id":"cebpf4jnsgd1na2vs0mg"},{"bike_id":"a836bbf6-cc30-4238-a0af-12e1dba6445b","system_id":"levelo_inurba_marseille","lat":43.23152,"lon":5.43703,"is_reserved":false,"is_disabled":false,"rental_uris":{"android":"levelo://app?vid=a836bbf6-cc30-4238-a0af-12e1dba6445b","ios":"levelo://app?vid=a836bbf6-cc30-4238-a0af-12e1dba6445b"},"vehicle_type_id":"4","last_reported":1736849350,"current_range_meters":13600,"station_id":"ce4bhmp2rcd13ifvqgog","pricing_plan_id":"cebpf4jnsgd1na2vs0mg"},{"bike_id":"01e8c37a-485a-4689-82d6-32555e2cc552","system_id":"levelo_inurba_marseille","lat":43.30535,"lon":5.36518,"is_reserved":false,"is_disabled":false,"rental_uris":{"android":"levelo://app?vid=01e8c37a-485a-4689-82d6-32555e2cc552","ios":"levelo://app?vid=01e8c37a-485a-4689-82d6-32555e2cc552"},"vehicle_type_id":"4","last_reported":1736849350,"current_range_meters":38800,"station_id":"ce4bgs12rcd13ifvqcag","pricing_plan_id":"cebpf4jnsgd1na2vs0mg"},{"bike_id":"400e3948-7dea-45b5-856c-3530ab281b15","system_id":"levelo_inurba_marseille","lat":43.26058,"lon":5.39387,"is_reserved":false,"is_disabled":false,"rental_uris":{"android":"levelo://app?vid=400e3948-7dea-45b5-856c-3530ab281b15","ios":"levelo://app?vid=400e3948-7dea-45b5-856c-3530ab281b15"},"vehicle_type_id":"4","last_reported":1736849350,"current_range_meters":24400,"station_id":"ce4bhh92rcd13ifvqfj0","pricing_plan_id":"cebpf4jnsgd1na2vs0mg"},{"bike_id":"ffc20f40-e6ae-4cb3-970a-a2c59b8d266f","system_id":"levelo_inurba_marseille","lat":43.29019,"lon":5.38143,"is_reserved":false,"is_disabled":false,"rental_uris":{"android":"levelo://app?vid=ffc20f40-e6ae-4cb3-970a-a2c59b8d266f","ios":"levelo://app?vid=ffc20f40-e6ae-4cb3-970a-a2c59b8d266f"},"vehicle_type_id":"4","last_reported":1736849350,"current_range_meters":28400,"station_id":"ce4bh4p2rcd13ifvqe1g","pricing_plan_id":"cebpf4jnsgd1na2vs0mg"},{"bike_id":"d12d0d4b-6c32-4fac-8f18-2af46f7242dc","system_id":"levelo_inurba_marseille","lat":43.30954,"lon":5.3904,"is_reserved":false,"is_disabled":false,"rental_uris":{"android":"levelo://app?vid=d12d0d4b-6c32-4fac-8f18-2af46f7242dc","ios":"levelo://app?vid=d12d0d4b-6c32-4fac-8f18-2af46f7242dc"},"vehicle_type_id":"4","last_reported":1736849350,"current_range_meters":32000,"station_id":"ce4bgup2rcd13ifvqco0","pricing_plan_id":"cebpf4jnsgd1na2vs0mg"},{"bike_id":"41922604-c7b8-4e93-9da5-3903771d7233","system_id":"levelo_inurba_marseille","lat":43.24807,"lon":5.37475,"is_reserved":false,"is_disabled":false,"rental_uris":{"android":"levelo://app?vid=41922604-c7b8-4e93-9da5-3903771d7233","ios":"levelo://app?vid=41922604-c7b8-4e93-9da5-3903771d7233"},"vehicle_type_id":"4","last_reported":1736849350,"current_range_meters":23200,"station_id":"ce4bhgh2rcd13ifvqfb0","pricing_plan_id":"cebpf4jnsgd1na2vs0mg"},{"bike_id":"2bc29f68-9adc-49d0-a8a0-04c370338641","system_id":"levelo_inurba_marseille","lat":43.23959,"lon":5.36645,"is_reserved":false,"is_disabled":false,"rental_uris":{"android":"levelo://app?vid=2bc29f68-9adc-49d0-a8a0-04c370338641","ios":"levelo://app?vid=2bc29f68-9adc-49d0-a8a0-04c370338641"},"vehicle_type_id":"4","last_reported":1736849350,"current_range_meters":24000,"station_id":"ce4bhi12rcd13ifvqfp0","pricing_plan_id":"cebpf4jnsgd1na2vs0mg"},{"bike_id":"306db636-fa13-4023-a4f6-43177835b6db","system_id":"levelo_inurba_marseille","lat":43.2593,"lon":5.40881,"is_reserved":false,"is_disabled":false,"rental_uris":{"android":"levelo://app?vid=306db636-fa13-4023-a4f6-43177835b6db","ios":"levelo://app?vid=306db636-fa13-4023-a4f6-43177835b6db"},"vehicle_type_id":"4","last_reported":1736849350,"current_range_meters":30000,"station_id":"ce4bhm92rcd13ifvqglg","pricing_plan_id":"cebpf4jnsgd1na2vs0mg"},{"bike_id":"369f728c-acb1-40f0-8b27-9b3f4c2375af","system_id":"levelo_inurba_marseille","lat":43.26687,"lon":5.38296,"is_reserved":false,"is_disabled":false,"rental_uris":{"android":"levelo://app?vid=369f728c-acb1-40f0-8b27-9b3f4c2375af","ios":"levelo://app?vid=369f728c-acb1-40f0-8b27-9b3f4c2375af"},"vehicle_type_id":"4","last_reported":1736849350,"current_range_meters":24400,"station_id":"ce4bhg92rcd13ifvqf90","pricing_plan_id":"cebpf4jnsgd1na2vs0mg"},{"bike_id":"a6550df1-39e6-4769-8451-3127e7928530","system_id":"levelo_inurba_marseille","lat":43.30948,"lon":5.3906,"is_reserved":false,"is_disabled":false,"rental_uris":{"android":"levelo://app?vid=a6550df1-39e6-4769-8451-3127e7928530","ios":"levelo://app?vid=a6550df1-39e6-4769-8451-3127e7928530"},"vehicle_type_id":"4","last_reported":1736849350,"current_range_meters":28800,"station_id":"ce4bgup2rcd13ifvqco0","pricing_plan_id":"cebpf4jnsgd1na2vs0mg"},{"bike_id":"fb31a920-395c-464b-a53d-294102d2e0da","system_id":"levelo_inurba_marseille","lat":43.24061,"lon":5.37753,"is_reserved":false,"is_disabled":false,"rental_uris":{"android":"levelo://app?vid=fb31a920-395c-464b-a53d-294102d2e0da","ios":"levelo://app?vid=fb31a920-395c-464b-a53d-294102d2e0da"},"vehicle_type_id":"4","last_reported":1736849350,"current_range_meters":14800,"station_id":"ce4bhnp2rcd13ifvqgvg","pricing_plan_id":"cebpf4jnsgd1na2vs0mg"},{"bike_id":"317217f4-252a-4ff2-8a17-cbcec96dc79e","system_id":"levelo_inurba_marseille","lat":43.24081,"lon":5.37756,"is_reserved":false,"is_disabled":true,"rental_uris":{"android":"levelo://app?vid=317217f4-252a-4ff2-8a17-cbcec96dc79e","ios":"levelo://app?vid=317217f4-252a-4ff2-8a17-cbcec96dc79e"},"vehicle_type_id":"4","last_reported":1736849350,"current_range_meters":32000,"station_id":"ce4bhnp2rcd13ifvqgvg","pricing_plan_id":"cebpf4jnsgd1na2vs0mg"},{"bike_id":"2ef5df04-cc6e-4014-88b2-a60bbd864900","system_id":"levelo_inurba_marseille","lat":43.30886,"lon":5.37199,"is_reserved":false,"is_disabled":false,"rental_uris":{"android":"levelo://app?vid=2ef5df04-cc6e-4014-88b2-a60bbd864900","ios":"levelo://app?vid=2ef5df04-cc6e-4014-88b2-a60bbd864900"},"vehicle_type_id":"4","last_reported":1736849350,"current_range_meters":38400,"station_id":"ce4bguh2rcd13ifvqckg","pricing_plan_id":"cebpf4jnsgd1na2vs0mg"},{"bike_id":"163b29c6-9e55-4576-aa27-315a492b2ef6","system_id":"levelo_inurba_marseille","lat":43.28457,"lon":5.3589,"is_reserved":false,"is_disabled":false,"rental_uris":{"android":"levelo://app?vid=163b29c6-9e55-4576-aa27-315a492b2ef6","ios":"levelo://app?vid=163b29c6-9e55-4576-aa27-315a492b2ef6"},"vehicle_type_id":"4","last_reported":1736849350,"current_range_meters":36000,"station_id":"ce4bhah2rcd13ifvqei0","pricing_plan_id":"cebpf4jnsgd1na2vs0mg"},{"bike_id":"4ca4be0a-6368-47fa-871a-914312f9653e","system_id":"levelo_inurba_marseille","lat":43.24546,"lon":5.39542,"is_reserved":false,"is_disabled":false,"rental_uris":{"android":"levelo://app?vid=4ca4be0a-6368-47fa-871a-914312f9653e","ios":"levelo://app?vid=4ca4be0a-6368-47fa-871a-914312f9653e"},"vehicle_type_id":"4","last_reported":1736849350,"current_range_meters":25200,"station_id":"ce4bhlp2rcd13ifvqgjg","pricing_plan_id":"cebpf4jnsgd1na2vs0mg"},{"bike_id":"231f1dd8-6336-4c22-9dd1-c1357dbe6eef","system_id":"levelo_inurba_marseille","lat":43.29741,"lon":5.37699,"is_reserved":false,"is_disabled":true,"rental_uris":{"android":"levelo://app?vid=231f1dd8-6336-4c22-9dd1-c1357dbe6eef","ios":"levelo://app?vid=231f1dd8-6336-4c22-9dd1-c1357dbe6eef"},"vehicle_type_id":"4","last_reported":1736849350,"current_range_meters":22400,"station_id":"ce4bgkh2rcd13ifvqbl0","pricing_plan_id":"cebpf4jnsgd1na2vs0mg"},{"bike_id":"54d1e90e-b14d-498b-b5bd-7f6f4ad6dc98","system_id":"levelo_inurba_marseille","lat":43.29372,"lon":5.37853,"is_reserved":false,"is_disabled":false,"rental_uris":{"android":"levelo://app?vid=54d1e90e-b14d-498b-b5bd-7f6f4ad6dc98","ios":"levelo://app?vid=54d1e90e-b14d-498b-b5bd-7f6f4ad6dc98"},"vehicle_type_id":"4","last_reported":1736849350,"current_range_meters":14000,"station_id":"ce4bgjh2rcd13ifvqbf0","pricing_plan_id":"cebpf4jnsgd1na2vs0mg"},{"bike_id":"0d47185e-e560-483f-8c7b-d4956240e750","system_id":"levelo_inurba_marseille","lat":43.31079,"lon":5.4243,"is_reserved":false,"is_disabled":true,"rental_uris":{"android":"levelo://app?vid=0d47185e-e560-483f-8c7b-d4956240e750","ios":"levelo://app?vid=0d47185e-e560-483f-8c7b-d4956240e750"},"vehicle_type_id":"4","last_reported":1736849350,"current_range_meters":4000,"station_id":"ce4bhp92rcd13ifvqhag","pricing_plan_id":"cebpf4jnsgd1na2vs0mg"},{"bike_id":"8e08d8b2-dc52-4ae3-8540-73c9b21cfffe","system_id":"levelo_inurba_marseille","lat":43.25,"lon":5.38924,"is_reserved":false,"is_disabled":false,"rental_uris":{"android":"levelo://app?vid=8e08d8b2-dc52-4ae3-8540-73c9b21cfffe","ios":"levelo://app?vid=8e08d8b2-dc52-4ae3-8540-73c9b21cfffe"},"vehicle_type_id":"4","last_reported":1736849350,"current_range_meters":14400,"station_id":"ce4bhgp2rcd13ifvqfd0","pricing_plan_id":"cebpf4jnsgd1na2vs0mg"},{"bike_id":"87339157-d961-4cf9-9dd5-00fb3246061f","system_id":"levelo_inurba_marseille","lat":43.25941,"lon":5.4089,"is_reserved":false,"is_disabled":false,"rental_uris":{"android":"levelo://app?vid=87339157-d961-4cf9-9dd5-00fb3246061f","ios":"levelo://app?vid=87339157-d961-4cf9-9dd5-00fb3246061f"},"vehicle_type_id":"4","last_reported":1736849350,"current_range_meters":28000,"station_id":"ce4bhm92rcd13ifvqglg","pricing_plan_id":"cebpf4jnsgd1na2vs0mg"},{"bike_id":"36ad50bc-d9bb-4836-81ae-1fb5f3c17c9e","system_id":"levelo_inurba_marseille","lat":43.2836,"lon":5.38641,"is_reserved":false,"is_disabled":true,"rental_uris":{"android":"levelo://app?vid=36ad50bc-d9bb-4836-81ae-1fb5f3c17c9e","ios":"levelo://app?vid=36ad50bc-d9bb-4836-81ae-1fb5f3c17c9e"},"vehicle_type_id":"4","last_reported":1736849350,"current_range_meters":400,"station_id":"ce4bh492rcd13ifvqdvg","pricing_plan_id":"cebpf4jnsgd1na2vs0mg"},{"bike_id":"1dc64d76-fff0-460c-af84-eaea7614f529","system_id":"levelo_inurba_marseille","lat":43.26937,"lon":5.40214,"is_reserved":false,"is_disabled":false,"rental_uris":{"android":"levelo://app?vid=1dc64d76-fff0-460c-af84-eaea7614f529","ios":"levelo://app?vid=1dc64d76-fff0-460c-af84-eaea7614f529"},"vehicle_type_id":"4","last_reported":1736849350,"current_range_meters":39200,"station_id":"cjm6bp8fraef2m0cb0m0","pricing_plan_id":"cebpf4jnsgd1na2vs0mg"},{"bike_id":"1824ca5a-45ef-4ec3-a81c-50db720391d4","system_id":"levelo_inurba_marseille","lat":43.29379,"lon":5.3785,"is_reserved":false,"is_disabled":false,"rental_uris":{"android":"levelo://app?vid=1824ca5a-45ef-4ec3-a81c-50db720391d4","ios":"levelo://app?vid=1824ca5a-45ef-4ec3-a81c-50db720391d4"},"vehicle_type_id":"4","last_reported":1736849350,"current_range_meters":30400,"station_id":"ce4bgjh2rcd13ifvqbf0","pricing_plan_id":"cebpf4jnsgd1na2vs0mg"},{"bike_id":"2cd60496-b669-4c45-8ad1-133c1d3f593f","system_id":"levelo_inurba_marseille","lat":43.27939,"lon":5.41043,"is_reserved":false,"is_disabled":false,"rental_uris":{"android":"levelo://app?vid=2cd60496-b669-4c45-8ad1-133c1d3f593f","ios":"levelo://app?vid=2cd60496-b669-4c45-8ad1-133c1d3f593f"},"vehicle_type_id":"4","last_reported":1736849350,"current_range_meters":36800,"station_id":"ce4bhnp2rcd13ifvqh0g","pricing_plan_id":"cebpf4jnsgd1na2vs0mg"},{"bike_id":"df28f796-5a0c-416c-8088-630e87a8cc6b","system_id":"levelo_inurba_marseille","lat":43.30303,"lon":5.36914,"is_reserved":false,"is_disabled":false,"rental_uris":{"android":"levelo://app?vid=df28f796-5a0c-416c-8088-630e87a8cc6b","ios":"levelo://app?vid=df28f796-5a0c-416c-8088-630e87a8cc6b"},"vehicle_type_id":"4","last_reported":1736849350,"current_range_meters":8000,"station_id":"ce4bgqh2rcd13ifvqc5g","pricing_plan_id":"cebpf4jnsgd1na2vs0mg"},{"bike_id":"c0fd2063-31ae-4171-af17-771dbb4fa212","system_id":"levelo_inurba_marseille","lat":43.22933,"lon":5.35381,"is_reserved":false,"is_disabled":false,"rental_uris":{"android":"levelo://app?vid=c0fd2063-31ae-4171-af17-771dbb4fa212","ios":"levelo://app?vid=c0fd2063-31ae-4171-af17-771dbb4fa212"},"vehicle_type_id":"4","last_reported":1736849350,"current_range_meters":37600,"station_id":"cpo3532slgdg3j2ikp40","pricing_plan_id":"cebpf4jnsgd1na2vs0mg"},{"bike_id":"ad1d59f0-a710-4f28-8a33-72f0b4ee5973","system_id":"levelo_inurba_marseille","lat":43.313647,"lon":5.366803,"is_reserved":false,"is_disabled":false,"rental_uris":{"android":"levelo://app?vid=ad1d59f0-a710-4f28-8a33-72f0b4ee5973","ios":"levelo://app?vid=ad1d59f0-a710-4f28-8a33-72f0b4ee5973"},"vehicle_type_id":"4","last_reported":1736849350,"current_range_meters":11600,"station_id":"ce4bgr92rcd13ifvqc6g","pricing_plan_id":"cebpf4jnsgd1na2vs0mg"},{"bike_id":"ca885dae-e7c9-4ced-a095-cabc4385fdc1","system_id":"levelo_inurba_marseille","lat":43.29621,"lon":5.37713,"is_reserved":false,"is_disabled":false,"rental_uris":{"android":"levelo://app?vid=ca885dae-e7c9-4ced-a095-cabc4385fdc1","ios":"levelo://app?vid=ca885dae-e7c9-4ced-a095-cabc4385fdc1"},"vehicle_type_id":"4","last_reported":1736849350,"current_range_meters":34000,"station_id":"ce4bgi92rcd13ifvqb90","pricing_plan_id":"cebpf4jnsgd1na2vs0mg"},{"bike_id":"f196a6c1-5828-4489-87fc-d1e4182a9236","system_id":"levelo_inurba_marseille","lat":43.29595,"lon":5.36733,"is_reserved":false,"is_disabled":false,"rental_uris":{"android":"levelo://app?vid=f196a6c1-5828-4489-87fc-d1e4182a9236","ios":"levelo://app?vid=f196a6c1-5828-4489-87fc-d1e4182a9236"},"vehicle_type_id":"4","last_reported":1736849350,"current_range_meters":38800,"station_id":"ce4bgph2rcd13ifvqc2g","pricing_plan_id":"cebpf4jnsgd1na2vs0mg"},{"bike_id":"b7a9a420-00a3-4d99-a8aa-4068befb8c88","system_id":"levelo_inurba_marseille","lat":43.29564,"lon":5.37527,"is_reserved":false,"is_disabled":false,"rental_uris":{"android":"levelo://app?vid=b7a9a420-00a3-4d99-a8aa-4068befb8c88","ios":"levelo://app?vid=b7a9a420-00a3-4d99-a8aa-4068befb8c88"},"vehicle_type_id":"4","last_reported":1736849350,"current_range_meters":30000,"station_id":"ce4bgh92rcd13ifvqb50","pricing_plan_id":"cebpf4jnsgd1na2vs0mg"},{"bike_id":"6c4320ef-ee73-4a4c-8038-dee291c4d56b","system_id":"levelo_inurba_marseille","lat":43.30998,"lon":5.3792,"is_reserved":false,"is_disabled":false,"rental_uris":{"android":"levelo://app?vid=6c4320ef-ee73-4a4c-8038-dee291c4d56b","ios":"levelo://app?vid=6c4320ef-ee73-4a4c-8038-dee291c4d56b"},"vehicle_type_id":"4","last_reported":1736849350,"current_range_meters":18000,"station_id":"","pricing_plan_id":"cebpf4jnsgd1na2vs0mg"},{"bike_id":"14e96a2b-0484-4d8a-a928-65941662320f","system_id":"levelo_inurba_marseille","lat":43.29904,"lon":5.3813,"is_reserved":false,"is_disabled":false,"rental_uris":{"android":"levelo://app?vid=14e96a2b-0484-4d8a-a928-65941662320f","ios":"levelo://app?vid=14e96a2b-0484-4d8a-a928-65941662320f"},"vehicle_type_id":"4","last_reported":1736849350,"current_range_meters":36000,"station_id":"ce4bgj12rcd13ifvqbc0","pricing_plan_id":"cebpf4jnsgd1na2vs0mg"},{"bike_id":"6812e771-5189-43c3-9fdf-98a4dee361a2","system_id":"levelo_inurba_marseille","lat":43.29851,"lon":5.3629,"is_reserved":false,"is_disabled":false,"rental_uris":{"android":"levelo://app?vid=6812e771-5189-43c3-9fdf-98a4dee361a2","ios":"levelo://app?vid=6812e771-5189-43c3-9fdf-98a4dee361a2"},"vehicle_type_id":"4","last_reported":1736849350,"current_range_meters":38000,"station_id":"ce4bgpp2rcd13ifvqc3g","pricing_plan_id":"cebpf4jnsgd1na2vs0mg"},{"bike_id":"8e1700e2-2825-47f3-9373-6fc227095b7d","system_id":"levelo_inurba_marseille","lat":43.24165,"lon":5.36421,"is_reserved":false,"is_disabled":false,"rental_uris":{"android":"levelo://app?vid=8e1700e2-2825-47f3-9373-6fc227095b7d","ios":"levelo://app?vid=8e1700e2-2825-47f3-9373-6fc227095b7d"},"vehicle_type_id":"4","last_reported":1736849350,"current_range_meters":12800,"station_id":"cpo36qri1sfpv3e86is0","pricing_plan_id":"cebpf4jnsgd1na2vs0mg"},{"bike_id":"e5573715-09fa-4dab-b1d8-e7410696aa39","system_id":"levelo_inurba_marseille","lat":43.32362,"lon":5.36759,"is_reserved":false,"is_disabled":false,"rental_uris":{"android":"levelo://app?vid=e5573715-09fa-4dab-b1d8-e7410696aa39","ios":"levelo://app?vid=e5573715-09fa-4dab-b1d8-e7410696aa39"},"vehicle_type_id":"4","last_reported":1736849350,"current_range_meters":24400,"station_id":"ce4bhsh2rcd13ifvqi2g","pricing_plan_id":"cebpf4jnsgd1na2vs0mg"},{"bike_id":"b31c05a9-6487-4217-80a6-25821a78c060","system_id":"levelo_inurba_marseille","lat":43.23186,"lon":5.35588,"is_reserved":false,"is_disabled":false,"rental_uris":{"android":"levelo://app?vid=b31c05a9-6487-4217-80a6-25821a78c060","ios":"levelo://app?vid=b31c05a9-6487-4217-80a6-25821a78c060"},"vehicle_type_id":"4","last_reported":1736849350,"current_range_meters":30400,"station_id":"ce4bhu92rcd13ifvqi70","pricing_plan_id":"cebpf4jnsgd1na2vs0mg"},{"bike_id":"4a4d296c-e71a-4d73-8515-0b49a9079d8d","system_id":"levelo_inurba_marseille","lat":43.23182,"lon":5.39985,"is_reserved":false,"is_disabled":false,"rental_uris":{"android":"levelo://app?vid=4a4d296c-e71a-4d73-8515-0b49a9079d8d","ios":"levelo://app?vid=4a4d296c-e71a-4d73-8515-0b49a9079d8d"},"vehicle_type_id":"4","last_reported":1736849350,"current_range_meters":30000,"station_id":"ce4bhn12rcd13ifvqgqg","pricing_plan_id":"cebpf4jnsgd1na2vs0mg"},{"bike_id":"d367fa75-75e7-4f89-a9c1-e384f5ffb7e9","system_id":"levelo_inurba_marseille","lat":43.29615,"lon":5.37708,"is_reserved":false,"is_disabled":false,"rental_uris":{"android":"levelo://app?vid=d367fa75-75e7-4f89-a9c1-e384f5ffb7e9","ios":"levelo://app?vid=d367fa75-75e7-4f89-a9c1-e384f5ffb7e9"},"vehicle_type_id":"4","last_reported":1736849350,"current_range_meters":34000,"station_id":"ce4bgi92rcd13ifvqb90","pricing_plan_id":"cebpf4jnsgd1na2vs0mg"},{"bike_id":"e6b34210-7978-4137-b534-a3b03a983e63","system_id":"levelo_inurba_marseille","lat":43.29514,"lon":5.3752,"is_reserved":false,"is_disabled":true,"rental_uris":{"android":"levelo://app?vid=e6b34210-7978-4137-b534-a3b03a983e63","ios":"levelo://app?vid=e6b34210-7978-4137-b534-a3b03a983e63"},"vehicle_type_id":"4","last_reported":1736849350,"current_range_meters":33200,"station_id":"ce4bgkp2rcd13ifvqbmg","pricing_plan_id":"cebpf4jnsgd1na2vs0mg"},