{"last_updated":1732982989,"ttl":60,"version":"2.2","data":{"bikes":[{"bike_id":"27004514-44d6-47f7-8c94-9aeceb9c282c","system_id":"levelo_inurba_marseille","lat":43.29009,"lon":5.35615,"is_reserved":false,"is_disabled":false,"rental_uris":{"android":"levelo://app?vid=27004514-44d6-47f7-8c94-9aeceb9c282c","ios":"levelo://app?vid=27004514-44d6-47f7-8c94-9aeceb9c282c"},"vehicle_type_id":"4","last_reported":1732982989,"current_range_meters":16800,"station_id":"ce4bhb92rcd13ifvqen0","pricing_plan_id":"cebpf4jnsgd1na2vs0mg"},{"bike_id":"b856c8b4-412d-4c25-bdd4-e6b29aed04cb","system_id":"levelo_inurba_marseille","lat":43.22933,"lon":5.35379,"is_reserved":false,"is_disabled":false,"rental_uris":{"android":"levelo://app?vid=b856c8b4-412d-4c25-bdd4-e6b29aed04cb","ios":"levelo://app?vid=b856c8b4-412d-4c25-bdd4-e6b29aed04cb"},"vehicle_type_id":"4","last_reported":1732982989,"current_range_meters":38800,"station_id":"cpo3532slgdg3j2ikp40","pricing_plan_id":"cebpf4jnsgd1na2vs0mg"},{"bike_id":"4805472a-bf8d-47c3-aed6-0f5e70e36a65","system_id":"levelo_inurba_marseille","lat":43.28647,"lon":5.36345,"is_reserved":false,"is_disabled":false,"rental_uris":{"android":"levelo://app?vid=4805472a-bf8d-47c3-aed6-0f5e70e36a65","ios":"levelo://app?vid=4805472a-bf8d-47c3-aed6-0f5e70e36a65"},"vehicle_type_id":"4","last_reported":1732982989,"current_range_meters":9200,"station_id":"ce4bhah2rcd13ifvqej0","pricing_plan_id":"cebpf4jnsgd1na2vs0mg"},{"bike_id":"7ab5ca07-c9c4-44c3-b1bf-a9fe940ac72c","system_id":"levelo_inurba_marseille","lat":43.23059,"lon":5.35496,"is_reserved":false,"is_disabled":false,"rental_uris":{"android":"levelo://app?vid=7ab5ca07-c9c4-44c3-b1bf-a9fe940ac72c","ios":"levelo://app?vid=7ab5ca07-c9c4-44c3-b1bf-a9fe940ac72c"},"vehicle_type_id":"4","last_reported":1732982989,"current_range_meters":7200,"station_id":"cpo3342slgdg3j2ifvpg","pricing_plan_id":"cebpf4jnsgd1na2vs0mg"},{"bike_id":"fa919d2f-b5f1-4858-95a3-04038e7652d1","system_id":"levelo_inurba_marseille","lat":43.25496,"lon":5.37649,"is_reserved":false,"is_disabled":false,"rental_uris":{"android":"levelo://app?vid=fa919d2f-b5f1-4858-95a3-04038e7652d1","ios":"levelo://app?vid=fa919d2f-b5f1-4858-95a3-04038e7652d1"},"vehicle_type_id":"4","last_reported":1732982989,"current_range_meters":26000,"station_id":"ce4bhh12rcd13ifvqff0","pricing_plan_id":"cebpf4jnsgd1na2vs0mg"},{"bike_id":"24b58811-c922-45fc-9bd8-9af52b722bc3","system_id":"levelo_inurba_marseille","lat":43.32481,"lon":5.36568,"is_reserved":false,"is_disabled":false,"rental_uris":{"android":"levelo://app?vid=24b58811-c922-45fc-9bd8-9af52b722bc3","ios":"levelo://app?vid=24b58811-c922-45fc-9bd8-9af52b722bc3"},"vehicle_type_id":"4","last_reported":1732982989,"current_range_meters":27600,"station_id":"ce4bhs12rcd13ifvqhvg","pricing_plan_id":"cebpf4jnsgd1na2vs0mg"},{"bike_id":"24132d24-5e0c-48e3-ad53-009f6613e5a6","system_id":"levelo_inurba_marseille","lat":43.28003,"lon":5.40016,"is_reserved":false,"is_disabled":true,"rental_uris":{"android":"levelo://app?vid=24132d24-5e0c-48e3-ad53-009f6613e5a6","ios":"levelo://app?vid=24132d24-5e0c-48e3-ad53-009f6613e5a6"},"vehicle_type_id":"4","last_reported":1732982989,"current_range_meters":800,"station_id":"ce4bho92rcd13ifvqh4g","pricing_plan_id":"cebpf4jnsgd1na2vs0mg"},{"bike_id":"966791e8-cdff-4838-a42b-c9b609a533a7","system_id":"levelo_inurba_marseille","lat":43.27822,"lon":5.38942,"is_reserved":false,"is_disabled":true,"rental_uris":{"android":"levelo://app?vid=966791e8-cdff-4838-a42b-c9b609a533a7","ios":"levelo://app?vid=966791e8-cdff-4838-a42b-c9b609a533a7"},"vehicle_type_id":"4","last_reported":1732982989,"current_range_meters":0,"station_id":"","pricing_plan_id":"cebpf4jnsgd1na2vs0mg"},{"bike_id":"0dfb5348-2a41-4497-89ed-f8bc96f05e25","system_id":"levelo_inurba_marseille","lat":43.2991,"lon":5.37476,"is_reserved":false,"is_disabled":true,"rental_uris":{"android":"levelo://app?vid=0dfb5348-2a41-4497-89ed-f8bc96f05e25","ios":"levelo://app?vid=0dfb5348-2a41-4497-89ed-f8bc96f05e25"},"vehicle_type_id":"4","last_reported":1732982989,"current_range_meters":0,"station_id":"ce4bgjh2rcd13ifvqbg0","pricing_plan_id":"cebpf4jnsgd1na2vs0mg"},{"bike_id":"7974306f-50f1-4979-96e6-42a3a669c81a","system_id":"levelo_inurba_marseille","lat":43.32007,"lon":5.38152,"is_reserved":false,"is_disabled":false,"rental_uris":{"android":"levelo://app?vid=7974306f-50f1-4979-96e6-42a3a669c81a","ios":"levelo://app?vid=7974306f-50f1-4979-96e6-42a3a669c81a"},"vehicle_type_id":"4","last_reported":1732982989,"current_range_meters":9600,"station_id":"ce4bhr12rcd13ifvqhpg","pricing_plan_id":"cebpf4jnsgd1na2vs0mg"},{"bike_id":"32910786-5518-43e3-8702-d33e2f317cdf","system_id":"levelo_inurba_marseille","lat":43.24173,"lon":5.36406,"is_reserved":false,"is_disabled":false,"rental_uris":{"android":"levelo://app?vid=32910786-5518-43e3-8702-d33e2f317cdf","ios":"levelo://app?vid=32910786-5518-43e3-8702-d33e2f317cdf"},"vehicle_type_id":"4","last_reported":1732982989,"current_range_meters":35200,"station_id":"cpo36qri1sfpv3e86is0","pricing_plan_id":"cebpf4jnsgd1na2vs0mg"},{"bike_id":"157b2023-b679-4ecf-a9c2-002fd3f14153","system_id":"levelo_inurba_marseille","lat":43.28868,"lon":5.3585,"is_reserved":false,"is_disabled":true,"rental_uris":{"android":"levelo://app?vid=157b2023-b679-4ecf-a9c2-002fd3f14153","ios":"levelo://app?vid=157b2023-b679-4ecf-a9c2-002fd3f14153"},"vehicle_type_id":"4","last_reported":1732982989,"current_range_meters":0,"station_id":"ce4bhb12rcd13ifvqem0","pricing_plan_id":"cebpf4jnsgd1na2vs0mg"},{"bike_id":"ba263978-cc52-4ab2-9858-88632e1e0aca","system_id":"levelo_inurba_marseille","lat":43.26199,"lon":5.37448,"is_reserved":false,"is_disabled":false,"rental_uris":{"android":"levelo://app?vid=ba263978-cc52-4ab2-9858-88632e1e0aca","ios":"levelo://app?vid=ba263978-cc52-4ab2-9858-88632e1e0aca"},"vehicle_type_id":"4","last_reported":1732982989,"current_range_meters":38800,"station_id":"ce4bhgp2rcd13ifvqfc0","pricing_plan_id":"cebpf4jnsgd1na2vs0mg"},{"bike_id":"74860bc6-bbf6-4873-a3f7-c5c798597c58","system_id":"levelo_inurba_marseille","lat":43.29851,"lon":5.36289,"is_reserved":false,"is_disabled":false,"rental_uris":{"android":"levelo://app?vid=74860bc6-bbf6-4873-a3f7-c5c798597c58","ios":"levelo://app?vid=74860bc6-bbf6-4873-a3f7-c5c798597c58"},"vehicle_type_id":"4","last_reported":1732982989,"current_range_meters":24000,"station_id":"ce4bgpp2rcd13ifvqc3g","pricing_plan_id":"cebpf4jnsgd1na2vs0mg"},{"bike_id":"48d7b2af-6057-4186-991b-f221ad4f692d","system_id":"levelo_inurba_marseille","lat":43.2656,"lon":5.37283,"is_reserved":false,"is_disabled":false,"rental_uris":{"android":"levelo://app?vid=48d7b2af-6057-4186-991b-f221ad4f692d","ios":"levelo://app?vid=48d7b2af-6057-4186-991b-f221ad4f692d"},"vehicle_type_id":"4","last_reported":1732982989,"current_range_meters":27600,"station_id":"ce4bhg12rcd13ifvqf70","pricing_plan_id":"cebpf4jnsgd1na2vs0mg"},{"bike_id":"4c372f2d-9233-4b44-8a57-21c51baa82b5","system_id":"levelo_inurba_marseille","lat":43.31176,"lon":5.38719,"is_reserved":false,"is_disabled":true,"rental_uris":{"android":"levelo://app?vid=4c372f2d-9233-4b44-8a57-21c51baa82b5","ios":"levelo://app?vid=4c372f2d-9233-4b44-8a57-21c51baa82b5"},"vehicle_type_id":"4","last_reported":1732982989,"current_range_meters":0,"station_id":"ce4bgv12rcd13ifvqcp0","pricing_plan_id":"cebpf4jnsgd1na2vs0mg"},{"bike_id":"c7124f38-3d56-473c-9e8b-76061f1c5a09","system_id":"levelo_inurba_marseille","lat":43.27077,"lon":5.42281,"is_reserved":false,"is_disabled":false,"rental_uris":{"android":"levelo://app?vid=c7124f38-3d56-473c-9e8b-76061f1c5a09","ios":"levelo://app?vid=c7124f38-3d56-473c-9e8b-76061f1c5a09"},"vehicle_type_id":"4","last_reported":1732982989,"current_range_meters":11600,"station_id":"ce4bhk92rcd13ifvqgb0","pricing_plan_id":"cebpf4jnsgd1na2vs0mg"},{"bike_id":"4ce64d28-e748-4e86-9b06-1fb248186274","system_id":"levelo_inurba_marseille","lat":43.28261,"lon":5.35083,"is_reserved":false,"is_disabled":false,"rental_uris":{"android":"levelo://app?vid=4ce64d28-e748-4e86-9b06-1fb248186274","ios":"levelo://app?vid=4ce64d28-e748-4e86-9b06-1fb248186274"},"vehicle_type_id":"4","last_reported":1732982989,"current_range_meters":38800,"station_id":"ce4bhbp2rcd13ifvqerg","pricing_plan_id":"cebpf4jnsgd1na2vs0mg"},{"bike_id":"b0bd4cdf-7308-45f0-8e99-a0d5811907ff","system_id":"levelo_inurba_marseille","lat":43.25438,"lon":5.38173,"is_reserved":false,"is_disabled":true,"rental_uris":{"android":"levelo://app?vid=b0bd4cdf-7308-45f0-8e99-a0d5811907ff","ios":"levelo://app?vid=b0bd4cdf-7308-45f0-8e99-a0d5811907ff"},"vehicle_type_id":"4","last_reported":1732982989,"current_range_meters":0,"station_id":"","pricing_plan_id":"cebpf4jnsgd1na2vs0mg"},{"bike_id":"5581d4f2-ad23-452f-932c-e88d98090b79","system_id":"levelo_inurba_marseille","lat":43.29263,"lon":5.40906,"is_reserved":false,"is_disabled":false,"rental_uris":{"android":"levelo://app?vid=5581d4f2-ad23-452f-932c-e88d98090b79","ios":"levelo://app?vid=5581d4f2-ad23-452f-932c-e88d98090b79"},"vehicle_type_id":"4","last_reported":1732982989,"current_range_meters":25200,"station_id":"ce4bh192rcd13ifvqdc0","pricing_plan_id":"cebpf4jnsgd1na2vs0mg"},{"bike_id":"f0ca66be-c5fa-4f1d-8e2b-9450ca0243d7","system_id":"levelo_inurba_marseille","lat":43.30146,"lon":5.38095,"is_reserved":false,"is_disabled":false,"rental_uris":{"android":"levelo://app?vid=f0ca66be-c5fa-4f1d-8e2b-9450ca0243d7","ios":"levelo://app?vid=f0ca66be-c5fa-4f1d-8e2b-9450ca0243d7"},"vehicle_type_id":"4","last_reported":1732982989,"current_range_meters":35600,"station_id":"ce4bgjp2rcd13ifvqbh0","pricing_plan_id":"cebpf4jnsgd1na2vs0mg"},{"bike_id":"3c241112-0e96-425e-8646-c6f08bf02411","system_id":"levelo_inurba_marseille","lat":43.24655,"lon":5.38899,"is_reserved":false,"is_disabled":false,"rental_uris":{"android":"levelo://app?vid=3c241112-0e96-425e-8646-c6f08bf02411","ios":"levelo://app?vid=3c241112-0e96-425e-8646-c6f08bf02411"},"vehicle_type_id":"4","last_reported":1732982989,"current_range_meters":38800,"station_id":"ce4bhg12rcd13ifvqf60","pricing_plan_id":"cebpf4jnsgd1na2vs0mg"},{"bike_id":"6f7949e1-de87-4a49-8620-fec27e04447f","system_id":"levelo_inurba_marseille","lat":43.33739,"lon":5.39199,"is_reserved":false,"is_disabled":false,"rental_uris":{"android":"levelo://app?vid=6f7949e1-de87-4a49-8620-fec27e04447f","ios":"levelo://app?vid=6f7949e1-de87-4a49-8620-fec27e04447f"},"vehicle_type_id":"4","last_reported":1732982989,"current_range_meters":27600,"station_id":"ce4bhr92rcd13ifvqhsg","pricing_plan_id":"cebpf4jnsgd1na2vs0mg"},{"bike_id":"440cb15e-33be-4df8-8721-48d188434d9c","system_id":"levelo_inurba_marseille","lat":43.2466,"lon":5.38165,"is_reserved":false,"is_disabled":false,"rental_uris":{"android":"levelo://app?vid=440cb15e-33be-4df8-8721-48d188434d9c","ios":"levelo://app?vid=440cb15e-33be-4df8-8721-48d188434d9c"},"vehicle_type_id":"4","last_reported":1732982989,"current_range_meters":16000,"station_id":"ce4bhih2rcd13ifvqfr0","pricing_plan_id":"cebpf4jnsgd1na2vs0mg"},{"bike_id":"bf9e6195-317e-41cb-9ae6-35da8dcedc53","system_id":"levelo_inurba_marseille","lat":43.31694,"lon":5.40482,"is_reserved":false,"is_disabled":false,"rental_uris":{"android":"levelo://app?vid=bf9e6195-317e-41cb-9ae6-35da8dcedc53","ios":"levelo://app?vid=bf9e6195-317e-41cb-9ae6-35da8dcedc53"},"vehicle_type_id":"4","last_reported":1732982989,"current_range_meters":30000,"station_id":"ce4bh012rcd13ifvqd00","pricing_plan_id":"cebpf4jnsgd1na2vs0mg"},{"bike_id":"7066298c-8444-4dbb-8e5a-afa45f0890f5","system_id":"levelo_inurba_marseille","lat":43.28857,"lon":5.39323,"is_reserved":false,"is_disabled":true,"rental_uris":{"android":"levelo://app?vid=7066298c-8444-4dbb-8e5a-afa45f0890f5","ios":"levelo://app?vid=7066298c-8444-4dbb-8e5a-afa45f0890f5"},"vehicle_type_id":"4","last_reported":1732982989,"current_range_meters":11600,"station_id":"ce4bh2p2rcd13ifvqdi0","pricing_plan_id":"cebpf4jnsgd1na2vs0mg"},{"bike_id":"79da6e11-068f-4f85-891a-bf5d6033ae1b","system_id":"levelo_inurba_marseille","lat":43.29195,"lon":5.39313,"is_reserved":false,"is_disabled":true,"rental_uris":{"android":"levelo://app?vid=79da6e11-068f-4f85-891a-bf5d6033ae1b","ios":"levelo://app?vid=79da6e11-068f-4f85-891a-bf5d6033ae1b"},"vehicle_type_id":"4","last_reported":1732982989,"current_range_meters":24000,"station_id":"ce4bh192rcd13ifvqdd0","pricing_plan_id":"cebpf4jnsgd1na2vs0mg"},{"bike_id":"912ca245-f4a0-4c07-a826-96c80b2b6f39","system_id":"levelo_inurba_marseille","lat":43.28268,"lon":5.35072,"is_reserved":false,"is_disabled":false,"rental_uris":{"android":"levelo://app?vid=912ca245-f4a0-4c07-a826-96c80b2b6f39","ios":"levelo://app?vid=912ca245-f4a0-4c07-a826-96c80b2b6f39"},"vehicle_type_id":"4","last_reported":1732982989,"current_range_meters":15200,"station_id":"ce4bhbp2rcd13ifvqerg","pricing_plan_id":"cebpf4jnsgd1na2vs0mg"},{"bike_id":"dc904964-fee2-4bf7-82a7-fd1adfdf1cc1","system_id":"levelo_inurba_marseille","lat":43.24391,"lon":5.37063,"is_reserved":false,"is_disabled":true,"rental_uris":{"android":"levelo://app?vid=dc904964-fee2-4bf7-82a7-fd1adfdf1cc1","ios":"levelo://app?vid=dc904964-fee2-4bf7-82a7-fd1adfdf1cc1"},"vehicle_type_id":"4","last_reported":1732982989,"current_range_meters":0,"station_id":"ce4bhhh2rcd13ifvqfk0","pricing_plan_id":"cebpf4jnsgd1na2vs0mg"},{"bike_id":"1b074364-90e4-4e6e-92c3-ee108ac402f9","system_id":"levelo_inurba_marseille","lat":43.31365,"lon":5.38493,"is_reserved":false,"is_disabled":false,"rental_uris":{"android":"levelo://app?vid=1b074364-90e4-4e6e-92c3-ee108ac402f9","ios":"levelo://app?vid=1b074364-90e4-4e6e-92c3-ee108ac402f9"},"vehicle_type_id":"4","last_reported":1732982989,"current_range_meters":28400,"station_id":"ce4bgt92rcd13ifvqcf0","pricing_plan_id":"cebpf4jnsgd1na2vs0mg"},{"bike_id":"97726575-3fd1-48f3-a607-089b284f3b7e","system_id":"levelo_inurba_marseille","lat":43.27908,"lon":5.38024,"is_reserved":false,"is_disabled":false,"rental_uris":{"android":"levelo://app?vid=97726575-3fd1-48f3-a607-089b284f3b7e","ios":"levelo://app?vid=97726575-3fd1-48f3-a607-089b284f3b7e"},"vehicle_type_id":"4","last_reported":1732982989,"current_range_meters":4800,"station_id":"ce4bhf92rcd13ifvqf50","pricing_plan_id":"cebpf4jnsgd1na2vs0mg"},{"bike_id":"f26bfa4f-1b03-4d40-bd8a-9396393c620d","system_id":"levelo_inurba_marseille","lat":43.25579,"lon":5.38241,"is_reserved":false,"is_disabled":false,"rental_uris":{"android":"levelo://app?vid=f26bfa4f-1b03-4d40-bd8a-9396393c620d","ios":"levelo://app?vid=f26bfa4f-1b03-4d40-bd8a-9396393c620d"},"vehicle_type_id":"4","last_reported":1732982989,"current_range_meters":38800,"station_id":"ce4bhih2rcd13ifvqfs0","pricing_plan_id":"cebpf4jnsgd1na2vs0mg"},{"bike_id":"d8dac4a7-aa42-46ce-8b10-4388cad1c062","system_id":"levelo_inurba_marseille","lat":43.29576,"lon":5.37515,"is_reserved":false,"is_disabled":true,"rental_uris":{"android":"levelo://app?vid=d8dac4a7-aa42-46ce-8b10-4388cad1c062","ios":"levelo://app?vid=d8dac4a7-aa42-46ce-8b10-4388cad1c062"},"vehicle_type_id":"4","last_reported":1732982989,"current_range_meters":400,"station_id":"ce4bgh92rcd13ifvqb50","pricing_plan_id":"cebpf4jnsgd1na2vs0mg"},{"bike_id":"8bb3f199-51ec-4782-bbf0-4948bb68010d","system_id":"levelo_inurba_marseille","lat":43.27183,"lon":5.41001,"is_reserved":false,"is_disabled":false,"rental_uris":{"android":"levelo://app?vid=8bb3f199-51ec-4782-bbf0-4948bb68010d","ios":"levelo://app?vid=8bb3f199-51ec-4782-bbf0-4948bb68010d"},"vehicle_type_id":"4","last_reported":1732982989,"current_range_meters":14000,"station_id":"ce4bhl12rcd13ifvqgf0","pricing_plan_id":"cebpf4jnsgd1na2vs0mg"},{"bike_id":"f633bf9b-f6fe-447e-a41e-ad14bbd5d957","system_id":"levelo_inurba_marseille","lat":43.28469,"lon":5.3844,"is_reserved":false,"is_disabled":false,"rental_uris":{"android":"levelo://app?vid=f633bf9b-f6fe-447e-a41e-ad14bbd5d957","ios":"levelo://app?vid=f633bf9b-f6fe-447e-a41e-ad14bbd5d957"},"vehicle_type_id":"4","last_reported":1732982989,"current_range_meters":4000,"station_id":"ce4bh512rcd13ifvqe3g","pricing_plan_id":"cebpf4jnsgd1na2vs0mg"},{"bike_id":"4cd0fae9-9b96-4c08-80a7-0987ebb39a57","system_id":"levelo_inurba_marseille","lat":43.28985,"lon":5.35604,"is_reserved":false,"is_disabled":false,"rental_uris":{"android":"levelo://app?vid=4cd0fae9-9b96-4c08-80a7-0987ebb39a57","ios":"levelo://app?vid=4cd0fae9-9b96-4c08-80a7-0987ebb39a57"},"vehicle_type_id":"4","last_reported":1732982989,"current_range_meters":38800,"station_id":"ce4bhb92rcd13ifvqen0","pricing_plan_id":"cebpf4jnsgd1na2vs0mg"},{"bike_id":"98037c3a-9b2c-4fc3-b5c9-984ee3607601","system_id":"levelo_inurba_marseille","lat":43.3236,"lon":5.36765,"is_reserved":false,"is_disabled":false,"rental_uris":{"android":"levelo://app?vid=98037c3a-9b2c-4fc3-b5c9-984ee3607601","ios":"levelo://app?vid=98037c3a-9b2c-4fc3-b5c9-984ee3607601"},"vehicle_type_id":"4","last_reported":1732982989,"current_range_meters":8000,"station_id":"ce4bhsh2rcd13ifvqi2g","pricing_plan_id":"cebpf4jnsgd1na2vs0mg"},{"bike_id":"e00ba5ec-71a0-4146-aadd-ef7f6cfd276d","system_id":"levelo_inurba_marseille","lat":43.260262,"lon":5.375514,"is_reserved":false,"is_disabled":false,"rental_uris":{"android":"levelo://app?vid=e00ba5ec-71a0-4146-aadd-ef7f6cfd276d","ios":"levelo://app?vid=e00ba5ec-71a0-4146-aadd-ef7f6cfd276d"},"vehicle_type_id":"4","last_reported":1732982989,"current_range_meters":38800,"station_id":"ce4bhgh2rcd13ifvqfa0","pricing_plan_id":"cebpf4jnsgd1na2vs0mg"},{"bike_id":"c7bc53fc-285c-4506-94cb-af297fbb29ee","system_id":"levelo_inurba_marseille","lat":43.25569,"lon":5.38234,"is_reserved":false,"is_disabled":false,"rental_uris":{"android":"levelo://app?vid=c7bc53fc-285c-4506-94cb-af297fbb29ee","ios":"levelo://app?vid=c7bc53fc-285c-4506-94cb-af297fbb29ee"},"vehicle_type_id":"4","last_reported":1732982989,"current_range_meters":30000,"station_id":"ce4bhih2rcd13ifvqfs0","pricing_plan_id":"cebpf4jnsgd1na2vs0mg"},{"bike_id":"385b33d2-1c16-4ef6-a22f-27cf07ac44d1","system_id":"levelo_inurba_marseille","lat":43.26209,"lon":5.37929,"is_reserved":false,"is_disabled":false,"rental_uris":{"android":"levelo://app?vid=385b33d2-1c16-4ef6-a22f-27cf07ac44d1","ios":"levelo://app?vid=385b33d2-1c16-4ef6-a22f-27cf07ac44d1"},"vehicle_type_id":"4","last_reported":1732982989,"current_range_meters":8000,"station_id":"ce4bhjp2rcd13ifvqg90","pricing_plan_id":"cebpf4jnsgd1na2vs0mg"},{"bike_id":"1aa61925-f4ba-4fd5-b1de-08db522586c3","system_id":"levelo_inurba_marseille","lat":43.27058,"lon":5.40263,"is_reserved":false,"is_disabled":true,"rental_uris":{"android":"levelo://app?vid=1aa61925-f4ba-4fd5-b1de-08db522586c3","ios":"levelo://app?vid=1aa61925-f4ba-4fd5-b1de-08db522586c3"},"vehicle_type_id":"4","last_reported":1732982989,"current_range_meters":0,"station_id":"ce4bhk92rcd13ifvqgc0","pricing_plan_id":"cebpf4jnsgd1na2vs0mg"},{"bike_id":"694ada16-62be-4cd2-822e-a4599887121c","system_id":"levelo_inurba_marseille","lat":43.23191,"lon":5.35557,"is_reserved":false,"is_disabled":false,"rental_uris":{"android":"levelo://app?vid=694ada16-62be-4cd2-822e-a4599887121c","ios":"levelo://app?vid=694ada16-62be-4cd2-822e-a4599887121c"},"vehicle_type_id":"4","last_reported":1732982989,"current_range_meters":36800,"station_id":"ce4bhu92rcd13ifvqi70","pricing_plan_id":"cebpf4jnsgd1na2vs0mg"},{"bike_id":"67fa2a9e-eed8-4ed6-bdd8-7d1023a52b4e","system_id":"levelo_inurba_marseille","lat":43.26937,"lon":5.38925,"is_reserved":false,"is_disabled":true,"rental_uris":{"android":"levelo://app?vid=67fa2a9e-eed8-4ed6-bdd8-7d1023a52b4e","ios":"levelo://app?vid=67fa2a9e-eed8-4ed6-bdd8-7d1023a52b4e"},"vehicle_type_id":"4","last_reported":1732982989,"current_range_meters":9200,"station_id":"ce4bhhh2rcd13ifvqfl0","pricing_plan_id":"cebpf4jnsgd1na2vs0mg"},{"bike_id":"7aea2cc0-8fb7-4051-bad9-d49d559b2b34","system_id":"levelo_inurba_marseille","lat":43.30883,"lon":5.39646,"is_reserved":false,"is_disabled":false,"rental_uris":{"android":"levelo://app?vid=7aea2cc0-8fb7-4051-bad9-d49d559b2b34","ios":"levelo://app?vid=7aea2cc0-8fb7-4051-bad9-d49d559b2b34"},"vehicle_type_id":"4","last_reported":1732982989,"current_range_meters":10000,"station_id":"ce4bh012rcd13ifvqcv0","pricing_plan_id":"cebpf4jnsgd1na2vs0mg"},{"bike_id":"203d3df0-324d-45fe-aa7a-95ff63be67b6","system_id":"levelo_inurba_marseille","lat":43.29964,"lon":5.38505,"is_reserved":false,"is_disabled":true,"rental_uris":{"android":"levelo://app?vid=203d3df0-324d-45fe-aa7a-95ff63be67b6","ios":"levelo://app?vid=203d3df0-324d-45fe-aa7a-95ff63be67b6"},"vehicle_type_id":"4","last_reported":1732982989,"current_range_meters":0,"station_id":"ce4bgj92rcd13ifvqbd0","pricing_plan_id":"cebpf4jnsgd1na2vs0mg"},{"bike_id":"f453dc37-c945-448b-80e2-38bae3f013a5","system_id":"levelo_inurba_marseille","lat":43.31983,"lon":5.38161,"is_reserved":false,"is_disabled":false,"rental_uris":{"android":"levelo://app?vid=f453dc37-c945-448b-80e2-38bae3f013a5","ios":"levelo://app?vid=f453dc37-c945-448b-80e2-38bae3f013a5"},"vehicle_type_id":"4","last_reported":1732982989,"current_range_meters":33600,"station_id":"ce4bhr12rcd13ifvqhpg","pricing_plan_id":"cebpf4jnsgd1na2vs0mg"},{"bike_id":"3d2542c0-c220-41d3-a246-bae8450336b3","system_id":"levelo_inurba_marseille","lat":43.33025,"lon":5.39038,"is_reserved":false,"is_disabled":false,"rental_uris":{"android":"levelo://app?vid=3d2542c0-c220-41d3-a246-bae8450336b3","ios":"levelo://app?vid=3d2542c0-c220-41d3-a246-bae8450336b3"},"vehicle_type_id":"4","last_reported":1732982989,"current_range_meters":28400,"station_id":"ce4bhr92rcd13ifvqhrg","pricing_plan_id":"cebpf4jnsgd1na2vs0mg"},{"bike_id":"a2ac41da-6096-4fe3-9a6c-690722f4702a","system_id":"levelo_inurba_marseille","lat":43.24396,"lon":5.37069,"is_reserved":false,"is_disabled":false,"rental_uris":{"android":"levelo://app?vid=a2ac41da-6096-4fe3-9a6c-690722f4702a","ios":"levelo://app?vid=a2ac41da-6096-4fe3-9a6c-690722f4702a"},"vehicle_type_id":"4","last_reported":1732982989,"current_range_meters":6800,"station_id":"ce4bhhh2rcd13ifvqfk0","pricing_plan_id":"cebpf4jnsgd1na2vs0mg"},{"bike_id":"b8cfa336-e013-4224-8427-ff84d24b3ac0","system_id":"levelo_inurba_marseille","lat":43.27074,"lon":5.42283,"is_reserved":false,"is_disabled":false,"rental_uris":{"android":"levelo://app?vid=b8cfa336-e013-4224-8427-ff84d24b3ac0","ios":"levelo://app?vid=b8cfa336-e013-4224-8427-ff84d24b3ac0"},"vehicle_type_id":"4","last_reported":1732982989,"current_range_meters":12000,"station_id":"ce4bhk92rcd13ifvqgb0","pricing_plan_id":"cebpf4jnsgd1na2vs0mg"},{"bike_id":"b048c7f8-26ab-4136-af35-eaceb31d65ab","system_id":"levelo_inurba_marseille","lat":43.29893,"lon":5.43677,"is_reserved":false,"is_disabled":false,"rental_uris":{"android":"levelo://app?vid=b048c7f8-26ab-4136-af35-eaceb31d65ab","ios":"levelo://app?vid=b048c7f8-26ab-4136-af35-eaceb31d65ab"},"vehicle_type_id":"4","last_reported":1732982989,"current_range_meters":17200,"station_id":"ce4bhpp2rcd13ifvqhfg","pricing_plan_id":"cebpf4jnsgd1na2vs0mg"},{"bike_id":"f8968860-9ebe-425f-866f-a253a48101dd","system_id":"levelo_inurba_marseille","lat":43.28467,"lon":5.35899,"is_reserved":false,"is_disabled":true,"rental_uris":{"android":"levelo://app?vid=f8968860-9ebe-425f-866f-a253a48101dd","ios":"levelo://app?vid=f8968860-9ebe-425f-866f-a253a48101dd"},"vehicle_type_id":"4","last_reported":1732982989,"current_range_meters":4800,"station_id":"ce4bhah2rcd13ifvqei0","pricing_plan_id":"cebpf4jnsgd1na2vs0mg"},{"bike_id":"bc749360-3ce4-4dd6-a0ac-83aa82c323a7","system_id":"levelo_inurba_marseille","lat":43.28155,"lon":5.42644,"is_reserved":false,"is_disabled":true,"rental_uris":{"android":"levelo://app?vid=bc749360-3ce4-4dd6-a0ac-83aa82c323a7","ios":"levelo://app?vid=bc749360-3ce4-4dd6-a0ac-83aa82c323a7"},"vehicle_type_id":"4","last_reported":1732982989,"current_range_meters":34800,"station_id":"ce4bhnh2rcd13ifvqgug","pricing_plan_id":"cebpf4jnsgd1na2vs0mg"},{"bike_id":"558747a2-4017-443c-bd21-43d4dcdb19d0","system_id":"levelo_inurba_marseille","lat":43.23195,"lon":5.35554,"is_reserved":false,"is_disabled":false,"rental_uris":{"android":"levelo://app?vid=558747a2-4017-443c-bd21-43d4dcdb19d0","ios":"levelo://app?vid=558747a2-4017-443c-bd21-43d4dcdb19d0"},"vehicle_type_id":"4","last_reported":1732982989,"current_range_meters":38800,"station_id":"ce4bhu92rcd13ifvqi70","pricing_plan_id":"cebpf4jnsgd1na2vs0mg"},{"bike_id":"4d4c884f-6933-49c0-8899-f9856d90f44d","system_id":"levelo_inurba_marseille","lat":43.29748,"lon":5.37971,"is_reserved":false,"is_disabled":true,"rental_uris":{"android":"levelo://app?vid=4d4c884f-6933-49c0-8899-f9856d90f44d","ios":"levelo://app?vid=4d4c884f-6933-49c0-8899-f9856d90f44d"},"vehicle_type_id":"4","last_reported":1732982989,"current_range_meters":0,"station_id":"","pricing_plan_id":"cebpf4jnsgd1na2vs0mg"},{"bike_id":"49383f8c-5e0c-4bb5-aa2b-e1c81f4536f3","system_id":"levelo_inurba_marseille","lat":43.32286,"lon":5.38267,"is_reserved":false,"is_disabled":false,"rental_uris":{"android":"levelo://app?vid=49383f8c-5e0c-4bb5-aa2b-e1c81f4536f3","ios":"levelo://app?vid=49383f8c-5e0c-4bb5-aa2b-e1c81f4536f3"},"vehicle_type_id":"4","last_reported":1732982989,"current_range_meters":29600,"station_id":"ce4bhr12rcd13ifvqhqg","pricing_plan_id":"cebpf4jnsgd1na2vs0mg"},{"bike_id":"e4c3ce3e-4fe1-4bf7-b4f7-9fb833886669","system_id":"levelo_inurba_marseille","lat":43.292,"lon":5.39321,"is_reserved":false,"is_disabled":false,"rental_uris":{"android":"levelo://app?vid=e4c3ce3e-4fe1-4bf7-b4f7-9fb833886669","ios":"levelo://app?vid=e4c3ce3e-4fe1-4bf7-b4f7-9fb833886669"},"vehicle_type_id":"4","last_reported":1732982989,"current_range_meters":37600,"station_id":"ce4bh192rcd13ifvqdd0","pricing_plan_id":"cebpf4jnsgd1na2vs0mg"},{"bike_id":"cedb1690-a6c8-4330-8bdb-d2c9a2c25b96","system_id":"levelo_inurba_marseille","lat":43.31714,"lon":5.4371,"is_reserved":false,"is_disabled":false,"rental_uris":{"android":"levelo://app?vid=cedb1690-a6c8-4330-8bdb-d2c9a2c25b96","ios":"levelo://app?vid=cedb1690-a6c8-4330-8bdb-d2c9a2c25b96"},"vehicle_type_id":"4","last_reported":1732982989,"current_range_meters":25600,"station_id":"ce4bhp92rcd13ifvqhcg","pricing_plan_id":"cebpf4jnsgd1na2vs0mg"},{"bike_id":"9009be37-c6b1-406b-b0a8-fbab355f715e","system_id":"levelo_inurba_marseille","lat":43.33763,"lon":5.37495,"is_reserved":false,"is_disabled":false,"rental_uris":{"android":"levelo://app?vid=9009be37-c6b1-406b-b0a8-fbab355f715e","ios":"levelo://app?vid=9009be37-c6b1-406b-b0a8-fbab355f715e"},"vehicle_type_id":"4","last_reported":1732982989,"current_range_meters":36000,"station_id":"","pricing_plan_id":"cebpf4jnsgd1na2vs0mg"},{"bike_id":"576c8807-c1d7-45f2-bc2a-6c7d21427693","system_id":"levelo_inurba_marseille","lat":43.27212,"lon":5.39185,"is_reserved":false,"is_disabled":true,"rental_uris":{"android":"levelo://app?vid=576c8807-c1d7-45f2-bc2a-6c7d21427693","ios":"levelo://app?vid=576c8807-c1d7-45f2-bc2a-6c7d21427693"},"vehicle_type_id":"4","last_reported":1732982989,"current_range_meters":0,"station_id":"ce4bhhp2rcd13ifvqfm0","pricing_plan_id":"cebpf4jnsgd1na2vs0mg"},{"bike_id":"ac49fba4-30df-4893-b052-7d9d76fd86a2","system_id":"levelo_inurba_marseille","lat":43.29249,"lon":5.38432,"is_reserved":false,"is_disabled":true,"rental_uris":{"android":"levelo://app?vid=ac49fba4-30df-4893-b052-7d9d76fd86a2","ios":"levelo://app?vid=ac49fba4-30df-4893-b052-7d9d76fd86a2"},"vehicle_type_id":"4","last_reported":1732982989,"current_range_meters":17200,"station_id":"ce4bh692rcd13ifvqea0","pricing_plan_id":"cebpf4jnsgd1na2vs0mg"},{"bike_id":"3e4b04e4-22a8-4a95-8cb6-c798fc8bfb6f","system_id":"levelo_inurba_marseille","lat":43.29847,"lon":5.36277,"is_reserved":false,"is_disabled":false,"rental_uris":{"android":"levelo://app?vid=3e4b04e4-22a8-4a95-8cb6-c798fc8bfb6f","ios":"levelo://app?vid=3e4b04e4-22a8-4a95-8cb6-c798fc8bfb6f"},"vehicle_type_id":"4","last_reported":1732982989,"current_range_meters":20400,"station_id":"ce4bgpp2rcd13ifvqc3g","pricing_plan_id":"cebpf4jnsgd1na2vs0mg"},{"bike_id":"be1ea8ae-bb6c-4cc9-9878-4dd6e7c328d6","system_id":"levelo_inurba_marseille","lat":43.3211,"lon":5.36781,"is_reserved":false,"is_disabled":false,"rental_uris":{"android":"levelo://app?vid=be1ea8ae-bb6c-4cc9-9878-4dd6e7c328d6","ios":"levelo://app?vid=be1ea8ae-bb6c-4cc9-9878-4dd6e7c328d6"},"vehicle_type_id":"4","last_reported":1732982989,"current_range_meters":30000,"station_id":"ce4bhrh2rcd13ifvqhug","pricing_plan_id":"cebpf4jnsgd1na2vs0mg"},{"bike_id":"3abdb507-aca9-41cf-ab5c-c13fb795c3a0","system_id":"levelo_inurba_marseille","lat":43.284054,"lon":5.349836,"is_reserved":false,"is_disabled":true,"rental_uris":{"android":"levelo://app?vid=3abdb507-aca9-41cf-ab5c-c13fb795c3a0","ios":"levelo://app?vid=3abdb507-aca9-41cf-ab5c-c13fb795c3a0"},"vehicle_type_id":"4","last_reported":1732982989,"current_range_meters":38000,"station_id":"ce4bhbh2rcd13ifvqepg","pricing_plan_id":"cebpf4jnsgd1na2vs0mg"},{"bike_id":"659c3713-9f69-48d4-ab56-f16999acb99a","system_id":"levelo_inurba_marseille","lat":43.33023,"lon":5.39043,"is_reserved":false,"is_disabled":false,"rental_uris":{"android":"levelo://app?vid=659c3713-9f69-48d4-ab56-f16999acb99a","ios":"levelo://app?vid=659c3713-9f69-48d4-ab56-f16999acb99a"},"vehicle_type_id":"4","last_reported":1732982989,"current_range_meters":25600,"station_id":"ce4bhr92rcd13ifvqhrg","pricing_plan_id":"cebpf4jnsgd1na2vs0mg"},{"bike_id":"97b35c0e-7e77-4f0a-83fa-58fbc99a2959","system_id":"levelo_inurba_marseille","lat":43.337444,"lon":5.374475,"is_reserved":false,"is_disabled":false,"rental_uris":{"android":"levelo://app?vid=97b35c0e-7e77-4f0a-83fa-58fbc99a2959","ios":"levelo://app?vid=97b35c0e-7e77-4f0a-83fa-58fbc99a2959"},"vehicle_type_id":"4","last_reported":1732982989,"current_range_meters":34800,"station_id":"","pricing_plan_id":"cebpf4jnsgd1na2vs0mg"},{"bike_id":"90e6624d-f15b-40a9-aa21-66d0047fb8c0","system_id":"levelo_inurba_marseille","lat":43.33737,"lon":5.37468,"is_reserved":false,"is_disabled":false,"rental_uris":{"android":"levelo://app?vid=90e6624d-f15b-40a9-aa21-66d0047fb8c0","ios":"levelo://app?vid=90e6624d-f15b-40a9-aa21-66d0047fb8c0"},"vehicle_type_id":"4","last_reported":1732982989,"current_range_meters":11200,"station_id":"","pricing_plan_id":"cebpf4jnsgd1na2vs0mg"},{"bike_id":"57516422-900b-4fee-adbc-7ea31a53a248","system_id":"levelo_inurba_marseille","lat":43.25724,"lon":5.41109,"is_reserved":false,"is_disabled":false,"rental_uris":{"android":"levelo://app?vid=57516422-900b-4fee-adbc-7ea31a53a248","ios":"levelo://app?vid=57516422-900b-4fee-adbc-7ea31a53a248"},"vehicle_type_id":"4","last_reported":1732982989,"current_range_meters":38400,"station_id":"ce4bhkp2rcd13ifvqgd0","pricing_plan_id":"cebpf4jnsgd1na2vs0mg"},{"bike_id":"a653ffaf-66a4-436e-86d9-7d391fee28ef","system_id":"levelo_inurba_marseille","lat":43.30884,"lon":5.37197,"is_reserved":false,"is_disabled":false,"rental_uris":{"android":"levelo://app?vid=a653ffaf-66a4-436e-86d9-7d391fee28ef","ios":"levelo://app?vid=a653ffaf-66a4-436e-86d9-7d391fee28ef"},"vehicle_type_id":"4","last_reported":1732982989,"current_range_meters":29600,"station_id":"ce4bguh2rcd13ifvqckg","pricing_plan_id":"cebpf4jnsgd1na2vs0mg"},{"bike_id":"5d7560ca-2d2d-46fd-ba91-63027f6383d6","system_id":"levelo_inurba_marseille","lat":43.31214,"lon":5.36859,"is_reserved":false,"is_disabled":true,"rental_uris":{"android":"levelo://app?vid=5d7560ca-2d2d-46fd-ba91-63027f6383d6","ios":"levelo://app?vid=5d7560ca-2d2d-46fd-ba91-63027f6383d6"},"vehicle_type_id":"4","last_reported":1732982989,"current_range_meters":2000,"station_id":"ce4bgl92rcd13ifvqbq0","pricing_plan_id":"cebpf4jnsgd1na2vs0mg"},{"bike_id":"d8893ea1-0749-47d0-bcb7-133a48050ff5","system_id":"levelo_inurba_marseille","lat":43.24651,"lon":5.38903,"is_reserved":false,"is_disabled":false,"rental_uris":{"android":"levelo://app?vid=d8893ea1-0749-47d0-bcb7-133a48050ff5","ios":"levelo://app?vid=d8893ea1-0749-47d0-bcb7-133a48050ff5"},"vehicle_type_id":"4","last_reported":1732982989,"current_range_meters":9200,"station_id":"ce4bhg12rcd13ifvqf60","pricing_plan_id":"cebpf4jnsgd1na2vs0mg"},{"bike_id":"9270d82b-4180-4925-b1aa-215718accbbd","system_id":"levelo_inurba_marseille","lat":43.30802,"lon":5.43525,"is_reserved":false,"is_disabled":false,"rental_uris":{"android":"levelo://app?vid=9270d82b-4180-4925-b1aa-215718accbbd","ios":"levelo://app?vid=9270d82b-4180-4925-b1aa-215718accbbd"},"vehicle_type_id":"4","last_reported":1732982989,"current_range_meters":13600,"station_id":"ce4bhph2rcd13ifvqheg","pricing_plan_id":"cebpf4jnsgd1na2vs0mg"},{"bike_id":"b62465a8-97f3-4826-b18c-2d81f24e17c6","system_id":"levelo_inurba_marseille","lat":43.27379,"lon":5.36254,"is_reserved":false,"is_disabled":false,"rental_uris":{"android":"levelo://app?vid=b62465a8-97f3-4826-b18c-2d81f24e17c6","ios":"levelo://app?vid=b62465a8-97f3-4826-b18c-2d81f24e17c6"},"vehicle_type_id":"4","last_reported":1732982989,"current_range_meters":38800,"station_id":"ce4bhbh2rcd13ifvqeo0","pricing_plan_id":"cebpf4jnsgd1na2vs0mg"},{"bike_id":"256ed7b4-aff1-4687-9338-98ca1590cf7b","system_id":"levelo_inurba_marseille","lat":43.33746,"lon":5.37465,"is_reserved":false,"is_disabled":false,"rental_uris":{"android":"levelo://app?vid=256ed7b4-aff1-4687-9338-98ca1590cf7b","ios":"levelo://app?vid=256ed7b4-aff1-4687-9338-98ca1590cf7b"},"vehicle_type_id":"4","last_reported":1732982989,"current_range_meters":25200,"station_id":"","pricing_plan_id":"cebpf4jnsgd1na2vs0mg"},{"bike_id":"b2d953f4-eb10-4545-acc8-7f2058a172db","system_id":"levelo_inurba_marseille","lat":43.24804,"lon":5.37457,"is_reserved":false,"is_disabled":false,"rental_uris":{"android":"levelo://app?vid=b2d953f4-eb10-4545-acc8-7f2058a172db","ios":"levelo://app?vid=b2d953f4-eb10-4545-acc8-7f2058a172db"},"vehicle_type_id":"4","last_reported":1732982989,"current_range_meters":39200,"station_id":"ce4bhgh2rcd13ifvqfb0","pricing_plan_id":"cebpf4jnsgd1na2vs0mg"},{"bike_id":"064861a6-5a15-4e22-bc40-26ea165590ab","system_id":"levelo_inurba_marseille","lat":43.29196,"lon":5.39313,"is_reserved":false,"is_disabled":true,"rental_uris":{"android":"levelo://app?vid=064861a6-5a15-4e22-bc40-26ea165590ab","ios":"levelo://app?vid=064861a6-5a15-4e22-bc40-26ea165590ab"},"vehicle_type_id":"4","last_reported":1732982989,"current_range_meters":27600,"station_id":"ce4bh192rcd13ifvqdd0","pricing_plan_id":"cebpf4jnsgd1na2vs0mg"},{"bike_id":"62196ee8-a590-4e8b-b653-e73b15e10bf2","system_id":"levelo_inurba_marseille","lat":43.26933,"lon":5.38918,"is_reserved":false,"is_disabled":false,"rental_uris":{"android":"levelo://app?vid=62196ee8-a590-4e8b-b653-e73b15e10bf2","ios":"levelo://app?vid=62196ee8-a590-4e8b-b653-e73b15e10bf2"},"vehicle_type_id":"4","last_reported":1732982989,"current_range_meters":36800,"station_id":"ce4bhhh2rcd13ifvqfl0","pricing_plan_id":"cebpf4jnsgd1na2vs0mg"},{"bike_id":"e8fa7be1-2407-41a7-b843-e7c70f1917ef","system_id":"levelo_inurba_marseille","lat":43.27611,"lon":5.36109,"is_reserved":false,"is_disabled":true,"rental_uris":{"android":"levelo://app?vid=e8fa7be1-2407-41a7-b843-e7c70f1917ef","ios":"levelo://app?vid=e8fa7be1-2407-41a7-b843-e7c70f1917ef"},"vehicle_type_id":"4","last_reported":1732982989,"current_range_meters":0,"station_id":"ce4bgj92rcd13ifvqbe0","pricing_plan_id":"cebpf4jnsgd1na2vs0mg"},{"bike_id":"6a2c78bc-226d-4b9c-8a6f-b144878c57a7","system_id":"levelo_inurba_marseille","lat":43.31687,"lon":5.40478,"is_reserved":false,"is_disabled":false,"rental_uris":{"android":"levelo://app?vid=6a2c78bc-226d-4b9c-8a6f-b144878c57a7","ios":"levelo://app?vid=6a2c78bc-226d-4b9c-8a6f-b144878c57a7"},"vehicle_type_id":"4","last_reported":1732982989,"current_range_meters":24400,"station_id":"ce4bh012rcd13ifvqd00","pricing_plan_id":"cebpf4jnsgd1na2vs0mg"},{"bike_id":"25bcaf7c-51e7-4de8-b4f3-6d05d34af621","system_id":"levelo_inurba_marseille","lat":43.31083,"lon":5.40029,"is_reserved":false,"is_disabled":false,"rental_uris":{"android":"levelo://app?vid=25bcaf7c-51e7-4de8-b4f3-6d05d34af621","ios":"levelo://app?vid=25bcaf7c-51e7-4de8-b4f3-6d05d34af621"},"vehicle_type_id":"4","last_reported":1732982989,"current_range_meters":20800,"station_id":"ce4bh092rcd13ifvqd30","pricing_plan_id":"cebpf4jnsgd1na2vs0mg"},{"bike_id":"a4404dac-00c5-4861-a1ae-6d042a4030f1","system_id":"levelo_inurba_marseille","lat":43.33743,"lon":5.37468,"is_reserved":false,"is_disabled":false,"rental_uris":{"android":"levelo://app?vid=a4404dac-00c5-4861-a1ae-6d042a4030f1","ios":"levelo://app?vid=a4404dac-00c5-4861-a1ae-6d042a4030f1"},"vehicle_type_id":"4","last_reported":1732982989,"current_range_meters":9600,"station_id":"","pricing_plan_id":"cebpf4jnsgd1na2vs0mg"},{"bike_id":"9c88cc15-92bd-4b57-a3de-523adcebf2b9","system_id":"levelo_inurba_marseille","lat":43.31333,"lon":5.39697,"is_reserved":false,"is_disabled":true,"rental_uris":{"android":"levelo://app?vid=9c88cc15-92bd-4b57-a3de-523adcebf2b9","ios":"levelo://app?vid=9c88cc15-92bd-4b57-a3de-523adcebf2b9"},"vehicle_type_id":"4","last_reported":1732982989,"current_range_meters":0,"station_id":"ce4bgvp2rcd13ifvqcu0","pricing_plan_id":"cebpf4jnsgd1na2vs0mg"},{"bike_id":"0144fc48-1fa3-489b-a573-4afcfd494905","system_id":"levelo_inurba_marseille","lat":43.28661,"lon":5.36363,"is_reserved":false,"is_disabled":false,"rental_uris":{"android":"levelo://app?vid=0144fc48-1fa3-489b-a573-4afcfd494905","ios":"levelo://app?vid=0144fc48-1fa3-489b-a573-4afcfd494905"},"vehicle_type_id":"4","last_reported":1732982989,"current_range_meters":8800,"station_id":"ce4bhah2rcd13ifvqej0","pricing_plan_id":"cebpf4jnsgd1na2vs0mg"},{"bike_id":"ae110baa-6fa5-463d-9c19-2aa3237d6213","system_id":"levelo_inurba_marseille","lat":43.2319,"lon":5.35555,"is_reserved":false,"is_disabled":false,"rental_uris":{"android":"levelo://app?vid=ae110baa-6fa5-463d-9c19-2aa3237d6213","ios":"levelo://app?vid=ae110baa-6fa5-463d-9c19-2aa3237d6213"},"vehicle_type_id":"4","last_reported":1732982989,"current_range_meters":25200,"station_id":"ce4bhu92rcd13ifvqi70","pricing_plan_id":"cebpf4jnsgd1na2vs0mg"},{"bike_id":"cd64a4e4-7dd1-4319-a2a3-5c11ddf00832","system_id":"levelo_inurba_marseille","lat":43.29072,"lon":5.37159,"is_reserved":false,"is_disabled":true,"rental_uris":{"android":"levelo://app?vid=cd64a4e4-7dd1-4319-a2a3-5c11ddf00832","ios":"levelo://app?vid=cd64a4e4-7dd1-4319-a2a3-5c11ddf00832"},"vehicle_type_id":"4","last_reported":1732982989,"current_range_meters":0,"station_id":"ce4bh5p2rcd13ifvqe4g","pricing_plan_id":"cebpf4jnsgd1na2vs0mg"},{"bike_id":"9700beae-0fbf-4e58-beda-d02b6fed27fe","system_id":"levelo_inurba_marseille","lat":43.337444,"lon":5.374475,"is_reserved":false,"is_disabled":false,"rental_uris":{"android":"levelo://app?vid=9700beae-0fbf-4e58-beda-d02b6fed27fe","ios":"levelo://app?vid=9700beae-0fbf-4e58-beda-d02b6fed27fe"},"vehicle_type_id":"4","last_reported":1732982989,"current_range_meters":38000,"station_id":"","pricing_plan_id":"cebpf4jnsgd1na2vs0mg"},{"bike_id":"08226cce-1374-4711-b45d-e670b0ff171c","system_id":"levelo_inurba_marseille","lat":43.28412,"lon":5.34995,"is_reserved":false,"is_disabled":false,"rental_uris":{"android":"levelo://app?vid=08226cce-1374-4711-b45d-e670b0ff171c","ios":"levelo://app?vid=08226cce-1374-4711-b45d-e670b0ff171c"},"vehicle_type_id":"4","last_reported":1732982989,"current_range_meters":38000,"station_id":"ce4bhbh2rcd13ifvqepg","pricing_plan_id":"cebpf4jnsgd1na2vs0mg"},{"bike_id":"4cbc56bc-2894-4b0d-a20c-4ad79db29639","system_id":"levelo_inurba_marseille","lat":43.29071,"lon":5.37165,"is_reserved":false,"is_disabled":false,"rental_uris":{"android":"levelo://app?vid=4cbc56bc-2894-4b0d-a20c-4ad79db29639","ios":"levelo://app?vid=4cbc56bc-2894-4b0d-a20c-4ad79db29639"},"vehicle_type_id":"4","last_reported":1732982989,"current_range_meters":4000,"station_id":"ce4bh5p2rcd13ifvqe4g","pricing_plan_id":"cebpf4jnsgd1na2vs0mg"},{"bike_id":"58cc47a8-7400-4783-8e9f-bef56208b81d","system_id":"levelo_inurba_marseille","lat":43.25579,"lon":5.38237,"is_reserved":false,"is_disabled":false,"rental_uris":{"android":"levelo://app?vid=58cc47a8-7400-4783-8e9f-bef56208b81d","ios":"levelo://app?vid=58cc47a8-7400-4783-8e9f-bef56208b81d"},"vehicle_type_id":"4","last_reported":1732982989,"current_range_meters":10000,"station_id":"ce4bhih2rcd13ifvqfs0","pricing_plan_id":"cebpf4jnsgd1na2vs0mg"},{"bike_id":"dffc2aea-9440-4b45-bcc7-329010a8e1ac","system_id":"levelo_inurba_marseille","lat":43.24069,"lon":5.37775,"is_reserved":false,"is_disabled":false,"rental_uris":{"android":"levelo://app?vid=dffc2aea-9440-4b45-bcc7-329010a8e1ac","ios":"levelo://app?vid=dffc2aea-9440-4b45-bcc7-329010a8e1ac"},"vehicle_type_id":"4","last_reported":1732982989,"current_range_meters":38800,"station_id":"ce4bhnp2rcd13ifvqgvg","pricing_plan_id":"cebpf4jnsgd1na2vs0mg"},{"bike_id":"9b7b167d-4e30-49d0-aad6-7766ee5c0806","system_id":"levelo_inurba_marseille","lat":43.28442,"lon":5.39196,"is_reserved":false,"is_disabled":false,"rental_uris":{"android":"levelo://app?vid=9b7b167d-4e30-49d0-aad6-7766ee5c0806","ios":"levelo://app?vid=9b7b167d-4e30-49d0-aad6-7766ee5c0806"},"vehicle_type_id":"4","last_reported":1732982989,"current_range_meters":23200,"station_id":"ce4bhoh2rcd13ifvqh5g","pricing_plan_id":"cebpf4jnsgd1na2vs0mg"},{"bike_id":"4e6457ac-5d52-42ea-bba4-32d8bb4c9ffe","system_id":"levelo_inurba_marseille","lat":43.30528,"lon":5.36553,"is_reserved":false,"is_disabled":false,"rental_uris":{"android":"levelo://app?vid=4e6457ac-5d52-42ea-bba4-32d8bb4c9ffe","ios":"levelo://app?vid=4e6457ac-5d52-42ea-bba4-32d8bb4c9ffe"},"vehicle_type_id":"4","last_reported":1732982989,"current_range_meters":2800,"station_id":"ce4bgs12rcd13ifvqcag","pricing_plan_id":"cebpf4jnsgd1na2vs0mg"},{"bike_id":"4a2be555-d056-454c-bed3-fe781ba86f8e","system_id":"levelo_inurba_marseille","lat":43.25886,"lon":5.39954,"is_reserved":false,"is_disabled":true,"rental_uris":{"android":"levelo://app?vid=4a2be555-d056-454c-bed3-fe781ba86f8e","ios":"levelo://app?vid=4a2be555-d056-454c-bed3-fe781ba86f8e"},"vehicle_type_id":"4","last_reported":1732982989,"current_range_meters":0,"station_id":"","pricing_plan_id":"cebpf4jnsgd1na2vs0mg"},{"bike_id":"0762035b-11a6-43b1-906c-953817361917","system_id":"levelo_inurba_marseille","lat":43.32475,"lon":5.3656,"is_reserved":false,"is_disabled":false,"rental_uris":{"android":"levelo://app?vid=0762035b-11a6-43b1-906c-953817361917","ios":"levelo://app?vid=0762035b-11a6-43b1-906c-953817361917"},"vehicle_type_id":"4","last_reported":1732982989,"current_range_meters":38800,"station_id":"ce4bhs12rcd13ifvqhvg","pricing_plan_id":"cebpf4jnsgd1na2vs0mg"},{"bike_id":"8942a591-de10-4ccf-b053-77881b8b9160","system_id":"levelo_inurba_marseille","lat":43.25002,"lon":5.3893,"is_reserved":false,"is_disabled":true,"rental_uris":{"android":"levelo://app?vid=8942a591-de10-4ccf-b053-77881b8b9160","ios":"levelo://app?vid=8942a591-de10-4ccf-b053-77881b8b9160"},"vehicle_type_id":"4","last_reported":1732982989,"current_range_meters":0,"station_id":"ce4bhgp2rcd13ifvqfd0","pricing_plan_id":"cebpf4jnsgd1na2vs0mg"},{"bike_id":"41329919-d8a6-4529-9c36-e6723e50ee60","system_id":"levelo_inurba_marseille","lat":43.30304,"lon":5.39216,"is_reserved":false,"is_disabled":true,"rental_uris":{"android":"levelo://app?vid=41329919-d8a6-4529-9c36-e6723e50ee60","ios":"levelo://app?vid=41329919-d8a6-4529-9c36-e6723e50ee60"},"vehicle_type_id":"4","last_reported":1732982989,"current_range_meters":36000,"station_id":"ce4bgkh2rcd13ifvqbk0","pricing_plan_id":"cebpf4jnsgd1na2vs0mg"},{"bike_id":"80ee5806-271f-4b24-a602-2dc27d804313","system_id":"levelo_inurba_marseille","lat":43.32114,"lon":5.36773,"is_reserved":false,"is_disabled":false,"rental_uris":{"android":"levelo://app?vid=80ee5806-271f-4b24-a602-2dc27d804313","ios":"levelo://app?vid=80ee5806-271f-4b24-a602-2dc27d804313"},"vehicle_type_id":"4","last_reported":1732982989,"current_range_meters":8800,"station_id":"ce4bhrh2rcd13ifvqhug","pricing_plan_id":"cebpf4jnsgd1na2vs0mg"},{"bike_id":"e6d8f94a-6fea-4595-90ec-7eb8fe44f0a9","system_id":"levelo_inurba_marseille","lat":43.2738,"lon":5.36255,"is_reserved":false,"is_disabled":false,"rental_uris":{"android":"levelo://app?vid=e6d8f94a-6fea-4595-90ec-7eb8fe44f0a9","ios":"levelo://app?vid=e6d8f94a-6fea-4595-90ec-7eb8fe44f0a9"},"vehicle_type_id":"4","last_reported":1732982989,"current_range_meters":38800,"station_id":"ce4bhbh2rcd13ifvqeo0","pricing_plan_id":"cebpf4jnsgd1na2vs0mg"},{"bike_id":"000b518d-442b-4752-8b9a-e2fc3654d286","system_id":"levelo_inurba_marseille","lat":43.29437,"lon":5.39759,"is_reserved":false,"is_disabled":true,"rental_uris":{"android":"levelo://app?vid=000b518d-442b-4752-8b9a-e2fc3654d286","ios":"levelo://app?vid=000b518d-442b-4752-8b9a-e2fc3654d286"},"vehicle_type_id":"4","last_reported":1732982989,"current_range_meters":22400,"station_id":"ce4bh3h2rcd13ifvqdo0","pricing_plan_id":"cebpf4jnsgd1na2vs0mg"},{"bike_id":"46f2c8cb-d1ca-40f0-bb00-090b48be031f","system_id":"levelo_inurba_marseille","lat":43.30305,"lon":5.36883,"is_reserved":false,"is_disabled":true,"rental_uris":{"android":"levelo://app?vid=46f2c8cb-d1ca-40f0-bb00-090b48be031f","ios":"levelo://app?vid=46f2c8cb-d1ca-40f0-bb00-090b48be031f"},"vehicle_type_id":"4","last_reported":1732982989,"current_range_meters":400,"station_id":"ce4bgqh2rcd13ifvqc5g","pricing_plan_id":"cebpf4jnsgd1na2vs0mg"},{"bike_id":"b2da2633-98d6-42c6-aa7f-68fbf806b027","system_id":"levelo_inurba_marseille","lat":43.31268,"lon":5.40175,"is_reserved":false,"is_disabled":false,"rental_uris":{"android":"levelo://app?vid=b2da2633-98d6-42c6-aa7f-68fbf806b027","ios":"levelo://app?vid=b2da2633-98d6-42c6-aa7f-68fbf806b027"},"vehicle_type_id":"4","last_reported":1732982989,"current_range_meters":38400,"station_id":"ce4bh092rcd13ifvqd30","pricing_plan_id":"cebpf4jnsgd1na2vs0mg"},{"bike_id":"489fc078-53ba-46cd-9b33-a7c9c289306b","system_id":"levelo_inurba_marseille","lat":43.26942,"lon":5.40246,"is_reserved":false,"is_disabled":true,"rental_uris":{"android":"levelo://app?vid=489fc078-53ba-46cd-9b33-a7c9c289306b","ios":"levelo://app?vid=489fc078-53ba-46cd-9b33-a7c9c289306b"},"vehicle_type_id":"4","last_reported":1732982989,"current_range_meters":0,"station_id":"cjm6bp8fraef2m0cb0m0","pricing_plan_id":"cebpf4jnsgd1na2vs0mg"},{"bike_id":"981f5323-76ee-4aff-abdb-308b2ece5ca8","system_id":"levelo_inurba_marseille","lat":43.33729,"lon":5.39187,"is_reserved":false,"is_disabled":false,"rental_uris":{"android":"levelo://app?vid=981f5323-76ee-4aff-abdb-308b2ece5ca8","ios":"levelo://app?vid=981f5323-76ee-4aff-abdb-308b2ece5ca8"},"vehicle_type_id":"4","last_reported":1732982989,"current_range_meters":38800,"station_id":"ce4bhr92rcd13ifvqhsg","pricing_plan_id":"cebpf4jnsgd1na2vs0mg"},{"bike_id":"3119a5d3-bc76-4a33-a68e-5bb7f81231ba","system_id":"levelo_inurba_marseille","lat":43.28272,"lon":5.35074,"is_reserved":false,"is_disabled":false,"rental_uris":{"android":"levelo://app?vid=3119a5d3-bc76-4a33-a68e-5bb7f81231ba","ios":"levelo://app?vid=3119a5d3-bc76-4a33-a68e-5bb7f81231ba"},"vehicle_type_id":"4","last_reported":1732982989,"current_range_meters":9600,"station_id":"ce4bhbp2rcd13ifvqerg","pricing_plan_id":"cebpf4jnsgd1na2vs0mg"},{"bike_id":"b535dfd0-ec01-4a13-996f-71245b6113cc","system_id":"levelo_inurba_marseille","lat":43.27979,"lon":5.41236,"is_reserved":false,"is_disabled":true,"rental_uris":{"android":"levelo://app?vid=b535dfd0-ec01-4a13-996f-71245b6113cc","ios":"levelo://app?vid=b535dfd0-ec01-4a13-996f-71245b6113cc"},"vehicle_type_id":"4","last_reported":1732982989,"current_range_meters":1200,"station_id":"","pricing_plan_id":"cebpf4jnsgd1na2vs0mg"},{"bike_id":"caab5f43-83a3-464a-ad6d-267c593f1271","system_id":"levelo_inurba_marseille","lat":43.26557,"lon":5.3729,"is_reserved":false,"is_disabled":false,"rental_uris":{"android":"levelo://app?vid=caab5f43-83a3-464a-ad6d-267c593f1271","ios":"levelo://app?vid=caab5f43-83a3-464a-ad6d-267c593f1271"},"vehicle_type_id":"4","last_reported":1732982989,"current_range_meters":25200,"station_id":"ce4bhg12rcd13ifvqf70","pricing_plan_id":"cebpf4jnsgd1na2vs0mg"},{"bike_id":"c708c9e6-c46e-449c-873d-bb4f6f1eb744","system_id":"levelo_inurba_marseille","lat":43.28423,"lon":5.37504,"is_reserved":false,"is_disabled":false,"rental_uris":{"android":"levelo://app?vid=c708c9e6-c46e-449c-873d-bb4f6f1eb744","ios":"levelo://app?vid=c708c9e6-c46e-449c-873d-bb4f6f1eb744"},"vehicle_type_id":"4","last_reported":1732982989,"current_range_meters":22800,"station_id":"ce4bh412rcd13ifvqds0","pricing_plan_id":"cebpf4jnsgd1na2vs0mg"},{"bike_id":"080065f2-396b-41a4-b15c-4aa4a6b75683","system_id":"levelo_inurba_marseille","lat":43.2717,"lon":5.40995,"is_reserved":false,"is_disabled":false,"rental_uris":{"android":"levelo://app?vid=080065f2-396b-41a4-b15c-4aa4a6b75683","ios":"levelo://app?vid=080065f2-396b-41a4-b15c-4aa4a6b75683"},"vehicle_type_id":"4","last_reported":1732982989,"current_range_meters":22000,"station_id":"ce4bhl12rcd13ifvqgf0","pricing_plan_id":"cebpf4jnsgd1na2vs0mg"},{"bike_id":"b642d79a-bd2c-495a-acdd-099583f67bf5","system_id":"levelo_inurba_marseille","lat":43.323006,"lon":5.382483,"is_reserved":false,"is_disabled":false,"rental_uris":{"android":"levelo://app?vid=b642d79a-bd2c-495a-acdd-099583f67bf5","ios":"levelo://app?vid=b642d79a-bd2c-495a-acdd-099583f67bf5"},"vehicle_type_id":"4","last_reported":1732982989,"current_range_meters":32800,"station_id":"ce4bhr12rcd13ifvqhqg","pricing_plan_id":"cebpf4jnsgd1na2vs0mg"},{"bike_id":"29a80c71-9648-4a26-b6c9-5f69092eaa01","system_id":"levelo_inurba_marseille","lat":43.2707,"lon":5.42279,"is_reserved":false,"is_disabled":false,"rental_uris":{"android":"levelo://app?vid=29a80c71-9648-4a26-b6c9-5f69092eaa01","ios":"levelo://app?vid=29a80c71-9648-4a26-b6c9-5f69092eaa01"},"vehicle_type_id":"4","last_reported":1732982989,"current_range_meters":38800,"station_id":"ce4bhk92rcd13ifvqgb0","pricing_plan_id":"cebpf4jnsgd1na2vs0mg"},{"bike_id":"81212ebd-b091-4bc8-914f-78d44f40f52e","system_id":"levelo_inurba_marseille","lat":43.28415,"lon":5.34998,"is_reserved":false,"is_disabled":false,"rental_uris":{"android":"levelo://app?vid=81212ebd-b091-4bc8-914f-78d44f40f52e","ios":"levelo://app?vid=81212ebd-b091-4bc8-914f-78d44f40f52e"},"vehicle_type_id":"4","last_reported":1732982989,"current_range_meters":12800,"station_id":"ce4bhbh2rcd13ifvqepg","pricing_plan_id":"cebpf4jnsgd1na2vs0mg"},{"bike_id":"6f46c294-6fb4-4027-8273-32ac43d92893","system_id":"levelo_inurba_marseille","lat":43.2953,"lon":5.38555,"is_reserved":false,"is_disabled":false,"rental_uris":{"android":"levelo://app?vid=6f46c294-6fb4-4027-8273-32ac43d92893","ios":"levelo://app?vid=6f46c294-6fb4-4027-8273-32ac43d92893"},"vehicle_type_id":"4","last_reported":1732982989,"current_range_meters":38800,"station_id":"ce4bgih2rcd13ifvqba0","pricing_plan_id":"cebpf4jnsgd1na2vs0mg"},{"bike_id":"0174841e-8011-4a7b-bd18-480101bee765","system_id":"levelo_inurba_marseille","lat":43.23963,"lon":5.3662,"is_reserved":false,"is_disabled":true,"rental_uris":{"android":"levelo://app?vid=0174841e-8011-4a7b-bd18-480101bee765","ios":"levelo://app?vid=0174841e-8011-4a7b-bd18-480101bee765"},"vehicle_type_id":"4","last_reported":1732982989,"current_range_meters":0,"station_id":"ce4bhi12rcd13ifvqfp0","pricing_plan_id":"cebpf4jnsgd1na2vs0mg"},{"bike_id":"22a9f54b-7703-4896-932f-a5372ffc42ab","system_id":"levelo_inurba_marseille","lat":43.24166,"lon":5.36399,"is_reserved":false,"is_disabled":false,"rental_uris":{"android":"levelo://app?vid=22a9f54b-7703-4896-932f-a5372ffc42ab","ios":"levelo://app?vid=22a9f54b-7703-4896-932f-a5372ffc42ab"},"vehicle_type_id":"4","last_reported":1732982989,"current_range_meters":14400,"station_id":"cpo36qri1sfpv3e86is0","pricing_plan_id":"cebpf4jnsgd1na2vs0mg"},{"bike_id":"fd405db4-6f5b-4763-b335-7a51479a2ea9","system_id":"levelo_inurba_marseille","lat":43.2559,"lon":5.38225,"is_reserved":false,"is_disabled":false,"rental_uris":{"android":"levelo://app?vid=fd405db4-6f5b-4763-b335-7a51479a2ea9","ios":"levelo://app?vid=fd405db4-6f5b-4763-b335-7a51479a2ea9"},"vehicle_type_id":"4","last_reported":1732982989,"current_range_meters":38800,"station_id":"ce4bhih2rcd13ifvqfs0","pricing_plan_id":"cebpf4jnsgd1na2vs0mg"},{"bike_id":"2d440cd8-75f0-4b33-8a21-ceeb1a29b306","system_id":"levelo_inurba_marseille","lat":43.31118,"lon":5.37764,"is_reserved":false,"is_disabled":false,"rental_uris":{"android":"levelo://app?vid=2d440cd8-75f0-4b33-8a21-ceeb1a29b306","ios":"levelo://app?vid=2d440cd8-75f0-4b33-8a21-ceeb1a29b306"},"vehicle_type_id":"4","last_reported":1732982989,"current_range_meters":6000,"station_id":"ce4bgt92rcd13ifvqcg0","pricing_plan_id":"cebpf4jnsgd1na2vs0mg"},{"bike_id":"a233b25b-869e-422b-bf5e-63d3d8ff686f","system_id":"levelo_inurba_marseille","lat":43.30923,"lon":5.40151,"is_reserved":false,"is_disabled":true,"rental_uris":{"android":"levelo://app?vid=a233b25b-869e-422b-bf5e-63d3d8ff686f","ios":"levelo://app?vid=a233b25b-869e-422b-bf5e-63d3d8ff686f"},"vehicle_type_id":"4","last_reported":1732982989,"current_range_meters":24400,"station_id":"ce4bgvp2rcd13ifvqct0","pricing_plan_id":"cebpf4jnsgd1na2vs0mg"},{"bike_id":"12ba7dd0-6a56-48af-8971-129f9405fb29","system_id":"levelo_inurba_marseille","lat":43.32484,"lon":5.36565,"is_reserved":false,"is_disabled":false,"rental_uris":{"android":"levelo://app?vid=12ba7dd0-6a56-48af-8971-129f9405fb29","ios":"levelo://app?vid=12ba7dd0-6a56-48af-8971-129f9405fb29"},"vehicle_type_id":"4","last_reported":1732982989,"current_range_meters":12800,"station_id":"ce4bhs12rcd13ifvqhvg","pricing_plan_id":"cebpf4jnsgd1na2vs0mg"},{"bike_id":"9af476bb-4475-4f91-9d73-53560fef9fbf","system_id":"levelo_inurba_marseille","lat":43.30605,"lon":5.37223,"is_reserved":false,"is_disabled":false,"rental_uris":{"android":"levelo://app?vid=9af476bb-4475-4f91-9d73-53560fef9fbf","ios":"levelo://app?vid=9af476bb-4475-4f91-9d73-53560fef9fbf"},"vehicle_type_id":"4","last_reported":1732982989,"current_range_meters":38400,"station_id":"ce4bgqh2rcd13ifvqc4g","pricing_plan_id":"cebpf4jnsgd1na2vs0mg"},{"bike_id":"7acf1527-ab67-428d-8bd4-0e5ef998a602","system_id":"levelo_inurba_marseille","lat":43.26026,"lon":5.37551,"is_reserved":false,"is_disabled":false,"rental_uris":{"android":"levelo://app?vid=7acf1527-ab67-428d-8bd4-0e5ef998a602","ios":"levelo://app?vid=7acf1527-ab67-428d-8bd4-0e5ef998a602"},"vehicle_type_id":"4","last_reported":1732982989,"current_range_meters":20400,"station_id":"ce4bhgh2rcd13ifvqfa0","pricing_plan_id":"cebpf4jnsgd1na2vs0mg"},{"bike_id":"2304999b-2615-446b-8352-377527763972","system_id":"levelo_inurba_marseille","lat":43.29512,"lon":5.39039,"is_reserved":false,"is_disabled":true,"rental_uris":{"android":"levelo://app?vid=2304999b-2615-446b-8352-377527763972","ios":"levelo://app?vid=2304999b-2615-446b-8352-377527763972"},"vehicle_type_id":"4","last_reported":1732982989,"current_range_meters":1200,"station_id":"ce4bh3p2rcd13ifvqdp0","pricing_plan_id":"cebpf4jnsgd1na2vs0mg"},{"bike_id":"4ef0c212-df7d-4ea4-a995-daf51805f490","system_id":"levelo_inurba_marseille","lat":43.25504,"lon":5.37656,"is_reserved":false,"is_disabled":false,"rental_uris":{"android":"levelo://app?vid=4ef0c212-df7d-4ea4-a995-daf51805f490","ios":"levelo://app?vid=4ef0c212-df7d-4ea4-a995-daf51805f490"},"vehicle_type_id":"4","last_reported":1732982989,"current_range_meters":38800,"station_id":"ce4bhh12rcd13ifvqff0","pricing_plan_id":"cebpf4jnsgd1na2vs0mg"},{"bike_id":"27d13c7a-6338-48dc-81dd-618b3e4ff60b","system_id":"levelo_inurba_marseille","lat":43.28376,"lon":5.38659,"is_reserved":false,"is_disabled":false,"rental_uris":{"android":"levelo://app?vid=27d13c7a-6338-48dc-81dd-618b3e4ff60b","ios":"levelo://app?vid=27d13c7a-6338-48dc-81dd-618b3e4ff60b"},"vehicle_type_id":"4","last_reported":1732982989,"current_range_meters":38800,"station_id":"ce4bh492rcd13ifvqdvg","pricing_plan_id":"cebpf4jnsgd1na2vs0mg"},{"bike_id":"8dfa1ade-6c19-4ef5-ac48-af2b098b49de","system_id":"levelo_inurba_marseille","lat":43.286188,"lon":5.370635,"is_reserved":false,"is_disabled":false,"rental_uris":{"android":"levelo://app?vid=8dfa1ade-6c19-4ef5-ac48-af2b098b49de","ios":"levelo://app?vid=8dfa1ade-6c19-4ef5-ac48-af2b098b49de"},"vehicle_type_id":"4","last_reported":1732982989,"current_range_meters":30800,"station_id":"ce4bht12rcd13ifvqi60","pricing_plan_id":"cebpf4jnsgd1na2vs0mg"},{"bike_id":"13151158-c4ba-49c7-a920-9a61c5dd56f2","system_id":"levelo_inurba_marseille","lat":43.23959,"lon":5.36625,"is_reserved":false,"is_disabled":true,"rental_uris":{"android":"levelo://app?vid=13151158-c4ba-49c7-a920-9a61c5dd56f2","ios":"levelo://app?vid=13151158-c4ba-49c7-a920-9a61c5dd56f2"},"vehicle_type_id":"4","last_reported":1732982989,"current_range_meters":0,"station_id":"ce4bhi12rcd13ifvqfp0","pricing_plan_id":"cebpf4jnsgd1na2vs0mg"},{"bike_id":"1eafa6cf-8960-4709-a8d8-f5005a7d6cfb","system_id":"levelo_inurba_marseille","lat":43.28607,"lon":5.37072,"is_reserved":false,"is_disabled":false,"rental_uris":{"android":"levelo://app?vid=1eafa6cf-8960-4709-a8d8-f5005a7d6cfb","ios":"levelo://app?vid=1eafa6cf-8960-4709-a8d8-f5005a7d6cfb"},"vehicle_type_id":"4","last_reported":1732982989,"current_range_meters":24000,"station_id":"ce4bht12rcd13ifvqi60","pricing_plan_id":"cebpf4jnsgd1na2vs0mg"},{"bike_id":"527e9215-5e4e-41d1-879f-857f198e8537","system_id":"levelo_inurba_marseille","lat":43.28417,"lon":5.34998,"is_reserved":false,"is_disabled":false,"rental_uris":{"android":"levelo://app?vid=527e9215-5e4e-41d1-879f-857f198e8537","ios":"levelo://app?vid=527e9215-5e4e-41d1-879f-857f198e8537"},"vehicle_type_id":"4","last_reported":1732982989,"current_range_meters":38800,"station_id":"ce4bhbh2rcd13ifvqepg","pricing_plan_id":"cebpf4jnsgd1na2vs0mg"},{"bike_id":"4cc953fb-c0b2-455c-a15c-a9acd1208358","system_id":"levelo_inurba_marseille","lat":43.30474,"lon":5.37923,"is_reserved":false,"is_disabled":false,"rental_uris":{"android":"levelo://app?vid=4cc953fb-c0b2-455c-a15c-a9acd1208358","ios":"levelo://app?vid=4cc953fb-c0b2-455c-a15c-a9acd1208358"},"vehicle_type_id":"4","last_reported":1732982989,"current_range_meters":9600,"station_id":"ce4bgup2rcd13ifvqcn0","pricing_plan_id":"cebpf4jnsgd1na2vs0mg"},{"bike_id":"cf9f3a3f-ec66-4a92-abcd-f016e9c0310b","system_id":"levelo_inurba_marseille","lat":43.33022,"lon":5.39039,"is_reserved":false,"is_disabled":false,"rental_uris":{"android":"levelo://app?vid=cf9f3a3f-ec66-4a92-abcd-f016e9c0310b","ios":"levelo://app?vid=cf9f3a3f-ec66-4a92-abcd-f016e9c0310b"},"vehicle_type_id":"4","last_reported":1732982989,"current_range_meters":38800,"station_id":"ce4bhr92rcd13ifvqhrg","pricing_plan_id":"cebpf4jnsgd1na2vs0mg"},{"bike_id":"6f5ced74-757b-4f45-bace-e4a82fbc87da","system_id":"levelo_inurba_marseille","lat":43.30654,"lon":5.40079,"is_reserved":false,"is_disabled":true,"rental_uris":{"android":"levelo://app?vid=6f5ced74-757b-4f45-bace-e4a82fbc87da","ios":"levelo://app?vid=6f5ced74-757b-4f45-bace-e4a82fbc87da"},"vehicle_type_id":"4","last_reported":1732982989,"current_range_meters":26800,"station_id":"ce4bh112rcd13ifvqda0","pricing_plan_id":"cebpf4jnsgd1na2vs0mg"},{"bike_id":"f4d19859-dbfb-4982-b796-c8007145699f","system_id":"levelo_inurba_marseille","lat":43.28612,"lon":5.35108,"is_reserved":false,"is_disabled":true,"rental_uris":{"android":"levelo://app?vid=f4d19859-dbfb-4982-b796-c8007145699f","ios":"levelo://app?vid=f4d19859-dbfb-4982-b796-c8007145699f"},"vehicle_type_id":"4","last_reported":1732982989,"current_range_meters":22000,"station_id":"ce4bhch2rcd13ifvqeug","pricing_plan_id":"cebpf4jnsgd1na2vs0mg"},{"bike_id":"bfb856cf-7615-4aa7-a7e4-859a62ce8248","system_id":"levelo_inurba_marseille","lat":43.3375,"lon":5.37471,"is_reserved":false,"is_disabled":false,"rental_uris":{"android":"levelo://app?vid=bfb856cf-7615-4aa7-a7e4-859a62ce8248","ios":"levelo://app?vid=bfb856cf-7615-4aa7-a7e4-859a62ce8248"},"vehicle_type_id":"4","last_reported":1732982989,"current_range_meters":16400,"station_id":"","pricing_plan_id":"cebpf4jnsgd1na2vs0mg"},{"bike_id":"42951650-da6d-4230-bb11-5054c48eb18b","system_id":"levelo_inurba_marseille","lat":43.24804,"lon":5.37455,"is_reserved":false,"is_disabled":false,"rental_uris":{"android":"levelo://app?vid=42951650-da6d-4230-bb11-5054c48eb18b","ios":"levelo://app?vid=42951650-da6d-4230-bb11-5054c48eb18b"},"vehicle_type_id":"4","last_reported":1732982989,"current_range_meters":10800,"station_id":"ce4bhgh2rcd13ifvqfb0","pricing_plan_id":"cebpf4jnsgd1na2vs0mg"},{"bike_id":"87689d64-7b56-4e89-b2bc-6ebc0b8cedd2","system_id":"levelo_inurba_marseille","lat":43.306,"lon":5.37228,"is_reserved":false,"is_disabled":false,"rental_uris":{"android":"levelo://app?vid=87689d64-7b56-4e89-b2bc-6ebc0b8cedd2","ios":"levelo://app?vid=87689d64-7b56-4e89-b2bc-6ebc0b8cedd2"},"vehicle_type_id":"4","last_reported":1732982989,"current_range_meters":39200,"station_id":"ce4bgqh2rcd13ifvqc4g","pricing_plan_id":"cebpf4jnsgd1na2vs0mg"},{"bike_id":"b6c74948-c3ec-4c59-9dd8-6cebda403164","system_id":"levelo_inurba_marseille","lat":43.30146,"lon":5.38084,"is_reserved":false,"is_disabled":false,"rental_uris":{"android":"levelo://app?vid=b6c74948-c3ec-4c59-9dd8-6cebda403164","ios":"levelo://app?vid=b6c74948-c3ec-4c59-9dd8-6cebda403164"},"vehicle_type_id":"4","last_reported":1732982989,"current_range_meters":30800,"station_id":"ce4bgjp2rcd13ifvqbh0","pricing_plan_id":"cebpf4jnsgd1na2vs0mg"},{"bike_id":"4abebe2b-dec7-442c-a6a0-da33deb742de","system_id":"levelo_inurba_marseille","lat":43.32113,"lon":5.36793,"is_reserved":false,"is_disabled":false,"rental_uris":{"android":"levelo://app?vid=4abebe2b-dec7-442c-a6a0-da33deb742de","ios":"levelo://app?vid=4abebe2b-dec7-442c-a6a0-da33deb742de"},"vehicle_type_id":"4","last_reported":1732982989,"current_range_meters":36800,"station_id":"ce4bhrh2rcd13ifvqhug","pricing_plan_id":"cebpf4jnsgd1na2vs0mg"},{"bike_id":"e8761c76-5abe-46ec-a02e-5c1eaaf3ecfa","system_id":"levelo_inurba_marseille","lat":43.2416,"lon":5.364,"is_reserved":false,"is_disabled":false,"rental_uris":{"android":"levelo://app?vid=e8761c76-5abe-46ec-a02e-5c1eaaf3ecfa","ios":"levelo://app?vid=e8761c76-5abe-46ec-a02e-5c1eaaf3ecfa"},"vehicle_type_id":"4","last_reported":1732982989,"current_range_meters":29600,"station_id":"cpo36qri1sfpv3e86is0","pricing_plan_id":"cebpf4jnsgd1na2vs0mg"},{"bike_id":"76e42a74-aff4-443f-b5c2-3b8cf2e09e35","system_id":"levelo_inurba_marseille","lat":43.29278,"lon":5.36847,"is_reserved":false,"is_disabled":false,"rental_uris":{"android":"levelo://app?vid=76e42a74-aff4-443f-b5c2-3b8cf2e09e35","ios":"levelo://app?vid=76e42a74-aff4-443f-b5c2-3b8cf2e09e35"},"vehicle_type_id":"4","last_reported":1732982989,"current_range_meters":26000,"station_id":"ce4bhbp2rcd13ifvqesg","pricing_plan_id":"cebpf4jnsgd1na2vs0mg"},{"bike_id":"68fbfc7b-5117-4986-a643-1e26853e844b","system_id":"levelo_inurba_marseille","lat":43.308,"lon":5.43523,"is_reserved":false,"is_disabled":false,"rental_uris":{"android":"levelo://app?vid=68fbfc7b-5117-4986-a643-1e26853e844b","ios":"levelo://app?vid=68fbfc7b-5117-4986-a643-1e26853e844b"},"vehicle_type_id":"4","last_reported":1732982989,"current_range_meters":26000,"station_id":"ce4bhph2rcd13ifvqheg","pricing_plan_id":"cebpf4jnsgd1na2vs0mg"},{"bike_id":"e033e60b-21ca-4948-b012-51d0c71466ec","system_id":"levelo_inurba_marseille","lat":43.26805,"lon":5.40283,"is_reserved":false,"is_disabled":false,"rental_uris":{"android":"levelo://app?vid=e033e60b-21ca-4948-b012-51d0c71466ec","ios":"levelo://app?vid=e033e60b-21ca-4948-b012-51d0c71466ec"},"vehicle_type_id":"4","last_reported":1732982989,"current_range_meters":36000,"station_id":"ce501612rcd8frsf0b60","pricing_plan_id":"cebpf4jnsgd1na2vs0mg"},{"bike_id":"e774da7d-d42c-46a7-8d77-28d1101f4f09","system_id":"levelo_inurba_marseille","lat":43.2827,"lon":5.35076,"is_reserved":false,"is_disabled":false,"rental_uris":{"android":"levelo://app?vid=e774da7d-d42c-46a7-8d77-28d1101f4f09","ios":"levelo://app?vid=e774da7d-d42c-46a7-8d77-28d1101f4f09"},"vehicle_type_id":"4","last_reported":1732982989,"current_range_meters":38800,"station_id":"ce4bhbp2rcd13ifvqerg","pricing_plan_id":"cebpf4jnsgd1na2vs0mg"},{"bike_id":"c63d1d32-8326-43e4-9161-07aa66247f84","system_id":"levelo_inurba_marseille","lat":43.23055,"lon":5.35501,"is_reserved":false,"is_disabled":true,"rental_uris":{"android":"levelo://app?vid=c63d1d32-8326-43e4-9161-07aa66247f84","ios":"levelo://app?vid=c63d1d32-8326-43e4-9161-07aa66247f84"},"vehicle_type_id":"4","last_reported":1732982989,"current_range_meters":0,"station_id":"cpo3342slgdg3j2ifvpg","pricing_plan_id":"cebpf4jnsgd1na2vs0mg"},{"bike_id":"e2e936dc-8655-447b-9d2b-10b1c1f5df31","system_id":"levelo_inurba_marseille","lat":43.28417,"lon":5.35003,"is_reserved":false,"is_disabled":false,"rental_uris":{"android":"levelo://app?vid=e2e936dc-8655-447b-9d2b-10b1c1f5df31","ios":"levelo://app?vid=e2e936dc-8655-447b-9d2b-10b1c1f5df31"},"vehicle_type_id":"4","last_reported":1732982989,"current_range_meters":37600,"station_id":"ce4bhbh2rcd13ifvqepg","pricing_plan_id":"cebpf4jnsgd1na2vs0mg"},{"bike_id":"0bab6015-08f5-4e71-a39c-ebe1ec0d6a21","system_id":"levelo_inurba_marseille","lat":43.24174,"lon":5.36404,"is_reserved":false,"is_disabled":false,"rental_uris":{"android":"levelo://app?vid=0bab6015-08f5-4e71-a39c-ebe1ec0d6a21","ios":"levelo://app?vid=0bab6015-08f5-4e71-a39c-ebe1ec0d6a21"},"vehicle_type_id":"4","last_reported":1732982989,"current_range_meters":21600,"station_id":"cpo36qri1sfpv3e86is0","pricing_plan_id":"cebpf4jnsgd1na2vs0mg"},{"bike_id":"b121fb9e-7640-46f0-9e18-2b4bcd1a630f","system_id":"levelo_inurba_marseille","lat":43.28429,"lon":5.35011,"is_reserved":false,"is_disabled":false,"rental_uris":{"android":"levelo://app?vid=b121fb9e-7640-46f0-9e18-2b4bcd1a630f","ios":"levelo://app?vid=b121fb9e-7640-46f0-9e18-2b4bcd1a630f"},"vehicle_type_id":"4","last_reported":1732982989,"current_range_meters":34800,"station_id":"ce4bhbh2rcd13ifvqepg","pricing_plan_id":"cebpf4jnsgd1na2vs0mg"},{"bike_id":"9dd1fc98-a89e-437a-b707-6eb8b3c899e8","system_id":"levelo_inurba_marseille","lat":43.29039,"lon":5.359225,"is_reserved":false,"is_disabled":true,"rental_uris":{"android":"levelo://app?vid=9dd1fc98-a89e-437a-b707-6eb8b3c899e8","ios":"levelo://app?vid=9dd1fc98-a89e-437a-b707-6eb8b3c899e8"},"vehicle_type_id":"4","last_reported":1732982989,"current_range_meters":0,"station_id":"ce4bha92rcd13ifvqeg0","pricing_plan_id":"cebpf4jnsgd1na2vs0mg"},{"bike_id":"aea6b7a8-fa3c-4842-89c6-693b08a99724","system_id":"levelo_inurba_marseille","lat":43.33752,"lon":5.37428,"is_reserved":false,"is_disabled":false,"rental_uris":{"android":"levelo://app?vid=aea6b7a8-fa3c-4842-89c6-693b08a99724","ios":"levelo://app?vid=aea6b7a8-fa3c-4842-89c6-693b08a99724"},"vehicle_type_id":"4","last_reported":1732982989,"current_range_meters":38400,"station_id":"","pricing_plan_id":"cebpf4jnsgd1na2vs0mg"},{"bike_id":"873fd052-9978-4f27-b782-8807a1f3aba0","system_id":"levelo_inurba_marseille","lat":43.2998,"lon":5.37181,"is_reserved":false,"is_disabled":false,"rental_uris":{"android":"levelo://app?vid=873fd052-9978-4f27-b782-8807a1f3aba0","ios":"levelo://app?vid=873fd052-9978-4f27-b782-8807a1f3aba0"},"vehicle_type_id":"4","last_reported":1732982989,"current_range_meters":29600,"station_id":"ce4bgr92rcd13ifvqc7g","pricing_plan_id":"cebpf4jnsgd1na2vs0mg"},{"bike_id":"35f4daeb-97b5-44ed-8b43-5e1083824aef","system_id":"levelo_inurba_marseille","lat":43.2797,"lon":5.38744,"is_reserved":false,"is_disabled":false,"rental_uris":{"android":"levelo://app?vid=35f4daeb-97b5-44ed-8b43-5e1083824aef","ios":"levelo://app?vid=35f4daeb-97b5-44ed-8b43-5e1083824aef"},"vehicle_type_id":"4","last_reported":1732982989,"current_range_meters":28800,"station_id":"ce4bhg12rcd13ifvqf80","pricing_plan_id":"cebpf4jnsgd1na2vs0mg"},{"bike_id":"94cf818a-2df8-4aa5-a7d2-eb68ab73dc69","system_id":"levelo_inurba_marseille","lat":43.27378,"lon":5.36261,"is_reserved":false,"is_disabled":false,"rental_uris":{"android":"levelo://app?vid=94cf818a-2df8-4aa5-a7d2-eb68ab73dc69","ios":"levelo://app?vid=94cf818a-2df8-4aa5-a7d2-eb68ab73dc69"},"vehicle_type_id":"4","last_reported":1732982989,"current_range_meters":22000,"station_id":"ce4bhbh2rcd13ifvqeo0","pricing_plan_id":"cebpf4jnsgd1na2vs0mg"},{"bike_id":"5030b285-ff2e-4f80-91e1-2d472fbc1a23","system_id":"levelo_inurba_marseille","lat":43.29291,"lon":5.37461,"is_reserved":false,"is_disabled":false,"rental_uris":{"android":"levelo://app?vid=5030b285-ff2e-4f80-91e1-2d472fbc1a23","ios":"levelo://app?vid=5030b285-ff2e-4f80-91e1-2d472fbc1a23"},"vehicle_type_id":"4","last_reported":1732982989,"current_range_meters":11600,"station_id":"ce4bgi12rcd13ifvqb70","pricing_plan_id":"cebpf4jnsgd1na2vs0mg"},{"bike_id":"a5909545-3e09-4859-9fda-9ffe4e6e4883","system_id":"levelo_inurba_marseille","lat":43.23066,"lon":5.35492,"is_reserved":false,"is_disabled":false,"rental_uris":{"android":"levelo://app?vid=a5909545-3e09-4859-9fda-9ffe4e6e4883","ios":"levelo://app?vid=a5909545-3e09-4859-9fda-9ffe4e6e4883"},"vehicle_type_id":"4","last_reported":1732982989,"current_range_meters":10800,"station_id":"cpo3342slgdg3j2ifvpg","pricing_plan_id":"cebpf4jnsgd1na2vs0mg"},{"bike_id":"01dd0f6c-5d7c-4e63-a161-668f65657b81","system_id":"levelo_inurba_marseille","lat":43.22938,"lon":5.35383,"is_reserved":false,"is_disabled":false,"rental_uris":{"android":"levelo://app?vid=01dd0f6c-5d7c-4e63-a161-668f65657b81","ios":"levelo://app?vid=01dd0f6c-5d7c-4e63-a161-668f65657b81"},"vehicle_type_id":"4","last_reported":1732982989,"current_range_meters":39200,"station_id":"cpo3532slgdg3j2ikp40","pricing_plan_id":"cebpf4jnsgd1na2vs0mg"},{"bike_id":"6bbcb19e-cfed-47df-81bb-3dc262eefad3","system_id":"levelo_inurba_marseille","lat":43.30153,"lon":5.38087,"is_reserved":false,"is_disabled":false,"rental_uris":{"android":"levelo://app?vid=6bbcb19e-cfed-47df-81bb-3dc262eefad3","ios":"levelo://app?vid=6bbcb19e-cfed-47df-81bb-3dc262eefad3"},"vehicle_type_id":"4","last_reported":1732982989,"current_range_meters":9600,"station_id":"ce4bgjp2rcd13ifvqbh0","pricing_plan_id":"cebpf4jnsgd1na2vs0mg"},{"bike_id":"5bc9d9cf-df24-4e03-a64c-e5379f67945a","system_id":"levelo_inurba_marseille","lat":43.27498,"lon":5.42454,"is_reserved":false,"is_disabled":false,"rental_uris":{"android":"levelo://app?vid=5bc9d9cf-df24-4e03-a64c-e5379f67945a","ios":"levelo://app?vid=5bc9d9cf-df24-4e03-a64c-e5379f67945a"},"vehicle_type_id":"4","last_reported":1732982989,"current_range_meters":38800,"station_id":"ce4bhn92rcd13ifvqgrg","pricing_plan_id":"cebpf4jnsgd1na2vs0mg"},{"bike_id":"26574650-f3c5-4496-af68-033e727c7c94","system_id":"levelo_inurba_marseille","lat":43.33023,"lon":5.39049,"is_reserved":false,"is_disabled":false,"rental_uris":{"android":"levelo://app?vid=26574650-f3c5-4496-af68-033e727c7c94","ios":"levelo://app?vid=26574650-f3c5-4496-af68-033e727c7c94"},"vehicle_type_id":"4","last_reported":1732982989,"current_range_meters":25200,"station_id":"ce4bhr92rcd13ifvqhrg","pricing_plan_id":"cebpf4jnsgd1na2vs0mg"},{"bike_id":"7c1126bb-09bc-4e13-90dd-7da46f1e8a16","system_id":"levelo_inurba_marseille","lat":43.29711,"lon":5.37702,"is_reserved":false,"is_disabled":false,"rental_uris":{"android":"levelo://app?vid=7c1126bb-09bc-4e13-90dd-7da46f1e8a16","ios":"levelo://app?vid=7c1126bb-09bc-4e13-90dd-7da46f1e8a16"},"vehicle_type_id":"4","last_reported":1732982989,"current_range_meters":20800,"station_id":"ce4bgkh2rcd13ifvqbl0","pricing_plan_id":"cebpf4jnsgd1na2vs0mg"},{"bike_id":"e5951ee3-4a5a-4ebb-b469-096c5188dfa3","system_id":"levelo_inurba_marseille","lat":43.23192,"lon":5.35568,"is_reserved":false,"is_disabled":false,"rental_uris":{"android":"levelo://app?vid=e5951ee3-4a5a-4ebb-b469-096c5188dfa3","ios":"levelo://app?vid=e5951ee3-4a5a-4ebb-b469-096c5188dfa3"},"vehicle_type_id":"4","last_reported":1732982989,"current_range_meters":19200,"station_id":"ce4bhu92rcd13ifvqi70","pricing_plan_id":"cebpf4jnsgd1na2vs0mg"},{"bike_id":"f9a63393-5401-4f98-ae5a-dfbb8291ab6d","system_id":"levelo_inurba_marseille","lat":43.3004,"lon":5.37551,"is_reserved":false,"is_disabled":true,"rental_uris":{"android":"levelo://app?vid=f9a63393-5401-4f98-ae5a-dfbb8291ab6d","ios":"levelo://app?vid=f9a63393-5401-4f98-ae5a-dfbb8291ab6d"},"vehicle_type_id":"4","last_reported":1732982989,"current_range_meters":0,"station_id":"","pricing_plan_id":"cebpf4jnsgd1na2vs0mg"},{"bike_id":"d2300a67-e59d-4c6d-84e8-89c1777cddcc","system_id":"levelo_inurba_marseille","lat":43.32001,"lon":5.38163,"is_reserved":false,"is_disabled":false,"rental_uris":{"android":"levelo://app?vid=d2300a67-e59d-4c6d-84e8-89c1777cddcc","ios":"levelo://app?vid=d2300a67-e59d-4c6d-84e8-89c1777cddcc"},"vehicle_type_id":"4","last_reported":1732982989,"current_range_meters":38800,"station_id":"ce4bhr12rcd13ifvqhpg","pricing_plan_id":"cebpf4jnsgd1na2vs0mg"},{"bike_id":"b38c09bb-a215-4e8b-b764-0091f548550c","system_id":"levelo_inurba_marseille","lat":43.22939,"lon":5.35382,"is_reserved":false,"is_disabled":false,"rental_uris":{"android":"levelo://app?vid=b38c09bb-a215-4e8b-b764-0091f548550c","ios":"levelo://app?vid=b38c09bb-a215-4e8b-b764-0091f548550c"},"vehicle_type_id":"4","last_reported":1732982989,"current_range_meters":39200,"station_id":"cpo3532slgdg3j2ikp40","pricing_plan_id":"cebpf4jnsgd1na2vs0mg"},{"bike_id":"fb05c01d-f382-4155-a013-26f1d1f5742f","system_id":"levelo_inurba_marseille","lat":43.2439,"lon":5.37051,"is_reserved":false,"is_disabled":true,"rental_uris":{"android":"levelo://app?vid=fb05c01d-f382-4155-a013-26f1d1f5742f","ios":"levelo://app?vid=fb05c01d-f382-4155-a013-26f1d1f5742f"},"vehicle_type_id":"4","last_reported":1732982989,"current_range_meters":400,"station_id":"ce4bhhh2rcd13ifvqfk0","pricing_plan_id":"cebpf4jnsgd1na2vs0mg"},{"bike_id":"12eb8744-d6e3-4cc2-a8a3-67560abc1e26","system_id":"levelo_inurba_marseille","lat":43.22927,"lon":5.3538,"is_reserved":false,"is_disabled":false,"rental_uris":{"android":"levelo://app?vid=12eb8744-d6e3-4cc2-a8a3-67560abc1e26","ios":"levelo://app?vid=12eb8744-d6e3-4cc2-a8a3-67560abc1e26"},"vehicle_type_id":"4","last_reported":1732982989,"current_range_meters":16800,"station_id":"cpo3532slgdg3j2ikp40","pricing_plan_id":"cebpf4jnsgd1na2vs0mg"},{"bike_id":"209edce5-94bd-42b7-894c-233f806592a5","system_id":"levelo_inurba_marseille","lat":43.32362,"lon":5.36767,"is_reserved":false,"is_disabled":false,"rental_uris":{"android":"levelo://app?vid=209edce5-94bd-42b7-894c-233f806592a5","ios":"levelo://app?vid=209edce5-94bd-42b7-894c-233f806592a5"},"vehicle_type_id":"4","last_reported":1732982989,"current_range_meters":28000,"station_id":"ce4bhsh2rcd13ifvqi2g","pricing_plan_id":"cebpf4jnsgd1na2vs0mg"},{"bike_id":"ea461fa6-489e-4de7-89c7-2f448445227c","system_id":"levelo_inurba_marseille","lat":43.29315,"lon":5.37188,"is_reserved":false,"is_disabled":true,"rental_uris":{"android":"levelo://app?vid=ea461fa6-489e-4de7-89c7-2f448445227c","ios":"levelo://app?vid=ea461fa6-489e-4de7-89c7-2f448445227c"},"vehicle_type_id":"4","last_reported":1732982989,"current_range_meters":38800,"station_id":"ce4bgh92rcd13ifvqb40","pricing_plan_id":"cebpf4jnsgd1na2vs0mg"},{"bike_id":"b0bda3a0-8d9d-4bd3-a5b8-75ccdf39fdf3","system_id":"levelo_inurba_marseille","lat":43.29442,"lon":5.3976,"is_reserved":false,"is_disabled":true,"rental_uris":{"android":"levelo://app?vid=b0bda3a0-8d9d-4bd3-a5b8-75ccdf39fdf3","ios":"levelo://app?vid=b0bda3a0-8d9d-4bd3-a5b8-75ccdf39fdf3"},"vehicle_type_id":"4","last_reported":1732982989,"current_range_meters":28800,"station_id":"ce4bh3h2rcd13ifvqdo0","pricing_plan_id":"cebpf4jnsgd1na2vs0mg"},{"bike_id":"04791269-9bad-451a-a252-9b63a8db9660","system_id":"levelo_inurba_marseille","lat":43.28041,"lon":5.36953,"is_reserved":false,"is_disabled":false,"rental_uris":{"android":"levelo://app?vid=04791269-9bad-451a-a252-9b63a8db9660","ios":"levelo://app?vid=04791269-9bad-451a-a252-9b63a8db9660"},"vehicle_type_id":"4","last_reported":1732982989,"current_range_meters":7200,"station_id":"ce4bha12rcd13ifvqef0","pricing_plan_id":"cebpf4jnsgd1na2vs0mg"},{"bike_id":"efbc4d20-bdec-45eb-8f74-c8ad3b7ba3bb","system_id":"levelo_inurba_marseille","lat":43.2306,"lon":5.35504,"is_reserved":false,"is_disabled":false,"rental_uris":{"android":"levelo://app?vid=efbc4d20-bdec-45eb-8f74-c8ad3b7ba3bb","ios":"levelo://app?vid=efbc4d20-bdec-45eb-8f74-c8ad3b7ba3bb"},"vehicle_type_id":"4","last_reported":1732982989,"current_range_meters":28800,"station_id":"cpo3342slgdg3j2ifvpg","pricing_plan_id":"cebpf4jnsgd1na2vs0mg"},{"bike_id":"7e27dd41-39ca-4679-ac90-33a10518b48c","system_id":"levelo_inurba_marseille","lat":43.308,"lon":5.38166,"is_reserved":false,"is_disabled":false,"rental_uris":{"android":"levelo://app?vid=7e27dd41-39ca-4679-ac90-33a10518b48c","ios":"levelo://app?vid=7e27dd41-39ca-4679-ac90-33a10518b48c"},"vehicle_type_id":"4","last_reported":1732982989,"current_range_meters":27200,"station_id":"ce4bgt12rcd13ifvqce0","pricing_plan_id":"cebpf4jnsgd1na2vs0mg"},{"bike_id":"ffee92d3-4119-470f-811e-5a167fe07917","system_id":"levelo_inurba_marseille","lat":43.33024,"lon":5.39039,"is_reserved":false,"is_disabled":false,"rental_uris":{"android":"levelo://app?vid=ffee92d3-4119-470f-811e-5a167fe07917","ios":"levelo://app?vid=ffee92d3-4119-470f-811e-5a167fe07917"},"vehicle_type_id":"4","last_reported":1732982989,"current_range_meters":39200,"station_id":"ce4bhr92rcd13ifvqhrg","pricing_plan_id":"cebpf4jnsgd1na2vs0mg"},{"bike_id":"8d00995a-ba41-43f3-9823-01312bda0f56","system_id":"levelo_inurba_marseille","lat":43.24551,"lon":5.39536,"is_reserved":false,"is_disabled":false,"rental_uris":{"android":"levelo://app?vid=8d00995a-ba41-43f3-9823-01312bda0f56","ios":"levelo://app?vid=8d00995a-ba41-43f3-9823-01312bda0f56"},"vehicle_type_id":"4","last_reported":1732982989,"current_range_meters":3600,"station_id":"ce4bhlp2rcd13ifvqgjg","pricing_plan_id":"cebpf4jnsgd1na2vs0mg"},{"bike_id":"38798db8-5bd5-4792-b41b-6f809d1b1c45","system_id":"levelo_inurba_marseille","lat":43.319957,"lon":5.381588,"is_reserved":false,"is_disabled":false,"rental_uris":{"android":"levelo://app?vid=38798db8-5bd5-4792-b41b-6f809d1b1c45","ios":"levelo://app?vid=38798db8-5bd5-4792-b41b-6f809d1b1c45"},"vehicle_type_id":"4","last_reported":1732982989,"current_range_meters":18000,"station_id":"ce4bhr12rcd13ifvqhpg","pricing_plan_id":"cebpf4jnsgd1na2vs0mg"},{"bike_id":"4f7d45ef-7d61-41e4-93ae-e39543ce3066","system_id":"levelo_inurba_marseille","lat":43.28042,"lon":5.36941,"is_reserved":false,"is_disabled":false,"rental_uris":{"android":"levelo://app?vid=4f7d45ef-7d61-41e4-93ae-e39543ce3066","ios":"levelo://app?vid=4f7d45ef-7d61-41e4-93ae-e39543ce3066"},"vehicle_type_id":"4","last_reported":1732982989,"current_range_meters":36000,"station_id":"ce4bha12rcd13ifvqef0","pricing_plan_id":"cebpf4jnsgd1na2vs0mg"},{"bike_id":"8c05a29e-728a-4b29-80bd-40718114c6e8","system_id":"levelo_inurba_marseille","lat":43.30277,"lon":5.37711,"is_reserved":false,"is_disabled":false,"rental_uris":{"android":"levelo://app?vid=8c05a29e-728a-4b29-80bd-40718114c6e8","ios":"levelo://app?vid=8c05a29e-728a-4b29-80bd-40718114c6e8"},"vehicle_type_id":"4","last_reported":1732982989,"current_range_meters":38800,"station_id":"ce4bguh2rcd13ifvqcj0","pricing_plan_id":"cebpf4jnsgd1na2vs0mg"},{"bike_id":"ed151763-9b18-498c-894b-855dfd42d28d","system_id":"levelo_inurba_marseille","lat":43.26033,"lon":5.37551,"is_reserved":false,"is_disabled":true,"rental_uris":{"android":"levelo://app?vid=ed151763-9b18-498c-894b-855dfd42d28d","ios":"levelo://app?vid=ed151763-9b18-498c-894b-855dfd42d28d"},"vehicle_type_id":"4","last_reported":1732982989,"current_range_meters":400,"station_id":"ce4bhgh2rcd13ifvqfa0","pricing_plan_id":"cebpf4jnsgd1na2vs0mg"},{"bike_id":"f6b195fb-5cbc-472c-adb1-113642a7e7d2","system_id":"levelo_inurba_marseille","lat":43.310751,"lon":5.368911,"is_reserved":false,"is_disabled":false,"rental_uris":{"android":"levelo://app?vid=f6b195fb-5cbc-472c-adb1-113642a7e7d2","ios":"levelo://app?vid=f6b195fb-5cbc-472c-adb1-113642a7e7d2"},"vehicle_type_id":"4","last_reported":1732982989,"current_range_meters":19200,"station_id":"","pricing_plan_id":"cebpf4jnsgd1na2vs0mg"},{"bike_id":"62edf88c-6b39-4bd2-b87e-e81d7482be78","system_id":"levelo_inurba_marseille","lat":43.29968,"lon":5.37184,"is_reserved":false,"is_disabled":false,"rental_uris":{"android":"levelo://app?vid=62edf88c-6b39-4bd2-b87e-e81d7482be78","ios":"levelo://app?vid=62edf88c-6b39-4bd2-b87e-e81d7482be78"},"vehicle_type_id":"4","last_reported":1732982989,"current_range_meters":38800,"station_id":"ce4bgr92rcd13ifvqc7g","pricing_plan_id":"cebpf4jnsgd1na2vs0mg"},{"bike_id":"8b7bc44b-c481-433f-b397-5cd095f261fd","system_id":"levelo_inurba_marseille","lat":43.23194,"lon":5.35558,"is_reserved":false,"is_disabled":false,"rental_uris":{"android":"levelo://app?vid=8b7bc44b-c481-433f-b397-5cd095f261fd","ios":"levelo://app?vid=8b7bc44b-c481-433f-b397-5cd095f261fd"},"vehicle_type_id":"4","last_reported":1732982989,"current_range_meters":16800,"station_id":"ce4bhu92rcd13ifvqi70","pricing_plan_id":"cebpf4jnsgd1na2vs0mg"},{"bike_id":"96b27800-f11c-44a0-a1c4-be400e11057c","system_id":"levelo_inurba_marseille","lat":43.3093,"lon":5.40158,"is_reserved":false,"is_disabled":true,"rental_uris":{"android":"levelo://app?vid=96b27800-f11c-44a0-a1c4-be400e11057c","ios":"levelo://app?vid=96b27800-f11c-44a0-a1c4-be400e11057c"},"vehicle_type_id":"4","last_reported":1732982989,"current_range_meters":0,"station_id":"ce4bgvp2rcd13ifvqct0","pricing_plan_id":"cebpf4jnsgd1na2vs0mg"},{"bike_id":"70f64254-5023-4e6f-873b-fb36d0fd8152","system_id":"levelo_inurba_marseille","lat":43.33023,"lon":5.39039,"is_reserved":false,"is_disabled":false,"rental_uris":{"android":"levelo://app?vid=70f64254-5023-4e6f-873b-fb36d0fd8152","ios":"levelo://app?vid=70f64254-5023-4e6f-873b-fb36d0fd8152"},"vehicle_type_id":"4","last_reported":1732982989,"current_range_meters":18800,"station_id":"ce4bhr92rcd13ifvqhrg","pricing_plan_id":"cebpf4jnsgd1na2vs0mg"},{"bike_id":"2f6f17ba-07c0-4ddc-a8ca-9542c44282fa","system_id":"levelo_inurba_marseille","lat":43.2767,"lon":5.38902,"is_reserved":false,"is_disabled":false,"rental_uris":{"android":"levelo://app?vid=2f6f17ba-07c0-4ddc-a8ca-9542c44282fa","ios":"levelo://app?vid=2f6f17ba-07c0-4ddc-a8ca-9542c44282fa"},"vehicle_type_id":"4","last_reported":1732982989,"current_range_meters":28000,"station_id":"ce4bhi12rcd13ifvqfo0","pricing_plan_id":"cebpf4jnsgd1na2vs0mg"},{"bike_id":"e3a3d439-c2ed-44e0-b967-40ee013cbda1","system_id":"levelo_inurba_marseille","lat":43.28274,"lon":5.35076,"is_reserved":false,"is_disabled":false,"rental_uris":{"android":"levelo://app?vid=e3a3d439-c2ed-44e0-b967-40ee013cbda1","ios":"levelo://app?vid=e3a3d439-c2ed-44e0-b967-40ee013cbda1"},"vehicle_type_id":"4","last_reported":1732982989,"current_range_meters":26000,"station_id":"ce4bhbp2rcd13ifvqerg","pricing_plan_id":"cebpf4jnsgd1na2vs0mg"},{"bike_id":"43746d86-8a13-4845-9faf-ae69b548d714","system_id":"levelo_inurba_marseille","lat":43.29459,"lon":5.37917,"is_reserved":false,"is_disabled":true,"rental_uris":{"android":"levelo://app?vid=43746d86-8a13-4845-9faf-ae69b548d714","ios":"levelo://app?vid=43746d86-8a13-4845-9faf-ae69b548d714"},"vehicle_type_id":"4","last_reported":1732982989,"current_range_meters":0,"station_id":"","pricing_plan_id":"cebpf4jnsgd1na2vs0mg"},{"bike_id":"b99d912f-5dc0-4792-8912-e0c60fda2b57","system_id":"levelo_inurba_marseille","lat":43.23055,"lon":5.35496,"is_reserved":false,"is_disabled":false,"rental_uris":{"android":"levelo://app?vid=b99d912f-5dc0-4792-8912-e0c60fda2b57","ios":"levelo://app?vid=b99d912f-5dc0-4792-8912-e0c60fda2b57"},"vehicle_type_id":"4","last_reported":1732982989,"current_range_meters":27200,"station_id":"cpo3342slgdg3j2ifvpg","pricing_plan_id":"cebpf4jnsgd1na2vs0mg"},{"bike_id":"240cdfd7-95f5-485b-88d0-677dc749db87","system_id":"levelo_inurba_marseille","lat":43.28418,"lon":5.34998,"is_reserved":false,"is_disabled":false,"rental_uris":{"android":"levelo://app?vid=240cdfd7-95f5-485b-88d0-677dc749db87","ios":"levelo://app?vid=240cdfd7-95f5-485b-88d0-677dc749db87"},"vehicle_type_id":"4","last_reported":1732982989,"current_range_meters":32000,"station_id":"ce4bhbh2rcd13ifvqepg","pricing_plan_id":"cebpf4jnsgd1na2vs0mg"},{"bike_id":"71e6b909-418a-4781-b480-4d9bbb728f21","system_id":"levelo_inurba_marseille","lat":43.28265,"lon":5.35063,"is_reserved":false,"is_disabled":false,"rental_uris":{"android":"levelo://app?vid=71e6b909-418a-4781-b480-4d9bbb728f21","ios":"levelo://app?vid=71e6b909-418a-4781-b480-4d9bbb728f21"},"vehicle_type_id":"4","last_reported":1732982989,"current_range_meters":21600,"station_id":"ce4bhbp2rcd13ifvqerg","pricing_plan_id":"cebpf4jnsgd1na2vs0mg"},{"bike_id":"6a6d2bce-2322-4739-920d-d863ed9f7029","system_id":"levelo_inurba_marseille","lat":43.24662,"lon":5.3816,"is_reserved":false,"is_disabled":true,"rental_uris":{"android":"levelo://app?vid=6a6d2bce-2322-4739-920d-d863ed9f7029","ios":"levelo://app?vid=6a6d2bce-2322-4739-920d-d863ed9f7029"},"vehicle_type_id":"4","last_reported":1732982989,"current_range_meters":0,"station_id":"ce4bhih2rcd13ifvqfr0","pricing_plan_id":"cebpf4jnsgd1na2vs0mg"},{"bike_id":"5b902be2-8ab9-4a98-9a9d-286fda393859","system_id":"levelo_inurba_marseille","lat":43.2603,"lon":5.37554,"is_reserved":false,"is_disabled":false,"rental_uris":{"android":"levelo://app?vid=5b902be2-8ab9-4a98-9a9d-286fda393859","ios":"levelo://app?vid=5b902be2-8ab9-4a98-9a9d-286fda393859"},"vehicle_type_id":"4","last_reported":1732982989,"current_range_meters":30400,"station_id":"ce4bhgh2rcd13ifvqfa0","pricing_plan_id":"cebpf4jnsgd1na2vs0mg"},{"bike_id":"efe32a30-d075-42b3-88a6-e2a1a28f2121","system_id":"levelo_inurba_marseille","lat":43.28042,"lon":5.36945,"is_reserved":false,"is_disabled":false,"rental_uris":{"android":"levelo://app?vid=efe32a30-d075-42b3-88a6-e2a1a28f2121","ios":"levelo://app?vid=efe32a30-d075-42b3-88a6-e2a1a28f2121"},"vehicle_type_id":"4","last_reported":1732982989,"current_range_meters":22000,"station_id":"ce4bha12rcd13ifvqef0","pricing_plan_id":"cebpf4jnsgd1na2vs0mg"},{"bike_id":"c050b5cf-1a29-4e7d-9aee-c49bd9424fe1","system_id":"levelo_inurba_marseille","lat":43.30439,"lon":5.38891,"is_reserved":false,"is_disabled":false,"rental_uris":{"android":"levelo://app?vid=c050b5cf-1a29-4e7d-9aee-c49bd9424fe1","ios":"levelo://app?vid=c050b5cf-1a29-4e7d-9aee-c49bd9424fe1"},"vehicle_type_id":"4","last_reported":1732982989,"current_range_meters":15200,"station_id":"ce4bgk12rcd13ifvqbi0","pricing_plan_id":"cebpf4jnsgd1na2vs0mg"},{"bike_id":"9e2dae0c-4997-4761-9c82-eeabee0ca3bb","system_id":"levelo_inurba_marseille","lat":43.28153,"lon":5.42645,"is_reserved":false,"is_disabled":false,"rental_uris":{"android":"levelo://app?vid=9e2dae0c-4997-4761-9c82-eeabee0ca3bb","ios":"levelo://app?vid=9e2dae0c-4997-4761-9c82-eeabee0ca3bb"},"vehicle_type_id":"4","last_reported":1732982989,"current_range_meters":30000,"station_id":"ce4bhnh2rcd13ifvqgug","pricing_plan_id":"cebpf4jnsgd1na2vs0mg"},{"bike_id":"15e24c31-4292-4084-bcd3-e24f0a31685e","system_id":"levelo_inurba_marseille","lat":43.28436,"lon":5.35005,"is_reserved":false,"is_disabled":true,"rental_uris":{"android":"levelo://app?vid=15e24c31-4292-4084-bcd3-e24f0a31685e","ios":"levelo://app?vid=15e24c31-4292-4084-bcd3-e24f0a31685e"},"vehicle_type_id":"4","last_reported":1732982989,"current_range_meters":34000,"station_id":"ce4bhbh2rcd13ifvqepg","pricing_plan_id":"cebpf4jnsgd1na2vs0mg"},{"bike_id":"b3d12ac5-e065-4b77-83d8-6cd36d3a39d9","system_id":"levelo_inurba_marseille","lat":43.33747,"lon":5.37471,"is_reserved":false,"is_disabled":false,"rental_uris":{"android":"levelo://app?vid=b3d12ac5-e065-4b77-83d8-6cd36d3a39d9","ios":"levelo://app?vid=b3d12ac5-e065-4b77-83d8-6cd36d3a39d9"},"vehicle_type_id":"4","last_reported":1732982989,"current_range_meters":10800,"station_id":"","pricing_plan_id":"cebpf4jnsgd1na2vs0mg"},{"bike_id":"c67affd0-758a-47c8-bb19-f58fff7a7b97","system_id":"levelo_inurba_marseille","lat":43.33021,"lon":5.39049,"is_reserved":false,"is_disabled":false,"rental_uris":{"android":"levelo://app?vid=c67affd0-758a-47c8-bb19-f58fff7a7b97","ios":"levelo://app?vid=c67affd0-758a-47c8-bb19-f58fff7a7b97"},"vehicle_type_id":"4","last_reported":1732982989,"current_range_meters":39200,"station_id":"ce4bhr92rcd13ifvqhrg","pricing_plan_id":"cebpf4jnsgd1na2vs0mg"},{"bike_id":"ed2e18cb-6b73-482a-997d-872d2e2185a6","system_id":"levelo_inurba_marseille","lat":43.22931,"lon":5.35372,"is_reserved":false,"is_disabled":false,"rental_uris":{"android":"levelo://app?vid=ed2e18cb-6b73-482a-997d-872d2e2185a6","ios":"levelo://app?vid=ed2e18cb-6b73-482a-997d-872d2e2185a6"},"vehicle_type_id":"4","last_reported":1732982989,"current_range_meters":39200,"station_id":"cpo3532slgdg3j2ikp40","pricing_plan_id":"cebpf4jnsgd1na2vs0mg"},{"bike_id":"d3a08981-a76a-4fd4-8ebb-23600e3ff206","system_id":"levelo_inurba_marseille","lat":43.27868,"lon":5.40633,"is_reserved":false,"is_disabled":false,"rental_uris":{"android":"levelo://app?vid=d3a08981-a76a-4fd4-8ebb-23600e3ff206","ios":"levelo://app?vid=d3a08981-a76a-4fd4-8ebb-23600e3ff206"},"vehicle_type_id":"4","last_reported":1732982989,"current_range_meters":24000,"station_id":"ce4bhnh2rcd13ifvqgtg","pricing_plan_id":"cebpf4jnsgd1na2vs0mg"},{"bike_id":"c058d99c-a6e3-4d85-be9d-eb3d43f9fa08","system_id":"levelo_inurba_marseille","lat":43.28616,"lon":5.35111,"is_reserved":false,"is_disabled":false,"rental_uris":{"android":"levelo://app?vid=c058d99c-a6e3-4d85-be9d-eb3d43f9fa08","ios":"levelo://app?vid=c058d99c-a6e3-4d85-be9d-eb3d43f9fa08"},"vehicle_type_id":"4","last_reported":1732982989,"current_range_meters":26800,"station_id":"ce4bhch2rcd13ifvqeug","pricing_plan_id":"cebpf4jnsgd1na2vs0mg"},{"bike_id":"e3ede9bc-c4bb-4239-bdeb-e638c6319b84","system_id":"levelo_inurba_marseille","lat":43.28271,"lon":5.35072,"is_reserved":false,"is_disabled":false,"rental_uris":{"android":"levelo://app?vid=e3ede9bc-c4bb-4239-bdeb-e638c6319b84","ios":"levelo://app?vid=e3ede9bc-c4bb-4239-bdeb-e638c6319b84"},"vehicle_type_id":"4","last_reported":1732982989,"current_range_meters":28000,"station_id":"ce4bhbp2rcd13ifvqerg","pricing_plan_id":"cebpf4jnsgd1na2vs0mg"},{"bike_id":"a76c3d74-c6d8-484e-8987-3d7c08164b65","system_id":"levelo_inurba_marseille","lat":43.28413,"lon":5.37515,"is_reserved":false,"is_disabled":true,"rental_uris":{"android":"levelo://app?vid=a76c3d74-c6d8-484e-8987-3d7c08164b65","ios":"levelo://app?vid=a76c3d74-c6d8-484e-8987-3d7c08164b65"},"vehicle_type_id":"4","last_reported":1732982989,"current_range_meters":0,"station_id":"ce4bh412rcd13ifvqds0","pricing_plan_id":"cebpf4jnsgd1na2vs0mg"},{"bike_id":"fc4d15f5-6256-45a3-90d6-77bb4c676955","system_id":"levelo_inurba_marseille","lat":43.296284,"lon":5.377877,"is_reserved":false,"is_disabled":true,"rental_uris":{"android":"levelo://app?vid=fc4d15f5-6256-45a3-90d6-77bb4c676955","ios":"levelo://app?vid=fc4d15f5-6256-45a3-90d6-77bb4c676955"},"vehicle_type_id":"4","last_reported":1732982989,"current_range_meters":24000,"station_id":"","pricing_plan_id":"cebpf4jnsgd1na2vs0mg"},{"bike_id":"950382f9-47a9-46e9-8503-886e2792555a","system_id":"levelo_inurba_marseille","lat":43.2582,"lon":5.39444,"is_reserved":false,"is_disabled":false,"rental_uris":{"android":"levelo://app?vid=950382f9-47a9-46e9-8503-886e2792555a","ios":"levelo://app?vid=950382f9-47a9-46e9-8503-886e2792555a"},"vehicle_type_id":"4","last_reported":1732982989,"current_range_meters":35200,"station_id":"ce4bhip2rcd13ifvqft0","pricing_plan_id":"cebpf4jnsgd1na2vs0mg"},{"bike_id":"eab23e47-0aa3-47ae-a472-050c8892ef87","system_id":"levelo_inurba_marseille","lat":43.29201,"lon":5.39325,"is_reserved":false,"is_disabled":false,"rental_uris":{"android":"levelo://app?vid=eab23e47-0aa3-47ae-a472-050c8892ef87","ios":"levelo://app?vid=eab23e47-0aa3-47ae-a472-050c8892ef87"},"vehicle_type_id":"4","last_reported":1732982989,"current_range_meters":25200,"station_id":"ce4bh192rcd13ifvqdd0","pricing_plan_id":"cebpf4jnsgd1na2vs0mg"},{"bike_id":"a16afe75-0fd4-4a69-b96a-bb6ed635780c","system_id":"levelo_inurba_marseille","lat":43.31124,"lon":5.37776,"is_reserved":false,"is_disabled":true,"rental_uris":{"android":"levelo://app?vid=a16afe75-0fd4-4a69-b96a-bb6ed635780c","ios":"levelo://app?vid=a16afe75-0fd4-4a69-b96a-bb6ed635780c"},"vehicle_type_id":"4","last_reported":1732982989,"current_range_meters":20800,"station_id":"ce4bgt92rcd13ifvqcg0","pricing_plan_id":"cebpf4jnsgd1na2vs0mg"},{"bike_id":"ae64ca77-808d-4fa4-bcde-5f434e4834ff","system_id":"levelo_inurba_marseille","lat":43.27318,"lon":5.39081,"is_reserved":false,"is_disabled":true,"rental_uris":{"android":"levelo://app?vid=ae64ca77-808d-4fa4-bcde-5f434e4834ff","ios":"levelo://app?vid=ae64ca77-808d-4fa4-bcde-5f434e4834ff"},"vehicle_type_id":"4","last_reported":1732982989,"current_range_meters":0,"station_id":"ce4bhgp2rcd13ifvqfe0","pricing_plan_id":"cebpf4jnsgd1na2vs0mg"},{"bike_id":"da719756-3742-4209-8d60-b3804f08c501","system_id":"levelo_inurba_marseille","lat":43.29811,"lon":5.37996,"is_reserved":false,"is_disabled":false,"rental_uris":{"android":"levelo://app?vid=da719756-3742-4209-8d60-b3804f08c501","ios":"levelo://app?vid=da719756-3742-4209-8d60-b3804f08c501"},"vehicle_type_id":"4","last_reported":1732982989,"current_range_meters":26800,"station_id":"","pricing_plan_id":"cebpf4jnsgd1na2vs0mg"},{"bike_id":"5547a441-9653-482c-905c-97a54076438b","system_id":"levelo_inurba_marseille","lat":43.32367,"lon":5.36768,"is_reserved":false,"is_disabled":false,"rental_uris":{"android":"levelo://app?vid=5547a441-9653-482c-905c-97a54076438b","ios":"levelo://app?vid=5547a441-9653-482c-905c-97a54076438b"},"vehicle_type_id":"4","last_reported":1732982989,"current_range_meters":14400,"station_id":"ce4bhsh2rcd13ifvqi2g","pricing_plan_id":"cebpf4jnsgd1na2vs0mg"},{"bike_id":"19408419-e052-4a1f-aa09-3422af556032","system_id":"levelo_inurba_marseille","lat":43.28268,"lon":5.3508,"is_reserved":false,"is_disabled":false,"rental_uris":{"android":"levelo://app?vid=19408419-e052-4a1f-aa09-3422af556032","ios":"levelo://app?vid=19408419-e052-4a1f-aa09-3422af556032"},"vehicle_type_id":"4","last_reported":1732982989,"current_range_meters":36800,"station_id":"ce4bhbp2rcd13ifvqerg","pricing_plan_id":"cebpf4jnsgd1na2vs0mg"},{"bike_id":"8d028105-3dea-4488-99f9-3177306144a6","system_id":"levelo_inurba_marseille","lat":43.29374,"lon":5.42836,"is_reserved":false,"is_disabled":false,"rental_uris":{"android":"levelo://app?vid=8d028105-3dea-4488-99f9-3177306144a6","ios":"levelo://app?vid=8d028105-3dea-4488-99f9-3177306144a6"},"vehicle_type_id":"4","last_reported":1732982989,"current_range_meters":16400,"station_id":"","pricing_plan_id":"cebpf4jnsgd1na2vs0mg"},{"bike_id":"38277011-0e5f-4110-9d7c-38b65f4dc854","system_id":"levelo_inurba_marseille","lat":43.29281,"lon":5.36849,"is_reserved":false,"is_disabled":false,"rental_uris":{"android":"levelo://app?vid=38277011-0e5f-4110-9d7c-38b65f4dc854","ios":"levelo://app?vid=38277011-0e5f-4110-9d7c-38b65f4dc854"},"vehicle_type_id":"4","last_reported":1732982989,"current_range_meters":27600,"station_id":"ce4bhbp2rcd13ifvqesg","pricing_plan_id":"cebpf4jnsgd1na2vs0mg"},{"bike_id":"8cdf91ca-38a8-40c2-9b1d-089e42292163","system_id":"levelo_inurba_marseille","lat":43.28429,"lon":5.35,"is_reserved":false,"is_disabled":false,"rental_uris":{"android":"levelo://app?vid=8cdf91ca-38a8-40c2-9b1d-089e42292163","ios":"levelo://app?vid=8cdf91ca-38a8-40c2-9b1d-089e42292163"},"vehicle_type_id":"4","last_reported":1732982989,"current_range_meters":38000,"station_id":"ce4bhbh2rcd13ifvqepg","pricing_plan_id":"cebpf4jnsgd1na2vs0mg"},{"bike_id":"9c409183-d584-4828-b703-d0e8aead2320","system_id":"levelo_inurba_marseille","lat":43.27314,"lon":5.39086,"is_reserved":false,"is_disabled":false,"rental_uris":{"android":"levelo://app?vid=9c409183-d584-4828-b703-d0e8aead2320","ios":"levelo://app?vid=9c409183-d584-4828-b703-d0e8aead2320"},"vehicle_type_id":"4","last_reported":1732982989,"current_range_meters":38800,"station_id":"ce4bhgp2rcd13ifvqfe0","pricing_plan_id":"cebpf4jnsgd1na2vs0mg"},{"bike_id":"da3da170-d4c9-417f-9190-f95343cbd74e","system_id":"levelo_inurba_marseille","lat":43.30201,"lon":5.36622,"is_reserved":false,"is_disabled":false,"rental_uris":{"android":"levelo://app?vid=da3da170-d4c9-417f-9190-f95343cbd74e","ios":"levelo://app?vid=da3da170-d4c9-417f-9190-f95343cbd74e"},"vehicle_type_id":"4","last_reported":1732982989,"current_range_meters":22000,"station_id":"ce4bgrh2rcd13ifvqc8g","pricing_plan_id":"cebpf4jnsgd1na2vs0mg"},{"bike_id":"703f729a-d712-4fdc-9aa7-7dec0b72132a","system_id":"levelo_inurba_marseille","lat":43.30433,"lon":5.38887,"is_reserved":false,"is_disabled":false,"rental_uris":{"android":"levelo://app?vid=703f729a-d712-4fdc-9aa7-7dec0b72132a","ios":"levelo://app?vid=703f729a-d712-4fdc-9aa7-7dec0b72132a"},"vehicle_type_id":"4","last_reported":1732982989,"current_range_meters":36400,"station_id":"ce4bgk12rcd13ifvqbi0","pricing_plan_id":"cebpf4jnsgd1na2vs0mg"},{"bike_id":"880997ff-8751-4856-9762-bca7548530b4","system_id":"levelo_inurba_marseille","lat":43.28157,"lon":5.42648,"is_reserved":false,"is_disabled":false,"rental_uris":{"android":"levelo://app?vid=880997ff-8751-4856-9762-bca7548530b4","ios":"levelo://app?vid=880997ff-8751-4856-9762-bca7548530b4"},"vehicle_type_id":"4","last_reported":1732982989,"current_range_meters":34000,"station_id":"ce4bhnh2rcd13ifvqgug","pricing_plan_id":"cebpf4jnsgd1na2vs0mg"},{"bike_id":"b69579fa-8e8f-41b9-bc0a-2a716393d399","system_id":"levelo_inurba_marseille","lat":43.31749,"lon":5.39021,"is_reserved":false,"is_disabled":false,"rental_uris":{"android":"levelo://app?vid=b69579fa-8e8f-41b9-bc0a-2a716393d399","ios":"levelo://app?vid=b69579fa-8e8f-41b9-bc0a-2a716393d399"},"vehicle_type_id":"4","last_reported":1732982989,"current_range_meters":38800,"station_id":"ce4bhqp2rcd13ifvqhng","pricing_plan_id":"cebpf4jnsgd1na2vs0mg"},{"bike_id":"9bc8c65a-39ab-4760-9bd4-98cf64dfeec4","system_id":"levelo_inurba_marseille","lat":43.24166,"lon":5.36406,"is_reserved":false,"is_disabled":false,"rental_uris":{"android":"levelo://app?vid=9bc8c65a-39ab-4760-9bd4-98cf64dfeec4","ios":"levelo://app?vid=9bc8c65a-39ab-4760-9bd4-98cf64dfeec4"},"vehicle_type_id":"4","last_reported":1732982989,"current_range_meters":21600,"station_id":"cpo36qri1sfpv3e86is0","pricing_plan_id":"cebpf4jnsgd1na2vs0mg"},{"bike_id":"0e6c5c39-7e4c-4d43-8777-5013372929c5","system_id":"levelo_inurba_marseille","lat":43.24813,"lon":5.37459,"is_reserved":false,"is_disabled":true,"rental_uris":{"android":"levelo://app?vid=0e6c5c39-7e4c-4d43-8777-5013372929c5","ios":"levelo://app?vid=0e6c5c39-7e4c-4d43-8777-5013372929c5"},"vehicle_type_id":"4","last_reported":1732982989,"current_range_meters":1600,"station_id":"ce4bhgh2rcd13ifvqfb0","pricing_plan_id":"cebpf4jnsgd1na2vs0mg"},{"bike_id":"03a90e4c-7d28-43d5-9854-3eb36165adb2","system_id":"levelo_inurba_marseille","lat":43.291982,"lon":5.357986,"is_reserved":false,"is_disabled":true,"rental_uris":{"android":"levelo://app?vid=03a90e4c-7d28-43d5-9854-3eb36165adb2","ios":"levelo://app?vid=03a90e4c-7d28-43d5-9854-3eb36165adb2"},"vehicle_type_id":"4","last_reported":1732982989,"current_range_meters":0,"station_id":"ce4bhb12rcd13ifvqel0","pricing_plan_id":"cebpf4jnsgd1na2vs0mg"},{"bike_id":"21c7b996-100d-4450-a5d9-250b1c48f6fa","system_id":"levelo_inurba_marseille","lat":43.25502,"lon":5.37657,"is_reserved":false,"is_disabled":false,"rental_uris":{"android":"levelo://app?vid=21c7b996-100d-4450-a5d9-250b1c48f6fa","ios":"levelo://app?vid=21c7b996-100d-4450-a5d9-250b1c48f6fa"},"vehicle_type_id":"4","last_reported":1732982989,"current_range_meters":8000,"station_id":"ce4bhh12rcd13ifvqff0","pricing_plan_id":"cebpf4jnsgd1na2vs0mg"},{"bike_id":"14a4f0e3-d54f-47b8-a445-c36225f4c58d","system_id":"levelo_inurba_marseille","lat":43.24541,"lon":5.39531,"is_reserved":false,"is_disabled":true,"rental_uris":{"android":"levelo://app?vid=14a4f0e3-d54f-47b8-a445-c36225f4c58d","ios":"levelo://app?vid=14a4f0e3-d54f-47b8-a445-c36225f4c58d"},"vehicle_type_id":"4","last_reported":1732982989,"current_range_meters":0,"station_id":"ce4bhlp2rcd13ifvqgjg","pricing_plan_id":"cebpf4jnsgd1na2vs0mg"},{"bike_id":"9867593a-b77c-4846-ad67-1bdbd8f5fb86","system_id":"levelo_inurba_marseille","lat":43.23198,"lon":5.35555,"is_reserved":false,"is_disabled":false,"rental_uris":{"android":"levelo://app?vid=9867593a-b77c-4846-ad67-1bdbd8f5fb86","ios":"levelo://app?vid=9867593a-b77c-4846-ad67-1bdbd8f5fb86"},"vehicle_type_id":"4","last_reported":1732982989,"current_range_meters":24400,"station_id":"ce4bhu92rcd13ifvqi70","pricing_plan_id":"cebpf4jnsgd1na2vs0mg"},