{"last_updated":1730553233,"ttl":60,"version":"2.2","data":{"bikes":[{"bike_id":"e56120f1-3807-41fd-8d4a-7abc85cc6b48","system_id":"levelo_inurba_marseille","lat":43.28316,"lon":5.35117,"is_reserved":false,"is_disabled":false,"rental_uris":{"android":"levelo://app?vid=e56120f1-3807-41fd-8d4a-7abc85cc6b48","ios":"levelo://app?vid=e56120f1-3807-41fd-8d4a-7abc85cc6b48"},"vehicle_type_id":"4","last_reported":1730553233,"current_range_meters":38800,"station_id":"","pricing_plan_id":"cebpf4jnsgd1na2vs0mg"},{"bike_id":"8edb629f-9edb-4e6d-8453-3a06eb0fc1e0","system_id":"levelo_inurba_marseille","lat":43.24672,"lon":5.38167,"is_reserved":false,"is_disabled":false,"rental_uris":{"android":"levelo://app?vid=8edb629f-9edb-4e6d-8453-3a06eb0fc1e0","ios":"levelo://app?vid=8edb629f-9edb-4e6d-8453-3a06eb0fc1e0"},"vehicle_type_id":"4","last_reported":1730553233,"current_range_meters":28400,"station_id":"ce4bhih2rcd13ifvqfr0","pricing_plan_id":"cebpf4jnsgd1na2vs0mg"},{"bike_id":"5f81446b-adb5-453c-9f04-5ba72f630bbd","system_id":"levelo_inurba_marseille","lat":43.30605,"lon":5.37216,"is_reserved":false,"is_disabled":false,"rental_uris":{"android":"levelo://app?vid=5f81446b-adb5-453c-9f04-5ba72f630bbd","ios":"levelo://app?vid=5f81446b-adb5-453c-9f04-5ba72f630bbd"},"vehicle_type_id":"4","last_reported":1730553233,"current_range_meters":25600,"station_id":"ce4bgqh2rcd13ifvqc4g","pricing_plan_id":"cebpf4jnsgd1na2vs0mg"},{"bike_id":"02fe0e86-bc31-4b56-981a-890ed6cd1c76","system_id":"levelo_inurba_marseille","lat":43.32662,"lon":5.40984,"is_reserved":false,"is_disabled":false,"rental_uris":{"android":"levelo://app?vid=02fe0e86-bc31-4b56-981a-890ed6cd1c76","ios":"levelo://app?vid=02fe0e86-bc31-4b56-981a-890ed6cd1c76"},"vehicle_type_id":"4","last_reported":1730553233,"current_range_meters":8400,"station_id":"ce4bhpp2rcd13ifvqhgg","pricing_plan_id":"cebpf4jnsgd1na2vs0mg"},{"bike_id":"8682c02d-b75e-4986-bf40-c0b0cf6578e7","system_id":"levelo_inurba_marseille","lat":43.32104,"lon":5.36765,"is_reserved":false,"is_disabled":false,"rental_uris":{"android":"levelo://app?vid=8682c02d-b75e-4986-bf40-c0b0cf6578e7","ios":"levelo://app?vid=8682c02d-b75e-4986-bf40-c0b0cf6578e7"},"vehicle_type_id":"4","last_reported":1730553233,"current_range_meters":38000,"station_id":"ce4bhrh2rcd13ifvqhug","pricing_plan_id":"cebpf4jnsgd1na2vs0mg"},{"bike_id":"dbd026cc-4570-4761-bfa1-68dae00b3a97","system_id":"levelo_inurba_marseille","lat":43.30528,"lon":5.3654,"is_reserved":false,"is_disabled":false,"rental_uris":{"android":"levelo://app?vid=dbd026cc-4570-4761-bfa1-68dae00b3a97","ios":"levelo://app?vid=dbd026cc-4570-4761-bfa1-68dae00b3a97"},"vehicle_type_id":"4","last_reported":1730553233,"current_range_meters":39200,"station_id":"ce4bgs12rcd13ifvqcag","pricing_plan_id":"cebpf4jnsgd1na2vs0mg"},{"bike_id":"9544e8e1-810b-40e5-8e45-0e98bf35fbaa","system_id":"levelo_inurba_marseille","lat":43.30139,"lon":5.37411,"is_reserved":false,"is_disabled":false,"rental_uris":{"android":"levelo://app?vid=9544e8e1-810b-40e5-8e45-0e98bf35fbaa","ios":"levelo://app?vid=9544e8e1-810b-40e5-8e45-0e98bf35fbaa"},"vehicle_type_id":"4","last_reported":1730553233,"current_range_meters":38000,"station_id":"ce4bgs92rcd13ifvqcc0","pricing_plan_id":"cebpf4jnsgd1na2vs0mg"},{"bike_id":"1c7235cb-2316-4435-98f3-50e51cf4474c","system_id":"levelo_inurba_marseille","lat":43.26556,"lon":5.37285,"is_reserved":false,"is_disabled":false,"rental_uris":{"android":"levelo://app?vid=1c7235cb-2316-4435-98f3-50e51cf4474c","ios":"levelo://app?vid=1c7235cb-2316-4435-98f3-50e51cf4474c"},"vehicle_type_id":"4","last_reported":1730553233,"current_range_meters":8000,"station_id":"ce4bhg12rcd13ifvqf70","pricing_plan_id":"cebpf4jnsgd1na2vs0mg"},{"bike_id":"ae2ccb33-795f-44d2-a6c0-9c58090a88ce","system_id":"levelo_inurba_marseille","lat":43.2439,"lon":5.37045,"is_reserved":false,"is_disabled":false,"rental_uris":{"android":"levelo://app?vid=ae2ccb33-795f-44d2-a6c0-9c58090a88ce","ios":"levelo://app?vid=ae2ccb33-795f-44d2-a6c0-9c58090a88ce"},"vehicle_type_id":"4","last_reported":1730553233,"current_range_meters":32400,"station_id":"ce4bhhh2rcd13ifvqfk0","pricing_plan_id":"cebpf4jnsgd1na2vs0mg"},{"bike_id":"da5c5225-0a62-404a-96f6-4ffb369ababc","system_id":"levelo_inurba_marseille","lat":43.28943,"lon":5.36393,"is_reserved":false,"is_disabled":false,"rental_uris":{"android":"levelo://app?vid=da5c5225-0a62-404a-96f6-4ffb369ababc","ios":"levelo://app?vid=da5c5225-0a62-404a-96f6-4ffb369ababc"},"vehicle_type_id":"4","last_reported":1730553233,"current_range_meters":23200,"station_id":"ce4bhc92rcd13ifvqetg","pricing_plan_id":"cebpf4jnsgd1na2vs0mg"},{"bike_id":"615d6bf6-418b-485f-937b-5a225c4b34f6","system_id":"levelo_inurba_marseille","lat":43.30464,"lon":5.379,"is_reserved":false,"is_disabled":false,"rental_uris":{"android":"levelo://app?vid=615d6bf6-418b-485f-937b-5a225c4b34f6","ios":"levelo://app?vid=615d6bf6-418b-485f-937b-5a225c4b34f6"},"vehicle_type_id":"4","last_reported":1730553233,"current_range_meters":34000,"station_id":"ce4bgup2rcd13ifvqcn0","pricing_plan_id":"cebpf4jnsgd1na2vs0mg"},{"bike_id":"cd3e86ad-d45b-4da8-8cd7-1ab0a47373f2","system_id":"levelo_inurba_marseille","lat":43.25718,"lon":5.41109,"is_reserved":false,"is_disabled":false,"rental_uris":{"android":"levelo://app?vid=cd3e86ad-d45b-4da8-8cd7-1ab0a47373f2","ios":"levelo://app?vid=cd3e86ad-d45b-4da8-8cd7-1ab0a47373f2"},"vehicle_type_id":"4","last_reported":1730553233,"current_range_meters":39200,"station_id":"ce4bhkp2rcd13ifvqgd0","pricing_plan_id":"cebpf4jnsgd1na2vs0mg"},{"bike_id":"a71573e1-5d24-449d-80b4-79cc50811424","system_id":"levelo_inurba_marseille","lat":43.22924,"lon":5.35375,"is_reserved":false,"is_disabled":false,"rental_uris":{"android":"levelo://app?vid=a71573e1-5d24-449d-80b4-79cc50811424","ios":"levelo://app?vid=a71573e1-5d24-449d-80b4-79cc50811424"},"vehicle_type_id":"4","last_reported":1730553233,"current_range_meters":11600,"station_id":"cpo3532slgdg3j2ikp40","pricing_plan_id":"cebpf4jnsgd1na2vs0mg"},{"bike_id":"57b2acd9-d201-4ef1-a77f-836fd086c08f","system_id":"levelo_inurba_marseille","lat":43.26941,"lon":5.40248,"is_reserved":false,"is_disabled":false,"rental_uris":{"android":"levelo://app?vid=57b2acd9-d201-4ef1-a77f-836fd086c08f","ios":"levelo://app?vid=57b2acd9-d201-4ef1-a77f-836fd086c08f"},"vehicle_type_id":"4","last_reported":1730553233,"current_range_meters":34000,"station_id":"cjm6bp8fraef2m0cb0m0","pricing_plan_id":"cebpf4jnsgd1na2vs0mg"},{"bike_id":"a4627486-a087-47d1-bdea-e9476cd49986","system_id":"levelo_inurba_marseille","lat":43.23196,"lon":5.3555,"is_reserved":false,"is_disabled":false,"rental_uris":{"android":"levelo://app?vid=a4627486-a087-47d1-bdea-e9476cd49986","ios":"levelo://app?vid=a4627486-a087-47d1-bdea-e9476cd49986"},"vehicle_type_id":"4","last_reported":1730553233,"current_range_meters":27600,"station_id":"ce4bhu92rcd13ifvqi70","pricing_plan_id":"cebpf4jnsgd1na2vs0mg"},{"bike_id":"ba4ebf43-3c31-4e02-8eb1-dd880fe954e8","system_id":"levelo_inurba_marseille","lat":43.23968,"lon":5.36628,"is_reserved":false,"is_disabled":false,"rental_uris":{"android":"levelo://app?vid=ba4ebf43-3c31-4e02-8eb1-dd880fe954e8","ios":"levelo://app?vid=ba4ebf43-3c31-4e02-8eb1-dd880fe954e8"},"vehicle_type_id":"4","last_reported":1730553233,"current_range_meters":19600,"station_id":"ce4bhi12rcd13ifvqfp0","pricing_plan_id":"cebpf4jnsgd1na2vs0mg"},{"bike_id":"509a9bdc-ca48-4855-8040-748bb9b3087b","system_id":"levelo_inurba_marseille","lat":43.25934,"lon":5.409,"is_reserved":false,"is_disabled":false,"rental_uris":{"android":"levelo://app?vid=509a9bdc-ca48-4855-8040-748bb9b3087b","ios":"levelo://app?vid=509a9bdc-ca48-4855-8040-748bb9b3087b"},"vehicle_type_id":"4","last_reported":1730553233,"current_range_meters":20000,"station_id":"ce4bhm92rcd13ifvqglg","pricing_plan_id":"cebpf4jnsgd1na2vs0mg"},{"bike_id":"2b2e6e87-bd18-4a7a-a7c7-3db057ae8e16","system_id":"levelo_inurba_marseille","lat":43.29623,"lon":5.37144,"is_reserved":false,"is_disabled":false,"rental_uris":{"android":"levelo://app?vid=2b2e6e87-bd18-4a7a-a7c7-3db057ae8e16","ios":"levelo://app?vid=2b2e6e87-bd18-4a7a-a7c7-3db057ae8e16"},"vehicle_type_id":"4","last_reported":1730553233,"current_range_meters":38800,"station_id":"ce4bgnh2rcd13ifvqc0g","pricing_plan_id":"cebpf4jnsgd1na2vs0mg"},{"bike_id":"8c6509b6-8196-4470-b566-6dbaf324417d","system_id":"levelo_inurba_marseille","lat":43.30477,"lon":5.37911,"is_reserved":false,"is_disabled":false,"rental_uris":{"android":"levelo://app?vid=8c6509b6-8196-4470-b566-6dbaf324417d","ios":"levelo://app?vid=8c6509b6-8196-4470-b566-6dbaf324417d"},"vehicle_type_id":"4","last_reported":1730553233,"current_range_meters":38800,"station_id":"ce4bgup2rcd13ifvqcn0","pricing_plan_id":"cebpf4jnsgd1na2vs0mg"},{"bike_id":"fa53ac64-7517-440a-bf1a-5d2b6b1d37c6","system_id":"levelo_inurba_marseille","lat":43.281646,"lon":5.425405,"is_reserved":false,"is_disabled":false,"rental_uris":{"android":"levelo://app?vid=fa53ac64-7517-440a-bf1a-5d2b6b1d37c6","ios":"levelo://app?vid=fa53ac64-7517-440a-bf1a-5d2b6b1d37c6"},"vehicle_type_id":"4","last_reported":1730553233,"current_range_meters":4400,"station_id":"ce4bhnh2rcd13ifvqgug","pricing_plan_id":"cebpf4jnsgd1na2vs0mg"},{"bike_id":"c728b923-65ff-4f3c-af65-445c0ab5ad59","system_id":"levelo_inurba_marseille","lat":43.28615,"lon":5.35094,"is_reserved":false,"is_disabled":false,"rental_uris":{"android":"levelo://app?vid=c728b923-65ff-4f3c-af65-445c0ab5ad59","ios":"levelo://app?vid=c728b923-65ff-4f3c-af65-445c0ab5ad59"},"vehicle_type_id":"4","last_reported":1730553233,"current_range_meters":34800,"station_id":"ce4bhch2rcd13ifvqeug","pricing_plan_id":"cebpf4jnsgd1na2vs0mg"},{"bike_id":"6aee0ce1-c7a0-45e8-a515-069ca31b3763","system_id":"levelo_inurba_marseille","lat":43.25735,"lon":5.41115,"is_reserved":false,"is_disabled":false,"rental_uris":{"android":"levelo://app?vid=6aee0ce1-c7a0-45e8-a515-069ca31b3763","ios":"levelo://app?vid=6aee0ce1-c7a0-45e8-a515-069ca31b3763"},"vehicle_type_id":"4","last_reported":1730553233,"current_range_meters":38000,"station_id":"ce4bhkp2rcd13ifvqgd0","pricing_plan_id":"cebpf4jnsgd1na2vs0mg"},{"bike_id":"03ecf539-acfb-438e-8e4a-2d04df101460","system_id":"levelo_inurba_marseille","lat":43.25492,"lon":5.37647,"is_reserved":false,"is_disabled":false,"rental_uris":{"android":"levelo://app?vid=03ecf539-acfb-438e-8e4a-2d04df101460","ios":"levelo://app?vid=03ecf539-acfb-438e-8e4a-2d04df101460"},"vehicle_type_id":"4","last_reported":1730553233,"current_range_meters":36400,"station_id":"ce4bhh12rcd13ifvqff0","pricing_plan_id":"cebpf4jnsgd1na2vs0mg"},{"bike_id":"5ab17023-8660-410b-88a5-127d565b058c","system_id":"levelo_inurba_marseille","lat":43.24164,"lon":5.36395,"is_reserved":false,"is_disabled":false,"rental_uris":{"android":"levelo://app?vid=5ab17023-8660-410b-88a5-127d565b058c","ios":"levelo://app?vid=5ab17023-8660-410b-88a5-127d565b058c"},"vehicle_type_id":"4","last_reported":1730553233,"current_range_meters":20000,"station_id":"cpo36qri1sfpv3e86is0","pricing_plan_id":"cebpf4jnsgd1na2vs0mg"},{"bike_id":"7d467372-7059-4321-81bc-a3b8c1dcaf52","system_id":"levelo_inurba_marseille","lat":43.29841,"lon":5.36257,"is_reserved":false,"is_disabled":false,"rental_uris":{"android":"levelo://app?vid=7d467372-7059-4321-81bc-a3b8c1dcaf52","ios":"levelo://app?vid=7d467372-7059-4321-81bc-a3b8c1dcaf52"},"vehicle_type_id":"4","last_reported":1730553233,"current_range_meters":36400,"station_id":"ce4bgpp2rcd13ifvqc3g","pricing_plan_id":"cebpf4jnsgd1na2vs0mg"},{"bike_id":"1c6c4ea4-1422-4f95-9fb3-989475604eaf","system_id":"levelo_inurba_marseille","lat":43.28272,"lon":5.35067,"is_reserved":false,"is_disabled":false,"rental_uris":{"android":"levelo://app?vid=1c6c4ea4-1422-4f95-9fb3-989475604eaf","ios":"levelo://app?vid=1c6c4ea4-1422-4f95-9fb3-989475604eaf"},"vehicle_type_id":"4","last_reported":1730553233,"current_range_meters":37600,"station_id":"ce4bhbp2rcd13ifvqerg","pricing_plan_id":"cebpf4jnsgd1na2vs0mg"},{"bike_id":"4f0de445-15e8-4d4f-b6cb-dd85cf93ce95","system_id":"levelo_inurba_marseille","lat":43.298128,"lon":5.362654,"is_reserved":false,"is_disabled":false,"rental_uris":{"android":"levelo://app?vid=4f0de445-15e8-4d4f-b6cb-dd85cf93ce95","ios":"levelo://app?vid=4f0de445-15e8-4d4f-b6cb-dd85cf93ce95"},"vehicle_type_id":"4","last_reported":1730553233,"current_range_meters":38800,"station_id":"ce4bgpp2rcd13ifvqc3g","pricing_plan_id":"cebpf4jnsgd1na2vs0mg"},{"bike_id":"6a3339db-c53d-45a1-98c0-a0f5852c6361","system_id":"levelo_inurba_marseille","lat":43.30547,"lon":5.36539,"is_reserved":false,"is_disabled":false,"rental_uris":{"android":"levelo://app?vid=6a3339db-c53d-45a1-98c0-a0f5852c6361","ios":"levelo://app?vid=6a3339db-c53d-45a1-98c0-a0f5852c6361"},"vehicle_type_id":"4","last_reported":1730553233,"current_range_meters":25600,"station_id":"ce4bgs12rcd13ifvqcag","pricing_plan_id":"cebpf4jnsgd1na2vs0mg"},{"bike_id":"9db30f62-ee12-4d89-b5f5-8607682ee123","system_id":"levelo_inurba_marseille","lat":43.25097,"lon":5.40332,"is_reserved":false,"is_disabled":false,"rental_uris":{"android":"levelo://app?vid=9db30f62-ee12-4d89-b5f5-8607682ee123","ios":"levelo://app?vid=9db30f62-ee12-4d89-b5f5-8607682ee123"},"vehicle_type_id":"4","last_reported":1730553233,"current_range_meters":16800,"station_id":"ce4bhlh2rcd13ifvqgig","pricing_plan_id":"cebpf4jnsgd1na2vs0mg"},{"bike_id":"4e1948bc-c4e3-4e60-8835-d443e9d859a0","system_id":"levelo_inurba_marseille","lat":43.26954,"lon":5.38637,"is_reserved":false,"is_disabled":false,"rental_uris":{"android":"levelo://app?vid=4e1948bc-c4e3-4e60-8835-d443e9d859a0","ios":"levelo://app?vid=4e1948bc-c4e3-4e60-8835-d443e9d859a0"},"vehicle_type_id":"4","last_reported":1730553233,"current_range_meters":36800,"station_id":"ce4bhh92rcd13ifvqfh0","pricing_plan_id":"cebpf4jnsgd1na2vs0mg"},{"bike_id":"7f39b1a9-937f-4de6-9cb9-6fb824b11a9d","system_id":"levelo_inurba_marseille","lat":43.29276,"lon":5.3684,"is_reserved":false,"is_disabled":false,"rental_uris":{"android":"levelo://app?vid=7f39b1a9-937f-4de6-9cb9-6fb824b11a9d","ios":"levelo://app?vid=7f39b1a9-937f-4de6-9cb9-6fb824b11a9d"},"vehicle_type_id":"4","last_reported":1730553233,"current_range_meters":30400,"station_id":"ce4bhbp2rcd13ifvqesg","pricing_plan_id":"cebpf4jnsgd1na2vs0mg"},{"bike_id":"c0f9e7cc-9311-4a80-a452-3ffec7c1659e","system_id":"levelo_inurba_marseille","lat":43.25865,"lon":5.39899,"is_reserved":false,"is_disabled":false,"rental_uris":{"android":"levelo://app?vid=c0f9e7cc-9311-4a80-a452-3ffec7c1659e","ios":"levelo://app?vid=c0f9e7cc-9311-4a80-a452-3ffec7c1659e"},"vehicle_type_id":"4","last_reported":1730553233,"current_range_meters":24800,"station_id":"ce4bhl92rcd13ifvqghg","pricing_plan_id":"cebpf4jnsgd1na2vs0mg"},{"bike_id":"3e3d6b34-3003-4583-8ce8-0aa2cc21ec4d","system_id":"levelo_inurba_marseille","lat":43.24175,"lon":5.3972,"is_reserved":false,"is_disabled":false,"rental_uris":{"android":"levelo://app?vid=3e3d6b34-3003-4583-8ce8-0aa2cc21ec4d","ios":"levelo://app?vid=3e3d6b34-3003-4583-8ce8-0aa2cc21ec4d"},"vehicle_type_id":"4","last_reported":1730553233,"current_range_meters":22000,"station_id":"ce4bhn12rcd13ifvqgpg","pricing_plan_id":"cebpf4jnsgd1na2vs0mg"},{"bike_id":"d451d28d-010b-4a6d-8180-76be35e28442","system_id":"levelo_inurba_marseille","lat":43.29306,"lon":5.37176,"is_reserved":false,"is_disabled":false,"rental_uris":{"android":"levelo://app?vid=d451d28d-010b-4a6d-8180-76be35e28442","ios":"levelo://app?vid=d451d28d-010b-4a6d-8180-76be35e28442"},"vehicle_type_id":"4","last_reported":1730553233,"current_range_meters":18000,"station_id":"ce4bgh92rcd13ifvqb40","pricing_plan_id":"cebpf4jnsgd1na2vs0mg"},{"bike_id":"a27537a9-293c-4729-b529-ba852433eb62","system_id":"levelo_inurba_marseille","lat":43.28266,"lon":5.35071,"is_reserved":false,"is_disabled":false,"rental_uris":{"android":"levelo://app?vid=a27537a9-293c-4729-b529-ba852433eb62","ios":"levelo://app?vid=a27537a9-293c-4729-b529-ba852433eb62"},"vehicle_type_id":"4","last_reported":1730553233,"current_range_meters":25600,"station_id":"ce4bhbp2rcd13ifvqerg","pricing_plan_id":"cebpf4jnsgd1na2vs0mg"},{"bike_id":"816cad8b-7286-4b17-b954-dbb02e3d5f71","system_id":"levelo_inurba_marseille","lat":43.29217,"lon":5.36061,"is_reserved":false,"is_disabled":false,"rental_uris":{"android":"levelo://app?vid=816cad8b-7286-4b17-b954-dbb02e3d5f71","ios":"levelo://app?vid=816cad8b-7286-4b17-b954-dbb02e3d5f71"},"vehicle_type_id":"4","last_reported":1730553233,"current_range_meters":20800,"station_id":"ce4bhbh2rcd13ifvqeqg","pricing_plan_id":"cebpf4jnsgd1na2vs0mg"},{"bike_id":"dccc613c-7c9d-44fc-9625-47ccbc365073","system_id":"levelo_inurba_marseille","lat":43.27487,"lon":5.4246,"is_reserved":false,"is_disabled":false,"rental_uris":{"android":"levelo://app?vid=dccc613c-7c9d-44fc-9625-47ccbc365073","ios":"levelo://app?vid=dccc613c-7c9d-44fc-9625-47ccbc365073"},"vehicle_type_id":"4","last_reported":1730553233,"current_range_meters":36400,"station_id":"ce4bhn92rcd13ifvqgrg","pricing_plan_id":"cebpf4jnsgd1na2vs0mg"},{"bike_id":"549e7ab6-15e3-44bd-98eb-0716ad079af3","system_id":"levelo_inurba_marseille","lat":43.3049,"lon":5.37273,"is_reserved":false,"is_disabled":false,"rental_uris":{"android":"levelo://app?vid=549e7ab6-15e3-44bd-98eb-0716ad079af3","ios":"levelo://app?vid=549e7ab6-15e3-44bd-98eb-0716ad079af3"},"vehicle_type_id":"4","last_reported":1730553233,"current_range_meters":23200,"station_id":"ce4bgqh2rcd13ifvqc4g","pricing_plan_id":"cebpf4jnsgd1na2vs0mg"},{"bike_id":"ccd1338c-efb3-4089-b4d9-e3275f404fd1","system_id":"levelo_inurba_marseille","lat":43.30422,"lon":5.4129,"is_reserved":false,"is_disabled":false,"rental_uris":{"android":"levelo://app?vid=ccd1338c-efb3-4089-b4d9-e3275f404fd1","ios":"levelo://app?vid=ccd1338c-efb3-4089-b4d9-e3275f404fd1"},"vehicle_type_id":"4","last_reported":1730553233,"current_range_meters":31200,"station_id":"ce4bhop2rcd13ifvqh8g","pricing_plan_id":"cebpf4jnsgd1na2vs0mg"},{"bike_id":"80380532-68c2-4c6a-b44b-6a09f25c96fe","system_id":"levelo_inurba_marseille","lat":43.31692,"lon":5.40465,"is_reserved":false,"is_disabled":false,"rental_uris":{"android":"levelo://app?vid=80380532-68c2-4c6a-b44b-6a09f25c96fe","ios":"levelo://app?vid=80380532-68c2-4c6a-b44b-6a09f25c96fe"},"vehicle_type_id":"4","last_reported":1730553233,"current_range_meters":38800,"station_id":"ce4bh012rcd13ifvqd00","pricing_plan_id":"cebpf4jnsgd1na2vs0mg"},{"bike_id":"be1feba6-35d4-44b1-9976-713edcd5e015","system_id":"levelo_inurba_marseille","lat":43.29615,"lon":5.3772,"is_reserved":false,"is_disabled":false,"rental_uris":{"android":"levelo://app?vid=be1feba6-35d4-44b1-9976-713edcd5e015","ios":"levelo://app?vid=be1feba6-35d4-44b1-9976-713edcd5e015"},"vehicle_type_id":"4","last_reported":1730553233,"current_range_meters":32000,"station_id":"ce4bgi92rcd13ifvqb90","pricing_plan_id":"cebpf4jnsgd1na2vs0mg"},{"bike_id":"3bb0c8ba-3af3-4d92-b02c-d1bc4504941b","system_id":"levelo_inurba_marseille","lat":43.27379,"lon":5.36257,"is_reserved":false,"is_disabled":false,"rental_uris":{"android":"levelo://app?vid=3bb0c8ba-3af3-4d92-b02c-d1bc4504941b","ios":"levelo://app?vid=3bb0c8ba-3af3-4d92-b02c-d1bc4504941b"},"vehicle_type_id":"4","last_reported":1730553233,"current_range_meters":18000,"station_id":"ce4bhbh2rcd13ifvqeo0","pricing_plan_id":"cebpf4jnsgd1na2vs0mg"},{"bike_id":"ad27a309-825b-48cf-b531-54c6b8b4f6b8","system_id":"levelo_inurba_marseille","lat":43.27616,"lon":5.36107,"is_reserved":false,"is_disabled":false,"rental_uris":{"android":"levelo://app?vid=ad27a309-825b-48cf-b531-54c6b8b4f6b8","ios":"levelo://app?vid=ad27a309-825b-48cf-b531-54c6b8b4f6b8"},"vehicle_type_id":"4","last_reported":1730553233,"current_range_meters":7200,"station_id":"ce4bgj92rcd13ifvqbe0","pricing_plan_id":"cebpf4jnsgd1na2vs0mg"},{"bike_id":"c9c5d1b8-e098-419c-8872-b35296cf4983","system_id":"levelo_inurba_marseille","lat":43.26678,"lon":5.38267,"is_reserved":false,"is_disabled":false,"rental_uris":{"android":"levelo://app?vid=c9c5d1b8-e098-419c-8872-b35296cf4983","ios":"levelo://app?vid=c9c5d1b8-e098-419c-8872-b35296cf4983"},"vehicle_type_id":"4","last_reported":1730553233,"current_range_meters":39200,"station_id":"ce4bhg92rcd13ifvqf90","pricing_plan_id":"cebpf4jnsgd1na2vs0mg"},{"bike_id":"89ffde5e-ffb4-4d30-a6ac-8de976e2f8f5","system_id":"levelo_inurba_marseille","lat":43.27205,"lon":5.39179,"is_reserved":false,"is_disabled":false,"rental_uris":{"android":"levelo://app?vid=89ffde5e-ffb4-4d30-a6ac-8de976e2f8f5","ios":"levelo://app?vid=89ffde5e-ffb4-4d30-a6ac-8de976e2f8f5"},"vehicle_type_id":"4","last_reported":1730553233,"current_range_meters":20000,"station_id":"ce4bhhp2rcd13ifvqfm0","pricing_plan_id":"cebpf4jnsgd1na2vs0mg"},{"bike_id":"54f828de-bde7-4c99-bb2b-f8a5f8c5167e","system_id":"levelo_inurba_marseille","lat":43.29292,"lon":5.37449,"is_reserved":false,"is_disabled":false,"rental_uris":{"android":"levelo://app?vid=54f828de-bde7-4c99-bb2b-f8a5f8c5167e","ios":"levelo://app?vid=54f828de-bde7-4c99-bb2b-f8a5f8c5167e"},"vehicle_type_id":"4","last_reported":1730553233,"current_range_meters":27200,"station_id":"ce4bgi12rcd13ifvqb70","pricing_plan_id":"cebpf4jnsgd1na2vs0mg"},{"bike_id":"4dd74b80-423d-4a82-8b5a-fef5ebd97f46","system_id":"levelo_inurba_marseille","lat":43.24385,"lon":5.37056,"is_reserved":false,"is_disabled":false,"rental_uris":{"android":"levelo://app?vid=4dd74b80-423d-4a82-8b5a-fef5ebd97f46","ios":"levelo://app?vid=4dd74b80-423d-4a82-8b5a-fef5ebd97f46"},"vehicle_type_id":"4","last_reported":1730553233,"current_range_meters":22400,"station_id":"ce4bhhh2rcd13ifvqfk0","pricing_plan_id":"cebpf4jnsgd1na2vs0mg"},{"bike_id":"6e04ac4c-c8e9-4c42-b357-81938231659f","system_id":"levelo_inurba_marseille","lat":43.26558,"lon":5.37283,"is_reserved":false,"is_disabled":false,"rental_uris":{"android":"levelo://app?vid=6e04ac4c-c8e9-4c42-b357-81938231659f","ios":"levelo://app?vid=6e04ac4c-c8e9-4c42-b357-81938231659f"},"vehicle_type_id":"4","last_reported":1730553233,"current_range_meters":38800,"station_id":"ce4bhg12rcd13ifvqf70","pricing_plan_id":"cebpf4jnsgd1na2vs0mg"},{"bike_id":"0be1909c-b049-4aa6-a097-696d5d3e5187","system_id":"levelo_inurba_marseille","lat":43.2979,"lon":5.37104,"is_reserved":false,"is_disabled":false,"rental_uris":{"android":"levelo://app?vid=0be1909c-b049-4aa6-a097-696d5d3e5187","ios":"levelo://app?vid=0be1909c-b049-4aa6-a097-696d5d3e5187"},"vehicle_type_id":"4","last_reported":1730553233,"current_range_meters":17600,"station_id":"ce4bgop2rcd13ifvqc1g","pricing_plan_id":"cebpf4jnsgd1na2vs0mg"},{"bike_id":"5e3a44bd-1851-41e5-b005-ef6a0ea7229d","system_id":"levelo_inurba_marseille","lat":43.28652,"lon":5.36348,"is_reserved":false,"is_disabled":false,"rental_uris":{"android":"levelo://app?vid=5e3a44bd-1851-41e5-b005-ef6a0ea7229d","ios":"levelo://app?vid=5e3a44bd-1851-41e5-b005-ef6a0ea7229d"},"vehicle_type_id":"4","last_reported":1730553233,"current_range_meters":11200,"station_id":"ce4bhah2rcd13ifvqej0","pricing_plan_id":"cebpf4jnsgd1na2vs0mg"},{"bike_id":"ba745c96-3de6-45f0-92b1-f41c3a9382aa","system_id":"levelo_inurba_marseille","lat":43.2549,"lon":5.37645,"is_reserved":false,"is_disabled":false,"rental_uris":{"android":"levelo://app?vid=ba745c96-3de6-45f0-92b1-f41c3a9382aa","ios":"levelo://app?vid=ba745c96-3de6-45f0-92b1-f41c3a9382aa"},"vehicle_type_id":"4","last_reported":1730553233,"current_range_meters":12400,"station_id":"ce4bhh12rcd13ifvqff0","pricing_plan_id":"cebpf4jnsgd1na2vs0mg"},{"bike_id":"2625dfc5-7460-41aa-af7d-c70d13d89a6d","system_id":"levelo_inurba_marseille","lat":43.31362,"lon":5.38487,"is_reserved":false,"is_disabled":false,"rental_uris":{"android":"levelo://app?vid=2625dfc5-7460-41aa-af7d-c70d13d89a6d","ios":"levelo://app?vid=2625dfc5-7460-41aa-af7d-c70d13d89a6d"},"vehicle_type_id":"4","last_reported":1730553233,"current_range_meters":38800,"station_id":"ce4bgt92rcd13ifvqcf0","pricing_plan_id":"cebpf4jnsgd1na2vs0mg"},{"bike_id":"39be4061-4f3f-4a23-8131-369bba8f1d61","system_id":"levelo_inurba_marseille","lat":43.27668,"lon":5.38883,"is_reserved":false,"is_disabled":false,"rental_uris":{"android":"levelo://app?vid=39be4061-4f3f-4a23-8131-369bba8f1d61","ios":"levelo://app?vid=39be4061-4f3f-4a23-8131-369bba8f1d61"},"vehicle_type_id":"4","last_reported":1730553233,"current_range_meters":6400,"station_id":"ce4bhi12rcd13ifvqfo0","pricing_plan_id":"cebpf4jnsgd1na2vs0mg"},{"bike_id":"2e22b1c1-91d6-49fb-8b92-65824dbe5708","system_id":"levelo_inurba_marseille","lat":43.29225,"lon":5.36059,"is_reserved":false,"is_disabled":false,"rental_uris":{"android":"levelo://app?vid=2e22b1c1-91d6-49fb-8b92-65824dbe5708","ios":"levelo://app?vid=2e22b1c1-91d6-49fb-8b92-65824dbe5708"},"vehicle_type_id":"4","last_reported":1730553233,"current_range_meters":14800,"station_id":"ce4bhbh2rcd13ifvqeqg","pricing_plan_id":"cebpf4jnsgd1na2vs0mg"},{"bike_id":"cd9c51c3-66f1-4423-a637-2a576f24f89d","system_id":"levelo_inurba_marseille","lat":43.27068,"lon":5.42274,"is_reserved":false,"is_disabled":false,"rental_uris":{"android":"levelo://app?vid=cd9c51c3-66f1-4423-a637-2a576f24f89d","ios":"levelo://app?vid=cd9c51c3-66f1-4423-a637-2a576f24f89d"},"vehicle_type_id":"4","last_reported":1730553233,"current_range_meters":11200,"station_id":"ce4bhk92rcd13ifvqgb0","pricing_plan_id":"cebpf4jnsgd1na2vs0mg"},{"bike_id":"7ae89f74-df1b-4053-8ff0-ae2dd7c2848a","system_id":"levelo_inurba_marseille","lat":43.3028,"lon":5.37702,"is_reserved":false,"is_disabled":false,"rental_uris":{"android":"levelo://app?vid=7ae89f74-df1b-4053-8ff0-ae2dd7c2848a","ios":"levelo://app?vid=7ae89f74-df1b-4053-8ff0-ae2dd7c2848a"},"vehicle_type_id":"4","last_reported":1730553233,"current_range_meters":22400,"station_id":"ce4bguh2rcd13ifvqcj0","pricing_plan_id":"cebpf4jnsgd1na2vs0mg"},{"bike_id":"d69eef29-33f1-400b-9dbd-e583b4f600d8","system_id":"levelo_inurba_marseille","lat":43.24655,"lon":5.38893,"is_reserved":false,"is_disabled":false,"rental_uris":{"android":"levelo://app?vid=d69eef29-33f1-400b-9dbd-e583b4f600d8","ios":"levelo://app?vid=d69eef29-33f1-400b-9dbd-e583b4f600d8"},"vehicle_type_id":"4","last_reported":1730553233,"current_range_meters":38800,"station_id":"ce4bhg12rcd13ifvqf60","pricing_plan_id":"cebpf4jnsgd1na2vs0mg"},{"bike_id":"eb7ad57f-44c5-453a-818a-9d84e7a936ef","system_id":"levelo_inurba_marseille","lat":43.30537,"lon":5.36546,"is_reserved":false,"is_disabled":false,"rental_uris":{"android":"levelo://app?vid=eb7ad57f-44c5-453a-818a-9d84e7a936ef","ios":"levelo://app?vid=eb7ad57f-44c5-453a-818a-9d84e7a936ef"},"vehicle_type_id":"4","last_reported":1730553233,"current_range_meters":25600,"station_id":"ce4bgs12rcd13ifvqcag","pricing_plan_id":"cebpf4jnsgd1na2vs0mg"},{"bike_id":"e515cc14-ec45-4493-a6ef-e8658b9cbc95","system_id":"levelo_inurba_marseille","lat":43.26207,"lon":5.37921,"is_reserved":false,"is_disabled":false,"rental_uris":{"android":"levelo://app?vid=e515cc14-ec45-4493-a6ef-e8658b9cbc95","ios":"levelo://app?vid=e515cc14-ec45-4493-a6ef-e8658b9cbc95"},"vehicle_type_id":"4","last_reported":1730553233,"current_range_meters":38400,"station_id":"ce4bhjp2rcd13ifvqg90","pricing_plan_id":"cebpf4jnsgd1na2vs0mg"},{"bike_id":"3c9b25a2-27ea-4952-ae38-cfc4538da70c","system_id":"levelo_inurba_marseille","lat":43.24173,"lon":5.36392,"is_reserved":false,"is_disabled":false,"rental_uris":{"android":"levelo://app?vid=3c9b25a2-27ea-4952-ae38-cfc4538da70c","ios":"levelo://app?vid=3c9b25a2-27ea-4952-ae38-cfc4538da70c"},"vehicle_type_id":"4","last_reported":1730553233,"current_range_meters":27600,"station_id":"cpo36qri1sfpv3e86is0","pricing_plan_id":"cebpf4jnsgd1na2vs0mg"},{"bike_id":"99b34e1f-9e1b-4352-a35e-54e99460fdd9","system_id":"levelo_inurba_marseille","lat":43.28269,"lon":5.35076,"is_reserved":false,"is_disabled":false,"rental_uris":{"android":"levelo://app?vid=99b34e1f-9e1b-4352-a35e-54e99460fdd9","ios":"levelo://app?vid=99b34e1f-9e1b-4352-a35e-54e99460fdd9"},"vehicle_type_id":"4","last_reported":1730553233,"current_range_meters":28400,"station_id":"ce4bhbp2rcd13ifvqerg","pricing_plan_id":"cebpf4jnsgd1na2vs0mg"},{"bike_id":"658dacf4-7ef3-4634-8126-9bbd88e5a6eb","system_id":"levelo_inurba_marseille","lat":43.23196,"lon":5.35545,"is_reserved":false,"is_disabled":false,"rental_uris":{"android":"levelo://app?vid=658dacf4-7ef3-4634-8126-9bbd88e5a6eb","ios":"levelo://app?vid=658dacf4-7ef3-4634-8126-9bbd88e5a6eb"},"vehicle_type_id":"4","last_reported":1730553233,"current_range_meters":19600,"station_id":"ce4bhu92rcd13ifvqi70","pricing_plan_id":"cebpf4jnsgd1na2vs0mg"},{"bike_id":"430f7993-aa05-4df7-b267-ab76abe9b87b","system_id":"levelo_inurba_marseille","lat":43.26937,"lon":5.38914,"is_reserved":false,"is_disabled":false,"rental_uris":{"android":"levelo://app?vid=430f7993-aa05-4df7-b267-ab76abe9b87b","ios":"levelo://app?vid=430f7993-aa05-4df7-b267-ab76abe9b87b"},"vehicle_type_id":"4","last_reported":1730553233,"current_range_meters":16000,"station_id":"ce4bhhh2rcd13ifvqfl0","pricing_plan_id":"cebpf4jnsgd1na2vs0mg"},{"bike_id":"e62e38a9-284c-4b15-bfe8-8b214b98f04b","system_id":"levelo_inurba_marseille","lat":43.23061,"lon":5.35488,"is_reserved":false,"is_disabled":false,"rental_uris":{"android":"levelo://app?vid=e62e38a9-284c-4b15-bfe8-8b214b98f04b","ios":"levelo://app?vid=e62e38a9-284c-4b15-bfe8-8b214b98f04b"},"vehicle_type_id":"4","last_reported":1730553233,"current_range_meters":22000,"station_id":"cpo3342slgdg3j2ifvpg","pricing_plan_id":"cebpf4jnsgd1na2vs0mg"},{"bike_id":"17248b28-8f06-448b-adb7-c72f419e577e","system_id":"levelo_inurba_marseille","lat":43.25578,"lon":5.38227,"is_reserved":false,"is_disabled":false,"rental_uris":{"android":"levelo://app?vid=17248b28-8f06-448b-adb7-c72f419e577e","ios":"levelo://app?vid=17248b28-8f06-448b-adb7-c72f419e577e"},"vehicle_type_id":"4","last_reported":1730553233,"current_range_meters":9200,"station_id":"ce4bhih2rcd13ifvqfs0","pricing_plan_id":"cebpf4jnsgd1na2vs0mg"},{"bike_id":"fa1232ca-5715-42c4-984f-624a8552d886","system_id":"levelo_inurba_marseille","lat":43.32284,"lon":5.38273,"is_reserved":false,"is_disabled":false,"rental_uris":{"android":"levelo://app?vid=fa1232ca-5715-42c4-984f-624a8552d886","ios":"levelo://app?vid=fa1232ca-5715-42c4-984f-624a8552d886"},"vehicle_type_id":"4","last_reported":1730553233,"current_range_meters":38800,"station_id":"ce4bhr12rcd13ifvqhqg","pricing_plan_id":"cebpf4jnsgd1na2vs0mg"},{"bike_id":"378addf0-76a7-4c97-baa9-5c7edd0acca4","system_id":"levelo_inurba_marseille","lat":43.31695,"lon":5.40465,"is_reserved":false,"is_disabled":false,"rental_uris":{"android":"levelo://app?vid=378addf0-76a7-4c97-baa9-5c7edd0acca4","ios":"levelo://app?vid=378addf0-76a7-4c97-baa9-5c7edd0acca4"},"vehicle_type_id":"4","last_reported":1730553233,"current_range_meters":38800,"station_id":"ce4bh012rcd13ifvqd00","pricing_plan_id":"cebpf4jnsgd1na2vs0mg"},{"bike_id":"d53c1efc-1780-42b2-bd05-17084930abb0","system_id":"levelo_inurba_marseille","lat":43.312208,"lon":5.368476,"is_reserved":false,"is_disabled":false,"rental_uris":{"android":"levelo://app?vid=d53c1efc-1780-42b2-bd05-17084930abb0","ios":"levelo://app?vid=d53c1efc-1780-42b2-bd05-17084930abb0"},"vehicle_type_id":"4","last_reported":1730553233,"current_range_meters":38800,"station_id":"ce4bgl92rcd13ifvqbq0","pricing_plan_id":"cebpf4jnsgd1na2vs0mg"},{"bike_id":"f493fcf3-d01a-4471-8350-8f1edd0382a9","system_id":"levelo_inurba_marseille","lat":43.2316,"lon":5.43727,"is_reserved":false,"is_disabled":false,"rental_uris":{"android":"levelo://app?vid=f493fcf3-d01a-4471-8350-8f1edd0382a9","ios":"levelo://app?vid=f493fcf3-d01a-4471-8350-8f1edd0382a9"},"vehicle_type_id":"4","last_reported":1730553233,"current_range_meters":38800,"station_id":"ce4bhmp2rcd13ifvqgog","pricing_plan_id":"cebpf4jnsgd1na2vs0mg"},{"bike_id":"ce306eaa-e968-4e02-a267-fe16179ced44","system_id":"levelo_inurba_marseille","lat":43.30139,"lon":5.3742,"is_reserved":false,"is_disabled":false,"rental_uris":{"android":"levelo://app?vid=ce306eaa-e968-4e02-a267-fe16179ced44","ios":"levelo://app?vid=ce306eaa-e968-4e02-a267-fe16179ced44"},"vehicle_type_id":"4","last_reported":1730553233,"current_range_meters":14800,"station_id":"ce4bgs92rcd13ifvqcc0","pricing_plan_id":"cebpf4jnsgd1na2vs0mg"},{"bike_id":"1c5a55f6-fa70-42a9-8229-60ea5f15ac2f","system_id":"levelo_inurba_marseille","lat":43.26054,"lon":5.39397,"is_reserved":false,"is_disabled":false,"rental_uris":{"android":"levelo://app?vid=1c5a55f6-fa70-42a9-8229-60ea5f15ac2f","ios":"levelo://app?vid=1c5a55f6-fa70-42a9-8229-60ea5f15ac2f"},"vehicle_type_id":"4","last_reported":1730553233,"current_range_meters":22000,"station_id":"ce4bhh92rcd13ifvqfj0","pricing_plan_id":"cebpf4jnsgd1na2vs0mg"},{"bike_id":"3ad24b3a-63b4-4769-8a5f-3452a8cd8903","system_id":"levelo_inurba_marseille","lat":43.28266,"lon":5.35075,"is_reserved":false,"is_disabled":false,"rental_uris":{"android":"levelo://app?vid=3ad24b3a-63b4-4769-8a5f-3452a8cd8903","ios":"levelo://app?vid=3ad24b3a-63b4-4769-8a5f-3452a8cd8903"},"vehicle_type_id":"4","last_reported":1730553233,"current_range_meters":30000,"station_id":"ce4bhbp2rcd13ifvqerg","pricing_plan_id":"cebpf4jnsgd1na2vs0mg"},{"bike_id":"2e8907c0-8f4f-4707-98c8-0128b04eb2a4","system_id":"levelo_inurba_marseille","lat":43.28434,"lon":5.34999,"is_reserved":false,"is_disabled":false,"rental_uris":{"android":"levelo://app?vid=2e8907c0-8f4f-4707-98c8-0128b04eb2a4","ios":"levelo://app?vid=2e8907c0-8f4f-4707-98c8-0128b04eb2a4"},"vehicle_type_id":"4","last_reported":1730553233,"current_range_meters":16800,"station_id":"ce4bhbh2rcd13ifvqepg","pricing_plan_id":"cebpf4jnsgd1na2vs0mg"},{"bike_id":"887d3f15-9262-4464-a567-0c0c5d22959d","system_id":"levelo_inurba_marseille","lat":43.30315,"lon":5.36893,"is_reserved":false,"is_disabled":false,"rental_uris":{"android":"levelo://app?vid=887d3f15-9262-4464-a567-0c0c5d22959d","ios":"levelo://app?vid=887d3f15-9262-4464-a567-0c0c5d22959d"},"vehicle_type_id":"4","last_reported":1730553233,"current_range_meters":29600,"station_id":"ce4bgqh2rcd13ifvqc5g","pricing_plan_id":"cebpf4jnsgd1na2vs0mg"},{"bike_id":"13204629-6f37-4fdc-ae71-efb691ec9cf2","system_id":"levelo_inurba_marseille","lat":43.27177,"lon":5.4099,"is_reserved":false,"is_disabled":false,"rental_uris":{"android":"levelo://app?vid=13204629-6f37-4fdc-ae71-efb691ec9cf2","ios":"levelo://app?vid=13204629-6f37-4fdc-ae71-efb691ec9cf2"},"vehicle_type_id":"4","last_reported":1730553233,"current_range_meters":39200,"station_id":"ce4bhl12rcd13ifvqgf0","pricing_plan_id":"cebpf4jnsgd1na2vs0mg"},{"bike_id":"f5ae9114-5aa6-459d-86c9-12d899b72a03","system_id":"levelo_inurba_marseille","lat":43.25005,"lon":5.38916,"is_reserved":false,"is_disabled":false,"rental_uris":{"android":"levelo://app?vid=f5ae9114-5aa6-459d-86c9-12d899b72a03","ios":"levelo://app?vid=f5ae9114-5aa6-459d-86c9-12d899b72a03"},"vehicle_type_id":"4","last_reported":1730553233,"current_range_meters":14400,"station_id":"ce4bhgp2rcd13ifvqfd0","pricing_plan_id":"cebpf4jnsgd1na2vs0mg"},{"bike_id":"3198ab63-557b-4f5b-8a29-510057e603ea","system_id":"levelo_inurba_marseille","lat":43.2903,"lon":5.38132,"is_reserved":false,"is_disabled":false,"rental_uris":{"android":"levelo://app?vid=3198ab63-557b-4f5b-8a29-510057e603ea","ios":"levelo://app?vid=3198ab63-557b-4f5b-8a29-510057e603ea"},"vehicle_type_id":"4","last_reported":1730553233,"current_range_meters":36800,"station_id":"ce4bh4p2rcd13ifvqe1g","pricing_plan_id":"cebpf4jnsgd1na2vs0mg"},{"bike_id":"a5ddc947-d21c-49a7-bb2f-b3f5184de1d0","system_id":"levelo_inurba_marseille","lat":43.26027,"lon":5.37547,"is_reserved":false,"is_disabled":false,"rental_uris":{"android":"levelo://app?vid=a5ddc947-d21c-49a7-bb2f-b3f5184de1d0","ios":"levelo://app?vid=a5ddc947-d21c-49a7-bb2f-b3f5184de1d0"},"vehicle_type_id":"4","last_reported":1730553233,"current_range_meters":38000,"station_id":"ce4bhgh2rcd13ifvqfa0","pricing_plan_id":"cebpf4jnsgd1na2vs0mg"},{"bike_id":"b503f395-938e-4939-bff7-aad0622830cc","system_id":"levelo_inurba_marseille","lat":43.25104,"lon":5.4032,"is_reserved":false,"is_disabled":false,"rental_uris":{"android":"levelo://app?vid=b503f395-938e-4939-bff7-aad0622830cc","ios":"levelo://app?vid=b503f395-938e-4939-bff7-aad0622830cc"},"vehicle_type_id":"4","last_reported":1730553233,"current_range_meters":16400,"station_id":"ce4bhlh2rcd13ifvqgig","pricing_plan_id":"cebpf4jnsgd1na2vs0mg"},{"bike_id":"cc5a9cb4-1bb8-4c29-8ebe-e102934b04d0","system_id":"levelo_inurba_marseille","lat":43.26208,"lon":5.37442,"is_reserved":false,"is_disabled":false,"rental_uris":{"android":"levelo://app?vid=cc5a9cb4-1bb8-4c29-8ebe-e102934b04d0","ios":"levelo://app?vid=cc5a9cb4-1bb8-4c29-8ebe-e102934b04d0"},"vehicle_type_id":"4","last_reported":1730553233,"current_range_meters":17200,"station_id":"ce4bhgp2rcd13ifvqfc0","pricing_plan_id":"cebpf4jnsgd1na2vs0mg"},{"bike_id":"9dc4bbff-21ca-407b-985c-c70214b6bc8c","system_id":"levelo_inurba_marseille","lat":43.32483,"lon":5.36562,"is_reserved":false,"is_disabled":false,"rental_uris":{"android":"levelo://app?vid=9dc4bbff-21ca-407b-985c-c70214b6bc8c","ios":"levelo://app?vid=9dc4bbff-21ca-407b-985c-c70214b6bc8c"},"vehicle_type_id":"4","last_reported":1730553233,"current_range_meters":38800,"station_id":"ce4bhs12rcd13ifvqhvg","pricing_plan_id":"cebpf4jnsgd1na2vs0mg"},{"bike_id":"b01f8056-7af5-456f-a4a3-69b6d8d9d522","system_id":"levelo_inurba_marseille","lat":43.27668,"lon":5.38893,"is_reserved":false,"is_disabled":false,"rental_uris":{"android":"levelo://app?vid=b01f8056-7af5-456f-a4a3-69b6d8d9d522","ios":"levelo://app?vid=b01f8056-7af5-456f-a4a3-69b6d8d9d522"},"vehicle_type_id":"4","last_reported":1730553233,"current_range_meters":36800,"station_id":"ce4bhi12rcd13ifvqfo0","pricing_plan_id":"cebpf4jnsgd1na2vs0mg"},{"bike_id":"e7f59d36-b4d3-482d-b5fb-9da08c3ef485","system_id":"levelo_inurba_marseille","lat":43.23147,"lon":5.4371,"is_reserved":false,"is_disabled":false,"rental_uris":{"android":"levelo://app?vid=e7f59d36-b4d3-482d-b5fb-9da08c3ef485","ios":"levelo://app?vid=e7f59d36-b4d3-482d-b5fb-9da08c3ef485"},"vehicle_type_id":"4","last_reported":1730553233,"current_range_meters":6400,"station_id":"ce4bhmp2rcd13ifvqgog","pricing_plan_id":"cebpf4jnsgd1na2vs0mg"},{"bike_id":"7eac6086-9c55-491f-b51a-f6d316539019","system_id":"levelo_inurba_marseille","lat":43.28614,"lon":5.35104,"is_reserved":false,"is_disabled":false,"rental_uris":{"android":"levelo://app?vid=7eac6086-9c55-491f-b51a-f6d316539019","ios":"levelo://app?vid=7eac6086-9c55-491f-b51a-f6d316539019"},"vehicle_type_id":"4","last_reported":1730553233,"current_range_meters":27200,"station_id":"ce4bhch2rcd13ifvqeug","pricing_plan_id":"cebpf4jnsgd1na2vs0mg"},{"bike_id":"e897136e-8c37-4f90-8788-9b6a3c81507d","system_id":"levelo_inurba_marseille","lat":43.23059,"lon":5.35493,"is_reserved":false,"is_disabled":false,"rental_uris":{"android":"levelo://app?vid=e897136e-8c37-4f90-8788-9b6a3c81507d","ios":"levelo://app?vid=e897136e-8c37-4f90-8788-9b6a3c81507d"},"vehicle_type_id":"4","last_reported":1730553233,"current_range_meters":29600,"station_id":"cpo3342slgdg3j2ifvpg","pricing_plan_id":"cebpf4jnsgd1na2vs0mg"},{"bike_id":"59989c4b-ab29-4cdf-b7f4-d8b67260daf7","system_id":"levelo_inurba_marseille","lat":43.29972,"lon":5.38487,"is_reserved":false,"is_disabled":false,"rental_uris":{"android":"levelo://app?vid=59989c4b-ab29-4cdf-b7f4-d8b67260daf7","ios":"levelo://app?vid=59989c4b-ab29-4cdf-b7f4-d8b67260daf7"},"vehicle_type_id":"4","last_reported":1730553233,"current_range_meters":24800,"station_id":"","pricing_plan_id":"cebpf4jnsgd1na2vs0mg"},{"bike_id":"aacfe4bc-23f5-450c-aab1-4d500c0724b9","system_id":"levelo_inurba_marseille","lat":43.28354,"lon":5.38104,"is_reserved":false,"is_disabled":false,"rental_uris":{"android":"levelo://app?vid=aacfe4bc-23f5-450c-aab1-4d500c0724b9","ios":"levelo://app?vid=aacfe4bc-23f5-450c-aab1-4d500c0724b9"},"vehicle_type_id":"4","last_reported":1730553233,"current_range_meters":22000,"station_id":"ce4bh412rcd13ifvqdr0","pricing_plan_id":"cebpf4jnsgd1na2vs0mg"},{"bike_id":"02230dac-ebce-4aa4-9174-db473244d1bc","system_id":"levelo_inurba_marseille","lat":43.3302,"lon":5.39046,"is_reserved":false,"is_disabled":false,"rental_uris":{"android":"levelo://app?vid=02230dac-ebce-4aa4-9174-db473244d1bc","ios":"levelo://app?vid=02230dac-ebce-4aa4-9174-db473244d1bc"},"vehicle_type_id":"4","last_reported":1730553233,"current_range_meters":38000,"station_id":"ce4bhr92rcd13ifvqhrg","pricing_plan_id":"cebpf4jnsgd1na2vs0mg"},{"bike_id":"10e515d6-153b-4689-b304-7296245d4fe9","system_id":"levelo_inurba_marseille","lat":43.30469,"lon":5.37906,"is_reserved":false,"is_disabled":false,"rental_uris":{"android":"levelo://app?vid=10e515d6-153b-4689-b304-7296245d4fe9","ios":"levelo://app?vid=10e515d6-153b-4689-b304-7296245d4fe9"},"vehicle_type_id":"4","last_reported":1730553233,"current_range_meters":26800,"station_id":"ce4bgup2rcd13ifvqcn0","pricing_plan_id":"cebpf4jnsgd1na2vs0mg"},{"bike_id":"7e568bfa-c77c-4398-aba7-352d47e1ac1d","system_id":"levelo_inurba_marseille","lat":43.2959,"lon":5.36747,"is_reserved":false,"is_disabled":false,"rental_uris":{"android":"levelo://app?vid=7e568bfa-c77c-4398-aba7-352d47e1ac1d","ios":"levelo://app?vid=7e568bfa-c77c-4398-aba7-352d47e1ac1d"},"vehicle_type_id":"4","last_reported":1730553233,"current_range_meters":12000,"station_id":"ce4bgph2rcd13ifvqc2g","pricing_plan_id":"cebpf4jnsgd1na2vs0mg"},{"bike_id":"ca9466cf-6155-4132-85ba-45f3705454cf","system_id":"levelo_inurba_marseille","lat":43.31884,"lon":5.40722,"is_reserved":false,"is_disabled":false,"rental_uris":{"android":"levelo://app?vid=ca9466cf-6155-4132-85ba-45f3705454cf","ios":"levelo://app?vid=ca9466cf-6155-4132-85ba-45f3705454cf"},"vehicle_type_id":"4","last_reported":1730553233,"current_range_meters":39200,"station_id":"ce4bhq12rcd13ifvqhig","pricing_plan_id":"cebpf4jnsgd1na2vs0mg"},{"bike_id":"f0365e39-da4f-4fcd-a178-7855790154f7","system_id":"levelo_inurba_marseille","lat":43.3014,"lon":5.37418,"is_reserved":false,"is_disabled":false,"rental_uris":{"android":"levelo://app?vid=f0365e39-da4f-4fcd-a178-7855790154f7","ios":"levelo://app?vid=f0365e39-da4f-4fcd-a178-7855790154f7"},"vehicle_type_id":"4","last_reported":1730553233,"current_range_meters":39200,"station_id":"ce4bgs92rcd13ifvqcc0","pricing_plan_id":"cebpf4jnsgd1na2vs0mg"},{"bike_id":"f89684dd-3a1d-448e-946a-b221d0f9ba7f","system_id":"levelo_inurba_marseille","lat":43.30783,"lon":5.37671,"is_reserved":false,"is_disabled":false,"rental_uris":{"android":"levelo://app?vid=f89684dd-3a1d-448e-946a-b221d0f9ba7f","ios":"levelo://app?vid=f89684dd-3a1d-448e-946a-b221d0f9ba7f"},"vehicle_type_id":"4","last_reported":1730553233,"current_range_meters":33200,"station_id":"ce4bgv92rcd13ifvqcq0","pricing_plan_id":"cebpf4jnsgd1na2vs0mg"},{"bike_id":"5d49116d-9ac2-4fe3-b140-1c8daccc859c","system_id":"levelo_inurba_marseille","lat":43.302795,"lon":5.376985,"is_reserved":false,"is_disabled":false,"rental_uris":{"android":"levelo://app?vid=5d49116d-9ac2-4fe3-b140-1c8daccc859c","ios":"levelo://app?vid=5d49116d-9ac2-4fe3-b140-1c8daccc859c"},"vehicle_type_id":"4","last_reported":1730553233,"current_range_meters":38800,"station_id":"ce4bguh2rcd13ifvqcj0","pricing_plan_id":"cebpf4jnsgd1na2vs0mg"},{"bike_id":"aa7fa3a1-8ccc-4422-80a7-d901bb92256f","system_id":"levelo_inurba_marseille","lat":43.29842,"lon":5.36278,"is_reserved":false,"is_disabled":false,"rental_uris":{"android":"levelo://app?vid=aa7fa3a1-8ccc-4422-80a7-d901bb92256f","ios":"levelo://app?vid=aa7fa3a1-8ccc-4422-80a7-d901bb92256f"},"vehicle_type_id":"4","last_reported":1730553233,"current_range_meters":20000,"station_id":"ce4bgpp2rcd13ifvqc3g","pricing_plan_id":"cebpf4jnsgd1na2vs0mg"},{"bike_id":"11cdf20f-5b5f-4879-9af2-34d18e598ea4","system_id":"levelo_inurba_marseille","lat":43.2549,"lon":5.3765,"is_reserved":false,"is_disabled":false,"rental_uris":{"android":"levelo://app?vid=11cdf20f-5b5f-4879-9af2-34d18e598ea4","ios":"levelo://app?vid=11cdf20f-5b5f-4879-9af2-34d18e598ea4"},"vehicle_type_id":"4","last_reported":1730553233,"current_range_meters":36400,"station_id":"ce4bhh12rcd13ifvqff0","pricing_plan_id":"cebpf4jnsgd1na2vs0mg"},{"bike_id":"9ca12022-716a-4ed5-ac9c-2033946b0c38","system_id":"levelo_inurba_marseille","lat":43.29843,"lon":5.36266,"is_reserved":false,"is_disabled":false,"rental_uris":{"android":"levelo://app?vid=9ca12022-716a-4ed5-ac9c-2033946b0c38","ios":"levelo://app?vid=9ca12022-716a-4ed5-ac9c-2033946b0c38"},"vehicle_type_id":"4","last_reported":1730553233,"current_range_meters":38800,"station_id":"ce4bgpp2rcd13ifvqc3g","pricing_plan_id":"cebpf4jnsgd1na2vs0mg"},{"bike_id":"cf7522f5-c4e5-4ca3-adc5-ef2c57596f55","system_id":"levelo_inurba_marseille","lat":43.23195,"lon":5.35549,"is_reserved":false,"is_disabled":false,"rental_uris":{"android":"levelo://app?vid=cf7522f5-c4e5-4ca3-adc5-ef2c57596f55","ios":"levelo://app?vid=cf7522f5-c4e5-4ca3-adc5-ef2c57596f55"},"vehicle_type_id":"4","last_reported":1730553233,"current_range_meters":24400,"station_id":"ce4bhu92rcd13ifvqi70","pricing_plan_id":"cebpf4jnsgd1na2vs0mg"},{"bike_id":"e8658660-62dc-45aa-baae-892f60fa6670","system_id":"levelo_inurba_marseille","lat":43.29045,"lon":5.359,"is_reserved":false,"is_disabled":false,"rental_uris":{"android":"levelo://app?vid=e8658660-62dc-45aa-baae-892f60fa6670","ios":"levelo://app?vid=e8658660-62dc-45aa-baae-892f60fa6670"},"vehicle_type_id":"4","last_reported":1730553233,"current_range_meters":16400,"station_id":"ce4bha92rcd13ifvqeg0","pricing_plan_id":"cebpf4jnsgd1na2vs0mg"},{"bike_id":"6eaa2dbe-2228-4b69-8462-634d74f7bcad","system_id":"levelo_inurba_marseille","lat":43.22926,"lon":5.35371,"is_reserved":false,"is_disabled":false,"rental_uris":{"android":"levelo://app?vid=6eaa2dbe-2228-4b69-8462-634d74f7bcad","ios":"levelo://app?vid=6eaa2dbe-2228-4b69-8462-634d74f7bcad"},"vehicle_type_id":"4","last_reported":1730553233,"current_range_meters":24800,"station_id":"cpo3532slgdg3j2ikp40","pricing_plan_id":"cebpf4jnsgd1na2vs0mg"},{"bike_id":"25efdd14-e5a3-4f02-a8ea-e62e3c219fa3","system_id":"levelo_inurba_marseille","lat":43.2815,"lon":5.42644,"is_reserved":false,"is_disabled":false,"rental_uris":{"android":"levelo://app?vid=25efdd14-e5a3-4f02-a8ea-e62e3c219fa3","ios":"levelo://app?vid=25efdd14-e5a3-4f02-a8ea-e62e3c219fa3"},"vehicle_type_id":"4","last_reported":1730553233,"current_range_meters":39200,"station_id":"ce4bhnh2rcd13ifvqgug","pricing_plan_id":"cebpf4jnsgd1na2vs0mg"},{"bike_id":"a7539dfc-e8ec-47cd-8dbc-d48543cf053d","system_id":"levelo_inurba_marseille","lat":43.30527,"lon":5.36541,"is_reserved":false,"is_disabled":false,"rental_uris":{"android":"levelo://app?vid=a7539dfc-e8ec-47cd-8dbc-d48543cf053d","ios":"levelo://app?vid=a7539dfc-e8ec-47cd-8dbc-d48543cf053d"},"vehicle_type_id":"4","last_reported":1730553233,"current_range_meters":39200,"station_id":"ce4bgs12rcd13ifvqcag","pricing_plan_id":"cebpf4jnsgd1na2vs0mg"},{"bike_id":"b01ec6bc-8885-4ebd-9bf0-430c90c77ffb","system_id":"levelo_inurba_marseille","lat":43.28267,"lon":5.35069,"is_reserved":false,"is_disabled":false,"rental_uris":{"android":"levelo://app?vid=b01ec6bc-8885-4ebd-9bf0-430c90c77ffb","ios":"levelo://app?vid=b01ec6bc-8885-4ebd-9bf0-430c90c77ffb"},"vehicle_type_id":"4","last_reported":1730553233,"current_range_meters":28800,"station_id":"ce4bhbp2rcd13ifvqerg","pricing_plan_id":"cebpf4jnsgd1na2vs0mg"},{"bike_id":"18402065-9e87-476b-95ad-30853de181a0","system_id":"levelo_inurba_marseille","lat":43.32444,"lon":5.45563,"is_reserved":false,"is_disabled":false,"rental_uris":{"android":"levelo://app?vid=18402065-9e87-476b-95ad-30853de181a0","ios":"levelo://app?vid=18402065-9e87-476b-95ad-30853de181a0"},"vehicle_type_id":"4","last_reported":1730553233,"current_range_meters":8000,"station_id":"","pricing_plan_id":"cebpf4jnsgd1na2vs0mg"},{"bike_id":"13b57adb-1c81-4d29-964e-a03c047187a6","system_id":"levelo_inurba_marseille","lat":43.232,"lon":5.35549,"is_reserved":false,"is_disabled":false,"rental_uris":{"android":"levelo://app?vid=13b57adb-1c81-4d29-964e-a03c047187a6","ios":"levelo://app?vid=13b57adb-1c81-4d29-964e-a03c047187a6"},"vehicle_type_id":"4","last_reported":1730553233,"current_range_meters":25600,"station_id":"ce4bhu92rcd13ifvqi70","pricing_plan_id":"cebpf4jnsgd1na2vs0mg"},{"bike_id":"18520dd0-747d-4cb1-9d78-6ede88f81896","system_id":"levelo_inurba_marseille","lat":43.24658,"lon":5.38899,"is_reserved":false,"is_disabled":false,"rental_uris":{"android":"levelo://app?vid=18520dd0-747d-4cb1-9d78-6ede88f81896","ios":"levelo://app?vid=18520dd0-747d-4cb1-9d78-6ede88f81896"},"vehicle_type_id":"4","last_reported":1730553233,"current_range_meters":2800,"station_id":"ce4bhg12rcd13ifvqf60","pricing_plan_id":"cebpf4jnsgd1na2vs0mg"},{"bike_id":"d0e25e8e-55c1-4556-bac9-0e6f2eddf471","system_id":"levelo_inurba_marseille","lat":43.23196,"lon":5.35547,"is_reserved":false,"is_disabled":false,"rental_uris":{"android":"levelo://app?vid=d0e25e8e-55c1-4556-bac9-0e6f2eddf471","ios":"levelo://app?vid=d0e25e8e-55c1-4556-bac9-0e6f2eddf471"},"vehicle_type_id":"4","last_reported":1730553233,"current_range_meters":27600,"station_id":"ce4bhu92rcd13ifvqi70","pricing_plan_id":"cebpf4jnsgd1na2vs0mg"},{"bike_id":"f8fa76c0-d80f-44a8-8a65-35deeba225cb","system_id":"levelo_inurba_marseille","lat":43.28566,"lon":5.39494,"is_reserved":false,"is_disabled":false,"rental_uris":{"android":"levelo://app?vid=f8fa76c0-d80f-44a8-8a65-35deeba225cb","ios":"levelo://app?vid=f8fa76c0-d80f-44a8-8a65-35deeba225cb"},"vehicle_type_id":"4","last_reported":1730553233,"current_range_meters":7200,"station_id":"ce4bh292rcd13ifvqdg0","pricing_plan_id":"cebpf4jnsgd1na2vs0mg"},{"bike_id":"c7a6a60a-ebc3-43dc-847c-5817f23f3b49","system_id":"levelo_inurba_marseille","lat":43.25728,"lon":5.41102,"is_reserved":false,"is_disabled":false,"rental_uris":{"android":"levelo://app?vid=c7a6a60a-ebc3-43dc-847c-5817f23f3b49","ios":"levelo://app?vid=c7a6a60a-ebc3-43dc-847c-5817f23f3b49"},"vehicle_type_id":"4","last_reported":1730553233,"current_range_meters":11200,"station_id":"ce4bhkp2rcd13ifvqgd0","pricing_plan_id":"cebpf4jnsgd1na2vs0mg"},{"bike_id":"26fd4689-fc76-43cc-9317-12cf7b37df0e","system_id":"levelo_inurba_marseille","lat":43.30804,"lon":5.43521,"is_reserved":false,"is_disabled":false,"rental_uris":{"android":"levelo://app?vid=26fd4689-fc76-43cc-9317-12cf7b37df0e","ios":"levelo://app?vid=26fd4689-fc76-43cc-9317-12cf7b37df0e"},"vehicle_type_id":"4","last_reported":1730553233,"current_range_meters":28000,"station_id":"ce4bhph2rcd13ifvqheg","pricing_plan_id":"cebpf4jnsgd1na2vs0mg"},{"bike_id":"d1832a08-5685-4b36-a88c-1add5b2bcc8f","system_id":"levelo_inurba_marseille","lat":43.30671,"lon":5.40091,"is_reserved":false,"is_disabled":false,"rental_uris":{"android":"levelo://app?vid=d1832a08-5685-4b36-a88c-1add5b2bcc8f","ios":"levelo://app?vid=d1832a08-5685-4b36-a88c-1add5b2bcc8f"},"vehicle_type_id":"4","last_reported":1730553233,"current_range_meters":34800,"station_id":"ce4bh112rcd13ifvqda0","pricing_plan_id":"cebpf4jnsgd1na2vs0mg"},{"bike_id":"ab1ca522-7e06-4333-a97a-051f905a525e","system_id":"levelo_inurba_marseille","lat":43.28416,"lon":5.3499,"is_reserved":false,"is_disabled":false,"rental_uris":{"android":"levelo://app?vid=ab1ca522-7e06-4333-a97a-051f905a525e","ios":"levelo://app?vid=ab1ca522-7e06-4333-a97a-051f905a525e"},"vehicle_type_id":"4","last_reported":1730553233,"current_range_meters":35200,"station_id":"ce4bhbh2rcd13ifvqepg","pricing_plan_id":"cebpf4jnsgd1na2vs0mg"},{"bike_id":"bf6c6698-8e8a-4df8-acc8-0950fc50a5e8","system_id":"levelo_inurba_marseille","lat":43.31273,"lon":5.40163,"is_reserved":false,"is_disabled":false,"rental_uris":{"android":"levelo://app?vid=bf6c6698-8e8a-4df8-acc8-0950fc50a5e8","ios":"levelo://app?vid=bf6c6698-8e8a-4df8-acc8-0950fc50a5e8"},"vehicle_type_id":"4","last_reported":1730553233,"current_range_meters":32800,"station_id":"ce4bh092rcd13ifvqd30","pricing_plan_id":"cebpf4jnsgd1na2vs0mg"},{"bike_id":"19b35843-89a4-4e2c-9907-396d7593869a","system_id":"levelo_inurba_marseille","lat":43.24662,"lon":5.38161,"is_reserved":false,"is_disabled":false,"rental_uris":{"android":"levelo://app?vid=19b35843-89a4-4e2c-9907-396d7593869a","ios":"levelo://app?vid=19b35843-89a4-4e2c-9907-396d7593869a"},"vehicle_type_id":"4","last_reported":1730553233,"current_range_meters":17600,"station_id":"ce4bhih2rcd13ifvqfr0","pricing_plan_id":"cebpf4jnsgd1na2vs0mg"},{"bike_id":"bc6255b1-9621-45ae-bceb-b5fd4bc4f459","system_id":"levelo_inurba_marseille","lat":43.29308,"lon":5.37441,"is_reserved":false,"is_disabled":false,"rental_uris":{"android":"levelo://app?vid=bc6255b1-9621-45ae-bceb-b5fd4bc4f459","ios":"levelo://app?vid=bc6255b1-9621-45ae-bceb-b5fd4bc4f459"},"vehicle_type_id":"4","last_reported":1730553233,"current_range_meters":37600,"station_id":"ce4bgi12rcd13ifvqb70","pricing_plan_id":"cebpf4jnsgd1na2vs0mg"},{"bike_id":"c464d67e-1a73-40bd-b8bb-ad08b05c10b4","system_id":"levelo_inurba_marseille","lat":43.31288,"lon":5.40168,"is_reserved":false,"is_disabled":false,"rental_uris":{"android":"levelo://app?vid=c464d67e-1a73-40bd-b8bb-ad08b05c10b4","ios":"levelo://app?vid=c464d67e-1a73-40bd-b8bb-ad08b05c10b4"},"vehicle_type_id":"4","last_reported":1730553233,"current_range_meters":7200,"station_id":"ce4bh092rcd13ifvqd30","pricing_plan_id":"cebpf4jnsgd1na2vs0mg"},{"bike_id":"6a73a468-ee4e-4504-97ad-7d286c4beb89","system_id":"levelo_inurba_marseille","lat":43.2862,"lon":5.35098,"is_reserved":false,"is_disabled":false,"rental_uris":{"android":"levelo://app?vid=6a73a468-ee4e-4504-97ad-7d286c4beb89","ios":"levelo://app?vid=6a73a468-ee4e-4504-97ad-7d286c4beb89"},"vehicle_type_id":"4","last_reported":1730553233,"current_range_meters":38800,"station_id":"ce4bhch2rcd13ifvqeug","pricing_plan_id":"cebpf4jnsgd1na2vs0mg"},{"bike_id":"758ec07f-6733-49d7-8f30-bef7454a62fa","system_id":"levelo_inurba_marseille","lat":43.29765,"lon":5.37161,"is_reserved":false,"is_disabled":false,"rental_uris":{"android":"levelo://app?vid=758ec07f-6733-49d7-8f30-bef7454a62fa","ios":"levelo://app?vid=758ec07f-6733-49d7-8f30-bef7454a62fa"},"vehicle_type_id":"4","last_reported":1730553233,"current_range_meters":36000,"station_id":"ce4bgop2rcd13ifvqc1g","pricing_plan_id":"cebpf4jnsgd1na2vs0mg"},{"bike_id":"039a64d6-5e87-4141-81e3-2e1ffc1e11a5","system_id":"levelo_inurba_marseille","lat":43.27995,"lon":5.40009,"is_reserved":false,"is_disabled":false,"rental_uris":{"android":"levelo://app?vid=039a64d6-5e87-4141-81e3-2e1ffc1e11a5","ios":"levelo://app?vid=039a64d6-5e87-4141-81e3-2e1ffc1e11a5"},"vehicle_type_id":"4","last_reported":1730553233,"current_range_meters":38800,"station_id":"ce4bho92rcd13ifvqh4g","pricing_plan_id":"cebpf4jnsgd1na2vs0mg"},{"bike_id":"4be17eee-2bee-4bce-abc6-693cda9fbd8f","system_id":"levelo_inurba_marseille","lat":43.25009,"lon":5.38913,"is_reserved":false,"is_disabled":false,"rental_uris":{"android":"levelo://app?vid=4be17eee-2bee-4bce-abc6-693cda9fbd8f","ios":"levelo://app?vid=4be17eee-2bee-4bce-abc6-693cda9fbd8f"},"vehicle_type_id":"4","last_reported":1730553233,"current_range_meters":36000,"station_id":"ce4bhgp2rcd13ifvqfd0","pricing_plan_id":"cebpf4jnsgd1na2vs0mg"},{"bike_id":"21ff1bff-f285-482f-b9d5-5da60c9f151d","system_id":"levelo_inurba_marseille","lat":43.32481,"lon":5.36571,"is_reserved":false,"is_disabled":false,"rental_uris":{"android":"levelo://app?vid=21ff1bff-f285-482f-b9d5-5da60c9f151d","ios":"levelo://app?vid=21ff1bff-f285-482f-b9d5-5da60c9f151d"},"vehicle_type_id":"4","last_reported":1730553233,"current_range_meters":33200,"station_id":"ce4bhs12rcd13ifvqhvg","pricing_plan_id":"cebpf4jnsgd1na2vs0mg"},{"bike_id":"7f17982b-36f5-4d90-b1be-eb793cb933c4","system_id":"levelo_inurba_marseille","lat":43.28421,"lon":5.34985,"is_reserved":false,"is_disabled":false,"rental_uris":{"android":"levelo://app?vid=7f17982b-36f5-4d90-b1be-eb793cb933c4","ios":"levelo://app?vid=7f17982b-36f5-4d90-b1be-eb793cb933c4"},"vehicle_type_id":"4","last_reported":1730553233,"current_range_meters":11600,"station_id":"ce4bhbh2rcd13ifvqepg","pricing_plan_id":"cebpf4jnsgd1na2vs0mg"},{"bike_id":"a0a0b575-8a2e-4954-9e71-247b67bf18a1","system_id":"levelo_inurba_marseille","lat":43.28278,"lon":5.35079,"is_reserved":false,"is_disabled":false,"rental_uris":{"android":"levelo://app?vid=a0a0b575-8a2e-4954-9e71-247b67bf18a1","ios":"levelo://app?vid=a0a0b575-8a2e-4954-9e71-247b67bf18a1"},"vehicle_type_id":"4","last_reported":1730553233,"current_range_meters":16800,"station_id":"ce4bhbp2rcd13ifvqerg","pricing_plan_id":"cebpf4jnsgd1na2vs0mg"},{"bike_id":"f5b877da-4b16-4a6e-b7a7-93916121cb3b","system_id":"levelo_inurba_marseille","lat":43.30786,"lon":5.37653,"is_reserved":false,"is_disabled":false,"rental_uris":{"android":"levelo://app?vid=f5b877da-4b16-4a6e-b7a7-93916121cb3b","ios":"levelo://app?vid=f5b877da-4b16-4a6e-b7a7-93916121cb3b"},"vehicle_type_id":"4","last_reported":1730553233,"current_range_meters":18800,"station_id":"ce4bgv92rcd13ifvqcq0","pricing_plan_id":"cebpf4jnsgd1na2vs0mg"},{"bike_id":"ef43a36e-b4ed-4284-a9bf-816ee684b71e","system_id":"levelo_inurba_marseille","lat":43.268585,"lon":5.393344,"is_reserved":false,"is_disabled":false,"rental_uris":{"android":"levelo://app?vid=ef43a36e-b4ed-4284-a9bf-816ee684b71e","ios":"levelo://app?vid=ef43a36e-b4ed-4284-a9bf-816ee684b71e"},"vehicle_type_id":"4","last_reported":1730553233,"current_range_meters":38400,"station_id":"ce4bhh12rcd13ifvqfg0","pricing_plan_id":"cebpf4jnsgd1na2vs0mg"},{"bike_id":"a4003252-5622-4b9b-80ab-0c7e4b24a6b8","system_id":"levelo_inurba_marseille","lat":43.30435,"lon":5.38889,"is_reserved":false,"is_disabled":false,"rental_uris":{"android":"levelo://app?vid=a4003252-5622-4b9b-80ab-0c7e4b24a6b8","ios":"levelo://app?vid=a4003252-5622-4b9b-80ab-0c7e4b24a6b8"},"vehicle_type_id":"4","last_reported":1730553233,"current_range_meters":37600,"station_id":"ce4bgk12rcd13ifvqbi0","pricing_plan_id":"cebpf4jnsgd1na2vs0mg"},{"bike_id":"243692e7-63c2-45e9-b7d3-ff44e80fa559","system_id":"levelo_inurba_marseille","lat":43.26561,"lon":5.3728,"is_reserved":false,"is_disabled":false,"rental_uris":{"android":"levelo://app?vid=243692e7-63c2-45e9-b7d3-ff44e80fa559","ios":"levelo://app?vid=243692e7-63c2-45e9-b7d3-ff44e80fa559"},"vehicle_type_id":"4","last_reported":1730553233,"current_range_meters":38000,"station_id":"ce4bhg12rcd13ifvqf70","pricing_plan_id":"cebpf4jnsgd1na2vs0mg"},{"bike_id":"e74f712e-8cad-4a9d-9601-4cfc15e43810","system_id":"levelo_inurba_marseille","lat":43.27183,"lon":5.40991,"is_reserved":false,"is_disabled":false,"rental_uris":{"android":"levelo://app?vid=e74f712e-8cad-4a9d-9601-4cfc15e43810","ios":"levelo://app?vid=e74f712e-8cad-4a9d-9601-4cfc15e43810"},"vehicle_type_id":"4","last_reported":1730553233,"current_range_meters":8800,"station_id":"ce4bhl12rcd13ifvqgf0","pricing_plan_id":"cebpf4jnsgd1na2vs0mg"},{"bike_id":"b68396b3-e6ec-47a0-a408-0db69b37708c","system_id":"levelo_inurba_marseille","lat":43.25101,"lon":5.40321,"is_reserved":false,"is_disabled":false,"rental_uris":{"android":"levelo://app?vid=b68396b3-e6ec-47a0-a408-0db69b37708c","ios":"levelo://app?vid=b68396b3-e6ec-47a0-a408-0db69b37708c"},"vehicle_type_id":"4","last_reported":1730553233,"current_range_meters":30000,"station_id":"ce4bhlh2rcd13ifvqgig","pricing_plan_id":"cebpf4jnsgd1na2vs0mg"},{"bike_id":"c64bc634-5699-440b-9029-134a7a65a134","system_id":"levelo_inurba_marseille","lat":43.27375,"lon":5.36259,"is_reserved":false,"is_disabled":false,"rental_uris":{"android":"levelo://app?vid=c64bc634-5699-440b-9029-134a7a65a134","ios":"levelo://app?vid=c64bc634-5699-440b-9029-134a7a65a134"},"vehicle_type_id":"4","last_reported":1730553233,"current_range_meters":39200,"station_id":"ce4bhbh2rcd13ifvqeo0","pricing_plan_id":"cebpf4jnsgd1na2vs0mg"},{"bike_id":"ad3e9952-3f50-44d8-a74e-6763bc2ff022","system_id":"levelo_inurba_marseille","lat":43.26213,"lon":5.37441,"is_reserved":false,"is_disabled":false,"rental_uris":{"android":"levelo://app?vid=ad3e9952-3f50-44d8-a74e-6763bc2ff022","ios":"levelo://app?vid=ad3e9952-3f50-44d8-a74e-6763bc2ff022"},"vehicle_type_id":"4","last_reported":1730553233,"current_range_meters":32000,"station_id":"ce4bhgp2rcd13ifvqfc0","pricing_plan_id":"cebpf4jnsgd1na2vs0mg"},{"bike_id":"d82d6e2b-1165-4273-a5f4-2471dcf3ace3","system_id":"levelo_inurba_marseille","lat":43.29927,"lon":5.36542,"is_reserved":false,"is_disabled":false,"rental_uris":{"android":"levelo://app?vid=d82d6e2b-1165-4273-a5f4-2471dcf3ace3","ios":"levelo://app?vid=d82d6e2b-1165-4273-a5f4-2471dcf3ace3"},"vehicle_type_id":"4","last_reported":1730553233,"current_range_meters":38800,"station_id":"ce4bgm92rcd13ifvqbr0","pricing_plan_id":"cebpf4jnsgd1na2vs0mg"},{"bike_id":"9c510165-3fd2-45d1-85c8-68b221c6f474","system_id":"levelo_inurba_marseille","lat":43.23967,"lon":5.36632,"is_reserved":false,"is_disabled":false,"rental_uris":{"android":"levelo://app?vid=9c510165-3fd2-45d1-85c8-68b221c6f474","ios":"levelo://app?vid=9c510165-3fd2-45d1-85c8-68b221c6f474"},"vehicle_type_id":"4","last_reported":1730553233,"current_range_meters":38800,"station_id":"ce4bhi12rcd13ifvqfp0","pricing_plan_id":"cebpf4jnsgd1na2vs0mg"},{"bike_id":"eb7ca17f-6237-4461-b9e3-d5063d969a7a","system_id":"levelo_inurba_marseille","lat":43.29789,"lon":5.37096,"is_reserved":false,"is_disabled":false,"rental_uris":{"android":"levelo://app?vid=eb7ca17f-6237-4461-b9e3-d5063d969a7a","ios":"levelo://app?vid=eb7ca17f-6237-4461-b9e3-d5063d969a7a"},"vehicle_type_id":"4","last_reported":1730553233,"current_range_meters":38800,"station_id":"ce4bgop2rcd13ifvqc1g","pricing_plan_id":"cebpf4jnsgd1na2vs0mg"},{"bike_id":"dbfc27fb-cb97-4ca1-bf7a-15da0f969d35","system_id":"levelo_inurba_marseille","lat":43.25727,"lon":5.41102,"is_reserved":false,"is_disabled":false,"rental_uris":{"android":"levelo://app?vid=dbfc27fb-cb97-4ca1-bf7a-15da0f969d35","ios":"levelo://app?vid=dbfc27fb-cb97-4ca1-bf7a-15da0f969d35"},"vehicle_type_id":"4","last_reported":1730553233,"current_range_meters":5600,"station_id":"ce4bhkp2rcd13ifvqgd0","pricing_plan_id":"cebpf4jnsgd1na2vs0mg"},{"bike_id":"395be709-9625-40aa-aa1e-2c9913fbe4bc","system_id":"levelo_inurba_marseille","lat":43.30536,"lon":5.36545,"is_reserved":false,"is_disabled":false,"rental_uris":{"android":"levelo://app?vid=395be709-9625-40aa-aa1e-2c9913fbe4bc","ios":"levelo://app?vid=395be709-9625-40aa-aa1e-2c9913fbe4bc"},"vehicle_type_id":"4","last_reported":1730553233,"current_range_meters":14800,"station_id":"ce4bgs12rcd13ifvqcag","pricing_plan_id":"cebpf4jnsgd1na2vs0mg"},{"bike_id":"9f450555-6093-4127-b52c-8742261fa3e5","system_id":"levelo_inurba_marseille","lat":43.28412,"lon":5.34995,"is_reserved":false,"is_disabled":false,"rental_uris":{"android":"levelo://app?vid=9f450555-6093-4127-b52c-8742261fa3e5","ios":"levelo://app?vid=9f450555-6093-4127-b52c-8742261fa3e5"},"vehicle_type_id":"4","last_reported":1730553233,"current_range_meters":8800,"station_id":"ce4bhbh2rcd13ifvqepg","pricing_plan_id":"cebpf4jnsgd1na2vs0mg"},{"bike_id":"8c67d340-801d-46e5-b910-2f8aff3ff078","system_id":"levelo_inurba_marseille","lat":43.33339,"lon":5.37054,"is_reserved":false,"is_disabled":false,"rental_uris":{"android":"levelo://app?vid=8c67d340-801d-46e5-b910-2f8aff3ff078","ios":"levelo://app?vid=8c67d340-801d-46e5-b910-2f8aff3ff078"},"vehicle_type_id":"4","last_reported":1730553233,"current_range_meters":10000,"station_id":"","pricing_plan_id":"cebpf4jnsgd1na2vs0mg"},{"bike_id":"83356032-baeb-401a-bdff-8adddb83ed12","system_id":"levelo_inurba_marseille","lat":43.23193,"lon":5.35548,"is_reserved":false,"is_disabled":false,"rental_uris":{"android":"levelo://app?vid=83356032-baeb-401a-bdff-8adddb83ed12","ios":"levelo://app?vid=83356032-baeb-401a-bdff-8adddb83ed12"},"vehicle_type_id":"4","last_reported":1730553233,"current_range_meters":37600,"station_id":"ce4bhu92rcd13ifvqi70","pricing_plan_id":"cebpf4jnsgd1na2vs0mg"},{"bike_id":"df63b9c4-e15c-4263-a5c8-6ddf8c81a210","system_id":"levelo_inurba_marseille","lat":43.26059,"lon":5.39393,"is_reserved":false,"is_disabled":false,"rental_uris":{"android":"levelo://app?vid=df63b9c4-e15c-4263-a5c8-6ddf8c81a210","ios":"levelo://app?vid=df63b9c4-e15c-4263-a5c8-6ddf8c81a210"},"vehicle_type_id":"4","last_reported":1730553233,"current_range_meters":38800,"station_id":"ce4bhh92rcd13ifvqfj0","pricing_plan_id":"cebpf4jnsgd1na2vs0mg"},{"bike_id":"e4ea768f-c877-4e21-89bd-a5c946605e3b","system_id":"levelo_inurba_marseille","lat":43.23197,"lon":5.35555,"is_reserved":false,"is_disabled":false,"rental_uris":{"android":"levelo://app?vid=e4ea768f-c877-4e21-89bd-a5c946605e3b","ios":"levelo://app?vid=e4ea768f-c877-4e21-89bd-a5c946605e3b"},"vehicle_type_id":"4","last_reported":1730553233,"current_range_meters":9600,"station_id":"ce4bhu92rcd13ifvqi70","pricing_plan_id":"cebpf4jnsgd1na2vs0mg"},{"bike_id":"07d0df56-f8bc-46e6-871c-8e071fb175e5","system_id":"levelo_inurba_marseille","lat":43.23191,"lon":5.3555,"is_reserved":false,"is_disabled":false,"rental_uris":{"android":"levelo://app?vid=07d0df56-f8bc-46e6-871c-8e071fb175e5","ios":"levelo://app?vid=07d0df56-f8bc-46e6-871c-8e071fb175e5"},"vehicle_type_id":"4","last_reported":1730553233,"current_range_meters":36800,"station_id":"ce4bhu92rcd13ifvqi70","pricing_plan_id":"cebpf4jnsgd1na2vs0mg"},{"bike_id":"69b3c38e-cc8d-4ba8-a1f6-805ee6d3a26b","system_id":"levelo_inurba_marseille","lat":43.26192,"lon":5.37449,"is_reserved":false,"is_disabled":false,"rental_uris":{"android":"levelo://app?vid=69b3c38e-cc8d-4ba8-a1f6-805ee6d3a26b","ios":"levelo://app?vid=69b3c38e-cc8d-4ba8-a1f6-805ee6d3a26b"},"vehicle_type_id":"4","last_reported":1730553233,"current_range_meters":30800,"station_id":"ce4bhgp2rcd13ifvqfc0","pricing_plan_id":"cebpf4jnsgd1na2vs0mg"},{"bike_id":"19e6008c-0743-45ac-b4bf-fc683ef0e14c","system_id":"levelo_inurba_marseille","lat":43.25721,"lon":5.41112,"is_reserved":false,"is_disabled":false,"rental_uris":{"android":"levelo://app?vid=19e6008c-0743-45ac-b4bf-fc683ef0e14c","ios":"levelo://app?vid=19e6008c-0743-45ac-b4bf-fc683ef0e14c"},"vehicle_type_id":"4","last_reported":1730553233,"current_range_meters":25600,"station_id":"ce4bhkp2rcd13ifvqgd0","pricing_plan_id":"cebpf4jnsgd1na2vs0mg"},{"bike_id":"e96f6149-6cde-4762-820c-53de3fc5c5c4","system_id":"levelo_inurba_marseille","lat":43.231506,"lon":5.437223,"is_reserved":false,"is_disabled":false,"rental_uris":{"android":"levelo://app?vid=e96f6149-6cde-4762-820c-53de3fc5c5c4","ios":"levelo://app?vid=e96f6149-6cde-4762-820c-53de3fc5c5c4"},"vehicle_type_id":"4","last_reported":1730553233,"current_range_meters":12400,"station_id":"ce4bhmp2rcd13ifvqgog","pricing_plan_id":"cebpf4jnsgd1na2vs0mg"},{"bike_id":"b22d739a-01b3-4204-adac-624621fdf7b9","system_id":"levelo_inurba_marseille","lat":43.29618,"lon":5.37166,"is_reserved":false,"is_disabled":false,"rental_uris":{"android":"levelo://app?vid=b22d739a-01b3-4204-adac-624621fdf7b9","ios":"levelo://app?vid=b22d739a-01b3-4204-adac-624621fdf7b9"},"vehicle_type_id":"4","last_reported":1730553233,"current_range_meters":36800,"station_id":"ce4bgnh2rcd13ifvqc0g","pricing_plan_id":"cebpf4jnsgd1na2vs0mg"},{"bike_id":"eb9224dd-4d88-4497-8c81-0e5bc0ea44ac","system_id":"levelo_inurba_marseille","lat":43.29589,"lon":5.36733,"is_reserved":false,"is_disabled":false,"rental_uris":{"android":"levelo://app?vid=eb9224dd-4d88-4497-8c81-0e5bc0ea44ac","ios":"levelo://app?vid=eb9224dd-4d88-4497-8c81-0e5bc0ea44ac"},"vehicle_type_id":"4","last_reported":1730553233,"current_range_meters":38400,"station_id":"ce4bgph2rcd13ifvqc2g","pricing_plan_id":"cebpf4jnsgd1na2vs0mg"},{"bike_id":"7efb9cd7-f03e-4c1d-b63f-e87ffe819639","system_id":"levelo_inurba_marseille","lat":43.22933,"lon":5.35374,"is_reserved":false,"is_disabled":false,"rental_uris":{"android":"levelo://app?vid=7efb9cd7-f03e-4c1d-b63f-e87ffe819639","ios":"levelo://app?vid=7efb9cd7-f03e-4c1d-b63f-e87ffe819639"},"vehicle_type_id":"4","last_reported":1730553233,"current_range_meters":26000,"station_id":"cpo3532slgdg3j2ikp40","pricing_plan_id":"cebpf4jnsgd1na2vs0mg"},{"bike_id":"11c750a2-d7b5-480d-8e51-6aba667e5991","system_id":"levelo_inurba_marseille","lat":43.31725,"lon":5.42403,"is_reserved":false,"is_disabled":false,"rental_uris":{"android":"levelo://app?vid=11c750a2-d7b5-480d-8e51-6aba667e5991","ios":"levelo://app?vid=11c750a2-d7b5-480d-8e51-6aba667e5991"},"vehicle_type_id":"4","last_reported":1730553233,"current_range_meters":38800,"station_id":"ce4bhp92rcd13ifvqhbg","pricing_plan_id":"cebpf4jnsgd1na2vs0mg"},{"bike_id":"55c0e10f-930f-47fb-9be9-78c4fcfe75e9","system_id":"levelo_inurba_marseille","lat":43.29619,"lon":5.37156,"is_reserved":false,"is_disabled":false,"rental_uris":{"android":"levelo://app?vid=55c0e10f-930f-47fb-9be9-78c4fcfe75e9","ios":"levelo://app?vid=55c0e10f-930f-47fb-9be9-78c4fcfe75e9"},"vehicle_type_id":"4","last_reported":1730553233,"current_range_meters":34000,"station_id":"ce4bgnh2rcd13ifvqc0g","pricing_plan_id":"cebpf4jnsgd1na2vs0mg"},{"bike_id":"91dfd9cb-2175-467d-8ea9-cb6d546eecd8","system_id":"levelo_inurba_marseille","lat":43.29619,"lon":5.37153,"is_reserved":false,"is_disabled":false,"rental_uris":{"android":"levelo://app?vid=91dfd9cb-2175-467d-8ea9-cb6d546eecd8","ios":"levelo://app?vid=91dfd9cb-2175-467d-8ea9-cb6d546eecd8"},"vehicle_type_id":"4","last_reported":1730553233,"current_range_meters":38000,"station_id":"ce4bgnh2rcd13ifvqc0g","pricing_plan_id":"cebpf4jnsgd1na2vs0mg"},{"bike_id":"f90d64bf-5977-4008-8657-833637a19dd7","system_id":"levelo_inurba_marseille","lat":43.29358,"lon":5.378029,"is_reserved":false,"is_disabled":false,"rental_uris":{"android":"levelo://app?vid=f90d64bf-5977-4008-8657-833637a19dd7","ios":"levelo://app?vid=f90d64bf-5977-4008-8657-833637a19dd7"},"vehicle_type_id":"4","last_reported":1730553233,"current_range_meters":38800,"station_id":"ce4bgjh2rcd13ifvqbf0","pricing_plan_id":"cebpf4jnsgd1na2vs0mg"},{"bike_id":"cbd0a02c-1df1-4818-afe9-99eebdc64c99","system_id":"levelo_inurba_marseille","lat":43.29293,"lon":5.37445,"is_reserved":false,"is_disabled":false,"rental_uris":{"android":"levelo://app?vid=cbd0a02c-1df1-4818-afe9-99eebdc64c99","ios":"levelo://app?vid=cbd0a02c-1df1-4818-afe9-99eebdc64c99"},"vehicle_type_id":"4","last_reported":1730553233,"current_range_meters":38800,"station_id":"ce4bgi12rcd13ifvqb70","pricing_plan_id":"cebpf4jnsgd1na2vs0mg"},{"bike_id":"b72ed37d-3a02-41b3-a3a9-ba29f33620b3","system_id":"levelo_inurba_marseille","lat":43.311234,"lon":5.377797,"is_reserved":false,"is_disabled":false,"rental_uris":{"android":"levelo://app?vid=b72ed37d-3a02-41b3-a3a9-ba29f33620b3","ios":"levelo://app?vid=b72ed37d-3a02-41b3-a3a9-ba29f33620b3"},"vehicle_type_id":"4","last_reported":1730553233,"current_range_meters":32400,"station_id":"ce4bgt92rcd13ifvqcg0","pricing_plan_id":"cebpf4jnsgd1na2vs0mg"},{"bike_id":"74e3715e-b844-4180-8ba0-50b9e962470d","system_id":"levelo_inurba_marseille","lat":43.26577,"lon":5.39013,"is_reserved":false,"is_disabled":false,"rental_uris":{"android":"levelo://app?vid=74e3715e-b844-4180-8ba0-50b9e962470d","ios":"levelo://app?vid=74e3715e-b844-4180-8ba0-50b9e962470d"},"vehicle_type_id":"4","last_reported":1730553233,"current_range_meters":32800,"station_id":"ce4bhe12rcd13ifvqf30","pricing_plan_id":"cebpf4jnsgd1na2vs0mg"},{"bike_id":"be1d46f5-1de1-4141-a3a0-2c6fdc86f9c8","system_id":"levelo_inurba_marseille","lat":43.29839,"lon":5.36266,"is_reserved":false,"is_disabled":false,"rental_uris":{"android":"levelo://app?vid=be1d46f5-1de1-4141-a3a0-2c6fdc86f9c8","ios":"levelo://app?vid=be1d46f5-1de1-4141-a3a0-2c6fdc86f9c8"},"vehicle_type_id":"4","last_reported":1730553233,"current_range_meters":9600,"station_id":"ce4bgpp2rcd13ifvqc3g","pricing_plan_id":"cebpf4jnsgd1na2vs0mg"},{"bike_id":"785aa062-ffec-40da-a75f-61e7ce8d7679","system_id":"levelo_inurba_marseille","lat":43.27378,"lon":5.36255,"is_reserved":false,"is_disabled":false,"rental_uris":{"android":"levelo://app?vid=785aa062-ffec-40da-a75f-61e7ce8d7679","ios":"levelo://app?vid=785aa062-ffec-40da-a75f-61e7ce8d7679"},"vehicle_type_id":"4","last_reported":1730553233,"current_range_meters":2000,"station_id":"ce4bhbh2rcd13ifvqeo0","pricing_plan_id":"cebpf4jnsgd1na2vs0mg"},{"bike_id":"184be8ec-fbf1-42f9-9d0b-336d167638cd","system_id":"levelo_inurba_marseille","lat":43.27816,"lon":5.40706,"is_reserved":false,"is_disabled":false,"rental_uris":{"android":"levelo://app?vid=184be8ec-fbf1-42f9-9d0b-336d167638cd","ios":"levelo://app?vid=184be8ec-fbf1-42f9-9d0b-336d167638cd"},"vehicle_type_id":"4","last_reported":1730553233,"current_range_meters":36400,"station_id":"ce4bhnh2rcd13ifvqgtg","pricing_plan_id":"cebpf4jnsgd1na2vs0mg"},{"bike_id":"10f9ba4b-9b49-4148-b7f1-372208c6c423","system_id":"levelo_inurba_marseille","lat":43.32282,"lon":5.38275,"is_reserved":false,"is_disabled":false,"rental_uris":{"android":"levelo://app?vid=10f9ba4b-9b49-4148-b7f1-372208c6c423","ios":"levelo://app?vid=10f9ba4b-9b49-4148-b7f1-372208c6c423"},"vehicle_type_id":"4","last_reported":1730553233,"current_range_meters":24000,"station_id":"ce4bhr12rcd13ifvqhqg","pricing_plan_id":"cebpf4jnsgd1na2vs0mg"},{"bike_id":"24ed88ef-7e13-4630-9c40-090c0b464b2b","system_id":"levelo_inurba_marseille","lat":43.25104,"lon":5.4033,"is_reserved":false,"is_disabled":false,"rental_uris":{"android":"levelo://app?vid=24ed88ef-7e13-4630-9c40-090c0b464b2b","ios":"levelo://app?vid=24ed88ef-7e13-4630-9c40-090c0b464b2b"},"vehicle_type_id":"4","last_reported":1730553233,"current_range_meters":34800,"station_id":"ce4bhlh2rcd13ifvqgig","pricing_plan_id":"cebpf4jnsgd1na2vs0mg"},{"bike_id":"61cb322d-9136-4e1a-8396-9903b572600f","system_id":"levelo_inurba_marseille","lat":43.25581,"lon":5.38228,"is_reserved":false,"is_disabled":false,"rental_uris":{"android":"levelo://app?vid=61cb322d-9136-4e1a-8396-9903b572600f","ios":"levelo://app?vid=61cb322d-9136-4e1a-8396-9903b572600f"},"vehicle_type_id":"4","last_reported":1730553233,"current_range_meters":15200,"station_id":"ce4bhih2rcd13ifvqfs0","pricing_plan_id":"cebpf4jnsgd1na2vs0mg"},{"bike_id":"8f867bc2-b7e9-4ebf-853a-e3902c2a6291","system_id":"levelo_inurba_marseille","lat":43.29615,"lon":5.37157,"is_reserved":false,"is_disabled":false,"rental_uris":{"android":"levelo://app?vid=8f867bc2-b7e9-4ebf-853a-e3902c2a6291","ios":"levelo://app?vid=8f867bc2-b7e9-4ebf-853a-e3902c2a6291"},"vehicle_type_id":"4","last_reported":1730553233,"current_range_meters":36400,"station_id":"ce4bgnh2rcd13ifvqc0g","pricing_plan_id":"cebpf4jnsgd1na2vs0mg"},{"bike_id":"37096c62-9652-4ecb-9247-c779f6502e40","system_id":"levelo_inurba_marseille","lat":43.28347,"lon":5.381,"is_reserved":false,"is_disabled":false,"rental_uris":{"android":"levelo://app?vid=37096c62-9652-4ecb-9247-c779f6502e40","ios":"levelo://app?vid=37096c62-9652-4ecb-9247-c779f6502e40"},"vehicle_type_id":"4","last_reported":1730553233,"current_range_meters":16800,"station_id":"ce4bh412rcd13ifvqdr0","pricing_plan_id":"cebpf4jnsgd1na2vs0mg"},{"bike_id":"ace6ce99-29be-40d4-9b62-ff3331bf021c","system_id":"levelo_inurba_marseille","lat":43.2293,"lon":5.35372,"is_reserved":false,"is_disabled":false,"rental_uris":{"android":"levelo://app?vid=ace6ce99-29be-40d4-9b62-ff3331bf021c","ios":"levelo://app?vid=ace6ce99-29be-40d4-9b62-ff3331bf021c"},"vehicle_type_id":"4","last_reported":1730553233,"current_range_meters":19200,"station_id":"cpo3532slgdg3j2ikp40","pricing_plan_id":"cebpf4jnsgd1na2vs0mg"},{"bike_id":"bd9da8da-0e62-42e0-b8e3-48974947ce73","system_id":"levelo_inurba_marseille","lat":43.27815,"lon":5.40711,"is_reserved":false,"is_disabled":false,"rental_uris":{"android":"levelo://app?vid=bd9da8da-0e62-42e0-b8e3-48974947ce73","ios":"levelo://app?vid=bd9da8da-0e62-42e0-b8e3-48974947ce73"},"vehicle_type_id":"4","last_reported":1730553233,"current_range_meters":36400,"station_id":"ce4bhnh2rcd13ifvqgtg","pricing_plan_id":"cebpf4jnsgd1na2vs0mg"},{"bike_id":"2e630634-1b4b-48d1-b7b9-b6da4c69625c","system_id":"levelo_inurba_marseille","lat":43.29266,"lon":5.38434,"is_reserved":false,"is_disabled":false,"rental_uris":{"android":"levelo://app?vid=2e630634-1b4b-48d1-b7b9-b6da4c69625c","ios":"levelo://app?vid=2e630634-1b4b-48d1-b7b9-b6da4c69625c"},"vehicle_type_id":"4","last_reported":1730553233,"current_range_meters":24800,"station_id":"ce4bh692rcd13ifvqea0","pricing_plan_id":"cebpf4jnsgd1na2vs0mg"},{"bike_id":"b27b6b18-d801-4b0b-a4e3-bc55bc4a9aed","system_id":"levelo_inurba_marseille","lat":43.25722,"lon":5.41103,"is_reserved":false,"is_disabled":false,"rental_uris":{"android":"levelo://app?vid=b27b6b18-d801-4b0b-a4e3-bc55bc4a9aed","ios":"levelo://app?vid=b27b6b18-d801-4b0b-a4e3-bc55bc4a9aed"},"vehicle_type_id":"4","last_reported":1730553233,"current_range_meters":38000,"station_id":"ce4bhkp2rcd13ifvqgd0","pricing_plan_id":"cebpf4jnsgd1na2vs0mg"},{"bike_id":"0c39f79f-56ed-40ea-b616-265770ab9a89","system_id":"levelo_inurba_marseille","lat":43.28418,"lon":5.34998,"is_reserved":false,"is_disabled":false,"rental_uris":{"android":"levelo://app?vid=0c39f79f-56ed-40ea-b616-265770ab9a89","ios":"levelo://app?vid=0c39f79f-56ed-40ea-b616-265770ab9a89"},"vehicle_type_id":"4","last_reported":1730553233,"current_range_meters":32000,"station_id":"ce4bhbh2rcd13ifvqepg","pricing_plan_id":"cebpf4jnsgd1na2vs0mg"},{"bike_id":"f68ba7b5-27e2-46e1-9372-b48782903a11","system_id":"levelo_inurba_marseille","lat":43.247312,"lon":5.374171,"is_reserved":false,"is_disabled":false,"rental_uris":{"android":"levelo://app?vid=f68ba7b5-27e2-46e1-9372-b48782903a11","ios":"levelo://app?vid=f68ba7b5-27e2-46e1-9372-b48782903a11"},"vehicle_type_id":"4","last_reported":1730553233,"current_range_meters":28800,"station_id":"","pricing_plan_id":"cebpf4jnsgd1na2vs0mg"},{"bike_id":"ddf17f29-4932-4805-917f-4c36a7aed1ea","system_id":"levelo_inurba_marseille","lat":43.31498,"lon":5.373,"is_reserved":false,"is_disabled":false,"rental_uris":{"android":"levelo://app?vid=ddf17f29-4932-4805-917f-4c36a7aed1ea","ios":"levelo://app?vid=ddf17f29-4932-4805-917f-4c36a7aed1ea"},"vehicle_type_id":"4","last_reported":1730553233,"current_range_meters":38800,"station_id":"ce4bgt12rcd13ifvqcd0","pricing_plan_id":"cebpf4jnsgd1na2vs0mg"},{"bike_id":"94279a57-03c0-47b7-abe3-7226e86fd3b0","system_id":"levelo_inurba_marseille","lat":43.27613,"lon":5.36112,"is_reserved":false,"is_disabled":false,"rental_uris":{"android":"levelo://app?vid=94279a57-03c0-47b7-abe3-7226e86fd3b0","ios":"levelo://app?vid=94279a57-03c0-47b7-abe3-7226e86fd3b0"},"vehicle_type_id":"4","last_reported":1730553233,"current_range_meters":19600,"station_id":"ce4bgj92rcd13ifvqbe0","pricing_plan_id":"cebpf4jnsgd1na2vs0mg"},{"bike_id":"f1ccaef4-75aa-494f-a5b0-5583c26023f0","system_id":"levelo_inurba_marseille","lat":43.307205,"lon":5.375404,"is_reserved":false,"is_disabled":false,"rental_uris":{"android":"levelo://app?vid=f1ccaef4-75aa-494f-a5b0-5583c26023f0","ios":"levelo://app?vid=f1ccaef4-75aa-494f-a5b0-5583c26023f0"},"vehicle_type_id":"4","last_reported":1730553233,"current_range_meters":39200,"station_id":"ce4bgv92rcd13ifvqcq0","pricing_plan_id":"cebpf4jnsgd1na2vs0mg"},{"bike_id":"b1ae6a1d-fda7-45ed-a7e9-a4e5adfbc93e","system_id":"levelo_inurba_marseille","lat":43.29574,"lon":5.39964,"is_reserved":false,"is_disabled":false,"rental_uris":{"android":"levelo://app?vid=b1ae6a1d-fda7-45ed-a7e9-a4e5adfbc93e","ios":"levelo://app?vid=b1ae6a1d-fda7-45ed-a7e9-a4e5adfbc93e"},"vehicle_type_id":"4","last_reported":1730553233,"current_range_meters":18000,"station_id":"ce4bh312rcd13ifvqdj0","pricing_plan_id":"cebpf4jnsgd1na2vs0mg"},{"bike_id":"5ba8e5a8-09bf-412b-b182-000192a6d1f7","system_id":"levelo_inurba_marseille","lat":43.33024,"lon":5.39046,"is_reserved":false,"is_disabled":false,"rental_uris":{"android":"levelo://app?vid=5ba8e5a8-09bf-412b-b182-000192a6d1f7","ios":"levelo://app?vid=5ba8e5a8-09bf-412b-b182-000192a6d1f7"},"vehicle_type_id":"4","last_reported":1730553233,"current_range_meters":22000,"station_id":"ce4bhr92rcd13ifvqhrg","pricing_plan_id":"cebpf4jnsgd1na2vs0mg"},{"bike_id":"042fa1d3-8422-4563-8674-5a3dd318626b","system_id":"levelo_inurba_marseille","lat":43.27914,"lon":5.39586,"is_reserved":false,"is_disabled":false,"rental_uris":{"android":"levelo://app?vid=042fa1d3-8422-4563-8674-5a3dd318626b","ios":"levelo://app?vid=042fa1d3-8422-4563-8674-5a3dd318626b"},"vehicle_type_id":"4","last_reported":1730553233,"current_range_meters":14800,"station_id":"ce4bhf92rcd13ifvqf40","pricing_plan_id":"cebpf4jnsgd1na2vs0mg"},{"bike_id":"56e38add-0f78-4341-b643-7b0849d3280d","system_id":"levelo_inurba_marseille","lat":43.22922,"lon":5.35384,"is_reserved":false,"is_disabled":false,"rental_uris":{"android":"levelo://app?vid=56e38add-0f78-4341-b643-7b0849d3280d","ios":"levelo://app?vid=56e38add-0f78-4341-b643-7b0849d3280d"},"vehicle_type_id":"4","last_reported":1730553233,"current_range_meters":38800,"station_id":"cpo3532slgdg3j2ikp40","pricing_plan_id":"cebpf4jnsgd1na2vs0mg"},{"bike_id":"64aa6271-1fff-4a7d-a7bc-e5e0d3c86c50","system_id":"levelo_inurba_marseille","lat":43.29982,"lon":5.38484,"is_reserved":false,"is_disabled":false,"rental_uris":{"android":"levelo://app?vid=64aa6271-1fff-4a7d-a7bc-e5e0d3c86c50","ios":"levelo://app?vid=64aa6271-1fff-4a7d-a7bc-e5e0d3c86c50"},"vehicle_type_id":"4","last_reported":1730553233,"current_range_meters":34800,"station_id":"ce4bh0h2rcd13ifvqd50","pricing_plan_id":"cebpf4jnsgd1na2vs0mg"},{"bike_id":"b7e5fcd4-fccc-4a36-ac73-b4f28d59aa73","system_id":"levelo_inurba_marseille","lat":43.28425,"lon":5.34986,"is_reserved":false,"is_disabled":false,"rental_uris":{"android":"levelo://app?vid=b7e5fcd4-fccc-4a36-ac73-b4f28d59aa73","ios":"levelo://app?vid=b7e5fcd4-fccc-4a36-ac73-b4f28d59aa73"},"vehicle_type_id":"4","last_reported":1730553233,"current_range_meters":28800,"station_id":"ce4bhbh2rcd13ifvqepg","pricing_plan_id":"cebpf4jnsgd1na2vs0mg"},{"bike_id":"6443849e-bf6a-4688-a5ca-dd60cc1c9300","system_id":"levelo_inurba_marseille","lat":43.28273,"lon":5.3507,"is_reserved":false,"is_disabled":false,"rental_uris":{"android":"levelo://app?vid=6443849e-bf6a-4688-a5ca-dd60cc1c9300","ios":"levelo://app?vid=6443849e-bf6a-4688-a5ca-dd60cc1c9300"},"vehicle_type_id":"4","last_reported":1730553233,"current_range_meters":34800,"station_id":"ce4bhbp2rcd13ifvqerg","pricing_plan_id":"cebpf4jnsgd1na2vs0mg"},{"bike_id":"ae85085d-334a-4e50-ba19-6b435f265acb","system_id":"levelo_inurba_marseille","lat":43.29623,"lon":5.37148,"is_reserved":false,"is_disabled":false,"rental_uris":{"android":"levelo://app?vid=ae85085d-334a-4e50-ba19-6b435f265acb","ios":"levelo://app?vid=ae85085d-334a-4e50-ba19-6b435f265acb"},"vehicle_type_id":"4","last_reported":1730553233,"current_range_meters":36400,"station_id":"ce4bgnh2rcd13ifvqc0g","pricing_plan_id":"cebpf4jnsgd1na2vs0mg"},{"bike_id":"7860a8eb-8bd7-4aa0-83fa-7000922a7285","system_id":"levelo_inurba_marseille","lat":43.32284,"lon":5.38276,"is_reserved":false,"is_disabled":false,"rental_uris":{"android":"levelo://app?vid=7860a8eb-8bd7-4aa0-83fa-7000922a7285","ios":"levelo://app?vid=7860a8eb-8bd7-4aa0-83fa-7000922a7285"},"vehicle_type_id":"4","last_reported":1730553233,"current_range_meters":38000,"station_id":"ce4bhr12rcd13ifvqhqg","pricing_plan_id":"cebpf4jnsgd1na2vs0mg"},{"bike_id":"3ab46d2b-27f4-4eb5-a71a-7ef5d6848fd2","system_id":"levelo_inurba_marseille","lat":43.2693,"lon":5.38907,"is_reserved":false,"is_disabled":false,"rental_uris":{"android":"levelo://app?vid=3ab46d2b-27f4-4eb5-a71a-7ef5d6848fd2","ios":"levelo://app?vid=3ab46d2b-27f4-4eb5-a71a-7ef5d6848fd2"},"vehicle_type_id":"4","last_reported":1730553233,"current_range_meters":20800,"station_id":"ce4bhhh2rcd13ifvqfl0","pricing_plan_id":"cebpf4jnsgd1na2vs0mg"},{"bike_id":"84eff928-eb31-4529-a9cd-6308c845218b","system_id":"levelo_inurba_marseille","lat":43.26195,"lon":5.37448,"is_reserved":false,"is_disabled":false,"rental_uris":{"android":"levelo://app?vid=84eff928-eb31-4529-a9cd-6308c845218b","ios":"levelo://app?vid=84eff928-eb31-4529-a9cd-6308c845218b"},"vehicle_type_id":"4","last_reported":1730553233,"current_range_meters":30800,"station_id":"ce4bhgp2rcd13ifvqfc0","pricing_plan_id":"cebpf4jnsgd1na2vs0mg"},{"bike_id":"8225aed8-ba97-4859-ac83-18d2cc9ee820","system_id":"levelo_inurba_marseille","lat":43.295288,"lon":5.385499,"is_reserved":false,"is_disabled":false,"rental_uris":{"android":"levelo://app?vid=8225aed8-ba97-4859-ac83-18d2cc9ee820","ios":"levelo://app?vid=8225aed8-ba97-4859-ac83-18d2cc9ee820"},"vehicle_type_id":"4","last_reported":1730553233,"current_range_meters":3200,"station_id":"ce4bgih2rcd13ifvqba0","pricing_plan_id":"cebpf4jnsgd1na2vs0mg"},{"bike_id":"f022e57f-5d9d-4920-a4a9-2cf8b643d5ad","system_id":"levelo_inurba_marseille","lat":43.305459,"lon":5.365543,"is_reserved":false,"is_disabled":false,"rental_uris":{"android":"levelo://app?vid=f022e57f-5d9d-4920-a4a9-2cf8b643d5ad","ios":"levelo://app?vid=f022e57f-5d9d-4920-a4a9-2cf8b643d5ad"},"vehicle_type_id":"4","last_reported":1730553233,"current_range_meters":38800,"station_id":"ce4bgh92rcd13ifvqb50","pricing_plan_id":"cebpf4jnsgd1na2vs0mg"},{"bike_id":"d78e797c-bf71-4588-82be-a646a1f0f2ec","system_id":"levelo_inurba_marseille","lat":43.34152,"lon":5.40904,"is_reserved":false,"is_disabled":false,"rental_uris":{"android":"levelo://app?vid=d78e797c-bf71-4588-82be-a646a1f0f2ec","ios":"levelo://app?vid=d78e797c-bf71-4588-82be-a646a1f0f2ec"},"vehicle_type_id":"4","last_reported":1730553233,"current_range_meters":37600,"station_id":"ce4bhqh2rcd13ifvqhlg","pricing_plan_id":"cebpf4jnsgd1na2vs0mg"},{"bike_id":"00e70a20-c568-4fa0-a424-a40454a7bfa5","system_id":"levelo_inurba_marseille","lat":43.32366,"lon":5.38879,"is_reserved":false,"is_disabled":false,"rental_uris":{"android":"levelo://app?vid=00e70a20-c568-4fa0-a424-a40454a7bfa5","ios":"levelo://app?vid=00e70a20-c568-4fa0-a424-a40454a7bfa5"},"vehicle_type_id":"4","last_reported":1730553233,"current_range_meters":8000,"station_id":"ce4bhqp2rcd13ifvqhog","pricing_plan_id":"cebpf4jnsgd1na2vs0mg"},{"bike_id":"e2c57d61-a2c7-477d-8a68-3f7aff0d253d","system_id":"levelo_inurba_marseille","lat":43.32027,"lon":5.41525,"is_reserved":false,"is_disabled":false,"rental_uris":{"android":"levelo://app?vid=e2c57d61-a2c7-477d-8a68-3f7aff0d253d","ios":"levelo://app?vid=e2c57d61-a2c7-477d-8a68-3f7aff0d253d"},"vehicle_type_id":"4","last_reported":1730553233,"current_range_meters":37600,"station_id":"ce4bhq92rcd13ifvqhkg","pricing_plan_id":"cebpf4jnsgd1na2vs0mg"},{"bike_id":"76391c0b-a149-4e5d-96fb-1e71c79f5102","system_id":"levelo_inurba_marseille","lat":43.25492,"lon":5.37653,"is_reserved":false,"is_disabled":false,"rental_uris":{"android":"levelo://app?vid=76391c0b-a149-4e5d-96fb-1e71c79f5102","ios":"levelo://app?vid=76391c0b-a149-4e5d-96fb-1e71c79f5102"},"vehicle_type_id":"4","last_reported":1730553233,"current_range_meters":28000,"station_id":"ce4bhh12rcd13ifvqff0","pricing_plan_id":"cebpf4jnsgd1na2vs0mg"},{"bike_id":"b66ece50-bc4f-4a5d-b2a3-ef5f9aba4661","system_id":"levelo_inurba_marseille","lat":43.29269,"lon":5.36838,"is_reserved":false,"is_disabled":false,"rental_uris":{"android":"levelo://app?vid=b66ece50-bc4f-4a5d-b2a3-ef5f9aba4661","ios":"levelo://app?vid=b66ece50-bc4f-4a5d-b2a3-ef5f9aba4661"},"vehicle_type_id":"4","last_reported":1730553233,"current_range_meters":38800,"station_id":"ce4bhbp2rcd13ifvqesg","pricing_plan_id":"cebpf4jnsgd1na2vs0mg"},{"bike_id":"be3e39dd-ba2b-4ec9-87c0-24eda0d85e9d","system_id":"levelo_inurba_marseille","lat":43.2737,"lon":5.3626,"is_reserved":false,"is_disabled":false,"rental_uris":{"android":"levelo://app?vid=be3e39dd-ba2b-4ec9-87c0-24eda0d85e9d","ios":"levelo://app?vid=be3e39dd-ba2b-4ec9-87c0-24eda0d85e9d"},"vehicle_type_id":"4","last_reported":1730553233,"current_range_meters":23200,"station_id":"ce4bhbh2rcd13ifvqeo0","pricing_plan_id":"cebpf4jnsgd1na2vs0mg"},{"bike_id":"10329abd-8e5d-414b-9705-0bfc1ab5a2e3","system_id":"levelo_inurba_marseille","lat":43.29302,"lon":5.37451,"is_reserved":false,"is_disabled":false,"rental_uris":{"android":"levelo://app?vid=10329abd-8e5d-414b-9705-0bfc1ab5a2e3","ios":"levelo://app?vid=10329abd-8e5d-414b-9705-0bfc1ab5a2e3"},"vehicle_type_id":"4","last_reported":1730553233,"current_range_meters":30000,"station_id":"ce4bgi12rcd13ifvqb70","pricing_plan_id":"cebpf4jnsgd1na2vs0mg"},{"bike_id":"dd85fdee-7b4e-41ea-9ba5-3da808cd5ca6","system_id":"levelo_inurba_marseille","lat":43.22924,"lon":5.35377,"is_reserved":false,"is_disabled":false,"rental_uris":{"android":"levelo://app?vid=dd85fdee-7b4e-41ea-9ba5-3da808cd5ca6","ios":"levelo://app?vid=dd85fdee-7b4e-41ea-9ba5-3da808cd5ca6"},"vehicle_type_id":"4","last_reported":1730553233,"current_range_meters":38800,"station_id":"cpo3532slgdg3j2ikp40","pricing_plan_id":"cebpf4jnsgd1na2vs0mg"},{"bike_id":"513d14f4-5afd-4b94-9007-d500e8f033d7","system_id":"levelo_inurba_marseille","lat":43.24386,"lon":5.37047,"is_reserved":false,"is_disabled":false,"rental_uris":{"android":"levelo://app?vid=513d14f4-5afd-4b94-9007-d500e8f033d7","ios":"levelo://app?vid=513d14f4-5afd-4b94-9007-d500e8f033d7"},"vehicle_type_id":"4","last_reported":1730553233,"current_range_meters":25600,"station_id":"ce4bhhh2rcd13ifvqfk0","pricing_plan_id":"cebpf4jnsgd1na2vs0mg"},{"bike_id":"f379f7bd-1f66-480a-a0a9-b3f01f2bd113","system_id":"levelo_inurba_marseille","lat":43.29298,"lon":5.37454,"is_reserved":false,"is_disabled":false,"rental_uris":{"android":"levelo://app?vid=f379f7bd-1f66-480a-a0a9-b3f01f2bd113","ios":"levelo://app?vid=f379f7bd-1f66-480a-a0a9-b3f01f2bd113"},"vehicle_type_id":"4","last_reported":1730553233,"current_range_meters":38800,"station_id":"ce4bgi12rcd13ifvqb70","pricing_plan_id":"cebpf4jnsgd1na2vs0mg"},{"bike_id":"4e245aea-215e-467a-ad7e-1194093d2885","system_id":"levelo_inurba_marseille","lat":43.2953,"lon":5.3751,"is_reserved":false,"is_disabled":false,"rental_uris":{"android":"levelo://app?vid=4e245aea-215e-467a-ad7e-1194093d2885","ios":"levelo://app?vid=4e245aea-215e-467a-ad7e-1194093d2885"},"vehicle_type_id":"4","last_reported":1730553233,"current_range_meters":38800,"station_id":"ce4bgkp2rcd13ifvqbmg","pricing_plan_id":"cebpf4jnsgd1na2vs0mg"},{"bike_id":"8057a42a-f8ce-4fdc-978e-e7b8a2aaa700","system_id":"levelo_inurba_marseille","lat":43.23194,"lon":5.35549,"is_reserved":false,"is_disabled":false,"rental_uris":{"android":"levelo://app?vid=8057a42a-f8ce-4fdc-978e-e7b8a2aaa700","ios":"levelo://app?vid=8057a42a-f8ce-4fdc-978e-e7b8a2aaa700"},"vehicle_type_id":"4","last_reported":1730553233,"current_range_meters":25200,"station_id":"ce4bhu92rcd13ifvqi70","pricing_plan_id":"cebpf4jnsgd1na2vs0mg"},{"bike_id":"67c105b9-496e-4638-9b26-5787e92b93b9","system_id":"levelo_inurba_marseille","lat":43.31711,"lon":5.37746,"is_reserved":false,"is_disabled":false,"rental_uris":{"android":"levelo://app?vid=67c105b9-496e-4638-9b26-5787e92b93b9","ios":"levelo://app?vid=67c105b9-496e-4638-9b26-5787e92b93b9"},"vehicle_type_id":"4","last_reported":1730553233,"current_range_meters":27600,"station_id":"ce4bgth2rcd13ifvqch0","pricing_plan_id":"cebpf4jnsgd1na2vs0mg"},{"bike_id":"39e62dc8-e45d-448d-825e-c7d742bfa64b","system_id":"levelo_inurba_marseille","lat":43.25118,"lon":5.40312,"is_reserved":false,"is_disabled":false,"rental_uris":{"android":"levelo://app?vid=39e62dc8-e45d-448d-825e-c7d742bfa64b","ios":"levelo://app?vid=39e62dc8-e45d-448d-825e-c7d742bfa64b"},"vehicle_type_id":"4","last_reported":1730553233,"current_range_meters":38800,"station_id":"ce4bhlh2rcd13ifvqgig","pricing_plan_id":"cebpf4jnsgd1na2vs0mg"},{"bike_id":"61faeb6a-020e-4969-91da-9fe095228391","system_id":"levelo_inurba_marseille","lat":43.29306,"lon":5.37453,"is_reserved":false,"is_disabled":false,"rental_uris":{"android":"levelo://app?vid=61faeb6a-020e-4969-91da-9fe095228391","ios":"levelo://app?vid=61faeb6a-020e-4969-91da-9fe095228391"},"vehicle_type_id":"4","last_reported":1730553233,"current_range_meters":36000,"station_id":"ce4bgi12rcd13ifvqb70","pricing_plan_id":"cebpf4jnsgd1na2vs0mg"},{"bike_id":"f6d1eaf1-10f9-4cec-be54-3848e3e5a665","system_id":"levelo_inurba_marseille","lat":43.23155,"lon":5.43703,"is_reserved":false,"is_disabled":false,"rental_uris":{"android":"levelo://app?vid=f6d1eaf1-10f9-4cec-be54-3848e3e5a665","ios":"levelo://app?vid=f6d1eaf1-10f9-4cec-be54-3848e3e5a665"},"vehicle_type_id":"4","last_reported":1730553233,"current_range_meters":10000,"station_id":"ce4bhmp2rcd13ifvqgog","pricing_plan_id":"cebpf4jnsgd1na2vs0mg"},{"bike_id":"41d47d69-979b-4480-8fb6-135de4b1e8ff","system_id":"levelo_inurba_marseille","lat":43.25718,"lon":5.41113,"is_reserved":false,"is_disabled":false,"rental_uris":{"android":"levelo://app?vid=41d47d69-979b-4480-8fb6-135de4b1e8ff","ios":"levelo://app?vid=41d47d69-979b-4480-8fb6-135de4b1e8ff"},"vehicle_type_id":"4","last_reported":1730553233,"current_range_meters":38800,"station_id":"ce4bhkp2rcd13ifvqgd0","pricing_plan_id":"cebpf4jnsgd1na2vs0mg"},{"bike_id":"4a9fb076-52cf-4f3a-a4dc-4536b05804cd","system_id":"levelo_inurba_marseille","lat":43.28269,"lon":5.35081,"is_reserved":false,"is_disabled":false,"rental_uris":{"android":"levelo://app?vid=4a9fb076-52cf-4f3a-a4dc-4536b05804cd","ios":"levelo://app?vid=4a9fb076-52cf-4f3a-a4dc-4536b05804cd"},"vehicle_type_id":"4","last_reported":1730553233,"current_range_meters":37600,"station_id":"ce4bhbp2rcd13ifvqerg","pricing_plan_id":"cebpf4jnsgd1na2vs0mg"},{"bike_id":"36028f32-9a92-4268-84c7-c569b0748e63","system_id":"levelo_inurba_marseille","lat":43.24649,"lon":5.38889,"is_reserved":false,"is_disabled":false,"rental_uris":{"android":"levelo://app?vid=36028f32-9a92-4268-84c7-c569b0748e63","ios":"levelo://app?vid=36028f32-9a92-4268-84c7-c569b0748e63"},"vehicle_type_id":"4","last_reported":1730553233,"current_range_meters":16000,"station_id":"ce4bhg12rcd13ifvqf60","pricing_plan_id":"cebpf4jnsgd1na2vs0mg"},{"bike_id":"b8c4b104-f130-4889-80a7-2d5b5f02035d","system_id":"levelo_inurba_marseille","lat":43.28427,"lon":5.3499,"is_reserved":false,"is_disabled":false,"rental_uris":{"android":"levelo://app?vid=b8c4b104-f130-4889-80a7-2d5b5f02035d","ios":"levelo://app?vid=b8c4b104-f130-4889-80a7-2d5b5f02035d"},"vehicle_type_id":"4","last_reported":1730553233,"current_range_meters":37600,"station_id":"ce4bhbh2rcd13ifvqepg","pricing_plan_id":"cebpf4jnsgd1na2vs0mg"},{"bike_id":"922b627d-0694-41ee-9432-6b8033b4e347","system_id":"levelo_inurba_marseille","lat":43.29307,"lon":5.37169,"is_reserved":false,"is_disabled":false,"rental_uris":{"android":"levelo://app?vid=922b627d-0694-41ee-9432-6b8033b4e347","ios":"levelo://app?vid=922b627d-0694-41ee-9432-6b8033b4e347"},"vehicle_type_id":"4","last_reported":1730553233,"current_range_meters":39200,"station_id":"ce4bgh92rcd13ifvqb40","pricing_plan_id":"cebpf4jnsgd1na2vs0mg"},{"bike_id":"811a48e4-4614-42de-92f8-2cd05760950a","system_id":"levelo_inurba_marseille","lat":43.28414,"lon":5.34985,"is_reserved":false,"is_disabled":false,"rental_uris":{"android":"levelo://app?vid=811a48e4-4614-42de-92f8-2cd05760950a","ios":"levelo://app?vid=811a48e4-4614-42de-92f8-2cd05760950a"},"vehicle_type_id":"4","last_reported":1730553233,"current_range_meters":22000,"station_id":"ce4bhbh2rcd13ifvqepg","pricing_plan_id":"cebpf4jnsgd1na2vs0mg"},{"bike_id":"7277536f-fdff-4c4d-bd3f-063962ce583f","system_id":"levelo_inurba_marseille","lat":43.29906,"lon":5.43665,"is_reserved":false,"is_disabled":false,"rental_uris":{"android":"levelo://app?vid=7277536f-fdff-4c4d-bd3f-063962ce583f","ios":"levelo://app?vid=7277536f-fdff-4c4d-bd3f-063962ce583f"},"vehicle_type_id":"4","last_reported":1730553233,"current_range_meters":28400,"station_id":"ce4bhpp2rcd13ifvqhfg","pricing_plan_id":"cebpf4jnsgd1na2vs0mg"},{"bike_id":"7875de50-d330-48ec-bbfa-1b49921374fb","system_id":"levelo_inurba_marseille","lat":43.29986,"lon":5.3849,"is_reserved":false,"is_disabled":false,"rental_uris":{"android":"levelo://app?vid=7875de50-d330-48ec-bbfa-1b49921374fb","ios":"levelo://app?vid=7875de50-d330-48ec-bbfa-1b49921374fb"},"vehicle_type_id":"4","last_reported":1730553233,"current_range_meters":36400,"station_id":"ce4bgj92rcd13ifvqbd0","pricing_plan_id":"cebpf4jnsgd1na2vs0mg"},{"bike_id":"a217430a-bb78-4577-8160-ac0a8d0f6222","system_id":"levelo_inurba_marseille","lat":43.29664,"lon":5.37862,"is_reserved":false,"is_disabled":false,"rental_uris":{"android":"levelo://app?vid=a217430a-bb78-4577-8160-ac0a8d0f6222","ios":"levelo://app?vid=a217430a-bb78-4577-8160-ac0a8d0f6222"},"vehicle_type_id":"4","last_reported":1730553233,"current_range_meters":36800,"station_id":"","pricing_plan_id":"cebpf4jnsgd1na2vs0mg"},{"bike_id":"d1836a9b-c994-405a-81fd-676837d90764","system_id":"levelo_inurba_marseille","lat":43.295507,"lon":5.422847,"is_reserved":false,"is_disabled":false,"rental_uris":{"android":"levelo://app?vid=d1836a9b-c994-405a-81fd-676837d90764","ios":"levelo://app?vid=d1836a9b-c994-405a-81fd-676837d90764"},"vehicle_type_id":"4","last_reported":1730553233,"current_range_meters":24800,"station_id":"ce4bhph2rcd13ifvqhdg","pricing_plan_id":"cebpf4jnsgd1na2vs0mg"},{"bike_id":"e1c24a86-dbc0-4597-9aa9-1f39a9d8997a","system_id":"levelo_inurba_marseille","lat":43.29359,"lon":5.37837,"is_reserved":false,"is_disabled":false,"rental_uris":{"android":"levelo://app?vid=e1c24a86-dbc0-4597-9aa9-1f39a9d8997a","ios":"levelo://app?vid=e1c24a86-dbc0-4597-9aa9-1f39a9d8997a"},"vehicle_type_id":"4","last_reported":1730553233,"current_range_meters":24800,"station_id":"ce4bgjh2rcd13ifvqbf0","pricing_plan_id":"cebpf4jnsgd1na2vs0mg"},{"bike_id":"998cece1-066c-41a2-bc33-b071eea0c432","system_id":"levelo_inurba_marseille","lat":43.29685,"lon":5.37296,"is_reserved":false,"is_disabled":false,"rental_uris":{"android":"levelo://app?vid=998cece1-066c-41a2-bc33-b071eea0c432","ios":"levelo://app?vid=998cece1-066c-41a2-bc33-b071eea0c432"},"vehicle_type_id":"4","last_reported":1730553233,"current_range_meters":38000,"station_id":"ce4bgk12rcd13ifvqbj0","pricing_plan_id":"cebpf4jnsgd1na2vs0mg"},{"bike_id":"54c7ae09-f119-4883-bd11-378c5bbef541","system_id":"levelo_inurba_marseille","lat":43.26949,"lon":5.38627,"is_reserved":false,"is_disabled":false,"rental_uris":{"android":"levelo://app?vid=54c7ae09-f119-4883-bd11-378c5bbef541","ios":"levelo://app?vid=54c7ae09-f119-4883-bd11-378c5bbef541"},"vehicle_type_id":"4","last_reported":1730553233,"current_range_meters":25600,"station_id":"ce4bhh92rcd13ifvqfh0","pricing_plan_id":"cebpf4jnsgd1na2vs0mg"},{"bike_id":"19d17ac5-f3a4-432b-88bc-e72642753ecf","system_id":"levelo_inurba_marseille","lat":43.2621,"lon":5.37917,"is_reserved":false,"is_disabled":false,"rental_uris":{"android":"levelo://app?vid=19d17ac5-f3a4-432b-88bc-e72642753ecf","ios":"levelo://app?vid=19d17ac5-f3a4-432b-88bc-e72642753ecf"},"vehicle_type_id":"4","last_reported":1730553233,"current_range_meters":11600,"station_id":"ce4bhjp2rcd13ifvqg90","pricing_plan_id":"cebpf4jnsgd1na2vs0mg"},{"bike_id":"c085e585-3807-4067-8841-1a78494ee531","system_id":"levelo_inurba_marseille","lat":43.25496,"lon":5.37647,"is_reserved":false,"is_disabled":false,"rental_uris":{"android":"levelo://app?vid=c085e585-3807-4067-8841-1a78494ee531","ios":"levelo://app?vid=c085e585-3807-4067-8841-1a78494ee531"},"vehicle_type_id":"4","last_reported":1730553233,"current_range_meters":16000,"station_id":"ce4bhh12rcd13ifvqff0","pricing_plan_id":"cebpf4jnsgd1na2vs0mg"},{"bike_id":"9deaab64-1edc-489c-9445-a7bbb456b236","system_id":"levelo_inurba_marseille","lat":43.28995,"lon":5.35608,"is_reserved":false,"is_disabled":false,"rental_uris":{"android":"levelo://app?vid=9deaab64-1edc-489c-9445-a7bbb456b236","ios":"levelo://app?vid=9deaab64-1edc-489c-9445-a7bbb456b236"},"vehicle_type_id":"4","last_reported":1730553233,"current_range_meters":38400,"station_id":"ce4bhb92rcd13ifvqen0","pricing_plan_id":"cebpf4jnsgd1na2vs0mg"},{"bike_id":"ee51cf0c-90e3-4361-bf22-56d14d0ea3af","system_id":"levelo_inurba_marseille","lat":43.29896,"lon":5.38517,"is_reserved":false,"is_disabled":false,"rental_uris":{"android":"levelo://app?vid=ee51cf0c-90e3-4361-bf22-56d14d0ea3af","ios":"levelo://app?vid=ee51cf0c-90e3-4361-bf22-56d14d0ea3af"},"vehicle_type_id":"4","last_reported":1730553233,"current_range_meters":25200,"station_id":"ce4bgj92rcd13ifvqbd0","pricing_plan_id":"cebpf4jnsgd1na2vs0mg"},{"bike_id":"7d80838f-ddd1-4936-82d8-035e0f61d8dc","system_id":"levelo_inurba_marseille","lat":43.23063,"lon":5.35493,"is_reserved":false,"is_disabled":false,"rental_uris":{"android":"levelo://app?vid=7d80838f-ddd1-4936-82d8-035e0f61d8dc","ios":"levelo://app?vid=7d80838f-ddd1-4936-82d8-035e0f61d8dc"},"vehicle_type_id":"4","last_reported":1730553233,"current_range_meters":3600,"station_id":"cpo3342slgdg3j2ifvpg","pricing_plan_id":"cebpf4jnsgd1na2vs0mg"},