{"last_updated":1720548636,"ttl":30,"version":"2.2","data":{"bikes":[{"bike_id":"cd6af108-821e-4e68-b6a7-5f7d062089a2","system_id":"levelo_inurba_marseille","lat":43.312239,"lon":5.368562,"is_reserved":false,"is_disabled":false,"rental_uris":{"android":"levelo://app?vid=cd6af108-821e-4e68-b6a7-5f7d062089a2","ios":"levelo://app?vid=cd6af108-821e-4e68-b6a7-5f7d062089a2"},"vehicle_type_id":"4","last_reported":1720548636,"current_range_meters":17600,"station_id":"ce4bgl92rcd13ifvqbq0","pricing_plan_id":"cebpf4jnsgd1na2vs0mg"},{"bike_id":"49417deb-64f2-4337-a190-2dd0192c6b83","system_id":"levelo_inurba_marseille","lat":43.309076,"lon":5.368465,"is_reserved":false,"is_disabled":false,"rental_uris":{"android":"levelo://app?vid=49417deb-64f2-4337-a190-2dd0192c6b83","ios":"levelo://app?vid=49417deb-64f2-4337-a190-2dd0192c6b83"},"vehicle_type_id":"4","last_reported":1720548636,"current_range_meters":19600,"station_id":"ce4bgn92rcd13ifvqbvg","pricing_plan_id":"cebpf4jnsgd1na2vs0mg"},{"bike_id":"75c3a357-e1d0-47c8-8e55-5b209b6475de","system_id":"levelo_inurba_marseille","lat":43.309039,"lon":5.371797,"is_reserved":false,"is_disabled":false,"rental_uris":{"android":"levelo://app?vid=75c3a357-e1d0-47c8-8e55-5b209b6475de","ios":"levelo://app?vid=75c3a357-e1d0-47c8-8e55-5b209b6475de"},"vehicle_type_id":"4","last_reported":1720548636,"current_range_meters":400,"station_id":"ce4bguh2rcd13ifvqckg","pricing_plan_id":"cebpf4jnsgd1na2vs0mg"},{"bike_id":"e9677f64-4d19-4550-9b24-f599839d17e7","system_id":"levelo_inurba_marseille","lat":43.31456,"lon":5.3738,"is_reserved":false,"is_disabled":false,"rental_uris":{"android":"levelo://app?vid=e9677f64-4d19-4550-9b24-f599839d17e7","ios":"levelo://app?vid=e9677f64-4d19-4550-9b24-f599839d17e7"},"vehicle_type_id":"4","last_reported":1720548636,"current_range_meters":18800,"station_id":"","pricing_plan_id":"cebpf4jnsgd1na2vs0mg"},{"bike_id":"525d1a09-10f2-4d1f-aaed-9579fe1b9575","system_id":"levelo_inurba_marseille","lat":43.30847,"lon":5.37476,"is_reserved":false,"is_disabled":false,"rental_uris":{"android":"levelo://app?vid=525d1a09-10f2-4d1f-aaed-9579fe1b9575","ios":"levelo://app?vid=525d1a09-10f2-4d1f-aaed-9579fe1b9575"},"vehicle_type_id":"4","last_reported":1720548636,"current_range_meters":14400,"station_id":"","pricing_plan_id":"cebpf4jnsgd1na2vs0mg"},{"bike_id":"8c90aab2-6655-436f-ab64-8724d8d01fab","system_id":"levelo_inurba_marseille","lat":43.30534,"lon":5.36661,"is_reserved":false,"is_disabled":false,"rental_uris":{"android":"levelo://app?vid=8c90aab2-6655-436f-ab64-8724d8d01fab","ios":"levelo://app?vid=8c90aab2-6655-436f-ab64-8724d8d01fab"},"vehicle_type_id":"4","last_reported":1720548636,"current_range_meters":20400,"station_id":"","pricing_plan_id":"cebpf4jnsgd1na2vs0mg"},{"bike_id":"3dcafee7-e8bd-431a-bc53-bf4727f68a3e","system_id":"levelo_inurba_marseille","lat":43.311125,"lon":5.377624,"is_reserved":false,"is_disabled":false,"rental_uris":{"android":"levelo://app?vid=3dcafee7-e8bd-431a-bc53-bf4727f68a3e","ios":"levelo://app?vid=3dcafee7-e8bd-431a-bc53-bf4727f68a3e"},"vehicle_type_id":"4","last_reported":1720548636,"current_range_meters":0,"station_id":"ce4bgt92rcd13ifvqcg0","pricing_plan_id":"cebpf4jnsgd1na2vs0mg"},{"bike_id":"91036474-6dbb-42f9-8a8b-5e022a88d815","system_id":"levelo_inurba_marseille","lat":43.303046,"lon":5.368981,"is_reserved":false,"is_disabled":false,"rental_uris":{"android":"levelo://app?vid=91036474-6dbb-42f9-8a8b-5e022a88d815","ios":"levelo://app?vid=91036474-6dbb-42f9-8a8b-5e022a88d815"},"vehicle_type_id":"4","last_reported":1720548636,"current_range_meters":0,"station_id":"ce4bgqh2rcd13ifvqc5g","pricing_plan_id":"cebpf4jnsgd1na2vs0mg"},{"bike_id":"d51b40de-d7a9-4758-b48c-1f7ea08521df","system_id":"levelo_inurba_marseille","lat":43.315289,"lon":5.380349,"is_reserved":false,"is_disabled":false,"rental_uris":{"android":"levelo://app?vid=d51b40de-d7a9-4758-b48c-1f7ea08521df","ios":"levelo://app?vid=d51b40de-d7a9-4758-b48c-1f7ea08521df"},"vehicle_type_id":"4","last_reported":1720548636,"current_range_meters":17200,"station_id":"ce4bhsp2rcd13ifvqi50","pricing_plan_id":"cebpf4jnsgd1na2vs0mg"},{"bike_id":"c0347989-f4d4-48ec-8f27-77bef4f2c306","system_id":"levelo_inurba_marseille","lat":43.315289,"lon":5.380349,"is_reserved":false,"is_disabled":false,"rental_uris":{"android":"levelo://app?vid=c0347989-f4d4-48ec-8f27-77bef4f2c306","ios":"levelo://app?vid=c0347989-f4d4-48ec-8f27-77bef4f2c306"},"vehicle_type_id":"4","last_reported":1720548636,"current_range_meters":4400,"station_id":"ce4bhsp2rcd13ifvqi50","pricing_plan_id":"cebpf4jnsgd1na2vs0mg"},{"bike_id":"b002fede-79ce-4139-bb55-6a87446cf623","system_id":"levelo_inurba_marseille","lat":43.30207,"lon":5.36774,"is_reserved":false,"is_disabled":false,"rental_uris":{"android":"levelo://app?vid=b002fede-79ce-4139-bb55-6a87446cf623","ios":"levelo://app?vid=b002fede-79ce-4139-bb55-6a87446cf623"},"vehicle_type_id":"4","last_reported":1720548636,"current_range_meters":24400,"station_id":"","pricing_plan_id":"cebpf4jnsgd1na2vs0mg"},{"bike_id":"1d0b2d18-2a91-4ae6-9ba5-fabe2454b603","system_id":"levelo_inurba_marseille","lat":43.307994,"lon":5.381435,"is_reserved":false,"is_disabled":false,"rental_uris":{"android":"levelo://app?vid=1d0b2d18-2a91-4ae6-9ba5-fabe2454b603","ios":"levelo://app?vid=1d0b2d18-2a91-4ae6-9ba5-fabe2454b603"},"vehicle_type_id":"4","last_reported":1720548636,"current_range_meters":30000,"station_id":"ce4bgt12rcd13ifvqce0","pricing_plan_id":"cebpf4jnsgd1na2vs0mg"},{"bike_id":"e74a5e87-33e4-4ebd-873f-1a3980f40f5f","system_id":"levelo_inurba_marseille","lat":43.301008,"lon":5.368712,"is_reserved":false,"is_disabled":false,"rental_uris":{"android":"levelo://app?vid=e74a5e87-33e4-4ebd-873f-1a3980f40f5f","ios":"levelo://app?vid=e74a5e87-33e4-4ebd-873f-1a3980f40f5f"},"vehicle_type_id":"4","last_reported":1720548636,"current_range_meters":7200,"station_id":"","pricing_plan_id":"cebpf4jnsgd1na2vs0mg"},{"bike_id":"6c161ef7-e331-47e0-a311-7d3881f22d83","system_id":"levelo_inurba_marseille","lat":43.324771,"lon":5.36557,"is_reserved":false,"is_disabled":false,"rental_uris":{"android":"levelo://app?vid=6c161ef7-e331-47e0-a311-7d3881f22d83","ios":"levelo://app?vid=6c161ef7-e331-47e0-a311-7d3881f22d83"},"vehicle_type_id":"4","last_reported":1720548636,"current_range_meters":31600,"station_id":"ce4bhs12rcd13ifvqhvg","pricing_plan_id":"cebpf4jnsgd1na2vs0mg"},{"bike_id":"2f8cbb8a-6b58-472d-8339-b0d9c2e00778","system_id":"levelo_inurba_marseille","lat":43.324796,"lon":5.365677,"is_reserved":false,"is_disabled":false,"rental_uris":{"android":"levelo://app?vid=2f8cbb8a-6b58-472d-8339-b0d9c2e00778","ios":"levelo://app?vid=2f8cbb8a-6b58-472d-8339-b0d9c2e00778"},"vehicle_type_id":"4","last_reported":1720548636,"current_range_meters":16400,"station_id":"ce4bhs12rcd13ifvqhvg","pricing_plan_id":"cebpf4jnsgd1na2vs0mg"},{"bike_id":"4864e9d7-6bd3-4cbe-bb59-ded00b914f3d","system_id":"levelo_inurba_marseille","lat":43.324771,"lon":5.36557,"is_reserved":false,"is_disabled":false,"rental_uris":{"android":"levelo://app?vid=4864e9d7-6bd3-4cbe-bb59-ded00b914f3d","ios":"levelo://app?vid=4864e9d7-6bd3-4cbe-bb59-ded00b914f3d"},"vehicle_type_id":"4","last_reported":1720548636,"current_range_meters":0,"station_id":"ce4bhs12rcd13ifvqhvg","pricing_plan_id":"cebpf4jnsgd1na2vs0mg"},{"bike_id":"36bd7c55-9f13-491f-8948-add56f2ddf1f","system_id":"levelo_inurba_marseille","lat":43.324771,"lon":5.36557,"is_reserved":false,"is_disabled":false,"rental_uris":{"android":"levelo://app?vid=36bd7c55-9f13-491f-8948-add56f2ddf1f","ios":"levelo://app?vid=36bd7c55-9f13-491f-8948-add56f2ddf1f"},"vehicle_type_id":"4","last_reported":1720548636,"current_range_meters":5200,"station_id":"ce4bhs12rcd13ifvqhvg","pricing_plan_id":"cebpf4jnsgd1na2vs0mg"},{"bike_id":"0d17c33d-d096-4d16-bc11-66a3a33d6c1e","system_id":"levelo_inurba_marseille","lat":43.3248,"lon":5.3656,"is_reserved":false,"is_disabled":false,"rental_uris":{"android":"levelo://app?vid=0d17c33d-d096-4d16-bc11-66a3a33d6c1e","ios":"levelo://app?vid=0d17c33d-d096-4d16-bc11-66a3a33d6c1e"},"vehicle_type_id":"4","last_reported":1720548636,"current_range_meters":27200,"station_id":"ce4bhs12rcd13ifvqhvg","pricing_plan_id":"cebpf4jnsgd1na2vs0mg"},{"bike_id":"736b006d-eb18-434f-8304-02f2a380b86d","system_id":"levelo_inurba_marseille","lat":43.324771,"lon":5.36557,"is_reserved":false,"is_disabled":false,"rental_uris":{"android":"levelo://app?vid=736b006d-eb18-434f-8304-02f2a380b86d","ios":"levelo://app?vid=736b006d-eb18-434f-8304-02f2a380b86d"},"vehicle_type_id":"4","last_reported":1720548636,"current_range_meters":31600,"station_id":"ce4bhs12rcd13ifvqhvg","pricing_plan_id":"cebpf4jnsgd1na2vs0mg"},{"bike_id":"a40e8641-70d0-4e45-8b2e-6af26f473c5b","system_id":"levelo_inurba_marseille","lat":43.324771,"lon":5.36557,"is_reserved":false,"is_disabled":false,"rental_uris":{"android":"levelo://app?vid=a40e8641-70d0-4e45-8b2e-6af26f473c5b","ios":"levelo://app?vid=a40e8641-70d0-4e45-8b2e-6af26f473c5b"},"vehicle_type_id":"4","last_reported":1720548636,"current_range_meters":31200,"station_id":"ce4bhs12rcd13ifvqhvg","pricing_plan_id":"cebpf4jnsgd1na2vs0mg"},{"bike_id":"2854fc22-ee9b-4be2-93ec-25bca00574cd","system_id":"levelo_inurba_marseille","lat":43.324771,"lon":5.36557,"is_reserved":false,"is_disabled":false,"rental_uris":{"android":"levelo://app?vid=2854fc22-ee9b-4be2-93ec-25bca00574cd","ios":"levelo://app?vid=2854fc22-ee9b-4be2-93ec-25bca00574cd"},"vehicle_type_id":"4","last_reported":1720548636,"current_range_meters":29600,"station_id":"ce4bhs12rcd13ifvqhvg","pricing_plan_id":"cebpf4jnsgd1na2vs0mg"},{"bike_id":"3b6f66fb-9e0a-4052-87c6-71ce8e2a90c6","system_id":"levelo_inurba_marseille","lat":43.32481,"lon":5.3656,"is_reserved":false,"is_disabled":false,"rental_uris":{"android":"levelo://app?vid=3b6f66fb-9e0a-4052-87c6-71ce8e2a90c6","ios":"levelo://app?vid=3b6f66fb-9e0a-4052-87c6-71ce8e2a90c6"},"vehicle_type_id":"4","last_reported":1720548636,"current_range_meters":18000,"station_id":"ce4bhs12rcd13ifvqhvg","pricing_plan_id":"cebpf4jnsgd1na2vs0mg"},{"bike_id":"99ed4cb1-c592-47b8-a272-7bfe4bc44b56","system_id":"levelo_inurba_marseille","lat":43.32482,"lon":5.365748,"is_reserved":false,"is_disabled":false,"rental_uris":{"android":"levelo://app?vid=99ed4cb1-c592-47b8-a272-7bfe4bc44b56","ios":"levelo://app?vid=99ed4cb1-c592-47b8-a272-7bfe4bc44b56"},"vehicle_type_id":"4","last_reported":1720548636,"current_range_meters":20000,"station_id":"ce4bhs12rcd13ifvqhvg","pricing_plan_id":"cebpf4jnsgd1na2vs0mg"},{"bike_id":"b66c4f64-689e-417f-b940-274f8cc1ece6","system_id":"levelo_inurba_marseille","lat":43.32482,"lon":5.36574,"is_reserved":false,"is_disabled":false,"rental_uris":{"android":"levelo://app?vid=b66c4f64-689e-417f-b940-274f8cc1ece6","ios":"levelo://app?vid=b66c4f64-689e-417f-b940-274f8cc1ece6"},"vehicle_type_id":"4","last_reported":1720548636,"current_range_meters":0,"station_id":"ce4bhs12rcd13ifvqhvg","pricing_plan_id":"cebpf4jnsgd1na2vs0mg"},{"bike_id":"ca590c58-eefb-43f3-a46a-22125ee46971","system_id":"levelo_inurba_marseille","lat":43.32483,"lon":5.36563,"is_reserved":false,"is_disabled":false,"rental_uris":{"android":"levelo://app?vid=ca590c58-eefb-43f3-a46a-22125ee46971","ios":"levelo://app?vid=ca590c58-eefb-43f3-a46a-22125ee46971"},"vehicle_type_id":"4","last_reported":1720548636,"current_range_meters":23200,"station_id":"ce4bhs12rcd13ifvqhvg","pricing_plan_id":"cebpf4jnsgd1na2vs0mg"},{"bike_id":"9dc9a6f5-5a77-4ad0-949e-5299f5781239","system_id":"levelo_inurba_marseille","lat":43.324771,"lon":5.36557,"is_reserved":false,"is_disabled":false,"rental_uris":{"android":"levelo://app?vid=9dc9a6f5-5a77-4ad0-949e-5299f5781239","ios":"levelo://app?vid=9dc9a6f5-5a77-4ad0-949e-5299f5781239"},"vehicle_type_id":"4","last_reported":1720548636,"current_range_meters":21200,"station_id":"ce4bhs12rcd13ifvqhvg","pricing_plan_id":"cebpf4jnsgd1na2vs0mg"},{"bike_id":"59ae1802-b91f-4962-9902-80a0d90677da","system_id":"levelo_inurba_marseille","lat":43.324771,"lon":5.36557,"is_reserved":false,"is_disabled":false,"rental_uris":{"android":"levelo://app?vid=59ae1802-b91f-4962-9902-80a0d90677da","ios":"levelo://app?vid=59ae1802-b91f-4962-9902-80a0d90677da"},"vehicle_type_id":"4","last_reported":1720548636,"current_range_meters":28800,"station_id":"ce4bhs12rcd13ifvqhvg","pricing_plan_id":"cebpf4jnsgd1na2vs0mg"},{"bike_id":"8ced7aaa-6723-4da1-b29e-eaa1acebe5a8","system_id":"levelo_inurba_marseille","lat":43.324771,"lon":5.36557,"is_reserved":false,"is_disabled":false,"rental_uris":{"android":"levelo://app?vid=8ced7aaa-6723-4da1-b29e-eaa1acebe5a8","ios":"levelo://app?vid=8ced7aaa-6723-4da1-b29e-eaa1acebe5a8"},"vehicle_type_id":"4","last_reported":1720548636,"current_range_meters":30800,"station_id":"ce4bhs12rcd13ifvqhvg","pricing_plan_id":"cebpf4jnsgd1na2vs0mg"},{"bike_id":"c1aa7e40-5514-4d91-90f5-78e60593c7a1","system_id":"levelo_inurba_marseille","lat":43.324771,"lon":5.36557,"is_reserved":false,"is_disabled":false,"rental_uris":{"android":"levelo://app?vid=c1aa7e40-5514-4d91-90f5-78e60593c7a1","ios":"levelo://app?vid=c1aa7e40-5514-4d91-90f5-78e60593c7a1"},"vehicle_type_id":"4","last_reported":1720548636,"current_range_meters":31600,"station_id":"ce4bhs12rcd13ifvqhvg","pricing_plan_id":"cebpf4jnsgd1na2vs0mg"},{"bike_id":"37a227cf-5ac6-4a9f-8964-734e74009f18","system_id":"levelo_inurba_marseille","lat":43.324771,"lon":5.36557,"is_reserved":false,"is_disabled":false,"rental_uris":{"android":"levelo://app?vid=37a227cf-5ac6-4a9f-8964-734e74009f18","ios":"levelo://app?vid=37a227cf-5ac6-4a9f-8964-734e74009f18"},"vehicle_type_id":"4","last_reported":1720548636,"current_range_meters":16000,"station_id":"ce4bhs12rcd13ifvqhvg","pricing_plan_id":"cebpf4jnsgd1na2vs0mg"},{"bike_id":"53860622-9335-4cff-acda-1e8f5c589221","system_id":"levelo_inurba_marseille","lat":43.324771,"lon":5.36557,"is_reserved":false,"is_disabled":false,"rental_uris":{"android":"levelo://app?vid=53860622-9335-4cff-acda-1e8f5c589221","ios":"levelo://app?vid=53860622-9335-4cff-acda-1e8f5c589221"},"vehicle_type_id":"4","last_reported":1720548636,"current_range_meters":27200,"station_id":"ce4bhs12rcd13ifvqhvg","pricing_plan_id":"cebpf4jnsgd1na2vs0mg"},{"bike_id":"54c37e49-f076-45e3-828b-61dd8da04feb","system_id":"levelo_inurba_marseille","lat":43.324771,"lon":5.36557,"is_reserved":false,"is_disabled":false,"rental_uris":{"android":"levelo://app?vid=54c37e49-f076-45e3-828b-61dd8da04feb","ios":"levelo://app?vid=54c37e49-f076-45e3-828b-61dd8da04feb"},"vehicle_type_id":"4","last_reported":1720548636,"current_range_meters":26800,"station_id":"ce4bhs12rcd13ifvqhvg","pricing_plan_id":"cebpf4jnsgd1na2vs0mg"},{"bike_id":"c072cd33-e418-474b-bdaf-10a5a067d29b","system_id":"levelo_inurba_marseille","lat":43.310762,"lon":5.383593,"is_reserved":false,"is_disabled":false,"rental_uris":{"android":"levelo://app?vid=c072cd33-e418-474b-bdaf-10a5a067d29b","ios":"levelo://app?vid=c072cd33-e418-474b-bdaf-10a5a067d29b"},"vehicle_type_id":"4","last_reported":1720548636,"current_range_meters":0,"station_id":"ce4bgv92rcd13ifvqcr0","pricing_plan_id":"cebpf4jnsgd1na2vs0mg"},{"bike_id":"006039bb-d3a4-4ced-8c39-11f060d49d83","system_id":"levelo_inurba_marseille","lat":43.31069,"lon":5.38358,"is_reserved":false,"is_disabled":false,"rental_uris":{"android":"levelo://app?vid=006039bb-d3a4-4ced-8c39-11f060d49d83","ios":"levelo://app?vid=006039bb-d3a4-4ced-8c39-11f060d49d83"},"vehicle_type_id":"4","last_reported":1720548636,"current_range_meters":8000,"station_id":"ce4bgv92rcd13ifvqcr0","pricing_plan_id":"cebpf4jnsgd1na2vs0mg"},{"bike_id":"998ca028-f1ba-4bfd-b50c-65bc71f96521","system_id":"levelo_inurba_marseille","lat":43.31077,"lon":5.38366,"is_reserved":false,"is_disabled":false,"rental_uris":{"android":"levelo://app?vid=998ca028-f1ba-4bfd-b50c-65bc71f96521","ios":"levelo://app?vid=998ca028-f1ba-4bfd-b50c-65bc71f96521"},"vehicle_type_id":"4","last_reported":1720548636,"current_range_meters":0,"station_id":"ce4bgv92rcd13ifvqcr0","pricing_plan_id":"cebpf4jnsgd1na2vs0mg"},{"bike_id":"f59fc916-0137-4ba0-a081-b994ba5a757e","system_id":"levelo_inurba_marseille","lat":43.308012,"lon":5.381511,"is_reserved":false,"is_disabled":false,"rental_uris":{"android":"levelo://app?vid=f59fc916-0137-4ba0-a081-b994ba5a757e","ios":"levelo://app?vid=f59fc916-0137-4ba0-a081-b994ba5a757e"},"vehicle_type_id":"4","last_reported":1720548636,"current_range_meters":6800,"station_id":"ce4bgt12rcd13ifvqce0","pricing_plan_id":"cebpf4jnsgd1na2vs0mg"},{"bike_id":"7f136b20-d1e7-442e-9bc8-279e80f987e6","system_id":"levelo_inurba_marseille","lat":43.319935,"lon":5.381699,"is_reserved":false,"is_disabled":false,"rental_uris":{"android":"levelo://app?vid=7f136b20-d1e7-442e-9bc8-279e80f987e6","ios":"levelo://app?vid=7f136b20-d1e7-442e-9bc8-279e80f987e6"},"vehicle_type_id":"4","last_reported":1720548636,"current_range_meters":4400,"station_id":"ce4bhr12rcd13ifvqhpg","pricing_plan_id":"cebpf4jnsgd1na2vs0mg"},{"bike_id":"e0fce12e-e2df-4c9a-8323-2e81f0a315df","system_id":"levelo_inurba_marseille","lat":43.319935,"lon":5.381699,"is_reserved":false,"is_disabled":false,"rental_uris":{"android":"levelo://app?vid=e0fce12e-e2df-4c9a-8323-2e81f0a315df","ios":"levelo://app?vid=e0fce12e-e2df-4c9a-8323-2e81f0a315df"},"vehicle_type_id":"4","last_reported":1720548636,"current_range_meters":11600,"station_id":"ce4bhr12rcd13ifvqhpg","pricing_plan_id":"cebpf4jnsgd1na2vs0mg"},{"bike_id":"99ef2cd6-5f52-496f-933e-4198954124b0","system_id":"levelo_inurba_marseille","lat":43.313571,"lon":5.384829,"is_reserved":false,"is_disabled":false,"rental_uris":{"android":"levelo://app?vid=99ef2cd6-5f52-496f-933e-4198954124b0","ios":"levelo://app?vid=99ef2cd6-5f52-496f-933e-4198954124b0"},"vehicle_type_id":"4","last_reported":1720548636,"current_range_meters":8400,"station_id":"ce4bgt92rcd13ifvqcf0","pricing_plan_id":"cebpf4jnsgd1na2vs0mg"},{"bike_id":"4edc034f-b310-4e3e-b116-787aadb539d1","system_id":"levelo_inurba_marseille","lat":43.299724,"lon":5.371829,"is_reserved":false,"is_disabled":false,"rental_uris":{"android":"levelo://app?vid=4edc034f-b310-4e3e-b116-787aadb539d1","ios":"levelo://app?vid=4edc034f-b310-4e3e-b116-787aadb539d1"},"vehicle_type_id":"4","last_reported":1720548636,"current_range_meters":31200,"station_id":"ce4bgr92rcd13ifvqc7g","pricing_plan_id":"cebpf4jnsgd1na2vs0mg"},{"bike_id":"0a6ec8e4-cb57-40a2-809e-ad7b88293fa8","system_id":"levelo_inurba_marseille","lat":43.299724,"lon":5.371829,"is_reserved":false,"is_disabled":false,"rental_uris":{"android":"levelo://app?vid=0a6ec8e4-cb57-40a2-809e-ad7b88293fa8","ios":"levelo://app?vid=0a6ec8e4-cb57-40a2-809e-ad7b88293fa8"},"vehicle_type_id":"4","last_reported":1720548636,"current_range_meters":4400,"station_id":"ce4bgr92rcd13ifvqc7g","pricing_plan_id":"cebpf4jnsgd1na2vs0mg"},{"bike_id":"6b24ff8e-6414-4855-ad4f-f3e58a1ac0c3","system_id":"levelo_inurba_marseille","lat":43.298433,"lon":5.362774,"is_reserved":false,"is_disabled":false,"rental_uris":{"android":"levelo://app?vid=6b24ff8e-6414-4855-ad4f-f3e58a1ac0c3","ios":"levelo://app?vid=6b24ff8e-6414-4855-ad4f-f3e58a1ac0c3"},"vehicle_type_id":"4","last_reported":1720548636,"current_range_meters":0,"station_id":"ce4bgpp2rcd13ifvqc3g","pricing_plan_id":"cebpf4jnsgd1na2vs0mg"},{"bike_id":"d20f634a-1399-4912-b568-a7ac437db1cd","system_id":"levelo_inurba_marseille","lat":43.298433,"lon":5.362774,"is_reserved":false,"is_disabled":false,"rental_uris":{"android":"levelo://app?vid=d20f634a-1399-4912-b568-a7ac437db1cd","ios":"levelo://app?vid=d20f634a-1399-4912-b568-a7ac437db1cd"},"vehicle_type_id":"4","last_reported":1720548636,"current_range_meters":16000,"station_id":"ce4bgpp2rcd13ifvqc3g","pricing_plan_id":"cebpf4jnsgd1na2vs0mg"},{"bike_id":"4ccce021-a908-4236-8666-8d763ab5efd7","system_id":"levelo_inurba_marseille","lat":43.31168,"lon":5.38709,"is_reserved":false,"is_disabled":false,"rental_uris":{"android":"levelo://app?vid=4ccce021-a908-4236-8666-8d763ab5efd7","ios":"levelo://app?vid=4ccce021-a908-4236-8666-8d763ab5efd7"},"vehicle_type_id":"4","last_reported":1720548636,"current_range_meters":2400,"station_id":"ce4bgv12rcd13ifvqcp0","pricing_plan_id":"cebpf4jnsgd1na2vs0mg"},{"bike_id":"f2ef8d9a-064f-45d0-8ebb-e5111d7335fb","system_id":"levelo_inurba_marseille","lat":43.2991,"lon":5.37462,"is_reserved":false,"is_disabled":false,"rental_uris":{"android":"levelo://app?vid=f2ef8d9a-064f-45d0-8ebb-e5111d7335fb","ios":"levelo://app?vid=f2ef8d9a-064f-45d0-8ebb-e5111d7335fb"},"vehicle_type_id":"4","last_reported":1720548636,"current_range_meters":0,"station_id":"ce4bgjh2rcd13ifvqbg0","pricing_plan_id":"cebpf4jnsgd1na2vs0mg"},{"bike_id":"bde77008-a228-4495-b010-cba001ce0262","system_id":"levelo_inurba_marseille","lat":43.299243,"lon":5.37481,"is_reserved":false,"is_disabled":false,"rental_uris":{"android":"levelo://app?vid=bde77008-a228-4495-b010-cba001ce0262","ios":"levelo://app?vid=bde77008-a228-4495-b010-cba001ce0262"},"vehicle_type_id":"4","last_reported":1720548636,"current_range_meters":0,"station_id":"ce4bgjh2rcd13ifvqbg0","pricing_plan_id":"cebpf4jnsgd1na2vs0mg"},{"bike_id":"5ea503aa-2894-44d5-aead-3e550a35172e","system_id":"levelo_inurba_marseille","lat":43.299243,"lon":5.374807,"is_reserved":false,"is_disabled":false,"rental_uris":{"android":"levelo://app?vid=5ea503aa-2894-44d5-aead-3e550a35172e","ios":"levelo://app?vid=5ea503aa-2894-44d5-aead-3e550a35172e"},"vehicle_type_id":"4","last_reported":1720548636,"current_range_meters":0,"station_id":"ce4bgjh2rcd13ifvqbg0","pricing_plan_id":"cebpf4jnsgd1na2vs0mg"},{"bike_id":"ddd6984d-3169-4bef-a0be-c6ef25bfb3d2","system_id":"levelo_inurba_marseille","lat":43.297774,"lon":5.370875,"is_reserved":false,"is_disabled":false,"rental_uris":{"android":"levelo://app?vid=ddd6984d-3169-4bef-a0be-c6ef25bfb3d2","ios":"levelo://app?vid=ddd6984d-3169-4bef-a0be-c6ef25bfb3d2"},"vehicle_type_id":"4","last_reported":1720548636,"current_range_meters":3600,"station_id":"ce4bgop2rcd13ifvqc1g","pricing_plan_id":"cebpf4jnsgd1na2vs0mg"},{"bike_id":"d5986dd8-d8c3-4f73-a01d-aa1c545b1bbf","system_id":"levelo_inurba_marseille","lat":43.297794,"lon":5.370888,"is_reserved":false,"is_disabled":false,"rental_uris":{"android":"levelo://app?vid=d5986dd8-d8c3-4f73-a01d-aa1c545b1bbf","ios":"levelo://app?vid=d5986dd8-d8c3-4f73-a01d-aa1c545b1bbf"},"vehicle_type_id":"4","last_reported":1720548636,"current_range_meters":0,"station_id":"ce4bgop2rcd13ifvqc1g","pricing_plan_id":"cebpf4jnsgd1na2vs0mg"},{"bike_id":"94832a7f-7025-477a-99dd-90c90c29be65","system_id":"levelo_inurba_marseille","lat":43.322897,"lon":5.382693,"is_reserved":false,"is_disabled":false,"rental_uris":{"android":"levelo://app?vid=94832a7f-7025-477a-99dd-90c90c29be65","ios":"levelo://app?vid=94832a7f-7025-477a-99dd-90c90c29be65"},"vehicle_type_id":"4","last_reported":1720548636,"current_range_meters":29200,"station_id":"ce4bhr12rcd13ifvqhqg","pricing_plan_id":"cebpf4jnsgd1na2vs0mg"},{"bike_id":"dbf030cb-5d96-4f54-9ccc-5870fe363ad5","system_id":"levelo_inurba_marseille","lat":43.297163,"lon":5.365866,"is_reserved":false,"is_disabled":false,"rental_uris":{"android":"levelo://app?vid=dbf030cb-5d96-4f54-9ccc-5870fe363ad5","ios":"levelo://app?vid=dbf030cb-5d96-4f54-9ccc-5870fe363ad5"},"vehicle_type_id":"4","last_reported":1720548636,"current_range_meters":10000,"station_id":"ce4bgn12rcd13ifvqbt0","pricing_plan_id":"cebpf4jnsgd1na2vs0mg"},{"bike_id":"89041884-29c1-4176-918f-e94918b2dadd","system_id":"levelo_inurba_marseille","lat":43.297163,"lon":5.365866,"is_reserved":false,"is_disabled":false,"rental_uris":{"android":"levelo://app?vid=89041884-29c1-4176-918f-e94918b2dadd","ios":"levelo://app?vid=89041884-29c1-4176-918f-e94918b2dadd"},"vehicle_type_id":"4","last_reported":1720548636,"current_range_meters":10000,"station_id":"ce4bgn12rcd13ifvqbt0","pricing_plan_id":"cebpf4jnsgd1na2vs0mg"},{"bike_id":"617b8f6f-76d0-4734-90af-9d0cdebb59b3","system_id":"levelo_inurba_marseille","lat":43.297163,"lon":5.365866,"is_reserved":false,"is_disabled":false,"rental_uris":{"android":"levelo://app?vid=617b8f6f-76d0-4734-90af-9d0cdebb59b3","ios":"levelo://app?vid=617b8f6f-76d0-4734-90af-9d0cdebb59b3"},"vehicle_type_id":"4","last_reported":1720548636,"current_range_meters":14800,"station_id":"ce4bgn12rcd13ifvqbt0","pricing_plan_id":"cebpf4jnsgd1na2vs0mg"},{"bike_id":"8e525483-1c32-4313-889e-7fbd2c203715","system_id":"levelo_inurba_marseille","lat":43.297163,"lon":5.365866,"is_reserved":false,"is_disabled":false,"rental_uris":{"android":"levelo://app?vid=8e525483-1c32-4313-889e-7fbd2c203715","ios":"levelo://app?vid=8e525483-1c32-4313-889e-7fbd2c203715"},"vehicle_type_id":"4","last_reported":1720548636,"current_range_meters":3200,"station_id":"ce4bgn12rcd13ifvqbt0","pricing_plan_id":"cebpf4jnsgd1na2vs0mg"},{"bike_id":"c88aa81a-8a20-4cde-8288-c48f1c37d7f9","system_id":"levelo_inurba_marseille","lat":43.297163,"lon":5.365866,"is_reserved":false,"is_disabled":false,"rental_uris":{"android":"levelo://app?vid=c88aa81a-8a20-4cde-8288-c48f1c37d7f9","ios":"levelo://app?vid=c88aa81a-8a20-4cde-8288-c48f1c37d7f9"},"vehicle_type_id":"4","last_reported":1720548636,"current_range_meters":24800,"station_id":"ce4bgn12rcd13ifvqbt0","pricing_plan_id":"cebpf4jnsgd1na2vs0mg"},{"bike_id":"7042192c-5ca3-4536-99d2-b9975578e3a2","system_id":"levelo_inurba_marseille","lat":43.297163,"lon":5.365866,"is_reserved":false,"is_disabled":false,"rental_uris":{"android":"levelo://app?vid=7042192c-5ca3-4536-99d2-b9975578e3a2","ios":"levelo://app?vid=7042192c-5ca3-4536-99d2-b9975578e3a2"},"vehicle_type_id":"4","last_reported":1720548636,"current_range_meters":5200,"station_id":"ce4bgn12rcd13ifvqbt0","pricing_plan_id":"cebpf4jnsgd1na2vs0mg"},{"bike_id":"981f4c5f-a763-4c26-adba-5405107abc6d","system_id":"levelo_inurba_marseille","lat":43.297163,"lon":5.365866,"is_reserved":false,"is_disabled":false,"rental_uris":{"android":"levelo://app?vid=981f4c5f-a763-4c26-adba-5405107abc6d","ios":"levelo://app?vid=981f4c5f-a763-4c26-adba-5405107abc6d"},"vehicle_type_id":"4","last_reported":1720548636,"current_range_meters":5200,"station_id":"ce4bgn12rcd13ifvqbt0","pricing_plan_id":"cebpf4jnsgd1na2vs0mg"},{"bike_id":"7497113f-2215-460f-b37d-c6a67ddfafb4","system_id":"levelo_inurba_marseille","lat":43.2968,"lon":5.37291,"is_reserved":false,"is_disabled":false,"rental_uris":{"android":"levelo://app?vid=7497113f-2215-460f-b37d-c6a67ddfafb4","ios":"levelo://app?vid=7497113f-2215-460f-b37d-c6a67ddfafb4"},"vehicle_type_id":"4","last_reported":1720548636,"current_range_meters":0,"station_id":"ce4bgk12rcd13ifvqbj0","pricing_plan_id":"cebpf4jnsgd1na2vs0mg"},{"bike_id":"c23551c4-723f-4fc0-b828-c3d6f12bff97","system_id":"levelo_inurba_marseille","lat":43.297794,"lon":5.370888,"is_reserved":false,"is_disabled":false,"rental_uris":{"android":"levelo://app?vid=c23551c4-723f-4fc0-b828-c3d6f12bff97","ios":"levelo://app?vid=c23551c4-723f-4fc0-b828-c3d6f12bff97"},"vehicle_type_id":"4","last_reported":1720548636,"current_range_meters":13600,"station_id":"ce4bgop2rcd13ifvqc1g","pricing_plan_id":"cebpf4jnsgd1na2vs0mg"},{"bike_id":"4b755adc-86b7-4e91-8e23-295760771f9f","system_id":"levelo_inurba_marseille","lat":43.299028,"lon":5.381509,"is_reserved":false,"is_disabled":false,"rental_uris":{"android":"levelo://app?vid=4b755adc-86b7-4e91-8e23-295760771f9f","ios":"levelo://app?vid=4b755adc-86b7-4e91-8e23-295760771f9f"},"vehicle_type_id":"4","last_reported":1720548636,"current_range_meters":17200,"station_id":"ce4bgj12rcd13ifvqbc0","pricing_plan_id":"cebpf4jnsgd1na2vs0mg"},{"bike_id":"918b4e09-e9f1-47a7-9fb0-b7e6e639cd3e","system_id":"levelo_inurba_marseille","lat":43.299028,"lon":5.381509,"is_reserved":false,"is_disabled":false,"rental_uris":{"android":"levelo://app?vid=918b4e09-e9f1-47a7-9fb0-b7e6e639cd3e","ios":"levelo://app?vid=918b4e09-e9f1-47a7-9fb0-b7e6e639cd3e"},"vehicle_type_id":"4","last_reported":1720548636,"current_range_meters":0,"station_id":"ce4bgj12rcd13ifvqbc0","pricing_plan_id":"cebpf4jnsgd1na2vs0mg"},{"bike_id":"7194e5d2-6960-4bd9-a7a8-72e6cc1ef9f1","system_id":"levelo_inurba_marseille","lat":43.299028,"lon":5.381509,"is_reserved":false,"is_disabled":false,"rental_uris":{"android":"levelo://app?vid=7194e5d2-6960-4bd9-a7a8-72e6cc1ef9f1","ios":"levelo://app?vid=7194e5d2-6960-4bd9-a7a8-72e6cc1ef9f1"},"vehicle_type_id":"4","last_reported":1720548636,"current_range_meters":17200,"station_id":"ce4bgj12rcd13ifvqbc0","pricing_plan_id":"cebpf4jnsgd1na2vs0mg"},{"bike_id":"7a516261-3277-4e3d-bd08-ed613fb1e5ec","system_id":"levelo_inurba_marseille","lat":43.299028,"lon":5.381509,"is_reserved":false,"is_disabled":false,"rental_uris":{"android":"levelo://app?vid=7a516261-3277-4e3d-bd08-ed613fb1e5ec","ios":"levelo://app?vid=7a516261-3277-4e3d-bd08-ed613fb1e5ec"},"vehicle_type_id":"4","last_reported":1720548636,"current_range_meters":6800,"station_id":"ce4bgj12rcd13ifvqbc0","pricing_plan_id":"cebpf4jnsgd1na2vs0mg"},{"bike_id":"e965fc61-f552-4b60-a291-bf0175ca7d04","system_id":"levelo_inurba_marseille","lat":43.298037,"lon":5.381066,"is_reserved":false,"is_disabled":false,"rental_uris":{"android":"levelo://app?vid=e965fc61-f552-4b60-a291-bf0175ca7d04","ios":"levelo://app?vid=e965fc61-f552-4b60-a291-bf0175ca7d04"},"vehicle_type_id":"4","last_reported":1720548636,"current_range_meters":0,"station_id":"ce4bgip2rcd13ifvqbb0","pricing_plan_id":"cebpf4jnsgd1na2vs0mg"},{"bike_id":"fa2257d2-d4c5-4407-8d92-b8266f5ea952","system_id":"levelo_inurba_marseille","lat":43.29794,"lon":5.38095,"is_reserved":false,"is_disabled":false,"rental_uris":{"android":"levelo://app?vid=fa2257d2-d4c5-4407-8d92-b8266f5ea952","ios":"levelo://app?vid=fa2257d2-d4c5-4407-8d92-b8266f5ea952"},"vehicle_type_id":"4","last_reported":1720548636,"current_range_meters":0,"station_id":"ce4bgip2rcd13ifvqbb0","pricing_plan_id":"cebpf4jnsgd1na2vs0mg"},{"bike_id":"4be8cb19-4897-4165-b44f-534fec51f66d","system_id":"levelo_inurba_marseille","lat":43.295748,"lon":5.37522,"is_reserved":false,"is_disabled":false,"rental_uris":{"android":"levelo://app?vid=4be8cb19-4897-4165-b44f-534fec51f66d","ios":"levelo://app?vid=4be8cb19-4897-4165-b44f-534fec51f66d"},"vehicle_type_id":"4","last_reported":1720548636,"current_range_meters":24000,"station_id":"ce4bgh92rcd13ifvqb50","pricing_plan_id":"cebpf4jnsgd1na2vs0mg"},{"bike_id":"b659602b-c462-45dc-9372-747eab9954c6","system_id":"levelo_inurba_marseille","lat":43.295748,"lon":5.37522,"is_reserved":false,"is_disabled":false,"rental_uris":{"android":"levelo://app?vid=b659602b-c462-45dc-9372-747eab9954c6","ios":"levelo://app?vid=b659602b-c462-45dc-9372-747eab9954c6"},"vehicle_type_id":"4","last_reported":1720548636,"current_range_meters":6800,"station_id":"ce4bgh92rcd13ifvqb50","pricing_plan_id":"cebpf4jnsgd1na2vs0mg"},{"bike_id":"d691391d-4f1c-434b-9400-b7409772c6f4","system_id":"levelo_inurba_marseille","lat":43.295748,"lon":5.37522,"is_reserved":false,"is_disabled":false,"rental_uris":{"android":"levelo://app?vid=d691391d-4f1c-434b-9400-b7409772c6f4","ios":"levelo://app?vid=d691391d-4f1c-434b-9400-b7409772c6f4"},"vehicle_type_id":"4","last_reported":1720548636,"current_range_meters":0,"station_id":"ce4bgh92rcd13ifvqb50","pricing_plan_id":"cebpf4jnsgd1na2vs0mg"},{"bike_id":"40e1811f-5ac3-4e5d-ad7e-d374a64e1046","system_id":"levelo_inurba_marseille","lat":43.295748,"lon":5.37522,"is_reserved":false,"is_disabled":false,"rental_uris":{"android":"levelo://app?vid=40e1811f-5ac3-4e5d-ad7e-d374a64e1046","ios":"levelo://app?vid=40e1811f-5ac3-4e5d-ad7e-d374a64e1046"},"vehicle_type_id":"4","last_reported":1720548636,"current_range_meters":2800,"station_id":"ce4bgh92rcd13ifvqb50","pricing_plan_id":"cebpf4jnsgd1na2vs0mg"},{"bike_id":"0d3de406-4860-40c1-a375-5768df116a22","system_id":"levelo_inurba_marseille","lat":43.296277,"lon":5.377108,"is_reserved":false,"is_disabled":false,"rental_uris":{"android":"levelo://app?vid=0d3de406-4860-40c1-a375-5768df116a22","ios":"levelo://app?vid=0d3de406-4860-40c1-a375-5768df116a22"},"vehicle_type_id":"4","last_reported":1720548636,"current_range_meters":3600,"station_id":"ce4bgi92rcd13ifvqb90","pricing_plan_id":"cebpf4jnsgd1na2vs0mg"},{"bike_id":"39554665-2746-4bb7-a659-5bddbc236322","system_id":"levelo_inurba_marseille","lat":43.296277,"lon":5.377108,"is_reserved":false,"is_disabled":false,"rental_uris":{"android":"levelo://app?vid=39554665-2746-4bb7-a659-5bddbc236322","ios":"levelo://app?vid=39554665-2746-4bb7-a659-5bddbc236322"},"vehicle_type_id":"4","last_reported":1720548636,"current_range_meters":6800,"station_id":"ce4bgi92rcd13ifvqb90","pricing_plan_id":"cebpf4jnsgd1na2vs0mg"},{"bike_id":"f3370672-9258-45ad-a733-5f723326b6c9","system_id":"levelo_inurba_marseille","lat":43.295373,"lon":5.37488,"is_reserved":false,"is_disabled":false,"rental_uris":{"android":"levelo://app?vid=f3370672-9258-45ad-a733-5f723326b6c9","ios":"levelo://app?vid=f3370672-9258-45ad-a733-5f723326b6c9"},"vehicle_type_id":"4","last_reported":1720548636,"current_range_meters":0,"station_id":"ce4bgkp2rcd13ifvqbmg","pricing_plan_id":"cebpf4jnsgd1na2vs0mg"},{"bike_id":"1616ff05-7102-462d-8a90-3e818f38be28","system_id":"levelo_inurba_marseille","lat":43.296277,"lon":5.377108,"is_reserved":false,"is_disabled":false,"rental_uris":{"android":"levelo://app?vid=1616ff05-7102-462d-8a90-3e818f38be28","ios":"levelo://app?vid=1616ff05-7102-462d-8a90-3e818f38be28"},"vehicle_type_id":"4","last_reported":1720548636,"current_range_meters":22000,"station_id":"ce4bgi92rcd13ifvqb90","pricing_plan_id":"cebpf4jnsgd1na2vs0mg"},{"bike_id":"9cd2e1a2-aae6-4593-995e-c61b1c7f33a7","system_id":"levelo_inurba_marseille","lat":43.296263,"lon":5.377094,"is_reserved":false,"is_disabled":false,"rental_uris":{"android":"levelo://app?vid=9cd2e1a2-aae6-4593-995e-c61b1c7f33a7","ios":"levelo://app?vid=9cd2e1a2-aae6-4593-995e-c61b1c7f33a7"},"vehicle_type_id":"4","last_reported":1720548636,"current_range_meters":21600,"station_id":"ce4bgi92rcd13ifvqb90","pricing_plan_id":"cebpf4jnsgd1na2vs0mg"},{"bike_id":"3327aaf6-ae2f-44fa-af0d-55f05a3ba113","system_id":"levelo_inurba_marseille","lat":43.309589,"lon":5.390258,"is_reserved":false,"is_disabled":false,"rental_uris":{"android":"levelo://app?vid=3327aaf6-ae2f-44fa-af0d-55f05a3ba113","ios":"levelo://app?vid=3327aaf6-ae2f-44fa-af0d-55f05a3ba113"},"vehicle_type_id":"4","last_reported":1720548636,"current_range_meters":0,"station_id":"ce4bgup2rcd13ifvqco0","pricing_plan_id":"cebpf4jnsgd1na2vs0mg"},{"bike_id":"235e3a6b-d290-424d-8e7e-76daf33ba548","system_id":"levelo_inurba_marseille","lat":43.295279,"lon":5.375048,"is_reserved":false,"is_disabled":false,"rental_uris":{"android":"levelo://app?vid=235e3a6b-d290-424d-8e7e-76daf33ba548","ios":"levelo://app?vid=235e3a6b-d290-424d-8e7e-76daf33ba548"},"vehicle_type_id":"4","last_reported":1720548636,"current_range_meters":0,"station_id":"ce4bgkp2rcd13ifvqbmg","pricing_plan_id":"cebpf4jnsgd1na2vs0mg"},{"bike_id":"88af9840-4f75-44ce-af0f-213a41566306","system_id":"levelo_inurba_marseille","lat":43.301396,"lon":5.387812,"is_reserved":false,"is_disabled":false,"rental_uris":{"android":"levelo://app?vid=88af9840-4f75-44ce-af0f-213a41566306","ios":"levelo://app?vid=88af9840-4f75-44ce-af0f-213a41566306"},"vehicle_type_id":"4","last_reported":1720548636,"current_range_meters":2400,"station_id":"ce4bghh2rcd13ifvqb60","pricing_plan_id":"cebpf4jnsgd1na2vs0mg"},{"bike_id":"70c0a663-eb6b-449a-b944-1a7dd70a6bb2","system_id":"levelo_inurba_marseille","lat":43.301396,"lon":5.387812,"is_reserved":false,"is_disabled":false,"rental_uris":{"android":"levelo://app?vid=70c0a663-eb6b-449a-b944-1a7dd70a6bb2","ios":"levelo://app?vid=70c0a663-eb6b-449a-b944-1a7dd70a6bb2"},"vehicle_type_id":"4","last_reported":1720548636,"current_range_meters":6800,"station_id":"ce4bghh2rcd13ifvqb60","pricing_plan_id":"cebpf4jnsgd1na2vs0mg"},{"bike_id":"eeef2d00-64d0-467f-94e9-b92dde3a4b33","system_id":"levelo_inurba_marseille","lat":43.301396,"lon":5.387812,"is_reserved":false,"is_disabled":false,"rental_uris":{"android":"levelo://app?vid=eeef2d00-64d0-467f-94e9-b92dde3a4b33","ios":"levelo://app?vid=eeef2d00-64d0-467f-94e9-b92dde3a4b33"},"vehicle_type_id":"4","last_reported":1720548636,"current_range_meters":4400,"station_id":"ce4bghh2rcd13ifvqb60","pricing_plan_id":"cebpf4jnsgd1na2vs0mg"},{"bike_id":"e109585b-c93f-4dc4-b6fe-c0e191812cea","system_id":"levelo_inurba_marseille","lat":43.301396,"lon":5.387812,"is_reserved":false,"is_disabled":false,"rental_uris":{"android":"levelo://app?vid=e109585b-c93f-4dc4-b6fe-c0e191812cea","ios":"levelo://app?vid=e109585b-c93f-4dc4-b6fe-c0e191812cea"},"vehicle_type_id":"4","last_reported":1720548636,"current_range_meters":0,"station_id":"ce4bghh2rcd13ifvqb60","pricing_plan_id":"cebpf4jnsgd1na2vs0mg"},{"bike_id":"4bd7b6e6-086c-4d99-8fe3-c4b8ffe4eb27","system_id":"levelo_inurba_marseille","lat":43.301396,"lon":5.387812,"is_reserved":false,"is_disabled":false,"rental_uris":{"android":"levelo://app?vid=4bd7b6e6-086c-4d99-8fe3-c4b8ffe4eb27","ios":"levelo://app?vid=4bd7b6e6-086c-4d99-8fe3-c4b8ffe4eb27"},"vehicle_type_id":"4","last_reported":1720548636,"current_range_meters":7200,"station_id":"ce4bghh2rcd13ifvqb60","pricing_plan_id":"cebpf4jnsgd1na2vs0mg"},{"bike_id":"644c83e4-ea1b-47f9-9077-4a1eb763f7aa","system_id":"levelo_inurba_marseille","lat":43.32367,"lon":5.388836,"is_reserved":false,"is_disabled":false,"rental_uris":{"android":"levelo://app?vid=644c83e4-ea1b-47f9-9077-4a1eb763f7aa","ios":"levelo://app?vid=644c83e4-ea1b-47f9-9077-4a1eb763f7aa"},"vehicle_type_id":"4","last_reported":1720548636,"current_range_meters":0,"station_id":"ce4bhqp2rcd13ifvqhog","pricing_plan_id":"cebpf4jnsgd1na2vs0mg"},{"bike_id":"c5f1069d-c4ea-4fe6-8815-cb0b27e926e5","system_id":"levelo_inurba_marseille","lat":43.29602,"lon":5.381084,"is_reserved":false,"is_disabled":false,"rental_uris":{"android":"levelo://app?vid=c5f1069d-c4ea-4fe6-8815-cb0b27e926e5","ios":"levelo://app?vid=c5f1069d-c4ea-4fe6-8815-cb0b27e926e5"},"vehicle_type_id":"4","last_reported":1720548636,"current_range_meters":15200,"station_id":"ce4bgl12rcd13ifvqbo0","pricing_plan_id":"cebpf4jnsgd1na2vs0mg"},{"bike_id":"b46d8684-4f6e-4ef0-a2df-fe23f3e33bc8","system_id":"levelo_inurba_marseille","lat":43.29602,"lon":5.381084,"is_reserved":false,"is_disabled":false,"rental_uris":{"android":"levelo://app?vid=b46d8684-4f6e-4ef0-a2df-fe23f3e33bc8","ios":"levelo://app?vid=b46d8684-4f6e-4ef0-a2df-fe23f3e33bc8"},"vehicle_type_id":"4","last_reported":1720548636,"current_range_meters":4000,"station_id":"ce4bgl12rcd13ifvqbo0","pricing_plan_id":"cebpf4jnsgd1na2vs0mg"},{"bike_id":"b82a9eeb-0eef-42dc-9849-f8b8b33b0619","system_id":"levelo_inurba_marseille","lat":43.29602,"lon":5.381084,"is_reserved":false,"is_disabled":false,"rental_uris":{"android":"levelo://app?vid=b82a9eeb-0eef-42dc-9849-f8b8b33b0619","ios":"levelo://app?vid=b82a9eeb-0eef-42dc-9849-f8b8b33b0619"},"vehicle_type_id":"4","last_reported":1720548636,"current_range_meters":0,"station_id":"ce4bgl12rcd13ifvqbo0","pricing_plan_id":"cebpf4jnsgd1na2vs0mg"},{"bike_id":"c12583e5-b4d6-45e2-a458-8799a1f033b8","system_id":"levelo_inurba_marseille","lat":43.3193,"lon":5.39236,"is_reserved":false,"is_disabled":false,"rental_uris":{"android":"levelo://app?vid=c12583e5-b4d6-45e2-a458-8799a1f033b8","ios":"levelo://app?vid=c12583e5-b4d6-45e2-a458-8799a1f033b8"},"vehicle_type_id":"4","last_reported":1720548636,"current_range_meters":6800,"station_id":"","pricing_plan_id":"cebpf4jnsgd1na2vs0mg"},{"bike_id":"685aef64-c75b-4218-9235-e6e77c56330b","system_id":"levelo_inurba_marseille","lat":43.29602,"lon":5.381084,"is_reserved":false,"is_disabled":false,"rental_uris":{"android":"levelo://app?vid=685aef64-c75b-4218-9235-e6e77c56330b","ios":"levelo://app?vid=685aef64-c75b-4218-9235-e6e77c56330b"},"vehicle_type_id":"4","last_reported":1720548636,"current_range_meters":7200,"station_id":"ce4bgl12rcd13ifvqbo0","pricing_plan_id":"cebpf4jnsgd1na2vs0mg"},{"bike_id":"5960a8dd-5f80-48fd-ba45-635ab52d75bf","system_id":"levelo_inurba_marseille","lat":43.2933,"lon":5.37164,"is_reserved":false,"is_disabled":false,"rental_uris":{"android":"levelo://app?vid=5960a8dd-5f80-48fd-ba45-635ab52d75bf","ios":"levelo://app?vid=5960a8dd-5f80-48fd-ba45-635ab52d75bf"},"vehicle_type_id":"4","last_reported":1720548636,"current_range_meters":2400,"station_id":"ce4bgh92rcd13ifvqb40","pricing_plan_id":"cebpf4jnsgd1na2vs0mg"},{"bike_id":"fef43221-b04e-428e-8420-b0b09cb7e60b","system_id":"levelo_inurba_marseille","lat":43.29847,"lon":5.38572,"is_reserved":false,"is_disabled":false,"rental_uris":{"android":"levelo://app?vid=fef43221-b04e-428e-8420-b0b09cb7e60b","ios":"levelo://app?vid=fef43221-b04e-428e-8420-b0b09cb7e60b"},"vehicle_type_id":"4","last_reported":1720548636,"current_range_meters":14000,"station_id":"","pricing_plan_id":"cebpf4jnsgd1na2vs0mg"},{"bike_id":"c217d58b-df4d-4dfa-9c0a-5d36f9dcbdd7","system_id":"levelo_inurba_marseille","lat":43.293249,"lon":5.371578,"is_reserved":false,"is_disabled":false,"rental_uris":{"android":"levelo://app?vid=c217d58b-df4d-4dfa-9c0a-5d36f9dcbdd7","ios":"levelo://app?vid=c217d58b-df4d-4dfa-9c0a-5d36f9dcbdd7"},"vehicle_type_id":"4","last_reported":1720548636,"current_range_meters":11600,"station_id":"ce4bgh92rcd13ifvqb40","pricing_plan_id":"cebpf4jnsgd1na2vs0mg"},{"bike_id":"6b41869d-3ecf-41f6-b6d6-fe4b0c9b93a6","system_id":"levelo_inurba_marseille","lat":43.293249,"lon":5.371578,"is_reserved":false,"is_disabled":false,"rental_uris":{"android":"levelo://app?vid=6b41869d-3ecf-41f6-b6d6-fe4b0c9b93a6","ios":"levelo://app?vid=6b41869d-3ecf-41f6-b6d6-fe4b0c9b93a6"},"vehicle_type_id":"4","last_reported":1720548636,"current_range_meters":10000,"station_id":"ce4bgh92rcd13ifvqb40","pricing_plan_id":"cebpf4jnsgd1na2vs0mg"},{"bike_id":"29d7ef82-41f4-4f54-b9d3-fb769637a3c7","system_id":"levelo_inurba_marseille","lat":43.29311,"lon":5.37178,"is_reserved":false,"is_disabled":false,"rental_uris":{"android":"levelo://app?vid=29d7ef82-41f4-4f54-b9d3-fb769637a3c7","ios":"levelo://app?vid=29d7ef82-41f4-4f54-b9d3-fb769637a3c7"},"vehicle_type_id":"4","last_reported":1720548636,"current_range_meters":12000,"station_id":"ce4bgh92rcd13ifvqb40","pricing_plan_id":"cebpf4jnsgd1na2vs0mg"},{"bike_id":"53a945ab-b558-434c-a9b1-80cccf0495cd","system_id":"levelo_inurba_marseille","lat":43.2931,"lon":5.37174,"is_reserved":false,"is_disabled":false,"rental_uris":{"android":"levelo://app?vid=53a945ab-b558-434c-a9b1-80cccf0495cd","ios":"levelo://app?vid=53a945ab-b558-434c-a9b1-80cccf0495cd"},"vehicle_type_id":"4","last_reported":1720548636,"current_range_meters":16400,"station_id":"ce4bgh92rcd13ifvqb40","pricing_plan_id":"cebpf4jnsgd1na2vs0mg"},{"bike_id":"4879935e-2728-46c6-811b-5c86b80aba2d","system_id":"levelo_inurba_marseille","lat":43.29309,"lon":5.37169,"is_reserved":false,"is_disabled":false,"rental_uris":{"android":"levelo://app?vid=4879935e-2728-46c6-811b-5c86b80aba2d","ios":"levelo://app?vid=4879935e-2728-46c6-811b-5c86b80aba2d"},"vehicle_type_id":"4","last_reported":1720548636,"current_range_meters":0,"station_id":"ce4bgh92rcd13ifvqb40","pricing_plan_id":"cebpf4jnsgd1na2vs0mg"},{"bike_id":"95cd77ee-4ff8-48a9-9192-dd1625c4e910","system_id":"levelo_inurba_marseille","lat":43.2931,"lon":5.37178,"is_reserved":false,"is_disabled":false,"rental_uris":{"android":"levelo://app?vid=95cd77ee-4ff8-48a9-9192-dd1625c4e910","ios":"levelo://app?vid=95cd77ee-4ff8-48a9-9192-dd1625c4e910"},"vehicle_type_id":"4","last_reported":1720548636,"current_range_meters":0,"station_id":"ce4bgh92rcd13ifvqb40","pricing_plan_id":"cebpf4jnsgd1na2vs0mg"},{"bike_id":"5969310c-4af4-46a3-8471-4727d57be0ef","system_id":"levelo_inurba_marseille","lat":43.293249,"lon":5.371578,"is_reserved":false,"is_disabled":false,"rental_uris":{"android":"levelo://app?vid=5969310c-4af4-46a3-8471-4727d57be0ef","ios":"levelo://app?vid=5969310c-4af4-46a3-8471-4727d57be0ef"},"vehicle_type_id":"4","last_reported":1720548636,"current_range_meters":13600,"station_id":"ce4bgh92rcd13ifvqb40","pricing_plan_id":"cebpf4jnsgd1na2vs0mg"},{"bike_id":"b7fbf949-fa21-41c1-9264-f9194e054876","system_id":"levelo_inurba_marseille","lat":43.29308,"lon":5.37176,"is_reserved":false,"is_disabled":false,"rental_uris":{"android":"levelo://app?vid=b7fbf949-fa21-41c1-9264-f9194e054876","ios":"levelo://app?vid=b7fbf949-fa21-41c1-9264-f9194e054876"},"vehicle_type_id":"4","last_reported":1720548636,"current_range_meters":21600,"station_id":"ce4bgh92rcd13ifvqb40","pricing_plan_id":"cebpf4jnsgd1na2vs0mg"},{"bike_id":"71149ef4-ab4e-43fd-9fde-27b5bc2d0491","system_id":"levelo_inurba_marseille","lat":43.29307,"lon":5.37174,"is_reserved":false,"is_disabled":false,"rental_uris":{"android":"levelo://app?vid=71149ef4-ab4e-43fd-9fde-27b5bc2d0491","ios":"levelo://app?vid=71149ef4-ab4e-43fd-9fde-27b5bc2d0491"},"vehicle_type_id":"4","last_reported":1720548636,"current_range_meters":0,"station_id":"ce4bgh92rcd13ifvqb40","pricing_plan_id":"cebpf4jnsgd1na2vs0mg"},{"bike_id":"f4056ca7-168a-4587-9ab6-93e1cd8cd2ad","system_id":"levelo_inurba_marseille","lat":43.29306,"lon":5.37172,"is_reserved":false,"is_disabled":false,"rental_uris":{"android":"levelo://app?vid=f4056ca7-168a-4587-9ab6-93e1cd8cd2ad","ios":"levelo://app?vid=f4056ca7-168a-4587-9ab6-93e1cd8cd2ad"},"vehicle_type_id":"4","last_reported":1720548636,"current_range_meters":0,"station_id":"ce4bgh92rcd13ifvqb40","pricing_plan_id":"cebpf4jnsgd1na2vs0mg"},{"bike_id":"c1f0865b-58c8-47c5-9451-746498e0cec6","system_id":"levelo_inurba_marseille","lat":43.29306,"lon":5.37176,"is_reserved":false,"is_disabled":false,"rental_uris":{"android":"levelo://app?vid=c1f0865b-58c8-47c5-9451-746498e0cec6","ios":"levelo://app?vid=c1f0865b-58c8-47c5-9451-746498e0cec6"},"vehicle_type_id":"4","last_reported":1720548636,"current_range_meters":0,"station_id":"ce4bgh92rcd13ifvqb40","pricing_plan_id":"cebpf4jnsgd1na2vs0mg"},{"bike_id":"8cbd6193-9718-475a-beba-b22258590025","system_id":"levelo_inurba_marseille","lat":43.293249,"lon":5.371578,"is_reserved":false,"is_disabled":false,"rental_uris":{"android":"levelo://app?vid=8cbd6193-9718-475a-beba-b22258590025","ios":"levelo://app?vid=8cbd6193-9718-475a-beba-b22258590025"},"vehicle_type_id":"4","last_reported":1720548636,"current_range_meters":13200,"station_id":"ce4bgh92rcd13ifvqb40","pricing_plan_id":"cebpf4jnsgd1na2vs0mg"},{"bike_id":"20904cad-e0c2-4260-bc27-e5eae1e8d7d0","system_id":"levelo_inurba_marseille","lat":43.29306,"lon":5.37181,"is_reserved":false,"is_disabled":false,"rental_uris":{"android":"levelo://app?vid=20904cad-e0c2-4260-bc27-e5eae1e8d7d0","ios":"levelo://app?vid=20904cad-e0c2-4260-bc27-e5eae1e8d7d0"},"vehicle_type_id":"4","last_reported":1720548636,"current_range_meters":26800,"station_id":"ce4bgh92rcd13ifvqb40","pricing_plan_id":"cebpf4jnsgd1na2vs0mg"},{"bike_id":"582d8321-bc37-4339-8133-361158b71835","system_id":"levelo_inurba_marseille","lat":43.29305,"lon":5.37175,"is_reserved":false,"is_disabled":false,"rental_uris":{"android":"levelo://app?vid=582d8321-bc37-4339-8133-361158b71835","ios":"levelo://app?vid=582d8321-bc37-4339-8133-361158b71835"},"vehicle_type_id":"4","last_reported":1720548636,"current_range_meters":7600,"station_id":"ce4bgh92rcd13ifvqb40","pricing_plan_id":"cebpf4jnsgd1na2vs0mg"},{"bike_id":"21a9fb16-d70c-40b7-9122-dff2a710d696","system_id":"levelo_inurba_marseille","lat":43.29305,"lon":5.37176,"is_reserved":false,"is_disabled":false,"rental_uris":{"android":"levelo://app?vid=21a9fb16-d70c-40b7-9122-dff2a710d696","ios":"levelo://app?vid=21a9fb16-d70c-40b7-9122-dff2a710d696"},"vehicle_type_id":"4","last_reported":1720548636,"current_range_meters":0,"station_id":"ce4bgh92rcd13ifvqb40","pricing_plan_id":"cebpf4jnsgd1na2vs0mg"},{"bike_id":"b401f5bc-42d4-4105-a78f-1862d9829623","system_id":"levelo_inurba_marseille","lat":43.29303,"lon":5.37168,"is_reserved":false,"is_disabled":false,"rental_uris":{"android":"levelo://app?vid=b401f5bc-42d4-4105-a78f-1862d9829623","ios":"levelo://app?vid=b401f5bc-42d4-4105-a78f-1862d9829623"},"vehicle_type_id":"4","last_reported":1720548636,"current_range_meters":2000,"station_id":"ce4bgh92rcd13ifvqb40","pricing_plan_id":"cebpf4jnsgd1na2vs0mg"},{"bike_id":"74bdd92d-3a75-401f-80b9-2f1bdf860f66","system_id":"levelo_inurba_marseille","lat":43.29302,"lon":5.37174,"is_reserved":false,"is_disabled":false,"rental_uris":{"android":"levelo://app?vid=74bdd92d-3a75-401f-80b9-2f1bdf860f66","ios":"levelo://app?vid=74bdd92d-3a75-401f-80b9-2f1bdf860f66"},"vehicle_type_id":"4","last_reported":1720548636,"current_range_meters":0,"station_id":"ce4bgh92rcd13ifvqb40","pricing_plan_id":"cebpf4jnsgd1na2vs0mg"},{"bike_id":"34dbecc2-8cdb-4ab6-a455-fa3b15ef07e7","system_id":"levelo_inurba_marseille","lat":43.29301,"lon":5.37179,"is_reserved":false,"is_disabled":false,"rental_uris":{"android":"levelo://app?vid=34dbecc2-8cdb-4ab6-a455-fa3b15ef07e7","ios":"levelo://app?vid=34dbecc2-8cdb-4ab6-a455-fa3b15ef07e7"},"vehicle_type_id":"4","last_reported":1720548636,"current_range_meters":28400,"station_id":"ce4bgh92rcd13ifvqb40","pricing_plan_id":"cebpf4jnsgd1na2vs0mg"},{"bike_id":"605499bf-3758-4b98-a286-f4de05b5b11c","system_id":"levelo_inurba_marseille","lat":43.29299,"lon":5.37169,"is_reserved":false,"is_disabled":false,"rental_uris":{"android":"levelo://app?vid=605499bf-3758-4b98-a286-f4de05b5b11c","ios":"levelo://app?vid=605499bf-3758-4b98-a286-f4de05b5b11c"},"vehicle_type_id":"4","last_reported":1720548636,"current_range_meters":31200,"station_id":"ce4bgh92rcd13ifvqb40","pricing_plan_id":"cebpf4jnsgd1na2vs0mg"},{"bike_id":"112983e1-d92a-4dc6-abc1-aca5030c1745","system_id":"levelo_inurba_marseille","lat":43.29268,"lon":5.37165,"is_reserved":false,"is_disabled":false,"rental_uris":{"android":"levelo://app?vid=112983e1-d92a-4dc6-abc1-aca5030c1745","ios":"levelo://app?vid=112983e1-d92a-4dc6-abc1-aca5030c1745"},"vehicle_type_id":"4","last_reported":1720548636,"current_range_meters":8800,"station_id":"ce4bgh92rcd13ifvqb40","pricing_plan_id":"cebpf4jnsgd1na2vs0mg"},{"bike_id":"ca25b82f-9615-417c-8c12-be901e6b03d5","system_id":"levelo_inurba_marseille","lat":43.293,"lon":5.37436,"is_reserved":false,"is_disabled":false,"rental_uris":{"android":"levelo://app?vid=ca25b82f-9615-417c-8c12-be901e6b03d5","ios":"levelo://app?vid=ca25b82f-9615-417c-8c12-be901e6b03d5"},"vehicle_type_id":"4","last_reported":1720548636,"current_range_meters":0,"station_id":"ce4bgi12rcd13ifvqb70","pricing_plan_id":"cebpf4jnsgd1na2vs0mg"},{"bike_id":"c321400d-66d3-4905-9dae-d2721183910e","system_id":"levelo_inurba_marseille","lat":43.293009,"lon":5.374584,"is_reserved":false,"is_disabled":false,"rental_uris":{"android":"levelo://app?vid=c321400d-66d3-4905-9dae-d2721183910e","ios":"levelo://app?vid=c321400d-66d3-4905-9dae-d2721183910e"},"vehicle_type_id":"4","last_reported":1720548636,"current_range_meters":25200,"station_id":"ce4bgi12rcd13ifvqb70","pricing_plan_id":"cebpf4jnsgd1na2vs0mg"},{"bike_id":"e3a24ce7-7e2d-47c3-87f5-a10d0dbfc4e5","system_id":"levelo_inurba_marseille","lat":43.293009,"lon":5.374584,"is_reserved":false,"is_disabled":false,"rental_uris":{"android":"levelo://app?vid=e3a24ce7-7e2d-47c3-87f5-a10d0dbfc4e5","ios":"levelo://app?vid=e3a24ce7-7e2d-47c3-87f5-a10d0dbfc4e5"},"vehicle_type_id":"4","last_reported":1720548636,"current_range_meters":11600,"station_id":"ce4bgi12rcd13ifvqb70","pricing_plan_id":"cebpf4jnsgd1na2vs0mg"},{"bike_id":"44979c31-20f4-49d5-87f2-4b651e6bae37","system_id":"levelo_inurba_marseille","lat":43.293009,"lon":5.374584,"is_reserved":false,"is_disabled":false,"rental_uris":{"android":"levelo://app?vid=44979c31-20f4-49d5-87f2-4b651e6bae37","ios":"levelo://app?vid=44979c31-20f4-49d5-87f2-4b651e6bae37"},"vehicle_type_id":"4","last_reported":1720548636,"current_range_meters":2000,"station_id":"ce4bgi12rcd13ifvqb70","pricing_plan_id":"cebpf4jnsgd1na2vs0mg"},{"bike_id":"99b780e9-9cd7-4a77-87e2-156f12c61150","system_id":"levelo_inurba_marseille","lat":43.29294,"lon":5.37456,"is_reserved":false,"is_disabled":false,"rental_uris":{"android":"levelo://app?vid=99b780e9-9cd7-4a77-87e2-156f12c61150","ios":"levelo://app?vid=99b780e9-9cd7-4a77-87e2-156f12c61150"},"vehicle_type_id":"4","last_reported":1720548636,"current_range_meters":0,"station_id":"ce4bgi12rcd13ifvqb70","pricing_plan_id":"cebpf4jnsgd1na2vs0mg"},{"bike_id":"6bb8b30a-3de3-4707-99f0-592072099f10","system_id":"levelo_inurba_marseille","lat":43.293009,"lon":5.374584,"is_reserved":false,"is_disabled":false,"rental_uris":{"android":"levelo://app?vid=6bb8b30a-3de3-4707-99f0-592072099f10","ios":"levelo://app?vid=6bb8b30a-3de3-4707-99f0-592072099f10"},"vehicle_type_id":"4","last_reported":1720548636,"current_range_meters":0,"station_id":"ce4bgi12rcd13ifvqb70","pricing_plan_id":"cebpf4jnsgd1na2vs0mg"},{"bike_id":"1dcdfc91-3ade-44c8-bb92-2a85a809cdd4","system_id":"levelo_inurba_marseille","lat":43.303002,"lon":5.392142,"is_reserved":false,"is_disabled":false,"rental_uris":{"android":"levelo://app?vid=1dcdfc91-3ade-44c8-bb92-2a85a809cdd4","ios":"levelo://app?vid=1dcdfc91-3ade-44c8-bb92-2a85a809cdd4"},"vehicle_type_id":"4","last_reported":1720548636,"current_range_meters":800,"station_id":"ce4bgkh2rcd13ifvqbk0","pricing_plan_id":"cebpf4jnsgd1na2vs0mg"},{"bike_id":"65a64060-3635-40c9-90b9-60ccfa1eda2b","system_id":"levelo_inurba_marseille","lat":43.2936,"lon":5.37835,"is_reserved":false,"is_disabled":false,"rental_uris":{"android":"levelo://app?vid=65a64060-3635-40c9-90b9-60ccfa1eda2b","ios":"levelo://app?vid=65a64060-3635-40c9-90b9-60ccfa1eda2b"},"vehicle_type_id":"4","last_reported":1720548636,"current_range_meters":2000,"station_id":"ce4bgjh2rcd13ifvqbf0","pricing_plan_id":"cebpf4jnsgd1na2vs0mg"},{"bike_id":"de4c248e-08f7-405e-8891-2418d8442ad8","system_id":"levelo_inurba_marseille","lat":43.2936,"lon":5.37835,"is_reserved":false,"is_disabled":false,"rental_uris":{"android":"levelo://app?vid=de4c248e-08f7-405e-8891-2418d8442ad8","ios":"levelo://app?vid=de4c248e-08f7-405e-8891-2418d8442ad8"},"vehicle_type_id":"4","last_reported":1720548636,"current_range_meters":14400,"station_id":"ce4bgjh2rcd13ifvqbf0","pricing_plan_id":"cebpf4jnsgd1na2vs0mg"},{"bike_id":"455215e9-4b06-4691-b746-49c5e5cd4b13","system_id":"levelo_inurba_marseille","lat":43.2936,"lon":5.37835,"is_reserved":false,"is_disabled":false,"rental_uris":{"android":"levelo://app?vid=455215e9-4b06-4691-b746-49c5e5cd4b13","ios":"levelo://app?vid=455215e9-4b06-4691-b746-49c5e5cd4b13"},"vehicle_type_id":"4","last_reported":1720548636,"current_range_meters":0,"station_id":"ce4bgjh2rcd13ifvqbf0","pricing_plan_id":"cebpf4jnsgd1na2vs0mg"},{"bike_id":"492577ea-97de-4150-bc5a-4a4b2d9fa32c","system_id":"levelo_inurba_marseille","lat":43.291814,"lon":5.36673,"is_reserved":false,"is_disabled":false,"rental_uris":{"android":"levelo://app?vid=492577ea-97de-4150-bc5a-4a4b2d9fa32c","ios":"levelo://app?vid=492577ea-97de-4150-bc5a-4a4b2d9fa32c"},"vehicle_type_id":"4","last_reported":1720548636,"current_range_meters":0,"station_id":"","pricing_plan_id":"cebpf4jnsgd1na2vs0mg"},{"bike_id":"3cdcb51e-e0e1-4703-a798-1d5cdad7d326","system_id":"levelo_inurba_marseille","lat":43.29228,"lon":5.36075,"is_reserved":false,"is_disabled":false,"rental_uris":{"android":"levelo://app?vid=3cdcb51e-e0e1-4703-a798-1d5cdad7d326","ios":"levelo://app?vid=3cdcb51e-e0e1-4703-a798-1d5cdad7d326"},"vehicle_type_id":"4","last_reported":1720548636,"current_range_meters":24400,"station_id":"ce4bhbh2rcd13ifvqeqg","pricing_plan_id":"cebpf4jnsgd1na2vs0mg"},{"bike_id":"cb4729b2-33b3-4a7a-8e39-a39471741b20","system_id":"levelo_inurba_marseille","lat":43.292245,"lon":5.360725,"is_reserved":false,"is_disabled":false,"rental_uris":{"android":"levelo://app?vid=cb4729b2-33b3-4a7a-8e39-a39471741b20","ios":"levelo://app?vid=cb4729b2-33b3-4a7a-8e39-a39471741b20"},"vehicle_type_id":"4","last_reported":1720548636,"current_range_meters":0,"station_id":"ce4bhbh2rcd13ifvqeqg","pricing_plan_id":"cebpf4jnsgd1na2vs0mg"},{"bike_id":"d12e399e-8310-4ed6-908b-16f938dd0797","system_id":"levelo_inurba_marseille","lat":43.292248,"lon":5.360645,"is_reserved":false,"is_disabled":false,"rental_uris":{"android":"levelo://app?vid=d12e399e-8310-4ed6-908b-16f938dd0797","ios":"levelo://app?vid=d12e399e-8310-4ed6-908b-16f938dd0797"},"vehicle_type_id":"4","last_reported":1720548636,"current_range_meters":0,"station_id":"ce4bhbh2rcd13ifvqeqg","pricing_plan_id":"cebpf4jnsgd1na2vs0mg"},{"bike_id":"10facf95-ac3a-4681-8f9a-5178a319ea02","system_id":"levelo_inurba_marseille","lat":43.29225,"lon":5.36062,"is_reserved":false,"is_disabled":false,"rental_uris":{"android":"levelo://app?vid=10facf95-ac3a-4681-8f9a-5178a319ea02","ios":"levelo://app?vid=10facf95-ac3a-4681-8f9a-5178a319ea02"},"vehicle_type_id":"4","last_reported":1720548636,"current_range_meters":15200,"station_id":"ce4bhbh2rcd13ifvqeqg","pricing_plan_id":"cebpf4jnsgd1na2vs0mg"},{"bike_id":"dbe8dadb-92e0-4450-854a-1329fb678f24","system_id":"levelo_inurba_marseille","lat":43.29225,"lon":5.36056,"is_reserved":false,"is_disabled":false,"rental_uris":{"android":"levelo://app?vid=dbe8dadb-92e0-4450-854a-1329fb678f24","ios":"levelo://app?vid=dbe8dadb-92e0-4450-854a-1329fb678f24"},"vehicle_type_id":"4","last_reported":1720548636,"current_range_meters":0,"station_id":"ce4bhbh2rcd13ifvqeqg","pricing_plan_id":"cebpf4jnsgd1na2vs0mg"},{"bike_id":"1141216a-feda-45b0-b91d-12a427380e5e","system_id":"levelo_inurba_marseille","lat":43.2922,"lon":5.36061,"is_reserved":false,"is_disabled":false,"rental_uris":{"android":"levelo://app?vid=1141216a-feda-45b0-b91d-12a427380e5e","ios":"levelo://app?vid=1141216a-feda-45b0-b91d-12a427380e5e"},"vehicle_type_id":"4","last_reported":1720548636,"current_range_meters":0,"station_id":"ce4bhbh2rcd13ifvqeqg","pricing_plan_id":"cebpf4jnsgd1na2vs0mg"},{"bike_id":"611a5714-671f-4506-abc6-c2565d175e21","system_id":"levelo_inurba_marseille","lat":43.298764,"lon":5.388973,"is_reserved":false,"is_disabled":false,"rental_uris":{"android":"levelo://app?vid=611a5714-671f-4506-abc6-c2565d175e21","ios":"levelo://app?vid=611a5714-671f-4506-abc6-c2565d175e21"},"vehicle_type_id":"4","last_reported":1720548636,"current_range_meters":0,"station_id":"ce4bh392rcd13ifvqdl0","pricing_plan_id":"cebpf4jnsgd1na2vs0mg"},{"bike_id":"29c07bf7-94e1-4878-ac70-fa2c71ffa74b","system_id":"levelo_inurba_marseille","lat":43.298764,"lon":5.388973,"is_reserved":false,"is_disabled":false,"rental_uris":{"android":"levelo://app?vid=29c07bf7-94e1-4878-ac70-fa2c71ffa74b","ios":"levelo://app?vid=29c07bf7-94e1-4878-ac70-fa2c71ffa74b"},"vehicle_type_id":"4","last_reported":1720548636,"current_range_meters":30000,"station_id":"ce4bh392rcd13ifvqdl0","pricing_plan_id":"cebpf4jnsgd1na2vs0mg"},{"bike_id":"a3fd193f-de5e-4a40-8fc1-e3843365b2f8","system_id":"levelo_inurba_marseille","lat":43.291675,"lon":5.371583,"is_reserved":false,"is_disabled":false,"rental_uris":{"android":"levelo://app?vid=a3fd193f-de5e-4a40-8fc1-e3843365b2f8","ios":"levelo://app?vid=a3fd193f-de5e-4a40-8fc1-e3843365b2f8"},"vehicle_type_id":"4","last_reported":1720548636,"current_range_meters":0,"station_id":"ce4bha92rcd13ifvqeh0","pricing_plan_id":"cebpf4jnsgd1na2vs0mg"},{"bike_id":"32baab7a-2fdf-4f59-b343-769bc1da48ee","system_id":"levelo_inurba_marseille","lat":43.291671,"lon":5.371575,"is_reserved":false,"is_disabled":false,"rental_uris":{"android":"levelo://app?vid=32baab7a-2fdf-4f59-b343-769bc1da48ee","ios":"levelo://app?vid=32baab7a-2fdf-4f59-b343-769bc1da48ee"},"vehicle_type_id":"4","last_reported":1720548636,"current_range_meters":20800,"station_id":"ce4bha92rcd13ifvqeh0","pricing_plan_id":"cebpf4jnsgd1na2vs0mg"},{"bike_id":"0a0317e2-6ebc-4208-979d-59d918b312ee","system_id":"levelo_inurba_marseille","lat":43.291671,"lon":5.371575,"is_reserved":false,"is_disabled":false,"rental_uris":{"android":"levelo://app?vid=0a0317e2-6ebc-4208-979d-59d918b312ee","ios":"levelo://app?vid=0a0317e2-6ebc-4208-979d-59d918b312ee"},"vehicle_type_id":"4","last_reported":1720548636,"current_range_meters":4800,"station_id":"ce4bha92rcd13ifvqeh0","pricing_plan_id":"cebpf4jnsgd1na2vs0mg"},{"bike_id":"32a7fe8c-9146-493e-af88-0e5dbbdf8246","system_id":"levelo_inurba_marseille","lat":43.291675,"lon":5.371583,"is_reserved":false,"is_disabled":false,"rental_uris":{"android":"levelo://app?vid=32a7fe8c-9146-493e-af88-0e5dbbdf8246","ios":"levelo://app?vid=32a7fe8c-9146-493e-af88-0e5dbbdf8246"},"vehicle_type_id":"4","last_reported":1720548636,"current_range_meters":31200,"station_id":"ce4bha92rcd13ifvqeh0","pricing_plan_id":"cebpf4jnsgd1na2vs0mg"},{"bike_id":"e368b5ea-50de-492f-8b25-9c1e1f94d758","system_id":"levelo_inurba_marseille","lat":43.291675,"lon":5.371583,"is_reserved":false,"is_disabled":false,"rental_uris":{"android":"levelo://app?vid=e368b5ea-50de-492f-8b25-9c1e1f94d758","ios":"levelo://app?vid=e368b5ea-50de-492f-8b25-9c1e1f94d758"},"vehicle_type_id":"4","last_reported":1720548636,"current_range_meters":13600,"station_id":"ce4bha92rcd13ifvqeh0","pricing_plan_id":"cebpf4jnsgd1na2vs0mg"},{"bike_id":"e310e1e7-aa7b-4e6a-b2e9-df20ba04f344","system_id":"levelo_inurba_marseille","lat":43.291671,"lon":5.371575,"is_reserved":false,"is_disabled":false,"rental_uris":{"android":"levelo://app?vid=e310e1e7-aa7b-4e6a-b2e9-df20ba04f344","ios":"levelo://app?vid=e310e1e7-aa7b-4e6a-b2e9-df20ba04f344"},"vehicle_type_id":"4","last_reported":1720548636,"current_range_meters":0,"station_id":"ce4bha92rcd13ifvqeh0","pricing_plan_id":"cebpf4jnsgd1na2vs0mg"},{"bike_id":"03adf4e5-4d1d-4c40-8359-a451101eed28","system_id":"levelo_inurba_marseille","lat":43.313291,"lon":5.396838,"is_reserved":false,"is_disabled":false,"rental_uris":{"android":"levelo://app?vid=03adf4e5-4d1d-4c40-8359-a451101eed28","ios":"levelo://app?vid=03adf4e5-4d1d-4c40-8359-a451101eed28"},"vehicle_type_id":"4","last_reported":1720548636,"current_range_meters":24400,"station_id":"ce4bgvp2rcd13ifvqcu0","pricing_plan_id":"cebpf4jnsgd1na2vs0mg"},{"bike_id":"d594ae7e-e754-42be-bb60-9572e30adbb4","system_id":"levelo_inurba_marseille","lat":43.29544,"lon":5.3854,"is_reserved":false,"is_disabled":false,"rental_uris":{"android":"levelo://app?vid=d594ae7e-e754-42be-bb60-9572e30adbb4","ios":"levelo://app?vid=d594ae7e-e754-42be-bb60-9572e30adbb4"},"vehicle_type_id":"4","last_reported":1720548636,"current_range_meters":30000,"station_id":"ce4bgih2rcd13ifvqba0","pricing_plan_id":"cebpf4jnsgd1na2vs0mg"},{"bike_id":"db97f78f-60ce-4bad-bc1a-ca47c2289139","system_id":"levelo_inurba_marseille","lat":43.291173,"lon":5.372377,"is_reserved":false,"is_disabled":false,"rental_uris":{"android":"levelo://app?vid=db97f78f-60ce-4bad-bc1a-ca47c2289139","ios":"levelo://app?vid=db97f78f-60ce-4bad-bc1a-ca47c2289139"},"vehicle_type_id":"4","last_reported":1720548636,"current_range_meters":0,"station_id":"","pricing_plan_id":"cebpf4jnsgd1na2vs0mg"},{"bike_id":"30df779a-abea-42e9-b7a7-56c31666250a","system_id":"levelo_inurba_marseille","lat":43.29535,"lon":5.38538,"is_reserved":false,"is_disabled":false,"rental_uris":{"android":"levelo://app?vid=30df779a-abea-42e9-b7a7-56c31666250a","ios":"levelo://app?vid=30df779a-abea-42e9-b7a7-56c31666250a"},"vehicle_type_id":"4","last_reported":1720548636,"current_range_meters":31200,"station_id":"ce4bgih2rcd13ifvqba0","pricing_plan_id":"cebpf4jnsgd1na2vs0mg"},{"bike_id":"49151428-c191-4f9c-93b9-f47c9565b34c","system_id":"levelo_inurba_marseille","lat":43.29539,"lon":5.38547,"is_reserved":false,"is_disabled":false,"rental_uris":{"android":"levelo://app?vid=49151428-c191-4f9c-93b9-f47c9565b34c","ios":"levelo://app?vid=49151428-c191-4f9c-93b9-f47c9565b34c"},"vehicle_type_id":"4","last_reported":1720548636,"current_range_meters":26400,"station_id":"ce4bgih2rcd13ifvqba0","pricing_plan_id":"cebpf4jnsgd1na2vs0mg"},{"bike_id":"12ee3800-a1d7-4808-82a9-2d71e4bd2358","system_id":"levelo_inurba_marseille","lat":43.29537,"lon":5.38544,"is_reserved":false,"is_disabled":false,"rental_uris":{"android":"levelo://app?vid=12ee3800-a1d7-4808-82a9-2d71e4bd2358","ios":"levelo://app?vid=12ee3800-a1d7-4808-82a9-2d71e4bd2358"},"vehicle_type_id":"4","last_reported":1720548636,"current_range_meters":0,"station_id":"ce4bgih2rcd13ifvqba0","pricing_plan_id":"cebpf4jnsgd1na2vs0mg"},{"bike_id":"e840127c-e65f-4c22-88c1-bb4cd00725e6","system_id":"levelo_inurba_marseille","lat":43.29533,"lon":5.38539,"is_reserved":false,"is_disabled":false,"rental_uris":{"android":"levelo://app?vid=e840127c-e65f-4c22-88c1-bb4cd00725e6","ios":"levelo://app?vid=e840127c-e65f-4c22-88c1-bb4cd00725e6"},"vehicle_type_id":"4","last_reported":1720548636,"current_range_meters":31200,"station_id":"ce4bgih2rcd13ifvqba0","pricing_plan_id":"cebpf4jnsgd1na2vs0mg"},{"bike_id":"e483cd88-0a2e-4889-b1ff-41df42697f89","system_id":"levelo_inurba_marseille","lat":43.29529,"lon":5.385581,"is_reserved":false,"is_disabled":false,"rental_uris":{"android":"levelo://app?vid=e483cd88-0a2e-4889-b1ff-41df42697f89","ios":"levelo://app?vid=e483cd88-0a2e-4889-b1ff-41df42697f89"},"vehicle_type_id":"4","last_reported":1720548636,"current_range_meters":22000,"station_id":"ce4bgih2rcd13ifvqba0","pricing_plan_id":"cebpf4jnsgd1na2vs0mg"},{"bike_id":"b0f208e8-26fd-4c56-ae1d-74b86a669635","system_id":"levelo_inurba_marseille","lat":43.29529,"lon":5.385581,"is_reserved":false,"is_disabled":false,"rental_uris":{"android":"levelo://app?vid=b0f208e8-26fd-4c56-ae1d-74b86a669635","ios":"levelo://app?vid=b0f208e8-26fd-4c56-ae1d-74b86a669635"},"vehicle_type_id":"4","last_reported":1720548636,"current_range_meters":22400,"station_id":"ce4bgih2rcd13ifvqba0","pricing_plan_id":"cebpf4jnsgd1na2vs0mg"},{"bike_id":"e0535996-f285-48b8-9403-45a483de2bce","system_id":"levelo_inurba_marseille","lat":43.29529,"lon":5.38544,"is_reserved":false,"is_disabled":false,"rental_uris":{"android":"levelo://app?vid=e0535996-f285-48b8-9403-45a483de2bce","ios":"levelo://app?vid=e0535996-f285-48b8-9403-45a483de2bce"},"vehicle_type_id":"4","last_reported":1720548636,"current_range_meters":10800,"station_id":"ce4bgih2rcd13ifvqba0","pricing_plan_id":"cebpf4jnsgd1na2vs0mg"},{"bike_id":"1a8c3277-e123-47e1-8973-9045cc3e71b4","system_id":"levelo_inurba_marseille","lat":43.29527,"lon":5.38541,"is_reserved":false,"is_disabled":false,"rental_uris":{"android":"levelo://app?vid=1a8c3277-e123-47e1-8973-9045cc3e71b4","ios":"levelo://app?vid=1a8c3277-e123-47e1-8973-9045cc3e71b4"},"vehicle_type_id":"4","last_reported":1720548636,"current_range_meters":24000,"station_id":"ce4bgih2rcd13ifvqba0","pricing_plan_id":"cebpf4jnsgd1na2vs0mg"},{"bike_id":"27c99208-11e4-4cab-b9a5-154bd190621b","system_id":"levelo_inurba_marseille","lat":43.29527,"lon":5.38541,"is_reserved":false,"is_disabled":false,"rental_uris":{"android":"levelo://app?vid=27c99208-11e4-4cab-b9a5-154bd190621b","ios":"levelo://app?vid=27c99208-11e4-4cab-b9a5-154bd190621b"},"vehicle_type_id":"4","last_reported":1720548636,"current_range_meters":18000,"station_id":"ce4bgih2rcd13ifvqba0","pricing_plan_id":"cebpf4jnsgd1na2vs0mg"},{"bike_id":"368e4402-0e06-455b-934b-7a626e85e38a","system_id":"levelo_inurba_marseille","lat":43.29523,"lon":5.38542,"is_reserved":false,"is_disabled":false,"rental_uris":{"android":"levelo://app?vid=368e4402-0e06-455b-934b-7a626e85e38a","ios":"levelo://app?vid=368e4402-0e06-455b-934b-7a626e85e38a"},"vehicle_type_id":"4","last_reported":1720548636,"current_range_meters":26800,"station_id":"ce4bgih2rcd13ifvqba0","pricing_plan_id":"cebpf4jnsgd1na2vs0mg"},{"bike_id":"37edeea4-7789-4616-b6cf-fd08b496398b","system_id":"levelo_inurba_marseille","lat":43.290779,"lon":5.371482,"is_reserved":false,"is_disabled":false,"rental_uris":{"android":"levelo://app?vid=37edeea4-7789-4616-b6cf-fd08b496398b","ios":"levelo://app?vid=37edeea4-7789-4616-b6cf-fd08b496398b"},"vehicle_type_id":"4","last_reported":1720548636,"current_range_meters":800,"station_id":"ce4bh5p2rcd13ifvqe4g","pricing_plan_id":"cebpf4jnsgd1na2vs0mg"},{"bike_id":"6e602ca9-cbd4-42f5-8176-738b1750b6de","system_id":"levelo_inurba_marseille","lat":43.290779,"lon":5.371482,"is_reserved":false,"is_disabled":false,"rental_uris":{"android":"levelo://app?vid=6e602ca9-cbd4-42f5-8176-738b1750b6de","ios":"levelo://app?vid=6e602ca9-cbd4-42f5-8176-738b1750b6de"},"vehicle_type_id":"4","last_reported":1720548636,"current_range_meters":18400,"station_id":"ce4bh5p2rcd13ifvqe4g","pricing_plan_id":"cebpf4jnsgd1na2vs0mg"},{"bike_id":"75051332-436b-4700-9809-e2fb299aad3f","system_id":"levelo_inurba_marseille","lat":43.29297,"lon":5.38255,"is_reserved":false,"is_disabled":false,"rental_uris":{"android":"levelo://app?vid=75051332-436b-4700-9809-e2fb299aad3f","ios":"levelo://app?vid=75051332-436b-4700-9809-e2fb299aad3f"},"vehicle_type_id":"4","last_reported":1720548636,"current_range_meters":24800,"station_id":"","pricing_plan_id":"cebpf4jnsgd1na2vs0mg"},{"bike_id":"5ce1c4f6-7909-4234-9b90-0b3650500457","system_id":"levelo_inurba_marseille","lat":43.302008,"lon":5.394694,"is_reserved":false,"is_disabled":false,"rental_uris":{"android":"levelo://app?vid=5ce1c4f6-7909-4234-9b90-0b3650500457","ios":"levelo://app?vid=5ce1c4f6-7909-4234-9b90-0b3650500457"},"vehicle_type_id":"4","last_reported":1720548636,"current_range_meters":4800,"station_id":"ce4bh0p2rcd13ifvqd70","pricing_plan_id":"cebpf4jnsgd1na2vs0mg"},{"bike_id":"3905ca8a-3a7e-41c9-a653-72765dc6b2a7","system_id":"levelo_inurba_marseille","lat":43.302008,"lon":5.394694,"is_reserved":false,"is_disabled":false,"rental_uris":{"android":"levelo://app?vid=3905ca8a-3a7e-41c9-a653-72765dc6b2a7","ios":"levelo://app?vid=3905ca8a-3a7e-41c9-a653-72765dc6b2a7"},"vehicle_type_id":"4","last_reported":1720548636,"current_range_meters":24800,"station_id":"ce4bh0p2rcd13ifvqd70","pricing_plan_id":"cebpf4jnsgd1na2vs0mg"},{"bike_id":"51fca5a3-9227-46d3-8652-bf9fccdf6163","system_id":"levelo_inurba_marseille","lat":43.290624,"lon":5.359245,"is_reserved":false,"is_disabled":false,"rental_uris":{"android":"levelo://app?vid=51fca5a3-9227-46d3-8652-bf9fccdf6163","ios":"levelo://app?vid=51fca5a3-9227-46d3-8652-bf9fccdf6163"},"vehicle_type_id":"4","last_reported":1720548636,"current_range_meters":2400,"station_id":"ce4bha92rcd13ifvqeg0","pricing_plan_id":"cebpf4jnsgd1na2vs0mg"},{"bike_id":"8ba53f9a-45d3-4b9d-a4d8-a571e8a64766","system_id":"levelo_inurba_marseille","lat":43.290327,"lon":5.375711,"is_reserved":false,"is_disabled":false,"rental_uris":{"android":"levelo://app?vid=8ba53f9a-45d3-4b9d-a4d8-a571e8a64766","ios":"levelo://app?vid=8ba53f9a-45d3-4b9d-a4d8-a571e8a64766"},"vehicle_type_id":"4","last_reported":1720548636,"current_range_meters":21200,"station_id":"ce4bh692rcd13ifvqe90","pricing_plan_id":"cebpf4jnsgd1na2vs0mg"},{"bike_id":"9709c835-00cd-4bf7-bdab-b50f6d925353","system_id":"levelo_inurba_marseille","lat":43.294153,"lon":5.386305,"is_reserved":false,"is_disabled":false,"rental_uris":{"android":"levelo://app?vid=9709c835-00cd-4bf7-bdab-b50f6d925353","ios":"levelo://app?vid=9709c835-00cd-4bf7-bdab-b50f6d925353"},"vehicle_type_id":"4","last_reported":1720548636,"current_range_meters":17600,"station_id":"ce4bh2h2rcd13ifvqdh0","pricing_plan_id":"cebpf4jnsgd1na2vs0mg"},{"bike_id":"cd4b051f-9c95-4738-8f83-4b921dd543f1","system_id":"levelo_inurba_marseille","lat":43.294153,"lon":5.386305,"is_reserved":false,"is_disabled":false,"rental_uris":{"android":"levelo://app?vid=cd4b051f-9c95-4738-8f83-4b921dd543f1","ios":"levelo://app?vid=cd4b051f-9c95-4738-8f83-4b921dd543f1"},"vehicle_type_id":"4","last_reported":1720548636,"current_range_meters":2000,"station_id":"ce4bh2h2rcd13ifvqdh0","pricing_plan_id":"cebpf4jnsgd1na2vs0mg"},{"bike_id":"7c27ec2d-99db-4229-a979-14afead494f5","system_id":"levelo_inurba_marseille","lat":43.29423,"lon":5.3862,"is_reserved":false,"is_disabled":false,"rental_uris":{"android":"levelo://app?vid=7c27ec2d-99db-4229-a979-14afead494f5","ios":"levelo://app?vid=7c27ec2d-99db-4229-a979-14afead494f5"},"vehicle_type_id":"4","last_reported":1720548636,"current_range_meters":6800,"station_id":"ce4bh2h2rcd13ifvqdh0","pricing_plan_id":"cebpf4jnsgd1na2vs0mg"},{"bike_id":"f80f0d83-3f77-429b-a682-bfec46e148ad","system_id":"levelo_inurba_marseille","lat":43.294153,"lon":5.386305,"is_reserved":false,"is_disabled":false,"rental_uris":{"android":"levelo://app?vid=f80f0d83-3f77-429b-a682-bfec46e148ad","ios":"levelo://app?vid=f80f0d83-3f77-429b-a682-bfec46e148ad"},"vehicle_type_id":"4","last_reported":1720548636,"current_range_meters":10000,"station_id":"ce4bh2h2rcd13ifvqdh0","pricing_plan_id":"cebpf4jnsgd1na2vs0mg"},{"bike_id":"25a9f72d-3d3d-46f8-acf6-2c5c349c46dc","system_id":"levelo_inurba_marseille","lat":43.2942,"lon":5.3862,"is_reserved":false,"is_disabled":false,"rental_uris":{"android":"levelo://app?vid=25a9f72d-3d3d-46f8-acf6-2c5c349c46dc","ios":"levelo://app?vid=25a9f72d-3d3d-46f8-acf6-2c5c349c46dc"},"vehicle_type_id":"4","last_reported":1720548636,"current_range_meters":8800,"station_id":"","pricing_plan_id":"cebpf4jnsgd1na2vs0mg"},{"bike_id":"8e0b3ee1-5adc-4fcf-84f5-ff93cd88cf63","system_id":"levelo_inurba_marseille","lat":43.294153,"lon":5.386305,"is_reserved":false,"is_disabled":false,"rental_uris":{"android":"levelo://app?vid=8e0b3ee1-5adc-4fcf-84f5-ff93cd88cf63","ios":"levelo://app?vid=8e0b3ee1-5adc-4fcf-84f5-ff93cd88cf63"},"vehicle_type_id":"4","last_reported":1720548636,"current_range_meters":22800,"station_id":"ce4bh2h2rcd13ifvqdh0","pricing_plan_id":"cebpf4jnsgd1na2vs0mg"},{"bike_id":"b0c4b01f-6b17-4340-bbf3-090915aef847","system_id":"levelo_inurba_marseille","lat":43.294153,"lon":5.386305,"is_reserved":false,"is_disabled":false,"rental_uris":{"android":"levelo://app?vid=b0c4b01f-6b17-4340-bbf3-090915aef847","ios":"levelo://app?vid=b0c4b01f-6b17-4340-bbf3-090915aef847"},"vehicle_type_id":"4","last_reported":1720548636,"current_range_meters":0,"station_id":"ce4bh2h2rcd13ifvqdh0","pricing_plan_id":"cebpf4jnsgd1na2vs0mg"},{"bike_id":"a905cdca-612a-4963-b627-7709707ca098","system_id":"levelo_inurba_marseille","lat":43.294162,"lon":5.386292,"is_reserved":false,"is_disabled":false,"rental_uris":{"android":"levelo://app?vid=a905cdca-612a-4963-b627-7709707ca098","ios":"levelo://app?vid=a905cdca-612a-4963-b627-7709707ca098"},"vehicle_type_id":"4","last_reported":1720548636,"current_range_meters":0,"station_id":"ce4bh2h2rcd13ifvqdh0","pricing_plan_id":"cebpf4jnsgd1na2vs0mg"},{"bike_id":"05b24c45-e3b7-4a7b-9137-8c19363eaf1c","system_id":"levelo_inurba_marseille","lat":43.294153,"lon":5.386305,"is_reserved":false,"is_disabled":false,"rental_uris":{"android":"levelo://app?vid=05b24c45-e3b7-4a7b-9137-8c19363eaf1c","ios":"levelo://app?vid=05b24c45-e3b7-4a7b-9137-8c19363eaf1c"},"vehicle_type_id":"4","last_reported":1720548636,"current_range_meters":25200,"station_id":"ce4bh2h2rcd13ifvqdh0","pricing_plan_id":"cebpf4jnsgd1na2vs0mg"},{"bike_id":"28de18a5-9a91-47a7-8d84-177ab21cec2d","system_id":"levelo_inurba_marseille","lat":43.29421,"lon":5.38623,"is_reserved":false,"is_disabled":false,"rental_uris":{"android":"levelo://app?vid=28de18a5-9a91-47a7-8d84-177ab21cec2d","ios":"levelo://app?vid=28de18a5-9a91-47a7-8d84-177ab21cec2d"},"vehicle_type_id":"4","last_reported":1720548636,"current_range_meters":13200,"station_id":"ce4bh2h2rcd13ifvqdh0","pricing_plan_id":"cebpf4jnsgd1na2vs0mg"},{"bike_id":"14955081-ab9c-46de-b772-b2d8d264a572","system_id":"levelo_inurba_marseille","lat":43.294153,"lon":5.386305,"is_reserved":false,"is_disabled":false,"rental_uris":{"android":"levelo://app?vid=14955081-ab9c-46de-b772-b2d8d264a572","ios":"levelo://app?vid=14955081-ab9c-46de-b772-b2d8d264a572"},"vehicle_type_id":"4","last_reported":1720548636,"current_range_meters":5600,"station_id":"ce4bh2h2rcd13ifvqdh0","pricing_plan_id":"cebpf4jnsgd1na2vs0mg"},{"bike_id":"e62668d7-a381-42d0-b01c-2edad232f46e","system_id":"levelo_inurba_marseille","lat":43.29417,"lon":5.3862,"is_reserved":false,"is_disabled":false,"rental_uris":{"android":"levelo://app?vid=e62668d7-a381-42d0-b01c-2edad232f46e","ios":"levelo://app?vid=e62668d7-a381-42d0-b01c-2edad232f46e"},"vehicle_type_id":"4","last_reported":1720548636,"current_range_meters":8000,"station_id":"ce4bh2h2rcd13ifvqdh0","pricing_plan_id":"cebpf4jnsgd1na2vs0mg"},{"bike_id":"3ce50c8e-6872-4d75-9321-96b134861e88","system_id":"levelo_inurba_marseille","lat":43.29417,"lon":5.3862,"is_reserved":false,"is_disabled":false,"rental_uris":{"android":"levelo://app?vid=3ce50c8e-6872-4d75-9321-96b134861e88","ios":"levelo://app?vid=3ce50c8e-6872-4d75-9321-96b134861e88"},"vehicle_type_id":"4","last_reported":1720548636,"current_range_meters":21200,"station_id":"ce4bh2h2rcd13ifvqdh0","pricing_plan_id":"cebpf4jnsgd1na2vs0mg"},{"bike_id":"f431dd25-858c-4c52-b2cd-f8d54bed7214","system_id":"levelo_inurba_marseille","lat":43.294153,"lon":5.386305,"is_reserved":false,"is_disabled":false,"rental_uris":{"android":"levelo://app?vid=f431dd25-858c-4c52-b2cd-f8d54bed7214","ios":"levelo://app?vid=f431dd25-858c-4c52-b2cd-f8d54bed7214"},"vehicle_type_id":"4","last_reported":1720548636,"current_range_meters":6800,"station_id":"ce4bh2h2rcd13ifvqdh0","pricing_plan_id":"cebpf4jnsgd1na2vs0mg"},{"bike_id":"cd18f885-f33f-4d6a-b466-e52d5f7e47a9","system_id":"levelo_inurba_marseille","lat":43.29419,"lon":5.38626,"is_reserved":false,"is_disabled":false,"rental_uris":{"android":"levelo://app?vid=cd18f885-f33f-4d6a-b466-e52d5f7e47a9","ios":"levelo://app?vid=cd18f885-f33f-4d6a-b466-e52d5f7e47a9"},"vehicle_type_id":"4","last_reported":1720548636,"current_range_meters":5600,"station_id":"ce4bh2h2rcd13ifvqdh0","pricing_plan_id":"cebpf4jnsgd1na2vs0mg"},{"bike_id":"23f2570e-e261-4d44-83f6-200b2b9cfec2","system_id":"levelo_inurba_marseille","lat":43.2942,"lon":5.38629,"is_reserved":false,"is_disabled":false,"rental_uris":{"android":"levelo://app?vid=23f2570e-e261-4d44-83f6-200b2b9cfec2","ios":"levelo://app?vid=23f2570e-e261-4d44-83f6-200b2b9cfec2"},"vehicle_type_id":"4","last_reported":1720548636,"current_range_meters":400,"station_id":"ce4bh2h2rcd13ifvqdh0","pricing_plan_id":"cebpf4jnsgd1na2vs0mg"},{"bike_id":"09cff72d-467a-4490-a66b-8760c3866be7","system_id":"levelo_inurba_marseille","lat":43.29416,"lon":5.38622,"is_reserved":false,"is_disabled":false,"rental_uris":{"android":"levelo://app?vid=09cff72d-467a-4490-a66b-8760c3866be7","ios":"levelo://app?vid=09cff72d-467a-4490-a66b-8760c3866be7"},"vehicle_type_id":"4","last_reported":1720548636,"current_range_meters":6400,"station_id":"ce4bh2h2rcd13ifvqdh0","pricing_plan_id":"cebpf4jnsgd1na2vs0mg"},{"bike_id":"64336775-171e-4f59-a838-5f4f110a4f58","system_id":"levelo_inurba_marseille","lat":43.294153,"lon":5.386305,"is_reserved":false,"is_disabled":false,"rental_uris":{"android":"levelo://app?vid=64336775-171e-4f59-a838-5f4f110a4f58","ios":"levelo://app?vid=64336775-171e-4f59-a838-5f4f110a4f58"},"vehicle_type_id":"4","last_reported":1720548636,"current_range_meters":13200,"station_id":"ce4bh2h2rcd13ifvqdh0","pricing_plan_id":"cebpf4jnsgd1na2vs0mg"},{"bike_id":"8ae01d82-8b28-48da-b724-a26a9315ff2b","system_id":"levelo_inurba_marseille","lat":43.294153,"lon":5.386305,"is_reserved":false,"is_disabled":false,"rental_uris":{"android":"levelo://app?vid=8ae01d82-8b28-48da-b724-a26a9315ff2b","ios":"levelo://app?vid=8ae01d82-8b28-48da-b724-a26a9315ff2b"},"vehicle_type_id":"4","last_reported":1720548636,"current_range_meters":2800,"station_id":"ce4bh2h2rcd13ifvqdh0","pricing_plan_id":"cebpf4jnsgd1na2vs0mg"},{"bike_id":"e03788c2-8215-477f-8ecb-8ea44cd95012","system_id":"levelo_inurba_marseille","lat":43.294162,"lon":5.386292,"is_reserved":false,"is_disabled":false,"rental_uris":{"android":"levelo://app?vid=e03788c2-8215-477f-8ecb-8ea44cd95012","ios":"levelo://app?vid=e03788c2-8215-477f-8ecb-8ea44cd95012"},"vehicle_type_id":"4","last_reported":1720548636,"current_range_meters":23600,"station_id":"ce4bh2h2rcd13ifvqdh0","pricing_plan_id":"cebpf4jnsgd1na2vs0mg"},{"bike_id":"ff32a5b9-812c-423c-9cee-745d78994568","system_id":"levelo_inurba_marseille","lat":43.294153,"lon":5.386305,"is_reserved":false,"is_disabled":false,"rental_uris":{"android":"levelo://app?vid=ff32a5b9-812c-423c-9cee-745d78994568","ios":"levelo://app?vid=ff32a5b9-812c-423c-9cee-745d78994568"},"vehicle_type_id":"4","last_reported":1720548636,"current_range_meters":1200,"station_id":"ce4bh2h2rcd13ifvqdh0","pricing_plan_id":"cebpf4jnsgd1na2vs0mg"},{"bike_id":"084cbd1f-e6a7-4a25-a01a-adcce322e16e","system_id":"levelo_inurba_marseille","lat":43.29415,"lon":5.38628,"is_reserved":false,"is_disabled":false,"rental_uris":{"android":"levelo://app?vid=084cbd1f-e6a7-4a25-a01a-adcce322e16e","ios":"levelo://app?vid=084cbd1f-e6a7-4a25-a01a-adcce322e16e"},"vehicle_type_id":"4","last_reported":1720548636,"current_range_meters":22800,"station_id":"ce4bh2h2rcd13ifvqdh0","pricing_plan_id":"cebpf4jnsgd1na2vs0mg"},{"bike_id":"dea47d74-a5ec-4a01-8f20-eac1309dc9ae","system_id":"levelo_inurba_marseille","lat":43.29416,"lon":5.3863,"is_reserved":false,"is_disabled":false,"rental_uris":{"android":"levelo://app?vid=dea47d74-a5ec-4a01-8f20-eac1309dc9ae","ios":"levelo://app?vid=dea47d74-a5ec-4a01-8f20-eac1309dc9ae"},"vehicle_type_id":"4","last_reported":1720548636,"current_range_meters":400,"station_id":"ce4bh2h2rcd13ifvqdh0","pricing_plan_id":"cebpf4jnsgd1na2vs0mg"},{"bike_id":"05add837-85d8-4847-b253-9abd99f4016d","system_id":"levelo_inurba_marseille","lat":43.28941,"lon":5.36641,"is_reserved":false,"is_disabled":false,"rental_uris":{"android":"levelo://app?vid=05add837-85d8-4847-b253-9abd99f4016d","ios":"levelo://app?vid=05add837-85d8-4847-b253-9abd99f4016d"},"vehicle_type_id":"4","last_reported":1720548636,"current_range_meters":0,"station_id":"ce4bhap2rcd13ifvqek0","pricing_plan_id":"cebpf4jnsgd1na2vs0mg"},{"bike_id":"6004a751-2a1b-4e3a-a54e-3bae3ae8b8a2","system_id":"levelo_inurba_marseille","lat":43.294153,"lon":5.386305,"is_reserved":false,"is_disabled":false,"rental_uris":{"android":"levelo://app?vid=6004a751-2a1b-4e3a-a54e-3bae3ae8b8a2","ios":"levelo://app?vid=6004a751-2a1b-4e3a-a54e-3bae3ae8b8a2"},"vehicle_type_id":"4","last_reported":1720548636,"current_range_meters":9600,"station_id":"ce4bh2h2rcd13ifvqdh0","pricing_plan_id":"cebpf4jnsgd1na2vs0mg"},{"bike_id":"ebbb9e70-b723-4c0f-99d3-a95e723a0723","system_id":"levelo_inurba_marseille","lat":43.29409,"lon":5.38624,"is_reserved":false,"is_disabled":false,"rental_uris":{"android":"levelo://app?vid=ebbb9e70-b723-4c0f-99d3-a95e723a0723","ios":"levelo://app?vid=ebbb9e70-b723-4c0f-99d3-a95e723a0723"},"vehicle_type_id":"4","last_reported":1720548636,"current_range_meters":15200,"station_id":"ce4bh2h2rcd13ifvqdh0","pricing_plan_id":"cebpf4jnsgd1na2vs0mg"},{"bike_id":"0883aea2-bd43-4f2f-adc6-d333388cb4f8","system_id":"levelo_inurba_marseille","lat":43.29414,"lon":5.38634,"is_reserved":false,"is_disabled":false,"rental_uris":{"android":"levelo://app?vid=0883aea2-bd43-4f2f-adc6-d333388cb4f8","ios":"levelo://app?vid=0883aea2-bd43-4f2f-adc6-d333388cb4f8"},"vehicle_type_id":"4","last_reported":1720548636,"current_range_meters":11600,"station_id":"ce4bh2h2rcd13ifvqdh0","pricing_plan_id":"cebpf4jnsgd1na2vs0mg"},{"bike_id":"5e44f7f4-cef3-49b3-a5f6-c96127b1ce9c","system_id":"levelo_inurba_marseille","lat":43.294143,"lon":5.386349,"is_reserved":false,"is_disabled":false,"rental_uris":{"android":"levelo://app?vid=5e44f7f4-cef3-49b3-a5f6-c96127b1ce9c","ios":"levelo://app?vid=5e44f7f4-cef3-49b3-a5f6-c96127b1ce9c"},"vehicle_type_id":"4","last_reported":1720548636,"current_range_meters":6400,"station_id":"ce4bh2h2rcd13ifvqdh0","pricing_plan_id":"cebpf4jnsgd1na2vs0mg"},{"bike_id":"a7a1babe-ba1e-44e4-ae03-f584289aa745","system_id":"levelo_inurba_marseille","lat":43.289184,"lon":5.366408,"is_reserved":false,"is_disabled":false,"rental_uris":{"android":"levelo://app?vid=a7a1babe-ba1e-44e4-ae03-f584289aa745","ios":"levelo://app?vid=a7a1babe-ba1e-44e4-ae03-f584289aa745"},"vehicle_type_id":"4","last_reported":1720548636,"current_range_meters":0,"station_id":"ce4bhap2rcd13ifvqek0","pricing_plan_id":"cebpf4jnsgd1na2vs0mg"},{"bike_id":"0031ab8d-7704-44c3-ac91-eb9afab13b09","system_id":"levelo_inurba_marseille","lat":43.289468,"lon":5.363719,"is_reserved":false,"is_disabled":false,"rental_uris":{"android":"levelo://app?vid=0031ab8d-7704-44c3-ac91-eb9afab13b09","ios":"levelo://app?vid=0031ab8d-7704-44c3-ac91-eb9afab13b09"},"vehicle_type_id":"4","last_reported":1720548636,"current_range_meters":14000,"station_id":"ce4bhc92rcd13ifvqetg","pricing_plan_id":"cebpf4jnsgd1na2vs0mg"},{"bike_id":"e6f1ca02-4d52-4193-8ea3-0a4a479e283c","system_id":"levelo_inurba_marseille","lat":43.289184,"lon":5.366408,"is_reserved":false,"is_disabled":false,"rental_uris":{"android":"levelo://app?vid=e6f1ca02-4d52-4193-8ea3-0a4a479e283c","ios":"levelo://app?vid=e6f1ca02-4d52-4193-8ea3-0a4a479e283c"},"vehicle_type_id":"4","last_reported":1720548636,"current_range_meters":0,"station_id":"ce4bhap2rcd13ifvqek0","pricing_plan_id":"cebpf4jnsgd1na2vs0mg"},{"bike_id":"562ce9d1-3dd0-4490-9c96-3ea0d8afcf8b","system_id":"levelo_inurba_marseille","lat":43.29408,"lon":5.38636,"is_reserved":false,"is_disabled":false,"rental_uris":{"android":"levelo://app?vid=562ce9d1-3dd0-4490-9c96-3ea0d8afcf8b","ios":"levelo://app?vid=562ce9d1-3dd0-4490-9c96-3ea0d8afcf8b"},"vehicle_type_id":"4","last_reported":1720548636,"current_range_meters":0,"station_id":"ce4bh2h2rcd13ifvqdh0","pricing_plan_id":"cebpf4jnsgd1na2vs0mg"},{"bike_id":"02d2953e-c04b-4890-ba05-6bf7484466ce","system_id":"levelo_inurba_marseille","lat":43.304296,"lon":5.397513,"is_reserved":false,"is_disabled":false,"rental_uris":{"android":"levelo://app?vid=02d2953e-c04b-4890-ba05-6bf7484466ce","ios":"levelo://app?vid=02d2953e-c04b-4890-ba05-6bf7484466ce"},"vehicle_type_id":"4","last_reported":1720548636,"current_range_meters":6000,"station_id":"ce4bh092rcd13ifvqd20","pricing_plan_id":"cebpf4jnsgd1na2vs0mg"},{"bike_id":"0f85ed74-c6d3-4d19-968d-ce26cbded31e","system_id":"levelo_inurba_marseille","lat":43.292642,"lon":5.384254,"is_reserved":false,"is_disabled":false,"rental_uris":{"android":"levelo://app?vid=0f85ed74-c6d3-4d19-968d-ce26cbded31e","ios":"levelo://app?vid=0f85ed74-c6d3-4d19-968d-ce26cbded31e"},"vehicle_type_id":"4","last_reported":1720548636,"current_range_meters":4000,"station_id":"ce4bh692rcd13ifvqea0","pricing_plan_id":"cebpf4jnsgd1na2vs0mg"},{"bike_id":"fd0118c5-a453-4825-9e21-b4fcda8b3445","system_id":"levelo_inurba_marseille","lat":43.304296,"lon":5.397513,"is_reserved":false,"is_disabled":false,"rental_uris":{"android":"levelo://app?vid=fd0118c5-a453-4825-9e21-b4fcda8b3445","ios":"levelo://app?vid=fd0118c5-a453-4825-9e21-b4fcda8b3445"},"vehicle_type_id":"4","last_reported":1720548636,"current_range_meters":400,"station_id":"ce4bh092rcd13ifvqd20","pricing_plan_id":"cebpf4jnsgd1na2vs0mg"},{"bike_id":"25601b97-e936-46de-8c01-e06fc875c1ea","system_id":"levelo_inurba_marseille","lat":43.292642,"lon":5.384254,"is_reserved":false,"is_disabled":false,"rental_uris":{"android":"levelo://app?vid=25601b97-e936-46de-8c01-e06fc875c1ea","ios":"levelo://app?vid=25601b97-e936-46de-8c01-e06fc875c1ea"},"vehicle_type_id":"4","last_reported":1720548636,"current_range_meters":9600,"station_id":"ce4bh692rcd13ifvqea0","pricing_plan_id":"cebpf4jnsgd1na2vs0mg"},{"bike_id":"2a0f8ea7-927d-4774-9bbd-810c344c80b2","system_id":"levelo_inurba_marseille","lat":43.29263,"lon":5.38436,"is_reserved":false,"is_disabled":false,"rental_uris":{"android":"levelo://app?vid=2a0f8ea7-927d-4774-9bbd-810c344c80b2","ios":"levelo://app?vid=2a0f8ea7-927d-4774-9bbd-810c344c80b2"},"vehicle_type_id":"4","last_reported":1720548636,"current_range_meters":0,"station_id":"ce4bh692rcd13ifvqea0","pricing_plan_id":"cebpf4jnsgd1na2vs0mg"},{"bike_id":"6b2ed6bc-de6b-480b-8321-2c27a5065b74","system_id":"levelo_inurba_marseille","lat":43.292642,"lon":5.384254,"is_reserved":false,"is_disabled":false,"rental_uris":{"android":"levelo://app?vid=6b2ed6bc-de6b-480b-8321-2c27a5065b74","ios":"levelo://app?vid=6b2ed6bc-de6b-480b-8321-2c27a5065b74"},"vehicle_type_id":"4","last_reported":1720548636,"current_range_meters":17200,"station_id":"ce4bh692rcd13ifvqea0","pricing_plan_id":"cebpf4jnsgd1na2vs0mg"},{"bike_id":"79ffed47-ffd0-4071-909e-5a1380c20b39","system_id":"levelo_inurba_marseille","lat":43.292642,"lon":5.384254,"is_reserved":false,"is_disabled":false,"rental_uris":{"android":"levelo://app?vid=79ffed47-ffd0-4071-909e-5a1380c20b39","ios":"levelo://app?vid=79ffed47-ffd0-4071-909e-5a1380c20b39"},"vehicle_type_id":"4","last_reported":1720548636,"current_range_meters":23600,"station_id":"ce4bh692rcd13ifvqea0","pricing_plan_id":"cebpf4jnsgd1na2vs0mg"},{"bike_id":"789be623-7acd-48f6-8b45-73f96a337540","system_id":"levelo_inurba_marseille","lat":43.292644,"lon":5.384257,"is_reserved":false,"is_disabled":false,"rental_uris":{"android":"levelo://app?vid=789be623-7acd-48f6-8b45-73f96a337540","ios":"levelo://app?vid=789be623-7acd-48f6-8b45-73f96a337540"},"vehicle_type_id":"4","last_reported":1720548636,"current_range_meters":1600,"station_id":"ce4bh692rcd13ifvqea0","pricing_plan_id":"cebpf4jnsgd1na2vs0mg"},{"bike_id":"13d28a8a-3a6c-49a3-bd27-f444469e7bfe","system_id":"levelo_inurba_marseille","lat":43.2926,"lon":5.38438,"is_reserved":false,"is_disabled":false,"rental_uris":{"android":"levelo://app?vid=13d28a8a-3a6c-49a3-bd27-f444469e7bfe","ios":"levelo://app?vid=13d28a8a-3a6c-49a3-bd27-f444469e7bfe"},"vehicle_type_id":"4","last_reported":1720548636,"current_range_meters":0,"station_id":"ce4bh692rcd13ifvqea0","pricing_plan_id":"cebpf4jnsgd1na2vs0mg"},{"bike_id":"f89c088c-a88e-48f1-aa36-3288b3cd224e","system_id":"levelo_inurba_marseille","lat":43.292603,"lon":5.3844,"is_reserved":false,"is_disabled":false,"rental_uris":{"android":"levelo://app?vid=f89c088c-a88e-48f1-aa36-3288b3cd224e","ios":"levelo://app?vid=f89c088c-a88e-48f1-aa36-3288b3cd224e"},"vehicle_type_id":"4","last_reported":1720548636,"current_range_meters":0,"station_id":"ce4bh692rcd13ifvqea0","pricing_plan_id":"cebpf4jnsgd1na2vs0mg"},{"bike_id":"529a9224-8bd0-4382-aa9e-ddc9ae06d978","system_id":"levelo_inurba_marseille","lat":43.292577,"lon":5.384364,"is_reserved":false,"is_disabled":false,"rental_uris":{"android":"levelo://app?vid=529a9224-8bd0-4382-aa9e-ddc9ae06d978","ios":"levelo://app?vid=529a9224-8bd0-4382-aa9e-ddc9ae06d978"},"vehicle_type_id":"4","last_reported":1720548636,"current_range_meters":0,"station_id":"","pricing_plan_id":"cebpf4jnsgd1na2vs0mg"},{"bike_id":"17f60e6a-b96d-46ef-a507-e5eb7c9424a8","system_id":"levelo_inurba_marseille","lat":43.29259,"lon":5.38441,"is_reserved":false,"is_disabled":false,"rental_uris":{"android":"levelo://app?vid=17f60e6a-b96d-46ef-a507-e5eb7c9424a8","ios":"levelo://app?vid=17f60e6a-b96d-46ef-a507-e5eb7c9424a8"},"vehicle_type_id":"4","last_reported":1720548636,"current_range_meters":0,"station_id":"ce4bh692rcd13ifvqea0","pricing_plan_id":"cebpf4jnsgd1na2vs0mg"},{"bike_id":"86faf10c-cd90-4317-a485-80c0c7e50f39","system_id":"levelo_inurba_marseille","lat":43.30421,"lon":5.39752,"is_reserved":false,"is_disabled":false,"rental_uris":{"android":"levelo://app?vid=86faf10c-cd90-4317-a485-80c0c7e50f39","ios":"levelo://app?vid=86faf10c-cd90-4317-a485-80c0c7e50f39"},"vehicle_type_id":"4","last_reported":1720548636,"current_range_meters":5200,"station_id":"ce4bh092rcd13ifvqd20","pricing_plan_id":"cebpf4jnsgd1na2vs0mg"},{"bike_id":"160383d7-c7ae-4b22-8633-25c7cf5033b7","system_id":"levelo_inurba_marseille","lat":43.29256,"lon":5.38439,"is_reserved":false,"is_disabled":false,"rental_uris":{"android":"levelo://app?vid=160383d7-c7ae-4b22-8633-25c7cf5033b7","ios":"levelo://app?vid=160383d7-c7ae-4b22-8633-25c7cf5033b7"},"vehicle_type_id":"4","last_reported":1720548636,"current_range_meters":0,"station_id":"ce4bh692rcd13ifvqea0","pricing_plan_id":"cebpf4jnsgd1na2vs0mg"},{"bike_id":"bcc01a97-2f69-48b0-931a-6bd3d84204b2","system_id":"levelo_inurba_marseille","lat":43.292642,"lon":5.384254,"is_reserved":false,"is_disabled":false,"rental_uris":{"android":"levelo://app?vid=bcc01a97-2f69-48b0-931a-6bd3d84204b2","ios":"levelo://app?vid=bcc01a97-2f69-48b0-931a-6bd3d84204b2"},"vehicle_type_id":"4","last_reported":1720548636,"current_range_meters":0,"station_id":"ce4bh692rcd13ifvqea0","pricing_plan_id":"cebpf4jnsgd1na2vs0mg"},{"bike_id":"42d639c9-28a8-4389-832f-d50af5a99a8b","system_id":"levelo_inurba_marseille","lat":43.292644,"lon":5.384257,"is_reserved":false,"is_disabled":false,"rental_uris":{"android":"levelo://app?vid=42d639c9-28a8-4389-832f-d50af5a99a8b","ios":"levelo://app?vid=42d639c9-28a8-4389-832f-d50af5a99a8b"},"vehicle_type_id":"4","last_reported":1720548636,"current_range_meters":1200,"station_id":"ce4bh692rcd13ifvqea0","pricing_plan_id":"cebpf4jnsgd1na2vs0mg"},{"bike_id":"dbe40ed7-27d8-4ad5-9500-69cd482baab4","system_id":"levelo_inurba_marseille","lat":43.329037,"lon":5.391103,"is_reserved":false,"is_disabled":false,"rental_uris":{"android":"levelo://app?vid=dbe40ed7-27d8-4ad5-9500-69cd482baab4","ios":"levelo://app?vid=dbe40ed7-27d8-4ad5-9500-69cd482baab4"},"vehicle_type_id":"4","last_reported":1720548636,"current_range_meters":21200,"station_id":"","pricing_plan_id":"cebpf4jnsgd1na2vs0mg"},{"bike_id":"2e6cb935-1dc0-41ed-8322-7fbdd42ecf75","system_id":"levelo_inurba_marseille","lat":43.29006,"lon":5.35619,"is_reserved":false,"is_disabled":false,"rental_uris":{"android":"levelo://app?vid=2e6cb935-1dc0-41ed-8322-7fbdd42ecf75","ios":"levelo://app?vid=2e6cb935-1dc0-41ed-8322-7fbdd42ecf75"},"vehicle_type_id":"4","last_reported":1720548636,"current_range_meters":0,"station_id":"ce4bhb92rcd13ifvqen0","pricing_plan_id":"cebpf4jnsgd1na2vs0mg"},{"bike_id":"28b7186f-95c7-4e98-9f48-246449b8d9f0","system_id":"levelo_inurba_marseille","lat":43.290103,"lon":5.356114,"is_reserved":false,"is_disabled":false,"rental_uris":{"android":"levelo://app?vid=28b7186f-95c7-4e98-9f48-246449b8d9f0","ios":"levelo://app?vid=28b7186f-95c7-4e98-9f48-246449b8d9f0"},"vehicle_type_id":"4","last_reported":1720548636,"current_range_meters":6800,"station_id":"ce4bhb92rcd13ifvqen0","pricing_plan_id":"cebpf4jnsgd1na2vs0mg"},{"bike_id":"6ce8d539-098c-4db4-9369-39cbafb65ba1","system_id":"levelo_inurba_marseille","lat":43.29005,"lon":5.35613,"is_reserved":false,"is_disabled":false,"rental_uris":{"android":"levelo://app?vid=6ce8d539-098c-4db4-9369-39cbafb65ba1","ios":"levelo://app?vid=6ce8d539-098c-4db4-9369-39cbafb65ba1"},"vehicle_type_id":"4","last_reported":1720548636,"current_range_meters":0,"station_id":"ce4bhb92rcd13ifvqen0","pricing_plan_id":"cebpf4jnsgd1na2vs0mg"},{"bike_id":"c0799c3c-0d6b-46af-9c5e-0921d4db5f03","system_id":"levelo_inurba_marseille","lat":43.29005,"lon":5.35604,"is_reserved":false,"is_disabled":false,"rental_uris":{"android":"levelo://app?vid=c0799c3c-0d6b-46af-9c5e-0921d4db5f03","ios":"levelo://app?vid=c0799c3c-0d6b-46af-9c5e-0921d4db5f03"},"vehicle_type_id":"4","last_reported":1720548636,"current_range_meters":0,"station_id":"ce4bhb92rcd13ifvqen0","pricing_plan_id":"cebpf4jnsgd1na2vs0mg"},{"bike_id":"594f7b48-e65e-4fc3-bb04-d618ec8313c3","system_id":"levelo_inurba_marseille","lat":43.290103,"lon":5.356114,"is_reserved":false,"is_disabled":false,"rental_uris":{"android":"levelo://app?vid=594f7b48-e65e-4fc3-bb04-d618ec8313c3","ios":"levelo://app?vid=594f7b48-e65e-4fc3-bb04-d618ec8313c3"},"vehicle_type_id":"4","last_reported":1720548636,"current_range_meters":400,"station_id":"ce4bhb92rcd13ifvqen0","pricing_plan_id":"cebpf4jnsgd1na2vs0mg"},{"bike_id":"be6df7b7-a314-4bfa-890a-c044f05f35ee","system_id":"levelo_inurba_marseille","lat":43.290103,"lon":5.356114,"is_reserved":false,"is_disabled":false,"rental_uris":{"android":"levelo://app?vid=be6df7b7-a314-4bfa-890a-c044f05f35ee","ios":"levelo://app?vid=be6df7b7-a314-4bfa-890a-c044f05f35ee"},"vehicle_type_id":"4","last_reported":1720548636,"current_range_meters":0,"station_id":"ce4bhb92rcd13ifvqen0","pricing_plan_id":"cebpf4jnsgd1na2vs0mg"},{"bike_id":"0aab3a8e-58a0-4a47-a1f0-b09b67efb43f","system_id":"levelo_inurba_marseille","lat":43.29093,"lon":5.38119,"is_reserved":false,"is_disabled":false,"rental_uris":{"android":"levelo://app?vid=0aab3a8e-58a0-4a47-a1f0-b09b67efb43f","ios":"levelo://app?vid=0aab3a8e-58a0-4a47-a1f0-b09b67efb43f"},"vehicle_type_id":"4","last_reported":1720548636,"current_range_meters":0,"station_id":"ce4bh512rcd13ifvqe2g","pricing_plan_id":"cebpf4jnsgd1na2vs0mg"},{"bike_id":"1d44c61f-a5c3-47aa-b2d7-6dafca152d29","system_id":"levelo_inurba_marseille","lat":43.290995,"lon":5.381361,"is_reserved":false,"is_disabled":false,"rental_uris":{"android":"levelo://app?vid=1d44c61f-a5c3-47aa-b2d7-6dafca152d29","ios":"levelo://app?vid=1d44c61f-a5c3-47aa-b2d7-6dafca152d29"},"vehicle_type_id":"4","last_reported":1720548636,"current_range_meters":3200,"station_id":"ce4bh512rcd13ifvqe2g","pricing_plan_id":"cebpf4jnsgd1na2vs0mg"},{"bike_id":"0a0c32c5-3343-4a7e-a3fb-b3e58bbd0987","system_id":"levelo_inurba_marseille","lat":43.29096,"lon":5.38154,"is_reserved":false,"is_disabled":false,"rental_uris":{"android":"levelo://app?vid=0a0c32c5-3343-4a7e-a3fb-b3e58bbd0987","ios":"levelo://app?vid=0a0c32c5-3343-4a7e-a3fb-b3e58bbd0987"},"vehicle_type_id":"4","last_reported":1720548636,"current_range_meters":0,"station_id":"ce4bh512rcd13ifvqe2g","pricing_plan_id":"cebpf4jnsgd1na2vs0mg"},{"bike_id":"043010ee-6d1f-4413-b967-23385ebf3384","system_id":"levelo_inurba_marseille","lat":43.289737,"lon":5.378337,"is_reserved":false,"is_disabled":false,"rental_uris":{"android":"levelo://app?vid=043010ee-6d1f-4413-b967-23385ebf3384","ios":"levelo://app?vid=043010ee-6d1f-4413-b967-23385ebf3384"},"vehicle_type_id":"4","last_reported":1720548636,"current_range_meters":0,"station_id":"ce4bh9p2rcd13ifvqed0","pricing_plan_id":"cebpf4jnsgd1na2vs0mg"},{"bike_id":"be0ed8a1-9586-4ce8-8dbd-4cdaac693ef7","system_id":"levelo_inurba_marseille","lat":43.289741,"lon":5.378306,"is_reserved":false,"is_disabled":false,"rental_uris":{"android":"levelo://app?vid=be0ed8a1-9586-4ce8-8dbd-4cdaac693ef7","ios":"levelo://app?vid=be0ed8a1-9586-4ce8-8dbd-4cdaac693ef7"},"vehicle_type_id":"4","last_reported":1720548636,"current_range_meters":27600,"station_id":"ce4bh9p2rcd13ifvqed0","pricing_plan_id":"cebpf4jnsgd1na2vs0mg"},{"bike_id":"80357099-1e24-4dad-8ab4-a12a0fb22d8b","system_id":"levelo_inurba_marseille","lat":43.295169,"lon":5.390426,"is_reserved":false,"is_disabled":false,"rental_uris":{"android":"levelo://app?vid=80357099-1e24-4dad-8ab4-a12a0fb22d8b","ios":"levelo://app?vid=80357099-1e24-4dad-8ab4-a12a0fb22d8b"},"vehicle_type_id":"4","last_reported":1720548636,"current_range_meters":13200,"station_id":"ce4bh3p2rcd13ifvqdp0","pricing_plan_id":"cebpf4jnsgd1na2vs0mg"},{"bike_id":"cee08f7c-42c5-4597-a617-e916be8b4fcb","system_id":"levelo_inurba_marseille","lat":43.295169,"lon":5.390426,"is_reserved":false,"is_disabled":false,"rental_uris":{"android":"levelo://app?vid=cee08f7c-42c5-4597-a617-e916be8b4fcb","ios":"levelo://app?vid=cee08f7c-42c5-4597-a617-e916be8b4fcb"},"vehicle_type_id":"4","last_reported":1720548636,"current_range_meters":30800,"station_id":"ce4bh3p2rcd13ifvqdp0","pricing_plan_id":"cebpf4jnsgd1na2vs0mg"},{"bike_id":"22273499-25b9-46eb-8f57-8b5513ba679c","system_id":"levelo_inurba_marseille","lat":43.29038,"lon":5.38138,"is_reserved":false,"is_disabled":false,"rental_uris":{"android":"levelo://app?vid=22273499-25b9-46eb-8f57-8b5513ba679c","ios":"levelo://app?vid=22273499-25b9-46eb-8f57-8b5513ba679c"},"vehicle_type_id":"4","last_reported":1720548636,"current_range_meters":9200,"station_id":"ce4bh4p2rcd13ifvqe1g","pricing_plan_id":"cebpf4jnsgd1na2vs0mg"},{"bike_id":"b1c236f2-3176-4b5c-b819-db2f8ca3afc9","system_id":"levelo_inurba_marseille","lat":43.29026,"lon":5.38131,"is_reserved":false,"is_disabled":false,"rental_uris":{"android":"levelo://app?vid=b1c236f2-3176-4b5c-b819-db2f8ca3afc9","ios":"levelo://app?vid=b1c236f2-3176-4b5c-b819-db2f8ca3afc9"},"vehicle_type_id":"4","last_reported":1720548636,"current_range_meters":12800,"station_id":"ce4bh4p2rcd13ifvqe1g","pricing_plan_id":"cebpf4jnsgd1na2vs0mg"},{"bike_id":"3a85d2c4-3204-4f40-bfbe-a8ff506001eb","system_id":"levelo_inurba_marseille","lat":43.28861,"lon":5.35856,"is_reserved":false,"is_disabled":false,"rental_uris":{"android":"levelo://app?vid=3a85d2c4-3204-4f40-bfbe-a8ff506001eb","ios":"levelo://app?vid=3a85d2c4-3204-4f40-bfbe-a8ff506001eb"},"vehicle_type_id":"4","last_reported":1720548636,"current_range_meters":0,"station_id":"ce4bhb12rcd13ifvqem0","pricing_plan_id":"cebpf4jnsgd1na2vs0mg"},