{"last_updated":1749644519,"ttl":60,"version":"2.2","data":{"bikes":[{"bike_id":"0ced249e-7140-40f7-8dc5-b998e61d8460","system_id":"levelo_inurba_marseille","lat":43.29276,"lon":5.36839,"is_reserved":false,"is_disabled":false,"rental_uris":{"android":"levelo://app?vid=0ced249e-7140-40f7-8dc5-b998e61d8460","ios":"levelo://app?vid=0ced249e-7140-40f7-8dc5-b998e61d8460"},"vehicle_type_id":"4","last_reported":1749644519,"current_range_meters":2800,"station_id":"ce4bhbp2rcd13ifvqesg","pricing_plan_id":"cebpf4jnsgd1na2vs0mg"},{"bike_id":"06f8f666-13c2-4497-b721-a17ba1d44ed8","system_id":"levelo_inurba_marseille","lat":43.2862,"lon":5.35114,"is_reserved":false,"is_disabled":false,"rental_uris":{"android":"levelo://app?vid=06f8f666-13c2-4497-b721-a17ba1d44ed8","ios":"levelo://app?vid=06f8f666-13c2-4497-b721-a17ba1d44ed8"},"vehicle_type_id":"4","last_reported":1749644519,"current_range_meters":2800,"station_id":"ce4bhch2rcd13ifvqeug","pricing_plan_id":"cebpf4jnsgd1na2vs0mg"},{"bike_id":"358ac68d-dd90-423e-9775-e8b2cac662f6","system_id":"levelo_inurba_marseille","lat":43.29898,"lon":5.43668,"is_reserved":false,"is_disabled":false,"rental_uris":{"android":"levelo://app?vid=358ac68d-dd90-423e-9775-e8b2cac662f6","ios":"levelo://app?vid=358ac68d-dd90-423e-9775-e8b2cac662f6"},"vehicle_type_id":"4","last_reported":1749644519,"current_range_meters":2800,"station_id":"ce4bhpp2rcd13ifvqhfg","pricing_plan_id":"cebpf4jnsgd1na2vs0mg"},{"bike_id":"bb110d75-6e34-42b7-b79a-a518750dd8e4","system_id":"levelo_inurba_marseille","lat":43.28418,"lon":5.34972,"is_reserved":false,"is_disabled":false,"rental_uris":{"android":"levelo://app?vid=bb110d75-6e34-42b7-b79a-a518750dd8e4","ios":"levelo://app?vid=bb110d75-6e34-42b7-b79a-a518750dd8e4"},"vehicle_type_id":"4","last_reported":1749644519,"current_range_meters":2800,"station_id":"ce4bhbh2rcd13ifvqepg","pricing_plan_id":"cebpf4jnsgd1na2vs0mg"},{"bike_id":"a07e946e-9447-4da5-aedb-92fac983f3e4","system_id":"levelo_inurba_marseille","lat":43.29373,"lon":5.37847,"is_reserved":false,"is_disabled":false,"rental_uris":{"android":"levelo://app?vid=a07e946e-9447-4da5-aedb-92fac983f3e4","ios":"levelo://app?vid=a07e946e-9447-4da5-aedb-92fac983f3e4"},"vehicle_type_id":"4","last_reported":1749644519,"current_range_meters":2800,"station_id":"ce4bgjh2rcd13ifvqbf0","pricing_plan_id":"cebpf4jnsgd1na2vs0mg"},{"bike_id":"7591d4b0-84bc-42c3-92d0-7d8ab57c0843","system_id":"levelo_inurba_marseille","lat":43.23195,"lon":5.35554,"is_reserved":false,"is_disabled":false,"rental_uris":{"android":"levelo://app?vid=7591d4b0-84bc-42c3-92d0-7d8ab57c0843","ios":"levelo://app?vid=7591d4b0-84bc-42c3-92d0-7d8ab57c0843"},"vehicle_type_id":"4","last_reported":1749644519,"current_range_meters":3200,"station_id":"ce4bhu92rcd13ifvqi70","pricing_plan_id":"cebpf4jnsgd1na2vs0mg"},{"bike_id":"47800adb-074e-44b0-b8de-0bb1497eaedd","system_id":"levelo_inurba_marseille","lat":43.28426,"lon":5.37506,"is_reserved":false,"is_disabled":false,"rental_uris":{"android":"levelo://app?vid=47800adb-074e-44b0-b8de-0bb1497eaedd","ios":"levelo://app?vid=47800adb-074e-44b0-b8de-0bb1497eaedd"},"vehicle_type_id":"4","last_reported":1749644519,"current_range_meters":3200,"station_id":"ce4bh412rcd13ifvqds0","pricing_plan_id":"cebpf4jnsgd1na2vs0mg"},{"bike_id":"408842f3-82ae-4c82-8e1d-82b2ebf31723","system_id":"levelo_inurba_marseille","lat":43.28438,"lon":5.39201,"is_reserved":false,"is_disabled":false,"rental_uris":{"android":"levelo://app?vid=408842f3-82ae-4c82-8e1d-82b2ebf31723","ios":"levelo://app?vid=408842f3-82ae-4c82-8e1d-82b2ebf31723"},"vehicle_type_id":"4","last_reported":1749644519,"current_range_meters":3200,"station_id":"ce4bhoh2rcd13ifvqh5g","pricing_plan_id":"cebpf4jnsgd1na2vs0mg"},{"bike_id":"71a6ad24-4e18-4bd8-917d-5666aa0c4d76","system_id":"levelo_inurba_marseille","lat":43.33757,"lon":5.37488,"is_reserved":false,"is_disabled":false,"rental_uris":{"android":"levelo://app?vid=71a6ad24-4e18-4bd8-917d-5666aa0c4d76","ios":"levelo://app?vid=71a6ad24-4e18-4bd8-917d-5666aa0c4d76"},"vehicle_type_id":"4","last_reported":1749644519,"current_range_meters":3200,"station_id":"","pricing_plan_id":"cebpf4jnsgd1na2vs0mg"},{"bike_id":"2a5202f3-3a27-4970-954d-dd73962a1569","system_id":"levelo_inurba_marseille","lat":43.27569,"lon":5.38407,"is_reserved":false,"is_disabled":false,"rental_uris":{"android":"levelo://app?vid=2a5202f3-3a27-4970-954d-dd73962a1569","ios":"levelo://app?vid=2a5202f3-3a27-4970-954d-dd73962a1569"},"vehicle_type_id":"4","last_reported":1749644519,"current_range_meters":3200,"station_id":"ce4bhh92rcd13ifvqfi0","pricing_plan_id":"cebpf4jnsgd1na2vs0mg"},{"bike_id":"fb095f36-f1ca-472b-aaa4-1e734df1fb46","system_id":"levelo_inurba_marseille","lat":43.29923,"lon":5.37493,"is_reserved":false,"is_disabled":false,"rental_uris":{"android":"levelo://app?vid=fb095f36-f1ca-472b-aaa4-1e734df1fb46","ios":"levelo://app?vid=fb095f36-f1ca-472b-aaa4-1e734df1fb46"},"vehicle_type_id":"4","last_reported":1749644519,"current_range_meters":4000,"station_id":"ce4bgjh2rcd13ifvqbg0","pricing_plan_id":"cebpf4jnsgd1na2vs0mg"},{"bike_id":"058d6352-ccac-4198-baa6-c4e1a7edc99d","system_id":"levelo_inurba_marseille","lat":43.292664,"lon":5.384353,"is_reserved":false,"is_disabled":false,"rental_uris":{"android":"levelo://app?vid=058d6352-ccac-4198-baa6-c4e1a7edc99d","ios":"levelo://app?vid=058d6352-ccac-4198-baa6-c4e1a7edc99d"},"vehicle_type_id":"4","last_reported":1749644519,"current_range_meters":4000,"station_id":"ce4bh692rcd13ifvqea0","pricing_plan_id":"cebpf4jnsgd1na2vs0mg"},{"bike_id":"dfa3c74d-2894-4d8c-abb7-b0ce6ae98199","system_id":"levelo_inurba_marseille","lat":43.29201,"lon":5.39309,"is_reserved":false,"is_disabled":false,"rental_uris":{"android":"levelo://app?vid=dfa3c74d-2894-4d8c-abb7-b0ce6ae98199","ios":"levelo://app?vid=dfa3c74d-2894-4d8c-abb7-b0ce6ae98199"},"vehicle_type_id":"4","last_reported":1749644519,"current_range_meters":4000,"station_id":"ce4bh192rcd13ifvqdd0","pricing_plan_id":"cebpf4jnsgd1na2vs0mg"},{"bike_id":"ec31f33f-f9e8-47df-8188-958df10000f6","system_id":"levelo_inurba_marseille","lat":43.29532,"lon":5.38546,"is_reserved":false,"is_disabled":true,"rental_uris":{"android":"levelo://app?vid=ec31f33f-f9e8-47df-8188-958df10000f6","ios":"levelo://app?vid=ec31f33f-f9e8-47df-8188-958df10000f6"},"vehicle_type_id":"4","last_reported":1749644519,"current_range_meters":4000,"station_id":"ce4bgih2rcd13ifvqba0","pricing_plan_id":"cebpf4jnsgd1na2vs0mg"},{"bike_id":"bf1dd872-31f7-40eb-82bb-fcb234262eae","system_id":"levelo_inurba_marseille","lat":43.284227,"lon":5.349939,"is_reserved":false,"is_disabled":false,"rental_uris":{"android":"levelo://app?vid=bf1dd872-31f7-40eb-82bb-fcb234262eae","ios":"levelo://app?vid=bf1dd872-31f7-40eb-82bb-fcb234262eae"},"vehicle_type_id":"4","last_reported":1749644519,"current_range_meters":4000,"station_id":"ce4bhbh2rcd13ifvqepg","pricing_plan_id":"cebpf4jnsgd1na2vs0mg"},{"bike_id":"17534276-e5fb-42b2-981a-f5e948082345","system_id":"levelo_inurba_marseille","lat":43.27148,"lon":5.39071,"is_reserved":false,"is_disabled":false,"rental_uris":{"android":"levelo://app?vid=17534276-e5fb-42b2-981a-f5e948082345","ios":"levelo://app?vid=17534276-e5fb-42b2-981a-f5e948082345"},"vehicle_type_id":"4","last_reported":1749644519,"current_range_meters":4400,"station_id":"","pricing_plan_id":"cebpf4jnsgd1na2vs0mg"},{"bike_id":"038f7813-def6-48e8-a004-af5f5bcf9ade","system_id":"levelo_inurba_marseille","lat":43.305389,"lon":5.367121,"is_reserved":false,"is_disabled":false,"rental_uris":{"android":"levelo://app?vid=038f7813-def6-48e8-a004-af5f5bcf9ade","ios":"levelo://app?vid=038f7813-def6-48e8-a004-af5f5bcf9ade"},"vehicle_type_id":"4","last_reported":1749644519,"current_range_meters":4800,"station_id":"ce4bgrp2rcd13ifvqc9g","pricing_plan_id":"cebpf4jnsgd1na2vs0mg"},{"bike_id":"933a6e47-90f7-4978-9c0f-35e7e919520b","system_id":"levelo_inurba_marseille","lat":43.28933,"lon":5.38407,"is_reserved":false,"is_disabled":false,"rental_uris":{"android":"levelo://app?vid=933a6e47-90f7-4978-9c0f-35e7e919520b","ios":"levelo://app?vid=933a6e47-90f7-4978-9c0f-35e7e919520b"},"vehicle_type_id":"4","last_reported":1749644519,"current_range_meters":4800,"station_id":"ce4bh612rcd13ifvqe6g","pricing_plan_id":"cebpf4jnsgd1na2vs0mg"},{"bike_id":"2e8b6ba1-9834-453c-91c5-b05178b2c955","system_id":"levelo_inurba_marseille","lat":43.31357,"lon":5.38488,"is_reserved":false,"is_disabled":false,"rental_uris":{"android":"levelo://app?vid=2e8b6ba1-9834-453c-91c5-b05178b2c955","ios":"levelo://app?vid=2e8b6ba1-9834-453c-91c5-b05178b2c955"},"vehicle_type_id":"4","last_reported":1749644519,"current_range_meters":4800,"station_id":"ce4bgt92rcd13ifvqcf0","pricing_plan_id":"cebpf4jnsgd1na2vs0mg"},{"bike_id":"88423fb2-4d87-42d2-a077-439ca6d4083a","system_id":"levelo_inurba_marseille","lat":43.29094,"lon":5.3815,"is_reserved":false,"is_disabled":true,"rental_uris":{"android":"levelo://app?vid=88423fb2-4d87-42d2-a077-439ca6d4083a","ios":"levelo://app?vid=88423fb2-4d87-42d2-a077-439ca6d4083a"},"vehicle_type_id":"4","last_reported":1749644519,"current_range_meters":5600,"station_id":"ce4bh512rcd13ifvqe2g","pricing_plan_id":"cebpf4jnsgd1na2vs0mg"},{"bike_id":"1cf57dc0-5790-4025-8159-01cd8edaa1ad","system_id":"levelo_inurba_marseille","lat":43.281595,"lon":5.426694,"is_reserved":false,"is_disabled":false,"rental_uris":{"android":"levelo://app?vid=1cf57dc0-5790-4025-8159-01cd8edaa1ad","ios":"levelo://app?vid=1cf57dc0-5790-4025-8159-01cd8edaa1ad"},"vehicle_type_id":"4","last_reported":1749644519,"current_range_meters":5600,"station_id":"ce4bhnh2rcd13ifvqgug","pricing_plan_id":"cebpf4jnsgd1na2vs0mg"},{"bike_id":"3da569e0-c959-4d1f-ac62-4312880875ab","system_id":"levelo_inurba_marseille","lat":43.25576,"lon":5.38243,"is_reserved":false,"is_disabled":false,"rental_uris":{"android":"levelo://app?vid=3da569e0-c959-4d1f-ac62-4312880875ab","ios":"levelo://app?vid=3da569e0-c959-4d1f-ac62-4312880875ab"},"vehicle_type_id":"4","last_reported":1749644519,"current_range_meters":5600,"station_id":"ce4bhih2rcd13ifvqfs0","pricing_plan_id":"cebpf4jnsgd1na2vs0mg"},{"bike_id":"17cc72af-37c3-44e7-92b4-6d4786563103","system_id":"levelo_inurba_marseille","lat":43.32536,"lon":5.41446,"is_reserved":false,"is_disabled":false,"rental_uris":{"android":"levelo://app?vid=17cc72af-37c3-44e7-92b4-6d4786563103","ios":"levelo://app?vid=17cc72af-37c3-44e7-92b4-6d4786563103"},"vehicle_type_id":"4","last_reported":1749644519,"current_range_meters":6000,"station_id":"ce4bhq12rcd13ifvqhhg","pricing_plan_id":"cebpf4jnsgd1na2vs0mg"},{"bike_id":"18759061-77d6-468f-98a8-b5bab7d472b0","system_id":"levelo_inurba_marseille","lat":43.26578,"lon":5.39034,"is_reserved":false,"is_disabled":true,"rental_uris":{"android":"levelo://app?vid=18759061-77d6-468f-98a8-b5bab7d472b0","ios":"levelo://app?vid=18759061-77d6-468f-98a8-b5bab7d472b0"},"vehicle_type_id":"4","last_reported":1749644519,"current_range_meters":6000,"station_id":"ce4bhe12rcd13ifvqf30","pricing_plan_id":"cebpf4jnsgd1na2vs0mg"},{"bike_id":"9b9513f2-4092-4af3-ad86-081ef414508d","system_id":"levelo_inurba_marseille","lat":43.27614,"lon":5.36132,"is_reserved":false,"is_disabled":false,"rental_uris":{"android":"levelo://app?vid=9b9513f2-4092-4af3-ad86-081ef414508d","ios":"levelo://app?vid=9b9513f2-4092-4af3-ad86-081ef414508d"},"vehicle_type_id":"4","last_reported":1749644519,"current_range_meters":6400,"station_id":"ce4bgj92rcd13ifvqbe0","pricing_plan_id":"cebpf4jnsgd1na2vs0mg"},{"bike_id":"90f7336d-6866-41ff-9918-33d81980698c","system_id":"levelo_inurba_marseille","lat":43.25581,"lon":5.38232,"is_reserved":false,"is_disabled":false,"rental_uris":{"android":"levelo://app?vid=90f7336d-6866-41ff-9918-33d81980698c","ios":"levelo://app?vid=90f7336d-6866-41ff-9918-33d81980698c"},"vehicle_type_id":"4","last_reported":1749644519,"current_range_meters":6800,"station_id":"ce4bhih2rcd13ifvqfs0","pricing_plan_id":"cebpf4jnsgd1na2vs0mg"},{"bike_id":"325adbf7-3210-4f42-9fa3-23c5b94ad930","system_id":"levelo_inurba_marseille","lat":43.29619,"lon":5.371599,"is_reserved":false,"is_disabled":false,"rental_uris":{"android":"levelo://app?vid=325adbf7-3210-4f42-9fa3-23c5b94ad930","ios":"levelo://app?vid=325adbf7-3210-4f42-9fa3-23c5b94ad930"},"vehicle_type_id":"4","last_reported":1749644519,"current_range_meters":6800,"station_id":"","pricing_plan_id":"cebpf4jnsgd1na2vs0mg"},{"bike_id":"e523f706-8c3e-4c14-b599-8e03c9d72beb","system_id":"levelo_inurba_marseille","lat":43.31705,"lon":5.40469,"is_reserved":false,"is_disabled":false,"rental_uris":{"android":"levelo://app?vid=e523f706-8c3e-4c14-b599-8e03c9d72beb","ios":"levelo://app?vid=e523f706-8c3e-4c14-b599-8e03c9d72beb"},"vehicle_type_id":"4","last_reported":1749644519,"current_range_meters":6800,"station_id":"ce4bh012rcd13ifvqd00","pricing_plan_id":"cebpf4jnsgd1na2vs0mg"},{"bike_id":"39d32260-51d5-455a-ba53-6471389bd255","system_id":"levelo_inurba_marseille","lat":43.319749,"lon":5.376044,"is_reserved":false,"is_disabled":false,"rental_uris":{"android":"levelo://app?vid=39d32260-51d5-455a-ba53-6471389bd255","ios":"levelo://app?vid=39d32260-51d5-455a-ba53-6471389bd255"},"vehicle_type_id":"4","last_reported":1749644519,"current_range_meters":6800,"station_id":"","pricing_plan_id":"cebpf4jnsgd1na2vs0mg"},{"bike_id":"1e532920-9e26-4275-b7c0-535f652566f3","system_id":"levelo_inurba_marseille","lat":43.31375,"lon":5.36727,"is_reserved":false,"is_disabled":false,"rental_uris":{"android":"levelo://app?vid=1e532920-9e26-4275-b7c0-535f652566f3","ios":"levelo://app?vid=1e532920-9e26-4275-b7c0-535f652566f3"},"vehicle_type_id":"4","last_reported":1749644519,"current_range_meters":6800,"station_id":"ce4bgr92rcd13ifvqc6g","pricing_plan_id":"cebpf4jnsgd1na2vs0mg"},{"bike_id":"95ead895-15f4-4409-bea3-bbca5acd568a","system_id":"levelo_inurba_marseille","lat":43.28263,"lon":5.35062,"is_reserved":false,"is_disabled":false,"rental_uris":{"android":"levelo://app?vid=95ead895-15f4-4409-bea3-bbca5acd568a","ios":"levelo://app?vid=95ead895-15f4-4409-bea3-bbca5acd568a"},"vehicle_type_id":"4","last_reported":1749644519,"current_range_meters":7200,"station_id":"ce4bhbp2rcd13ifvqerg","pricing_plan_id":"cebpf4jnsgd1na2vs0mg"},{"bike_id":"a9334c0d-cdfc-464f-8eab-e98192ed3454","system_id":"levelo_inurba_marseille","lat":43.292288,"lon":5.399433,"is_reserved":false,"is_disabled":false,"rental_uris":{"android":"levelo://app?vid=a9334c0d-cdfc-464f-8eab-e98192ed3454","ios":"levelo://app?vid=a9334c0d-cdfc-464f-8eab-e98192ed3454"},"vehicle_type_id":"4","last_reported":1749644519,"current_range_meters":7200,"station_id":"","pricing_plan_id":"cebpf4jnsgd1na2vs0mg"},{"bike_id":"125bd855-10ed-4a56-9707-403f3a8b58a0","system_id":"levelo_inurba_marseille","lat":43.33065,"lon":5.40526,"is_reserved":false,"is_disabled":false,"rental_uris":{"android":"levelo://app?vid=125bd855-10ed-4a56-9707-403f3a8b58a0","ios":"levelo://app?vid=125bd855-10ed-4a56-9707-403f3a8b58a0"},"vehicle_type_id":"4","last_reported":1749644519,"current_range_meters":7200,"station_id":"","pricing_plan_id":"cebpf4jnsgd1na2vs0mg"},{"bike_id":"2b426f73-c086-4320-8971-64f421799bf5","system_id":"levelo_inurba_marseille","lat":43.26209,"lon":5.37444,"is_reserved":false,"is_disabled":false,"rental_uris":{"android":"levelo://app?vid=2b426f73-c086-4320-8971-64f421799bf5","ios":"levelo://app?vid=2b426f73-c086-4320-8971-64f421799bf5"},"vehicle_type_id":"4","last_reported":1749644519,"current_range_meters":8000,"station_id":"ce4bhgp2rcd13ifvqfc0","pricing_plan_id":"cebpf4jnsgd1na2vs0mg"},{"bike_id":"14257a63-b996-4ed4-ad15-5919c9c559e3","system_id":"levelo_inurba_marseille","lat":43.32106,"lon":5.36777,"is_reserved":false,"is_disabled":false,"rental_uris":{"android":"levelo://app?vid=14257a63-b996-4ed4-ad15-5919c9c559e3","ios":"levelo://app?vid=14257a63-b996-4ed4-ad15-5919c9c559e3"},"vehicle_type_id":"4","last_reported":1749644519,"current_range_meters":8000,"station_id":"ce4bhrh2rcd13ifvqhug","pricing_plan_id":"cebpf4jnsgd1na2vs0mg"},{"bike_id":"00793cc7-3aa4-4db5-b4eb-b976b8442b97","system_id":"levelo_inurba_marseille","lat":43.308,"lon":5.43518,"is_reserved":false,"is_disabled":false,"rental_uris":{"android":"levelo://app?vid=00793cc7-3aa4-4db5-b4eb-b976b8442b97","ios":"levelo://app?vid=00793cc7-3aa4-4db5-b4eb-b976b8442b97"},"vehicle_type_id":"4","last_reported":1749644519,"current_range_meters":8400,"station_id":"ce4bhph2rcd13ifvqheg","pricing_plan_id":"cebpf4jnsgd1na2vs0mg"},{"bike_id":"067e2ee8-1101-4b3d-8f2a-2f3961754b72","system_id":"levelo_inurba_marseille","lat":43.25927,"lon":5.40892,"is_reserved":false,"is_disabled":false,"rental_uris":{"android":"levelo://app?vid=067e2ee8-1101-4b3d-8f2a-2f3961754b72","ios":"levelo://app?vid=067e2ee8-1101-4b3d-8f2a-2f3961754b72"},"vehicle_type_id":"4","last_reported":1749644519,"current_range_meters":8400,"station_id":"ce4bhm92rcd13ifvqglg","pricing_plan_id":"cebpf4jnsgd1na2vs0mg"},{"bike_id":"60f440a3-f416-4034-8f3c-58318f9cd70c","system_id":"levelo_inurba_marseille","lat":43.32561,"lon":5.41471,"is_reserved":false,"is_disabled":false,"rental_uris":{"android":"levelo://app?vid=60f440a3-f416-4034-8f3c-58318f9cd70c","ios":"levelo://app?vid=60f440a3-f416-4034-8f3c-58318f9cd70c"},"vehicle_type_id":"4","last_reported":1749644519,"current_range_meters":8400,"station_id":"","pricing_plan_id":"cebpf4jnsgd1na2vs0mg"},{"bike_id":"655cf4ca-76c2-443d-8e33-bbbb2b1c07c7","system_id":"levelo_inurba_marseille","lat":43.23966,"lon":5.36625,"is_reserved":false,"is_disabled":false,"rental_uris":{"android":"levelo://app?vid=655cf4ca-76c2-443d-8e33-bbbb2b1c07c7","ios":"levelo://app?vid=655cf4ca-76c2-443d-8e33-bbbb2b1c07c7"},"vehicle_type_id":"4","last_reported":1749644519,"current_range_meters":8400,"station_id":"ce4bhi12rcd13ifvqfp0","pricing_plan_id":"cebpf4jnsgd1na2vs0mg"},{"bike_id":"3cc6e8ad-9bf5-42e2-b7b1-5099067732f4","system_id":"levelo_inurba_marseille","lat":43.23183,"lon":5.39984,"is_reserved":false,"is_disabled":false,"rental_uris":{"android":"levelo://app?vid=3cc6e8ad-9bf5-42e2-b7b1-5099067732f4","ios":"levelo://app?vid=3cc6e8ad-9bf5-42e2-b7b1-5099067732f4"},"vehicle_type_id":"4","last_reported":1749644519,"current_range_meters":8400,"station_id":"ce4bhn12rcd13ifvqgqg","pricing_plan_id":"cebpf4jnsgd1na2vs0mg"},{"bike_id":"2fb82a4e-0ee1-4839-87e1-0819fb18ed3d","system_id":"levelo_inurba_marseille","lat":43.270651,"lon":5.422767,"is_reserved":false,"is_disabled":true,"rental_uris":{"android":"levelo://app?vid=2fb82a4e-0ee1-4839-87e1-0819fb18ed3d","ios":"levelo://app?vid=2fb82a4e-0ee1-4839-87e1-0819fb18ed3d"},"vehicle_type_id":"4","last_reported":1749644519,"current_range_meters":8400,"station_id":"ce4bhk92rcd13ifvqgb0","pricing_plan_id":"cebpf4jnsgd1na2vs0mg"},{"bike_id":"de6fc962-9521-441f-a0bb-bbc1f5705d0b","system_id":"levelo_inurba_marseille","lat":43.29639,"lon":5.40585,"is_reserved":false,"is_disabled":false,"rental_uris":{"android":"levelo://app?vid=de6fc962-9521-441f-a0bb-bbc1f5705d0b","ios":"levelo://app?vid=de6fc962-9521-441f-a0bb-bbc1f5705d0b"},"vehicle_type_id":"4","last_reported":1749644519,"current_range_meters":8800,"station_id":"ce4bh0h2rcd13ifvqd60","pricing_plan_id":"cebpf4jnsgd1na2vs0mg"},{"bike_id":"db1e92de-af79-492e-9590-71c2c6759d57","system_id":"levelo_inurba_marseille","lat":43.27999,"lon":5.40005,"is_reserved":false,"is_disabled":false,"rental_uris":{"android":"levelo://app?vid=db1e92de-af79-492e-9590-71c2c6759d57","ios":"levelo://app?vid=db1e92de-af79-492e-9590-71c2c6759d57"},"vehicle_type_id":"4","last_reported":1749644519,"current_range_meters":8800,"station_id":"ce4bho92rcd13ifvqh4g","pricing_plan_id":"cebpf4jnsgd1na2vs0mg"},{"bike_id":"5077581b-cebb-46fc-ba69-4fa8272d4810","system_id":"levelo_inurba_marseille","lat":43.21364,"lon":5.35579,"is_reserved":false,"is_disabled":false,"rental_uris":{"android":"levelo://app?vid=5077581b-cebb-46fc-ba69-4fa8272d4810","ios":"levelo://app?vid=5077581b-cebb-46fc-ba69-4fa8272d4810"},"vehicle_type_id":"4","last_reported":1749644519,"current_range_meters":8800,"station_id":"","pricing_plan_id":"cebpf4jnsgd1na2vs0mg"},{"bike_id":"c1b5cd3e-dcc4-4260-8500-494c288cfc7b","system_id":"levelo_inurba_marseille","lat":43.26191,"lon":5.37451,"is_reserved":false,"is_disabled":false,"rental_uris":{"android":"levelo://app?vid=c1b5cd3e-dcc4-4260-8500-494c288cfc7b","ios":"levelo://app?vid=c1b5cd3e-dcc4-4260-8500-494c288cfc7b"},"vehicle_type_id":"4","last_reported":1749644519,"current_range_meters":8800,"station_id":"","pricing_plan_id":"cebpf4jnsgd1na2vs0mg"},{"bike_id":"fb7a0414-68de-4bcf-a069-8b76b50de836","system_id":"levelo_inurba_marseille","lat":43.25923,"lon":5.40911,"is_reserved":false,"is_disabled":true,"rental_uris":{"android":"levelo://app?vid=fb7a0414-68de-4bcf-a069-8b76b50de836","ios":"levelo://app?vid=fb7a0414-68de-4bcf-a069-8b76b50de836"},"vehicle_type_id":"4","last_reported":1749644519,"current_range_meters":8800,"station_id":"ce4bhm92rcd13ifvqglg","pricing_plan_id":"cebpf4jnsgd1na2vs0mg"},{"bike_id":"99a32a85-8e05-4b39-8663-567626964d51","system_id":"levelo_inurba_marseille","lat":43.292701,"lon":5.384416,"is_reserved":false,"is_disabled":false,"rental_uris":{"android":"levelo://app?vid=99a32a85-8e05-4b39-8663-567626964d51","ios":"levelo://app?vid=99a32a85-8e05-4b39-8663-567626964d51"},"vehicle_type_id":"4","last_reported":1749644519,"current_range_meters":9200,"station_id":"ce4bh692rcd13ifvqea0","pricing_plan_id":"cebpf4jnsgd1na2vs0mg"},{"bike_id":"7aea8808-25b8-41ec-bd83-b8dc1766087d","system_id":"levelo_inurba_marseille","lat":43.28082,"lon":5.39659,"is_reserved":false,"is_disabled":false,"rental_uris":{"android":"levelo://app?vid=7aea8808-25b8-41ec-bd83-b8dc1766087d","ios":"levelo://app?vid=7aea8808-25b8-41ec-bd83-b8dc1766087d"},"vehicle_type_id":"4","last_reported":1749644519,"current_range_meters":9200,"station_id":"ce4bho12rcd13ifvqh2g","pricing_plan_id":"cebpf4jnsgd1na2vs0mg"},{"bike_id":"3c9102a1-e58f-4d92-8c91-e11b2d691a11","system_id":"levelo_inurba_marseille","lat":43.23963,"lon":5.36628,"is_reserved":false,"is_disabled":false,"rental_uris":{"android":"levelo://app?vid=3c9102a1-e58f-4d92-8c91-e11b2d691a11","ios":"levelo://app?vid=3c9102a1-e58f-4d92-8c91-e11b2d691a11"},"vehicle_type_id":"4","last_reported":1749644519,"current_range_meters":9200,"station_id":"ce4bhi12rcd13ifvqfp0","pricing_plan_id":"cebpf4jnsgd1na2vs0mg"},{"bike_id":"5b28dcfe-747c-47b7-8e72-3f4e3db142a6","system_id":"levelo_inurba_marseille","lat":43.29608,"lon":5.38101,"is_reserved":false,"is_disabled":false,"rental_uris":{"android":"levelo://app?vid=5b28dcfe-747c-47b7-8e72-3f4e3db142a6","ios":"levelo://app?vid=5b28dcfe-747c-47b7-8e72-3f4e3db142a6"},"vehicle_type_id":"4","last_reported":1749644519,"current_range_meters":9200,"station_id":"ce4bgl12rcd13ifvqbo0","pricing_plan_id":"cebpf4jnsgd1na2vs0mg"},{"bike_id":"ad5fea89-943a-4619-9edc-0ace3e829ee1","system_id":"levelo_inurba_marseille","lat":43.32516,"lon":5.41459,"is_reserved":false,"is_disabled":false,"rental_uris":{"android":"levelo://app?vid=ad5fea89-943a-4619-9edc-0ace3e829ee1","ios":"levelo://app?vid=ad5fea89-943a-4619-9edc-0ace3e829ee1"},"vehicle_type_id":"4","last_reported":1749644519,"current_range_meters":9200,"station_id":"ce4bhq12rcd13ifvqhhg","pricing_plan_id":"cebpf4jnsgd1na2vs0mg"},{"bike_id":"e8be42d7-afc7-4a86-845b-44a44df3b6a0","system_id":"levelo_inurba_marseille","lat":43.29196,"lon":5.357992,"is_reserved":false,"is_disabled":false,"rental_uris":{"android":"levelo://app?vid=e8be42d7-afc7-4a86-845b-44a44df3b6a0","ios":"levelo://app?vid=e8be42d7-afc7-4a86-845b-44a44df3b6a0"},"vehicle_type_id":"4","last_reported":1749644519,"current_range_meters":9200,"station_id":"","pricing_plan_id":"cebpf4jnsgd1na2vs0mg"},{"bike_id":"51ec0687-547a-4f6a-99cf-9e712879ea7e","system_id":"levelo_inurba_marseille","lat":43.25506,"lon":5.37647,"is_reserved":false,"is_disabled":false,"rental_uris":{"android":"levelo://app?vid=51ec0687-547a-4f6a-99cf-9e712879ea7e","ios":"levelo://app?vid=51ec0687-547a-4f6a-99cf-9e712879ea7e"},"vehicle_type_id":"4","last_reported":1749644519,"current_range_meters":9200,"station_id":"ce4bhh12rcd13ifvqff0","pricing_plan_id":"cebpf4jnsgd1na2vs0mg"},{"bike_id":"ab5d796b-6f87-4b6e-a5bd-6ac051fcacd1","system_id":"levelo_inurba_marseille","lat":43.32473,"lon":5.36611,"is_reserved":false,"is_disabled":false,"rental_uris":{"android":"levelo://app?vid=ab5d796b-6f87-4b6e-a5bd-6ac051fcacd1","ios":"levelo://app?vid=ab5d796b-6f87-4b6e-a5bd-6ac051fcacd1"},"vehicle_type_id":"4","last_reported":1749644519,"current_range_meters":9200,"station_id":"ce4bhs12rcd13ifvqhvg","pricing_plan_id":"cebpf4jnsgd1na2vs0mg"},{"bike_id":"ca27e12a-1f2d-4cf2-be29-12a2b9ff1547","system_id":"levelo_inurba_marseille","lat":43.31724,"lon":5.42389,"is_reserved":false,"is_disabled":false,"rental_uris":{"android":"levelo://app?vid=ca27e12a-1f2d-4cf2-be29-12a2b9ff1547","ios":"levelo://app?vid=ca27e12a-1f2d-4cf2-be29-12a2b9ff1547"},"vehicle_type_id":"4","last_reported":1749644519,"current_range_meters":9200,"station_id":"ce4bhp92rcd13ifvqhbg","pricing_plan_id":"cebpf4jnsgd1na2vs0mg"},{"bike_id":"85dbcdd1-a4df-40c1-a57e-c7477beeac51","system_id":"levelo_inurba_marseille","lat":43.27997,"lon":5.40006,"is_reserved":false,"is_disabled":false,"rental_uris":{"android":"levelo://app?vid=85dbcdd1-a4df-40c1-a57e-c7477beeac51","ios":"levelo://app?vid=85dbcdd1-a4df-40c1-a57e-c7477beeac51"},"vehicle_type_id":"4","last_reported":1749644519,"current_range_meters":9600,"station_id":"ce4bho92rcd13ifvqh4g","pricing_plan_id":"cebpf4jnsgd1na2vs0mg"},{"bike_id":"1e20f032-0f6a-40b2-ad29-e4d2225496fa","system_id":"levelo_inurba_marseille","lat":43.30289,"lon":5.37059,"is_reserved":false,"is_disabled":false,"rental_uris":{"android":"levelo://app?vid=1e20f032-0f6a-40b2-ad29-e4d2225496fa","ios":"levelo://app?vid=1e20f032-0f6a-40b2-ad29-e4d2225496fa"},"vehicle_type_id":"4","last_reported":1749644519,"current_range_meters":9600,"station_id":"","pricing_plan_id":"cebpf4jnsgd1na2vs0mg"},{"bike_id":"f099f1d3-8f7a-4cc3-a178-0fbb1ea0f192","system_id":"levelo_inurba_marseille","lat":43.2902,"lon":5.38136,"is_reserved":false,"is_disabled":true,"rental_uris":{"android":"levelo://app?vid=f099f1d3-8f7a-4cc3-a178-0fbb1ea0f192","ios":"levelo://app?vid=f099f1d3-8f7a-4cc3-a178-0fbb1ea0f192"},"vehicle_type_id":"4","last_reported":1749644519,"current_range_meters":9600,"station_id":"ce4bh4p2rcd13ifvqe1g","pricing_plan_id":"cebpf4jnsgd1na2vs0mg"},{"bike_id":"57ae981b-f992-4b9e-bd1e-447b95ce922f","system_id":"levelo_inurba_marseille","lat":43.30722,"lon":5.38059,"is_reserved":false,"is_disabled":false,"rental_uris":{"android":"levelo://app?vid=57ae981b-f992-4b9e-bd1e-447b95ce922f","ios":"levelo://app?vid=57ae981b-f992-4b9e-bd1e-447b95ce922f"},"vehicle_type_id":"4","last_reported":1749644519,"current_range_meters":9600,"station_id":"","pricing_plan_id":"cebpf4jnsgd1na2vs0mg"},{"bike_id":"187b0a7b-e256-4c19-9794-bb250a6c5653","system_id":"levelo_inurba_marseille","lat":43.31878,"lon":5.37956,"is_reserved":false,"is_disabled":false,"rental_uris":{"android":"levelo://app?vid=187b0a7b-e256-4c19-9794-bb250a6c5653","ios":"levelo://app?vid=187b0a7b-e256-4c19-9794-bb250a6c5653"},"vehicle_type_id":"4","last_reported":1749644519,"current_range_meters":9600,"station_id":"","pricing_plan_id":"cebpf4jnsgd1na2vs0mg"},{"bike_id":"15138ce4-9850-4a09-9eb2-0da12393d0d8","system_id":"levelo_inurba_marseille","lat":43.31716,"lon":5.43685,"is_reserved":false,"is_disabled":false,"rental_uris":{"android":"levelo://app?vid=15138ce4-9850-4a09-9eb2-0da12393d0d8","ios":"levelo://app?vid=15138ce4-9850-4a09-9eb2-0da12393d0d8"},"vehicle_type_id":"4","last_reported":1749644519,"current_range_meters":9600,"station_id":"ce4bhp92rcd13ifvqhcg","pricing_plan_id":"cebpf4jnsgd1na2vs0mg"},{"bike_id":"c5444502-5cb6-4912-bb87-e2aa95545a1c","system_id":"levelo_inurba_marseille","lat":43.292015,"lon":5.358012,"is_reserved":false,"is_disabled":false,"rental_uris":{"android":"levelo://app?vid=c5444502-5cb6-4912-bb87-e2aa95545a1c","ios":"levelo://app?vid=c5444502-5cb6-4912-bb87-e2aa95545a1c"},"vehicle_type_id":"4","last_reported":1749644519,"current_range_meters":10000,"station_id":"ce4bh3p2rcd13ifvqdq0","pricing_plan_id":"cebpf4jnsgd1na2vs0mg"},{"bike_id":"a880e958-60c3-4bb1-ade7-12b3c8f4fc8d","system_id":"levelo_inurba_marseille","lat":43.26565,"lon":5.37278,"is_reserved":false,"is_disabled":false,"rental_uris":{"android":"levelo://app?vid=a880e958-60c3-4bb1-ade7-12b3c8f4fc8d","ios":"levelo://app?vid=a880e958-60c3-4bb1-ade7-12b3c8f4fc8d"},"vehicle_type_id":"4","last_reported":1749644519,"current_range_meters":10000,"station_id":"ce4bhg12rcd13ifvqf70","pricing_plan_id":"cebpf4jnsgd1na2vs0mg"},{"bike_id":"faaacfeb-ef95-41fc-98c5-e11e51369270","system_id":"levelo_inurba_marseille","lat":43.25936,"lon":5.40903,"is_reserved":false,"is_disabled":false,"rental_uris":{"android":"levelo://app?vid=faaacfeb-ef95-41fc-98c5-e11e51369270","ios":"levelo://app?vid=faaacfeb-ef95-41fc-98c5-e11e51369270"},"vehicle_type_id":"4","last_reported":1749644519,"current_range_meters":10000,"station_id":"ce4bhm92rcd13ifvqglg","pricing_plan_id":"cebpf4jnsgd1na2vs0mg"},{"bike_id":"cf7eda05-d9ba-47ce-b30b-4b55a549199f","system_id":"levelo_inurba_marseille","lat":43.29604,"lon":5.38096,"is_reserved":false,"is_disabled":false,"rental_uris":{"android":"levelo://app?vid=cf7eda05-d9ba-47ce-b30b-4b55a549199f","ios":"levelo://app?vid=cf7eda05-d9ba-47ce-b30b-4b55a549199f"},"vehicle_type_id":"4","last_reported":1749644519,"current_range_meters":9600,"station_id":"ce4bgl12rcd13ifvqbo0","pricing_plan_id":"cebpf4jnsgd1na2vs0mg"},{"bike_id":"f5db53c2-39c8-4781-b30f-b57c98968b37","system_id":"levelo_inurba_marseille","lat":43.29421,"lon":5.38612,"is_reserved":false,"is_disabled":true,"rental_uris":{"android":"levelo://app?vid=f5db53c2-39c8-4781-b30f-b57c98968b37","ios":"levelo://app?vid=f5db53c2-39c8-4781-b30f-b57c98968b37"},"vehicle_type_id":"4","last_reported":1749644519,"current_range_meters":10800,"station_id":"ce4bh2h2rcd13ifvqdh0","pricing_plan_id":"cebpf4jnsgd1na2vs0mg"},{"bike_id":"acecc9dd-9f66-4fc9-b678-7dfbfc49612a","system_id":"levelo_inurba_marseille","lat":43.3037,"lon":5.4249,"is_reserved":false,"is_disabled":false,"rental_uris":{"android":"levelo://app?vid=acecc9dd-9f66-4fc9-b678-7dfbfc49612a","ios":"levelo://app?vid=acecc9dd-9f66-4fc9-b678-7dfbfc49612a"},"vehicle_type_id":"4","last_reported":1749644519,"current_range_meters":10800,"station_id":"ce4bhoh2rcd13ifvqh6g","pricing_plan_id":"cebpf4jnsgd1na2vs0mg"},{"bike_id":"7c36ab5f-1606-4972-98b7-432569989cba","system_id":"levelo_inurba_marseille","lat":43.32366,"lon":5.38871,"is_reserved":false,"is_disabled":false,"rental_uris":{"android":"levelo://app?vid=7c36ab5f-1606-4972-98b7-432569989cba","ios":"levelo://app?vid=7c36ab5f-1606-4972-98b7-432569989cba"},"vehicle_type_id":"4","last_reported":1749644519,"current_range_meters":10800,"station_id":"ce4bhqp2rcd13ifvqhog","pricing_plan_id":"cebpf4jnsgd1na2vs0mg"},{"bike_id":"006a3a21-398d-4545-8755-76e3580759e6","system_id":"levelo_inurba_marseille","lat":43.29594,"lon":5.36765,"is_reserved":false,"is_disabled":false,"rental_uris":{"android":"levelo://app?vid=006a3a21-398d-4545-8755-76e3580759e6","ios":"levelo://app?vid=006a3a21-398d-4545-8755-76e3580759e6"},"vehicle_type_id":"4","last_reported":1749644519,"current_range_meters":10800,"station_id":"ce4bgph2rcd13ifvqc2g","pricing_plan_id":"cebpf4jnsgd1na2vs0mg"},{"bike_id":"4c63bbbb-f279-4bdd-8220-9c06da921777","system_id":"levelo_inurba_marseille","lat":43.28002,"lon":5.4001,"is_reserved":false,"is_disabled":false,"rental_uris":{"android":"levelo://app?vid=4c63bbbb-f279-4bdd-8220-9c06da921777","ios":"levelo://app?vid=4c63bbbb-f279-4bdd-8220-9c06da921777"},"vehicle_type_id":"4","last_reported":1749644519,"current_range_meters":10800,"station_id":"ce4bho92rcd13ifvqh4g","pricing_plan_id":"cebpf4jnsgd1na2vs0mg"},{"bike_id":"1dbb7afa-f9d0-446f-a564-3e82e3b0e0c5","system_id":"levelo_inurba_marseille","lat":43.23066,"lon":5.35486,"is_reserved":false,"is_disabled":false,"rental_uris":{"android":"levelo://app?vid=1dbb7afa-f9d0-446f-a564-3e82e3b0e0c5","ios":"levelo://app?vid=1dbb7afa-f9d0-446f-a564-3e82e3b0e0c5"},"vehicle_type_id":"4","last_reported":1749644519,"current_range_meters":10000,"station_id":"cpo3342slgdg3j2ifvpg","pricing_plan_id":"cebpf4jnsgd1na2vs0mg"},{"bike_id":"e6d67648-0d34-4392-8e2c-f83f208c9d05","system_id":"levelo_inurba_marseille","lat":43.31713,"lon":5.40464,"is_reserved":false,"is_disabled":false,"rental_uris":{"android":"levelo://app?vid=e6d67648-0d34-4392-8e2c-f83f208c9d05","ios":"levelo://app?vid=e6d67648-0d34-4392-8e2c-f83f208c9d05"},"vehicle_type_id":"4","last_reported":1749644519,"current_range_meters":10800,"station_id":"ce4bh012rcd13ifvqd00","pricing_plan_id":"cebpf4jnsgd1na2vs0mg"},{"bike_id":"5ffc5d75-9066-40cf-9730-75b3d557a59f","system_id":"levelo_inurba_marseille","lat":43.299125,"lon":5.377475,"is_reserved":false,"is_disabled":false,"rental_uris":{"android":"levelo://app?vid=5ffc5d75-9066-40cf-9730-75b3d557a59f","ios":"levelo://app?vid=5ffc5d75-9066-40cf-9730-75b3d557a59f"},"vehicle_type_id":"4","last_reported":1749644519,"current_range_meters":10800,"station_id":"","pricing_plan_id":"cebpf4jnsgd1na2vs0mg"},{"bike_id":"f3c96549-a0fb-4c16-8dd4-a089939ecf80","system_id":"levelo_inurba_marseille","lat":43.3095,"lon":5.39028,"is_reserved":false,"is_disabled":false,"rental_uris":{"android":"levelo://app?vid=f3c96549-a0fb-4c16-8dd4-a089939ecf80","ios":"levelo://app?vid=f3c96549-a0fb-4c16-8dd4-a089939ecf80"},"vehicle_type_id":"4","last_reported":1749644519,"current_range_meters":10800,"station_id":"ce4bgup2rcd13ifvqco0","pricing_plan_id":"cebpf4jnsgd1na2vs0mg"},{"bike_id":"76586397-83f4-42c2-a32d-31cdeda753f4","system_id":"levelo_inurba_marseille","lat":43.28858,"lon":5.35851,"is_reserved":false,"is_disabled":false,"rental_uris":{"android":"levelo://app?vid=76586397-83f4-42c2-a32d-31cdeda753f4","ios":"levelo://app?vid=76586397-83f4-42c2-a32d-31cdeda753f4"},"vehicle_type_id":"4","last_reported":1749644519,"current_range_meters":10800,"station_id":"ce4bhb12rcd13ifvqem0","pricing_plan_id":"cebpf4jnsgd1na2vs0mg"},{"bike_id":"148489ab-f475-478f-912b-4d760f45f914","system_id":"levelo_inurba_marseille","lat":43.312345,"lon":5.368726,"is_reserved":false,"is_disabled":false,"rental_uris":{"android":"levelo://app?vid=148489ab-f475-478f-912b-4d760f45f914","ios":"levelo://app?vid=148489ab-f475-478f-912b-4d760f45f914"},"vehicle_type_id":"4","last_reported":1749644519,"current_range_meters":10800,"station_id":"","pricing_plan_id":"cebpf4jnsgd1na2vs0mg"},{"bike_id":"07a5cba3-c2e0-4e21-8878-34ea2ec814a6","system_id":"levelo_inurba_marseille","lat":43.29573,"lon":5.37513,"is_reserved":false,"is_disabled":false,"rental_uris":{"android":"levelo://app?vid=07a5cba3-c2e0-4e21-8878-34ea2ec814a6","ios":"levelo://app?vid=07a5cba3-c2e0-4e21-8878-34ea2ec814a6"},"vehicle_type_id":"4","last_reported":1749644519,"current_range_meters":10800,"station_id":"ce4bgh92rcd13ifvqb50","pricing_plan_id":"cebpf4jnsgd1na2vs0mg"},{"bike_id":"51accf6c-ad5a-464a-abab-13e81d3a045e","system_id":"levelo_inurba_marseille","lat":43.28702,"lon":5.37372,"is_reserved":false,"is_disabled":false,"rental_uris":{"android":"levelo://app?vid=51accf6c-ad5a-464a-abab-13e81d3a045e","ios":"levelo://app?vid=51accf6c-ad5a-464a-abab-13e81d3a045e"},"vehicle_type_id":"4","last_reported":1749644519,"current_range_meters":11200,"station_id":"ce4bh3p2rcd13ifvqdq0","pricing_plan_id":"cebpf4jnsgd1na2vs0mg"},{"bike_id":"262903a9-22b9-4b2d-96c2-2e5dbd155090","system_id":"levelo_inurba_marseille","lat":43.32474,"lon":5.3656,"is_reserved":false,"is_disabled":false,"rental_uris":{"android":"levelo://app?vid=262903a9-22b9-4b2d-96c2-2e5dbd155090","ios":"levelo://app?vid=262903a9-22b9-4b2d-96c2-2e5dbd155090"},"vehicle_type_id":"4","last_reported":1749644519,"current_range_meters":11600,"station_id":"ce4bhs12rcd13ifvqhvg","pricing_plan_id":"cebpf4jnsgd1na2vs0mg"},{"bike_id":"a6a9aa78-7299-47ac-a784-76282a099506","system_id":"levelo_inurba_marseille","lat":43.301509,"lon":5.380948,"is_reserved":false,"is_disabled":true,"rental_uris":{"android":"levelo://app?vid=a6a9aa78-7299-47ac-a784-76282a099506","ios":"levelo://app?vid=a6a9aa78-7299-47ac-a784-76282a099506"},"vehicle_type_id":"4","last_reported":1749644519,"current_range_meters":11600,"station_id":"ce4bgjp2rcd13ifvqbh0","pricing_plan_id":"cebpf4jnsgd1na2vs0mg"},{"bike_id":"84f5a926-1dd6-4535-b647-2764ce0ca103","system_id":"levelo_inurba_marseille","lat":43.321118,"lon":5.367731,"is_reserved":false,"is_disabled":false,"rental_uris":{"android":"levelo://app?vid=84f5a926-1dd6-4535-b647-2764ce0ca103","ios":"levelo://app?vid=84f5a926-1dd6-4535-b647-2764ce0ca103"},"vehicle_type_id":"4","last_reported":1749644519,"current_range_meters":11600,"station_id":"ce4bhrh2rcd13ifvqhug","pricing_plan_id":"cebpf4jnsgd1na2vs0mg"},{"bike_id":"2e7bcf76-77eb-42a2-9ae3-8c7b16b8103f","system_id":"levelo_inurba_marseille","lat":43.32093,"lon":5.36797,"is_reserved":false,"is_disabled":false,"rental_uris":{"android":"levelo://app?vid=2e7bcf76-77eb-42a2-9ae3-8c7b16b8103f","ios":"levelo://app?vid=2e7bcf76-77eb-42a2-9ae3-8c7b16b8103f"},"vehicle_type_id":"4","last_reported":1749644519,"current_range_meters":11600,"station_id":"ce4bhrh2rcd13ifvqhug","pricing_plan_id":"cebpf4jnsgd1na2vs0mg"},{"bike_id":"cddd1fb9-d28a-4b1e-bba6-95d23655e21e","system_id":"levelo_inurba_marseille","lat":43.250828,"lon":5.395262,"is_reserved":false,"is_disabled":false,"rental_uris":{"android":"levelo://app?vid=cddd1fb9-d28a-4b1e-bba6-95d23655e21e","ios":"levelo://app?vid=cddd1fb9-d28a-4b1e-bba6-95d23655e21e"},"vehicle_type_id":"4","last_reported":1749644519,"current_range_meters":11600,"station_id":"ce4bhm12rcd13ifvqgkg","pricing_plan_id":"cebpf4jnsgd1na2vs0mg"},{"bike_id":"4220c3f1-dd96-4f3e-a186-336464ef48f9","system_id":"levelo_inurba_marseille","lat":43.28422,"lon":5.34984,"is_reserved":false,"is_disabled":false,"rental_uris":{"android":"levelo://app?vid=4220c3f1-dd96-4f3e-a186-336464ef48f9","ios":"levelo://app?vid=4220c3f1-dd96-4f3e-a186-336464ef48f9"},"vehicle_type_id":"4","last_reported":1749644519,"current_range_meters":11600,"station_id":"ce4bhbh2rcd13ifvqepg","pricing_plan_id":"cebpf4jnsgd1na2vs0mg"},{"bike_id":"6bb47878-6b03-498f-bc74-957b1690324a","system_id":"levelo_inurba_marseille","lat":43.27618,"lon":5.36136,"is_reserved":false,"is_disabled":false,"rental_uris":{"android":"levelo://app?vid=6bb47878-6b03-498f-bc74-957b1690324a","ios":"levelo://app?vid=6bb47878-6b03-498f-bc74-957b1690324a"},"vehicle_type_id":"4","last_reported":1749644519,"current_range_meters":12000,"station_id":"ce4bgj92rcd13ifvqbe0","pricing_plan_id":"cebpf4jnsgd1na2vs0mg"},{"bike_id":"b86f91bc-c8e1-4000-b695-81c0070516a5","system_id":"levelo_inurba_marseille","lat":43.27918,"lon":5.39583,"is_reserved":false,"is_disabled":false,"rental_uris":{"android":"levelo://app?vid=b86f91bc-c8e1-4000-b695-81c0070516a5","ios":"levelo://app?vid=b86f91bc-c8e1-4000-b695-81c0070516a5"},"vehicle_type_id":"4","last_reported":1749644519,"current_range_meters":12000,"station_id":"ce4bhf92rcd13ifvqf40","pricing_plan_id":"cebpf4jnsgd1na2vs0mg"},{"bike_id":"408ea359-9b87-40fe-bedf-c7ce11c65456","system_id":"levelo_inurba_marseille","lat":43.296513,"lon":5.37142,"is_reserved":false,"is_disabled":false,"rental_uris":{"android":"levelo://app?vid=408ea359-9b87-40fe-bedf-c7ce11c65456","ios":"levelo://app?vid=408ea359-9b87-40fe-bedf-c7ce11c65456"},"vehicle_type_id":"4","last_reported":1749644519,"current_range_meters":12000,"station_id":"ce4bgnh2rcd13ifvqc0g","pricing_plan_id":"cebpf4jnsgd1na2vs0mg"},{"bike_id":"b4e5bd5b-7335-4d47-8807-e22ca871e57c","system_id":"levelo_inurba_marseille","lat":43.22933,"lon":5.35383,"is_reserved":false,"is_disabled":false,"rental_uris":{"android":"levelo://app?vid=b4e5bd5b-7335-4d47-8807-e22ca871e57c","ios":"levelo://app?vid=b4e5bd5b-7335-4d47-8807-e22ca871e57c"},"vehicle_type_id":"4","last_reported":1749644519,"current_range_meters":12400,"station_id":"cpo3532slgdg3j2ikp40","pricing_plan_id":"cebpf4jnsgd1na2vs0mg"},{"bike_id":"8a7ed6b2-1c3a-45e9-9fdf-4bc0c77245af","system_id":"levelo_inurba_marseille","lat":43.27071,"lon":5.4229,"is_reserved":false,"is_disabled":false,"rental_uris":{"android":"levelo://app?vid=8a7ed6b2-1c3a-45e9-9fdf-4bc0c77245af","ios":"levelo://app?vid=8a7ed6b2-1c3a-45e9-9fdf-4bc0c77245af"},"vehicle_type_id":"4","last_reported":1749644519,"current_range_meters":12400,"station_id":"ce4bhk92rcd13ifvqgb0","pricing_plan_id":"cebpf4jnsgd1na2vs0mg"},{"bike_id":"ac78cada-3aa5-49bf-9b05-0ade263bd256","system_id":"levelo_inurba_marseille","lat":43.28981,"lon":5.37821,"is_reserved":false,"is_disabled":false,"rental_uris":{"android":"levelo://app?vid=ac78cada-3aa5-49bf-9b05-0ade263bd256","ios":"levelo://app?vid=ac78cada-3aa5-49bf-9b05-0ade263bd256"},"vehicle_type_id":"4","last_reported":1749644519,"current_range_meters":12800,"station_id":"ce4bh9p2rcd13ifvqed0","pricing_plan_id":"cebpf4jnsgd1na2vs0mg"},{"bike_id":"c3820745-e26f-46a5-80cc-3a42a837cb13","system_id":"levelo_inurba_marseille","lat":43.25493,"lon":5.3764,"is_reserved":false,"is_disabled":false,"rental_uris":{"android":"levelo://app?vid=c3820745-e26f-46a5-80cc-3a42a837cb13","ios":"levelo://app?vid=c3820745-e26f-46a5-80cc-3a42a837cb13"},"vehicle_type_id":"4","last_reported":1749644519,"current_range_meters":12400,"station_id":"ce4bhh12rcd13ifvqff0","pricing_plan_id":"cebpf4jnsgd1na2vs0mg"},{"bike_id":"647fe7b1-7e48-491b-a4cc-9d5e2ca05273","system_id":"levelo_inurba_marseille","lat":43.25581,"lon":5.38233,"is_reserved":false,"is_disabled":false,"rental_uris":{"android":"levelo://app?vid=647fe7b1-7e48-491b-a4cc-9d5e2ca05273","ios":"levelo://app?vid=647fe7b1-7e48-491b-a4cc-9d5e2ca05273"},"vehicle_type_id":"4","last_reported":1749644519,"current_range_meters":12000,"station_id":"ce4bhih2rcd13ifvqfs0","pricing_plan_id":"cebpf4jnsgd1na2vs0mg"},{"bike_id":"91252cb4-db98-4cff-ba49-0337a6eacf8f","system_id":"levelo_inurba_marseille","lat":43.31994,"lon":5.38783,"is_reserved":false,"is_disabled":false,"rental_uris":{"android":"levelo://app?vid=91252cb4-db98-4cff-ba49-0337a6eacf8f","ios":"levelo://app?vid=91252cb4-db98-4cff-ba49-0337a6eacf8f"},"vehicle_type_id":"4","last_reported":1749644519,"current_range_meters":12400,"station_id":"","pricing_plan_id":"cebpf4jnsgd1na2vs0mg"},{"bike_id":"398fc2d5-304a-4200-ba54-ed87b973990b","system_id":"levelo_inurba_marseille","lat":43.25933,"lon":5.40911,"is_reserved":false,"is_disabled":true,"rental_uris":{"android":"levelo://app?vid=398fc2d5-304a-4200-ba54-ed87b973990b","ios":"levelo://app?vid=398fc2d5-304a-4200-ba54-ed87b973990b"},"vehicle_type_id":"4","last_reported":1749644519,"current_range_meters":12400,"station_id":"ce4bhm92rcd13ifvqglg","pricing_plan_id":"cebpf4jnsgd1na2vs0mg"},{"bike_id":"e5f3e6c8-53e1-4950-b794-6a3b54df72bf","system_id":"levelo_inurba_marseille","lat":43.30933,"lon":5.40142,"is_reserved":false,"is_disabled":false,"rental_uris":{"android":"levelo://app?vid=e5f3e6c8-53e1-4950-b794-6a3b54df72bf","ios":"levelo://app?vid=e5f3e6c8-53e1-4950-b794-6a3b54df72bf"},"vehicle_type_id":"4","last_reported":1749644519,"current_range_meters":12800,"station_id":"ce4bgvp2rcd13ifvqct0","pricing_plan_id":"cebpf4jnsgd1na2vs0mg"},{"bike_id":"cc9970f4-2235-48f1-8e22-8524902b095a","system_id":"levelo_inurba_marseille","lat":43.30274,"lon":5.37711,"is_reserved":false,"is_disabled":false,"rental_uris":{"android":"levelo://app?vid=cc9970f4-2235-48f1-8e22-8524902b095a","ios":"levelo://app?vid=cc9970f4-2235-48f1-8e22-8524902b095a"},"vehicle_type_id":"4","last_reported":1749644519,"current_range_meters":12800,"station_id":"ce4bguh2rcd13ifvqcj0","pricing_plan_id":"cebpf4jnsgd1na2vs0mg"},{"bike_id":"d75aaeda-ece7-43a3-b703-b22a4490ea7d","system_id":"levelo_inurba_marseille","lat":43.29027,"lon":5.38158,"is_reserved":false,"is_disabled":true,"rental_uris":{"android":"levelo://app?vid=d75aaeda-ece7-43a3-b703-b22a4490ea7d","ios":"levelo://app?vid=d75aaeda-ece7-43a3-b703-b22a4490ea7d"},"vehicle_type_id":"4","last_reported":1749644519,"current_range_meters":12800,"station_id":"ce4bh4p2rcd13ifvqe1g","pricing_plan_id":"cebpf4jnsgd1na2vs0mg"},{"bike_id":"1acfb620-cad7-48c0-8901-d7a5b74a5b65","system_id":"levelo_inurba_marseille","lat":43.33751,"lon":5.37456,"is_reserved":false,"is_disabled":false,"rental_uris":{"android":"levelo://app?vid=1acfb620-cad7-48c0-8901-d7a5b74a5b65","ios":"levelo://app?vid=1acfb620-cad7-48c0-8901-d7a5b74a5b65"},"vehicle_type_id":"4","last_reported":1749644519,"current_range_meters":12800,"station_id":"","pricing_plan_id":"cebpf4jnsgd1na2vs0mg"},{"bike_id":"9a48d999-4065-4626-b782-346f03ce8e97","system_id":"levelo_inurba_marseille","lat":43.23068,"lon":5.35483,"is_reserved":false,"is_disabled":false,"rental_uris":{"android":"levelo://app?vid=9a48d999-4065-4626-b782-346f03ce8e97","ios":"levelo://app?vid=9a48d999-4065-4626-b782-346f03ce8e97"},"vehicle_type_id":"4","last_reported":1749644519,"current_range_meters":13600,"station_id":"cpo3342slgdg3j2ifvpg","pricing_plan_id":"cebpf4jnsgd1na2vs0mg"},{"bike_id":"e2ab8eba-7083-4745-9245-927a9e9c668c","system_id":"levelo_inurba_marseille","lat":43.28409,"lon":5.34981,"is_reserved":false,"is_disabled":false,"rental_uris":{"android":"levelo://app?vid=e2ab8eba-7083-4745-9245-927a9e9c668c","ios":"levelo://app?vid=e2ab8eba-7083-4745-9245-927a9e9c668c"},"vehicle_type_id":"4","last_reported":1749644519,"current_range_meters":13600,"station_id":"ce4bhbh2rcd13ifvqepg","pricing_plan_id":"cebpf4jnsgd1na2vs0mg"},{"bike_id":"752ebfa1-a8e9-4725-b808-58aa618033e5","system_id":"levelo_inurba_marseille","lat":43.28269,"lon":5.35074,"is_reserved":false,"is_disabled":false,"rental_uris":{"android":"levelo://app?vid=752ebfa1-a8e9-4725-b808-58aa618033e5","ios":"levelo://app?vid=752ebfa1-a8e9-4725-b808-58aa618033e5"},"vehicle_type_id":"4","last_reported":1749644519,"current_range_meters":13600,"station_id":"ce4bhbp2rcd13ifvqerg","pricing_plan_id":"cebpf4jnsgd1na2vs0mg"},{"bike_id":"2c7a13aa-9a16-4880-8e65-7cb3af8d8d1b","system_id":"levelo_inurba_marseille","lat":43.28965,"lon":5.378525,"is_reserved":false,"is_disabled":true,"rental_uris":{"android":"levelo://app?vid=2c7a13aa-9a16-4880-8e65-7cb3af8d8d1b","ios":"levelo://app?vid=2c7a13aa-9a16-4880-8e65-7cb3af8d8d1b"},"vehicle_type_id":"4","last_reported":1749644519,"current_range_meters":13600,"station_id":"ce4bh9p2rcd13ifvqed0","pricing_plan_id":"cebpf4jnsgd1na2vs0mg"},{"bike_id":"1265a00d-7f07-449d-816b-670652ea6cae","system_id":"levelo_inurba_marseille","lat":43.30167,"lon":5.37413,"is_reserved":false,"is_disabled":false,"rental_uris":{"android":"levelo://app?vid=1265a00d-7f07-449d-816b-670652ea6cae","ios":"levelo://app?vid=1265a00d-7f07-449d-816b-670652ea6cae"},"vehicle_type_id":"4","last_reported":1749644519,"current_range_meters":13600,"station_id":"ce4bgs92rcd13ifvqcc0","pricing_plan_id":"cebpf4jnsgd1na2vs0mg"},{"bike_id":"8afb6112-33a3-4866-adc8-e3fe04e3f604","system_id":"levelo_inurba_marseille","lat":43.282677,"lon":5.350621,"is_reserved":false,"is_disabled":false,"rental_uris":{"android":"levelo://app?vid=8afb6112-33a3-4866-adc8-e3fe04e3f604","ios":"levelo://app?vid=8afb6112-33a3-4866-adc8-e3fe04e3f604"},"vehicle_type_id":"4","last_reported":1749644519,"current_range_meters":14000,"station_id":"ce4bhbp2rcd13ifvqerg","pricing_plan_id":"cebpf4jnsgd1na2vs0mg"},{"bike_id":"7a5b82b5-906b-49a8-8b27-ada2f65da58b","system_id":"levelo_inurba_marseille","lat":43.24809,"lon":5.37454,"is_reserved":false,"is_disabled":false,"rental_uris":{"android":"levelo://app?vid=7a5b82b5-906b-49a8-8b27-ada2f65da58b","ios":"levelo://app?vid=7a5b82b5-906b-49a8-8b27-ada2f65da58b"},"vehicle_type_id":"4","last_reported":1749644519,"current_range_meters":14000,"station_id":"ce4bhgh2rcd13ifvqfb0","pricing_plan_id":"cebpf4jnsgd1na2vs0mg"},{"bike_id":"7c13d582-af8b-4f51-9fdb-771eae28b56b","system_id":"levelo_inurba_marseille","lat":43.2842,"lon":5.39183,"is_reserved":false,"is_disabled":false,"rental_uris":{"android":"levelo://app?vid=7c13d582-af8b-4f51-9fdb-771eae28b56b","ios":"levelo://app?vid=7c13d582-af8b-4f51-9fdb-771eae28b56b"},"vehicle_type_id":"4","last_reported":1749644519,"current_range_meters":14000,"station_id":"ce4bhoh2rcd13ifvqh5g","pricing_plan_id":"cebpf4jnsgd1na2vs0mg"},{"bike_id":"4fa86b2f-47a3-4a3d-9997-12a490b16a19","system_id":"levelo_inurba_marseille","lat":43.30889,"lon":5.39635,"is_reserved":false,"is_disabled":false,"rental_uris":{"android":"levelo://app?vid=4fa86b2f-47a3-4a3d-9997-12a490b16a19","ios":"levelo://app?vid=4fa86b2f-47a3-4a3d-9997-12a490b16a19"},"vehicle_type_id":"4","last_reported":1749644519,"current_range_meters":13600,"station_id":"ce4bh012rcd13ifvqcv0","pricing_plan_id":"cebpf4jnsgd1na2vs0mg"},{"bike_id":"b1e72ba7-b4c9-4fe9-80c0-8b85a1ce12cf","system_id":"levelo_inurba_marseille","lat":43.28034,"lon":5.36943,"is_reserved":false,"is_disabled":false,"rental_uris":{"android":"levelo://app?vid=b1e72ba7-b4c9-4fe9-80c0-8b85a1ce12cf","ios":"levelo://app?vid=b1e72ba7-b4c9-4fe9-80c0-8b85a1ce12cf"},"vehicle_type_id":"4","last_reported":1749644519,"current_range_meters":14000,"station_id":"ce4bha12rcd13ifvqef0","pricing_plan_id":"cebpf4jnsgd1na2vs0mg"},{"bike_id":"68c7cd7d-5234-4bd5-a02e-5a89ffc2fdb6","system_id":"levelo_inurba_marseille","lat":43.241808,"lon":5.397209,"is_reserved":false,"is_disabled":false,"rental_uris":{"android":"levelo://app?vid=68c7cd7d-5234-4bd5-a02e-5a89ffc2fdb6","ios":"levelo://app?vid=68c7cd7d-5234-4bd5-a02e-5a89ffc2fdb6"},"vehicle_type_id":"4","last_reported":1749644519,"current_range_meters":14400,"station_id":"ce4bhn12rcd13ifvqgpg","pricing_plan_id":"cebpf4jnsgd1na2vs0mg"},{"bike_id":"d6515318-ac2c-47f0-b0e4-ac5ab2c5d151","system_id":"levelo_inurba_marseille","lat":43.24157,"lon":5.36434,"is_reserved":false,"is_disabled":false,"rental_uris":{"android":"levelo://app?vid=d6515318-ac2c-47f0-b0e4-ac5ab2c5d151","ios":"levelo://app?vid=d6515318-ac2c-47f0-b0e4-ac5ab2c5d151"},"vehicle_type_id":"4","last_reported":1749644519,"current_range_meters":14400,"station_id":"cpo36qri1sfpv3e86is0","pricing_plan_id":"cebpf4jnsgd1na2vs0mg"},{"bike_id":"62c0da7f-aff9-4ffa-86b8-6966d8f0e555","system_id":"levelo_inurba_marseille","lat":43.21182,"lon":5.35096,"is_reserved":false,"is_disabled":false,"rental_uris":{"android":"levelo://app?vid=62c0da7f-aff9-4ffa-86b8-6966d8f0e555","ios":"levelo://app?vid=62c0da7f-aff9-4ffa-86b8-6966d8f0e555"},"vehicle_type_id":"4","last_reported":1749644519,"current_range_meters":14400,"station_id":"st_cvj6sg6p6f1abm77japg","pricing_plan_id":"cebpf4jnsgd1na2vs0mg"},{"bike_id":"1e9fb563-8191-4683-b9bf-36bc1e449b94","system_id":"levelo_inurba_marseille","lat":43.31226,"lon":5.36847,"is_reserved":false,"is_disabled":false,"rental_uris":{"android":"levelo://app?vid=1e9fb563-8191-4683-b9bf-36bc1e449b94","ios":"levelo://app?vid=1e9fb563-8191-4683-b9bf-36bc1e449b94"},"vehicle_type_id":"4","last_reported":1749644519,"current_range_meters":14400,"station_id":"ce4bgl92rcd13ifvqbq0","pricing_plan_id":"cebpf4jnsgd1na2vs0mg"},{"bike_id":"314bac2c-e47f-46cd-afcd-53cd84a7d142","system_id":"levelo_inurba_marseille","lat":43.27617,"lon":5.36095,"is_reserved":false,"is_disabled":true,"rental_uris":{"android":"levelo://app?vid=314bac2c-e47f-46cd-afcd-53cd84a7d142","ios":"levelo://app?vid=314bac2c-e47f-46cd-afcd-53cd84a7d142"},"vehicle_type_id":"4","last_reported":1749644519,"current_range_meters":14400,"station_id":"","pricing_plan_id":"cebpf4jnsgd1na2vs0mg"},{"bike_id":"e37afc60-cfda-408f-bd61-8d196d940176","system_id":"levelo_inurba_marseille","lat":43.30296,"lon":5.39191,"is_reserved":false,"is_disabled":false,"rental_uris":{"android":"levelo://app?vid=e37afc60-cfda-408f-bd61-8d196d940176","ios":"levelo://app?vid=e37afc60-cfda-408f-bd61-8d196d940176"},"vehicle_type_id":"4","last_reported":1749644519,"current_range_meters":14800,"station_id":"ce4bgkh2rcd13ifvqbk0","pricing_plan_id":"cebpf4jnsgd1na2vs0mg"},{"bike_id":"dc6fca2e-5f1c-4ae8-aefe-7f65f0547e41","system_id":"levelo_inurba_marseille","lat":43.33774,"lon":5.3742,"is_reserved":false,"is_disabled":false,"rental_uris":{"android":"levelo://app?vid=dc6fca2e-5f1c-4ae8-aefe-7f65f0547e41","ios":"levelo://app?vid=dc6fca2e-5f1c-4ae8-aefe-7f65f0547e41"},"vehicle_type_id":"4","last_reported":1749644519,"current_range_meters":15200,"station_id":"","pricing_plan_id":"cebpf4jnsgd1na2vs0mg"},{"bike_id":"a2421370-e442-436f-a98a-844d44299694","system_id":"levelo_inurba_marseille","lat":43.32375,"lon":5.36785,"is_reserved":false,"is_disabled":false,"rental_uris":{"android":"levelo://app?vid=a2421370-e442-436f-a98a-844d44299694","ios":"levelo://app?vid=a2421370-e442-436f-a98a-844d44299694"},"vehicle_type_id":"4","last_reported":1749644519,"current_range_meters":16000,"station_id":"ce4bhsh2rcd13ifvqi2g","pricing_plan_id":"cebpf4jnsgd1na2vs0mg"},{"bike_id":"03e99185-e778-4ccf-af48-bb80112546c3","system_id":"levelo_inurba_marseille","lat":43.262207,"lon":5.37446,"is_reserved":false,"is_disabled":false,"rental_uris":{"android":"levelo://app?vid=03e99185-e778-4ccf-af48-bb80112546c3","ios":"levelo://app?vid=03e99185-e778-4ccf-af48-bb80112546c3"},"vehicle_type_id":"4","last_reported":1749644519,"current_range_meters":16000,"station_id":"ce4bhgp2rcd13ifvqfc0","pricing_plan_id":"cebpf4jnsgd1na2vs0mg"},{"bike_id":"5cc15b95-280c-4638-9a42-c6e51798770b","system_id":"levelo_inurba_marseille","lat":43.30283,"lon":5.37709,"is_reserved":false,"is_disabled":false,"rental_uris":{"android":"levelo://app?vid=5cc15b95-280c-4638-9a42-c6e51798770b","ios":"levelo://app?vid=5cc15b95-280c-4638-9a42-c6e51798770b"},"vehicle_type_id":"4","last_reported":1749644519,"current_range_meters":16000,"station_id":"ce4bguh2rcd13ifvqcj0","pricing_plan_id":"cebpf4jnsgd1na2vs0mg"},{"bike_id":"5b1d7eca-3d98-4883-aa58-07d7594cf553","system_id":"levelo_inurba_marseille","lat":43.28418,"lon":5.34989,"is_reserved":false,"is_disabled":false,"rental_uris":{"android":"levelo://app?vid=5b1d7eca-3d98-4883-aa58-07d7594cf553","ios":"levelo://app?vid=5b1d7eca-3d98-4883-aa58-07d7594cf553"},"vehicle_type_id":"4","last_reported":1749644519,"current_range_meters":16000,"station_id":"ce4bhbh2rcd13ifvqepg","pricing_plan_id":"cebpf4jnsgd1na2vs0mg"},{"bike_id":"01b53ea9-5963-4456-ac52-b335e6cee31c","system_id":"levelo_inurba_marseille","lat":43.28414,"lon":5.34983,"is_reserved":false,"is_disabled":false,"rental_uris":{"android":"levelo://app?vid=01b53ea9-5963-4456-ac52-b335e6cee31c","ios":"levelo://app?vid=01b53ea9-5963-4456-ac52-b335e6cee31c"},"vehicle_type_id":"4","last_reported":1749644519,"current_range_meters":16000,"station_id":"ce4bhbh2rcd13ifvqepg","pricing_plan_id":"cebpf4jnsgd1na2vs0mg"},{"bike_id":"f10adc7e-6a3a-4a5d-9515-dc52fefe2058","system_id":"levelo_inurba_marseille","lat":43.32365,"lon":5.36758,"is_reserved":false,"is_disabled":false,"rental_uris":{"android":"levelo://app?vid=f10adc7e-6a3a-4a5d-9515-dc52fefe2058","ios":"levelo://app?vid=f10adc7e-6a3a-4a5d-9515-dc52fefe2058"},"vehicle_type_id":"4","last_reported":1749644519,"current_range_meters":16000,"station_id":"ce4bhsh2rcd13ifvqi2g","pricing_plan_id":"cebpf4jnsgd1na2vs0mg"},{"bike_id":"b1a9a8a4-dbb9-4db2-9f04-3c1f79933aad","system_id":"levelo_inurba_marseille","lat":43.23142,"lon":5.43712,"is_reserved":false,"is_disabled":false,"rental_uris":{"android":"levelo://app?vid=b1a9a8a4-dbb9-4db2-9f04-3c1f79933aad","ios":"levelo://app?vid=b1a9a8a4-dbb9-4db2-9f04-3c1f79933aad"},"vehicle_type_id":"4","last_reported":1749644519,"current_range_meters":16000,"station_id":"ce4bhmp2rcd13ifvqgog","pricing_plan_id":"cebpf4jnsgd1na2vs0mg"},{"bike_id":"8bf89e32-d67b-4cdf-a2d7-68930cc29ea7","system_id":"levelo_inurba_marseille","lat":43.290057,"lon":5.356265,"is_reserved":false,"is_disabled":true,"rental_uris":{"android":"levelo://app?vid=8bf89e32-d67b-4cdf-a2d7-68930cc29ea7","ios":"levelo://app?vid=8bf89e32-d67b-4cdf-a2d7-68930cc29ea7"},"vehicle_type_id":"4","last_reported":1749644519,"current_range_meters":16000,"station_id":"","pricing_plan_id":"cebpf4jnsgd1na2vs0mg"},{"bike_id":"ff6779a1-4f4c-471b-ab85-6c361d5c8c03","system_id":"levelo_inurba_marseille","lat":43.313598,"lon":5.367099,"is_reserved":false,"is_disabled":false,"rental_uris":{"android":"levelo://app?vid=ff6779a1-4f4c-471b-ab85-6c361d5c8c03","ios":"levelo://app?vid=ff6779a1-4f4c-471b-ab85-6c361d5c8c03"},"vehicle_type_id":"4","last_reported":1749644519,"current_range_meters":16000,"station_id":"ce4bgr92rcd13ifvqc6g","pricing_plan_id":"cebpf4jnsgd1na2vs0mg"},{"bike_id":"30363637-f3fc-4f55-a597-39640ddabe7f","system_id":"levelo_inurba_marseille","lat":43.270533,"lon":5.416477,"is_reserved":false,"is_disabled":false,"rental_uris":{"android":"levelo://app?vid=30363637-f3fc-4f55-a597-39640ddabe7f","ios":"levelo://app?vid=30363637-f3fc-4f55-a597-39640ddabe7f"},"vehicle_type_id":"4","last_reported":1749644519,"current_range_meters":16400,"station_id":"ce4bhl12rcd13ifvqgf0","pricing_plan_id":"cebpf4jnsgd1na2vs0mg"},{"bike_id":"54265529-c802-41ea-a434-8efe037aed4d","system_id":"levelo_inurba_marseille","lat":43.28426,"lon":5.35007,"is_reserved":false,"is_disabled":false,"rental_uris":{"android":"levelo://app?vid=54265529-c802-41ea-a434-8efe037aed4d","ios":"levelo://app?vid=54265529-c802-41ea-a434-8efe037aed4d"},"vehicle_type_id":"4","last_reported":1749644519,"current_range_meters":16400,"station_id":"ce4bhbh2rcd13ifvqepg","pricing_plan_id":"cebpf4jnsgd1na2vs0mg"},{"bike_id":"bf7530b3-c6ab-457a-8619-17a30a9f1532","system_id":"levelo_inurba_marseille","lat":43.25942,"lon":5.40903,"is_reserved":false,"is_disabled":false,"rental_uris":{"android":"levelo://app?vid=bf7530b3-c6ab-457a-8619-17a30a9f1532","ios":"levelo://app?vid=bf7530b3-c6ab-457a-8619-17a30a9f1532"},"vehicle_type_id":"4","last_reported":1749644519,"current_range_meters":16400,"station_id":"ce4bhm92rcd13ifvqglg","pricing_plan_id":"cebpf4jnsgd1na2vs0mg"},{"bike_id":"90ec304c-abd0-4c70-ac8e-37cdcb027845","system_id":"levelo_inurba_marseille","lat":43.29323,"lon":5.37202,"is_reserved":false,"is_disabled":false,"rental_uris":{"android":"levelo://app?vid=90ec304c-abd0-4c70-ac8e-37cdcb027845","ios":"levelo://app?vid=90ec304c-abd0-4c70-ac8e-37cdcb027845"},"vehicle_type_id":"4","last_reported":1749644519,"current_range_meters":16400,"station_id":"ce4bgh92rcd13ifvqb40","pricing_plan_id":"cebpf4jnsgd1na2vs0mg"},{"bike_id":"ba74330e-e7e1-47b7-aac8-f61ede63b89c","system_id":"levelo_inurba_marseille","lat":43.28137,"lon":5.42664,"is_reserved":false,"is_disabled":false,"rental_uris":{"android":"levelo://app?vid=ba74330e-e7e1-47b7-aac8-f61ede63b89c","ios":"levelo://app?vid=ba74330e-e7e1-47b7-aac8-f61ede63b89c"},"vehicle_type_id":"4","last_reported":1749644519,"current_range_meters":16400,"station_id":"ce4bhnh2rcd13ifvqgug","pricing_plan_id":"cebpf4jnsgd1na2vs0mg"},{"bike_id":"74edc1dc-7a48-4483-a47b-ca5db14398e1","system_id":"levelo_inurba_marseille","lat":43.29565,"lon":5.42284,"is_reserved":false,"is_disabled":false,"rental_uris":{"android":"levelo://app?vid=74edc1dc-7a48-4483-a47b-ca5db14398e1","ios":"levelo://app?vid=74edc1dc-7a48-4483-a47b-ca5db14398e1"},"vehicle_type_id":"4","last_reported":1749644519,"current_range_meters":16400,"station_id":"ce4bhph2rcd13ifvqhdg","pricing_plan_id":"cebpf4jnsgd1na2vs0mg"},{"bike_id":"c0bd4251-d527-48a7-9378-e4e80c1c274f","system_id":"levelo_inurba_marseille","lat":43.31806,"lon":5.37385,"is_reserved":false,"is_disabled":false,"rental_uris":{"android":"levelo://app?vid=c0bd4251-d527-48a7-9378-e4e80c1c274f","ios":"levelo://app?vid=c0bd4251-d527-48a7-9378-e4e80c1c274f"},"vehicle_type_id":"4","last_reported":1749644519,"current_range_meters":16800,"station_id":"","pricing_plan_id":"cebpf4jnsgd1na2vs0mg"},{"bike_id":"07171c3d-79e4-492e-a699-bd892fcea6c0","system_id":"levelo_inurba_marseille","lat":43.25588,"lon":5.38215,"is_reserved":false,"is_disabled":false,"rental_uris":{"android":"levelo://app?vid=07171c3d-79e4-492e-a699-bd892fcea6c0","ios":"levelo://app?vid=07171c3d-79e4-492e-a699-bd892fcea6c0"},"vehicle_type_id":"4","last_reported":1749644519,"current_range_meters":16400,"station_id":"ce4bhih2rcd13ifvqfs0","pricing_plan_id":"cebpf4jnsgd1na2vs0mg"},{"bike_id":"8a2d97db-031a-48a1-b256-52d007dcb4a5","system_id":"levelo_inurba_marseille","lat":43.31718,"lon":5.40432,"is_reserved":false,"is_disabled":false,"rental_uris":{"android":"levelo://app?vid=8a2d97db-031a-48a1-b256-52d007dcb4a5","ios":"levelo://app?vid=8a2d97db-031a-48a1-b256-52d007dcb4a5"},"vehicle_type_id":"4","last_reported":1749644519,"current_range_meters":16800,"station_id":"","pricing_plan_id":"cebpf4jnsgd1na2vs0mg"},{"bike_id":"67b34b00-ca75-4eb8-9fb2-a6589a616409","system_id":"levelo_inurba_marseille","lat":43.323315,"lon":5.406253,"is_reserved":false,"is_disabled":false,"rental_uris":{"android":"levelo://app?vid=67b34b00-ca75-4eb8-9fb2-a6589a616409","ios":"levelo://app?vid=67b34b00-ca75-4eb8-9fb2-a6589a616409"},"vehicle_type_id":"4","last_reported":1749644519,"current_range_meters":16800,"station_id":"ce4bhq92rcd13ifvqhjg","pricing_plan_id":"cebpf4jnsgd1na2vs0mg"},{"bike_id":"f3bcdf49-fc06-4e7d-8670-e68cd20b2352","system_id":"levelo_inurba_marseille","lat":43.297857,"lon":5.371043,"is_reserved":false,"is_disabled":false,"rental_uris":{"android":"levelo://app?vid=f3bcdf49-fc06-4e7d-8670-e68cd20b2352","ios":"levelo://app?vid=f3bcdf49-fc06-4e7d-8670-e68cd20b2352"},"vehicle_type_id":"4","last_reported":1749644519,"current_range_meters":16800,"station_id":"ce4bgop2rcd13ifvqc1g","pricing_plan_id":"cebpf4jnsgd1na2vs0mg"},{"bike_id":"fb7efc96-eaa8-4557-9112-8ae53649a458","system_id":"levelo_inurba_marseille","lat":43.28638,"lon":5.35098,"is_reserved":false,"is_disabled":false,"rental_uris":{"android":"levelo://app?vid=fb7efc96-eaa8-4557-9112-8ae53649a458","ios":"levelo://app?vid=fb7efc96-eaa8-4557-9112-8ae53649a458"},"vehicle_type_id":"4","last_reported":1749644519,"current_range_meters":16800,"station_id":"ce4bhch2rcd13ifvqeug","pricing_plan_id":"cebpf4jnsgd1na2vs0mg"},{"bike_id":"71d23069-4b53-4c59-89de-c54de3aeb2cf","system_id":"levelo_inurba_marseille","lat":43.24586,"lon":5.41659,"is_reserved":false,"is_disabled":false,"rental_uris":{"android":"levelo://app?vid=71d23069-4b53-4c59-89de-c54de3aeb2cf","ios":"levelo://app?vid=71d23069-4b53-4c59-89de-c54de3aeb2cf"},"vehicle_type_id":"4","last_reported":1749644519,"current_range_meters":16800,"station_id":"","pricing_plan_id":"cebpf4jnsgd1na2vs0mg"},{"bike_id":"d639dd24-31cc-45e5-9f77-c5916b47de07","system_id":"levelo_inurba_marseille","lat":43.29282,"lon":5.40115,"is_reserved":false,"is_disabled":false,"rental_uris":{"android":"levelo://app?vid=d639dd24-31cc-45e5-9f77-c5916b47de07","ios":"levelo://app?vid=d639dd24-31cc-45e5-9f77-c5916b47de07"},"vehicle_type_id":"4","last_reported":1749644519,"current_range_meters":16800,"station_id":"ce4bh312rcd13ifvqdk0","pricing_plan_id":"cebpf4jnsgd1na2vs0mg"},{"bike_id":"a0ba27d9-6955-439b-b334-b6f6fa47bd8e","system_id":"levelo_inurba_marseille","lat":43.261952,"lon":5.374463,"is_reserved":false,"is_disabled":false,"rental_uris":{"android":"levelo://app?vid=a0ba27d9-6955-439b-b334-b6f6fa47bd8e","ios":"levelo://app?vid=a0ba27d9-6955-439b-b334-b6f6fa47bd8e"},"vehicle_type_id":"4","last_reported":1749644519,"current_range_meters":16800,"station_id":"ce4bhgp2rcd13ifvqfc0","pricing_plan_id":"cebpf4jnsgd1na2vs0mg"},{"bike_id":"048f2f2b-8e86-4fe8-80fa-0a30dafb1ed2","system_id":"levelo_inurba_marseille","lat":43.298596,"lon":5.362928,"is_reserved":false,"is_disabled":false,"rental_uris":{"android":"levelo://app?vid=048f2f2b-8e86-4fe8-80fa-0a30dafb1ed2","ios":"levelo://app?vid=048f2f2b-8e86-4fe8-80fa-0a30dafb1ed2"},"vehicle_type_id":"4","last_reported":1749644519,"current_range_meters":17200,"station_id":"","pricing_plan_id":"cebpf4jnsgd1na2vs0mg"},{"bike_id":"638b9117-c70b-47a3-9192-610d8a8acdda","system_id":"levelo_inurba_marseille","lat":43.29904,"lon":5.43625,"is_reserved":false,"is_disabled":false,"rental_uris":{"android":"levelo://app?vid=638b9117-c70b-47a3-9192-610d8a8acdda","ios":"levelo://app?vid=638b9117-c70b-47a3-9192-610d8a8acdda"},"vehicle_type_id":"4","last_reported":1749644519,"current_range_meters":17200,"station_id":"ce4bhpp2rcd13ifvqhfg","pricing_plan_id":"cebpf4jnsgd1na2vs0mg"},{"bike_id":"165ecccf-321b-45ee-abfd-553d9801aac0","system_id":"levelo_inurba_marseille","lat":43.29056,"lon":5.35593,"is_reserved":false,"is_disabled":false,"rental_uris":{"android":"levelo://app?vid=165ecccf-321b-45ee-abfd-553d9801aac0","ios":"levelo://app?vid=165ecccf-321b-45ee-abfd-553d9801aac0"},"vehicle_type_id":"4","last_reported":1749644519,"current_range_meters":17200,"station_id":"","pricing_plan_id":"cebpf4jnsgd1na2vs0mg"},{"bike_id":"707fb64a-4983-4a34-ade7-ee60c8e43453","system_id":"levelo_inurba_marseille","lat":43.231653,"lon":5.436427,"is_reserved":false,"is_disabled":false,"rental_uris":{"android":"levelo://app?vid=707fb64a-4983-4a34-ade7-ee60c8e43453","ios":"levelo://app?vid=707fb64a-4983-4a34-ade7-ee60c8e43453"},"vehicle_type_id":"4","last_reported":1749644519,"current_range_meters":17200,"station_id":"ce4bhmp2rcd13ifvqgog","pricing_plan_id":"cebpf4jnsgd1na2vs0mg"},{"bike_id":"99ccb411-d7f9-4fcb-b612-4d8582e16182","system_id":"levelo_inurba_marseille","lat":43.33745,"lon":5.39186,"is_reserved":false,"is_disabled":false,"rental_uris":{"android":"levelo://app?vid=99ccb411-d7f9-4fcb-b612-4d8582e16182","ios":"levelo://app?vid=99ccb411-d7f9-4fcb-b612-4d8582e16182"},"vehicle_type_id":"4","last_reported":1749644519,"current_range_meters":17200,"station_id":"ce4bhr92rcd13ifvqhsg","pricing_plan_id":"cebpf4jnsgd1na2vs0mg"},{"bike_id":"415d307a-18cd-4efb-a2ea-509f707e5bc8","system_id":"levelo_inurba_marseille","lat":43.309514,"lon":5.39036,"is_reserved":false,"is_disabled":false,"rental_uris":{"android":"levelo://app?vid=415d307a-18cd-4efb-a2ea-509f707e5bc8","ios":"levelo://app?vid=415d307a-18cd-4efb-a2ea-509f707e5bc8"},"vehicle_type_id":"4","last_reported":1749644519,"current_range_meters":17200,"station_id":"ce4bghh2rcd13ifvqb60","pricing_plan_id":"cebpf4jnsgd1na2vs0mg"},{"bike_id":"db9451d9-8bb7-4ff6-a94f-773388bf542c","system_id":"levelo_inurba_marseille","lat":43.2957,"lon":5.3751,"is_reserved":false,"is_disabled":true,"rental_uris":{"android":"levelo://app?vid=db9451d9-8bb7-4ff6-a94f-773388bf542c","ios":"levelo://app?vid=db9451d9-8bb7-4ff6-a94f-773388bf542c"},"vehicle_type_id":"4","last_reported":1749644519,"current_range_meters":17600,"station_id":"","pricing_plan_id":"cebpf4jnsgd1na2vs0mg"},{"bike_id":"743245d4-5457-49b9-9efc-d95c90d69b8e","system_id":"levelo_inurba_marseille","lat":43.314873,"lon":5.373081,"is_reserved":false,"is_disabled":false,"rental_uris":{"android":"levelo://app?vid=743245d4-5457-49b9-9efc-d95c90d69b8e","ios":"levelo://app?vid=743245d4-5457-49b9-9efc-d95c90d69b8e"},"vehicle_type_id":"4","last_reported":1749644519,"current_range_meters":17600,"station_id":"ce4bhip2rcd13ifvqft0","pricing_plan_id":"cebpf4jnsgd1na2vs0mg"},{"bike_id":"136a956b-c67e-4ee7-bafc-f4953a39f893","system_id":"levelo_inurba_marseille","lat":43.25162,"lon":5.39646,"is_reserved":false,"is_disabled":false,"rental_uris":{"android":"levelo://app?vid=136a956b-c67e-4ee7-bafc-f4953a39f893","ios":"levelo://app?vid=136a956b-c67e-4ee7-bafc-f4953a39f893"},"vehicle_type_id":"4","last_reported":1749644519,"current_range_meters":17600,"station_id":"","pricing_plan_id":"cebpf4jnsgd1na2vs0mg"},{"bike_id":"4b6e0747-6e9c-494c-a58b-530dde3b51f8","system_id":"levelo_inurba_marseille","lat":43.29625,"lon":5.37166,"is_reserved":false,"is_disabled":false,"rental_uris":{"android":"levelo://app?vid=4b6e0747-6e9c-494c-a58b-530dde3b51f8","ios":"levelo://app?vid=4b6e0747-6e9c-494c-a58b-530dde3b51f8"},"vehicle_type_id":"4","last_reported":1749644519,"current_range_meters":17600,"station_id":"ce4bgnh2rcd13ifvqc0g","pricing_plan_id":"cebpf4jnsgd1na2vs0mg"},{"bike_id":"d5407527-322a-40f3-804c-170bfaf96801","system_id":"levelo_inurba_marseille","lat":43.2623,"lon":5.40451,"is_reserved":false,"is_disabled":false,"rental_uris":{"android":"levelo://app?vid=d5407527-322a-40f3-804c-170bfaf96801","ios":"levelo://app?vid=d5407527-322a-40f3-804c-170bfaf96801"},"vehicle_type_id":"4","last_reported":1749644519,"current_range_meters":17600,"station_id":"ce4bhmh2rcd13ifvqgmg","pricing_plan_id":"cebpf4jnsgd1na2vs0mg"},{"bike_id":"3c420e9a-eb17-4c36-b131-ac7860a1f0a2","system_id":"levelo_inurba_marseille","lat":43.29865,"lon":5.3633,"is_reserved":false,"is_disabled":false,"rental_uris":{"android":"levelo://app?vid=3c420e9a-eb17-4c36-b131-ac7860a1f0a2","ios":"levelo://app?vid=3c420e9a-eb17-4c36-b131-ac7860a1f0a2"},"vehicle_type_id":"4","last_reported":1749644519,"current_range_meters":17600,"station_id":"ce4bgpp2rcd13ifvqc3g","pricing_plan_id":"cebpf4jnsgd1na2vs0mg"},{"bike_id":"0e50c492-0bff-4807-9c25-3a8a1942f1f5","system_id":"levelo_inurba_marseille","lat":43.29535,"lon":5.37506,"is_reserved":false,"is_disabled":false,"rental_uris":{"android":"levelo://app?vid=0e50c492-0bff-4807-9c25-3a8a1942f1f5","ios":"levelo://app?vid=0e50c492-0bff-4807-9c25-3a8a1942f1f5"},"vehicle_type_id":"4","last_reported":1749644519,"current_range_meters":17600,"station_id":"ce4bgkp2rcd13ifvqbmg","pricing_plan_id":"cebpf4jnsgd1na2vs0mg"},{"bike_id":"e21c586d-f1a0-4539-8eec-cf053fc8e35a","system_id":"levelo_inurba_marseille","lat":43.23185,"lon":5.39979,"is_reserved":false,"is_disabled":false,"rental_uris":{"android":"levelo://app?vid=e21c586d-f1a0-4539-8eec-cf053fc8e35a","ios":"levelo://app?vid=e21c586d-f1a0-4539-8eec-cf053fc8e35a"},"vehicle_type_id":"4","last_reported":1749644519,"current_range_meters":17600,"station_id":"ce4bhn12rcd13ifvqgqg","pricing_plan_id":"cebpf4jnsgd1na2vs0mg"},{"bike_id":"1f271089-59c4-4e31-9b23-4edf1c4a2dd6","system_id":"levelo_inurba_marseille","lat":43.258682,"lon":5.398891,"is_reserved":false,"is_disabled":false,"rental_uris":{"android":"levelo://app?vid=1f271089-59c4-4e31-9b23-4edf1c4a2dd6","ios":"levelo://app?vid=1f271089-59c4-4e31-9b23-4edf1c4a2dd6"},"vehicle_type_id":"4","last_reported":1749644519,"current_range_meters":18000,"station_id":"ce4bhl92rcd13ifvqghg","pricing_plan_id":"cebpf4jnsgd1na2vs0mg"},{"bike_id":"b06553ae-ce3c-41a4-8e30-68e762d4663c","system_id":"levelo_inurba_marseille","lat":43.28422,"lon":5.34976,"is_reserved":false,"is_disabled":false,"rental_uris":{"android":"levelo://app?vid=b06553ae-ce3c-41a4-8e30-68e762d4663c","ios":"levelo://app?vid=b06553ae-ce3c-41a4-8e30-68e762d4663c"},"vehicle_type_id":"4","last_reported":1749644519,"current_range_meters":18000,"station_id":"ce4bhbh2rcd13ifvqepg","pricing_plan_id":"cebpf4jnsgd1na2vs0mg"},{"bike_id":"63c5b9a1-cb7c-4144-8606-f80ef824af4e","system_id":"levelo_inurba_marseille","lat":43.27502,"lon":5.42431,"is_reserved":false,"is_disabled":false,"rental_uris":{"android":"levelo://app?vid=63c5b9a1-cb7c-4144-8606-f80ef824af4e","ios":"levelo://app?vid=63c5b9a1-cb7c-4144-8606-f80ef824af4e"},"vehicle_type_id":"4","last_reported":1749644519,"current_range_meters":18000,"station_id":"ce4bhn92rcd13ifvqgrg","pricing_plan_id":"cebpf4jnsgd1na2vs0mg"},{"bike_id":"8d4182e4-ebdd-4608-9457-fd3a4c2f8581","system_id":"levelo_inurba_marseille","lat":43.24187,"lon":5.39731,"is_reserved":false,"is_disabled":false,"rental_uris":{"android":"levelo://app?vid=8d4182e4-ebdd-4608-9457-fd3a4c2f8581","ios":"levelo://app?vid=8d4182e4-ebdd-4608-9457-fd3a4c2f8581"},"vehicle_type_id":"4","last_reported":1749644519,"current_range_meters":18000,"station_id":"ce4bhn12rcd13ifvqgpg","pricing_plan_id":"cebpf4jnsgd1na2vs0mg"},{"bike_id":"27c3ce4c-2f83-41ff-abde-3fb4e2e068fb","system_id":"levelo_inurba_marseille","lat":43.30983,"lon":5.37463,"is_reserved":false,"is_disabled":false,"rental_uris":{"android":"levelo://app?vid=27c3ce4c-2f83-41ff-abde-3fb4e2e068fb","ios":"levelo://app?vid=27c3ce4c-2f83-41ff-abde-3fb4e2e068fb"},"vehicle_type_id":"4","last_reported":1749644519,"current_range_meters":18000,"station_id":"","pricing_plan_id":"cebpf4jnsgd1na2vs0mg"},{"bike_id":"1a3b0ef4-fd99-41cb-bbbe-2863e96b819d","system_id":"levelo_inurba_marseille","lat":43.31339,"lon":5.36735,"is_reserved":false,"is_disabled":false,"rental_uris":{"android":"levelo://app?vid=1a3b0ef4-fd99-41cb-bbbe-2863e96b819d","ios":"levelo://app?vid=1a3b0ef4-fd99-41cb-bbbe-2863e96b819d"},"vehicle_type_id":"4","last_reported":1749644519,"current_range_meters":18000,"station_id":"ce4bgr92rcd13ifvqc6g","pricing_plan_id":"cebpf4jnsgd1na2vs0mg"},{"bike_id":"d0f5fd5e-82d0-4068-b904-613e884eaef5","system_id":"levelo_inurba_marseille","lat":43.28282,"lon":5.35075,"is_reserved":false,"is_disabled":false,"rental_uris":{"android":"levelo://app?vid=d0f5fd5e-82d0-4068-b904-613e884eaef5","ios":"levelo://app?vid=d0f5fd5e-82d0-4068-b904-613e884eaef5"},"vehicle_type_id":"4","last_reported":1749644519,"current_range_meters":18800,"station_id":"ce4bhbp2rcd13ifvqerg","pricing_plan_id":"cebpf4jnsgd1na2vs0mg"},{"bike_id":"1b986ab5-899b-45c0-ae8f-5234203e90af","system_id":"levelo_inurba_marseille","lat":43.321066,"lon":5.367684,"is_reserved":false,"is_disabled":false,"rental_uris":{"android":"levelo://app?vid=1b986ab5-899b-45c0-ae8f-5234203e90af","ios":"levelo://app?vid=1b986ab5-899b-45c0-ae8f-5234203e90af"},"vehicle_type_id":"4","last_reported":1749644519,"current_range_meters":18800,"station_id":"ce4bhrh2rcd13ifvqhug","pricing_plan_id":"cebpf4jnsgd1na2vs0mg"},{"bike_id":"35ec1437-0e0d-46cb-8a2a-0646d871a5c1","system_id":"levelo_inurba_marseille","lat":43.2407,"lon":5.37752,"is_reserved":false,"is_disabled":false,"rental_uris":{"android":"levelo://app?vid=35ec1437-0e0d-46cb-8a2a-0646d871a5c1","ios":"levelo://app?vid=35ec1437-0e0d-46cb-8a2a-0646d871a5c1"},"vehicle_type_id":"4","last_reported":1749644519,"current_range_meters":18800,"station_id":"ce4bhnp2rcd13ifvqgvg","pricing_plan_id":"cebpf4jnsgd1na2vs0mg"},{"bike_id":"b21450a4-463f-4eb5-a5b1-a818c0abb90a","system_id":"levelo_inurba_marseille","lat":43.29884,"lon":5.43667,"is_reserved":false,"is_disabled":false,"rental_uris":{"android":"levelo://app?vid=b21450a4-463f-4eb5-a5b1-a818c0abb90a","ios":"levelo://app?vid=b21450a4-463f-4eb5-a5b1-a818c0abb90a"},"vehicle_type_id":"4","last_reported":1749644519,"current_range_meters":18800,"station_id":"ce4bhpp2rcd13ifvqhfg","pricing_plan_id":"cebpf4jnsgd1na2vs0mg"},{"bike_id":"169e8a23-0c77-4d36-9894-bd79cf0cb36b","system_id":"levelo_inurba_marseille","lat":43.28619,"lon":5.35102,"is_reserved":false,"is_disabled":false,"rental_uris":{"android":"levelo://app?vid=169e8a23-0c77-4d36-9894-bd79cf0cb36b","ios":"levelo://app?vid=169e8a23-0c77-4d36-9894-bd79cf0cb36b"},"vehicle_type_id":"4","last_reported":1749644519,"current_range_meters":18800,"station_id":"","pricing_plan_id":"cebpf4jnsgd1na2vs0mg"},{"bike_id":"aa7b5f10-b17c-416c-b21b-c84ea1213b8c","system_id":"levelo_inurba_marseille","lat":43.22503,"lon":5.3479,"is_reserved":false,"is_disabled":false,"rental_uris":{"android":"levelo://app?vid=aa7b5f10-b17c-416c-b21b-c84ea1213b8c","ios":"levelo://app?vid=aa7b5f10-b17c-416c-b21b-c84ea1213b8c"},"vehicle_type_id":"4","last_reported":1749644519,"current_range_meters":18800,"station_id":"","pricing_plan_id":"cebpf4jnsgd1na2vs0mg"},{"bike_id":"44ebdb0e-21ec-49f2-8f50-c43388514a24","system_id":"levelo_inurba_marseille","lat":43.26581,"lon":5.37278,"is_reserved":false,"is_disabled":false,"rental_uris":{"android":"levelo://app?vid=44ebdb0e-21ec-49f2-8f50-c43388514a24","ios":"levelo://app?vid=44ebdb0e-21ec-49f2-8f50-c43388514a24"},"vehicle_type_id":"4","last_reported":1749644519,"current_range_meters":18800,"station_id":"","pricing_plan_id":"cebpf4jnsgd1na2vs0mg"},{"bike_id":"2675bc16-550d-4cc5-b8b7-bdad088155a2","system_id":"levelo_inurba_marseille","lat":43.29787,"lon":5.3933,"is_reserved":false,"is_disabled":false,"rental_uris":{"android":"levelo://app?vid=2675bc16-550d-4cc5-b8b7-bdad088155a2","ios":"levelo://app?vid=2675bc16-550d-4cc5-b8b7-bdad088155a2"},"vehicle_type_id":"4","last_reported":1749644519,"current_range_meters":18800,"station_id":"chh1huq6cuj3fo74tm60","pricing_plan_id":"cebpf4jnsgd1na2vs0mg"},{"bike_id":"61c65c12-2f66-41c4-bb38-dbd56f58e8e9","system_id":"levelo_inurba_marseille","lat":43.28614,"lon":5.35099,"is_reserved":false,"is_disabled":false,"rental_uris":{"android":"levelo://app?vid=61c65c12-2f66-41c4-bb38-dbd56f58e8e9","ios":"levelo://app?vid=61c65c12-2f66-41c4-bb38-dbd56f58e8e9"},"vehicle_type_id":"4","last_reported":1749644519,"current_range_meters":19200,"station_id":"ce4bhch2rcd13ifvqeug","pricing_plan_id":"cebpf4jnsgd1na2vs0mg"},{"bike_id":"0db40102-158a-42a7-9960-74ab1bdde2a2","system_id":"levelo_inurba_marseille","lat":43.30747,"lon":5.37278,"is_reserved":false,"is_disabled":false,"rental_uris":{"android":"levelo://app?vid=0db40102-158a-42a7-9960-74ab1bdde2a2","ios":"levelo://app?vid=0db40102-158a-42a7-9960-74ab1bdde2a2"},"vehicle_type_id":"4","last_reported":1749644519,"current_range_meters":19200,"station_id":"","pricing_plan_id":"cebpf4jnsgd1na2vs0mg"},{"bike_id":"cfbd8a25-6b08-4933-860d-36fe8a73be5a","system_id":"levelo_inurba_marseille","lat":43.24169,"lon":5.36387,"is_reserved":false,"is_disabled":false,"rental_uris":{"android":"levelo://app?vid=cfbd8a25-6b08-4933-860d-36fe8a73be5a","ios":"levelo://app?vid=cfbd8a25-6b08-4933-860d-36fe8a73be5a"},"vehicle_type_id":"4","last_reported":1749644519,"current_range_meters":19200,"station_id":"cpo36qri1sfpv3e86is0","pricing_plan_id":"cebpf4jnsgd1na2vs0mg"},{"bike_id":"3f091ab2-d036-4a00-b99c-c40a7c14c235","system_id":"levelo_inurba_marseille","lat":43.32414,"lon":5.36541,"is_reserved":false,"is_disabled":false,"rental_uris":{"android":"levelo://app?vid=3f091ab2-d036-4a00-b99c-c40a7c14c235","ios":"levelo://app?vid=3f091ab2-d036-4a00-b99c-c40a7c14c235"},"vehicle_type_id":"4","last_reported":1749644519,"current_range_meters":19200,"station_id":"","pricing_plan_id":"cebpf4jnsgd1na2vs0mg"},{"bike_id":"39784479-c11a-4043-b0bc-9e2d6a3d23ac","system_id":"levelo_inurba_marseille","lat":43.31248,"lon":5.36872,"is_reserved":false,"is_disabled":false,"rental_uris":{"android":"levelo://app?vid=39784479-c11a-4043-b0bc-9e2d6a3d23ac","ios":"levelo://app?vid=39784479-c11a-4043-b0bc-9e2d6a3d23ac"},"vehicle_type_id":"4","last_reported":1749644519,"current_range_meters":19200,"station_id":"ce4bgl92rcd13ifvqbq0","pricing_plan_id":"cebpf4jnsgd1na2vs0mg"},{"bike_id":"5716c0ea-e662-4b11-8c02-10165dc0e18c","system_id":"levelo_inurba_marseille","lat":43.24157,"lon":5.39697,"is_reserved":false,"is_disabled":false,"rental_uris":{"android":"levelo://app?vid=5716c0ea-e662-4b11-8c02-10165dc0e18c","ios":"levelo://app?vid=5716c0ea-e662-4b11-8c02-10165dc0e18c"},"vehicle_type_id":"4","last_reported":1749644519,"current_range_meters":19200,"station_id":"ce4bhn12rcd13ifvqgpg","pricing_plan_id":"cebpf4jnsgd1na2vs0mg"},{"bike_id":"f9ba2e76-62e9-4c4d-8d9c-0342e60cf9b9","system_id":"levelo_inurba_marseille","lat":43.27366,"lon":5.36258,"is_reserved":false,"is_disabled":false,"rental_uris":{"android":"levelo://app?vid=f9ba2e76-62e9-4c4d-8d9c-0342e60cf9b9","ios":"levelo://app?vid=f9ba2e76-62e9-4c4d-8d9c-0342e60cf9b9"},"vehicle_type_id":"4","last_reported":1749644519,"current_range_meters":19600,"station_id":"ce4bhbh2rcd13ifvqeo0","pricing_plan_id":"cebpf4jnsgd1na2vs0mg"},{"bike_id":"3db8fde5-dc25-47f9-adb5-1429f5338e31","system_id":"levelo_inurba_marseille","lat":43.31777,"lon":5.38479,"is_reserved":false,"is_disabled":false,"rental_uris":{"android":"levelo://app?vid=3db8fde5-dc25-47f9-adb5-1429f5338e31","ios":"levelo://app?vid=3db8fde5-dc25-47f9-adb5-1429f5338e31"},"vehicle_type_id":"4","last_reported":1749644519,"current_range_meters":19200,"station_id":"","pricing_plan_id":"cebpf4jnsgd1na2vs0mg"},{"bike_id":"f319422b-488b-4bf8-a427-7a62ec4e697b","system_id":"levelo_inurba_marseille","lat":43.30895,"lon":5.37182,"is_reserved":false,"is_disabled":false,"rental_uris":{"android":"levelo://app?vid=f319422b-488b-4bf8-a427-7a62ec4e697b","ios":"levelo://app?vid=f319422b-488b-4bf8-a427-7a62ec4e697b"},"vehicle_type_id":"4","last_reported":1749644519,"current_range_meters":19200,"station_id":"ce4bguh2rcd13ifvqckg","pricing_plan_id":"cebpf4jnsgd1na2vs0mg"},{"bike_id":"e4a29949-7ce7-4b50-9b4d-e30a4d75957f","system_id":"levelo_inurba_marseille","lat":43.29268,"lon":5.38436,"is_reserved":false,"is_disabled":false,"rental_uris":{"android":"levelo://app?vid=e4a29949-7ce7-4b50-9b4d-e30a4d75957f","ios":"levelo://app?vid=e4a29949-7ce7-4b50-9b4d-e30a4d75957f"},"vehicle_type_id":"4","last_reported":1749644519,"current_range_meters":19600,"station_id":"ce4bh692rcd13ifvqea0","pricing_plan_id":"cebpf4jnsgd1na2vs0mg"},{"bike_id":"d09dc515-277a-4646-8816-f10cec5d4457","system_id":"levelo_inurba_marseille","lat":43.30929,"lon":5.40138,"is_reserved":false,"is_disabled":true,"rental_uris":{"android":"levelo://app?vid=d09dc515-277a-4646-8816-f10cec5d4457","ios":"levelo://app?vid=d09dc515-277a-4646-8816-f10cec5d4457"},"vehicle_type_id":"4","last_reported":1749644519,"current_range_meters":19600,"station_id":"ce4bgvp2rcd13ifvqct0","pricing_plan_id":"cebpf4jnsgd1na2vs0mg"},{"bike_id":"5052172b-50e7-43e9-ab91-ceffc936f635","system_id":"levelo_inurba_marseille","lat":43.2669,"lon":5.38284,"is_reserved":false,"is_disabled":true,"rental_uris":{"android":"levelo://app?vid=5052172b-50e7-43e9-ab91-ceffc936f635","ios":"levelo://app?vid=5052172b-50e7-43e9-ab91-ceffc936f635"},"vehicle_type_id":"4","last_reported":1749644519,"current_range_meters":19600,"station_id":"ce4bhg92rcd13ifvqf90","pricing_plan_id":"cebpf4jnsgd1na2vs0mg"},{"bike_id":"c42872a2-f7c3-452a-9de5-a894293a01f1","system_id":"levelo_inurba_marseille","lat":43.31327,"lon":5.3968,"is_reserved":false,"is_disabled":false,"rental_uris":{"android":"levelo://app?vid=c42872a2-f7c3-452a-9de5-a894293a01f1","ios":"levelo://app?vid=c42872a2-f7c3-452a-9de5-a894293a01f1"},"vehicle_type_id":"4","last_reported":1749644519,"current_range_meters":19600,"station_id":"ce4bgvp2rcd13ifvqcu0","pricing_plan_id":"cebpf4jnsgd1na2vs0mg"},{"bike_id":"7003b93c-725d-412e-9127-fbade718cbc3","system_id":"levelo_inurba_marseille","lat":43.21235,"lon":5.35072,"is_reserved":false,"is_disabled":false,"rental_uris":{"android":"levelo://app?vid=7003b93c-725d-412e-9127-fbade718cbc3","ios":"levelo://app?vid=7003b93c-725d-412e-9127-fbade718cbc3"},"vehicle_type_id":"4","last_reported":1749644519,"current_range_meters":19600,"station_id":"","pricing_plan_id":"cebpf4jnsgd1na2vs0mg"},{"bike_id":"e0249f4b-8d8b-4dc7-a224-9ea697947c37","system_id":"levelo_inurba_marseille","lat":43.31717,"lon":5.42391,"is_reserved":false,"is_disabled":false,"rental_uris":{"android":"levelo://app?vid=e0249f4b-8d8b-4dc7-a224-9ea697947c37","ios":"levelo://app?vid=e0249f4b-8d8b-4dc7-a224-9ea697947c37"},"vehicle_type_id":"4","last_reported":1749644519,"current_range_meters":19600,"station_id":"ce4bhp92rcd13ifvqhbg","pricing_plan_id":"cebpf4jnsgd1na2vs0mg"},{"bike_id":"2a7344b5-7126-4cc1-bbd1-a9bb0e44b7bd","system_id":"levelo_inurba_marseille","lat":43.2306,"lon":5.35505,"is_reserved":false,"is_disabled":false,"rental_uris":{"android":"levelo://app?vid=2a7344b5-7126-4cc1-bbd1-a9bb0e44b7bd","ios":"levelo://app?vid=2a7344b5-7126-4cc1-bbd1-a9bb0e44b7bd"},"vehicle_type_id":"4","last_reported":1749644519,"current_range_meters":19600,"station_id":"cpo3342slgdg3j2ifvpg","pricing_plan_id":"cebpf4jnsgd1na2vs0mg"},{"bike_id":"2e3edd60-38a1-4002-9fe3-08c6fa39ab93","system_id":"levelo_inurba_marseille","lat":43.23067,"lon":5.35488,"is_reserved":false,"is_disabled":false,"rental_uris":{"android":"levelo://app?vid=2e3edd60-38a1-4002-9fe3-08c6fa39ab93","ios":"levelo://app?vid=2e3edd60-38a1-4002-9fe3-08c6fa39ab93"},"vehicle_type_id":"4","last_reported":1749644519,"current_range_meters":19600,"station_id":"cpo3342slgdg3j2ifvpg","pricing_plan_id":"cebpf4jnsgd1na2vs0mg"},{"bike_id":"11926c67-c581-4a5d-8203-15313e951bcf","system_id":"levelo_inurba_marseille","lat":43.21779,"lon":5.34602,"is_reserved":false,"is_disabled":false,"rental_uris":{"android":"levelo://app?vid=11926c67-c581-4a5d-8203-15313e951bcf","ios":"levelo://app?vid=11926c67-c581-4a5d-8203-15313e951bcf"},"vehicle_type_id":"4","last_reported":1749644519,"current_range_meters":19600,"station_id":"","pricing_plan_id":"cebpf4jnsgd1na2vs0mg"},{"bike_id":"b6ce207a-a086-401f-8787-a41d23ca6f32","system_id":"levelo_inurba_marseille","lat":43.23206,"lon":5.40008,"is_reserved":false,"is_disabled":false,"rental_uris":{"android":"levelo://app?vid=b6ce207a-a086-401f-8787-a41d23ca6f32","ios":"levelo://app?vid=b6ce207a-a086-401f-8787-a41d23ca6f32"},"vehicle_type_id":"4","last_reported":1749644519,"current_range_meters":19600,"station_id":"ce4bhn12rcd13ifvqgqg","pricing_plan_id":"cebpf4jnsgd1na2vs0mg"},{"bike_id":"75cef64b-7777-41f8-a6d6-e6930a93725a","system_id":"levelo_inurba_marseille","lat":43.28,"lon":5.39999,"is_reserved":false,"is_disabled":false,"rental_uris":{"android":"levelo://app?vid=75cef64b-7777-41f8-a6d6-e6930a93725a","ios":"levelo://app?vid=75cef64b-7777-41f8-a6d6-e6930a93725a"},"vehicle_type_id":"4","last_reported":1749644519,"current_range_meters":19600,"station_id":"ce4bho92rcd13ifvqh4g","pricing_plan_id":"cebpf4jnsgd1na2vs0mg"},{"bike_id":"f43eb0a5-fda7-45fd-bab3-055c9ae198a8","system_id":"levelo_inurba_marseille","lat":43.29094,"lon":5.38133,"is_reserved":false,"is_disabled":false,"rental_uris":{"android":"levelo://app?vid=f43eb0a5-fda7-45fd-bab3-055c9ae198a8","ios":"levelo://app?vid=f43eb0a5-fda7-45fd-bab3-055c9ae198a8"},"vehicle_type_id":"4","last_reported":1749644519,"current_range_meters":20000,"station_id":"ce4bh512rcd13ifvqe2g","pricing_plan_id":"cebpf4jnsgd1na2vs0mg"},{"bike_id":"80c4481f-3a94-40c5-bcb5-c1363c06279d","system_id":"levelo_inurba_marseille","lat":43.2592,"lon":5.40896,"is_reserved":false,"is_disabled":true,"rental_uris":{"android":"levelo://app?vid=80c4481f-3a94-40c5-bcb5-c1363c06279d","ios":"levelo://app?vid=80c4481f-3a94-40c5-bcb5-c1363c06279d"},"vehicle_type_id":"4","last_reported":1749644519,"current_range_meters":20000,"station_id":"ce4bhm92rcd13ifvqglg","pricing_plan_id":"cebpf4jnsgd1na2vs0mg"},{"bike_id":"98855dfb-7f1a-4ad2-b5c8-6854d863a5f3","system_id":"levelo_inurba_marseille","lat":43.28171,"lon":5.42646,"is_reserved":false,"is_disabled":false,"rental_uris":{"android":"levelo://app?vid=98855dfb-7f1a-4ad2-b5c8-6854d863a5f3","ios":"levelo://app?vid=98855dfb-7f1a-4ad2-b5c8-6854d863a5f3"},"vehicle_type_id":"4","last_reported":1749644519,"current_range_meters":20000,"station_id":"ce4bhnh2rcd13ifvqgug","pricing_plan_id":"cebpf4jnsgd1na2vs0mg"},{"bike_id":"6704b62e-3335-4396-9bc6-066acbdd99dd","system_id":"levelo_inurba_marseille","lat":43.29716,"lon":5.37696,"is_reserved":false,"is_disabled":false,"rental_uris":{"android":"levelo://app?vid=6704b62e-3335-4396-9bc6-066acbdd99dd","ios":"levelo://app?vid=6704b62e-3335-4396-9bc6-066acbdd99dd"},"vehicle_type_id":"4","last_reported":1749644519,"current_range_meters":20000,"station_id":"ce4bgkh2rcd13ifvqbl0","pricing_plan_id":"cebpf4jnsgd1na2vs0mg"},{"bike_id":"88113087-f0bb-4133-ab2a-bbfce1f3d99a","system_id":"levelo_inurba_marseille","lat":43.31712,"lon":5.404779,"is_reserved":false,"is_disabled":false,"rental_uris":{"android":"levelo://app?vid=88113087-f0bb-4133-ab2a-bbfce1f3d99a","ios":"levelo://app?vid=88113087-f0bb-4133-ab2a-bbfce1f3d99a"},"vehicle_type_id":"4","last_reported":1749644519,"current_range_meters":20000,"station_id":"ce4bh012rcd13ifvqd00","pricing_plan_id":"cebpf4jnsgd1na2vs0mg"},{"bike_id":"8e97af57-47d5-4f74-ba56-3a87157a2093","system_id":"levelo_inurba_marseille","lat":43.27613,"lon":5.36124,"is_reserved":false,"is_disabled":false,"rental_uris":{"android":"levelo://app?vid=8e97af57-47d5-4f74-ba56-3a87157a2093","ios":"levelo://app?vid=8e97af57-47d5-4f74-ba56-3a87157a2093"},"vehicle_type_id":"4","last_reported":1749644519,"current_range_meters":20000,"station_id":"ce4bgj92rcd13ifvqbe0","pricing_plan_id":"cebpf4jnsgd1na2vs0mg"},{"bike_id":"5214abb4-43a3-4808-8c1b-9449e29e1592","system_id":"levelo_inurba_marseille","lat":43.27811,"lon":5.40707,"is_reserved":false,"is_disabled":false,"rental_uris":{"android":"levelo://app?vid=5214abb4-43a3-4808-8c1b-9449e29e1592","ios":"levelo://app?vid=5214abb4-43a3-4808-8c1b-9449e29e1592"},"vehicle_type_id":"4","last_reported":1749644519,"current_range_meters":20000,"station_id":"ce4bhnh2rcd13ifvqgtg","pricing_plan_id":"cebpf4jnsgd1na2vs0mg"},{"bike_id":"a0c161ec-ecc7-427d-bcbd-46fce734f7ec","system_id":"levelo_inurba_marseille","lat":43.26195,"lon":5.37443,"is_reserved":false,"is_disabled":false,"rental_uris":{"android":"levelo://app?vid=a0c161ec-ecc7-427d-bcbd-46fce734f7ec","ios":"levelo://app?vid=a0c161ec-ecc7-427d-bcbd-46fce734f7ec"},"vehicle_type_id":"4","last_reported":1749644519,"current_range_meters":20000,"station_id":"ce4bhgp2rcd13ifvqfc0","pricing_plan_id":"cebpf4jnsgd1na2vs0mg"},{"bike_id":"3d70035e-5d76-4ab3-84c4-35b4b96948ef","system_id":"levelo_inurba_marseille","lat":43.29756,"lon":5.37674,"is_reserved":false,"is_disabled":false,"rental_uris":{"android":"levelo://app?vid=3d70035e-5d76-4ab3-84c4-35b4b96948ef","ios":"levelo://app?vid=3d70035e-5d76-4ab3-84c4-35b4b96948ef"},"vehicle_type_id":"4","last_reported":1749644519,"current_range_meters":20000,"station_id":"","pricing_plan_id":"cebpf4jnsgd1na2vs0mg"},{"bike_id":"6e464720-93b0-4699-80fe-881649eb71cd","system_id":"levelo_inurba_marseille","lat":43.23262,"lon":5.3558,"is_reserved":false,"is_disabled":false,"rental_uris":{"android":"levelo://app?vid=6e464720-93b0-4699-80fe-881649eb71cd","ios":"levelo://app?vid=6e464720-93b0-4699-80fe-881649eb71cd"},"vehicle_type_id":"4","last_reported":1749644519,"current_range_meters":20000,"station_id":"","pricing_plan_id":"cebpf4jnsgd1na2vs0mg"},{"bike_id":"86144891-9d96-4a94-beba-3cfd832e1df5","system_id":"levelo_inurba_marseille","lat":43.29044,"lon":5.35908,"is_reserved":false,"is_disabled":false,"rental_uris":{"android":"levelo://app?vid=86144891-9d96-4a94-beba-3cfd832e1df5","ios":"levelo://app?vid=86144891-9d96-4a94-beba-3cfd832e1df5"},"vehicle_type_id":"4","last_reported":1749644519,"current_range_meters":20000,"station_id":"ce4bha92rcd13ifvqeg0","pricing_plan_id":"cebpf4jnsgd1na2vs0mg"},{"bike_id":"7a8cf039-2ebf-4ec0-9e98-353910c2b4d2","system_id":"levelo_inurba_marseille","lat":43.28269,"lon":5.35058,"is_reserved":false,"is_disabled":false,"rental_uris":{"android":"levelo://app?vid=7a8cf039-2ebf-4ec0-9e98-353910c2b4d2","ios":"levelo://app?vid=7a8cf039-2ebf-4ec0-9e98-353910c2b4d2"},"vehicle_type_id":"4","last_reported":1749644519,"current_range_meters":20400,"station_id":"ce4bhbp2rcd13ifvqerg","pricing_plan_id":"cebpf4jnsgd1na2vs0mg"},{"bike_id":"c7389bf2-5646-4f1a-a468-3b6bb8d9ff00","system_id":"levelo_inurba_marseille","lat":43.3248,"lon":5.36561,"is_reserved":false,"is_disabled":false,"rental_uris":{"android":"levelo://app?vid=c7389bf2-5646-4f1a-a468-3b6bb8d9ff00","ios":"levelo://app?vid=c7389bf2-5646-4f1a-a468-3b6bb8d9ff00"},"vehicle_type_id":"4","last_reported":1749644519,"current_range_meters":20400,"station_id":"ce4bhs12rcd13ifvqhvg","pricing_plan_id":"cebpf4jnsgd1na2vs0mg"},{"bike_id":"5240f6fd-7c4d-480e-89e7-ad5430e3da82","system_id":"levelo_inurba_marseille","lat":43.28413,"lon":5.35003,"is_reserved":false,"is_disabled":false,"rental_uris":{"android":"levelo://app?vid=5240f6fd-7c4d-480e-89e7-ad5430e3da82","ios":"levelo://app?vid=5240f6fd-7c4d-480e-89e7-ad5430e3da82"},"vehicle_type_id":"4","last_reported":1749644519,"current_range_meters":20400,"station_id":"ce4bhbh2rcd13ifvqepg","pricing_plan_id":"cebpf4jnsgd1na2vs0mg"},{"bike_id":"a70cb2df-ed6f-4bfa-bdb7-bb113d68a5f8","system_id":"levelo_inurba_marseille","lat":43.29628,"lon":5.37731,"is_reserved":false,"is_disabled":false,"rental_uris":{"android":"levelo://app?vid=a70cb2df-ed6f-4bfa-bdb7-bb113d68a5f8","ios":"levelo://app?vid=a70cb2df-ed6f-4bfa-bdb7-bb113d68a5f8"},"vehicle_type_id":"4","last_reported":1749644519,"current_range_meters":20400,"station_id":"ce4bgi92rcd13ifvqb90","pricing_plan_id":"cebpf4jnsgd1na2vs0mg"},{"bike_id":"3cb0af7c-994a-4b71-98dc-211ebea626ad","system_id":"levelo_inurba_marseille","lat":43.32331,"lon":5.36587,"is_reserved":false,"is_disabled":false,"rental_uris":{"android":"levelo://app?vid=3cb0af7c-994a-4b71-98dc-211ebea626ad","ios":"levelo://app?vid=3cb0af7c-994a-4b71-98dc-211ebea626ad"},"vehicle_type_id":"4","last_reported":1749644519,"current_range_meters":20400,"station_id":"ce4bhsh2rcd13ifvqi2g","pricing_plan_id":"cebpf4jnsgd1na2vs0mg"},{"bike_id":"a5780e05-0cb9-498f-833b-d09a36dfc72e","system_id":"levelo_inurba_marseille","lat":43.2826,"lon":5.35065,"is_reserved":false,"is_disabled":false,"rental_uris":{"android":"levelo://app?vid=a5780e05-0cb9-498f-833b-d09a36dfc72e","ios":"levelo://app?vid=a5780e05-0cb9-498f-833b-d09a36dfc72e"},"vehicle_type_id":"4","last_reported":1749644519,"current_range_meters":20400,"station_id":"ce4bhbp2rcd13ifvqerg","pricing_plan_id":"cebpf4jnsgd1na2vs0mg"},{"bike_id":"2276c90b-1abb-4801-97fa-4b4a67305a9b","system_id":"levelo_inurba_marseille","lat":43.28301,"lon":5.35094,"is_reserved":false,"is_disabled":false,"rental_uris":{"android":"levelo://app?vid=2276c90b-1abb-4801-97fa-4b4a67305a9b","ios":"levelo://app?vid=2276c90b-1abb-4801-97fa-4b4a67305a9b"},"vehicle_type_id":"4","last_reported":1749644519,"current_range_meters":20400,"station_id":"ce4bhbp2rcd13ifvqerg","pricing_plan_id":"cebpf4jnsgd1na2vs0mg"},{"bike_id":"9498b4fc-a3ac-4aa5-91ff-16c83c473e19","system_id":"levelo_inurba_marseille","lat":43.25493,"lon":5.3767,"is_reserved":false,"is_disabled":false,"rental_uris":{"android":"levelo://app?vid=9498b4fc-a3ac-4aa5-91ff-16c83c473e19","ios":"levelo://app?vid=9498b4fc-a3ac-4aa5-91ff-16c83c473e19"},"vehicle_type_id":"4","last_reported":1749644519,"current_range_meters":20400,"station_id":"ce4bhh12rcd13ifvqff0","pricing_plan_id":"cebpf4jnsgd1na2vs0mg"},{"bike_id":"c277aa87-c097-449b-921d-d4bd9473d32f","system_id":"levelo_inurba_marseille","lat":43.30589,"lon":5.3936,"is_reserved":false,"is_disabled":false,"rental_uris":{"android":"levelo://app?vid=c277aa87-c097-449b-921d-d4bd9473d32f","ios":"levelo://app?vid=c277aa87-c097-449b-921d-d4bd9473d32f"},"vehicle_type_id":"4","last_reported":1749644519,"current_range_meters":20800,"station_id":"ce4bh0p2rcd13ifvqd80","pricing_plan_id":"cebpf4jnsgd1na2vs0mg"},{"bike_id":"d1684cb9-47dd-43c3-9e23-61f69d989e14","system_id":"levelo_inurba_marseille","lat":43.28492,"lon":5.38548,"is_reserved":false,"is_disabled":true,"rental_uris":{"android":"levelo://app?vid=d1684cb9-47dd-43c3-9e23-61f69d989e14","ios":"levelo://app?vid=d1684cb9-47dd-43c3-9e23-61f69d989e14"},"vehicle_type_id":"4","last_reported":1749644519,"current_range_meters":20800,"station_id":"","pricing_plan_id":"cebpf4jnsgd1na2vs0mg"},{"bike_id":"346f3f80-6b15-4406-b905-bb78596f5bac","system_id":"levelo_inurba_marseille","lat":43.32355,"lon":5.36721,"is_reserved":false,"is_disabled":false,"rental_uris":{"android":"levelo://app?vid=346f3f80-6b15-4406-b905-bb78596f5bac","ios":"levelo://app?vid=346f3f80-6b15-4406-b905-bb78596f5bac"},"vehicle_type_id":"4","last_reported":1749644519,"current_range_meters":20800,"station_id":"ce4bhsh2rcd13ifvqi2g","pricing_plan_id":"cebpf4jnsgd1na2vs0mg"},{"bike_id":"3af4f46e-1760-486c-b7f5-1dd456a7423d","system_id":"levelo_inurba_marseille","lat":43.26215,"lon":5.37444,"is_reserved":false,"is_disabled":false,"rental_uris":{"android":"levelo://app?vid=3af4f46e-1760-486c-b7f5-1dd456a7423d","ios":"levelo://app?vid=3af4f46e-1760-486c-b7f5-1dd456a7423d"},"vehicle_type_id":"4","last_reported":1749644519,"current_range_meters":20800,"station_id":"ce4bhgp2rcd13ifvqfc0","pricing_plan_id":"cebpf4jnsgd1na2vs0mg"},{"bike_id":"4daa5b8c-0921-47d8-a6a2-73b9b4c162a4","system_id":"levelo_inurba_marseille","lat":43.27378,"lon":5.36253,"is_reserved":false,"is_disabled":false,"rental_uris":{"android":"levelo://app?vid=4daa5b8c-0921-47d8-a6a2-73b9b4c162a4","ios":"levelo://app?vid=4daa5b8c-0921-47d8-a6a2-73b9b4c162a4"},"vehicle_type_id":"4","last_reported":1749644519,"current_range_meters":21600,"station_id":"ce4bhbh2rcd13ifvqeo0","pricing_plan_id":"cebpf4jnsgd1na2vs0mg"},{"bike_id":"55bc0395-de10-44b5-b483-90b3850fb6a2","system_id":"levelo_inurba_marseille","lat":43.31365,"lon":5.36714,"is_reserved":false,"is_disabled":false,"rental_uris":{"android":"levelo://app?vid=55bc0395-de10-44b5-b483-90b3850fb6a2","ios":"levelo://app?vid=55bc0395-de10-44b5-b483-90b3850fb6a2"},"vehicle_type_id":"4","last_reported":1749644519,"current_range_meters":21600,"station_id":"ce4bgr92rcd13ifvqc6g","pricing_plan_id":"cebpf4jnsgd1na2vs0mg"},{"bike_id":"1268e070-f02d-4537-93df-0bfd5c4daa05","system_id":"levelo_inurba_marseille","lat":43.32713,"lon":5.37691,"is_reserved":false,"is_disabled":false,"rental_uris":{"android":"levelo://app?vid=1268e070-f02d-4537-93df-0bfd5c4daa05","ios":"levelo://app?vid=1268e070-f02d-4537-93df-0bfd5c4daa05"},"vehicle_type_id":"4","last_reported":1749644519,"current_range_meters":21600,"station_id":"","pricing_plan_id":"cebpf4jnsgd1na2vs0mg"},{"bike_id":"d0c19670-06fc-419b-8d0a-114876594635","system_id":"levelo_inurba_marseille","lat":43.28417,"lon":5.34973,"is_reserved":false,"is_disabled":false,"rental_uris":{"android":"levelo://app?vid=d0c19670-06fc-419b-8d0a-114876594635","ios":"levelo://app?vid=d0c19670-06fc-419b-8d0a-114876594635"},"vehicle_type_id":"4","last_reported":1749644519,"current_range_meters":21600,"station_id":"ce4bhbh2rcd13ifvqepg","pricing_plan_id":"cebpf4jnsgd1na2vs0mg"},{"bike_id":"9eb21e17-0e92-4365-a752-c5612cb309f6","system_id":"levelo_inurba_marseille","lat":43.28624,"lon":5.35101,"is_reserved":false,"is_disabled":false,"rental_uris":{"android":"levelo://app?vid=9eb21e17-0e92-4365-a752-c5612cb309f6","ios":"levelo://app?vid=9eb21e17-0e92-4365-a752-c5612cb309f6"},"vehicle_type_id":"4","last_reported":1749644519,"current_range_meters":21600,"station_id":"ce4bhch2rcd13ifvqeug","pricing_plan_id":"cebpf4jnsgd1na2vs0mg"},{"bike_id":"6fa4b362-b186-4073-bad6-2a5e8074cca8","system_id":"levelo_inurba_marseille","lat":43.25725,"lon":5.41105,"is_reserved":false,"is_disabled":false,"rental_uris":{"android":"levelo://app?vid=6fa4b362-b186-4073-bad6-2a5e8074cca8","ios":"levelo://app?vid=6fa4b362-b186-4073-bad6-2a5e8074cca8"},"vehicle_type_id":"4","last_reported":1749644519,"current_range_meters":21600,"station_id":"ce4bhkp2rcd13ifvqgd0","pricing_plan_id":"cebpf4jnsgd1na2vs0mg"},{"bike_id":"437f2c7f-0413-44bf-8608-4b7627edda98","system_id":"levelo_inurba_marseille","lat":43.283661,"lon":5.386411,"is_reserved":false,"is_disabled":true,"rental_uris":{"android":"levelo://app?vid=437f2c7f-0413-44bf-8608-4b7627edda98","ios":"levelo://app?vid=437f2c7f-0413-44bf-8608-4b7627edda98"},"vehicle_type_id":"4","last_reported":1749644519,"current_range_meters":21600,"station_id":"ce4bh492rcd13ifvqdvg","pricing_plan_id":"cebpf4jnsgd1na2vs0mg"},{"bike_id":"20080f1d-6dd2-42da-8160-fea6fab80059","system_id":"levelo_inurba_marseille","lat":43.273708,"lon":5.36248,"is_reserved":false,"is_disabled":false,"rental_uris":{"android":"levelo://app?vid=20080f1d-6dd2-42da-8160-fea6fab80059","ios":"levelo://app?vid=20080f1d-6dd2-42da-8160-fea6fab80059"},"vehicle_type_id":"4","last_reported":1749644519,"current_range_meters":21600,"station_id":"ce4bhbh2rcd13ifvqeo0","pricing_plan_id":"cebpf4jnsgd1na2vs0mg"},{"bike_id":"f2e2c65f-fbee-42d0-9b2b-9319979e8990","system_id":"levelo_inurba_marseille","lat":43.31356,"lon":5.38483,"is_reserved":false,"is_disabled":false,"rental_uris":{"android":"levelo://app?vid=f2e2c65f-fbee-42d0-9b2b-9319979e8990","ios":"levelo://app?vid=f2e2c65f-fbee-42d0-9b2b-9319979e8990"},"vehicle_type_id":"4","last_reported":1749644519,"current_range_meters":21600,"station_id":"ce4bgt92rcd13ifvqcf0","pricing_plan_id":"cebpf4jnsgd1na2vs0mg"},{"bike_id":"6c0fd13e-0872-4c8a-b703-37eb75f1c963","system_id":"levelo_inurba_marseille","lat":43.29898,"lon":5.43649,"is_reserved":false,"is_disabled":false,"rental_uris":{"android":"levelo://app?vid=6c0fd13e-0872-4c8a-b703-37eb75f1c963","ios":"levelo://app?vid=6c0fd13e-0872-4c8a-b703-37eb75f1c963"},"vehicle_type_id":"4","last_reported":1749644519,"current_range_meters":22000,"station_id":"ce4bhpp2rcd13ifvqhfg","pricing_plan_id":"cebpf4jnsgd1na2vs0mg"},