{"last_updated":1739988741,"ttl":60,"version":"2.2","data":{"bikes":[{"bike_id":"ad2d9910-edb3-4ca4-a43c-eb4b14e02e54","system_id":"levelo_inurba_marseille","lat":43.23168,"lon":5.4,"is_reserved":false,"is_disabled":false,"rental_uris":{"android":"levelo://app?vid=ad2d9910-edb3-4ca4-a43c-eb4b14e02e54","ios":"levelo://app?vid=ad2d9910-edb3-4ca4-a43c-eb4b14e02e54"},"vehicle_type_id":"4","last_reported":1739988742,"current_range_meters":2800,"station_id":"ce4bhn12rcd13ifvqgqg","pricing_plan_id":"cebpf4jnsgd1na2vs0mg"},{"bike_id":"020f9db3-6048-4a83-8c59-4acc533112c8","system_id":"levelo_inurba_marseille","lat":43.28155,"lon":5.42636,"is_reserved":false,"is_disabled":false,"rental_uris":{"android":"levelo://app?vid=020f9db3-6048-4a83-8c59-4acc533112c8","ios":"levelo://app?vid=020f9db3-6048-4a83-8c59-4acc533112c8"},"vehicle_type_id":"4","last_reported":1739988742,"current_range_meters":2800,"station_id":"ce4bhnh2rcd13ifvqgug","pricing_plan_id":"cebpf4jnsgd1na2vs0mg"},{"bike_id":"202e4be1-1ba8-4505-8ad7-0135fcfc3b52","system_id":"levelo_inurba_marseille","lat":43.2606,"lon":5.39399,"is_reserved":false,"is_disabled":false,"rental_uris":{"android":"levelo://app?vid=202e4be1-1ba8-4505-8ad7-0135fcfc3b52","ios":"levelo://app?vid=202e4be1-1ba8-4505-8ad7-0135fcfc3b52"},"vehicle_type_id":"4","last_reported":1739988742,"current_range_meters":2800,"station_id":"","pricing_plan_id":"cebpf4jnsgd1na2vs0mg"},{"bike_id":"bd953d6a-ff29-47cc-9532-7e4d76abd5b8","system_id":"levelo_inurba_marseille","lat":43.28661,"lon":5.38664,"is_reserved":false,"is_disabled":false,"rental_uris":{"android":"levelo://app?vid=bd953d6a-ff29-47cc-9532-7e4d76abd5b8","ios":"levelo://app?vid=bd953d6a-ff29-47cc-9532-7e4d76abd5b8"},"vehicle_type_id":"4","last_reported":1739988742,"current_range_meters":2800,"station_id":"ce4bh492rcd13ifvqdug","pricing_plan_id":"cebpf4jnsgd1na2vs0mg"},{"bike_id":"e45a18d0-0a3c-4750-8f7e-04c4713b67a4","system_id":"levelo_inurba_marseille","lat":43.29413,"lon":5.3861,"is_reserved":false,"is_disabled":false,"rental_uris":{"android":"levelo://app?vid=e45a18d0-0a3c-4750-8f7e-04c4713b67a4","ios":"levelo://app?vid=e45a18d0-0a3c-4750-8f7e-04c4713b67a4"},"vehicle_type_id":"4","last_reported":1739988742,"current_range_meters":2800,"station_id":"ce4bh2h2rcd13ifvqdh0","pricing_plan_id":"cebpf4jnsgd1na2vs0mg"},{"bike_id":"63aeee84-0bc5-490d-aaa4-6c46ae1c2feb","system_id":"levelo_inurba_marseille","lat":43.28607,"lon":5.35105,"is_reserved":false,"is_disabled":false,"rental_uris":{"android":"levelo://app?vid=63aeee84-0bc5-490d-aaa4-6c46ae1c2feb","ios":"levelo://app?vid=63aeee84-0bc5-490d-aaa4-6c46ae1c2feb"},"vehicle_type_id":"4","last_reported":1739988742,"current_range_meters":3200,"station_id":"ce4bhch2rcd13ifvqeug","pricing_plan_id":"cebpf4jnsgd1na2vs0mg"},{"bike_id":"b6d1d09e-4860-4f8c-9731-cd15a0490fa0","system_id":"levelo_inurba_marseille","lat":43.29786,"lon":5.38088,"is_reserved":false,"is_disabled":false,"rental_uris":{"android":"levelo://app?vid=b6d1d09e-4860-4f8c-9731-cd15a0490fa0","ios":"levelo://app?vid=b6d1d09e-4860-4f8c-9731-cd15a0490fa0"},"vehicle_type_id":"4","last_reported":1739988742,"current_range_meters":3200,"station_id":"ce4bgip2rcd13ifvqbb0","pricing_plan_id":"cebpf4jnsgd1na2vs0mg"},{"bike_id":"b33a94ff-f680-44b7-95a9-b6af4977d4b7","system_id":"levelo_inurba_marseille","lat":43.29269,"lon":5.38439,"is_reserved":false,"is_disabled":false,"rental_uris":{"android":"levelo://app?vid=b33a94ff-f680-44b7-95a9-b6af4977d4b7","ios":"levelo://app?vid=b33a94ff-f680-44b7-95a9-b6af4977d4b7"},"vehicle_type_id":"4","last_reported":1739988742,"current_range_meters":3200,"station_id":"ce4bh692rcd13ifvqea0","pricing_plan_id":"cebpf4jnsgd1na2vs0mg"},{"bike_id":"811901b7-6a39-4b98-9209-f363e05c2482","system_id":"levelo_inurba_marseille","lat":43.2815,"lon":5.42642,"is_reserved":false,"is_disabled":false,"rental_uris":{"android":"levelo://app?vid=811901b7-6a39-4b98-9209-f363e05c2482","ios":"levelo://app?vid=811901b7-6a39-4b98-9209-f363e05c2482"},"vehicle_type_id":"4","last_reported":1739988742,"current_range_meters":3600,"station_id":"ce4bhnh2rcd13ifvqgug","pricing_plan_id":"cebpf4jnsgd1na2vs0mg"},{"bike_id":"71b30b45-6c9e-4f96-b509-3e4b04eed7b8","system_id":"levelo_inurba_marseille","lat":43.30298,"lon":5.3921,"is_reserved":false,"is_disabled":true,"rental_uris":{"android":"levelo://app?vid=71b30b45-6c9e-4f96-b509-3e4b04eed7b8","ios":"levelo://app?vid=71b30b45-6c9e-4f96-b509-3e4b04eed7b8"},"vehicle_type_id":"4","last_reported":1739988742,"current_range_meters":3600,"station_id":"ce4bgkh2rcd13ifvqbk0","pricing_plan_id":"cebpf4jnsgd1na2vs0mg"},{"bike_id":"5321a740-e782-4dc5-b2bb-548aa82a3ab9","system_id":"levelo_inurba_marseille","lat":43.23963,"lon":5.36628,"is_reserved":false,"is_disabled":false,"rental_uris":{"android":"levelo://app?vid=5321a740-e782-4dc5-b2bb-548aa82a3ab9","ios":"levelo://app?vid=5321a740-e782-4dc5-b2bb-548aa82a3ab9"},"vehicle_type_id":"4","last_reported":1739988742,"current_range_meters":3600,"station_id":"","pricing_plan_id":"cebpf4jnsgd1na2vs0mg"},{"bike_id":"da5218ef-35d2-42fb-8384-1d2a2c83e360","system_id":"levelo_inurba_marseille","lat":43.2954,"lon":5.39397,"is_reserved":false,"is_disabled":false,"rental_uris":{"android":"levelo://app?vid=da5218ef-35d2-42fb-8384-1d2a2c83e360","ios":"levelo://app?vid=da5218ef-35d2-42fb-8384-1d2a2c83e360"},"vehicle_type_id":"4","last_reported":1739988742,"current_range_meters":4000,"station_id":"ce4bh292rcd13ifvqdf0","pricing_plan_id":"cebpf4jnsgd1na2vs0mg"},{"bike_id":"4034f481-1b11-4a88-aabe-acaec493523f","system_id":"levelo_inurba_marseille","lat":43.28026,"lon":5.36941,"is_reserved":false,"is_disabled":false,"rental_uris":{"android":"levelo://app?vid=4034f481-1b11-4a88-aabe-acaec493523f","ios":"levelo://app?vid=4034f481-1b11-4a88-aabe-acaec493523f"},"vehicle_type_id":"4","last_reported":1739988742,"current_range_meters":4000,"station_id":"ce4bha12rcd13ifvqef0","pricing_plan_id":"cebpf4jnsgd1na2vs0mg"},{"bike_id":"6fa7f546-1c90-4486-a024-53b7c09e807d","system_id":"levelo_inurba_marseille","lat":43.28432,"lon":5.39195,"is_reserved":false,"is_disabled":false,"rental_uris":{"android":"levelo://app?vid=6fa7f546-1c90-4486-a024-53b7c09e807d","ios":"levelo://app?vid=6fa7f546-1c90-4486-a024-53b7c09e807d"},"vehicle_type_id":"4","last_reported":1739988742,"current_range_meters":4800,"station_id":"ce4bhoh2rcd13ifvqh5g","pricing_plan_id":"cebpf4jnsgd1na2vs0mg"},{"bike_id":"091c0a8d-df22-41e5-b530-ee73de20a530","system_id":"levelo_inurba_marseille","lat":43.29257,"lon":5.38439,"is_reserved":false,"is_disabled":false,"rental_uris":{"android":"levelo://app?vid=091c0a8d-df22-41e5-b530-ee73de20a530","ios":"levelo://app?vid=091c0a8d-df22-41e5-b530-ee73de20a530"},"vehicle_type_id":"4","last_reported":1739988742,"current_range_meters":5600,"station_id":"ce4bh692rcd13ifvqea0","pricing_plan_id":"cebpf4jnsgd1na2vs0mg"},{"bike_id":"fac663ce-d517-49a1-bf02-0c2d21df1952","system_id":"levelo_inurba_marseille","lat":43.29259,"lon":5.384435,"is_reserved":false,"is_disabled":false,"rental_uris":{"android":"levelo://app?vid=fac663ce-d517-49a1-bf02-0c2d21df1952","ios":"levelo://app?vid=fac663ce-d517-49a1-bf02-0c2d21df1952"},"vehicle_type_id":"4","last_reported":1739988742,"current_range_meters":5600,"station_id":"ce4bh692rcd13ifvqea0","pricing_plan_id":"cebpf4jnsgd1na2vs0mg"},{"bike_id":"e463c387-6739-4aaa-8471-55b659d7cc39","system_id":"levelo_inurba_marseille","lat":43.283661,"lon":5.386642,"is_reserved":false,"is_disabled":false,"rental_uris":{"android":"levelo://app?vid=e463c387-6739-4aaa-8471-55b659d7cc39","ios":"levelo://app?vid=e463c387-6739-4aaa-8471-55b659d7cc39"},"vehicle_type_id":"4","last_reported":1739988742,"current_range_meters":4800,"station_id":"ce4bh492rcd13ifvqdvg","pricing_plan_id":"cebpf4jnsgd1na2vs0mg"},{"bike_id":"0e3d3671-48fd-4818-97a1-83588e174cd2","system_id":"levelo_inurba_marseille","lat":43.275,"lon":5.42452,"is_reserved":false,"is_disabled":false,"rental_uris":{"android":"levelo://app?vid=0e3d3671-48fd-4818-97a1-83588e174cd2","ios":"levelo://app?vid=0e3d3671-48fd-4818-97a1-83588e174cd2"},"vehicle_type_id":"4","last_reported":1739988742,"current_range_meters":5600,"station_id":"ce4bhn92rcd13ifvqgrg","pricing_plan_id":"cebpf4jnsgd1na2vs0mg"},{"bike_id":"4db2c8d0-3f0b-477c-a0c8-b3ac675bbff9","system_id":"levelo_inurba_marseille","lat":43.29789,"lon":5.39356,"is_reserved":false,"is_disabled":false,"rental_uris":{"android":"levelo://app?vid=4db2c8d0-3f0b-477c-a0c8-b3ac675bbff9","ios":"levelo://app?vid=4db2c8d0-3f0b-477c-a0c8-b3ac675bbff9"},"vehicle_type_id":"4","last_reported":1739988742,"current_range_meters":5600,"station_id":"chh1huq6cuj3fo74tm60","pricing_plan_id":"cebpf4jnsgd1na2vs0mg"},{"bike_id":"bbe7da71-b389-4787-a0bc-bc918256d4a9","system_id":"levelo_inurba_marseille","lat":43.29254,"lon":5.40908,"is_reserved":false,"is_disabled":false,"rental_uris":{"android":"levelo://app?vid=bbe7da71-b389-4787-a0bc-bc918256d4a9","ios":"levelo://app?vid=bbe7da71-b389-4787-a0bc-bc918256d4a9"},"vehicle_type_id":"4","last_reported":1739988742,"current_range_meters":6000,"station_id":"ce4bh192rcd13ifvqdc0","pricing_plan_id":"cebpf4jnsgd1na2vs0mg"},{"bike_id":"87a4c1f0-073e-4404-93ec-979572549863","system_id":"levelo_inurba_marseille","lat":43.29275,"lon":5.36844,"is_reserved":false,"is_disabled":false,"rental_uris":{"android":"levelo://app?vid=87a4c1f0-073e-4404-93ec-979572549863","ios":"levelo://app?vid=87a4c1f0-073e-4404-93ec-979572549863"},"vehicle_type_id":"4","last_reported":1739988742,"current_range_meters":6000,"station_id":"ce4bhbp2rcd13ifvqesg","pricing_plan_id":"cebpf4jnsgd1na2vs0mg"},{"bike_id":"eab8480c-58e4-49de-92e8-ca03974e4000","system_id":"levelo_inurba_marseille","lat":43.29526,"lon":5.38543,"is_reserved":false,"is_disabled":false,"rental_uris":{"android":"levelo://app?vid=eab8480c-58e4-49de-92e8-ca03974e4000","ios":"levelo://app?vid=eab8480c-58e4-49de-92e8-ca03974e4000"},"vehicle_type_id":"4","last_reported":1739988742,"current_range_meters":6000,"station_id":"ce4bgih2rcd13ifvqba0","pricing_plan_id":"cebpf4jnsgd1na2vs0mg"},{"bike_id":"1552f807-5ad6-49d5-b94d-83da85eda0f1","system_id":"levelo_inurba_marseille","lat":43.301193,"lon":5.400507,"is_reserved":false,"is_disabled":false,"rental_uris":{"android":"levelo://app?vid=1552f807-5ad6-49d5-b94d-83da85eda0f1","ios":"levelo://app?vid=1552f807-5ad6-49d5-b94d-83da85eda0f1"},"vehicle_type_id":"4","last_reported":1739988742,"current_range_meters":6000,"station_id":"ce4bh192rcd13ifvqdc0","pricing_plan_id":"cebpf4jnsgd1na2vs0mg"},{"bike_id":"0b2558ba-b58e-4705-be04-18c155acbfa7","system_id":"levelo_inurba_marseille","lat":43.29256,"lon":5.38418,"is_reserved":false,"is_disabled":false,"rental_uris":{"android":"levelo://app?vid=0b2558ba-b58e-4705-be04-18c155acbfa7","ios":"levelo://app?vid=0b2558ba-b58e-4705-be04-18c155acbfa7"},"vehicle_type_id":"4","last_reported":1739988742,"current_range_meters":6000,"station_id":"ce4bh692rcd13ifvqea0","pricing_plan_id":"cebpf4jnsgd1na2vs0mg"},{"bike_id":"989a1c05-c74a-4632-af21-81b3f55f7909","system_id":"levelo_inurba_marseille","lat":43.29222,"lon":5.36023,"is_reserved":false,"is_disabled":true,"rental_uris":{"android":"levelo://app?vid=989a1c05-c74a-4632-af21-81b3f55f7909","ios":"levelo://app?vid=989a1c05-c74a-4632-af21-81b3f55f7909"},"vehicle_type_id":"4","last_reported":1739988742,"current_range_meters":6000,"station_id":"","pricing_plan_id":"cebpf4jnsgd1na2vs0mg"},{"bike_id":"2ada5265-b246-413e-8abb-562565dc0beb","system_id":"levelo_inurba_marseille","lat":43.293,"lon":5.37448,"is_reserved":false,"is_disabled":false,"rental_uris":{"android":"levelo://app?vid=2ada5265-b246-413e-8abb-562565dc0beb","ios":"levelo://app?vid=2ada5265-b246-413e-8abb-562565dc0beb"},"vehicle_type_id":"4","last_reported":1739988742,"current_range_meters":6400,"station_id":"ce4bgi12rcd13ifvqb70","pricing_plan_id":"cebpf4jnsgd1na2vs0mg"},{"bike_id":"520fe72f-d47e-4497-b171-7e104c921313","system_id":"levelo_inurba_marseille","lat":43.2987,"lon":5.39739,"is_reserved":false,"is_disabled":false,"rental_uris":{"android":"levelo://app?vid=520fe72f-d47e-4497-b171-7e104c921313","ios":"levelo://app?vid=520fe72f-d47e-4497-b171-7e104c921313"},"vehicle_type_id":"4","last_reported":1739988742,"current_range_meters":6800,"station_id":"","pricing_plan_id":"cebpf4jnsgd1na2vs0mg"},{"bike_id":"de7990bc-2801-42ec-9557-469ebd22258b","system_id":"levelo_inurba_marseille","lat":43.29096,"lon":5.38131,"is_reserved":false,"is_disabled":false,"rental_uris":{"android":"levelo://app?vid=de7990bc-2801-42ec-9557-469ebd22258b","ios":"levelo://app?vid=de7990bc-2801-42ec-9557-469ebd22258b"},"vehicle_type_id":"4","last_reported":1739988742,"current_range_meters":6400,"station_id":"ce4bh512rcd13ifvqe2g","pricing_plan_id":"cebpf4jnsgd1na2vs0mg"},{"bike_id":"dd683aad-a71f-43ba-b4f7-fbc781b535df","system_id":"levelo_inurba_marseille","lat":43.28491,"lon":5.3842,"is_reserved":false,"is_disabled":false,"rental_uris":{"android":"levelo://app?vid=dd683aad-a71f-43ba-b4f7-fbc781b535df","ios":"levelo://app?vid=dd683aad-a71f-43ba-b4f7-fbc781b535df"},"vehicle_type_id":"4","last_reported":1739988742,"current_range_meters":6800,"station_id":"ce4bh512rcd13ifvqe3g","pricing_plan_id":"cebpf4jnsgd1na2vs0mg"},{"bike_id":"ab858485-871e-4fee-9acc-e5e4d4f1fa66","system_id":"levelo_inurba_marseille","lat":43.28487,"lon":5.38417,"is_reserved":false,"is_disabled":false,"rental_uris":{"android":"levelo://app?vid=ab858485-871e-4fee-9acc-e5e4d4f1fa66","ios":"levelo://app?vid=ab858485-871e-4fee-9acc-e5e4d4f1fa66"},"vehicle_type_id":"4","last_reported":1739988742,"current_range_meters":6800,"station_id":"ce4bh512rcd13ifvqe3g","pricing_plan_id":"cebpf4jnsgd1na2vs0mg"},{"bike_id":"b6a9e4aa-7feb-490b-8a83-811767f925de","system_id":"levelo_inurba_marseille","lat":43.28034,"lon":5.36937,"is_reserved":false,"is_disabled":false,"rental_uris":{"android":"levelo://app?vid=b6a9e4aa-7feb-490b-8a83-811767f925de","ios":"levelo://app?vid=b6a9e4aa-7feb-490b-8a83-811767f925de"},"vehicle_type_id":"4","last_reported":1739988742,"current_range_meters":6800,"station_id":"ce4bha12rcd13ifvqef0","pricing_plan_id":"cebpf4jnsgd1na2vs0mg"},{"bike_id":"f7da762d-5a0a-4f2e-b406-b599b0bd3adb","system_id":"levelo_inurba_marseille","lat":43.29265,"lon":5.37621,"is_reserved":false,"is_disabled":false,"rental_uris":{"android":"levelo://app?vid=f7da762d-5a0a-4f2e-b406-b599b0bd3adb","ios":"levelo://app?vid=f7da762d-5a0a-4f2e-b406-b599b0bd3adb"},"vehicle_type_id":"4","last_reported":1739988742,"current_range_meters":6800,"station_id":"ce4bgi12rcd13ifvqb80","pricing_plan_id":"cebpf4jnsgd1na2vs0mg"},{"bike_id":"d3a06231-fb0d-458d-9ab9-ee250a38730c","system_id":"levelo_inurba_marseille","lat":43.29396,"lon":5.42856,"is_reserved":false,"is_disabled":false,"rental_uris":{"android":"levelo://app?vid=d3a06231-fb0d-458d-9ab9-ee250a38730c","ios":"levelo://app?vid=d3a06231-fb0d-458d-9ab9-ee250a38730c"},"vehicle_type_id":"4","last_reported":1739988742,"current_range_meters":6800,"station_id":"","pricing_plan_id":"cebpf4jnsgd1na2vs0mg"},{"bike_id":"0fabf455-af3b-4519-bb9d-b30befb8c6b4","system_id":"levelo_inurba_marseille","lat":43.27831,"lon":5.39206,"is_reserved":false,"is_disabled":false,"rental_uris":{"android":"levelo://app?vid=0fabf455-af3b-4519-bb9d-b30befb8c6b4","ios":"levelo://app?vid=0fabf455-af3b-4519-bb9d-b30befb8c6b4"},"vehicle_type_id":"4","last_reported":1739988742,"current_range_meters":6400,"station_id":"ce4bhjp2rcd13ifvqga0","pricing_plan_id":"cebpf4jnsgd1na2vs0mg"},{"bike_id":"4bd9c50c-2520-4fd0-94dd-62b42aeae85a","system_id":"levelo_inurba_marseille","lat":43.29197,"lon":5.39322,"is_reserved":false,"is_disabled":false,"rental_uris":{"android":"levelo://app?vid=4bd9c50c-2520-4fd0-94dd-62b42aeae85a","ios":"levelo://app?vid=4bd9c50c-2520-4fd0-94dd-62b42aeae85a"},"vehicle_type_id":"4","last_reported":1739988742,"current_range_meters":7200,"station_id":"ce4bh192rcd13ifvqdd0","pricing_plan_id":"cebpf4jnsgd1na2vs0mg"},{"bike_id":"56834599-2949-4368-8c7c-ea0cffd718b2","system_id":"levelo_inurba_marseille","lat":43.27066,"lon":5.42277,"is_reserved":false,"is_disabled":false,"rental_uris":{"android":"levelo://app?vid=56834599-2949-4368-8c7c-ea0cffd718b2","ios":"levelo://app?vid=56834599-2949-4368-8c7c-ea0cffd718b2"},"vehicle_type_id":"4","last_reported":1739988742,"current_range_meters":7200,"station_id":"ce4bhk92rcd13ifvqgb0","pricing_plan_id":"cebpf4jnsgd1na2vs0mg"},{"bike_id":"617edf6a-5c83-4d02-a513-71b98451f8e0","system_id":"levelo_inurba_marseille","lat":43.29362,"lon":5.37842,"is_reserved":false,"is_disabled":false,"rental_uris":{"android":"levelo://app?vid=617edf6a-5c83-4d02-a513-71b98451f8e0","ios":"levelo://app?vid=617edf6a-5c83-4d02-a513-71b98451f8e0"},"vehicle_type_id":"4","last_reported":1739988742,"current_range_meters":7200,"station_id":"ce4bgjh2rcd13ifvqbf0","pricing_plan_id":"cebpf4jnsgd1na2vs0mg"},{"bike_id":"4089f1a0-cd12-42d3-a6c3-01d445970a86","system_id":"levelo_inurba_marseille","lat":43.31289,"lon":5.37422,"is_reserved":false,"is_disabled":false,"rental_uris":{"android":"levelo://app?vid=4089f1a0-cd12-42d3-a6c3-01d445970a86","ios":"levelo://app?vid=4089f1a0-cd12-42d3-a6c3-01d445970a86"},"vehicle_type_id":"4","last_reported":1739988742,"current_range_meters":7200,"station_id":"","pricing_plan_id":"cebpf4jnsgd1na2vs0mg"},{"bike_id":"bb852df7-dd74-43f4-8582-0650a376dfcb","system_id":"levelo_inurba_marseille","lat":43.27501,"lon":5.42465,"is_reserved":false,"is_disabled":false,"rental_uris":{"android":"levelo://app?vid=bb852df7-dd74-43f4-8582-0650a376dfcb","ios":"levelo://app?vid=bb852df7-dd74-43f4-8582-0650a376dfcb"},"vehicle_type_id":"4","last_reported":1739988742,"current_range_meters":7200,"station_id":"ce4bhn92rcd13ifvqgrg","pricing_plan_id":"cebpf4jnsgd1na2vs0mg"},{"bike_id":"7421660e-c0d3-407d-ae2d-c744404f3645","system_id":"levelo_inurba_marseille","lat":43.26062,"lon":5.39396,"is_reserved":false,"is_disabled":false,"rental_uris":{"android":"levelo://app?vid=7421660e-c0d3-407d-ae2d-c744404f3645","ios":"levelo://app?vid=7421660e-c0d3-407d-ae2d-c744404f3645"},"vehicle_type_id":"4","last_reported":1739988742,"current_range_meters":7200,"station_id":"ce4bhh92rcd13ifvqfj0","pricing_plan_id":"cebpf4jnsgd1na2vs0mg"},{"bike_id":"c98e765f-c00c-4cb9-9479-3c20061c27d7","system_id":"levelo_inurba_marseille","lat":43.26686,"lon":5.38264,"is_reserved":false,"is_disabled":false,"rental_uris":{"android":"levelo://app?vid=c98e765f-c00c-4cb9-9479-3c20061c27d7","ios":"levelo://app?vid=c98e765f-c00c-4cb9-9479-3c20061c27d7"},"vehicle_type_id":"4","last_reported":1739988742,"current_range_meters":6800,"station_id":"ce4bhg92rcd13ifvqf90","pricing_plan_id":"cebpf4jnsgd1na2vs0mg"},{"bike_id":"f132c26b-a0b7-4a7e-a4a4-e96fad5d51ff","system_id":"levelo_inurba_marseille","lat":43.28711,"lon":5.3999,"is_reserved":false,"is_disabled":true,"rental_uris":{"android":"levelo://app?vid=f132c26b-a0b7-4a7e-a4a4-e96fad5d51ff","ios":"levelo://app?vid=f132c26b-a0b7-4a7e-a4a4-e96fad5d51ff"},"vehicle_type_id":"4","last_reported":1739988742,"current_range_meters":7200,"station_id":"ce4bho92rcd13ifvqh3g","pricing_plan_id":"cebpf4jnsgd1na2vs0mg"},{"bike_id":"e938b19c-a078-42bd-9b72-38b8e0b86754","system_id":"levelo_inurba_marseille","lat":43.31486,"lon":5.37309,"is_reserved":false,"is_disabled":false,"rental_uris":{"android":"levelo://app?vid=e938b19c-a078-42bd-9b72-38b8e0b86754","ios":"levelo://app?vid=e938b19c-a078-42bd-9b72-38b8e0b86754"},"vehicle_type_id":"4","last_reported":1739988742,"current_range_meters":7200,"station_id":"","pricing_plan_id":"cebpf4jnsgd1na2vs0mg"},{"bike_id":"dca61eaa-f691-4ac3-b29a-f547954bc405","system_id":"levelo_inurba_marseille","lat":43.28072,"lon":5.3966,"is_reserved":false,"is_disabled":false,"rental_uris":{"android":"levelo://app?vid=dca61eaa-f691-4ac3-b29a-f547954bc405","ios":"levelo://app?vid=dca61eaa-f691-4ac3-b29a-f547954bc405"},"vehicle_type_id":"4","last_reported":1739988742,"current_range_meters":7200,"station_id":"ce4bho12rcd13ifvqh2g","pricing_plan_id":"cebpf4jnsgd1na2vs0mg"},{"bike_id":"4228273d-88b0-40ca-ae48-c6d5d7e46874","system_id":"levelo_inurba_marseille","lat":43.29027,"lon":5.38632,"is_reserved":false,"is_disabled":false,"rental_uris":{"android":"levelo://app?vid=4228273d-88b0-40ca-ae48-c6d5d7e46874","ios":"levelo://app?vid=4228273d-88b0-40ca-ae48-c6d5d7e46874"},"vehicle_type_id":"4","last_reported":1739988742,"current_range_meters":7200,"station_id":"ce4bh4p2rcd13ifvqe0g","pricing_plan_id":"cebpf4jnsgd1na2vs0mg"},{"bike_id":"50f6c110-4b47-4f2c-ac1d-543fea92dd14","system_id":"levelo_inurba_marseille","lat":43.29026,"lon":5.38634,"is_reserved":false,"is_disabled":false,"rental_uris":{"android":"levelo://app?vid=50f6c110-4b47-4f2c-ac1d-543fea92dd14","ios":"levelo://app?vid=50f6c110-4b47-4f2c-ac1d-543fea92dd14"},"vehicle_type_id":"4","last_reported":1739988742,"current_range_meters":7200,"station_id":"ce4bh4p2rcd13ifvqe0g","pricing_plan_id":"cebpf4jnsgd1na2vs0mg"},{"bike_id":"adb3d6df-7149-4295-84c9-8f4cb47f9c0e","system_id":"levelo_inurba_marseille","lat":43.2743,"lon":5.40882,"is_reserved":false,"is_disabled":false,"rental_uris":{"android":"levelo://app?vid=adb3d6df-7149-4295-84c9-8f4cb47f9c0e","ios":"levelo://app?vid=adb3d6df-7149-4295-84c9-8f4cb47f9c0e"},"vehicle_type_id":"4","last_reported":1739988742,"current_range_meters":7200,"station_id":"","pricing_plan_id":"cebpf4jnsgd1na2vs0mg"},{"bike_id":"4391ae73-d7ce-4930-bac4-306eca66be35","system_id":"levelo_inurba_marseille","lat":43.23972,"lon":5.36607,"is_reserved":false,"is_disabled":false,"rental_uris":{"android":"levelo://app?vid=4391ae73-d7ce-4930-bac4-306eca66be35","ios":"levelo://app?vid=4391ae73-d7ce-4930-bac4-306eca66be35"},"vehicle_type_id":"4","last_reported":1739988742,"current_range_meters":7200,"station_id":"ce4bhi12rcd13ifvqfp0","pricing_plan_id":"cebpf4jnsgd1na2vs0mg"},{"bike_id":"922ae50f-6e01-4c06-942b-edeff0c9a37c","system_id":"levelo_inurba_marseille","lat":43.29265,"lon":5.38437,"is_reserved":false,"is_disabled":false,"rental_uris":{"android":"levelo://app?vid=922ae50f-6e01-4c06-942b-edeff0c9a37c","ios":"levelo://app?vid=922ae50f-6e01-4c06-942b-edeff0c9a37c"},"vehicle_type_id":"4","last_reported":1739988742,"current_range_meters":7200,"station_id":"ce4bh692rcd13ifvqea0","pricing_plan_id":"cebpf4jnsgd1na2vs0mg"},{"bike_id":"61c673fe-f10b-4399-8b5a-360edb95722d","system_id":"levelo_inurba_marseille","lat":43.28426,"lon":5.34991,"is_reserved":false,"is_disabled":false,"rental_uris":{"android":"levelo://app?vid=61c673fe-f10b-4399-8b5a-360edb95722d","ios":"levelo://app?vid=61c673fe-f10b-4399-8b5a-360edb95722d"},"vehicle_type_id":"4","last_reported":1739988742,"current_range_meters":8000,"station_id":"ce4bhbh2rcd13ifvqepg","pricing_plan_id":"cebpf4jnsgd1na2vs0mg"},{"bike_id":"977b2036-1be8-48b1-8a24-ae1b30cdf558","system_id":"levelo_inurba_marseille","lat":43.28435,"lon":5.39181,"is_reserved":false,"is_disabled":false,"rental_uris":{"android":"levelo://app?vid=977b2036-1be8-48b1-8a24-ae1b30cdf558","ios":"levelo://app?vid=977b2036-1be8-48b1-8a24-ae1b30cdf558"},"vehicle_type_id":"4","last_reported":1739988742,"current_range_meters":8000,"station_id":"ce4bhoh2rcd13ifvqh5g","pricing_plan_id":"cebpf4jnsgd1na2vs0mg"},{"bike_id":"3021f60c-e026-481e-bd79-e5aa794f1834","system_id":"levelo_inurba_marseille","lat":43.26952,"lon":5.3864,"is_reserved":false,"is_disabled":false,"rental_uris":{"android":"levelo://app?vid=3021f60c-e026-481e-bd79-e5aa794f1834","ios":"levelo://app?vid=3021f60c-e026-481e-bd79-e5aa794f1834"},"vehicle_type_id":"4","last_reported":1739988742,"current_range_meters":8000,"station_id":"ce4bhh92rcd13ifvqfh0","pricing_plan_id":"cebpf4jnsgd1na2vs0mg"},{"bike_id":"1fc4eb74-d232-4c23-9827-95f8bc004b53","system_id":"levelo_inurba_marseille","lat":43.26684,"lon":5.38273,"is_reserved":false,"is_disabled":true,"rental_uris":{"android":"levelo://app?vid=1fc4eb74-d232-4c23-9827-95f8bc004b53","ios":"levelo://app?vid=1fc4eb74-d232-4c23-9827-95f8bc004b53"},"vehicle_type_id":"4","last_reported":1739988742,"current_range_meters":8000,"station_id":"ce4bhg92rcd13ifvqf90","pricing_plan_id":"cebpf4jnsgd1na2vs0mg"},{"bike_id":"591880ff-a463-43b3-b3b7-4bedb53886a5","system_id":"levelo_inurba_marseille","lat":43.29529,"lon":5.38541,"is_reserved":false,"is_disabled":false,"rental_uris":{"android":"levelo://app?vid=591880ff-a463-43b3-b3b7-4bedb53886a5","ios":"levelo://app?vid=591880ff-a463-43b3-b3b7-4bedb53886a5"},"vehicle_type_id":"4","last_reported":1739988742,"current_range_meters":8000,"station_id":"ce4bgih2rcd13ifvqba0","pricing_plan_id":"cebpf4jnsgd1na2vs0mg"},{"bike_id":"97da2850-30e4-49a9-aed9-3fabc78dad21","system_id":"levelo_inurba_marseille","lat":43.33767,"lon":5.37478,"is_reserved":false,"is_disabled":false,"rental_uris":{"android":"levelo://app?vid=97da2850-30e4-49a9-aed9-3fabc78dad21","ios":"levelo://app?vid=97da2850-30e4-49a9-aed9-3fabc78dad21"},"vehicle_type_id":"4","last_reported":1739988742,"current_range_meters":8000,"station_id":"","pricing_plan_id":"cebpf4jnsgd1na2vs0mg"},{"bike_id":"cf64b7cd-4626-4d79-afac-2611db88ce28","system_id":"levelo_inurba_marseille","lat":43.27999,"lon":5.41668,"is_reserved":false,"is_disabled":false,"rental_uris":{"android":"levelo://app?vid=cf64b7cd-4626-4d79-afac-2611db88ce28","ios":"levelo://app?vid=cf64b7cd-4626-4d79-afac-2611db88ce28"},"vehicle_type_id":"4","last_reported":1739988742,"current_range_meters":8000,"station_id":"ce4bho12rcd13ifvqh1g","pricing_plan_id":"cebpf4jnsgd1na2vs0mg"},{"bike_id":"92843970-44e9-42f5-900c-160ec5215267","system_id":"levelo_inurba_marseille","lat":43.2991,"lon":5.39747,"is_reserved":false,"is_disabled":false,"rental_uris":{"android":"levelo://app?vid=92843970-44e9-42f5-900c-160ec5215267","ios":"levelo://app?vid=92843970-44e9-42f5-900c-160ec5215267"},"vehicle_type_id":"4","last_reported":1739988742,"current_range_meters":8000,"station_id":"ce4bh0h2rcd13ifvqd50","pricing_plan_id":"cebpf4jnsgd1na2vs0mg"},{"bike_id":"d17dfdf4-6418-4988-902b-f2904be57ada","system_id":"levelo_inurba_marseille","lat":43.33024,"lon":5.39043,"is_reserved":false,"is_disabled":false,"rental_uris":{"android":"levelo://app?vid=d17dfdf4-6418-4988-902b-f2904be57ada","ios":"levelo://app?vid=d17dfdf4-6418-4988-902b-f2904be57ada"},"vehicle_type_id":"4","last_reported":1739988742,"current_range_meters":8000,"station_id":"ce4bhr92rcd13ifvqhrg","pricing_plan_id":"cebpf4jnsgd1na2vs0mg"},{"bike_id":"e79d1c03-ea93-4ee5-8cb2-ecdeca48b0aa","system_id":"levelo_inurba_marseille","lat":43.23157,"lon":5.43689,"is_reserved":false,"is_disabled":true,"rental_uris":{"android":"levelo://app?vid=e79d1c03-ea93-4ee5-8cb2-ecdeca48b0aa","ios":"levelo://app?vid=e79d1c03-ea93-4ee5-8cb2-ecdeca48b0aa"},"vehicle_type_id":"4","last_reported":1739988742,"current_range_meters":8000,"station_id":"ce4bhmp2rcd13ifvqgog","pricing_plan_id":"cebpf4jnsgd1na2vs0mg"},{"bike_id":"18fe3d06-df15-4747-b0a1-d25df88e009c","system_id":"levelo_inurba_marseille","lat":43.28147,"lon":5.4264,"is_reserved":false,"is_disabled":false,"rental_uris":{"android":"levelo://app?vid=18fe3d06-df15-4747-b0a1-d25df88e009c","ios":"levelo://app?vid=18fe3d06-df15-4747-b0a1-d25df88e009c"},"vehicle_type_id":"4","last_reported":1739988742,"current_range_meters":8000,"station_id":"ce4bhnh2rcd13ifvqgug","pricing_plan_id":"cebpf4jnsgd1na2vs0mg"},{"bike_id":"219557c3-133c-4171-b454-69afa7181eeb","system_id":"levelo_inurba_marseille","lat":43.28357,"lon":5.38109,"is_reserved":false,"is_disabled":false,"rental_uris":{"android":"levelo://app?vid=219557c3-133c-4171-b454-69afa7181eeb","ios":"levelo://app?vid=219557c3-133c-4171-b454-69afa7181eeb"},"vehicle_type_id":"4","last_reported":1739988742,"current_range_meters":8400,"station_id":"","pricing_plan_id":"cebpf4jnsgd1na2vs0mg"},{"bike_id":"fa57a7bd-5941-46cd-b691-01025f73c388","system_id":"levelo_inurba_marseille","lat":43.29268,"lon":5.36849,"is_reserved":false,"is_disabled":false,"rental_uris":{"android":"levelo://app?vid=fa57a7bd-5941-46cd-b691-01025f73c388","ios":"levelo://app?vid=fa57a7bd-5941-46cd-b691-01025f73c388"},"vehicle_type_id":"4","last_reported":1739988742,"current_range_meters":8400,"station_id":"ce4bhbp2rcd13ifvqesg","pricing_plan_id":"cebpf4jnsgd1na2vs0mg"},{"bike_id":"9198c6ef-bd5b-45d9-bd7b-e058d791d44b","system_id":"levelo_inurba_marseille","lat":43.24797,"lon":5.37513,"is_reserved":false,"is_disabled":false,"rental_uris":{"android":"levelo://app?vid=9198c6ef-bd5b-45d9-bd7b-e058d791d44b","ios":"levelo://app?vid=9198c6ef-bd5b-45d9-bd7b-e058d791d44b"},"vehicle_type_id":"4","last_reported":1739988742,"current_range_meters":8400,"station_id":"ce4bhgh2rcd13ifvqfb0","pricing_plan_id":"cebpf4jnsgd1na2vs0mg"},{"bike_id":"b7544194-564c-4b07-aa5a-ebb444c98d95","system_id":"levelo_inurba_marseille","lat":43.290257,"lon":5.38644,"is_reserved":false,"is_disabled":false,"rental_uris":{"android":"levelo://app?vid=b7544194-564c-4b07-aa5a-ebb444c98d95","ios":"levelo://app?vid=b7544194-564c-4b07-aa5a-ebb444c98d95"},"vehicle_type_id":"4","last_reported":1739988742,"current_range_meters":8400,"station_id":"ce4bh4p2rcd13ifvqe0g","pricing_plan_id":"cebpf4jnsgd1na2vs0mg"},{"bike_id":"f0f61fdf-e262-479f-a259-1997ef9b3f40","system_id":"levelo_inurba_marseille","lat":43.28149,"lon":5.42649,"is_reserved":false,"is_disabled":false,"rental_uris":{"android":"levelo://app?vid=f0f61fdf-e262-479f-a259-1997ef9b3f40","ios":"levelo://app?vid=f0f61fdf-e262-479f-a259-1997ef9b3f40"},"vehicle_type_id":"4","last_reported":1739988742,"current_range_meters":8400,"station_id":"","pricing_plan_id":"cebpf4jnsgd1na2vs0mg"},{"bike_id":"ec2a2a80-692c-4e61-b758-ee418e5968e4","system_id":"levelo_inurba_marseille","lat":43.23957,"lon":5.3664,"is_reserved":false,"is_disabled":false,"rental_uris":{"android":"levelo://app?vid=ec2a2a80-692c-4e61-b758-ee418e5968e4","ios":"levelo://app?vid=ec2a2a80-692c-4e61-b758-ee418e5968e4"},"vehicle_type_id":"4","last_reported":1739988742,"current_range_meters":8400,"station_id":"ce4bhi12rcd13ifvqfp0","pricing_plan_id":"cebpf4jnsgd1na2vs0mg"},{"bike_id":"51ab539e-1825-4cf2-9196-1daa14daedf6","system_id":"levelo_inurba_marseille","lat":43.24995,"lon":5.38919,"is_reserved":false,"is_disabled":false,"rental_uris":{"android":"levelo://app?vid=51ab539e-1825-4cf2-9196-1daa14daedf6","ios":"levelo://app?vid=51ab539e-1825-4cf2-9196-1daa14daedf6"},"vehicle_type_id":"4","last_reported":1739988742,"current_range_meters":8800,"station_id":"","pricing_plan_id":"cebpf4jnsgd1na2vs0mg"},{"bike_id":"f387f019-9e6e-4a42-8993-253c9ea7a6e4","system_id":"levelo_inurba_marseille","lat":43.29302,"lon":5.37447,"is_reserved":false,"is_disabled":false,"rental_uris":{"android":"levelo://app?vid=f387f019-9e6e-4a42-8993-253c9ea7a6e4","ios":"levelo://app?vid=f387f019-9e6e-4a42-8993-253c9ea7a6e4"},"vehicle_type_id":"4","last_reported":1739988742,"current_range_meters":8800,"station_id":"ce4bgi12rcd13ifvqb70","pricing_plan_id":"cebpf4jnsgd1na2vs0mg"},{"bike_id":"c2896a85-bd03-44af-9ec9-88cf4b2c2bef","system_id":"levelo_inurba_marseille","lat":43.27377,"lon":5.36253,"is_reserved":false,"is_disabled":false,"rental_uris":{"android":"levelo://app?vid=c2896a85-bd03-44af-9ec9-88cf4b2c2bef","ios":"levelo://app?vid=c2896a85-bd03-44af-9ec9-88cf4b2c2bef"},"vehicle_type_id":"4","last_reported":1739988742,"current_range_meters":8800,"station_id":"","pricing_plan_id":"cebpf4jnsgd1na2vs0mg"},{"bike_id":"6dd6e159-a54a-4f40-9baf-7ef7bb2a77fa","system_id":"levelo_inurba_marseille","lat":43.29084,"lon":5.38137,"is_reserved":false,"is_disabled":false,"rental_uris":{"android":"levelo://app?vid=6dd6e159-a54a-4f40-9baf-7ef7bb2a77fa","ios":"levelo://app?vid=6dd6e159-a54a-4f40-9baf-7ef7bb2a77fa"},"vehicle_type_id":"4","last_reported":1739988742,"current_range_meters":8800,"station_id":"ce4bh512rcd13ifvqe2g","pricing_plan_id":"cebpf4jnsgd1na2vs0mg"},{"bike_id":"cfbd6781-13ed-4428-a6d3-5d9a76d59ca6","system_id":"levelo_inurba_marseille","lat":43.30095,"lon":5.39073,"is_reserved":false,"is_disabled":false,"rental_uris":{"android":"levelo://app?vid=cfbd6781-13ed-4428-a6d3-5d9a76d59ca6","ios":"levelo://app?vid=cfbd6781-13ed-4428-a6d3-5d9a76d59ca6"},"vehicle_type_id":"4","last_reported":1739988742,"current_range_meters":8800,"station_id":"ce4bh192rcd13ifvqdb0","pricing_plan_id":"cebpf4jnsgd1na2vs0mg"},{"bike_id":"09aaa4e6-5c76-4bb6-bb55-e0f312f04d0a","system_id":"levelo_inurba_marseille","lat":43.27953,"lon":5.41034,"is_reserved":false,"is_disabled":false,"rental_uris":{"android":"levelo://app?vid=09aaa4e6-5c76-4bb6-bb55-e0f312f04d0a","ios":"levelo://app?vid=09aaa4e6-5c76-4bb6-bb55-e0f312f04d0a"},"vehicle_type_id":"4","last_reported":1739988742,"current_range_meters":8800,"station_id":"ce4bhnp2rcd13ifvqh0g","pricing_plan_id":"cebpf4jnsgd1na2vs0mg"},{"bike_id":"344c6b96-37c1-4b77-a0e0-43c44b8b32e3","system_id":"levelo_inurba_marseille","lat":43.27051,"lon":5.39291,"is_reserved":false,"is_disabled":false,"rental_uris":{"android":"levelo://app?vid=344c6b96-37c1-4b77-a0e0-43c44b8b32e3","ios":"levelo://app?vid=344c6b96-37c1-4b77-a0e0-43c44b8b32e3"},"vehicle_type_id":"4","last_reported":1739988742,"current_range_meters":9200,"station_id":"","pricing_plan_id":"cebpf4jnsgd1na2vs0mg"},{"bike_id":"92b698f7-32bc-4834-b315-a8f6246911d7","system_id":"levelo_inurba_marseille","lat":43.27983,"lon":5.41652,"is_reserved":false,"is_disabled":false,"rental_uris":{"android":"levelo://app?vid=92b698f7-32bc-4834-b315-a8f6246911d7","ios":"levelo://app?vid=92b698f7-32bc-4834-b315-a8f6246911d7"},"vehicle_type_id":"4","last_reported":1739988742,"current_range_meters":9200,"station_id":"ce4bho12rcd13ifvqh1g","pricing_plan_id":"cebpf4jnsgd1na2vs0mg"},{"bike_id":"af4f93f3-f7ef-4ac4-8b54-c7109668ee45","system_id":"levelo_inurba_marseille","lat":43.24175,"lon":5.39729,"is_reserved":false,"is_disabled":false,"rental_uris":{"android":"levelo://app?vid=af4f93f3-f7ef-4ac4-8b54-c7109668ee45","ios":"levelo://app?vid=af4f93f3-f7ef-4ac4-8b54-c7109668ee45"},"vehicle_type_id":"4","last_reported":1739988742,"current_range_meters":9200,"station_id":"ce4bhn12rcd13ifvqgpg","pricing_plan_id":"cebpf4jnsgd1na2vs0mg"},{"bike_id":"90de8971-db22-4d27-8c08-4575a12860f9","system_id":"levelo_inurba_marseille","lat":43.27193,"lon":5.40984,"is_reserved":false,"is_disabled":false,"rental_uris":{"android":"levelo://app?vid=90de8971-db22-4d27-8c08-4575a12860f9","ios":"levelo://app?vid=90de8971-db22-4d27-8c08-4575a12860f9"},"vehicle_type_id":"4","last_reported":1739988742,"current_range_meters":9200,"station_id":"ce4bhl12rcd13ifvqgf0","pricing_plan_id":"cebpf4jnsgd1na2vs0mg"},{"bike_id":"4e1eedec-ed9f-4393-b363-5aa82bc35d39","system_id":"levelo_inurba_marseille","lat":43.27995,"lon":5.41672,"is_reserved":false,"is_disabled":false,"rental_uris":{"android":"levelo://app?vid=4e1eedec-ed9f-4393-b363-5aa82bc35d39","ios":"levelo://app?vid=4e1eedec-ed9f-4393-b363-5aa82bc35d39"},"vehicle_type_id":"4","last_reported":1739988742,"current_range_meters":9600,"station_id":"ce4bho12rcd13ifvqh1g","pricing_plan_id":"cebpf4jnsgd1na2vs0mg"},{"bike_id":"ea1519e7-b5fe-42ac-aa41-a04f66c121d4","system_id":"levelo_inurba_marseille","lat":43.24071,"lon":5.37806,"is_reserved":false,"is_disabled":false,"rental_uris":{"android":"levelo://app?vid=ea1519e7-b5fe-42ac-aa41-a04f66c121d4","ios":"levelo://app?vid=ea1519e7-b5fe-42ac-aa41-a04f66c121d4"},"vehicle_type_id":"4","last_reported":1739988742,"current_range_meters":9200,"station_id":"ce4bhnp2rcd13ifvqgvg","pricing_plan_id":"cebpf4jnsgd1na2vs0mg"},{"bike_id":"7f2b235d-b54a-4ba7-9884-b541f6dd74e7","system_id":"levelo_inurba_marseille","lat":43.27176,"lon":5.40993,"is_reserved":false,"is_disabled":false,"rental_uris":{"android":"levelo://app?vid=7f2b235d-b54a-4ba7-9884-b541f6dd74e7","ios":"levelo://app?vid=7f2b235d-b54a-4ba7-9884-b541f6dd74e7"},"vehicle_type_id":"4","last_reported":1739988742,"current_range_meters":9200,"station_id":"","pricing_plan_id":"cebpf4jnsgd1na2vs0mg"},{"bike_id":"fd56427f-eb60-4bcd-97ed-188add9f42d6","system_id":"levelo_inurba_marseille","lat":43.2919,"lon":5.39314,"is_reserved":false,"is_disabled":false,"rental_uris":{"android":"levelo://app?vid=fd56427f-eb60-4bcd-97ed-188add9f42d6","ios":"levelo://app?vid=fd56427f-eb60-4bcd-97ed-188add9f42d6"},"vehicle_type_id":"4","last_reported":1739988742,"current_range_meters":9600,"station_id":"ce4bh192rcd13ifvqdd0","pricing_plan_id":"cebpf4jnsgd1na2vs0mg"},{"bike_id":"1913ef47-7de4-47b7-bc13-20a7e4a2ac98","system_id":"levelo_inurba_marseille","lat":43.27941,"lon":5.41039,"is_reserved":false,"is_disabled":false,"rental_uris":{"android":"levelo://app?vid=1913ef47-7de4-47b7-bc13-20a7e4a2ac98","ios":"levelo://app?vid=1913ef47-7de4-47b7-bc13-20a7e4a2ac98"},"vehicle_type_id":"4","last_reported":1739988742,"current_range_meters":9600,"station_id":"ce4bhnp2rcd13ifvqh0g","pricing_plan_id":"cebpf4jnsgd1na2vs0mg"},{"bike_id":"ae734f18-7411-4107-a679-801d66a450a5","system_id":"levelo_inurba_marseille","lat":43.28426,"lon":5.34987,"is_reserved":false,"is_disabled":false,"rental_uris":{"android":"levelo://app?vid=ae734f18-7411-4107-a679-801d66a450a5","ios":"levelo://app?vid=ae734f18-7411-4107-a679-801d66a450a5"},"vehicle_type_id":"4","last_reported":1739988742,"current_range_meters":9600,"station_id":"ce4bhbh2rcd13ifvqepg","pricing_plan_id":"cebpf4jnsgd1na2vs0mg"},{"bike_id":"1e000085-0946-4bc3-b95b-b1fddf7465b0","system_id":"levelo_inurba_marseille","lat":43.28473,"lon":5.38427,"is_reserved":false,"is_disabled":false,"rental_uris":{"android":"levelo://app?vid=1e000085-0946-4bc3-b95b-b1fddf7465b0","ios":"levelo://app?vid=1e000085-0946-4bc3-b95b-b1fddf7465b0"},"vehicle_type_id":"4","last_reported":1739988742,"current_range_meters":9600,"station_id":"ce4bh512rcd13ifvqe3g","pricing_plan_id":"cebpf4jnsgd1na2vs0mg"},{"bike_id":"fb2dcb56-a41a-4581-91e7-410d4fea982c","system_id":"levelo_inurba_marseille","lat":43.2846,"lon":5.38418,"is_reserved":false,"is_disabled":false,"rental_uris":{"android":"levelo://app?vid=fb2dcb56-a41a-4581-91e7-410d4fea982c","ios":"levelo://app?vid=fb2dcb56-a41a-4581-91e7-410d4fea982c"},"vehicle_type_id":"4","last_reported":1739988742,"current_range_meters":9600,"station_id":"ce4bh512rcd13ifvqe3g","pricing_plan_id":"cebpf4jnsgd1na2vs0mg"},{"bike_id":"1904ca46-8486-4601-b8fe-953170208d13","system_id":"levelo_inurba_marseille","lat":43.24655,"lon":5.38882,"is_reserved":false,"is_disabled":false,"rental_uris":{"android":"levelo://app?vid=1904ca46-8486-4601-b8fe-953170208d13","ios":"levelo://app?vid=1904ca46-8486-4601-b8fe-953170208d13"},"vehicle_type_id":"4","last_reported":1739988742,"current_range_meters":9600,"station_id":"","pricing_plan_id":"cebpf4jnsgd1na2vs0mg"},{"bike_id":"9a5392cd-e826-4ec0-885f-029448a562b6","system_id":"levelo_inurba_marseille","lat":43.29191,"lon":5.39314,"is_reserved":false,"is_disabled":false,"rental_uris":{"android":"levelo://app?vid=9a5392cd-e826-4ec0-885f-029448a562b6","ios":"levelo://app?vid=9a5392cd-e826-4ec0-885f-029448a562b6"},"vehicle_type_id":"4","last_reported":1739988742,"current_range_meters":10000,"station_id":"ce4bh192rcd13ifvqdd0","pricing_plan_id":"cebpf4jnsgd1na2vs0mg"},{"bike_id":"4e196b90-ab7d-481d-9880-0bf62dd15dbf","system_id":"levelo_inurba_marseille","lat":43.2842,"lon":5.37518,"is_reserved":false,"is_disabled":false,"rental_uris":{"android":"levelo://app?vid=4e196b90-ab7d-481d-9880-0bf62dd15dbf","ios":"levelo://app?vid=4e196b90-ab7d-481d-9880-0bf62dd15dbf"},"vehicle_type_id":"4","last_reported":1739988742,"current_range_meters":10000,"station_id":"ce4bh412rcd13ifvqds0","pricing_plan_id":"cebpf4jnsgd1na2vs0mg"},{"bike_id":"f027fe38-3f5d-42fa-b16a-68ca60104c09","system_id":"levelo_inurba_marseille","lat":43.24168,"lon":5.36402,"is_reserved":false,"is_disabled":false,"rental_uris":{"android":"levelo://app?vid=f027fe38-3f5d-42fa-b16a-68ca60104c09","ios":"levelo://app?vid=f027fe38-3f5d-42fa-b16a-68ca60104c09"},"vehicle_type_id":"4","last_reported":1739988742,"current_range_meters":10000,"station_id":"","pricing_plan_id":"cebpf4jnsgd1na2vs0mg"},{"bike_id":"bff12669-4b9e-4a23-8eef-f7c381cbcf5e","system_id":"levelo_inurba_marseille","lat":43.28485,"lon":5.38418,"is_reserved":false,"is_disabled":false,"rental_uris":{"android":"levelo://app?vid=bff12669-4b9e-4a23-8eef-f7c381cbcf5e","ios":"levelo://app?vid=bff12669-4b9e-4a23-8eef-f7c381cbcf5e"},"vehicle_type_id":"4","last_reported":1739988742,"current_range_meters":10000,"station_id":"ce4bh512rcd13ifvqe3g","pricing_plan_id":"cebpf4jnsgd1na2vs0mg"},{"bike_id":"f8a1eefe-5190-4327-95c3-8138f343fe57","system_id":"levelo_inurba_marseille","lat":43.31165,"lon":5.3935,"is_reserved":false,"is_disabled":false,"rental_uris":{"android":"levelo://app?vid=f8a1eefe-5190-4327-95c3-8138f343fe57","ios":"levelo://app?vid=f8a1eefe-5190-4327-95c3-8138f343fe57"},"vehicle_type_id":"4","last_reported":1739988742,"current_range_meters":10000,"station_id":"","pricing_plan_id":"cebpf4jnsgd1na2vs0mg"},{"bike_id":"ba0a4dbe-d370-492e-a789-44c6ef69c02b","system_id":"levelo_inurba_marseille","lat":43.28618,"lon":5.351,"is_reserved":false,"is_disabled":true,"rental_uris":{"android":"levelo://app?vid=ba0a4dbe-d370-492e-a789-44c6ef69c02b","ios":"levelo://app?vid=ba0a4dbe-d370-492e-a789-44c6ef69c02b"},"vehicle_type_id":"4","last_reported":1739988742,"current_range_meters":10800,"station_id":"ce4bhch2rcd13ifvqeug","pricing_plan_id":"cebpf4jnsgd1na2vs0mg"},{"bike_id":"63c4cf47-dbff-4d5e-a88a-080b99df99de","system_id":"levelo_inurba_marseille","lat":43.29521,"lon":5.38916,"is_reserved":false,"is_disabled":true,"rental_uris":{"android":"levelo://app?vid=63c4cf47-dbff-4d5e-a88a-080b99df99de","ios":"levelo://app?vid=63c4cf47-dbff-4d5e-a88a-080b99df99de"},"vehicle_type_id":"4","last_reported":1739988742,"current_range_meters":10800,"station_id":"","pricing_plan_id":"cebpf4jnsgd1na2vs0mg"},{"bike_id":"1d63a175-89ef-49ff-9ead-dfe9ed6c22cf","system_id":"levelo_inurba_marseille","lat":43.24693,"lon":5.39437,"is_reserved":false,"is_disabled":false,"rental_uris":{"android":"levelo://app?vid=1d63a175-89ef-49ff-9ead-dfe9ed6c22cf","ios":"levelo://app?vid=1d63a175-89ef-49ff-9ead-dfe9ed6c22cf"},"vehicle_type_id":"4","last_reported":1739988742,"current_range_meters":10800,"station_id":"","pricing_plan_id":"cebpf4jnsgd1na2vs0mg"},{"bike_id":"be947b6c-88b5-481e-82bf-79f468893bf9","system_id":"levelo_inurba_marseille","lat":43.29868,"lon":5.39735,"is_reserved":false,"is_disabled":false,"rental_uris":{"android":"levelo://app?vid=be947b6c-88b5-481e-82bf-79f468893bf9","ios":"levelo://app?vid=be947b6c-88b5-481e-82bf-79f468893bf9"},"vehicle_type_id":"4","last_reported":1739988742,"current_range_meters":10800,"station_id":"ce4bh0h2rcd13ifvqd50","pricing_plan_id":"cebpf4jnsgd1na2vs0mg"},{"bike_id":"ab95c1d0-476b-4766-ad22-e79aec564a4f","system_id":"levelo_inurba_marseille","lat":43.29632,"lon":5.40595,"is_reserved":false,"is_disabled":false,"rental_uris":{"android":"levelo://app?vid=ab95c1d0-476b-4766-ad22-e79aec564a4f","ios":"levelo://app?vid=ab95c1d0-476b-4766-ad22-e79aec564a4f"},"vehicle_type_id":"4","last_reported":1739988742,"current_range_meters":10800,"station_id":"ce4bh0h2rcd13ifvqd60","pricing_plan_id":"cebpf4jnsgd1na2vs0mg"},{"bike_id":"59b7a283-a522-4b82-aa17-ab40997e3d56","system_id":"levelo_inurba_marseille","lat":43.31696,"lon":5.40445,"is_reserved":false,"is_disabled":false,"rental_uris":{"android":"levelo://app?vid=59b7a283-a522-4b82-aa17-ab40997e3d56","ios":"levelo://app?vid=59b7a283-a522-4b82-aa17-ab40997e3d56"},"vehicle_type_id":"4","last_reported":1739988742,"current_range_meters":10800,"station_id":"ce4bh012rcd13ifvqd00","pricing_plan_id":"cebpf4jnsgd1na2vs0mg"},{"bike_id":"0b1a3b32-459a-4ff9-a388-d16482304482","system_id":"levelo_inurba_marseille","lat":43.28007,"lon":5.39985,"is_reserved":false,"is_disabled":false,"rental_uris":{"android":"levelo://app?vid=0b1a3b32-459a-4ff9-a388-d16482304482","ios":"levelo://app?vid=0b1a3b32-459a-4ff9-a388-d16482304482"},"vehicle_type_id":"4","last_reported":1739988742,"current_range_meters":11200,"station_id":"","pricing_plan_id":"cebpf4jnsgd1na2vs0mg"},{"bike_id":"a00fb5cd-e0d2-4f96-befb-5275c0df0c87","system_id":"levelo_inurba_marseille","lat":43.27987,"lon":5.41655,"is_reserved":false,"is_disabled":false,"rental_uris":{"android":"levelo://app?vid=a00fb5cd-e0d2-4f96-befb-5275c0df0c87","ios":"levelo://app?vid=a00fb5cd-e0d2-4f96-befb-5275c0df0c87"},"vehicle_type_id":"4","last_reported":1739988742,"current_range_meters":11200,"station_id":"ce4bho12rcd13ifvqh1g","pricing_plan_id":"cebpf4jnsgd1na2vs0mg"},{"bike_id":"c67fb496-8441-458a-af2d-8f07c087bdd0","system_id":"levelo_inurba_marseille","lat":43.24167,"lon":5.36402,"is_reserved":false,"is_disabled":true,"rental_uris":{"android":"levelo://app?vid=c67fb496-8441-458a-af2d-8f07c087bdd0","ios":"levelo://app?vid=c67fb496-8441-458a-af2d-8f07c087bdd0"},"vehicle_type_id":"4","last_reported":1739988742,"current_range_meters":11200,"station_id":"","pricing_plan_id":"cebpf4jnsgd1na2vs0mg"},{"bike_id":"220aa7fc-9ea1-41f9-92ea-9b99a734b958","system_id":"levelo_inurba_marseille","lat":43.29534,"lon":5.39047,"is_reserved":false,"is_disabled":false,"rental_uris":{"android":"levelo://app?vid=220aa7fc-9ea1-41f9-92ea-9b99a734b958","ios":"levelo://app?vid=220aa7fc-9ea1-41f9-92ea-9b99a734b958"},"vehicle_type_id":"4","last_reported":1739988742,"current_range_meters":11200,"station_id":"ce4bh3p2rcd13ifvqdp0","pricing_plan_id":"cebpf4jnsgd1na2vs0mg"},{"bike_id":"d946f793-0e78-48f8-a078-376b8f4868d7","system_id":"levelo_inurba_marseille","lat":43.27377,"lon":5.36262,"is_reserved":false,"is_disabled":false,"rental_uris":{"android":"levelo://app?vid=d946f793-0e78-48f8-a078-376b8f4868d7","ios":"levelo://app?vid=d946f793-0e78-48f8-a078-376b8f4868d7"},"vehicle_type_id":"4","last_reported":1739988742,"current_range_meters":11200,"station_id":"","pricing_plan_id":"cebpf4jnsgd1na2vs0mg"},{"bike_id":"cf23a373-a80d-4ee7-b8ad-6f12738201c2","system_id":"levelo_inurba_marseille","lat":43.28698,"lon":5.39989,"is_reserved":false,"is_disabled":false,"rental_uris":{"android":"levelo://app?vid=cf23a373-a80d-4ee7-b8ad-6f12738201c2","ios":"levelo://app?vid=cf23a373-a80d-4ee7-b8ad-6f12738201c2"},"vehicle_type_id":"4","last_reported":1739988742,"current_range_meters":10800,"station_id":"ce4bho92rcd13ifvqh3g","pricing_plan_id":"cebpf4jnsgd1na2vs0mg"},{"bike_id":"81b56bef-84bf-4224-afe4-772001018859","system_id":"levelo_inurba_marseille","lat":43.25083,"lon":5.39523,"is_reserved":false,"is_disabled":false,"rental_uris":{"android":"levelo://app?vid=81b56bef-84bf-4224-afe4-772001018859","ios":"levelo://app?vid=81b56bef-84bf-4224-afe4-772001018859"},"vehicle_type_id":"4","last_reported":1739988742,"current_range_meters":11600,"station_id":"ce4bhm12rcd13ifvqgkg","pricing_plan_id":"cebpf4jnsgd1na2vs0mg"},{"bike_id":"e28843be-a33b-41ca-b991-9b53cffb4db8","system_id":"levelo_inurba_marseille","lat":43.28151,"lon":5.42648,"is_reserved":false,"is_disabled":false,"rental_uris":{"android":"levelo://app?vid=e28843be-a33b-41ca-b991-9b53cffb4db8","ios":"levelo://app?vid=e28843be-a33b-41ca-b991-9b53cffb4db8"},"vehicle_type_id":"4","last_reported":1739988742,"current_range_meters":11600,"station_id":"ce4bhnh2rcd13ifvqgug","pricing_plan_id":"cebpf4jnsgd1na2vs0mg"},{"bike_id":"24dd12c1-4d8a-40c0-b521-a98d2d462c41","system_id":"levelo_inurba_marseille","lat":43.24162,"lon":5.36398,"is_reserved":false,"is_disabled":false,"rental_uris":{"android":"levelo://app?vid=24dd12c1-4d8a-40c0-b521-a98d2d462c41","ios":"levelo://app?vid=24dd12c1-4d8a-40c0-b521-a98d2d462c41"},"vehicle_type_id":"4","last_reported":1739988742,"current_range_meters":11600,"station_id":"","pricing_plan_id":"cebpf4jnsgd1na2vs0mg"},{"bike_id":"26779595-c177-40e8-a988-d5570ab1009d","system_id":"levelo_inurba_marseille","lat":43.29177,"lon":5.39759,"is_reserved":false,"is_disabled":false,"rental_uris":{"android":"levelo://app?vid=26779595-c177-40e8-a988-d5570ab1009d","ios":"levelo://app?vid=26779595-c177-40e8-a988-d5570ab1009d"},"vehicle_type_id":"4","last_reported":1739988742,"current_range_meters":11600,"station_id":"","pricing_plan_id":"cebpf4jnsgd1na2vs0mg"},{"bike_id":"a3211d75-8dbf-4c33-8c06-3ecfe14c9b00","system_id":"levelo_inurba_marseille","lat":43.29903,"lon":5.38133,"is_reserved":false,"is_disabled":false,"rental_uris":{"android":"levelo://app?vid=a3211d75-8dbf-4c33-8c06-3ecfe14c9b00","ios":"levelo://app?vid=a3211d75-8dbf-4c33-8c06-3ecfe14c9b00"},"vehicle_type_id":"4","last_reported":1739988742,"current_range_meters":11600,"station_id":"ce4bgj12rcd13ifvqbc0","pricing_plan_id":"cebpf4jnsgd1na2vs0mg"},{"bike_id":"c45912a1-7efc-44ce-b16f-8bf638730025","system_id":"levelo_inurba_marseille","lat":43.295134,"lon":5.374995,"is_reserved":false,"is_disabled":false,"rental_uris":{"android":"levelo://app?vid=c45912a1-7efc-44ce-b16f-8bf638730025","ios":"levelo://app?vid=c45912a1-7efc-44ce-b16f-8bf638730025"},"vehicle_type_id":"4","last_reported":1739988742,"current_range_meters":11200,"station_id":"ce4bgkh2rcd13ifvqbk0","pricing_plan_id":"cebpf4jnsgd1na2vs0mg"},{"bike_id":"6190718c-11e1-45f5-a11f-45c2b2fb877e","system_id":"levelo_inurba_marseille","lat":43.25578,"lon":5.38229,"is_reserved":false,"is_disabled":false,"rental_uris":{"android":"levelo://app?vid=6190718c-11e1-45f5-a11f-45c2b2fb877e","ios":"levelo://app?vid=6190718c-11e1-45f5-a11f-45c2b2fb877e"},"vehicle_type_id":"4","last_reported":1739988742,"current_range_meters":12000,"station_id":"ce4bhih2rcd13ifvqfs0","pricing_plan_id":"cebpf4jnsgd1na2vs0mg"},{"bike_id":"3fa131c8-d3bf-4fb9-b400-1daf371dcaa7","system_id":"levelo_inurba_marseille","lat":43.27177,"lon":5.40993,"is_reserved":false,"is_disabled":false,"rental_uris":{"android":"levelo://app?vid=3fa131c8-d3bf-4fb9-b400-1daf371dcaa7","ios":"levelo://app?vid=3fa131c8-d3bf-4fb9-b400-1daf371dcaa7"},"vehicle_type_id":"4","last_reported":1739988742,"current_range_meters":12000,"station_id":"ce4bhl12rcd13ifvqgf0","pricing_plan_id":"cebpf4jnsgd1na2vs0mg"},{"bike_id":"34d14ec0-9a1d-4d07-8158-52ff5d0c0371","system_id":"levelo_inurba_marseille","lat":43.29421,"lon":5.38043,"is_reserved":false,"is_disabled":false,"rental_uris":{"android":"levelo://app?vid=34d14ec0-9a1d-4d07-8158-52ff5d0c0371","ios":"levelo://app?vid=34d14ec0-9a1d-4d07-8158-52ff5d0c0371"},"vehicle_type_id":"4","last_reported":1739988742,"current_range_meters":12000,"station_id":"","pricing_plan_id":"cebpf4jnsgd1na2vs0mg"},{"bike_id":"add7afb7-3a57-44a8-a7c0-c9dfa4545910","system_id":"levelo_inurba_marseille","lat":43.30118,"lon":5.37419,"is_reserved":false,"is_disabled":false,"rental_uris":{"android":"levelo://app?vid=add7afb7-3a57-44a8-a7c0-c9dfa4545910","ios":"levelo://app?vid=add7afb7-3a57-44a8-a7c0-c9dfa4545910"},"vehicle_type_id":"4","last_reported":1739988742,"current_range_meters":12000,"station_id":"ce4bgs92rcd13ifvqcc0","pricing_plan_id":"cebpf4jnsgd1na2vs0mg"},{"bike_id":"25b882a8-978b-479f-b5d8-0b9187134f9b","system_id":"levelo_inurba_marseille","lat":43.29254,"lon":5.38436,"is_reserved":false,"is_disabled":false,"rental_uris":{"android":"levelo://app?vid=25b882a8-978b-479f-b5d8-0b9187134f9b","ios":"levelo://app?vid=25b882a8-978b-479f-b5d8-0b9187134f9b"},"vehicle_type_id":"4","last_reported":1739988742,"current_range_meters":12000,"station_id":"ce4bh692rcd13ifvqea0","pricing_plan_id":"cebpf4jnsgd1na2vs0mg"},{"bike_id":"2d501f2b-876d-4ebc-927d-8c42a258944b","system_id":"levelo_inurba_marseille","lat":43.271808,"lon":5.40995,"is_reserved":false,"is_disabled":false,"rental_uris":{"android":"levelo://app?vid=2d501f2b-876d-4ebc-927d-8c42a258944b","ios":"levelo://app?vid=2d501f2b-876d-4ebc-927d-8c42a258944b"},"vehicle_type_id":"4","last_reported":1739988742,"current_range_meters":12000,"station_id":"ce4bhl12rcd13ifvqgf0","pricing_plan_id":"cebpf4jnsgd1na2vs0mg"},{"bike_id":"56c5862f-5605-4865-9d8d-e2726554d6b1","system_id":"levelo_inurba_marseille","lat":43.30251,"lon":5.40038,"is_reserved":false,"is_disabled":false,"rental_uris":{"android":"levelo://app?vid=56c5862f-5605-4865-9d8d-e2726554d6b1","ios":"levelo://app?vid=56c5862f-5605-4865-9d8d-e2726554d6b1"},"vehicle_type_id":"4","last_reported":1739988742,"current_range_meters":12000,"station_id":"ce4bgvh2rcd13ifvqcs0","pricing_plan_id":"cebpf4jnsgd1na2vs0mg"},{"bike_id":"0dd0cf86-b0b4-4e82-9ad8-1b09307b0b44","system_id":"levelo_inurba_marseille","lat":43.31246,"lon":5.4017,"is_reserved":false,"is_disabled":false,"rental_uris":{"android":"levelo://app?vid=0dd0cf86-b0b4-4e82-9ad8-1b09307b0b44","ios":"levelo://app?vid=0dd0cf86-b0b4-4e82-9ad8-1b09307b0b44"},"vehicle_type_id":"4","last_reported":1739988742,"current_range_meters":12000,"station_id":"ce4bh092rcd13ifvqd30","pricing_plan_id":"cebpf4jnsgd1na2vs0mg"},{"bike_id":"79b3df49-fc42-4374-8de7-1ea3841d735e","system_id":"levelo_inurba_marseille","lat":43.28616,"lon":5.35106,"is_reserved":false,"is_disabled":false,"rental_uris":{"android":"levelo://app?vid=79b3df49-fc42-4374-8de7-1ea3841d735e","ios":"levelo://app?vid=79b3df49-fc42-4374-8de7-1ea3841d735e"},"vehicle_type_id":"4","last_reported":1739988742,"current_range_meters":12000,"station_id":"ce4bhch2rcd13ifvqeug","pricing_plan_id":"cebpf4jnsgd1na2vs0mg"},{"bike_id":"c323e2ff-640f-47b0-bbfe-fac4271a621c","system_id":"levelo_inurba_marseille","lat":43.28422,"lon":5.34983,"is_reserved":false,"is_disabled":true,"rental_uris":{"android":"levelo://app?vid=c323e2ff-640f-47b0-bbfe-fac4271a621c","ios":"levelo://app?vid=c323e2ff-640f-47b0-bbfe-fac4271a621c"},"vehicle_type_id":"4","last_reported":1739988742,"current_range_meters":12400,"station_id":"ce4bhbh2rcd13ifvqepg","pricing_plan_id":"cebpf4jnsgd1na2vs0mg"},{"bike_id":"ea3b584c-6aca-474a-9def-e23ad4fb80fe","system_id":"levelo_inurba_marseille","lat":43.30152,"lon":5.39846,"is_reserved":false,"is_disabled":false,"rental_uris":{"android":"levelo://app?vid=ea3b584c-6aca-474a-9def-e23ad4fb80fe","ios":"levelo://app?vid=ea3b584c-6aca-474a-9def-e23ad4fb80fe"},"vehicle_type_id":"4","last_reported":1739988742,"current_range_meters":12400,"station_id":"ce4bh0h2rcd13ifvqd40","pricing_plan_id":"cebpf4jnsgd1na2vs0mg"},{"bike_id":"e2596add-e568-49b6-a063-b6868f5c61f8","system_id":"levelo_inurba_marseille","lat":43.24802,"lon":5.37448,"is_reserved":false,"is_disabled":false,"rental_uris":{"android":"levelo://app?vid=e2596add-e568-49b6-a063-b6868f5c61f8","ios":"levelo://app?vid=e2596add-e568-49b6-a063-b6868f5c61f8"},"vehicle_type_id":"4","last_reported":1739988742,"current_range_meters":12400,"station_id":"ce4bhgh2rcd13ifvqfb0","pricing_plan_id":"cebpf4jnsgd1na2vs0mg"},{"bike_id":"952026e3-eccb-4b64-8da8-0cde80d00ac7","system_id":"levelo_inurba_marseille","lat":43.27813,"lon":5.40709,"is_reserved":false,"is_disabled":false,"rental_uris":{"android":"levelo://app?vid=952026e3-eccb-4b64-8da8-0cde80d00ac7","ios":"levelo://app?vid=952026e3-eccb-4b64-8da8-0cde80d00ac7"},"vehicle_type_id":"4","last_reported":1739988742,"current_range_meters":12400,"station_id":"ce4bhnh2rcd13ifvqgtg","pricing_plan_id":"cebpf4jnsgd1na2vs0mg"},{"bike_id":"fc971b16-bef3-4b6d-813c-ffc8ffa48842","system_id":"levelo_inurba_marseille","lat":43.2841,"lon":5.34986,"is_reserved":false,"is_disabled":true,"rental_uris":{"android":"levelo://app?vid=fc971b16-bef3-4b6d-813c-ffc8ffa48842","ios":"levelo://app?vid=fc971b16-bef3-4b6d-813c-ffc8ffa48842"},"vehicle_type_id":"4","last_reported":1739988742,"current_range_meters":12400,"station_id":"","pricing_plan_id":"cebpf4jnsgd1na2vs0mg"},{"bike_id":"24cbb038-96b2-49f0-8942-44ca22bcf811","system_id":"levelo_inurba_marseille","lat":43.26696,"lon":5.38236,"is_reserved":false,"is_disabled":false,"rental_uris":{"android":"levelo://app?vid=24cbb038-96b2-49f0-8942-44ca22bcf811","ios":"levelo://app?vid=24cbb038-96b2-49f0-8942-44ca22bcf811"},"vehicle_type_id":"4","last_reported":1739988742,"current_range_meters":12400,"station_id":"","pricing_plan_id":"cebpf4jnsgd1na2vs0mg"},{"bike_id":"b64778c2-2434-4409-b125-e965a1fd469a","system_id":"levelo_inurba_marseille","lat":43.30298,"lon":5.36694,"is_reserved":false,"is_disabled":false,"rental_uris":{"android":"levelo://app?vid=b64778c2-2434-4409-b125-e965a1fd469a","ios":"levelo://app?vid=b64778c2-2434-4409-b125-e965a1fd469a"},"vehicle_type_id":"4","last_reported":1739988742,"current_range_meters":12400,"station_id":"ce4bgs12rcd13ifvqcag","pricing_plan_id":"cebpf4jnsgd1na2vs0mg"},{"bike_id":"5180f318-4948-4085-aaf1-5f3160b57dbe","system_id":"levelo_inurba_marseille","lat":43.2761,"lon":5.36112,"is_reserved":false,"is_disabled":true,"rental_uris":{"android":"levelo://app?vid=5180f318-4948-4085-aaf1-5f3160b57dbe","ios":"levelo://app?vid=5180f318-4948-4085-aaf1-5f3160b57dbe"},"vehicle_type_id":"4","last_reported":1739988742,"current_range_meters":12400,"station_id":"","pricing_plan_id":"cebpf4jnsgd1na2vs0mg"},{"bike_id":"5089bb88-a0cd-4434-a1a9-f3d5b67361c6","system_id":"levelo_inurba_marseille","lat":43.24365,"lon":5.38743,"is_reserved":false,"is_disabled":false,"rental_uris":{"android":"levelo://app?vid=5089bb88-a0cd-4434-a1a9-f3d5b67361c6","ios":"levelo://app?vid=5089bb88-a0cd-4434-a1a9-f3d5b67361c6"},"vehicle_type_id":"4","last_reported":1739988742,"current_range_meters":12800,"station_id":"","pricing_plan_id":"cebpf4jnsgd1na2vs0mg"},{"bike_id":"c8a53107-ae25-4a68-b38d-8c59dce22215","system_id":"levelo_inurba_marseille","lat":43.28808,"lon":5.43854,"is_reserved":false,"is_disabled":false,"rental_uris":{"android":"levelo://app?vid=c8a53107-ae25-4a68-b38d-8c59dce22215","ios":"levelo://app?vid=c8a53107-ae25-4a68-b38d-8c59dce22215"},"vehicle_type_id":"4","last_reported":1739988742,"current_range_meters":12800,"station_id":"","pricing_plan_id":"cebpf4jnsgd1na2vs0mg"},{"bike_id":"7e92b6ba-0bde-4467-9679-a632c05baab0","system_id":"levelo_inurba_marseille","lat":43.27955,"lon":5.41039,"is_reserved":false,"is_disabled":false,"rental_uris":{"android":"levelo://app?vid=7e92b6ba-0bde-4467-9679-a632c05baab0","ios":"levelo://app?vid=7e92b6ba-0bde-4467-9679-a632c05baab0"},"vehicle_type_id":"4","last_reported":1739988742,"current_range_meters":12800,"station_id":"","pricing_plan_id":"cebpf4jnsgd1na2vs0mg"},{"bike_id":"8b9feccc-757b-43e2-a44e-b480ea8b156a","system_id":"levelo_inurba_marseille","lat":43.28482,"lon":5.38429,"is_reserved":false,"is_disabled":false,"rental_uris":{"android":"levelo://app?vid=8b9feccc-757b-43e2-a44e-b480ea8b156a","ios":"levelo://app?vid=8b9feccc-757b-43e2-a44e-b480ea8b156a"},"vehicle_type_id":"4","last_reported":1739988742,"current_range_meters":12800,"station_id":"ce4bh512rcd13ifvqe3g","pricing_plan_id":"cebpf4jnsgd1na2vs0mg"},{"bike_id":"e6277667-d325-4807-9b3f-c6bd3e040987","system_id":"levelo_inurba_marseille","lat":43.29692,"lon":5.3729,"is_reserved":false,"is_disabled":false,"rental_uris":{"android":"levelo://app?vid=e6277667-d325-4807-9b3f-c6bd3e040987","ios":"levelo://app?vid=e6277667-d325-4807-9b3f-c6bd3e040987"},"vehicle_type_id":"4","last_reported":1739988742,"current_range_meters":12800,"station_id":"ce4bgk12rcd13ifvqbj0","pricing_plan_id":"cebpf4jnsgd1na2vs0mg"},{"bike_id":"f3816d08-777f-4e21-83d1-85e6b14a4342","system_id":"levelo_inurba_marseille","lat":43.30083,"lon":5.38791,"is_reserved":false,"is_disabled":false,"rental_uris":{"android":"levelo://app?vid=f3816d08-777f-4e21-83d1-85e6b14a4342","ios":"levelo://app?vid=f3816d08-777f-4e21-83d1-85e6b14a4342"},"vehicle_type_id":"4","last_reported":1739988742,"current_range_meters":12800,"station_id":"ce4bgjh2rcd13ifvqbf0","pricing_plan_id":"cebpf4jnsgd1na2vs0mg"},{"bike_id":"ae8b38ba-b786-4de2-81b4-4fdb22432575","system_id":"levelo_inurba_marseille","lat":43.29023,"lon":5.37565,"is_reserved":false,"is_disabled":false,"rental_uris":{"android":"levelo://app?vid=ae8b38ba-b786-4de2-81b4-4fdb22432575","ios":"levelo://app?vid=ae8b38ba-b786-4de2-81b4-4fdb22432575"},"vehicle_type_id":"4","last_reported":1739988742,"current_range_meters":13600,"station_id":"ce4bh692rcd13ifvqe90","pricing_plan_id":"cebpf4jnsgd1na2vs0mg"},{"bike_id":"516bafe0-5ae1-4584-8a28-800d99267cec","system_id":"levelo_inurba_marseille","lat":43.27949,"lon":5.41032,"is_reserved":false,"is_disabled":false,"rental_uris":{"android":"levelo://app?vid=516bafe0-5ae1-4584-8a28-800d99267cec","ios":"levelo://app?vid=516bafe0-5ae1-4584-8a28-800d99267cec"},"vehicle_type_id":"4","last_reported":1739988742,"current_range_meters":13600,"station_id":"ce4bhnp2rcd13ifvqh0g","pricing_plan_id":"cebpf4jnsgd1na2vs0mg"},{"bike_id":"3860bb6a-6016-4bfe-b3c5-5b64398b66ef","system_id":"levelo_inurba_marseille","lat":43.29514,"lon":5.39413,"is_reserved":false,"is_disabled":false,"rental_uris":{"android":"levelo://app?vid=3860bb6a-6016-4bfe-b3c5-5b64398b66ef","ios":"levelo://app?vid=3860bb6a-6016-4bfe-b3c5-5b64398b66ef"},"vehicle_type_id":"4","last_reported":1739988742,"current_range_meters":13600,"station_id":"ce4bh292rcd13ifvqdf0","pricing_plan_id":"cebpf4jnsgd1na2vs0mg"},{"bike_id":"8477ce0b-8eac-49ba-a80f-a9d7aa38f076","system_id":"levelo_inurba_marseille","lat":43.2954,"lon":5.38547,"is_reserved":false,"is_disabled":false,"rental_uris":{"android":"levelo://app?vid=8477ce0b-8eac-49ba-a80f-a9d7aa38f076","ios":"levelo://app?vid=8477ce0b-8eac-49ba-a80f-a9d7aa38f076"},"vehicle_type_id":"4","last_reported":1739988742,"current_range_meters":13600,"station_id":"ce4bgih2rcd13ifvqba0","pricing_plan_id":"cebpf4jnsgd1na2vs0mg"},{"bike_id":"c0168e31-fae3-4de2-99c6-a9bad0597f6b","system_id":"levelo_inurba_marseille","lat":43.2953,"lon":5.385425,"is_reserved":false,"is_disabled":false,"rental_uris":{"android":"levelo://app?vid=c0168e31-fae3-4de2-99c6-a9bad0597f6b","ios":"levelo://app?vid=c0168e31-fae3-4de2-99c6-a9bad0597f6b"},"vehicle_type_id":"4","last_reported":1739988742,"current_range_meters":14000,"station_id":"ce4bgih2rcd13ifvqba0","pricing_plan_id":"cebpf4jnsgd1na2vs0mg"},{"bike_id":"5f9ede52-c720-4107-a864-980fb2608395","system_id":"levelo_inurba_marseille","lat":43.24098,"lon":5.38673,"is_reserved":false,"is_disabled":false,"rental_uris":{"android":"levelo://app?vid=5f9ede52-c720-4107-a864-980fb2608395","ios":"levelo://app?vid=5f9ede52-c720-4107-a864-980fb2608395"},"vehicle_type_id":"4","last_reported":1739988742,"current_range_meters":14000,"station_id":"ce4bhb92rcd13ifvqen0","pricing_plan_id":"cebpf4jnsgd1na2vs0mg"},{"bike_id":"8e168360-906c-46d1-a5e8-2f11e37e18f2","system_id":"levelo_inurba_marseille","lat":43.29218,"lon":5.36074,"is_reserved":false,"is_disabled":false,"rental_uris":{"android":"levelo://app?vid=8e168360-906c-46d1-a5e8-2f11e37e18f2","ios":"levelo://app?vid=8e168360-906c-46d1-a5e8-2f11e37e18f2"},"vehicle_type_id":"4","last_reported":1739988742,"current_range_meters":14000,"station_id":"ce4bhbh2rcd13ifvqeqg","pricing_plan_id":"cebpf4jnsgd1na2vs0mg"},{"bike_id":"cad50eb3-3d1a-45e1-aeeb-37cbfcb135ef","system_id":"levelo_inurba_marseille","lat":43.28994,"lon":5.37828,"is_reserved":false,"is_disabled":false,"rental_uris":{"android":"levelo://app?vid=cad50eb3-3d1a-45e1-aeeb-37cbfcb135ef","ios":"levelo://app?vid=cad50eb3-3d1a-45e1-aeeb-37cbfcb135ef"},"vehicle_type_id":"4","last_reported":1739988742,"current_range_meters":14000,"station_id":"ce4bh9p2rcd13ifvqed0","pricing_plan_id":"cebpf4jnsgd1na2vs0mg"},{"bike_id":"ded9d1de-3794-48a3-af6d-6ec074b97cbd","system_id":"levelo_inurba_marseille","lat":43.29877,"lon":5.39735,"is_reserved":false,"is_disabled":false,"rental_uris":{"android":"levelo://app?vid=ded9d1de-3794-48a3-af6d-6ec074b97cbd","ios":"levelo://app?vid=ded9d1de-3794-48a3-af6d-6ec074b97cbd"},"vehicle_type_id":"4","last_reported":1739988742,"current_range_meters":14000,"station_id":"","pricing_plan_id":"cebpf4jnsgd1na2vs0mg"},{"bike_id":"9cfc4cc3-b27b-4b5a-8200-8f933e7c4ef5","system_id":"levelo_inurba_marseille","lat":43.32374,"lon":5.38878,"is_reserved":false,"is_disabled":false,"rental_uris":{"android":"levelo://app?vid=9cfc4cc3-b27b-4b5a-8200-8f933e7c4ef5","ios":"levelo://app?vid=9cfc4cc3-b27b-4b5a-8200-8f933e7c4ef5"},"vehicle_type_id":"4","last_reported":1739988742,"current_range_meters":14000,"station_id":"ce4bhqp2rcd13ifvqhog","pricing_plan_id":"cebpf4jnsgd1na2vs0mg"},{"bike_id":"e02395d3-84c6-43ba-8a54-9d8df343ef8c","system_id":"levelo_inurba_marseille","lat":43.29414,"lon":5.38623,"is_reserved":false,"is_disabled":true,"rental_uris":{"android":"levelo://app?vid=e02395d3-84c6-43ba-8a54-9d8df343ef8c","ios":"levelo://app?vid=e02395d3-84c6-43ba-8a54-9d8df343ef8c"},"vehicle_type_id":"4","last_reported":1739988742,"current_range_meters":14000,"station_id":"ce4bh2h2rcd13ifvqdh0","pricing_plan_id":"cebpf4jnsgd1na2vs0mg"},{"bike_id":"a0af3547-0f5a-4ee7-a39d-23ed992db956","system_id":"levelo_inurba_marseille","lat":43.23418,"lon":5.40452,"is_reserved":false,"is_disabled":false,"rental_uris":{"android":"levelo://app?vid=a0af3547-0f5a-4ee7-a39d-23ed992db956","ios":"levelo://app?vid=a0af3547-0f5a-4ee7-a39d-23ed992db956"},"vehicle_type_id":"4","last_reported":1739988742,"current_range_meters":14400,"station_id":"","pricing_plan_id":"cebpf4jnsgd1na2vs0mg"},{"bike_id":"ecf026df-2bc3-4b40-a624-0ee840e0bf6b","system_id":"levelo_inurba_marseille","lat":43.29975,"lon":5.38508,"is_reserved":false,"is_disabled":false,"rental_uris":{"android":"levelo://app?vid=ecf026df-2bc3-4b40-a624-0ee840e0bf6b","ios":"levelo://app?vid=ecf026df-2bc3-4b40-a624-0ee840e0bf6b"},"vehicle_type_id":"4","last_reported":1739988742,"current_range_meters":14400,"station_id":"ce4bgj92rcd13ifvqbd0","pricing_plan_id":"cebpf4jnsgd1na2vs0mg"},{"bike_id":"d03e0e9a-6983-49e4-b1c4-ff58684abf48","system_id":"levelo_inurba_marseille","lat":43.2926,"lon":5.38437,"is_reserved":false,"is_disabled":false,"rental_uris":{"android":"levelo://app?vid=d03e0e9a-6983-49e4-b1c4-ff58684abf48","ios":"levelo://app?vid=d03e0e9a-6983-49e4-b1c4-ff58684abf48"},"vehicle_type_id":"4","last_reported":1739988742,"current_range_meters":14400,"station_id":"ce4bh692rcd13ifvqea0","pricing_plan_id":"cebpf4jnsgd1na2vs0mg"},{"bike_id":"f5f7c6b1-ac7b-4c52-8fac-fd91ff08ab83","system_id":"levelo_inurba_marseille","lat":43.29249,"lon":5.38437,"is_reserved":false,"is_disabled":true,"rental_uris":{"android":"levelo://app?vid=f5f7c6b1-ac7b-4c52-8fac-fd91ff08ab83","ios":"levelo://app?vid=f5f7c6b1-ac7b-4c52-8fac-fd91ff08ab83"},"vehicle_type_id":"4","last_reported":1739988742,"current_range_meters":14400,"station_id":"ce4bh692rcd13ifvqea0","pricing_plan_id":"cebpf4jnsgd1na2vs0mg"},{"bike_id":"160e650b-53ed-4e58-855d-0a9ebcaba4db","system_id":"levelo_inurba_marseille","lat":43.29905,"lon":5.38129,"is_reserved":false,"is_disabled":false,"rental_uris":{"android":"levelo://app?vid=160e650b-53ed-4e58-855d-0a9ebcaba4db","ios":"levelo://app?vid=160e650b-53ed-4e58-855d-0a9ebcaba4db"},"vehicle_type_id":"4","last_reported":1739988742,"current_range_meters":14400,"station_id":"ce4bgj12rcd13ifvqbc0","pricing_plan_id":"cebpf4jnsgd1na2vs0mg"},{"bike_id":"4da6cc22-4d46-4a7c-8914-7b17d72dd95a","system_id":"levelo_inurba_marseille","lat":43.27183,"lon":5.40987,"is_reserved":false,"is_disabled":false,"rental_uris":{"android":"levelo://app?vid=4da6cc22-4d46-4a7c-8914-7b17d72dd95a","ios":"levelo://app?vid=4da6cc22-4d46-4a7c-8914-7b17d72dd95a"},"vehicle_type_id":"4","last_reported":1739988742,"current_range_meters":14400,"station_id":"ce4bhl12rcd13ifvqgf0","pricing_plan_id":"cebpf4jnsgd1na2vs0mg"},{"bike_id":"058213af-b61b-486b-8e0a-0a8fd78595de","system_id":"levelo_inurba_marseille","lat":43.23188,"lon":5.39972,"is_reserved":false,"is_disabled":false,"rental_uris":{"android":"levelo://app?vid=058213af-b61b-486b-8e0a-0a8fd78595de","ios":"levelo://app?vid=058213af-b61b-486b-8e0a-0a8fd78595de"},"vehicle_type_id":"4","last_reported":1739988742,"current_range_meters":14400,"station_id":"ce4bhn12rcd13ifvqgqg","pricing_plan_id":"cebpf4jnsgd1na2vs0mg"},{"bike_id":"5428c4a6-2268-45c5-aff9-a5f8e308d92b","system_id":"levelo_inurba_marseille","lat":43.30929,"lon":5.3728,"is_reserved":false,"is_disabled":false,"rental_uris":{"android":"levelo://app?vid=5428c4a6-2268-45c5-aff9-a5f8e308d92b","ios":"levelo://app?vid=5428c4a6-2268-45c5-aff9-a5f8e308d92b"},"vehicle_type_id":"4","last_reported":1739988742,"current_range_meters":14800,"station_id":"ce4bguh2rcd13ifvqckg","pricing_plan_id":"cebpf4jnsgd1na2vs0mg"},{"bike_id":"ec09436a-ac24-4cea-9591-c57b025a7b96","system_id":"levelo_inurba_marseille","lat":43.29029,"lon":5.35936,"is_reserved":false,"is_disabled":false,"rental_uris":{"android":"levelo://app?vid=ec09436a-ac24-4cea-9591-c57b025a7b96","ios":"levelo://app?vid=ec09436a-ac24-4cea-9591-c57b025a7b96"},"vehicle_type_id":"4","last_reported":1739988742,"current_range_meters":16400,"station_id":"ce4bha92rcd13ifvqeg0","pricing_plan_id":"cebpf4jnsgd1na2vs0mg"},{"bike_id":"61a5f719-32e6-4a17-bd33-1893719052c7","system_id":"levelo_inurba_marseille","lat":43.29559,"lon":5.3749,"is_reserved":false,"is_disabled":false,"rental_uris":{"android":"levelo://app?vid=61a5f719-32e6-4a17-bd33-1893719052c7","ios":"levelo://app?vid=61a5f719-32e6-4a17-bd33-1893719052c7"},"vehicle_type_id":"4","last_reported":1739988742,"current_range_meters":14800,"station_id":"","pricing_plan_id":"cebpf4jnsgd1na2vs0mg"},{"bike_id":"bd354dd3-6006-4e9f-90f1-63f0410f8583","system_id":"levelo_inurba_marseille","lat":43.2738,"lon":5.36256,"is_reserved":false,"is_disabled":false,"rental_uris":{"android":"levelo://app?vid=bd354dd3-6006-4e9f-90f1-63f0410f8583","ios":"levelo://app?vid=bd354dd3-6006-4e9f-90f1-63f0410f8583"},"vehicle_type_id":"4","last_reported":1739988742,"current_range_meters":14800,"station_id":"ce4bhbh2rcd13ifvqeo0","pricing_plan_id":"cebpf4jnsgd1na2vs0mg"},{"bike_id":"69d83863-ba3f-44d3-b444-b2034cf1c759","system_id":"levelo_inurba_marseille","lat":43.2871,"lon":5.37959,"is_reserved":false,"is_disabled":false,"rental_uris":{"android":"levelo://app?vid=69d83863-ba3f-44d3-b444-b2034cf1c759","ios":"levelo://app?vid=69d83863-ba3f-44d3-b444-b2034cf1c759"},"vehicle_type_id":"4","last_reported":1739988742,"current_range_meters":14800,"station_id":"","pricing_plan_id":"cebpf4jnsgd1na2vs0mg"},{"bike_id":"880db9c7-ba19-41c4-9bf5-cbac874771de","system_id":"levelo_inurba_marseille","lat":43.29975,"lon":5.38519,"is_reserved":false,"is_disabled":false,"rental_uris":{"android":"levelo://app?vid=880db9c7-ba19-41c4-9bf5-cbac874771de","ios":"levelo://app?vid=880db9c7-ba19-41c4-9bf5-cbac874771de"},"vehicle_type_id":"4","last_reported":1739988742,"current_range_meters":14800,"station_id":"ce4bgj92rcd13ifvqbd0","pricing_plan_id":"cebpf4jnsgd1na2vs0mg"},{"bike_id":"c445496b-1882-48af-8df4-1bf8a25b98fc","system_id":"levelo_inurba_marseille","lat":43.31328,"lon":5.39706,"is_reserved":false,"is_disabled":false,"rental_uris":{"android":"levelo://app?vid=c445496b-1882-48af-8df4-1bf8a25b98fc","ios":"levelo://app?vid=c445496b-1882-48af-8df4-1bf8a25b98fc"},"vehicle_type_id":"4","last_reported":1739988742,"current_range_meters":14800,"station_id":"ce4bgvp2rcd13ifvqcu0","pricing_plan_id":"cebpf4jnsgd1na2vs0mg"},{"bike_id":"b253065d-1074-4a51-bc2b-4e15dba86004","system_id":"levelo_inurba_marseille","lat":43.23065,"lon":5.35492,"is_reserved":false,"is_disabled":false,"rental_uris":{"android":"levelo://app?vid=b253065d-1074-4a51-bc2b-4e15dba86004","ios":"levelo://app?vid=b253065d-1074-4a51-bc2b-4e15dba86004"},"vehicle_type_id":"4","last_reported":1739988742,"current_range_meters":14800,"station_id":"cpo3342slgdg3j2ifvpg","pricing_plan_id":"cebpf4jnsgd1na2vs0mg"},{"bike_id":"22fa8819-3361-45b8-a2af-7d9d26c7fe0b","system_id":"levelo_inurba_marseille","lat":43.29079,"lon":5.37163,"is_reserved":false,"is_disabled":false,"rental_uris":{"android":"levelo://app?vid=22fa8819-3361-45b8-a2af-7d9d26c7fe0b","ios":"levelo://app?vid=22fa8819-3361-45b8-a2af-7d9d26c7fe0b"},"vehicle_type_id":"4","last_reported":1739988742,"current_range_meters":14800,"station_id":"ce4bh5p2rcd13ifvqe4g","pricing_plan_id":"cebpf4jnsgd1na2vs0mg"},{"bike_id":"76d84424-fae3-4f26-9ac1-399b30f83b88","system_id":"levelo_inurba_marseille","lat":43.29546,"lon":5.3854,"is_reserved":false,"is_disabled":false,"rental_uris":{"android":"levelo://app?vid=76d84424-fae3-4f26-9ac1-399b30f83b88","ios":"levelo://app?vid=76d84424-fae3-4f26-9ac1-399b30f83b88"},"vehicle_type_id":"4","last_reported":1739988742,"current_range_meters":15200,"station_id":"ce4bgih2rcd13ifvqba0","pricing_plan_id":"cebpf4jnsgd1na2vs0mg"},{"bike_id":"a43efb56-516e-4ac1-bd72-d7c9a872e30d","system_id":"levelo_inurba_marseille","lat":43.29309,"lon":5.37171,"is_reserved":false,"is_disabled":false,"rental_uris":{"android":"levelo://app?vid=a43efb56-516e-4ac1-bd72-d7c9a872e30d","ios":"levelo://app?vid=a43efb56-516e-4ac1-bd72-d7c9a872e30d"},"vehicle_type_id":"4","last_reported":1739988742,"current_range_meters":15200,"station_id":"ce4bgh92rcd13ifvqb40","pricing_plan_id":"cebpf4jnsgd1na2vs0mg"},{"bike_id":"a35f5d5e-84a2-4c0a-960d-f7b0b6545918","system_id":"levelo_inurba_marseille","lat":43.28726,"lon":5.37941,"is_reserved":false,"is_disabled":false,"rental_uris":{"android":"levelo://app?vid=a35f5d5e-84a2-4c0a-960d-f7b0b6545918","ios":"levelo://app?vid=a35f5d5e-84a2-4c0a-960d-f7b0b6545918"},"vehicle_type_id":"4","last_reported":1739988742,"current_range_meters":15200,"station_id":"ce4bh9p2rcd13ifvqec0","pricing_plan_id":"cebpf4jnsgd1na2vs0mg"},{"bike_id":"bb1a4c2a-340a-4f5b-b8fd-fd20852a249e","system_id":"levelo_inurba_marseille","lat":43.27616,"lon":5.36132,"is_reserved":false,"is_disabled":false,"rental_uris":{"android":"levelo://app?vid=bb1a4c2a-340a-4f5b-b8fd-fd20852a249e","ios":"levelo://app?vid=bb1a4c2a-340a-4f5b-b8fd-fd20852a249e"},"vehicle_type_id":"4","last_reported":1739988742,"current_range_meters":15200,"station_id":"ce4bgj92rcd13ifvqbe0","pricing_plan_id":"cebpf4jnsgd1na2vs0mg"},{"bike_id":"43a72437-ae4c-4b0a-bff1-c50ed73cf155","system_id":"levelo_inurba_marseille","lat":43.28414,"lon":5.34981,"is_reserved":false,"is_disabled":false,"rental_uris":{"android":"levelo://app?vid=43a72437-ae4c-4b0a-bff1-c50ed73cf155","ios":"levelo://app?vid=43a72437-ae4c-4b0a-bff1-c50ed73cf155"},"vehicle_type_id":"4","last_reported":1739988742,"current_range_meters":16000,"station_id":"ce4bhbh2rcd13ifvqepg","pricing_plan_id":"cebpf4jnsgd1na2vs0mg"},{"bike_id":"521c07ee-8f56-418c-9167-93791e255dc4","system_id":"levelo_inurba_marseille","lat":43.28701,"lon":5.37925,"is_reserved":false,"is_disabled":false,"rental_uris":{"android":"levelo://app?vid=521c07ee-8f56-418c-9167-93791e255dc4","ios":"levelo://app?vid=521c07ee-8f56-418c-9167-93791e255dc4"},"vehicle_type_id":"4","last_reported":1739988742,"current_range_meters":15200,"station_id":"ce4bh9p2rcd13ifvqec0","pricing_plan_id":"cebpf4jnsgd1na2vs0mg"},{"bike_id":"d5710d7f-3590-4b6f-b8ff-ba832dd6f4c0","system_id":"levelo_inurba_marseille","lat":43.29424,"lon":5.38625,"is_reserved":false,"is_disabled":false,"rental_uris":{"android":"levelo://app?vid=d5710d7f-3590-4b6f-b8ff-ba832dd6f4c0","ios":"levelo://app?vid=d5710d7f-3590-4b6f-b8ff-ba832dd6f4c0"},"vehicle_type_id":"4","last_reported":1739988742,"current_range_meters":15200,"station_id":"ce4bh2h2rcd13ifvqdh0","pricing_plan_id":"cebpf4jnsgd1na2vs0mg"},{"bike_id":"ba379239-9216-4e46-a96c-a73988d910ff","system_id":"levelo_inurba_marseille","lat":43.26489,"lon":5.37146,"is_reserved":false,"is_disabled":false,"rental_uris":{"android":"levelo://app?vid=ba379239-9216-4e46-a96c-a73988d910ff","ios":"levelo://app?vid=ba379239-9216-4e46-a96c-a73988d910ff"},"vehicle_type_id":"4","last_reported":1739988742,"current_range_meters":16000,"station_id":"","pricing_plan_id":"cebpf4jnsgd1na2vs0mg"},{"bike_id":"87bfb215-c131-466c-86fa-09b8635eb6a6","system_id":"levelo_inurba_marseille","lat":43.25508,"lon":5.37666,"is_reserved":false,"is_disabled":false,"rental_uris":{"android":"levelo://app?vid=87bfb215-c131-466c-86fa-09b8635eb6a6","ios":"levelo://app?vid=87bfb215-c131-466c-86fa-09b8635eb6a6"},"vehicle_type_id":"4","last_reported":1739988742,"current_range_meters":16000,"station_id":"ce4bhh12rcd13ifvqff0","pricing_plan_id":"cebpf4jnsgd1na2vs0mg"},{"bike_id":"94ce4c1f-b676-43e1-9e28-ed9f6f6c8e2b","system_id":"levelo_inurba_marseille","lat":43.23618,"lon":5.39163,"is_reserved":false,"is_disabled":false,"rental_uris":{"android":"levelo://app?vid=94ce4c1f-b676-43e1-9e28-ed9f6f6c8e2b","ios":"levelo://app?vid=94ce4c1f-b676-43e1-9e28-ed9f6f6c8e2b"},"vehicle_type_id":"4","last_reported":1739988742,"current_range_meters":16000,"station_id":"","pricing_plan_id":"cebpf4jnsgd1na2vs0mg"},{"bike_id":"c183dbc3-5ee8-4ca3-af4a-9d15a6ea6f0f","system_id":"levelo_inurba_marseille","lat":43.292706,"lon":5.384554,"is_reserved":false,"is_disabled":false,"rental_uris":{"android":"levelo://app?vid=c183dbc3-5ee8-4ca3-af4a-9d15a6ea6f0f","ios":"levelo://app?vid=c183dbc3-5ee8-4ca3-af4a-9d15a6ea6f0f"},"vehicle_type_id":"4","last_reported":1739988742,"current_range_meters":16000,"station_id":"ce4bh692rcd13ifvqea0","pricing_plan_id":"cebpf4jnsgd1na2vs0mg"},{"bike_id":"b76bf30b-8b78-4be0-9668-2a20d616845e","system_id":"levelo_inurba_marseille","lat":43.26584,"lon":5.39033,"is_reserved":false,"is_disabled":false,"rental_uris":{"android":"levelo://app?vid=b76bf30b-8b78-4be0-9668-2a20d616845e","ios":"levelo://app?vid=b76bf30b-8b78-4be0-9668-2a20d616845e"},"vehicle_type_id":"4","last_reported":1739988742,"current_range_meters":16000,"station_id":"ce4bhe12rcd13ifvqf30","pricing_plan_id":"cebpf4jnsgd1na2vs0mg"},{"bike_id":"a0b5cfd9-c36a-4060-af83-8992cc89583f","system_id":"levelo_inurba_marseille","lat":43.29031,"lon":5.37553,"is_reserved":false,"is_disabled":false,"rental_uris":{"android":"levelo://app?vid=a0b5cfd9-c36a-4060-af83-8992cc89583f","ios":"levelo://app?vid=a0b5cfd9-c36a-4060-af83-8992cc89583f"},"vehicle_type_id":"4","last_reported":1739988742,"current_range_meters":16000,"station_id":"ce4bh692rcd13ifvqe90","pricing_plan_id":"cebpf4jnsgd1na2vs0mg"},{"bike_id":"efb58bf1-4403-4b9f-b67d-a8970e8c3a7f","system_id":"levelo_inurba_marseille","lat":43.25007,"lon":5.38916,"is_reserved":false,"is_disabled":false,"rental_uris":{"android":"levelo://app?vid=efb58bf1-4403-4b9f-b67d-a8970e8c3a7f","ios":"levelo://app?vid=efb58bf1-4403-4b9f-b67d-a8970e8c3a7f"},"vehicle_type_id":"4","last_reported":1739988742,"current_range_meters":16000,"station_id":"ce4bhgp2rcd13ifvqfd0","pricing_plan_id":"cebpf4jnsgd1na2vs0mg"},{"bike_id":"477ac2db-8f8c-4cbc-8427-0ab644b57a7a","system_id":"levelo_inurba_marseille","lat":43.25006,"lon":5.38915,"is_reserved":false,"is_disabled":false,"rental_uris":{"android":"levelo://app?vid=477ac2db-8f8c-4cbc-8427-0ab644b57a7a","ios":"levelo://app?vid=477ac2db-8f8c-4cbc-8427-0ab644b57a7a"},"vehicle_type_id":"4","last_reported":1739988742,"current_range_meters":16000,"station_id":"ce4bhgp2rcd13ifvqfd0","pricing_plan_id":"cebpf4jnsgd1na2vs0mg"},{"bike_id":"23865f1e-2ee4-407d-9e51-0dee9bf48498","system_id":"levelo_inurba_marseille","lat":43.29027,"lon":5.38142,"is_reserved":false,"is_disabled":false,"rental_uris":{"android":"levelo://app?vid=23865f1e-2ee4-407d-9e51-0dee9bf48498","ios":"levelo://app?vid=23865f1e-2ee4-407d-9e51-0dee9bf48498"},"vehicle_type_id":"4","last_reported":1739988742,"current_range_meters":16000,"station_id":"ce4bh4p2rcd13ifvqe1g","pricing_plan_id":"cebpf4jnsgd1na2vs0mg"},{"bike_id":"faa87c54-8cfb-4a9b-a6ce-1c6f61a0cf7e","system_id":"levelo_inurba_marseille","lat":43.30076,"lon":5.37536,"is_reserved":false,"is_disabled":false,"rental_uris":{"android":"levelo://app?vid=faa87c54-8cfb-4a9b-a6ce-1c6f61a0cf7e","ios":"levelo://app?vid=faa87c54-8cfb-4a9b-a6ce-1c6f61a0cf7e"},"vehicle_type_id":"4","last_reported":1739988742,"current_range_meters":16400,"station_id":"ce4bgv92rcd13ifvqcq0","pricing_plan_id":"cebpf4jnsgd1na2vs0mg"},{"bike_id":"014ffc93-64a2-48d7-9e39-bbf14956782c","system_id":"levelo_inurba_marseille","lat":43.27375,"lon":5.36255,"is_reserved":false,"is_disabled":false,"rental_uris":{"android":"levelo://app?vid=014ffc93-64a2-48d7-9e39-bbf14956782c","ios":"levelo://app?vid=014ffc93-64a2-48d7-9e39-bbf14956782c"},"vehicle_type_id":"4","last_reported":1739988742,"current_range_meters":16400,"station_id":"ce4bhbh2rcd13ifvqeo0","pricing_plan_id":"cebpf4jnsgd1na2vs0mg"},{"bike_id":"b460fd8a-2422-4dc6-801b-f9a7b19474e7","system_id":"levelo_inurba_marseille","lat":43.28106,"lon":5.37848,"is_reserved":false,"is_disabled":false,"rental_uris":{"android":"levelo://app?vid=b460fd8a-2422-4dc6-801b-f9a7b19474e7","ios":"levelo://app?vid=b460fd8a-2422-4dc6-801b-f9a7b19474e7"},"vehicle_type_id":"4","last_reported":1739988742,"current_range_meters":16400,"station_id":"ce4bha12rcd13ifvqee0","pricing_plan_id":"cebpf4jnsgd1na2vs0mg"},{"bike_id":"dbe49701-5862-45ed-a3de-50ab3e705b30","system_id":"levelo_inurba_marseille","lat":43.29972,"lon":5.37174,"is_reserved":false,"is_disabled":false,"rental_uris":{"android":"levelo://app?vid=dbe49701-5862-45ed-a3de-50ab3e705b30","ios":"levelo://app?vid=dbe49701-5862-45ed-a3de-50ab3e705b30"},"vehicle_type_id":"4","last_reported":1739988742,"current_range_meters":16000,"station_id":"ce4bgr92rcd13ifvqc7g","pricing_plan_id":"cebpf4jnsgd1na2vs0mg"},{"bike_id":"d9102e21-6294-472e-8da2-16dfb746ec2b","system_id":"levelo_inurba_marseille","lat":43.28138,"lon":5.4457,"is_reserved":false,"is_disabled":false,"rental_uris":{"android":"levelo://app?vid=d9102e21-6294-472e-8da2-16dfb746ec2b","ios":"levelo://app?vid=d9102e21-6294-472e-8da2-16dfb746ec2b"},"vehicle_type_id":"4","last_reported":1739988742,"current_range_meters":16400,"station_id":"ce4bhnh2rcd13ifvqgtg","pricing_plan_id":"cebpf4jnsgd1na2vs0mg"},{"bike_id":"32d10eb6-651b-4e3f-8b58-6d41ce634024","system_id":"levelo_inurba_marseille","lat":43.33181,"lon":5.39567,"is_reserved":false,"is_disabled":false,"rental_uris":{"android":"levelo://app?vid=32d10eb6-651b-4e3f-8b58-6d41ce634024","ios":"levelo://app?vid=32d10eb6-651b-4e3f-8b58-6d41ce634024"},"vehicle_type_id":"4","last_reported":1739988742,"current_range_meters":17200,"station_id":"ce4bhr92rcd13ifvqhrg","pricing_plan_id":"cebpf4jnsgd1na2vs0mg"},{"bike_id":"8becd64c-893d-4a08-8876-b1598e031c70","system_id":"levelo_inurba_marseille","lat":43.2796,"lon":5.38727,"is_reserved":false,"is_disabled":true,"rental_uris":{"android":"levelo://app?vid=8becd64c-893d-4a08-8876-b1598e031c70","ios":"levelo://app?vid=8becd64c-893d-4a08-8876-b1598e031c70"},"vehicle_type_id":"4","last_reported":1739988742,"current_range_meters":16800,"station_id":"","pricing_plan_id":"cebpf4jnsgd1na2vs0mg"},{"bike_id":"b992f9c6-8cd4-4847-bf21-0b493529cfb3","system_id":"levelo_inurba_marseille","lat":43.27497,"lon":5.42448,"is_reserved":false,"is_disabled":false,"rental_uris":{"android":"levelo://app?vid=b992f9c6-8cd4-4847-bf21-0b493529cfb3","ios":"levelo://app?vid=b992f9c6-8cd4-4847-bf21-0b493529cfb3"},"vehicle_type_id":"4","last_reported":1739988742,"current_range_meters":16800,"station_id":"ce4bhn92rcd13ifvqgrg","pricing_plan_id":"cebpf4jnsgd1na2vs0mg"},{"bike_id":"45e870db-3a43-4de3-b809-888b37058ba1","system_id":"levelo_inurba_marseille","lat":43.29307,"lon":5.37458,"is_reserved":false,"is_disabled":false,"rental_uris":{"android":"levelo://app?vid=45e870db-3a43-4de3-b809-888b37058ba1","ios":"levelo://app?vid=45e870db-3a43-4de3-b809-888b37058ba1"},"vehicle_type_id":"4","last_reported":1739988742,"current_range_meters":16800,"station_id":"ce4bgi12rcd13ifvqb70","pricing_plan_id":"cebpf4jnsgd1na2vs0mg"},{"bike_id":"943618dd-7514-4f47-83fd-27b10f2d6c29","system_id":"levelo_inurba_marseille","lat":43.28455,"lon":5.35896,"is_reserved":false,"is_disabled":false,"rental_uris":{"android":"levelo://app?vid=943618dd-7514-4f47-83fd-27b10f2d6c29","ios":"levelo://app?vid=943618dd-7514-4f47-83fd-27b10f2d6c29"},"vehicle_type_id":"4","last_reported":1739988742,"current_range_meters":16800,"station_id":"ce4bhah2rcd13ifvqei0","pricing_plan_id":"cebpf4jnsgd1na2vs0mg"},{"bike_id":"987de0c2-b9bd-4bef-ba52-5ce350e4cb1b","system_id":"levelo_inurba_marseille","lat":43.27992,"lon":5.41644,"is_reserved":false,"is_disabled":false,"rental_uris":{"android":"levelo://app?vid=987de0c2-b9bd-4bef-ba52-5ce350e4cb1b","ios":"levelo://app?vid=987de0c2-b9bd-4bef-ba52-5ce350e4cb1b"},"vehicle_type_id":"4","last_reported":1739988742,"current_range_meters":16800,"station_id":"ce4bho12rcd13ifvqh1g","pricing_plan_id":"cebpf4jnsgd1na2vs0mg"},{"bike_id":"9f602b20-4d8e-4128-bf0e-81a39cb3e422","system_id":"levelo_inurba_marseille","lat":43.302607,"lon":5.400813,"is_reserved":false,"is_disabled":false,"rental_uris":{"android":"levelo://app?vid=9f602b20-4d8e-4128-bf0e-81a39cb3e422","ios":"levelo://app?vid=9f602b20-4d8e-4128-bf0e-81a39cb3e422"},"vehicle_type_id":"4","last_reported":1739988742,"current_range_meters":16800,"station_id":"ce4bgvh2rcd13ifvqcs0","pricing_plan_id":"cebpf4jnsgd1na2vs0mg"},{"bike_id":"ad83c156-1bc9-4559-81c1-13cc14a8fb0b","system_id":"levelo_inurba_marseille","lat":43.27939,"lon":5.41059,"is_reserved":false,"is_disabled":false,"rental_uris":{"android":"levelo://app?vid=ad83c156-1bc9-4559-81c1-13cc14a8fb0b","ios":"levelo://app?vid=ad83c156-1bc9-4559-81c1-13cc14a8fb0b"},"vehicle_type_id":"4","last_reported":1739988742,"current_range_meters":16800,"station_id":"ce4bhnp2rcd13ifvqh0g","pricing_plan_id":"cebpf4jnsgd1na2vs0mg"},{"bike_id":"abfc569d-cc8b-44e8-b328-26cdfde64a1e","system_id":"levelo_inurba_marseille","lat":43.2815,"lon":5.42643,"is_reserved":false,"is_disabled":false,"rental_uris":{"android":"levelo://app?vid=abfc569d-cc8b-44e8-b328-26cdfde64a1e","ios":"levelo://app?vid=abfc569d-cc8b-44e8-b328-26cdfde64a1e"},"vehicle_type_id":"4","last_reported":1739988742,"current_range_meters":16800,"station_id":"","pricing_plan_id":"cebpf4jnsgd1na2vs0mg"},{"bike_id":"a1a2b460-b478-43af-913b-5e3f11e44138","system_id":"levelo_inurba_marseille","lat":43.2718,"lon":5.38283,"is_reserved":false,"is_disabled":false,"rental_uris":{"android":"levelo://app?vid=a1a2b460-b478-43af-913b-5e3f11e44138","ios":"levelo://app?vid=a1a2b460-b478-43af-913b-5e3f11e44138"},"vehicle_type_id":"4","last_reported":1739988742,"current_range_meters":16800,"station_id":"","pricing_plan_id":"cebpf4jnsgd1na2vs0mg"},{"bike_id":"6ff616f0-63e7-4072-900e-b130724ef6fe","system_id":"levelo_inurba_marseille","lat":43.296814,"lon":5.372943,"is_reserved":false,"is_disabled":false,"rental_uris":{"android":"levelo://app?vid=6ff616f0-63e7-4072-900e-b130724ef6fe","ios":"levelo://app?vid=6ff616f0-63e7-4072-900e-b130724ef6fe"},"vehicle_type_id":"4","last_reported":1739988742,"current_range_meters":16800,"station_id":"ce4bgk12rcd13ifvqbj0","pricing_plan_id":"cebpf4jnsgd1na2vs0mg"},{"bike_id":"cdf62971-ad17-408f-becb-ec272ce9b002","system_id":"levelo_inurba_marseille","lat":43.29271,"lon":5.36845,"is_reserved":false,"is_disabled":false,"rental_uris":{"android":"levelo://app?vid=cdf62971-ad17-408f-becb-ec272ce9b002","ios":"levelo://app?vid=cdf62971-ad17-408f-becb-ec272ce9b002"},"vehicle_type_id":"4","last_reported":1739988742,"current_range_meters":16800,"station_id":"ce4bhbp2rcd13ifvqesg","pricing_plan_id":"cebpf4jnsgd1na2vs0mg"},{"bike_id":"635050f9-a2c9-4910-8267-ff5a32e2982d","system_id":"levelo_inurba_marseille","lat":43.24821,"lon":5.37446,"is_reserved":false,"is_disabled":false,"rental_uris":{"android":"levelo://app?vid=635050f9-a2c9-4910-8267-ff5a32e2982d","ios":"levelo://app?vid=635050f9-a2c9-4910-8267-ff5a32e2982d"},"vehicle_type_id":"4","last_reported":1739988742,"current_range_meters":16800,"station_id":"ce4bhgh2rcd13ifvqfb0","pricing_plan_id":"cebpf4jnsgd1na2vs0mg"},{"bike_id":"a2d7966a-90c3-4b4e-998b-4e8e73a3e8cb","system_id":"levelo_inurba_marseille","lat":43.2917,"lon":5.37146,"is_reserved":false,"is_disabled":false,"rental_uris":{"android":"levelo://app?vid=a2d7966a-90c3-4b4e-998b-4e8e73a3e8cb","ios":"levelo://app?vid=a2d7966a-90c3-4b4e-998b-4e8e73a3e8cb"},"vehicle_type_id":"4","last_reported":1739988742,"current_range_meters":17200,"station_id":"ce4bha92rcd13ifvqeh0","pricing_plan_id":"cebpf4jnsgd1na2vs0mg"},{"bike_id":"513e8b96-bfc6-4619-aea6-5d76058edb85","system_id":"levelo_inurba_marseille","lat":43.27996,"lon":5.41663,"is_reserved":false,"is_disabled":false,"rental_uris":{"android":"levelo://app?vid=513e8b96-bfc6-4619-aea6-5d76058edb85","ios":"levelo://app?vid=513e8b96-bfc6-4619-aea6-5d76058edb85"},"vehicle_type_id":"4","last_reported":1739988742,"current_range_meters":17200,"station_id":"ce4bho12rcd13ifvqh1g","pricing_plan_id":"cebpf4jnsgd1na2vs0mg"},{"bike_id":"02294ecb-63f1-466c-86e6-f94378485dff","system_id":"levelo_inurba_marseille","lat":43.281509,"lon":5.426293,"is_reserved":false,"is_disabled":false,"rental_uris":{"android":"levelo://app?vid=02294ecb-63f1-466c-86e6-f94378485dff","ios":"levelo://app?vid=02294ecb-63f1-466c-86e6-f94378485dff"},"vehicle_type_id":"4","last_reported":1739988742,"current_range_meters":17200,"station_id":"ce4bhnh2rcd13ifvqgug","pricing_plan_id":"cebpf4jnsgd1na2vs0mg"},{"bike_id":"1e8a5a3a-a50a-48d2-89e4-4d2261ee5f20","system_id":"levelo_inurba_marseille","lat":43.29601,"lon":5.38105,"is_reserved":false,"is_disabled":false,"rental_uris":{"android":"levelo://app?vid=1e8a5a3a-a50a-48d2-89e4-4d2261ee5f20","ios":"levelo://app?vid=1e8a5a3a-a50a-48d2-89e4-4d2261ee5f20"},"vehicle_type_id":"4","last_reported":1739988742,"current_range_meters":17200,"station_id":"ce4bgl12rcd13ifvqbo0","pricing_plan_id":"cebpf4jnsgd1na2vs0mg"},{"bike_id":"66b5a43e-2798-4c72-8acc-33d23152963b","system_id":"levelo_inurba_marseille","lat":43.271872,"lon":5.409959,"is_reserved":false,"is_disabled":false,"rental_uris":{"android":"levelo://app?vid=66b5a43e-2798-4c72-8acc-33d23152963b","ios":"levelo://app?vid=66b5a43e-2798-4c72-8acc-33d23152963b"},"vehicle_type_id":"4","last_reported":1739988742,"current_range_meters":17200,"station_id":"ce4bhl12rcd13ifvqgf0","pricing_plan_id":"cebpf4jnsgd1na2vs0mg"},{"bike_id":"1e048872-c7f3-456a-8add-3694c2ecf102","system_id":"levelo_inurba_marseille","lat":43.2928,"lon":5.40116,"is_reserved":false,"is_disabled":false,"rental_uris":{"android":"levelo://app?vid=1e048872-c7f3-456a-8add-3694c2ecf102","ios":"levelo://app?vid=1e048872-c7f3-456a-8add-3694c2ecf102"},"vehicle_type_id":"4","last_reported":1739988742,"current_range_meters":17200,"station_id":"ce4bh312rcd13ifvqdk0","pricing_plan_id":"cebpf4jnsgd1na2vs0mg"},{"bike_id":"36c46ca5-259e-48cb-abb6-2dc0d2dee80c","system_id":"levelo_inurba_marseille","lat":43.30145,"lon":5.3808,"is_reserved":false,"is_disabled":false,"rental_uris":{"android":"levelo://app?vid=36c46ca5-259e-48cb-abb6-2dc0d2dee80c","ios":"levelo://app?vid=36c46ca5-259e-48cb-abb6-2dc0d2dee80c"},"vehicle_type_id":"4","last_reported":1739988742,"current_range_meters":17200,"station_id":"ce4bh612rcd13ifvqe6g","pricing_plan_id":"cebpf4jnsgd1na2vs0mg"},{"bike_id":"74402bb9-f807-4cd2-85b3-c6393fbee4b3","system_id":"levelo_inurba_marseille","lat":43.2997,"lon":5.38498,"is_reserved":false,"is_disabled":false,"rental_uris":{"android":"levelo://app?vid=74402bb9-f807-4cd2-85b3-c6393fbee4b3","ios":"levelo://app?vid=74402bb9-f807-4cd2-85b3-c6393fbee4b3"},"vehicle_type_id":"4","last_reported":1739988742,"current_range_meters":17200,"station_id":"","pricing_plan_id":"cebpf4jnsgd1na2vs0mg"},{"bike_id":"370ba8b3-e74b-4f4c-9513-48a4dd93c48e","system_id":"levelo_inurba_marseille","lat":43.28938,"lon":5.36635,"is_reserved":false,"is_disabled":false,"rental_uris":{"android":"levelo://app?vid=370ba8b3-e74b-4f4c-9513-48a4dd93c48e","ios":"levelo://app?vid=370ba8b3-e74b-4f4c-9513-48a4dd93c48e"},"vehicle_type_id":"4","last_reported":1739988742,"current_range_meters":17200,"station_id":"ce4bhap2rcd13ifvqek0","pricing_plan_id":"cebpf4jnsgd1na2vs0mg"},{"bike_id":"4cb74063-3289-4948-a15b-ab92d2a254a3","system_id":"levelo_inurba_marseille","lat":43.31332,"lon":5.39691,"is_reserved":false,"is_disabled":false,"rental_uris":{"android":"levelo://app?vid=4cb74063-3289-4948-a15b-ab92d2a254a3","ios":"levelo://app?vid=4cb74063-3289-4948-a15b-ab92d2a254a3"},"vehicle_type_id":"4","last_reported":1739988742,"current_range_meters":17200,"station_id":"ce4bgvp2rcd13ifvqcu0","pricing_plan_id":"cebpf4jnsgd1na2vs0mg"},{"bike_id":"82eb08d9-fe89-49c0-80f8-1d1cf3cdc405","system_id":"levelo_inurba_marseille","lat":43.30134,"lon":5.39872,"is_reserved":false,"is_disabled":false,"rental_uris":{"android":"levelo://app?vid=82eb08d9-fe89-49c0-80f8-1d1cf3cdc405","ios":"levelo://app?vid=82eb08d9-fe89-49c0-80f8-1d1cf3cdc405"},"vehicle_type_id":"4","last_reported":1739988742,"current_range_meters":17200,"station_id":"ce4bh0h2rcd13ifvqd40","pricing_plan_id":"cebpf4jnsgd1na2vs0mg"},{"bike_id":"3ba44852-a183-458e-ac11-ee0f67ea5675","system_id":"levelo_inurba_marseille","lat":43.30324,"lon":5.40444,"is_reserved":false,"is_disabled":false,"rental_uris":{"android":"levelo://app?vid=3ba44852-a183-458e-ac11-ee0f67ea5675","ios":"levelo://app?vid=3ba44852-a183-458e-ac11-ee0f67ea5675"},"vehicle_type_id":"4","last_reported":1739988742,"current_range_meters":17200,"station_id":"ce4bh012rcd13ifvqd10","pricing_plan_id":"cebpf4jnsgd1na2vs0mg"},{"bike_id":"3bad0b07-fa7a-4cc7-9650-b1214bfaef19","system_id":"levelo_inurba_marseille","lat":43.28154,"lon":5.42636,"is_reserved":false,"is_disabled":false,"rental_uris":{"android":"levelo://app?vid=3bad0b07-fa7a-4cc7-9650-b1214bfaef19","ios":"levelo://app?vid=3bad0b07-fa7a-4cc7-9650-b1214bfaef19"},"vehicle_type_id":"4","last_reported":1739988742,"current_range_meters":17600,"station_id":"ce4bhnh2rcd13ifvqgug","pricing_plan_id":"cebpf4jnsgd1na2vs0mg"},{"bike_id":"ec4e5bd1-70de-42db-827f-8f31b7831b78","system_id":"levelo_inurba_marseille","lat":43.25056,"lon":5.3954,"is_reserved":false,"is_disabled":false,"rental_uris":{"android":"levelo://app?vid=ec4e5bd1-70de-42db-827f-8f31b7831b78","ios":"levelo://app?vid=ec4e5bd1-70de-42db-827f-8f31b7831b78"},"vehicle_type_id":"4","last_reported":1739988742,"current_range_meters":17600,"station_id":"ce4bhm12rcd13ifvqgkg","pricing_plan_id":"cebpf4jnsgd1na2vs0mg"},{"bike_id":"f3e65196-becd-4946-a768-430002fd913d","system_id":"levelo_inurba_marseille","lat":43.24661,"lon":5.38167,"is_reserved":false,"is_disabled":false,"rental_uris":{"android":"levelo://app?vid=f3e65196-becd-4946-a768-430002fd913d","ios":"levelo://app?vid=f3e65196-becd-4946-a768-430002fd913d"},"vehicle_type_id":"4","last_reported":1739988742,"current_range_meters":17600,"station_id":"ce4bhih2rcd13ifvqfr0","pricing_plan_id":"cebpf4jnsgd1na2vs0mg"},{"bike_id":"75673006-1fda-46a1-a573-0e1cfeae28aa","system_id":"levelo_inurba_marseille","lat":43.29492,"lon":5.38287,"is_reserved":false,"is_disabled":false,"rental_uris":{"android":"levelo://app?vid=75673006-1fda-46a1-a573-0e1cfeae28aa","ios":"levelo://app?vid=75673006-1fda-46a1-a573-0e1cfeae28aa"},"vehicle_type_id":"4","last_reported":1739988742,"current_range_meters":17600,"station_id":"","pricing_plan_id":"cebpf4jnsgd1na2vs0mg"},{"bike_id":"867e49ca-1fcf-4c4a-b641-c20eee771353","system_id":"levelo_inurba_marseille","lat":43.28154,"lon":5.42636,"is_reserved":false,"is_disabled":false,"rental_uris":{"android":"levelo://app?vid=867e49ca-1fcf-4c4a-b641-c20eee771353","ios":"levelo://app?vid=867e49ca-1fcf-4c4a-b641-c20eee771353"},"vehicle_type_id":"4","last_reported":1739988742,"current_range_meters":17600,"station_id":"","pricing_plan_id":"cebpf4jnsgd1na2vs0mg"},{"bike_id":"304b9cfa-70a7-4934-bcbe-21408de9d9aa","system_id":"levelo_inurba_marseille","lat":43.337444,"lon":5.374475,"is_reserved":false,"is_disabled":false,"rental_uris":{"android":"levelo://app?vid=304b9cfa-70a7-4934-bcbe-21408de9d9aa","ios":"levelo://app?vid=304b9cfa-70a7-4934-bcbe-21408de9d9aa"},"vehicle_type_id":"4","last_reported":1739988742,"current_range_meters":17600,"station_id":"","pricing_plan_id":"cebpf4jnsgd1na2vs0mg"},{"bike_id":"3addd8d2-327f-4e60-8639-267e28d7c956","system_id":"levelo_inurba_marseille","lat":43.28673,"lon":5.38655,"is_reserved":false,"is_disabled":true,"rental_uris":{"android":"levelo://app?vid=3addd8d2-327f-4e60-8639-267e28d7c956","ios":"levelo://app?vid=3addd8d2-327f-4e60-8639-267e28d7c956"},"vehicle_type_id":"4","last_reported":1739988742,"current_range_meters":17600,"station_id":"","pricing_plan_id":"cebpf4jnsgd1na2vs0mg"},{"bike_id":"b0258ce4-2379-4b55-989b-d5bcc3f443d1","system_id":"levelo_inurba_marseille","lat":43.30295,"lon":5.39214,"is_reserved":false,"is_disabled":false,"rental_uris":{"android":"levelo://app?vid=b0258ce4-2379-4b55-989b-d5bcc3f443d1","ios":"levelo://app?vid=b0258ce4-2379-4b55-989b-d5bcc3f443d1"},"vehicle_type_id":"4","last_reported":1739988742,"current_range_meters":17600,"station_id":"ce4bgkh2rcd13ifvqbk0","pricing_plan_id":"cebpf4jnsgd1na2vs0mg"},{"bike_id":"2bea66f5-9ac8-4f4c-ab71-f140c00abaff","system_id":"levelo_inurba_marseille","lat":43.29712,"lon":5.36613,"is_reserved":false,"is_disabled":false,"rental_uris":{"android":"levelo://app?vid=2bea66f5-9ac8-4f4c-ab71-f140c00abaff","ios":"levelo://app?vid=2bea66f5-9ac8-4f4c-ab71-f140c00abaff"},"vehicle_type_id":"4","last_reported":1739988742,"current_range_meters":17600,"station_id":"ce4bgn12rcd13ifvqbt0","pricing_plan_id":"cebpf4jnsgd1na2vs0mg"},{"bike_id":"0f119bb9-42f5-484d-a273-90a601312646","system_id":"levelo_inurba_marseille","lat":43.27072,"lon":5.42302,"is_reserved":false,"is_disabled":false,"rental_uris":{"android":"levelo://app?vid=0f119bb9-42f5-484d-a273-90a601312646","ios":"levelo://app?vid=0f119bb9-42f5-484d-a273-90a601312646"},"vehicle_type_id":"4","last_reported":1739988742,"current_range_meters":17600,"station_id":"ce4bhk92rcd13ifvqgb0","pricing_plan_id":"cebpf4jnsgd1na2vs0mg"},{"bike_id":"54cfee55-5c6b-4bc4-9f9b-f108c8c3f94e","system_id":"levelo_inurba_marseille","lat":43.28353,"lon":5.38103,"is_reserved":false,"is_disabled":false,"rental_uris":{"android":"levelo://app?vid=54cfee55-5c6b-4bc4-9f9b-f108c8c3f94e","ios":"levelo://app?vid=54cfee55-5c6b-4bc4-9f9b-f108c8c3f94e"},"vehicle_type_id":"4","last_reported":1739988742,"current_range_meters":17600,"station_id":"","pricing_plan_id":"cebpf4jnsgd1na2vs0mg"},{"bike_id":"341eda14-d478-4084-a980-a1fd1bb4813d","system_id":"levelo_inurba_marseille","lat":43.29899,"lon":5.39755,"is_reserved":false,"is_disabled":false,"rental_uris":{"android":"levelo://app?vid=341eda14-d478-4084-a980-a1fd1bb4813d","ios":"levelo://app?vid=341eda14-d478-4084-a980-a1fd1bb4813d"},"vehicle_type_id":"4","last_reported":1739988742,"current_range_meters":17600,"station_id":"ce4bh0h2rcd13ifvqd50","pricing_plan_id":"cebpf4jnsgd1na2vs0mg"},{"bike_id":"a96717b6-c56a-4cef-8b6b-e6cfaa14097f","system_id":"levelo_inurba_marseille","lat":43.293,"lon":5.37458,"is_reserved":false,"is_disabled":false,"rental_uris":{"android":"levelo://app?vid=a96717b6-c56a-4cef-8b6b-e6cfaa14097f","ios":"levelo://app?vid=a96717b6-c56a-4cef-8b6b-e6cfaa14097f"},"vehicle_type_id":"4","last_reported":1739988742,"current_range_meters":18000,"station_id":"ce4bgi12rcd13ifvqb70","pricing_plan_id":"cebpf4jnsgd1na2vs0mg"},{"bike_id":"378a21a7-b1ec-4051-850d-b470f3510d96","system_id":"levelo_inurba_marseille","lat":43.26802,"lon":5.40264,"is_reserved":false,"is_disabled":true,"rental_uris":{"android":"levelo://app?vid=378a21a7-b1ec-4051-850d-b470f3510d96","ios":"levelo://app?vid=378a21a7-b1ec-4051-850d-b470f3510d96"},"vehicle_type_id":"4","last_reported":1739988742,"current_range_meters":18000,"station_id":"ce501612rcd8frsf0b60","pricing_plan_id":"cebpf4jnsgd1na2vs0mg"},{"bike_id":"89120731-9eaf-49d1-b6f6-cea5adc1682f","system_id":"levelo_inurba_marseille","lat":43.28344,"lon":5.38106,"is_reserved":false,"is_disabled":false,"rental_uris":{"android":"levelo://app?vid=89120731-9eaf-49d1-b6f6-cea5adc1682f","ios":"levelo://app?vid=89120731-9eaf-49d1-b6f6-cea5adc1682f"},"vehicle_type_id":"4","last_reported":1739988742,"current_range_meters":18000,"station_id":"","pricing_plan_id":"cebpf4jnsgd1na2vs0mg"},{"bike_id":"d67d55c4-38d1-4058-9843-19640cc25359","system_id":"levelo_inurba_marseille","lat":43.32391,"lon":5.36994,"is_reserved":false,"is_disabled":false,"rental_uris":{"android":"levelo://app?vid=d67d55c4-38d1-4058-9843-19640cc25359","ios":"levelo://app?vid=d67d55c4-38d1-4058-9843-19640cc25359"},"vehicle_type_id":"4","last_reported":1739988742,"current_range_meters":18000,"station_id":"","pricing_plan_id":"cebpf4jnsgd1na2vs0mg"},{"bike_id":"53324156-0b5f-4ee4-beb8-65d71f0308f4","system_id":"levelo_inurba_marseille","lat":43.26548,"lon":5.39073,"is_reserved":false,"is_disabled":true,"rental_uris":{"android":"levelo://app?vid=53324156-0b5f-4ee4-beb8-65d71f0308f4","ios":"levelo://app?vid=53324156-0b5f-4ee4-beb8-65d71f0308f4"},"vehicle_type_id":"4","last_reported":1739988742,"current_range_meters":18000,"station_id":"","pricing_plan_id":"cebpf4jnsgd1na2vs0mg"},