{"last_updated":1761408637,"ttl":60,"version":"2.2","data":{"bikes":[{"bike_id":"602a624b-8caf-422f-aa94-ae06f0af0bf1","system_id":"levelo_inurba_marseille","lat":43.31483,"lon":5.37309,"is_reserved":false,"is_disabled":false,"rental_uris":{"android":"levelo://app?vid=602a624b-8caf-422f-aa94-ae06f0af0bf1","ios":"levelo://app?vid=602a624b-8caf-422f-aa94-ae06f0af0bf1"},"vehicle_type_id":"4","last_reported":1761408637,"current_range_meters":2800,"station_id":"ce4bgt12rcd13ifvqcd0","pricing_plan_id":"cebpf4jnsgd1na2vs0mg"},{"bike_id":"48e5c070-9ccf-49dc-aec8-6384407e77bd","system_id":"levelo_inurba_marseille","lat":43.239632,"lon":5.366261,"is_reserved":false,"is_disabled":false,"rental_uris":{"android":"levelo://app?vid=48e5c070-9ccf-49dc-aec8-6384407e77bd","ios":"levelo://app?vid=48e5c070-9ccf-49dc-aec8-6384407e77bd"},"vehicle_type_id":"4","last_reported":1761408637,"current_range_meters":2800,"station_id":"ce4bhi12rcd13ifvqfp0","pricing_plan_id":"cebpf4jnsgd1na2vs0mg"},{"bike_id":"b51d80fc-fe32-4b62-a2ea-257fc8687c81","system_id":"levelo_inurba_marseille","lat":43.303241,"lon":5.404449,"is_reserved":false,"is_disabled":false,"rental_uris":{"android":"levelo://app?vid=b51d80fc-fe32-4b62-a2ea-257fc8687c81","ios":"levelo://app?vid=b51d80fc-fe32-4b62-a2ea-257fc8687c81"},"vehicle_type_id":"4","last_reported":1761408637,"current_range_meters":2800,"station_id":"ce4bh012rcd13ifvqd10","pricing_plan_id":"cebpf4jnsgd1na2vs0mg"},{"bike_id":"5a795b60-be81-45c5-85b3-b06f8de30783","system_id":"levelo_inurba_marseille","lat":43.28932,"lon":5.36618,"is_reserved":false,"is_disabled":false,"rental_uris":{"android":"levelo://app?vid=5a795b60-be81-45c5-85b3-b06f8de30783","ios":"levelo://app?vid=5a795b60-be81-45c5-85b3-b06f8de30783"},"vehicle_type_id":"4","last_reported":1761408637,"current_range_meters":3200,"station_id":"ce4bhap2rcd13ifvqek0","pricing_plan_id":"cebpf4jnsgd1na2vs0mg"},{"bike_id":"2e0ba70d-bb42-412e-9d77-7f0bbd314806","system_id":"levelo_inurba_marseille","lat":43.282694,"lon":5.350672,"is_reserved":false,"is_disabled":false,"rental_uris":{"android":"levelo://app?vid=2e0ba70d-bb42-412e-9d77-7f0bbd314806","ios":"levelo://app?vid=2e0ba70d-bb42-412e-9d77-7f0bbd314806"},"vehicle_type_id":"4","last_reported":1761408637,"current_range_meters":3200,"station_id":"ce4bhbp2rcd13ifvqerg","pricing_plan_id":"cebpf4jnsgd1na2vs0mg"},{"bike_id":"64261985-c9ca-4b0c-a82e-66fd7a8c4779","system_id":"levelo_inurba_marseille","lat":43.29379,"lon":5.37853,"is_reserved":false,"is_disabled":false,"rental_uris":{"android":"levelo://app?vid=64261985-c9ca-4b0c-a82e-66fd7a8c4779","ios":"levelo://app?vid=64261985-c9ca-4b0c-a82e-66fd7a8c4779"},"vehicle_type_id":"4","last_reported":1761408637,"current_range_meters":3200,"station_id":"ce4bgjh2rcd13ifvqbf0","pricing_plan_id":"cebpf4jnsgd1na2vs0mg"},{"bike_id":"0c704490-c9ce-4504-82f7-b3ce885fdffe","system_id":"levelo_inurba_marseille","lat":43.286166,"lon":5.351048,"is_reserved":false,"is_disabled":false,"rental_uris":{"android":"levelo://app?vid=0c704490-c9ce-4504-82f7-b3ce885fdffe","ios":"levelo://app?vid=0c704490-c9ce-4504-82f7-b3ce885fdffe"},"vehicle_type_id":"4","last_reported":1761408637,"current_range_meters":3200,"station_id":"ce4bhch2rcd13ifvqeug","pricing_plan_id":"cebpf4jnsgd1na2vs0mg"},{"bike_id":"dbc99fed-1547-4277-a267-915c6900a648","system_id":"levelo_inurba_marseille","lat":43.296269,"lon":5.37053,"is_reserved":false,"is_disabled":false,"rental_uris":{"android":"levelo://app?vid=dbc99fed-1547-4277-a267-915c6900a648","ios":"levelo://app?vid=dbc99fed-1547-4277-a267-915c6900a648"},"vehicle_type_id":"4","last_reported":1761408637,"current_range_meters":3200,"station_id":"ce4bgm92rcd13ifvqbr0","pricing_plan_id":"cebpf4jnsgd1na2vs0mg"},{"bike_id":"ce742672-30e3-40b7-ae59-0c9783b9986b","system_id":"levelo_inurba_marseille","lat":43.29779,"lon":5.39329,"is_reserved":false,"is_disabled":false,"rental_uris":{"android":"levelo://app?vid=ce742672-30e3-40b7-ae59-0c9783b9986b","ios":"levelo://app?vid=ce742672-30e3-40b7-ae59-0c9783b9986b"},"vehicle_type_id":"4","last_reported":1761408637,"current_range_meters":3200,"station_id":"chh1huq6cuj3fo74tm60","pricing_plan_id":"cebpf4jnsgd1na2vs0mg"},{"bike_id":"89bda5a6-e6e6-4354-9e67-efb44f9cdd4a","system_id":"levelo_inurba_marseille","lat":43.301541,"lon":5.3739,"is_reserved":false,"is_disabled":false,"rental_uris":{"android":"levelo://app?vid=89bda5a6-e6e6-4354-9e67-efb44f9cdd4a","ios":"levelo://app?vid=89bda5a6-e6e6-4354-9e67-efb44f9cdd4a"},"vehicle_type_id":"4","last_reported":1761408637,"current_range_meters":3600,"station_id":"ce4bgs92rcd13ifvqcc0","pricing_plan_id":"cebpf4jnsgd1na2vs0mg"},{"bike_id":"c477378c-6707-462c-8981-00581e0c58e1","system_id":"levelo_inurba_marseille","lat":43.309296,"lon":5.401403,"is_reserved":false,"is_disabled":false,"rental_uris":{"android":"levelo://app?vid=c477378c-6707-462c-8981-00581e0c58e1","ios":"levelo://app?vid=c477378c-6707-462c-8981-00581e0c58e1"},"vehicle_type_id":"4","last_reported":1761408637,"current_range_meters":3600,"station_id":"ce4bgvp2rcd13ifvqct0","pricing_plan_id":"cebpf4jnsgd1na2vs0mg"},{"bike_id":"e26547b6-5813-44a3-8a65-5655c070eae0","system_id":"levelo_inurba_marseille","lat":43.30463,"lon":5.37913,"is_reserved":false,"is_disabled":false,"rental_uris":{"android":"levelo://app?vid=e26547b6-5813-44a3-8a65-5655c070eae0","ios":"levelo://app?vid=e26547b6-5813-44a3-8a65-5655c070eae0"},"vehicle_type_id":"4","last_reported":1761408637,"current_range_meters":3600,"station_id":"ce4bgup2rcd13ifvqcn0","pricing_plan_id":"cebpf4jnsgd1na2vs0mg"},{"bike_id":"4b491e2f-7a45-4436-8b88-e9a940ef207d","system_id":"levelo_inurba_marseille","lat":43.28104,"lon":5.37844,"is_reserved":false,"is_disabled":false,"rental_uris":{"android":"levelo://app?vid=4b491e2f-7a45-4436-8b88-e9a940ef207d","ios":"levelo://app?vid=4b491e2f-7a45-4436-8b88-e9a940ef207d"},"vehicle_type_id":"4","last_reported":1761408637,"current_range_meters":3600,"station_id":"ce4bha12rcd13ifvqee0","pricing_plan_id":"cebpf4jnsgd1na2vs0mg"},{"bike_id":"c21fa530-e7cc-4eb2-8dbf-bc026facd62f","system_id":"levelo_inurba_marseille","lat":43.28465,"lon":5.35898,"is_reserved":false,"is_disabled":false,"rental_uris":{"android":"levelo://app?vid=c21fa530-e7cc-4eb2-8dbf-bc026facd62f","ios":"levelo://app?vid=c21fa530-e7cc-4eb2-8dbf-bc026facd62f"},"vehicle_type_id":"4","last_reported":1761408637,"current_range_meters":3600,"station_id":"ce4bhah2rcd13ifvqei0","pricing_plan_id":"cebpf4jnsgd1na2vs0mg"},{"bike_id":"904f817c-7e39-4d76-974e-0d9b283ffbc6","system_id":"levelo_inurba_marseille","lat":43.290946,"lon":5.381353,"is_reserved":false,"is_disabled":false,"rental_uris":{"android":"levelo://app?vid=904f817c-7e39-4d76-974e-0d9b283ffbc6","ios":"levelo://app?vid=904f817c-7e39-4d76-974e-0d9b283ffbc6"},"vehicle_type_id":"4","last_reported":1761408637,"current_range_meters":3600,"station_id":"ce4bh512rcd13ifvqe2g","pricing_plan_id":"cebpf4jnsgd1na2vs0mg"},{"bike_id":"50cb130c-62f0-4a52-b4fe-28f5117cd269","system_id":"levelo_inurba_marseille","lat":43.28075,"lon":5.39665,"is_reserved":false,"is_disabled":false,"rental_uris":{"android":"levelo://app?vid=50cb130c-62f0-4a52-b4fe-28f5117cd269","ios":"levelo://app?vid=50cb130c-62f0-4a52-b4fe-28f5117cd269"},"vehicle_type_id":"4","last_reported":1761408637,"current_range_meters":3600,"station_id":"ce4bho12rcd13ifvqh2g","pricing_plan_id":"cebpf4jnsgd1na2vs0mg"},{"bike_id":"e2df9721-0884-4c3a-8111-b6dacad2e1f5","system_id":"levelo_inurba_marseille","lat":43.28102,"lon":5.37847,"is_reserved":false,"is_disabled":false,"rental_uris":{"android":"levelo://app?vid=e2df9721-0884-4c3a-8111-b6dacad2e1f5","ios":"levelo://app?vid=e2df9721-0884-4c3a-8111-b6dacad2e1f5"},"vehicle_type_id":"4","last_reported":1761408637,"current_range_meters":3600,"station_id":"ce4bha12rcd13ifvqee0","pricing_plan_id":"cebpf4jnsgd1na2vs0mg"},{"bike_id":"1c87b3f5-b256-4a81-a5ac-baf7bb4aa9df","system_id":"levelo_inurba_marseille","lat":43.298678,"lon":5.397501,"is_reserved":false,"is_disabled":false,"rental_uris":{"android":"levelo://app?vid=1c87b3f5-b256-4a81-a5ac-baf7bb4aa9df","ios":"levelo://app?vid=1c87b3f5-b256-4a81-a5ac-baf7bb4aa9df"},"vehicle_type_id":"4","last_reported":1761408637,"current_range_meters":4000,"station_id":"ce4bh0h2rcd13ifvqd50","pricing_plan_id":"cebpf4jnsgd1na2vs0mg"},{"bike_id":"cee3a606-c581-4ab5-bb3e-bac0763f3b99","system_id":"levelo_inurba_marseille","lat":43.24799,"lon":5.37478,"is_reserved":false,"is_disabled":false,"rental_uris":{"android":"levelo://app?vid=cee3a606-c581-4ab5-bb3e-bac0763f3b99","ios":"levelo://app?vid=cee3a606-c581-4ab5-bb3e-bac0763f3b99"},"vehicle_type_id":"4","last_reported":1761408637,"current_range_meters":4000,"station_id":"ce4bhgh2rcd13ifvqfb0","pricing_plan_id":"cebpf4jnsgd1na2vs0mg"},{"bike_id":"f5913dcc-4311-4cab-ba5e-d25b510e18ad","system_id":"levelo_inurba_marseille","lat":43.284863,"lon":5.35872,"is_reserved":false,"is_disabled":false,"rental_uris":{"android":"levelo://app?vid=f5913dcc-4311-4cab-ba5e-d25b510e18ad","ios":"levelo://app?vid=f5913dcc-4311-4cab-ba5e-d25b510e18ad"},"vehicle_type_id":"4","last_reported":1761408637,"current_range_meters":4000,"station_id":"ce4bhah2rcd13ifvqei0","pricing_plan_id":"cebpf4jnsgd1na2vs0mg"},{"bike_id":"25f6e774-b75a-44a1-96d0-0c8c8d1491e2","system_id":"levelo_inurba_marseille","lat":43.241692,"lon":5.363977,"is_reserved":false,"is_disabled":false,"rental_uris":{"android":"levelo://app?vid=25f6e774-b75a-44a1-96d0-0c8c8d1491e2","ios":"levelo://app?vid=25f6e774-b75a-44a1-96d0-0c8c8d1491e2"},"vehicle_type_id":"4","last_reported":1761408637,"current_range_meters":4000,"station_id":"ce4bhhp2rcd13ifvqfm0","pricing_plan_id":"cebpf4jnsgd1na2vs0mg"},{"bike_id":"03ad7e1e-02ee-4fb5-8486-3f59042aa148","system_id":"levelo_inurba_marseille","lat":43.29005,"lon":5.35611,"is_reserved":false,"is_disabled":false,"rental_uris":{"android":"levelo://app?vid=03ad7e1e-02ee-4fb5-8486-3f59042aa148","ios":"levelo://app?vid=03ad7e1e-02ee-4fb5-8486-3f59042aa148"},"vehicle_type_id":"4","last_reported":1761408637,"current_range_meters":4400,"station_id":"ce4bhb92rcd13ifvqen0","pricing_plan_id":"cebpf4jnsgd1na2vs0mg"},{"bike_id":"323bf2de-3bb4-4b4c-b330-b19ea807dbf5","system_id":"levelo_inurba_marseille","lat":43.32999,"lon":5.42976,"is_reserved":false,"is_disabled":false,"rental_uris":{"android":"levelo://app?vid=323bf2de-3bb4-4b4c-b330-b19ea807dbf5","ios":"levelo://app?vid=323bf2de-3bb4-4b4c-b330-b19ea807dbf5"},"vehicle_type_id":"4","last_reported":1761408637,"current_range_meters":4400,"station_id":"","pricing_plan_id":"cebpf4jnsgd1na2vs0mg"},{"bike_id":"54badd2d-5a1a-40f3-8c24-4b5271b03568","system_id":"levelo_inurba_marseille","lat":43.29242,"lon":5.38447,"is_reserved":false,"is_disabled":false,"rental_uris":{"android":"levelo://app?vid=54badd2d-5a1a-40f3-8c24-4b5271b03568","ios":"levelo://app?vid=54badd2d-5a1a-40f3-8c24-4b5271b03568"},"vehicle_type_id":"4","last_reported":1761408637,"current_range_meters":4400,"station_id":"ce4bh692rcd13ifvqea0","pricing_plan_id":"cebpf4jnsgd1na2vs0mg"},{"bike_id":"17bd9fff-f8a7-45af-8120-cab272292f42","system_id":"levelo_inurba_marseille","lat":43.284783,"lon":5.484012,"is_reserved":false,"is_disabled":false,"rental_uris":{"android":"levelo://app?vid=17bd9fff-f8a7-45af-8120-cab272292f42","ios":"levelo://app?vid=17bd9fff-f8a7-45af-8120-cab272292f42"},"vehicle_type_id":"4","last_reported":1761408637,"current_range_meters":4400,"station_id":"st_d3svhcjqgbts73a3dn0g","pricing_plan_id":"cebpf4jnsgd1na2vs0mg"},{"bike_id":"8239444d-f845-4745-823b-8620ff2ce779","system_id":"levelo_inurba_marseille","lat":43.28722,"lon":5.37385,"is_reserved":false,"is_disabled":false,"rental_uris":{"android":"levelo://app?vid=8239444d-f845-4745-823b-8620ff2ce779","ios":"levelo://app?vid=8239444d-f845-4745-823b-8620ff2ce779"},"vehicle_type_id":"4","last_reported":1761408637,"current_range_meters":4400,"station_id":"ce4bh3p2rcd13ifvqdq0","pricing_plan_id":"cebpf4jnsgd1na2vs0mg"},{"bike_id":"c29e07e2-6df3-49df-846a-3a1cf6c08f8a","system_id":"levelo_inurba_marseille","lat":43.255127,"lon":5.37653,"is_reserved":false,"is_disabled":false,"rental_uris":{"android":"levelo://app?vid=c29e07e2-6df3-49df-846a-3a1cf6c08f8a","ios":"levelo://app?vid=c29e07e2-6df3-49df-846a-3a1cf6c08f8a"},"vehicle_type_id":"4","last_reported":1761408637,"current_range_meters":4400,"station_id":"ce4bhh12rcd13ifvqff0","pricing_plan_id":"cebpf4jnsgd1na2vs0mg"},{"bike_id":"907018a5-e35f-4029-b1bb-aa32a779f428","system_id":"levelo_inurba_marseille","lat":43.286146,"lon":5.351072,"is_reserved":false,"is_disabled":false,"rental_uris":{"android":"levelo://app?vid=907018a5-e35f-4029-b1bb-aa32a779f428","ios":"levelo://app?vid=907018a5-e35f-4029-b1bb-aa32a779f428"},"vehicle_type_id":"4","last_reported":1761408637,"current_range_meters":4400,"station_id":"","pricing_plan_id":"cebpf4jnsgd1na2vs0mg"},{"bike_id":"19fb5cbf-6500-4c88-8108-c1c21f6e6987","system_id":"levelo_inurba_marseille","lat":43.31365,"lon":5.38496,"is_reserved":false,"is_disabled":false,"rental_uris":{"android":"levelo://app?vid=19fb5cbf-6500-4c88-8108-c1c21f6e6987","ios":"levelo://app?vid=19fb5cbf-6500-4c88-8108-c1c21f6e6987"},"vehicle_type_id":"4","last_reported":1761408637,"current_range_meters":4800,"station_id":"ce4bgt92rcd13ifvqcf0","pricing_plan_id":"cebpf4jnsgd1na2vs0mg"},{"bike_id":"351e381e-2c83-46b1-9900-7ac9d702c4c5","system_id":"levelo_inurba_marseille","lat":43.29582,"lon":5.3675,"is_reserved":false,"is_disabled":false,"rental_uris":{"android":"levelo://app?vid=351e381e-2c83-46b1-9900-7ac9d702c4c5","ios":"levelo://app?vid=351e381e-2c83-46b1-9900-7ac9d702c4c5"},"vehicle_type_id":"4","last_reported":1761408637,"current_range_meters":4800,"station_id":"ce4bgph2rcd13ifvqc2g","pricing_plan_id":"cebpf4jnsgd1na2vs0mg"},{"bike_id":"a5f0cf9d-e21c-47a1-ad1e-bf0e80b8bf52","system_id":"levelo_inurba_marseille","lat":43.2174,"lon":5.34621,"is_reserved":false,"is_disabled":false,"rental_uris":{"android":"levelo://app?vid=a5f0cf9d-e21c-47a1-ad1e-bf0e80b8bf52","ios":"levelo://app?vid=a5f0cf9d-e21c-47a1-ad1e-bf0e80b8bf52"},"vehicle_type_id":"4","last_reported":1761408637,"current_range_meters":4800,"station_id":"st_cvj6r9ubvosntc0bgbag","pricing_plan_id":"cebpf4jnsgd1na2vs0mg"},{"bike_id":"d580972f-d071-4bb5-84d4-5cce6c8bda2e","system_id":"levelo_inurba_marseille","lat":43.284851,"lon":5.385405,"is_reserved":false,"is_disabled":false,"rental_uris":{"android":"levelo://app?vid=d580972f-d071-4bb5-84d4-5cce6c8bda2e","ios":"levelo://app?vid=d580972f-d071-4bb5-84d4-5cce6c8bda2e"},"vehicle_type_id":"4","last_reported":1761408637,"current_range_meters":5600,"station_id":"ce4bh8p2rcd13ifvqeb0","pricing_plan_id":"cebpf4jnsgd1na2vs0mg"},{"bike_id":"b7e399a0-1d93-4450-bcab-e5afd4a8c79c","system_id":"levelo_inurba_marseille","lat":43.28278,"lon":5.35065,"is_reserved":false,"is_disabled":false,"rental_uris":{"android":"levelo://app?vid=b7e399a0-1d93-4450-bcab-e5afd4a8c79c","ios":"levelo://app?vid=b7e399a0-1d93-4450-bcab-e5afd4a8c79c"},"vehicle_type_id":"4","last_reported":1761408637,"current_range_meters":5600,"station_id":"ce4bhbp2rcd13ifvqerg","pricing_plan_id":"cebpf4jnsgd1na2vs0mg"},{"bike_id":"d13bb8f4-51e4-40b3-b448-4b18e31abbb9","system_id":"levelo_inurba_marseille","lat":43.28267,"lon":5.35067,"is_reserved":false,"is_disabled":false,"rental_uris":{"android":"levelo://app?vid=d13bb8f4-51e4-40b3-b448-4b18e31abbb9","ios":"levelo://app?vid=d13bb8f4-51e4-40b3-b448-4b18e31abbb9"},"vehicle_type_id":"4","last_reported":1761408637,"current_range_meters":5600,"station_id":"ce4bhbp2rcd13ifvqerg","pricing_plan_id":"cebpf4jnsgd1na2vs0mg"},{"bike_id":"00fd3c6a-780c-49dc-9993-d4de69c9b57a","system_id":"levelo_inurba_marseille","lat":43.310738,"lon":5.37455,"is_reserved":false,"is_disabled":false,"rental_uris":{"android":"levelo://app?vid=00fd3c6a-780c-49dc-9993-d4de69c9b57a","ios":"levelo://app?vid=00fd3c6a-780c-49dc-9993-d4de69c9b57a"},"vehicle_type_id":"4","last_reported":1761408637,"current_range_meters":5600,"station_id":"","pricing_plan_id":"cebpf4jnsgd1na2vs0mg"},{"bike_id":"b6143438-7bab-4b48-ac83-afe7c173cec2","system_id":"levelo_inurba_marseille","lat":43.29529,"lon":5.375,"is_reserved":false,"is_disabled":false,"rental_uris":{"android":"levelo://app?vid=b6143438-7bab-4b48-ac83-afe7c173cec2","ios":"levelo://app?vid=b6143438-7bab-4b48-ac83-afe7c173cec2"},"vehicle_type_id":"4","last_reported":1761408637,"current_range_meters":5600,"station_id":"ce4bgkp2rcd13ifvqbmg","pricing_plan_id":"cebpf4jnsgd1na2vs0mg"},{"bike_id":"ae1c851e-2d8d-4d54-9e1c-234cf28041a8","system_id":"levelo_inurba_marseille","lat":43.2925,"lon":5.38455,"is_reserved":false,"is_disabled":false,"rental_uris":{"android":"levelo://app?vid=ae1c851e-2d8d-4d54-9e1c-234cf28041a8","ios":"levelo://app?vid=ae1c851e-2d8d-4d54-9e1c-234cf28041a8"},"vehicle_type_id":"4","last_reported":1761408637,"current_range_meters":5600,"station_id":"ce4bh692rcd13ifvqea0","pricing_plan_id":"cebpf4jnsgd1na2vs0mg"},{"bike_id":"79331ba8-7b68-4cd3-bc35-de979ef11c0a","system_id":"levelo_inurba_marseille","lat":43.23197,"lon":5.35549,"is_reserved":false,"is_disabled":false,"rental_uris":{"android":"levelo://app?vid=79331ba8-7b68-4cd3-bc35-de979ef11c0a","ios":"levelo://app?vid=79331ba8-7b68-4cd3-bc35-de979ef11c0a"},"vehicle_type_id":"4","last_reported":1761408637,"current_range_meters":6000,"station_id":"ce4bhu92rcd13ifvqi70","pricing_plan_id":"cebpf4jnsgd1na2vs0mg"},{"bike_id":"154ca9a5-bdc9-49e0-b86a-700d7e101b87","system_id":"levelo_inurba_marseille","lat":43.2979,"lon":5.38094,"is_reserved":false,"is_disabled":false,"rental_uris":{"android":"levelo://app?vid=154ca9a5-bdc9-49e0-b86a-700d7e101b87","ios":"levelo://app?vid=154ca9a5-bdc9-49e0-b86a-700d7e101b87"},"vehicle_type_id":"4","last_reported":1761408637,"current_range_meters":6000,"station_id":"ce4bgip2rcd13ifvqbb0","pricing_plan_id":"cebpf4jnsgd1na2vs0mg"},{"bike_id":"8bcacd78-80de-4026-af75-b37ebe3030fe","system_id":"levelo_inurba_marseille","lat":43.334756,"lon":5.404255,"is_reserved":false,"is_disabled":false,"rental_uris":{"android":"levelo://app?vid=8bcacd78-80de-4026-af75-b37ebe3030fe","ios":"levelo://app?vid=8bcacd78-80de-4026-af75-b37ebe3030fe"},"vehicle_type_id":"4","last_reported":1761408637,"current_range_meters":6000,"station_id":"","pricing_plan_id":"cebpf4jnsgd1na2vs0mg"},{"bike_id":"8246c4a7-4c72-4bb9-92d9-2b054db087c4","system_id":"levelo_inurba_marseille","lat":43.29302,"lon":5.374633,"is_reserved":false,"is_disabled":false,"rental_uris":{"android":"levelo://app?vid=8246c4a7-4c72-4bb9-92d9-2b054db087c4","ios":"levelo://app?vid=8246c4a7-4c72-4bb9-92d9-2b054db087c4"},"vehicle_type_id":"4","last_reported":1761408637,"current_range_meters":6000,"station_id":"ce4bgi12rcd13ifvqb70","pricing_plan_id":"cebpf4jnsgd1na2vs0mg"},{"bike_id":"8dc4c13c-b7f6-469e-b037-f6edf47ac427","system_id":"levelo_inurba_marseille","lat":43.249518,"lon":5.404939,"is_reserved":false,"is_disabled":false,"rental_uris":{"android":"levelo://app?vid=8dc4c13c-b7f6-469e-b037-f6edf47ac427","ios":"levelo://app?vid=8dc4c13c-b7f6-469e-b037-f6edf47ac427"},"vehicle_type_id":"4","last_reported":1761408637,"current_range_meters":6000,"station_id":"st_d2ngiaodas8pm72gd1h0","pricing_plan_id":"cebpf4jnsgd1na2vs0mg"},{"bike_id":"7beca1dc-0c2d-4d05-b3a2-2d5d15407f60","system_id":"levelo_inurba_marseille","lat":43.30535,"lon":5.36713,"is_reserved":false,"is_disabled":false,"rental_uris":{"android":"levelo://app?vid=7beca1dc-0c2d-4d05-b3a2-2d5d15407f60","ios":"levelo://app?vid=7beca1dc-0c2d-4d05-b3a2-2d5d15407f60"},"vehicle_type_id":"4","last_reported":1761408637,"current_range_meters":6000,"station_id":"ce4bgrp2rcd13ifvqc9g","pricing_plan_id":"cebpf4jnsgd1na2vs0mg"},{"bike_id":"55e1bf19-2ee0-4f89-8fbd-1b227453ba17","system_id":"levelo_inurba_marseille","lat":43.28607,"lon":5.37066,"is_reserved":false,"is_disabled":false,"rental_uris":{"android":"levelo://app?vid=55e1bf19-2ee0-4f89-8fbd-1b227453ba17","ios":"levelo://app?vid=55e1bf19-2ee0-4f89-8fbd-1b227453ba17"},"vehicle_type_id":"4","last_reported":1761408637,"current_range_meters":6000,"station_id":"ce4bht12rcd13ifvqi60","pricing_plan_id":"cebpf4jnsgd1na2vs0mg"},{"bike_id":"935a9c65-aa9b-46d1-8d9b-d878bb5b5a2f","system_id":"levelo_inurba_marseille","lat":43.279513,"lon":5.3873,"is_reserved":false,"is_disabled":false,"rental_uris":{"android":"levelo://app?vid=935a9c65-aa9b-46d1-8d9b-d878bb5b5a2f","ios":"levelo://app?vid=935a9c65-aa9b-46d1-8d9b-d878bb5b5a2f"},"vehicle_type_id":"4","last_reported":1761408637,"current_range_meters":6400,"station_id":"ce4bhg12rcd13ifvqf80","pricing_plan_id":"cebpf4jnsgd1na2vs0mg"},{"bike_id":"dee094f8-3b65-445f-96e0-4c22fc206276","system_id":"levelo_inurba_marseille","lat":43.286429,"lon":5.383499,"is_reserved":false,"is_disabled":false,"rental_uris":{"android":"levelo://app?vid=dee094f8-3b65-445f-96e0-4c22fc206276","ios":"levelo://app?vid=dee094f8-3b65-445f-96e0-4c22fc206276"},"vehicle_type_id":"4","last_reported":1761408637,"current_range_meters":6400,"station_id":"","pricing_plan_id":"cebpf4jnsgd1na2vs0mg"},{"bike_id":"3765da70-c6e6-4b52-be2c-6798e6623ade","system_id":"levelo_inurba_marseille","lat":43.29679,"lon":5.37296,"is_reserved":false,"is_disabled":false,"rental_uris":{"android":"levelo://app?vid=3765da70-c6e6-4b52-be2c-6798e6623ade","ios":"levelo://app?vid=3765da70-c6e6-4b52-be2c-6798e6623ade"},"vehicle_type_id":"4","last_reported":1761408637,"current_range_meters":6400,"station_id":"ce4bgk12rcd13ifvqbj0","pricing_plan_id":"cebpf4jnsgd1na2vs0mg"},{"bike_id":"635fd561-6e84-4da8-b07a-93ecda036e96","system_id":"levelo_inurba_marseille","lat":43.286263,"lon":5.35108,"is_reserved":false,"is_disabled":true,"rental_uris":{"android":"levelo://app?vid=635fd561-6e84-4da8-b07a-93ecda036e96","ios":"levelo://app?vid=635fd561-6e84-4da8-b07a-93ecda036e96"},"vehicle_type_id":"4","last_reported":1761408637,"current_range_meters":6400,"station_id":"ce4bhch2rcd13ifvqeug","pricing_plan_id":"cebpf4jnsgd1na2vs0mg"},{"bike_id":"b9764ed2-f91a-421e-b54e-d7527bd8af22","system_id":"levelo_inurba_marseille","lat":43.29811,"lon":5.36588,"is_reserved":false,"is_disabled":false,"rental_uris":{"android":"levelo://app?vid=b9764ed2-f91a-421e-b54e-d7527bd8af22","ios":"levelo://app?vid=b9764ed2-f91a-421e-b54e-d7527bd8af22"},"vehicle_type_id":"4","last_reported":1761408637,"current_range_meters":6400,"station_id":"","pricing_plan_id":"cebpf4jnsgd1na2vs0mg"},{"bike_id":"fba9484f-df77-402d-a8fe-e29c0111a747","system_id":"levelo_inurba_marseille","lat":43.27331,"lon":5.39069,"is_reserved":false,"is_disabled":false,"rental_uris":{"android":"levelo://app?vid=fba9484f-df77-402d-a8fe-e29c0111a747","ios":"levelo://app?vid=fba9484f-df77-402d-a8fe-e29c0111a747"},"vehicle_type_id":"4","last_reported":1761408637,"current_range_meters":6400,"station_id":"ce4bhgp2rcd13ifvqfe0","pricing_plan_id":"cebpf4jnsgd1na2vs0mg"},{"bike_id":"731bd2e9-0cc2-4179-86c5-7d117248e127","system_id":"levelo_inurba_marseille","lat":43.28047,"lon":5.36939,"is_reserved":false,"is_disabled":false,"rental_uris":{"android":"levelo://app?vid=731bd2e9-0cc2-4179-86c5-7d117248e127","ios":"levelo://app?vid=731bd2e9-0cc2-4179-86c5-7d117248e127"},"vehicle_type_id":"4","last_reported":1761408637,"current_range_meters":6400,"station_id":"ce4bha12rcd13ifvqef0","pricing_plan_id":"cebpf4jnsgd1na2vs0mg"},{"bike_id":"7a8cdb24-e5e1-48b5-bf71-8cdb7f6004bd","system_id":"levelo_inurba_marseille","lat":43.21745,"lon":5.34603,"is_reserved":false,"is_disabled":false,"rental_uris":{"android":"levelo://app?vid=7a8cdb24-e5e1-48b5-bf71-8cdb7f6004bd","ios":"levelo://app?vid=7a8cdb24-e5e1-48b5-bf71-8cdb7f6004bd"},"vehicle_type_id":"4","last_reported":1761408637,"current_range_meters":6400,"station_id":"","pricing_plan_id":"cebpf4jnsgd1na2vs0mg"},{"bike_id":"dac31d24-1a7a-41ce-aa5b-97abd4092251","system_id":"levelo_inurba_marseille","lat":43.24075,"lon":5.37765,"is_reserved":false,"is_disabled":false,"rental_uris":{"android":"levelo://app?vid=dac31d24-1a7a-41ce-aa5b-97abd4092251","ios":"levelo://app?vid=dac31d24-1a7a-41ce-aa5b-97abd4092251"},"vehicle_type_id":"4","last_reported":1761408637,"current_range_meters":6400,"station_id":"ce4bhnp2rcd13ifvqgvg","pricing_plan_id":"cebpf4jnsgd1na2vs0mg"},{"bike_id":"19de8aa7-05d0-4a0a-a3e6-af71b7b2e62c","system_id":"levelo_inurba_marseille","lat":43.2549,"lon":5.37648,"is_reserved":false,"is_disabled":false,"rental_uris":{"android":"levelo://app?vid=19de8aa7-05d0-4a0a-a3e6-af71b7b2e62c","ios":"levelo://app?vid=19de8aa7-05d0-4a0a-a3e6-af71b7b2e62c"},"vehicle_type_id":"4","last_reported":1761408637,"current_range_meters":6400,"station_id":"ce4bhh12rcd13ifvqff0","pricing_plan_id":"cebpf4jnsgd1na2vs0mg"},{"bike_id":"575efb12-7b12-4f03-93a1-37f6c5ef750e","system_id":"levelo_inurba_marseille","lat":43.297604,"lon":5.427817,"is_reserved":false,"is_disabled":false,"rental_uris":{"android":"levelo://app?vid=575efb12-7b12-4f03-93a1-37f6c5ef750e","ios":"levelo://app?vid=575efb12-7b12-4f03-93a1-37f6c5ef750e"},"vehicle_type_id":"4","last_reported":1761408637,"current_range_meters":6400,"station_id":"st_d3md5207bmas73dh9klg","pricing_plan_id":"cebpf4jnsgd1na2vs0mg"},{"bike_id":"ef9f94b6-49db-4195-b862-563223e2ba3d","system_id":"levelo_inurba_marseille","lat":43.21746,"lon":5.34608,"is_reserved":false,"is_disabled":false,"rental_uris":{"android":"levelo://app?vid=ef9f94b6-49db-4195-b862-563223e2ba3d","ios":"levelo://app?vid=ef9f94b6-49db-4195-b862-563223e2ba3d"},"vehicle_type_id":"4","last_reported":1761408637,"current_range_meters":6800,"station_id":"st_cvj6r9ubvosntc0bgbag","pricing_plan_id":"cebpf4jnsgd1na2vs0mg"},{"bike_id":"c1c19548-aeae-41f4-9628-9ba0242591dd","system_id":"levelo_inurba_marseille","lat":43.2842,"lon":5.34996,"is_reserved":false,"is_disabled":true,"rental_uris":{"android":"levelo://app?vid=c1c19548-aeae-41f4-9628-9ba0242591dd","ios":"levelo://app?vid=c1c19548-aeae-41f4-9628-9ba0242591dd"},"vehicle_type_id":"4","last_reported":1761408637,"current_range_meters":6800,"station_id":"ce4bhbh2rcd13ifvqepg","pricing_plan_id":"cebpf4jnsgd1na2vs0mg"},{"bike_id":"ead58d79-9ed3-4b2d-b18e-dede1cacf8af","system_id":"levelo_inurba_marseille","lat":43.24958,"lon":5.40498,"is_reserved":false,"is_disabled":false,"rental_uris":{"android":"levelo://app?vid=ead58d79-9ed3-4b2d-b18e-dede1cacf8af","ios":"levelo://app?vid=ead58d79-9ed3-4b2d-b18e-dede1cacf8af"},"vehicle_type_id":"4","last_reported":1761408637,"current_range_meters":6800,"station_id":"st_d2ngiaodas8pm72gd1h0","pricing_plan_id":"cebpf4jnsgd1na2vs0mg"},{"bike_id":"2465f1ee-35ef-42c2-b2d9-b61d83071189","system_id":"levelo_inurba_marseille","lat":43.284104,"lon":5.374975,"is_reserved":false,"is_disabled":false,"rental_uris":{"android":"levelo://app?vid=2465f1ee-35ef-42c2-b2d9-b61d83071189","ios":"levelo://app?vid=2465f1ee-35ef-42c2-b2d9-b61d83071189"},"vehicle_type_id":"4","last_reported":1761408637,"current_range_meters":6800,"station_id":"ce4bh412rcd13ifvqds0","pricing_plan_id":"cebpf4jnsgd1na2vs0mg"},{"bike_id":"cb14a91a-e5a7-4fa2-9c1d-b1acec3d3362","system_id":"levelo_inurba_marseille","lat":43.24153,"lon":5.36425,"is_reserved":false,"is_disabled":false,"rental_uris":{"android":"levelo://app?vid=cb14a91a-e5a7-4fa2-9c1d-b1acec3d3362","ios":"levelo://app?vid=cb14a91a-e5a7-4fa2-9c1d-b1acec3d3362"},"vehicle_type_id":"4","last_reported":1761408637,"current_range_meters":6800,"station_id":"cpo36qri1sfpv3e86is0","pricing_plan_id":"cebpf4jnsgd1na2vs0mg"},{"bike_id":"6c978de0-aac8-47ad-9fcd-81cede3473d5","system_id":"levelo_inurba_marseille","lat":43.29265,"lon":5.38434,"is_reserved":false,"is_disabled":false,"rental_uris":{"android":"levelo://app?vid=6c978de0-aac8-47ad-9fcd-81cede3473d5","ios":"levelo://app?vid=6c978de0-aac8-47ad-9fcd-81cede3473d5"},"vehicle_type_id":"4","last_reported":1761408637,"current_range_meters":6800,"station_id":"ce4bh692rcd13ifvqea0","pricing_plan_id":"cebpf4jnsgd1na2vs0mg"},{"bike_id":"9881c788-42a8-46f5-8ccc-580a73583155","system_id":"levelo_inurba_marseille","lat":43.32085,"lon":5.40917,"is_reserved":false,"is_disabled":false,"rental_uris":{"android":"levelo://app?vid=9881c788-42a8-46f5-8ccc-580a73583155","ios":"levelo://app?vid=9881c788-42a8-46f5-8ccc-580a73583155"},"vehicle_type_id":"4","last_reported":1761408637,"current_range_meters":6800,"station_id":"","pricing_plan_id":"cebpf4jnsgd1na2vs0mg"},{"bike_id":"0aebd4b6-76f5-4040-9ba4-1e7de3d0e296","system_id":"levelo_inurba_marseille","lat":43.29973,"lon":5.38499,"is_reserved":false,"is_disabled":false,"rental_uris":{"android":"levelo://app?vid=0aebd4b6-76f5-4040-9ba4-1e7de3d0e296","ios":"levelo://app?vid=0aebd4b6-76f5-4040-9ba4-1e7de3d0e296"},"vehicle_type_id":"4","last_reported":1761408637,"current_range_meters":7200,"station_id":"ce4bgj92rcd13ifvqbd0","pricing_plan_id":"cebpf4jnsgd1na2vs0mg"},{"bike_id":"4d27f94c-aa45-4a42-822c-d90e0de11c76","system_id":"levelo_inurba_marseille","lat":43.30333,"lon":5.40435,"is_reserved":false,"is_disabled":false,"rental_uris":{"android":"levelo://app?vid=4d27f94c-aa45-4a42-822c-d90e0de11c76","ios":"levelo://app?vid=4d27f94c-aa45-4a42-822c-d90e0de11c76"},"vehicle_type_id":"4","last_reported":1761408637,"current_range_meters":7200,"station_id":"ce4bh012rcd13ifvqd10","pricing_plan_id":"cebpf4jnsgd1na2vs0mg"},{"bike_id":"79e466c6-a9ea-471f-adb6-d69cb7dde655","system_id":"levelo_inurba_marseille","lat":43.309272,"lon":5.401552,"is_reserved":false,"is_disabled":false,"rental_uris":{"android":"levelo://app?vid=79e466c6-a9ea-471f-adb6-d69cb7dde655","ios":"levelo://app?vid=79e466c6-a9ea-471f-adb6-d69cb7dde655"},"vehicle_type_id":"4","last_reported":1761408637,"current_range_meters":7200,"station_id":"ce4bgvp2rcd13ifvqct0","pricing_plan_id":"cebpf4jnsgd1na2vs0mg"},{"bike_id":"85bfe914-b3c1-4abc-979a-fca1fac11fbc","system_id":"levelo_inurba_marseille","lat":43.29027,"lon":5.38132,"is_reserved":false,"is_disabled":false,"rental_uris":{"android":"levelo://app?vid=85bfe914-b3c1-4abc-979a-fca1fac11fbc","ios":"levelo://app?vid=85bfe914-b3c1-4abc-979a-fca1fac11fbc"},"vehicle_type_id":"4","last_reported":1761408637,"current_range_meters":7200,"station_id":"ce4bh4p2rcd13ifvqe1g","pricing_plan_id":"cebpf4jnsgd1na2vs0mg"},{"bike_id":"2842f5fd-7b05-4b47-909c-5ee54d7d3bc5","system_id":"levelo_inurba_marseille","lat":43.324463,"lon":5.427797,"is_reserved":false,"is_disabled":false,"rental_uris":{"android":"levelo://app?vid=2842f5fd-7b05-4b47-909c-5ee54d7d3bc5","ios":"levelo://app?vid=2842f5fd-7b05-4b47-909c-5ee54d7d3bc5"},"vehicle_type_id":"4","last_reported":1761408637,"current_range_meters":7200,"station_id":"","pricing_plan_id":"cebpf4jnsgd1na2vs0mg"},{"bike_id":"da5ec092-2438-4dd2-a625-8fc0f3baf6af","system_id":"levelo_inurba_marseille","lat":43.33722,"lon":5.36287,"is_reserved":false,"is_disabled":false,"rental_uris":{"android":"levelo://app?vid=da5ec092-2438-4dd2-a625-8fc0f3baf6af","ios":"levelo://app?vid=da5ec092-2438-4dd2-a625-8fc0f3baf6af"},"vehicle_type_id":"4","last_reported":1761408637,"current_range_meters":7200,"station_id":"","pricing_plan_id":"cebpf4jnsgd1na2vs0mg"},{"bike_id":"feb3e12d-969f-42f9-903c-cf48c948977e","system_id":"levelo_inurba_marseille","lat":43.3169,"lon":5.40477,"is_reserved":false,"is_disabled":false,"rental_uris":{"android":"levelo://app?vid=feb3e12d-969f-42f9-903c-cf48c948977e","ios":"levelo://app?vid=feb3e12d-969f-42f9-903c-cf48c948977e"},"vehicle_type_id":"4","last_reported":1761408637,"current_range_meters":7200,"station_id":"ce4bh012rcd13ifvqd00","pricing_plan_id":"cebpf4jnsgd1na2vs0mg"},{"bike_id":"e279338f-efbb-4b4b-b241-9bc5236b2aea","system_id":"levelo_inurba_marseille","lat":43.28409,"lon":5.374956,"is_reserved":false,"is_disabled":false,"rental_uris":{"android":"levelo://app?vid=e279338f-efbb-4b4b-b241-9bc5236b2aea","ios":"levelo://app?vid=e279338f-efbb-4b4b-b241-9bc5236b2aea"},"vehicle_type_id":"4","last_reported":1761408637,"current_range_meters":7200,"station_id":"ce4bh412rcd13ifvqds0","pricing_plan_id":"cebpf4jnsgd1na2vs0mg"},{"bike_id":"7719416a-d0e7-4672-93d2-b6ad6c2c9302","system_id":"levelo_inurba_marseille","lat":43.32485,"lon":5.36555,"is_reserved":false,"is_disabled":false,"rental_uris":{"android":"levelo://app?vid=7719416a-d0e7-4672-93d2-b6ad6c2c9302","ios":"levelo://app?vid=7719416a-d0e7-4672-93d2-b6ad6c2c9302"},"vehicle_type_id":"4","last_reported":1761408637,"current_range_meters":8000,"station_id":"ce4bhs12rcd13ifvqhvg","pricing_plan_id":"cebpf4jnsgd1na2vs0mg"},{"bike_id":"c95a544b-ee63-4d2e-9781-920fab42f3d3","system_id":"levelo_inurba_marseille","lat":43.31265,"lon":5.40163,"is_reserved":false,"is_disabled":false,"rental_uris":{"android":"levelo://app?vid=c95a544b-ee63-4d2e-9781-920fab42f3d3","ios":"levelo://app?vid=c95a544b-ee63-4d2e-9781-920fab42f3d3"},"vehicle_type_id":"4","last_reported":1761408637,"current_range_meters":8000,"station_id":"ce4bh092rcd13ifvqd30","pricing_plan_id":"cebpf4jnsgd1na2vs0mg"},{"bike_id":"53881f93-48f1-4312-8257-bcb02eb6b29c","system_id":"levelo_inurba_marseille","lat":43.262,"lon":5.39702,"is_reserved":false,"is_disabled":false,"rental_uris":{"android":"levelo://app?vid=53881f93-48f1-4312-8257-bcb02eb6b29c","ios":"levelo://app?vid=53881f93-48f1-4312-8257-bcb02eb6b29c"},"vehicle_type_id":"4","last_reported":1761408637,"current_range_meters":8000,"station_id":"","pricing_plan_id":"cebpf4jnsgd1na2vs0mg"},{"bike_id":"b440c9e7-7e76-414e-8f5b-a9851b2a2e0b","system_id":"levelo_inurba_marseille","lat":43.29788,"lon":5.38109,"is_reserved":false,"is_disabled":false,"rental_uris":{"android":"levelo://app?vid=b440c9e7-7e76-414e-8f5b-a9851b2a2e0b","ios":"levelo://app?vid=b440c9e7-7e76-414e-8f5b-a9851b2a2e0b"},"vehicle_type_id":"4","last_reported":1761408637,"current_range_meters":8000,"station_id":"ce4bgip2rcd13ifvqbb0","pricing_plan_id":"cebpf4jnsgd1na2vs0mg"},{"bike_id":"8a2fe274-0c6e-48f3-9edf-d5ada963d380","system_id":"levelo_inurba_marseille","lat":43.28425,"lon":5.37522,"is_reserved":false,"is_disabled":false,"rental_uris":{"android":"levelo://app?vid=8a2fe274-0c6e-48f3-9edf-d5ada963d380","ios":"levelo://app?vid=8a2fe274-0c6e-48f3-9edf-d5ada963d380"},"vehicle_type_id":"4","last_reported":1761408637,"current_range_meters":8000,"station_id":"ce4bh412rcd13ifvqds0","pricing_plan_id":"cebpf4jnsgd1na2vs0mg"},{"bike_id":"b5bb6d2f-fd0c-4c40-8e0d-0ae6e86b61a0","system_id":"levelo_inurba_marseille","lat":43.28858,"lon":5.35842,"is_reserved":false,"is_disabled":false,"rental_uris":{"android":"levelo://app?vid=b5bb6d2f-fd0c-4c40-8e0d-0ae6e86b61a0","ios":"levelo://app?vid=b5bb6d2f-fd0c-4c40-8e0d-0ae6e86b61a0"},"vehicle_type_id":"4","last_reported":1761408637,"current_range_meters":8000,"station_id":"ce4bhb12rcd13ifvqem0","pricing_plan_id":"cebpf4jnsgd1na2vs0mg"},{"bike_id":"6abac3c5-5c48-474f-9817-b47a8047f6b4","system_id":"levelo_inurba_marseille","lat":43.29614,"lon":5.37734,"is_reserved":false,"is_disabled":false,"rental_uris":{"android":"levelo://app?vid=6abac3c5-5c48-474f-9817-b47a8047f6b4","ios":"levelo://app?vid=6abac3c5-5c48-474f-9817-b47a8047f6b4"},"vehicle_type_id":"4","last_reported":1761408637,"current_range_meters":8400,"station_id":"ce4bgi92rcd13ifvqb90","pricing_plan_id":"cebpf4jnsgd1na2vs0mg"},{"bike_id":"b120e29c-b9be-4597-b5eb-1fae7e62f529","system_id":"levelo_inurba_marseille","lat":43.26495,"lon":5.39515,"is_reserved":false,"is_disabled":false,"rental_uris":{"android":"levelo://app?vid=b120e29c-b9be-4597-b5eb-1fae7e62f529","ios":"levelo://app?vid=b120e29c-b9be-4597-b5eb-1fae7e62f529"},"vehicle_type_id":"4","last_reported":1761408637,"current_range_meters":8400,"station_id":"","pricing_plan_id":"cebpf4jnsgd1na2vs0mg"},{"bike_id":"e35e1247-2ec0-4206-a360-6aaa534a130f","system_id":"levelo_inurba_marseille","lat":43.284784,"lon":5.484081,"is_reserved":false,"is_disabled":false,"rental_uris":{"android":"levelo://app?vid=e35e1247-2ec0-4206-a360-6aaa534a130f","ios":"levelo://app?vid=e35e1247-2ec0-4206-a360-6aaa534a130f"},"vehicle_type_id":"4","last_reported":1761408637,"current_range_meters":8400,"station_id":"st_d3svhcjqgbts73a3dn0g","pricing_plan_id":"cebpf4jnsgd1na2vs0mg"},{"bike_id":"5f9debc0-c360-4a2e-b517-592e9a0c2818","system_id":"levelo_inurba_marseille","lat":43.3293,"lon":5.42795,"is_reserved":false,"is_disabled":false,"rental_uris":{"android":"levelo://app?vid=5f9debc0-c360-4a2e-b517-592e9a0c2818","ios":"levelo://app?vid=5f9debc0-c360-4a2e-b517-592e9a0c2818"},"vehicle_type_id":"4","last_reported":1761408637,"current_range_meters":8800,"station_id":"","pricing_plan_id":"cebpf4jnsgd1na2vs0mg"},{"bike_id":"867b42f2-d2fa-4346-9d77-babd2d882080","system_id":"levelo_inurba_marseille","lat":43.29966,"lon":5.385,"is_reserved":false,"is_disabled":false,"rental_uris":{"android":"levelo://app?vid=867b42f2-d2fa-4346-9d77-babd2d882080","ios":"levelo://app?vid=867b42f2-d2fa-4346-9d77-babd2d882080"},"vehicle_type_id":"4","last_reported":1761408637,"current_range_meters":9200,"station_id":"ce4bgj92rcd13ifvqbd0","pricing_plan_id":"cebpf4jnsgd1na2vs0mg"},{"bike_id":"6956a06f-d312-4af9-9b14-36eec8aee62b","system_id":"levelo_inurba_marseille","lat":43.29876,"lon":5.39746,"is_reserved":false,"is_disabled":false,"rental_uris":{"android":"levelo://app?vid=6956a06f-d312-4af9-9b14-36eec8aee62b","ios":"levelo://app?vid=6956a06f-d312-4af9-9b14-36eec8aee62b"},"vehicle_type_id":"4","last_reported":1761408637,"current_range_meters":9200,"station_id":"ce4bh0h2rcd13ifvqd50","pricing_plan_id":"cebpf4jnsgd1na2vs0mg"},{"bike_id":"4c7c6ceb-1568-4409-bc0c-13cebba20889","system_id":"levelo_inurba_marseille","lat":43.28421,"lon":5.37529,"is_reserved":false,"is_disabled":false,"rental_uris":{"android":"levelo://app?vid=4c7c6ceb-1568-4409-bc0c-13cebba20889","ios":"levelo://app?vid=4c7c6ceb-1568-4409-bc0c-13cebba20889"},"vehicle_type_id":"4","last_reported":1761408637,"current_range_meters":9200,"station_id":"ce4bh412rcd13ifvqds0","pricing_plan_id":"cebpf4jnsgd1na2vs0mg"},{"bike_id":"5b792551-86a8-4f5a-b31d-642624933d64","system_id":"levelo_inurba_marseille","lat":43.24546,"lon":5.39539,"is_reserved":false,"is_disabled":false,"rental_uris":{"android":"levelo://app?vid=5b792551-86a8-4f5a-b31d-642624933d64","ios":"levelo://app?vid=5b792551-86a8-4f5a-b31d-642624933d64"},"vehicle_type_id":"4","last_reported":1761408637,"current_range_meters":9200,"station_id":"ce4bhlp2rcd13ifvqgjg","pricing_plan_id":"cebpf4jnsgd1na2vs0mg"},{"bike_id":"bf88abad-14b2-41e5-bde4-9975fa0e5db1","system_id":"levelo_inurba_marseille","lat":43.30295,"lon":5.3687,"is_reserved":false,"is_disabled":false,"rental_uris":{"android":"levelo://app?vid=bf88abad-14b2-41e5-bde4-9975fa0e5db1","ios":"levelo://app?vid=bf88abad-14b2-41e5-bde4-9975fa0e5db1"},"vehicle_type_id":"4","last_reported":1761408637,"current_range_meters":9200,"station_id":"ce4bgqh2rcd13ifvqc5g","pricing_plan_id":"cebpf4jnsgd1na2vs0mg"},{"bike_id":"6398fd05-47e5-41f8-95bf-116d17d1d757","system_id":"levelo_inurba_marseille","lat":43.292603,"lon":5.384447,"is_reserved":false,"is_disabled":false,"rental_uris":{"android":"levelo://app?vid=6398fd05-47e5-41f8-95bf-116d17d1d757","ios":"levelo://app?vid=6398fd05-47e5-41f8-95bf-116d17d1d757"},"vehicle_type_id":"4","last_reported":1761408637,"current_range_meters":9600,"station_id":"","pricing_plan_id":"cebpf4jnsgd1na2vs0mg"},{"bike_id":"4f5c5045-2f2c-4ab7-ad8b-eeba1d52fe66","system_id":"levelo_inurba_marseille","lat":43.29602,"lon":5.36594,"is_reserved":false,"is_disabled":false,"rental_uris":{"android":"levelo://app?vid=4f5c5045-2f2c-4ab7-ad8b-eeba1d52fe66","ios":"levelo://app?vid=4f5c5045-2f2c-4ab7-ad8b-eeba1d52fe66"},"vehicle_type_id":"4","last_reported":1761408637,"current_range_meters":9600,"station_id":"","pricing_plan_id":"cebpf4jnsgd1na2vs0mg"},{"bike_id":"e94f57f2-601c-4cad-a187-6e953770aa25","system_id":"levelo_inurba_marseille","lat":43.31194,"lon":5.37842,"is_reserved":false,"is_disabled":false,"rental_uris":{"android":"levelo://app?vid=e94f57f2-601c-4cad-a187-6e953770aa25","ios":"levelo://app?vid=e94f57f2-601c-4cad-a187-6e953770aa25"},"vehicle_type_id":"4","last_reported":1761408637,"current_range_meters":9600,"station_id":"","pricing_plan_id":"cebpf4jnsgd1na2vs0mg"},{"bike_id":"7c68d30f-21ca-4264-b722-c01661fdadbd","system_id":"levelo_inurba_marseille","lat":43.28154,"lon":5.42649,"is_reserved":false,"is_disabled":false,"rental_uris":{"android":"levelo://app?vid=7c68d30f-21ca-4264-b722-c01661fdadbd","ios":"levelo://app?vid=7c68d30f-21ca-4264-b722-c01661fdadbd"},"vehicle_type_id":"4","last_reported":1761408637,"current_range_meters":9600,"station_id":"ce4bhnh2rcd13ifvqgug","pricing_plan_id":"cebpf4jnsgd1na2vs0mg"},{"bike_id":"0671491b-7b02-4d71-9bf5-7f6444ff1231","system_id":"levelo_inurba_marseille","lat":43.28622,"lon":5.35115,"is_reserved":false,"is_disabled":false,"rental_uris":{"android":"levelo://app?vid=0671491b-7b02-4d71-9bf5-7f6444ff1231","ios":"levelo://app?vid=0671491b-7b02-4d71-9bf5-7f6444ff1231"},"vehicle_type_id":"4","last_reported":1761408637,"current_range_meters":10000,"station_id":"ce4bhch2rcd13ifvqeug","pricing_plan_id":"cebpf4jnsgd1na2vs0mg"},{"bike_id":"22d685fa-258b-4233-80ca-49bc3c1d3290","system_id":"levelo_inurba_marseille","lat":43.29931,"lon":5.36551,"is_reserved":false,"is_disabled":false,"rental_uris":{"android":"levelo://app?vid=22d685fa-258b-4233-80ca-49bc3c1d3290","ios":"levelo://app?vid=22d685fa-258b-4233-80ca-49bc3c1d3290"},"vehicle_type_id":"4","last_reported":1761408637,"current_range_meters":10000,"station_id":"ce4bgm92rcd13ifvqbr0","pricing_plan_id":"cebpf4jnsgd1na2vs0mg"},{"bike_id":"3a1a1d79-f3b4-4622-8cc4-a2118ba7b9ba","system_id":"levelo_inurba_marseille","lat":43.28872,"lon":5.35845,"is_reserved":false,"is_disabled":false,"rental_uris":{"android":"levelo://app?vid=3a1a1d79-f3b4-4622-8cc4-a2118ba7b9ba","ios":"levelo://app?vid=3a1a1d79-f3b4-4622-8cc4-a2118ba7b9ba"},"vehicle_type_id":"4","last_reported":1761408637,"current_range_meters":10000,"station_id":"ce4bhb12rcd13ifvqem0","pricing_plan_id":"cebpf4jnsgd1na2vs0mg"},{"bike_id":"365b79af-3de8-45e6-b474-0fdf33e24540","system_id":"levelo_inurba_marseille","lat":43.23197,"lon":5.35553,"is_reserved":false,"is_disabled":false,"rental_uris":{"android":"levelo://app?vid=365b79af-3de8-45e6-b474-0fdf33e24540","ios":"levelo://app?vid=365b79af-3de8-45e6-b474-0fdf33e24540"},"vehicle_type_id":"4","last_reported":1761408637,"current_range_meters":10000,"station_id":"ce4bhu92rcd13ifvqi70","pricing_plan_id":"cebpf4jnsgd1na2vs0mg"},{"bike_id":"67edc04a-667c-446f-983c-f0dfe3f0ac76","system_id":"levelo_inurba_marseille","lat":43.23963,"lon":5.36626,"is_reserved":false,"is_disabled":false,"rental_uris":{"android":"levelo://app?vid=67edc04a-667c-446f-983c-f0dfe3f0ac76","ios":"levelo://app?vid=67edc04a-667c-446f-983c-f0dfe3f0ac76"},"vehicle_type_id":"4","last_reported":1761408637,"current_range_meters":10000,"station_id":"ce4bhi12rcd13ifvqfp0","pricing_plan_id":"cebpf4jnsgd1na2vs0mg"},{"bike_id":"677f8eef-3b49-4c88-90e1-1fdaa09563f5","system_id":"levelo_inurba_marseille","lat":43.28657,"lon":5.363247,"is_reserved":false,"is_disabled":false,"rental_uris":{"android":"levelo://app?vid=677f8eef-3b49-4c88-90e1-1fdaa09563f5","ios":"levelo://app?vid=677f8eef-3b49-4c88-90e1-1fdaa09563f5"},"vehicle_type_id":"4","last_reported":1761408637,"current_range_meters":10000,"station_id":"ce4bhah2rcd13ifvqej0","pricing_plan_id":"cebpf4jnsgd1na2vs0mg"},{"bike_id":"a35a4922-b803-4cd9-8623-7e895c294787","system_id":"levelo_inurba_marseille","lat":43.29843,"lon":5.38242,"is_reserved":false,"is_disabled":true,"rental_uris":{"android":"levelo://app?vid=a35a4922-b803-4cd9-8623-7e895c294787","ios":"levelo://app?vid=a35a4922-b803-4cd9-8623-7e895c294787"},"vehicle_type_id":"4","last_reported":1761408637,"current_range_meters":10000,"station_id":"","pricing_plan_id":"cebpf4jnsgd1na2vs0mg"},{"bike_id":"7ad93641-6233-4fd9-9a12-c416e276dbad","system_id":"levelo_inurba_marseille","lat":43.23195,"lon":5.35556,"is_reserved":false,"is_disabled":false,"rental_uris":{"android":"levelo://app?vid=7ad93641-6233-4fd9-9a12-c416e276dbad","ios":"levelo://app?vid=7ad93641-6233-4fd9-9a12-c416e276dbad"},"vehicle_type_id":"4","last_reported":1761408637,"current_range_meters":10800,"station_id":"ce4bhu92rcd13ifvqi70","pricing_plan_id":"cebpf4jnsgd1na2vs0mg"},{"bike_id":"5cf5e075-1456-4002-b827-c19f6e93637e","system_id":"levelo_inurba_marseille","lat":43.29528,"lon":5.38545,"is_reserved":false,"is_disabled":false,"rental_uris":{"android":"levelo://app?vid=5cf5e075-1456-4002-b827-c19f6e93637e","ios":"levelo://app?vid=5cf5e075-1456-4002-b827-c19f6e93637e"},"vehicle_type_id":"4","last_reported":1761408637,"current_range_meters":10800,"station_id":"ce4bgih2rcd13ifvqba0","pricing_plan_id":"cebpf4jnsgd1na2vs0mg"},{"bike_id":"ff08b171-b76b-4a7b-9fc6-a48a5604e831","system_id":"levelo_inurba_marseille","lat":43.28211,"lon":5.39054,"is_reserved":false,"is_disabled":false,"rental_uris":{"android":"levelo://app?vid=ff08b171-b76b-4a7b-9fc6-a48a5604e831","ios":"levelo://app?vid=ff08b171-b76b-4a7b-9fc6-a48a5604e831"},"vehicle_type_id":"4","last_reported":1761408637,"current_range_meters":10800,"station_id":"ce4bhn92rcd13ifvqgsg","pricing_plan_id":"cebpf4jnsgd1na2vs0mg"},{"bike_id":"1ee61530-5b89-4ef5-b717-220af6b6a356","system_id":"levelo_inurba_marseille","lat":43.295495,"lon":5.422941,"is_reserved":false,"is_disabled":false,"rental_uris":{"android":"levelo://app?vid=1ee61530-5b89-4ef5-b717-220af6b6a356","ios":"levelo://app?vid=1ee61530-5b89-4ef5-b717-220af6b6a356"},"vehicle_type_id":"4","last_reported":1761408637,"current_range_meters":10800,"station_id":"ce4bhph2rcd13ifvqhdg","pricing_plan_id":"cebpf4jnsgd1na2vs0mg"},{"bike_id":"b11ed001-8617-4403-971f-ffa3a8238366","system_id":"levelo_inurba_marseille","lat":43.29584,"lon":5.3674,"is_reserved":false,"is_disabled":false,"rental_uris":{"android":"levelo://app?vid=b11ed001-8617-4403-971f-ffa3a8238366","ios":"levelo://app?vid=b11ed001-8617-4403-971f-ffa3a8238366"},"vehicle_type_id":"4","last_reported":1761408637,"current_range_meters":11200,"station_id":"ce4bgph2rcd13ifvqc2g","pricing_plan_id":"cebpf4jnsgd1na2vs0mg"},{"bike_id":"a0858cb2-6d86-419a-a576-57e48fb65d19","system_id":"levelo_inurba_marseille","lat":43.24664,"lon":5.38168,"is_reserved":false,"is_disabled":false,"rental_uris":{"android":"levelo://app?vid=a0858cb2-6d86-419a-a576-57e48fb65d19","ios":"levelo://app?vid=a0858cb2-6d86-419a-a576-57e48fb65d19"},"vehicle_type_id":"4","last_reported":1761408637,"current_range_meters":11200,"station_id":"ce4bhih2rcd13ifvqfr0","pricing_plan_id":"cebpf4jnsgd1na2vs0mg"},{"bike_id":"9d964ec4-c537-4f1d-b21c-451d3f46b1bf","system_id":"levelo_inurba_marseille","lat":43.298883,"lon":5.378624,"is_reserved":false,"is_disabled":false,"rental_uris":{"android":"levelo://app?vid=9d964ec4-c537-4f1d-b21c-451d3f46b1bf","ios":"levelo://app?vid=9d964ec4-c537-4f1d-b21c-451d3f46b1bf"},"vehicle_type_id":"4","last_reported":1761408637,"current_range_meters":11200,"station_id":"","pricing_plan_id":"cebpf4jnsgd1na2vs0mg"},{"bike_id":"6b4a0993-f7c5-4935-ad39-bc2f8264d9b1","system_id":"levelo_inurba_marseille","lat":43.29297,"lon":5.37447,"is_reserved":false,"is_disabled":false,"rental_uris":{"android":"levelo://app?vid=6b4a0993-f7c5-4935-ad39-bc2f8264d9b1","ios":"levelo://app?vid=6b4a0993-f7c5-4935-ad39-bc2f8264d9b1"},"vehicle_type_id":"4","last_reported":1761408637,"current_range_meters":11600,"station_id":"ce4bgi12rcd13ifvqb70","pricing_plan_id":"cebpf4jnsgd1na2vs0mg"},{"bike_id":"420b6971-47e2-4c67-8bd0-faa4f00e5ca7","system_id":"levelo_inurba_marseille","lat":43.29983,"lon":5.41356,"is_reserved":false,"is_disabled":false,"rental_uris":{"android":"levelo://app?vid=420b6971-47e2-4c67-8bd0-faa4f00e5ca7","ios":"levelo://app?vid=420b6971-47e2-4c67-8bd0-faa4f00e5ca7"},"vehicle_type_id":"4","last_reported":1761408637,"current_range_meters":11600,"station_id":"ce4bhp12rcd13ifvqh9g","pricing_plan_id":"cebpf4jnsgd1na2vs0mg"},{"bike_id":"fa063608-29c2-42ab-95b5-2fc82231eea9","system_id":"levelo_inurba_marseille","lat":43.211831,"lon":5.350732,"is_reserved":false,"is_disabled":true,"rental_uris":{"android":"levelo://app?vid=fa063608-29c2-42ab-95b5-2fc82231eea9","ios":"levelo://app?vid=fa063608-29c2-42ab-95b5-2fc82231eea9"},"vehicle_type_id":"4","last_reported":1761408637,"current_range_meters":11600,"station_id":"st_cvj6sg6p6f1abm77japg","pricing_plan_id":"cebpf4jnsgd1na2vs0mg"},{"bike_id":"7b90bc4b-7913-430f-a1c4-525e51b3771f","system_id":"levelo_inurba_marseille","lat":43.29622,"lon":5.37154,"is_reserved":false,"is_disabled":false,"rental_uris":{"android":"levelo://app?vid=7b90bc4b-7913-430f-a1c4-525e51b3771f","ios":"levelo://app?vid=7b90bc4b-7913-430f-a1c4-525e51b3771f"},"vehicle_type_id":"4","last_reported":1761408637,"current_range_meters":11600,"station_id":"ce4bgnh2rcd13ifvqc0g","pricing_plan_id":"cebpf4jnsgd1na2vs0mg"},{"bike_id":"f71aed21-8f35-496b-9d76-97437ff88eb3","system_id":"levelo_inurba_marseille","lat":43.25584,"lon":5.38232,"is_reserved":false,"is_disabled":false,"rental_uris":{"android":"levelo://app?vid=f71aed21-8f35-496b-9d76-97437ff88eb3","ios":"levelo://app?vid=f71aed21-8f35-496b-9d76-97437ff88eb3"},"vehicle_type_id":"4","last_reported":1761408637,"current_range_meters":12000,"station_id":"ce4bhih2rcd13ifvqfs0","pricing_plan_id":"cebpf4jnsgd1na2vs0mg"},{"bike_id":"8be6a47c-9542-4fed-8109-f6d91a0f2b3f","system_id":"levelo_inurba_marseille","lat":43.29174,"lon":5.37161,"is_reserved":false,"is_disabled":false,"rental_uris":{"android":"levelo://app?vid=8be6a47c-9542-4fed-8109-f6d91a0f2b3f","ios":"levelo://app?vid=8be6a47c-9542-4fed-8109-f6d91a0f2b3f"},"vehicle_type_id":"4","last_reported":1761408637,"current_range_meters":12000,"station_id":"ce4bha92rcd13ifvqeh0","pricing_plan_id":"cebpf4jnsgd1na2vs0mg"},{"bike_id":"f775e7d5-20b8-46d9-9f9f-976fb2a061d1","system_id":"levelo_inurba_marseille","lat":43.289474,"lon":5.363903,"is_reserved":false,"is_disabled":false,"rental_uris":{"android":"levelo://app?vid=f775e7d5-20b8-46d9-9f9f-976fb2a061d1","ios":"levelo://app?vid=f775e7d5-20b8-46d9-9f9f-976fb2a061d1"},"vehicle_type_id":"4","last_reported":1761408637,"current_range_meters":12000,"station_id":"ce4bhc92rcd13ifvqetg","pricing_plan_id":"cebpf4jnsgd1na2vs0mg"},{"bike_id":"2d4dc67a-c289-4b07-8a0a-5172e12aecfb","system_id":"levelo_inurba_marseille","lat":43.30336,"lon":5.40427,"is_reserved":false,"is_disabled":false,"rental_uris":{"android":"levelo://app?vid=2d4dc67a-c289-4b07-8a0a-5172e12aecfb","ios":"levelo://app?vid=2d4dc67a-c289-4b07-8a0a-5172e12aecfb"},"vehicle_type_id":"4","last_reported":1761408637,"current_range_meters":12000,"station_id":"ce4bh012rcd13ifvqd10","pricing_plan_id":"cebpf4jnsgd1na2vs0mg"},{"bike_id":"3310615f-aea1-494c-b320-aea612b2bbb0","system_id":"levelo_inurba_marseille","lat":43.24166,"lon":5.36396,"is_reserved":false,"is_disabled":false,"rental_uris":{"android":"levelo://app?vid=3310615f-aea1-494c-b320-aea612b2bbb0","ios":"levelo://app?vid=3310615f-aea1-494c-b320-aea612b2bbb0"},"vehicle_type_id":"4","last_reported":1761408637,"current_range_meters":12400,"station_id":"cpo36qri1sfpv3e86is0","pricing_plan_id":"cebpf4jnsgd1na2vs0mg"},{"bike_id":"7d8b29e4-9ee5-4dfa-8952-f802d2b3dc78","system_id":"levelo_inurba_marseille","lat":43.29708,"lon":5.36608,"is_reserved":false,"is_disabled":false,"rental_uris":{"android":"levelo://app?vid=7d8b29e4-9ee5-4dfa-8952-f802d2b3dc78","ios":"levelo://app?vid=7d8b29e4-9ee5-4dfa-8952-f802d2b3dc78"},"vehicle_type_id":"4","last_reported":1761408637,"current_range_meters":12400,"station_id":"ce4bgn12rcd13ifvqbt0","pricing_plan_id":"cebpf4jnsgd1na2vs0mg"},{"bike_id":"9a4a4e61-227f-4bf1-a316-f9367d69039d","system_id":"levelo_inurba_marseille","lat":43.231812,"lon":5.399815,"is_reserved":false,"is_disabled":false,"rental_uris":{"android":"levelo://app?vid=9a4a4e61-227f-4bf1-a316-f9367d69039d","ios":"levelo://app?vid=9a4a4e61-227f-4bf1-a316-f9367d69039d"},"vehicle_type_id":"4","last_reported":1761408637,"current_range_meters":12400,"station_id":"ce4bhn12rcd13ifvqgqg","pricing_plan_id":"cebpf4jnsgd1na2vs0mg"},{"bike_id":"bb09cb0b-c8b9-4944-b922-31c454d040ed","system_id":"levelo_inurba_marseille","lat":43.299111,"lon":5.381322,"is_reserved":false,"is_disabled":true,"rental_uris":{"android":"levelo://app?vid=bb09cb0b-c8b9-4944-b922-31c454d040ed","ios":"levelo://app?vid=bb09cb0b-c8b9-4944-b922-31c454d040ed"},"vehicle_type_id":"4","last_reported":1761408637,"current_range_meters":12800,"station_id":"ce4bh3p2rcd13ifvqdq0","pricing_plan_id":"cebpf4jnsgd1na2vs0mg"},{"bike_id":"43117888-69d1-4bc6-a73a-697554e4a08e","system_id":"levelo_inurba_marseille","lat":43.25251,"lon":5.37814,"is_reserved":false,"is_disabled":false,"rental_uris":{"android":"levelo://app?vid=43117888-69d1-4bc6-a73a-697554e4a08e","ios":"levelo://app?vid=43117888-69d1-4bc6-a73a-697554e4a08e"},"vehicle_type_id":"4","last_reported":1761408637,"current_range_meters":12800,"station_id":"","pricing_plan_id":"cebpf4jnsgd1na2vs0mg"},{"bike_id":"240176b4-b48e-48c2-a73c-b9b66d9a5804","system_id":"levelo_inurba_marseille","lat":43.25507,"lon":5.37652,"is_reserved":false,"is_disabled":false,"rental_uris":{"android":"levelo://app?vid=240176b4-b48e-48c2-a73c-b9b66d9a5804","ios":"levelo://app?vid=240176b4-b48e-48c2-a73c-b9b66d9a5804"},"vehicle_type_id":"4","last_reported":1761408637,"current_range_meters":12800,"station_id":"ce4bhh12rcd13ifvqff0","pricing_plan_id":"cebpf4jnsgd1na2vs0mg"},{"bike_id":"72090051-8d6f-40c5-ae5a-b620e3f174ff","system_id":"levelo_inurba_marseille","lat":43.29913,"lon":5.3747,"is_reserved":false,"is_disabled":false,"rental_uris":{"android":"levelo://app?vid=72090051-8d6f-40c5-ae5a-b620e3f174ff","ios":"levelo://app?vid=72090051-8d6f-40c5-ae5a-b620e3f174ff"},"vehicle_type_id":"4","last_reported":1761408637,"current_range_meters":12800,"station_id":"ce4bgjh2rcd13ifvqbg0","pricing_plan_id":"cebpf4jnsgd1na2vs0mg"},{"bike_id":"8e92164c-deff-4fbd-9f4e-43ff81933572","system_id":"levelo_inurba_marseille","lat":43.298291,"lon":5.420173,"is_reserved":false,"is_disabled":false,"rental_uris":{"android":"levelo://app?vid=8e92164c-deff-4fbd-9f4e-43ff81933572","ios":"levelo://app?vid=8e92164c-deff-4fbd-9f4e-43ff81933572"},"vehicle_type_id":"4","last_reported":1761408637,"current_range_meters":12800,"station_id":"","pricing_plan_id":"cebpf4jnsgd1na2vs0mg"},{"bike_id":"cd26ab16-3e3e-43ea-a563-05ea7a953084","system_id":"levelo_inurba_marseille","lat":43.31099,"lon":5.36782,"is_reserved":false,"is_disabled":false,"rental_uris":{"android":"levelo://app?vid=cd26ab16-3e3e-43ea-a563-05ea7a953084","ios":"levelo://app?vid=cd26ab16-3e3e-43ea-a563-05ea7a953084"},"vehicle_type_id":"4","last_reported":1761408637,"current_range_meters":12800,"station_id":"","pricing_plan_id":"cebpf4jnsgd1na2vs0mg"},{"bike_id":"dab36927-4328-48fa-bffb-145a737de07e","system_id":"levelo_inurba_marseille","lat":43.30804,"lon":5.43542,"is_reserved":false,"is_disabled":true,"rental_uris":{"android":"levelo://app?vid=dab36927-4328-48fa-bffb-145a737de07e","ios":"levelo://app?vid=dab36927-4328-48fa-bffb-145a737de07e"},"vehicle_type_id":"4","last_reported":1761408637,"current_range_meters":13600,"station_id":"ce4bhph2rcd13ifvqheg","pricing_plan_id":"cebpf4jnsgd1na2vs0mg"},{"bike_id":"41f3b2c6-c607-46f7-97fb-5ac71a087a64","system_id":"levelo_inurba_marseille","lat":43.240685,"lon":5.377584,"is_reserved":false,"is_disabled":false,"rental_uris":{"android":"levelo://app?vid=41f3b2c6-c607-46f7-97fb-5ac71a087a64","ios":"levelo://app?vid=41f3b2c6-c607-46f7-97fb-5ac71a087a64"},"vehicle_type_id":"4","last_reported":1761408637,"current_range_meters":13600,"station_id":"ce4bhnp2rcd13ifvqgvg","pricing_plan_id":"cebpf4jnsgd1na2vs0mg"},{"bike_id":"e9ac6044-fd77-46c5-b4c5-3f02087aa718","system_id":"levelo_inurba_marseille","lat":43.25825,"lon":5.39414,"is_reserved":false,"is_disabled":false,"rental_uris":{"android":"levelo://app?vid=e9ac6044-fd77-46c5-b4c5-3f02087aa718","ios":"levelo://app?vid=e9ac6044-fd77-46c5-b4c5-3f02087aa718"},"vehicle_type_id":"4","last_reported":1761408637,"current_range_meters":13600,"station_id":"ce4bhip2rcd13ifvqft0","pricing_plan_id":"cebpf4jnsgd1na2vs0mg"},{"bike_id":"c4ccc0f9-f3b9-4162-9b89-32ab2a1fc4d0","system_id":"levelo_inurba_marseille","lat":43.24804,"lon":5.37459,"is_reserved":false,"is_disabled":false,"rental_uris":{"android":"levelo://app?vid=c4ccc0f9-f3b9-4162-9b89-32ab2a1fc4d0","ios":"levelo://app?vid=c4ccc0f9-f3b9-4162-9b89-32ab2a1fc4d0"},"vehicle_type_id":"4","last_reported":1761408637,"current_range_meters":13600,"station_id":"ce4bhgh2rcd13ifvqfb0","pricing_plan_id":"cebpf4jnsgd1na2vs0mg"},{"bike_id":"52578fe7-96bb-4cd0-8ea5-38b3edbccb9a","system_id":"levelo_inurba_marseille","lat":43.27371,"lon":5.36253,"is_reserved":false,"is_disabled":false,"rental_uris":{"android":"levelo://app?vid=52578fe7-96bb-4cd0-8ea5-38b3edbccb9a","ios":"levelo://app?vid=52578fe7-96bb-4cd0-8ea5-38b3edbccb9a"},"vehicle_type_id":"4","last_reported":1761408637,"current_range_meters":13600,"station_id":"ce4bhbh2rcd13ifvqeo0","pricing_plan_id":"cebpf4jnsgd1na2vs0mg"},{"bike_id":"3cccafcd-10a4-4f06-bcf4-e13fbfd6f217","system_id":"levelo_inurba_marseille","lat":43.2302,"lon":5.35485,"is_reserved":false,"is_disabled":false,"rental_uris":{"android":"levelo://app?vid=3cccafcd-10a4-4f06-bcf4-e13fbfd6f217","ios":"levelo://app?vid=3cccafcd-10a4-4f06-bcf4-e13fbfd6f217"},"vehicle_type_id":"4","last_reported":1761408637,"current_range_meters":13600,"station_id":"cpo3342slgdg3j2ifvpg","pricing_plan_id":"cebpf4jnsgd1na2vs0mg"},{"bike_id":"a5410ac9-0137-4730-9560-e56016a003c1","system_id":"levelo_inurba_marseille","lat":43.29262,"lon":5.38444,"is_reserved":false,"is_disabled":false,"rental_uris":{"android":"levelo://app?vid=a5410ac9-0137-4730-9560-e56016a003c1","ios":"levelo://app?vid=a5410ac9-0137-4730-9560-e56016a003c1"},"vehicle_type_id":"4","last_reported":1761408637,"current_range_meters":13600,"station_id":"ce4bh692rcd13ifvqea0","pricing_plan_id":"cebpf4jnsgd1na2vs0mg"},{"bike_id":"e53d34e1-6a96-4a4a-aff7-12a47b3db3b2","system_id":"levelo_inurba_marseille","lat":43.29762,"lon":5.4278,"is_reserved":false,"is_disabled":false,"rental_uris":{"android":"levelo://app?vid=e53d34e1-6a96-4a4a-aff7-12a47b3db3b2","ios":"levelo://app?vid=e53d34e1-6a96-4a4a-aff7-12a47b3db3b2"},"vehicle_type_id":"4","last_reported":1761408637,"current_range_meters":14000,"station_id":"st_d3md5207bmas73dh9klg","pricing_plan_id":"cebpf4jnsgd1na2vs0mg"},{"bike_id":"ef75096f-acd7-4506-9f83-7bbaa8ff2d05","system_id":"levelo_inurba_marseille","lat":43.211909,"lon":5.350693,"is_reserved":false,"is_disabled":false,"rental_uris":{"android":"levelo://app?vid=ef75096f-acd7-4506-9f83-7bbaa8ff2d05","ios":"levelo://app?vid=ef75096f-acd7-4506-9f83-7bbaa8ff2d05"},"vehicle_type_id":"4","last_reported":1761408637,"current_range_meters":14000,"station_id":"ce4bhbh2rcd13ifvqepg","pricing_plan_id":"cebpf4jnsgd1na2vs0mg"},{"bike_id":"8c35a7e4-8378-4fdf-b42f-02e88b6199ca","system_id":"levelo_inurba_marseille","lat":43.3209,"lon":5.3679,"is_reserved":false,"is_disabled":false,"rental_uris":{"android":"levelo://app?vid=8c35a7e4-8378-4fdf-b42f-02e88b6199ca","ios":"levelo://app?vid=8c35a7e4-8378-4fdf-b42f-02e88b6199ca"},"vehicle_type_id":"4","last_reported":1761408637,"current_range_meters":14000,"station_id":"ce4bhrh2rcd13ifvqhug","pricing_plan_id":"cebpf4jnsgd1na2vs0mg"},{"bike_id":"3851a76d-3a0c-4f91-9008-54a2da7d605b","system_id":"levelo_inurba_marseille","lat":43.29805,"lon":5.37423,"is_reserved":false,"is_disabled":false,"rental_uris":{"android":"levelo://app?vid=3851a76d-3a0c-4f91-9008-54a2da7d605b","ios":"levelo://app?vid=3851a76d-3a0c-4f91-9008-54a2da7d605b"},"vehicle_type_id":"4","last_reported":1761408637,"current_range_meters":14000,"station_id":"ce4bguh2rcd13ifvqcj0","pricing_plan_id":"cebpf4jnsgd1na2vs0mg"},{"bike_id":"5b91766d-91d0-4602-8be6-6a369c10831e","system_id":"levelo_inurba_marseille","lat":43.23777,"lon":5.36632,"is_reserved":false,"is_disabled":false,"rental_uris":{"android":"levelo://app?vid=5b91766d-91d0-4602-8be6-6a369c10831e","ios":"levelo://app?vid=5b91766d-91d0-4602-8be6-6a369c10831e"},"vehicle_type_id":"4","last_reported":1761408637,"current_range_meters":14400,"station_id":"st_d3nk18o9ro0c73en2l3g","pricing_plan_id":"cebpf4jnsgd1na2vs0mg"},{"bike_id":"17c89dd4-7030-47a1-9d7b-404179b70c48","system_id":"levelo_inurba_marseille","lat":43.28615,"lon":5.35102,"is_reserved":false,"is_disabled":false,"rental_uris":{"android":"levelo://app?vid=17c89dd4-7030-47a1-9d7b-404179b70c48","ios":"levelo://app?vid=17c89dd4-7030-47a1-9d7b-404179b70c48"},"vehicle_type_id":"4","last_reported":1761408637,"current_range_meters":14400,"station_id":"ce4bhch2rcd13ifvqeug","pricing_plan_id":"cebpf4jnsgd1na2vs0mg"},{"bike_id":"afe9afd3-3162-4caf-b43c-0861c3926957","system_id":"levelo_inurba_marseille","lat":43.2931,"lon":5.37426,"is_reserved":false,"is_disabled":false,"rental_uris":{"android":"levelo://app?vid=afe9afd3-3162-4caf-b43c-0861c3926957","ios":"levelo://app?vid=afe9afd3-3162-4caf-b43c-0861c3926957"},"vehicle_type_id":"4","last_reported":1761408637,"current_range_meters":14400,"station_id":"ce4bgi12rcd13ifvqb70","pricing_plan_id":"cebpf4jnsgd1na2vs0mg"},{"bike_id":"8e1001bf-14bf-4add-9e80-532070c873ea","system_id":"levelo_inurba_marseille","lat":43.25562,"lon":5.38232,"is_reserved":false,"is_disabled":false,"rental_uris":{"android":"levelo://app?vid=8e1001bf-14bf-4add-9e80-532070c873ea","ios":"levelo://app?vid=8e1001bf-14bf-4add-9e80-532070c873ea"},"vehicle_type_id":"4","last_reported":1761408637,"current_range_meters":14400,"station_id":"ce4bhih2rcd13ifvqfs0","pricing_plan_id":"cebpf4jnsgd1na2vs0mg"},{"bike_id":"daa3e1a7-e8e2-49a0-a32a-70c3fdcd90bf","system_id":"levelo_inurba_marseille","lat":43.282605,"lon":5.350625,"is_reserved":false,"is_disabled":false,"rental_uris":{"android":"levelo://app?vid=daa3e1a7-e8e2-49a0-a32a-70c3fdcd90bf","ios":"levelo://app?vid=daa3e1a7-e8e2-49a0-a32a-70c3fdcd90bf"},"vehicle_type_id":"4","last_reported":1761408637,"current_range_meters":14400,"station_id":"ce4bhbp2rcd13ifvqerg","pricing_plan_id":"cebpf4jnsgd1na2vs0mg"},{"bike_id":"899955a0-482b-46c9-bf78-bb3a21704756","system_id":"levelo_inurba_marseille","lat":43.28155,"lon":5.42644,"is_reserved":false,"is_disabled":false,"rental_uris":{"android":"levelo://app?vid=899955a0-482b-46c9-bf78-bb3a21704756","ios":"levelo://app?vid=899955a0-482b-46c9-bf78-bb3a21704756"},"vehicle_type_id":"4","last_reported":1761408637,"current_range_meters":14400,"station_id":"ce4bhnh2rcd13ifvqgug","pricing_plan_id":"cebpf4jnsgd1na2vs0mg"},{"bike_id":"f7ecd166-bf87-4bde-b80b-2038a46386c4","system_id":"levelo_inurba_marseille","lat":43.30419,"lon":5.4128,"is_reserved":false,"is_disabled":false,"rental_uris":{"android":"levelo://app?vid=f7ecd166-bf87-4bde-b80b-2038a46386c4","ios":"levelo://app?vid=f7ecd166-bf87-4bde-b80b-2038a46386c4"},"vehicle_type_id":"4","last_reported":1761408637,"current_range_meters":14400,"station_id":"ce4bhop2rcd13ifvqh8g","pricing_plan_id":"cebpf4jnsgd1na2vs0mg"},{"bike_id":"02253b20-9787-436b-aee3-53935d1c1839","system_id":"levelo_inurba_marseille","lat":43.23196,"lon":5.35555,"is_reserved":false,"is_disabled":false,"rental_uris":{"android":"levelo://app?vid=02253b20-9787-436b-aee3-53935d1c1839","ios":"levelo://app?vid=02253b20-9787-436b-aee3-53935d1c1839"},"vehicle_type_id":"4","last_reported":1761408637,"current_range_meters":14400,"station_id":"ce4bhu92rcd13ifvqi70","pricing_plan_id":"cebpf4jnsgd1na2vs0mg"},{"bike_id":"29fa1c3a-84c0-4097-a14b-afc70c66554e","system_id":"levelo_inurba_marseille","lat":43.25,"lon":5.38959,"is_reserved":false,"is_disabled":false,"rental_uris":{"android":"levelo://app?vid=29fa1c3a-84c0-4097-a14b-afc70c66554e","ios":"levelo://app?vid=29fa1c3a-84c0-4097-a14b-afc70c66554e"},"vehicle_type_id":"4","last_reported":1761408637,"current_range_meters":15200,"station_id":"ce4bhgp2rcd13ifvqfd0","pricing_plan_id":"cebpf4jnsgd1na2vs0mg"},{"bike_id":"856e142f-bc05-4738-a75f-30441de6bce3","system_id":"levelo_inurba_marseille","lat":43.31217,"lon":5.36851,"is_reserved":false,"is_disabled":false,"rental_uris":{"android":"levelo://app?vid=856e142f-bc05-4738-a75f-30441de6bce3","ios":"levelo://app?vid=856e142f-bc05-4738-a75f-30441de6bce3"},"vehicle_type_id":"4","last_reported":1761408637,"current_range_meters":15200,"station_id":"ce4bgl92rcd13ifvqbq0","pricing_plan_id":"cebpf4jnsgd1na2vs0mg"},{"bike_id":"118b8332-21e3-4115-88df-8a6d5bdb7d31","system_id":"levelo_inurba_marseille","lat":43.309479,"lon":5.390184,"is_reserved":false,"is_disabled":false,"rental_uris":{"android":"levelo://app?vid=118b8332-21e3-4115-88df-8a6d5bdb7d31","ios":"levelo://app?vid=118b8332-21e3-4115-88df-8a6d5bdb7d31"},"vehicle_type_id":"4","last_reported":1761408637,"current_range_meters":15200,"station_id":"ce4bgup2rcd13ifvqco0","pricing_plan_id":"cebpf4jnsgd1na2vs0mg"},{"bike_id":"b6f94204-d03d-4fd4-ad80-b3abfbf2cc11","system_id":"levelo_inurba_marseille","lat":43.31492,"lon":5.3731,"is_reserved":false,"is_disabled":false,"rental_uris":{"android":"levelo://app?vid=b6f94204-d03d-4fd4-ad80-b3abfbf2cc11","ios":"levelo://app?vid=b6f94204-d03d-4fd4-ad80-b3abfbf2cc11"},"vehicle_type_id":"4","last_reported":1761408637,"current_range_meters":15200,"station_id":"ce4bgt12rcd13ifvqcd0","pricing_plan_id":"cebpf4jnsgd1na2vs0mg"},{"bike_id":"d0d97312-c0ce-4e35-b465-0113c6bd0b31","system_id":"levelo_inurba_marseille","lat":43.23971,"lon":5.3661,"is_reserved":false,"is_disabled":false,"rental_uris":{"android":"levelo://app?vid=d0d97312-c0ce-4e35-b465-0113c6bd0b31","ios":"levelo://app?vid=d0d97312-c0ce-4e35-b465-0113c6bd0b31"},"vehicle_type_id":"4","last_reported":1761408637,"current_range_meters":15200,"station_id":"ce4bhi12rcd13ifvqfp0","pricing_plan_id":"cebpf4jnsgd1na2vs0mg"},{"bike_id":"a380ea02-c465-4e0e-9cfa-561dd05dfeef","system_id":"levelo_inurba_marseille","lat":43.27386,"lon":5.36261,"is_reserved":false,"is_disabled":false,"rental_uris":{"android":"levelo://app?vid=a380ea02-c465-4e0e-9cfa-561dd05dfeef","ios":"levelo://app?vid=a380ea02-c465-4e0e-9cfa-561dd05dfeef"},"vehicle_type_id":"4","last_reported":1761408637,"current_range_meters":15200,"station_id":"ce4bhbh2rcd13ifvqeo0","pricing_plan_id":"cebpf4jnsgd1na2vs0mg"},{"bike_id":"d3145067-3ca0-4e72-b01a-ef78c0959aad","system_id":"levelo_inurba_marseille","lat":43.302413,"lon":5.40068,"is_reserved":false,"is_disabled":true,"rental_uris":{"android":"levelo://app?vid=d3145067-3ca0-4e72-b01a-ef78c0959aad","ios":"levelo://app?vid=d3145067-3ca0-4e72-b01a-ef78c0959aad"},"vehicle_type_id":"4","last_reported":1761408637,"current_range_meters":15200,"station_id":"ce4bgvh2rcd13ifvqcs0","pricing_plan_id":"cebpf4jnsgd1na2vs0mg"},{"bike_id":"4e7a3a2a-d050-47c7-bc4a-b406389877c5","system_id":"levelo_inurba_marseille","lat":43.24631,"lon":5.43159,"is_reserved":false,"is_disabled":false,"rental_uris":{"android":"levelo://app?vid=4e7a3a2a-d050-47c7-bc4a-b406389877c5","ios":"levelo://app?vid=4e7a3a2a-d050-47c7-bc4a-b406389877c5"},"vehicle_type_id":"4","last_reported":1761408637,"current_range_meters":16000,"station_id":"st_d2m6c4gdas8pm72e190g","pricing_plan_id":"cebpf4jnsgd1na2vs0mg"},{"bike_id":"76792908-896e-467c-b3e6-9143e47ea124","system_id":"levelo_inurba_marseille","lat":43.28619,"lon":5.35108,"is_reserved":false,"is_disabled":false,"rental_uris":{"android":"levelo://app?vid=76792908-896e-467c-b3e6-9143e47ea124","ios":"levelo://app?vid=76792908-896e-467c-b3e6-9143e47ea124"},"vehicle_type_id":"4","last_reported":1761408637,"current_range_meters":16000,"station_id":"ce4bhch2rcd13ifvqeug","pricing_plan_id":"cebpf4jnsgd1na2vs0mg"},{"bike_id":"9d4decdb-597b-443a-835a-7afb670d7481","system_id":"levelo_inurba_marseille","lat":43.29566,"lon":5.37513,"is_reserved":false,"is_disabled":false,"rental_uris":{"android":"levelo://app?vid=9d4decdb-597b-443a-835a-7afb670d7481","ios":"levelo://app?vid=9d4decdb-597b-443a-835a-7afb670d7481"},"vehicle_type_id":"4","last_reported":1761408637,"current_range_meters":16000,"station_id":"ce4bgh92rcd13ifvqb50","pricing_plan_id":"cebpf4jnsgd1na2vs0mg"},{"bike_id":"79acc5ae-1f2e-4766-8068-80d5e38bc62b","system_id":"levelo_inurba_marseille","lat":43.23041,"lon":5.35531,"is_reserved":false,"is_disabled":false,"rental_uris":{"android":"levelo://app?vid=79acc5ae-1f2e-4766-8068-80d5e38bc62b","ios":"levelo://app?vid=79acc5ae-1f2e-4766-8068-80d5e38bc62b"},"vehicle_type_id":"4","last_reported":1761408637,"current_range_meters":16000,"station_id":"cpo3342slgdg3j2ifvpg","pricing_plan_id":"cebpf4jnsgd1na2vs0mg"},{"bike_id":"fdc84a8a-82a3-4c88-a92b-d300c8fe34ed","system_id":"levelo_inurba_marseille","lat":43.28618,"lon":5.35109,"is_reserved":false,"is_disabled":false,"rental_uris":{"android":"levelo://app?vid=fdc84a8a-82a3-4c88-a92b-d300c8fe34ed","ios":"levelo://app?vid=fdc84a8a-82a3-4c88-a92b-d300c8fe34ed"},"vehicle_type_id":"4","last_reported":1761408637,"current_range_meters":16000,"station_id":"ce4bhch2rcd13ifvqeug","pricing_plan_id":"cebpf4jnsgd1na2vs0mg"},{"bike_id":"51f6b392-8d0d-41b5-9bf6-76a949608beb","system_id":"levelo_inurba_marseille","lat":43.25339,"lon":5.42177,"is_reserved":false,"is_disabled":false,"rental_uris":{"android":"levelo://app?vid=51f6b392-8d0d-41b5-9bf6-76a949608beb","ios":"levelo://app?vid=51f6b392-8d0d-41b5-9bf6-76a949608beb"},"vehicle_type_id":"4","last_reported":1761408637,"current_range_meters":16000,"station_id":"st_d2m65c5bi1j21697t3ng","pricing_plan_id":"cebpf4jnsgd1na2vs0mg"},{"bike_id":"b351f615-2570-415f-b025-8b359e945bda","system_id":"levelo_inurba_marseille","lat":43.299224,"lon":5.374779,"is_reserved":false,"is_disabled":false,"rental_uris":{"android":"levelo://app?vid=b351f615-2570-415f-b025-8b359e945bda","ios":"levelo://app?vid=b351f615-2570-415f-b025-8b359e945bda"},"vehicle_type_id":"4","last_reported":1761408637,"current_range_meters":16000,"station_id":"ce4bgjh2rcd13ifvqbg0","pricing_plan_id":"cebpf4jnsgd1na2vs0mg"},{"bike_id":"ec8ab30e-e7e4-4fe4-9d73-bc44ed4d85f6","system_id":"levelo_inurba_marseille","lat":43.25003,"lon":5.38939,"is_reserved":false,"is_disabled":false,"rental_uris":{"android":"levelo://app?vid=ec8ab30e-e7e4-4fe4-9d73-bc44ed4d85f6","ios":"levelo://app?vid=ec8ab30e-e7e4-4fe4-9d73-bc44ed4d85f6"},"vehicle_type_id":"4","last_reported":1761408637,"current_range_meters":16000,"station_id":"ce4bhgp2rcd13ifvqfd0","pricing_plan_id":"cebpf4jnsgd1na2vs0mg"},{"bike_id":"54d7bb54-e849-4064-af02-403398f88366","system_id":"levelo_inurba_marseille","lat":43.302673,"lon":5.400874,"is_reserved":false,"is_disabled":false,"rental_uris":{"android":"levelo://app?vid=54d7bb54-e849-4064-af02-403398f88366","ios":"levelo://app?vid=54d7bb54-e849-4064-af02-403398f88366"},"vehicle_type_id":"4","last_reported":1761408637,"current_range_meters":16400,"station_id":"ce4bgvh2rcd13ifvqcs0","pricing_plan_id":"cebpf4jnsgd1na2vs0mg"},{"bike_id":"40fed290-3dea-4c73-bf2e-af05de8161fd","system_id":"levelo_inurba_marseille","lat":43.32111,"lon":5.36746,"is_reserved":false,"is_disabled":false,"rental_uris":{"android":"levelo://app?vid=40fed290-3dea-4c73-bf2e-af05de8161fd","ios":"levelo://app?vid=40fed290-3dea-4c73-bf2e-af05de8161fd"},"vehicle_type_id":"4","last_reported":1761408637,"current_range_meters":16400,"station_id":"ce4bhrh2rcd13ifvqhug","pricing_plan_id":"cebpf4jnsgd1na2vs0mg"},{"bike_id":"072ed5c5-124d-41da-af72-ff1b97f0b6f0","system_id":"levelo_inurba_marseille","lat":43.28358,"lon":5.38107,"is_reserved":false,"is_disabled":false,"rental_uris":{"android":"levelo://app?vid=072ed5c5-124d-41da-af72-ff1b97f0b6f0","ios":"levelo://app?vid=072ed5c5-124d-41da-af72-ff1b97f0b6f0"},"vehicle_type_id":"4","last_reported":1761408637,"current_range_meters":16400,"station_id":"ce4bh412rcd13ifvqdr0","pricing_plan_id":"cebpf4jnsgd1na2vs0mg"},{"bike_id":"59e0e55d-ae93-4c8a-989c-120e6e17d539","system_id":"levelo_inurba_marseille","lat":43.23063,"lon":5.35498,"is_reserved":false,"is_disabled":false,"rental_uris":{"android":"levelo://app?vid=59e0e55d-ae93-4c8a-989c-120e6e17d539","ios":"levelo://app?vid=59e0e55d-ae93-4c8a-989c-120e6e17d539"},"vehicle_type_id":"4","last_reported":1761408637,"current_range_meters":16400,"station_id":"cpo3342slgdg3j2ifvpg","pricing_plan_id":"cebpf4jnsgd1na2vs0mg"},{"bike_id":"42fcd566-107c-4bc7-8c56-be1bcdda2f62","system_id":"levelo_inurba_marseille","lat":43.279907,"lon":5.400293,"is_reserved":false,"is_disabled":false,"rental_uris":{"android":"levelo://app?vid=42fcd566-107c-4bc7-8c56-be1bcdda2f62","ios":"levelo://app?vid=42fcd566-107c-4bc7-8c56-be1bcdda2f62"},"vehicle_type_id":"4","last_reported":1761408637,"current_range_meters":16400,"station_id":"ce4bho92rcd13ifvqh4g","pricing_plan_id":"cebpf4jnsgd1na2vs0mg"},{"bike_id":"a73023ee-eb34-4289-bba7-17e783553b0b","system_id":"levelo_inurba_marseille","lat":43.29628,"lon":5.37719,"is_reserved":false,"is_disabled":false,"rental_uris":{"android":"levelo://app?vid=a73023ee-eb34-4289-bba7-17e783553b0b","ios":"levelo://app?vid=a73023ee-eb34-4289-bba7-17e783553b0b"},"vehicle_type_id":"4","last_reported":1761408637,"current_range_meters":16800,"station_id":"ce4bgi92rcd13ifvqb90","pricing_plan_id":"cebpf4jnsgd1na2vs0mg"},{"bike_id":"a6f0ed19-8042-4fbc-83cb-73ce2f11e459","system_id":"levelo_inurba_marseille","lat":43.321,"lon":5.36782,"is_reserved":false,"is_disabled":false,"rental_uris":{"android":"levelo://app?vid=a6f0ed19-8042-4fbc-83cb-73ce2f11e459","ios":"levelo://app?vid=a6f0ed19-8042-4fbc-83cb-73ce2f11e459"},"vehicle_type_id":"4","last_reported":1761408637,"current_range_meters":16800,"station_id":"ce4bhrh2rcd13ifvqhug","pricing_plan_id":"cebpf4jnsgd1na2vs0mg"},{"bike_id":"8ceaca39-a0b3-4e30-8364-19bcf75f95d6","system_id":"levelo_inurba_marseille","lat":43.25512,"lon":5.37654,"is_reserved":false,"is_disabled":false,"rental_uris":{"android":"levelo://app?vid=8ceaca39-a0b3-4e30-8364-19bcf75f95d6","ios":"levelo://app?vid=8ceaca39-a0b3-4e30-8364-19bcf75f95d6"},"vehicle_type_id":"4","last_reported":1761408637,"current_range_meters":16800,"station_id":"ce4bhh12rcd13ifvqff0","pricing_plan_id":"cebpf4jnsgd1na2vs0mg"},{"bike_id":"bf526c33-28dd-4a6a-a10d-b02e3c57c12e","system_id":"levelo_inurba_marseille","lat":43.23965,"lon":5.36626,"is_reserved":false,"is_disabled":false,"rental_uris":{"android":"levelo://app?vid=bf526c33-28dd-4a6a-a10d-b02e3c57c12e","ios":"levelo://app?vid=bf526c33-28dd-4a6a-a10d-b02e3c57c12e"},"vehicle_type_id":"4","last_reported":1761408637,"current_range_meters":16800,"station_id":"ce4bhi12rcd13ifvqfp0","pricing_plan_id":"cebpf4jnsgd1na2vs0mg"},{"bike_id":"c0b81f28-bbba-4247-a74b-c55a34b31846","system_id":"levelo_inurba_marseille","lat":43.33258,"lon":5.41086,"is_reserved":false,"is_disabled":false,"rental_uris":{"android":"levelo://app?vid=c0b81f28-bbba-4247-a74b-c55a34b31846","ios":"levelo://app?vid=c0b81f28-bbba-4247-a74b-c55a34b31846"},"vehicle_type_id":"4","last_reported":1761408637,"current_range_meters":17200,"station_id":"","pricing_plan_id":"cebpf4jnsgd1na2vs0mg"},{"bike_id":"29b38a45-3e07-40c1-b8b1-5f85b487711f","system_id":"levelo_inurba_marseille","lat":43.3123,"lon":5.40435,"is_reserved":false,"is_disabled":false,"rental_uris":{"android":"levelo://app?vid=29b38a45-3e07-40c1-b8b1-5f85b487711f","ios":"levelo://app?vid=29b38a45-3e07-40c1-b8b1-5f85b487711f"},"vehicle_type_id":"4","last_reported":1761408637,"current_range_meters":17200,"station_id":"","pricing_plan_id":"cebpf4jnsgd1na2vs0mg"},{"bike_id":"b8c9e7e2-b16c-4e20-8361-a8ba8d2668d5","system_id":"levelo_inurba_marseille","lat":43.31987,"lon":5.38153,"is_reserved":false,"is_disabled":false,"rental_uris":{"android":"levelo://app?vid=b8c9e7e2-b16c-4e20-8361-a8ba8d2668d5","ios":"levelo://app?vid=b8c9e7e2-b16c-4e20-8361-a8ba8d2668d5"},"vehicle_type_id":"4","last_reported":1761408637,"current_range_meters":17200,"station_id":"ce4bhr12rcd13ifvqhpg","pricing_plan_id":"cebpf4jnsgd1na2vs0mg"},{"bike_id":"ef24bedc-6761-44a7-bb04-ca70f9f9598a","system_id":"levelo_inurba_marseille","lat":43.248103,"lon":5.374632,"is_reserved":false,"is_disabled":false,"rental_uris":{"android":"levelo://app?vid=ef24bedc-6761-44a7-bb04-ca70f9f9598a","ios":"levelo://app?vid=ef24bedc-6761-44a7-bb04-ca70f9f9598a"},"vehicle_type_id":"4","last_reported":1761408637,"current_range_meters":17200,"station_id":"ce4bhgh2rcd13ifvqfb0","pricing_plan_id":"cebpf4jnsgd1na2vs0mg"},{"bike_id":"e4746a2d-9cd3-46c8-bf0e-3a10fdb16ced","system_id":"levelo_inurba_marseille","lat":43.32363,"lon":5.367621,"is_reserved":false,"is_disabled":false,"rental_uris":{"android":"levelo://app?vid=e4746a2d-9cd3-46c8-bf0e-3a10fdb16ced","ios":"levelo://app?vid=e4746a2d-9cd3-46c8-bf0e-3a10fdb16ced"},"vehicle_type_id":"4","last_reported":1761408637,"current_range_meters":17200,"station_id":"ce4bhsh2rcd13ifvqi2g","pricing_plan_id":"cebpf4jnsgd1na2vs0mg"},{"bike_id":"e5bd73c9-d2fd-429b-a719-e50033314cf7","system_id":"levelo_inurba_marseille","lat":43.22559,"lon":5.41629,"is_reserved":false,"is_disabled":false,"rental_uris":{"android":"levelo://app?vid=e5bd73c9-d2fd-429b-a719-e50033314cf7","ios":"levelo://app?vid=e5bd73c9-d2fd-429b-a719-e50033314cf7"},"vehicle_type_id":"4","last_reported":1761408637,"current_range_meters":17200,"station_id":"st_d2o4gvlbi1j2169b742g","pricing_plan_id":"cebpf4jnsgd1na2vs0mg"},{"bike_id":"3286c9ca-e41a-4a35-9c40-64d815b47d66","system_id":"levelo_inurba_marseille","lat":43.31685,"lon":5.40476,"is_reserved":false,"is_disabled":false,"rental_uris":{"android":"levelo://app?vid=3286c9ca-e41a-4a35-9c40-64d815b47d66","ios":"levelo://app?vid=3286c9ca-e41a-4a35-9c40-64d815b47d66"},"vehicle_type_id":"4","last_reported":1761408637,"current_range_meters":17200,"station_id":"ce4bh012rcd13ifvqd00","pricing_plan_id":"cebpf4jnsgd1na2vs0mg"},{"bike_id":"0c2dd201-a46d-440f-86f6-a1697afa1849","system_id":"levelo_inurba_marseille","lat":43.28043,"lon":5.36941,"is_reserved":false,"is_disabled":false,"rental_uris":{"android":"levelo://app?vid=0c2dd201-a46d-440f-86f6-a1697afa1849","ios":"levelo://app?vid=0c2dd201-a46d-440f-86f6-a1697afa1849"},"vehicle_type_id":"4","last_reported":1761408637,"current_range_meters":17200,"station_id":"ce4bha12rcd13ifvqef0","pricing_plan_id":"cebpf4jnsgd1na2vs0mg"},{"bike_id":"e0be5de7-28ef-42a3-aada-aa9c424d697a","system_id":"levelo_inurba_marseille","lat":43.27377,"lon":5.36251,"is_reserved":false,"is_disabled":false,"rental_uris":{"android":"levelo://app?vid=e0be5de7-28ef-42a3-aada-aa9c424d697a","ios":"levelo://app?vid=e0be5de7-28ef-42a3-aada-aa9c424d697a"},"vehicle_type_id":"4","last_reported":1761408637,"current_range_meters":17200,"station_id":"ce4bhbh2rcd13ifvqeo0","pricing_plan_id":"cebpf4jnsgd1na2vs0mg"},{"bike_id":"15a892b4-6e0f-43d9-9842-1d5bed604782","system_id":"levelo_inurba_marseille","lat":43.29525,"lon":5.3854,"is_reserved":false,"is_disabled":false,"rental_uris":{"android":"levelo://app?vid=15a892b4-6e0f-43d9-9842-1d5bed604782","ios":"levelo://app?vid=15a892b4-6e0f-43d9-9842-1d5bed604782"},"vehicle_type_id":"4","last_reported":1761408637,"current_range_meters":17600,"station_id":"ce4bgih2rcd13ifvqba0","pricing_plan_id":"cebpf4jnsgd1na2vs0mg"},{"bike_id":"b325a1ef-8586-4f4d-b62e-4ed3a44afe44","system_id":"levelo_inurba_marseille","lat":43.27057,"lon":5.40258,"is_reserved":false,"is_disabled":false,"rental_uris":{"android":"levelo://app?vid=b325a1ef-8586-4f4d-b62e-4ed3a44afe44","ios":"levelo://app?vid=b325a1ef-8586-4f4d-b62e-4ed3a44afe44"},"vehicle_type_id":"4","last_reported":1761408637,"current_range_meters":17600,"station_id":"ce4bhk92rcd13ifvqgc0","pricing_plan_id":"cebpf4jnsgd1na2vs0mg"},{"bike_id":"f72a00f1-1fed-4f6c-b4b5-8473dfdb4606","system_id":"levelo_inurba_marseille","lat":43.29656,"lon":5.40384,"is_reserved":false,"is_disabled":false,"rental_uris":{"android":"levelo://app?vid=f72a00f1-1fed-4f6c-b4b5-8473dfdb4606","ios":"levelo://app?vid=f72a00f1-1fed-4f6c-b4b5-8473dfdb4606"},"vehicle_type_id":"4","last_reported":1761408637,"current_range_meters":17600,"station_id":"","pricing_plan_id":"cebpf4jnsgd1na2vs0mg"},{"bike_id":"803189fc-f125-4c08-bf1d-238480aad6b7","system_id":"levelo_inurba_marseille","lat":43.24982,"lon":5.40464,"is_reserved":false,"is_disabled":false,"rental_uris":{"android":"levelo://app?vid=803189fc-f125-4c08-bf1d-238480aad6b7","ios":"levelo://app?vid=803189fc-f125-4c08-bf1d-238480aad6b7"},"vehicle_type_id":"4","last_reported":1761408637,"current_range_meters":17600,"station_id":"","pricing_plan_id":"cebpf4jnsgd1na2vs0mg"},{"bike_id":"e4ccce50-4824-4895-aa8c-033835526f23","system_id":"levelo_inurba_marseille","lat":43.31877,"lon":5.39993,"is_reserved":false,"is_disabled":false,"rental_uris":{"android":"levelo://app?vid=e4ccce50-4824-4895-aa8c-033835526f23","ios":"levelo://app?vid=e4ccce50-4824-4895-aa8c-033835526f23"},"vehicle_type_id":"4","last_reported":1761408637,"current_range_meters":17600,"station_id":"","pricing_plan_id":"cebpf4jnsgd1na2vs0mg"},{"bike_id":"f3f96c03-b6ab-49ef-bd89-9968d29eb6fa","system_id":"levelo_inurba_marseille","lat":43.29022,"lon":5.38133,"is_reserved":false,"is_disabled":false,"rental_uris":{"android":"levelo://app?vid=f3f96c03-b6ab-49ef-bd89-9968d29eb6fa","ios":"levelo://app?vid=f3f96c03-b6ab-49ef-bd89-9968d29eb6fa"},"vehicle_type_id":"4","last_reported":1761408637,"current_range_meters":18000,"station_id":"ce4bh4p2rcd13ifvqe1g","pricing_plan_id":"cebpf4jnsgd1na2vs0mg"},{"bike_id":"3da36b46-32f0-4723-8f3b-8cba39a84287","system_id":"levelo_inurba_marseille","lat":43.24379,"lon":5.37083,"is_reserved":false,"is_disabled":false,"rental_uris":{"android":"levelo://app?vid=3da36b46-32f0-4723-8f3b-8cba39a84287","ios":"levelo://app?vid=3da36b46-32f0-4723-8f3b-8cba39a84287"},"vehicle_type_id":"4","last_reported":1761408637,"current_range_meters":18000,"station_id":"ce4bhhh2rcd13ifvqfk0","pricing_plan_id":"cebpf4jnsgd1na2vs0mg"},{"bike_id":"453bbe25-0e81-405d-91e0-590471903fdd","system_id":"levelo_inurba_marseille","lat":43.3169,"lon":5.40483,"is_reserved":false,"is_disabled":false,"rental_uris":{"android":"levelo://app?vid=453bbe25-0e81-405d-91e0-590471903fdd","ios":"levelo://app?vid=453bbe25-0e81-405d-91e0-590471903fdd"},"vehicle_type_id":"4","last_reported":1761408637,"current_range_meters":18000,"station_id":"ce4bh012rcd13ifvqd00","pricing_plan_id":"cebpf4jnsgd1na2vs0mg"},{"bike_id":"933e9118-252f-425b-94a4-2d2542195565","system_id":"levelo_inurba_marseille","lat":43.31701,"lon":5.40472,"is_reserved":false,"is_disabled":false,"rental_uris":{"android":"levelo://app?vid=933e9118-252f-425b-94a4-2d2542195565","ios":"levelo://app?vid=933e9118-252f-425b-94a4-2d2542195565"},"vehicle_type_id":"4","last_reported":1761408637,"current_range_meters":18800,"station_id":"ce4bh012rcd13ifvqd00","pricing_plan_id":"cebpf4jnsgd1na2vs0mg"},{"bike_id":"feadcab1-32af-4307-86e5-54e0c434874a","system_id":"levelo_inurba_marseille","lat":43.30619,"lon":5.37225,"is_reserved":false,"is_disabled":false,"rental_uris":{"android":"levelo://app?vid=feadcab1-32af-4307-86e5-54e0c434874a","ios":"levelo://app?vid=feadcab1-32af-4307-86e5-54e0c434874a"},"vehicle_type_id":"4","last_reported":1761408637,"current_range_meters":18800,"station_id":"ce4bgqh2rcd13ifvqc4g","pricing_plan_id":"cebpf4jnsgd1na2vs0mg"},{"bike_id":"780342ec-8c3a-489b-86d9-8a8b947e081e","system_id":"levelo_inurba_marseille","lat":43.25514,"lon":5.37652,"is_reserved":false,"is_disabled":false,"rental_uris":{"android":"levelo://app?vid=780342ec-8c3a-489b-86d9-8a8b947e081e","ios":"levelo://app?vid=780342ec-8c3a-489b-86d9-8a8b947e081e"},"vehicle_type_id":"4","last_reported":1761408637,"current_range_meters":18800,"station_id":"ce4bhh12rcd13ifvqff0","pricing_plan_id":"cebpf4jnsgd1na2vs0mg"},{"bike_id":"ae2b7993-29bb-4a0d-aa0d-54e51d17527e","system_id":"levelo_inurba_marseille","lat":43.29705,"lon":5.36595,"is_reserved":false,"is_disabled":false,"rental_uris":{"android":"levelo://app?vid=ae2b7993-29bb-4a0d-aa0d-54e51d17527e","ios":"levelo://app?vid=ae2b7993-29bb-4a0d-aa0d-54e51d17527e"},"vehicle_type_id":"4","last_reported":1761408637,"current_range_meters":18800,"station_id":"ce4bgn12rcd13ifvqbt0","pricing_plan_id":"cebpf4jnsgd1na2vs0mg"},{"bike_id":"b7eafcfb-ffdd-4d7e-bac3-89917c605fc7","system_id":"levelo_inurba_marseille","lat":43.28368,"lon":5.38634,"is_reserved":false,"is_disabled":false,"rental_uris":{"android":"levelo://app?vid=b7eafcfb-ffdd-4d7e-bac3-89917c605fc7","ios":"levelo://app?vid=b7eafcfb-ffdd-4d7e-bac3-89917c605fc7"},"vehicle_type_id":"4","last_reported":1761408637,"current_range_meters":18800,"station_id":"ce4bh492rcd13ifvqdvg","pricing_plan_id":"cebpf4jnsgd1na2vs0mg"},{"bike_id":"de5cece4-6186-4ccb-b70e-a25e8bd3fc86","system_id":"levelo_inurba_marseille","lat":43.337444,"lon":5.374475,"is_reserved":false,"is_disabled":false,"rental_uris":{"android":"levelo://app?vid=de5cece4-6186-4ccb-b70e-a25e8bd3fc86","ios":"levelo://app?vid=de5cece4-6186-4ccb-b70e-a25e8bd3fc86"},"vehicle_type_id":"4","last_reported":1761408637,"current_range_meters":18800,"station_id":"","pricing_plan_id":"cebpf4jnsgd1na2vs0mg"},{"bike_id":"21bdcc57-733f-425b-bd24-99c799d60436","system_id":"levelo_inurba_marseille","lat":43.27383,"lon":5.36265,"is_reserved":false,"is_disabled":false,"rental_uris":{"android":"levelo://app?vid=21bdcc57-733f-425b-bd24-99c799d60436","ios":"levelo://app?vid=21bdcc57-733f-425b-bd24-99c799d60436"},"vehicle_type_id":"4","last_reported":1761408637,"current_range_meters":19200,"station_id":"ce4bhbh2rcd13ifvqeo0","pricing_plan_id":"cebpf4jnsgd1na2vs0mg"},{"bike_id":"8847af5d-c1ad-4d8d-a5c1-273c3b41c105","system_id":"levelo_inurba_marseille","lat":43.32255,"lon":5.41962,"is_reserved":false,"is_disabled":false,"rental_uris":{"android":"levelo://app?vid=8847af5d-c1ad-4d8d-a5c1-273c3b41c105","ios":"levelo://app?vid=8847af5d-c1ad-4d8d-a5c1-273c3b41c105"},"vehicle_type_id":"4","last_reported":1761408637,"current_range_meters":19200,"station_id":"","pricing_plan_id":"cebpf4jnsgd1na2vs0mg"},{"bike_id":"07dd7e62-80ff-48a9-90e7-ea1151038459","system_id":"levelo_inurba_marseille","lat":43.2737,"lon":5.362552,"is_reserved":false,"is_disabled":false,"rental_uris":{"android":"levelo://app?vid=07dd7e62-80ff-48a9-90e7-ea1151038459","ios":"levelo://app?vid=07dd7e62-80ff-48a9-90e7-ea1151038459"},"vehicle_type_id":"4","last_reported":1761408637,"current_range_meters":19200,"station_id":"ce4bhbh2rcd13ifvqeo0","pricing_plan_id":"cebpf4jnsgd1na2vs0mg"},{"bike_id":"7a1877e8-1310-4142-900d-3cea9a2ef65f","system_id":"levelo_inurba_marseille","lat":43.29485,"lon":5.43306,"is_reserved":false,"is_disabled":false,"rental_uris":{"android":"levelo://app?vid=7a1877e8-1310-4142-900d-3cea9a2ef65f","ios":"levelo://app?vid=7a1877e8-1310-4142-900d-3cea9a2ef65f"},"vehicle_type_id":"4","last_reported":1761408637,"current_range_meters":19200,"station_id":"st_d3j5ugp08ojc73fj9d10","pricing_plan_id":"cebpf4jnsgd1na2vs0mg"},{"bike_id":"14f2119b-07cd-4fc8-be12-d51071618c9e","system_id":"levelo_inurba_marseille","lat":43.23966,"lon":5.3663,"is_reserved":false,"is_disabled":false,"rental_uris":{"android":"levelo://app?vid=14f2119b-07cd-4fc8-be12-d51071618c9e","ios":"levelo://app?vid=14f2119b-07cd-4fc8-be12-d51071618c9e"},"vehicle_type_id":"4","last_reported":1761408637,"current_range_meters":19200,"station_id":"ce4bhi12rcd13ifvqfp0","pricing_plan_id":"cebpf4jnsgd1na2vs0mg"},{"bike_id":"67f8857f-0853-46d2-b9ef-96c5ce2639bc","system_id":"levelo_inurba_marseille","lat":43.23043,"lon":5.35538,"is_reserved":false,"is_disabled":false,"rental_uris":{"android":"levelo://app?vid=67f8857f-0853-46d2-b9ef-96c5ce2639bc","ios":"levelo://app?vid=67f8857f-0853-46d2-b9ef-96c5ce2639bc"},"vehicle_type_id":"4","last_reported":1761408637,"current_range_meters":19200,"station_id":"cpo3342slgdg3j2ifvpg","pricing_plan_id":"cebpf4jnsgd1na2vs0mg"},{"bike_id":"51aa8393-3c7e-4af3-a555-04f36e045f5a","system_id":"levelo_inurba_marseille","lat":43.21749,"lon":5.34607,"is_reserved":false,"is_disabled":false,"rental_uris":{"android":"levelo://app?vid=51aa8393-3c7e-4af3-a555-04f36e045f5a","ios":"levelo://app?vid=51aa8393-3c7e-4af3-a555-04f36e045f5a"},"vehicle_type_id":"4","last_reported":1761408637,"current_range_meters":19200,"station_id":"st_cvj6r9ubvosntc0bgbag","pricing_plan_id":"cebpf4jnsgd1na2vs0mg"},{"bike_id":"63cea5eb-8889-44c4-a8f3-7178e165a9f8","system_id":"levelo_inurba_marseille","lat":43.27958,"lon":5.38688,"is_reserved":false,"is_disabled":false,"rental_uris":{"android":"levelo://app?vid=63cea5eb-8889-44c4-a8f3-7178e165a9f8","ios":"levelo://app?vid=63cea5eb-8889-44c4-a8f3-7178e165a9f8"},"vehicle_type_id":"4","last_reported":1761408637,"current_range_meters":19600,"station_id":"ce4bhg12rcd13ifvqf80","pricing_plan_id":"cebpf4jnsgd1na2vs0mg"},{"bike_id":"3f647fcf-1028-4d7c-be20-e72b849b14b8","system_id":"levelo_inurba_marseille","lat":43.23201,"lon":5.35552,"is_reserved":false,"is_disabled":false,"rental_uris":{"android":"levelo://app?vid=3f647fcf-1028-4d7c-be20-e72b849b14b8","ios":"levelo://app?vid=3f647fcf-1028-4d7c-be20-e72b849b14b8"},"vehicle_type_id":"4","last_reported":1761408637,"current_range_meters":19600,"station_id":"ce4bhu92rcd13ifvqi70","pricing_plan_id":"cebpf4jnsgd1na2vs0mg"},{"bike_id":"317107fa-306d-4b8d-9380-a16cd06486ce","system_id":"levelo_inurba_marseille","lat":43.28458,"lon":5.35904,"is_reserved":false,"is_disabled":true,"rental_uris":{"android":"levelo://app?vid=317107fa-306d-4b8d-9380-a16cd06486ce","ios":"levelo://app?vid=317107fa-306d-4b8d-9380-a16cd06486ce"},"vehicle_type_id":"4","last_reported":1761408637,"current_range_meters":19600,"station_id":"ce4bhah2rcd13ifvqei0","pricing_plan_id":"cebpf4jnsgd1na2vs0mg"},{"bike_id":"3efa3cf8-e152-4009-b9f7-0f13f878d733","system_id":"levelo_inurba_marseille","lat":43.28612,"lon":5.35105,"is_reserved":false,"is_disabled":false,"rental_uris":{"android":"levelo://app?vid=3efa3cf8-e152-4009-b9f7-0f13f878d733","ios":"levelo://app?vid=3efa3cf8-e152-4009-b9f7-0f13f878d733"},"vehicle_type_id":"4","last_reported":1761408637,"current_range_meters":19600,"station_id":"ce4bhch2rcd13ifvqeug","pricing_plan_id":"cebpf4jnsgd1na2vs0mg"},{"bike_id":"852f7905-1ceb-452d-ac62-c0aef4408049","system_id":"levelo_inurba_marseille","lat":43.24178,"lon":5.3973,"is_reserved":false,"is_disabled":false,"rental_uris":{"android":"levelo://app?vid=852f7905-1ceb-452d-ac62-c0aef4408049","ios":"levelo://app?vid=852f7905-1ceb-452d-ac62-c0aef4408049"},"vehicle_type_id":"4","last_reported":1761408637,"current_range_meters":19600,"station_id":"ce4bhn12rcd13ifvqgpg","pricing_plan_id":"cebpf4jnsgd1na2vs0mg"},{"bike_id":"c9c21d7f-491d-4605-a042-46f5bbb9ac2d","system_id":"levelo_inurba_marseille","lat":43.25567,"lon":5.38237,"is_reserved":false,"is_disabled":false,"rental_uris":{"android":"levelo://app?vid=c9c21d7f-491d-4605-a042-46f5bbb9ac2d","ios":"levelo://app?vid=c9c21d7f-491d-4605-a042-46f5bbb9ac2d"},"vehicle_type_id":"4","last_reported":1761408637,"current_range_meters":19600,"station_id":"ce4bhih2rcd13ifvqfs0","pricing_plan_id":"cebpf4jnsgd1na2vs0mg"},{"bike_id":"64b75b4a-3497-4861-8cc2-90dd62cd9f5e","system_id":"levelo_inurba_marseille","lat":43.29485,"lon":5.43334,"is_reserved":false,"is_disabled":false,"rental_uris":{"android":"levelo://app?vid=64b75b4a-3497-4861-8cc2-90dd62cd9f5e","ios":"levelo://app?vid=64b75b4a-3497-4861-8cc2-90dd62cd9f5e"},"vehicle_type_id":"4","last_reported":1761408637,"current_range_meters":19600,"station_id":"st_d3j5ugp08ojc73fj9d10","pricing_plan_id":"cebpf4jnsgd1na2vs0mg"},{"bike_id":"78ac0750-067e-4d12-b5a5-46d9fa969bc7","system_id":"levelo_inurba_marseille","lat":43.30881,"lon":5.39652,"is_reserved":false,"is_disabled":false,"rental_uris":{"android":"levelo://app?vid=78ac0750-067e-4d12-b5a5-46d9fa969bc7","ios":"levelo://app?vid=78ac0750-067e-4d12-b5a5-46d9fa969bc7"},"vehicle_type_id":"4","last_reported":1761408637,"current_range_meters":19600,"station_id":"ce4bh012rcd13ifvqcv0","pricing_plan_id":"cebpf4jnsgd1na2vs0mg"},{"bike_id":"eff2afea-1d37-40bc-9320-5014a52ad451","system_id":"levelo_inurba_marseille","lat":43.29972,"lon":5.38502,"is_reserved":false,"is_disabled":false,"rental_uris":{"android":"levelo://app?vid=eff2afea-1d37-40bc-9320-5014a52ad451","ios":"levelo://app?vid=eff2afea-1d37-40bc-9320-5014a52ad451"},"vehicle_type_id":"4","last_reported":1761408637,"current_range_meters":19600,"station_id":"ce4bgj92rcd13ifvqbd0","pricing_plan_id":"cebpf4jnsgd1na2vs0mg"},{"bike_id":"0ebd6822-1204-4fbe-bae5-829e343e603c","system_id":"levelo_inurba_marseille","lat":43.290212,"lon":5.356089,"is_reserved":false,"is_disabled":false,"rental_uris":{"android":"levelo://app?vid=0ebd6822-1204-4fbe-bae5-829e343e603c","ios":"levelo://app?vid=0ebd6822-1204-4fbe-bae5-829e343e603c"},"vehicle_type_id":"4","last_reported":1761408637,"current_range_meters":19600,"station_id":"ce4bhb92rcd13ifvqen0","pricing_plan_id":"cebpf4jnsgd1na2vs0mg"},{"bike_id":"d85946e2-84a2-45d4-8501-cc7b29a35349","system_id":"levelo_inurba_marseille","lat":43.25509,"lon":5.37653,"is_reserved":false,"is_disabled":false,"rental_uris":{"android":"levelo://app?vid=d85946e2-84a2-45d4-8501-cc7b29a35349","ios":"levelo://app?vid=d85946e2-84a2-45d4-8501-cc7b29a35349"},"vehicle_type_id":"4","last_reported":1761408637,"current_range_meters":19600,"station_id":"ce4bhh12rcd13ifvqff0","pricing_plan_id":"cebpf4jnsgd1na2vs0mg"},{"bike_id":"ef301c4d-0419-4ec7-842d-5432c6ee4abd","system_id":"levelo_inurba_marseille","lat":43.284086,"lon":5.375035,"is_reserved":false,"is_disabled":false,"rental_uris":{"android":"levelo://app?vid=ef301c4d-0419-4ec7-842d-5432c6ee4abd","ios":"levelo://app?vid=ef301c4d-0419-4ec7-842d-5432c6ee4abd"},"vehicle_type_id":"4","last_reported":1761408637,"current_range_meters":19600,"station_id":"ce4bh412rcd13ifvqds0","pricing_plan_id":"cebpf4jnsgd1na2vs0mg"},{"bike_id":"c124d4a0-9e47-48ec-ad7a-ea36eb6e5d35","system_id":"levelo_inurba_marseille","lat":43.243881,"lon":5.370508,"is_reserved":false,"is_disabled":false,"rental_uris":{"android":"levelo://app?vid=c124d4a0-9e47-48ec-ad7a-ea36eb6e5d35","ios":"levelo://app?vid=c124d4a0-9e47-48ec-ad7a-ea36eb6e5d35"},"vehicle_type_id":"4","last_reported":1761408637,"current_range_meters":19600,"station_id":"ce4bhhh2rcd13ifvqfk0","pricing_plan_id":"cebpf4jnsgd1na2vs0mg"},{"bike_id":"eb0d9e20-fe6c-486a-9aa2-e7330d4e9d8e","system_id":"levelo_inurba_marseille","lat":43.239656,"lon":5.366313,"is_reserved":false,"is_disabled":false,"rental_uris":{"android":"levelo://app?vid=eb0d9e20-fe6c-486a-9aa2-e7330d4e9d8e","ios":"levelo://app?vid=eb0d9e20-fe6c-486a-9aa2-e7330d4e9d8e"},"vehicle_type_id":"4","last_reported":1761408637,"current_range_meters":20000,"station_id":"ce4bhi12rcd13ifvqfp0","pricing_plan_id":"cebpf4jnsgd1na2vs0mg"},{"bike_id":"a70a5c56-54da-4a9c-92ae-4bd04c5f57d9","system_id":"levelo_inurba_marseille","lat":43.29899,"lon":5.43653,"is_reserved":false,"is_disabled":false,"rental_uris":{"android":"levelo://app?vid=a70a5c56-54da-4a9c-92ae-4bd04c5f57d9","ios":"levelo://app?vid=a70a5c56-54da-4a9c-92ae-4bd04c5f57d9"},"vehicle_type_id":"4","last_reported":1761408637,"current_range_meters":20000,"station_id":"ce4bhpp2rcd13ifvqhfg","pricing_plan_id":"cebpf4jnsgd1na2vs0mg"},{"bike_id":"59e90fd9-8866-4ae9-a6f2-a970932bfd6c","system_id":"levelo_inurba_marseille","lat":43.23959,"lon":5.36632,"is_reserved":false,"is_disabled":false,"rental_uris":{"android":"levelo://app?vid=59e90fd9-8866-4ae9-a6f2-a970932bfd6c","ios":"levelo://app?vid=59e90fd9-8866-4ae9-a6f2-a970932bfd6c"},"vehicle_type_id":"4","last_reported":1761408637,"current_range_meters":20000,"station_id":"ce4bhi12rcd13ifvqfp0","pricing_plan_id":"cebpf4jnsgd1na2vs0mg"},{"bike_id":"1eac0aa7-2b82-4118-bb70-4582cf563475","system_id":"levelo_inurba_marseille","lat":43.2848,"lon":5.48389,"is_reserved":false,"is_disabled":false,"rental_uris":{"android":"levelo://app?vid=1eac0aa7-2b82-4118-bb70-4582cf563475","ios":"levelo://app?vid=1eac0aa7-2b82-4118-bb70-4582cf563475"},"vehicle_type_id":"4","last_reported":1761408637,"current_range_meters":20000,"station_id":"st_d3svhcjqgbts73a3dn0g","pricing_plan_id":"cebpf4jnsgd1na2vs0mg"},{"bike_id":"a16c8df5-f74d-4870-aaf8-aca51b6adb83","system_id":"levelo_inurba_marseille","lat":43.29578,"lon":5.36738,"is_reserved":false,"is_disabled":false,"rental_uris":{"android":"levelo://app?vid=a16c8df5-f74d-4870-aaf8-aca51b6adb83","ios":"levelo://app?vid=a16c8df5-f74d-4870-aaf8-aca51b6adb83"},"vehicle_type_id":"4","last_reported":1761408637,"current_range_meters":20000,"station_id":"ce4bgph2rcd13ifvqc2g","pricing_plan_id":"cebpf4jnsgd1na2vs0mg"},{"bike_id":"cb74624f-1cc3-4c0c-8ff7-b96001c15d40","system_id":"levelo_inurba_marseille","lat":43.2603,"lon":5.37549,"is_reserved":false,"is_disabled":false,"rental_uris":{"android":"levelo://app?vid=cb74624f-1cc3-4c0c-8ff7-b96001c15d40","ios":"levelo://app?vid=cb74624f-1cc3-4c0c-8ff7-b96001c15d40"},"vehicle_type_id":"4","last_reported":1761408637,"current_range_meters":20000,"station_id":"ce4bhgh2rcd13ifvqfa0","pricing_plan_id":"cebpf4jnsgd1na2vs0mg"},{"bike_id":"4cecb34b-91af-4264-9403-fdf92a57d61c","system_id":"levelo_inurba_marseille","lat":43.28722,"lon":5.37942,"is_reserved":false,"is_disabled":false,"rental_uris":{"android":"levelo://app?vid=4cecb34b-91af-4264-9403-fdf92a57d61c","ios":"levelo://app?vid=4cecb34b-91af-4264-9403-fdf92a57d61c"},"vehicle_type_id":"4","last_reported":1761408637,"current_range_meters":20000,"station_id":"ce4bh9p2rcd13ifvqec0","pricing_plan_id":"cebpf4jnsgd1na2vs0mg"},{"bike_id":"19310d9f-b323-4f7d-8e1a-70def4ed3f92","system_id":"levelo_inurba_marseille","lat":43.28354,"lon":5.38112,"is_reserved":false,"is_disabled":false,"rental_uris":{"android":"levelo://app?vid=19310d9f-b323-4f7d-8e1a-70def4ed3f92","ios":"levelo://app?vid=19310d9f-b323-4f7d-8e1a-70def4ed3f92"},"vehicle_type_id":"4","last_reported":1761408637,"current_range_meters":20400,"station_id":"ce4bh412rcd13ifvqdr0","pricing_plan_id":"cebpf4jnsgd1na2vs0mg"},{"bike_id":"af9e12e7-38b8-459b-8665-a09998ee41f3","system_id":"levelo_inurba_marseille","lat":43.24649,"lon":5.388948,"is_reserved":false,"is_disabled":false,"rental_uris":{"android":"levelo://app?vid=af9e12e7-38b8-459b-8665-a09998ee41f3","ios":"levelo://app?vid=af9e12e7-38b8-459b-8665-a09998ee41f3"},"vehicle_type_id":"4","last_reported":1761408637,"current_range_meters":20400,"station_id":"ce4bhg12rcd13ifvqf60","pricing_plan_id":"cebpf4jnsgd1na2vs0mg"},{"bike_id":"2e62dbda-1ba0-4974-b0e3-b04e88769465","system_id":"levelo_inurba_marseille","lat":43.31995,"lon":5.38161,"is_reserved":false,"is_disabled":false,"rental_uris":{"android":"levelo://app?vid=2e62dbda-1ba0-4974-b0e3-b04e88769465","ios":"levelo://app?vid=2e62dbda-1ba0-4974-b0e3-b04e88769465"},"vehicle_type_id":"4","last_reported":1761408637,"current_range_meters":20400,"station_id":"ce4bhr12rcd13ifvqhpg","pricing_plan_id":"cebpf4jnsgd1na2vs0mg"},{"bike_id":"d9b76d95-823b-4cf8-9a57-28d205b120fc","system_id":"levelo_inurba_marseille","lat":43.28414,"lon":5.37511,"is_reserved":false,"is_disabled":false,"rental_uris":{"android":"levelo://app?vid=d9b76d95-823b-4cf8-9a57-28d205b120fc","ios":"levelo://app?vid=d9b76d95-823b-4cf8-9a57-28d205b120fc"},"vehicle_type_id":"4","last_reported":1761408637,"current_range_meters":20400,"station_id":"ce4bh412rcd13ifvqds0","pricing_plan_id":"cebpf4jnsgd1na2vs0mg"},{"bike_id":"f2005937-9471-42cd-bfc6-1291d3ab0ff4","system_id":"levelo_inurba_marseille","lat":43.27976,"lon":5.38739,"is_reserved":false,"is_disabled":false,"rental_uris":{"android":"levelo://app?vid=f2005937-9471-42cd-bfc6-1291d3ab0ff4","ios":"levelo://app?vid=f2005937-9471-42cd-bfc6-1291d3ab0ff4"},"vehicle_type_id":"4","last_reported":1761408637,"current_range_meters":20400,"station_id":"ce4bhg12rcd13ifvqf80","pricing_plan_id":"cebpf4jnsgd1na2vs0mg"},{"bike_id":"adca707a-2615-4b10-8d41-4e573de424df","system_id":"levelo_inurba_marseille","lat":43.28409,"lon":5.37515,"is_reserved":false,"is_disabled":false,"rental_uris":{"android":"levelo://app?vid=adca707a-2615-4b10-8d41-4e573de424df","ios":"levelo://app?vid=adca707a-2615-4b10-8d41-4e573de424df"},"vehicle_type_id":"4","last_reported":1761408637,"current_range_meters":20400,"station_id":"ce4bh412rcd13ifvqds0","pricing_plan_id":"cebpf4jnsgd1na2vs0mg"},{"bike_id":"c022f697-ebf2-4905-b16c-6d42dd970ba0","system_id":"levelo_inurba_marseille","lat":43.29912,"lon":5.37469,"is_reserved":false,"is_disabled":false,"rental_uris":{"android":"levelo://app?vid=c022f697-ebf2-4905-b16c-6d42dd970ba0","ios":"levelo://app?vid=c022f697-ebf2-4905-b16c-6d42dd970ba0"},