{"last_updated":1744971051,"ttl":60,"version":"2.2","data":{"bikes":[{"bike_id":"b64b5660-909a-4837-a570-adc6ef41a253","system_id":"levelo_inurba_marseille","lat":43.27569,"lon":5.38428,"is_reserved":false,"is_disabled":false,"rental_uris":{"android":"levelo://app?vid=b64b5660-909a-4837-a570-adc6ef41a253","ios":"levelo://app?vid=b64b5660-909a-4837-a570-adc6ef41a253"},"vehicle_type_id":"4","last_reported":1744971051,"current_range_meters":2800,"station_id":"ce4bhh92rcd13ifvqfi0","pricing_plan_id":"cebpf4jnsgd1na2vs0mg"},{"bike_id":"983dc928-c8a8-4143-9cfa-507cac334f72","system_id":"levelo_inurba_marseille","lat":43.25124,"lon":5.40328,"is_reserved":false,"is_disabled":false,"rental_uris":{"android":"levelo://app?vid=983dc928-c8a8-4143-9cfa-507cac334f72","ios":"levelo://app?vid=983dc928-c8a8-4143-9cfa-507cac334f72"},"vehicle_type_id":"4","last_reported":1744971051,"current_range_meters":2800,"station_id":"ce4bhlh2rcd13ifvqgig","pricing_plan_id":"cebpf4jnsgd1na2vs0mg"},{"bike_id":"88ce086b-91b3-4da1-a45f-e9ca4f83e1d2","system_id":"levelo_inurba_marseille","lat":43.284668,"lon":5.384033,"is_reserved":false,"is_disabled":true,"rental_uris":{"android":"levelo://app?vid=88ce086b-91b3-4da1-a45f-e9ca4f83e1d2","ios":"levelo://app?vid=88ce086b-91b3-4da1-a45f-e9ca4f83e1d2"},"vehicle_type_id":"4","last_reported":1744971051,"current_range_meters":3200,"station_id":"","pricing_plan_id":"cebpf4jnsgd1na2vs0mg"},{"bike_id":"e15c1cc4-356c-4a3f-a6bd-52ba91468352","system_id":"levelo_inurba_marseille","lat":43.29266,"lon":5.37617,"is_reserved":false,"is_disabled":false,"rental_uris":{"android":"levelo://app?vid=e15c1cc4-356c-4a3f-a6bd-52ba91468352","ios":"levelo://app?vid=e15c1cc4-356c-4a3f-a6bd-52ba91468352"},"vehicle_type_id":"4","last_reported":1744971051,"current_range_meters":3200,"station_id":"ce4bgi12rcd13ifvqb80","pricing_plan_id":"cebpf4jnsgd1na2vs0mg"},{"bike_id":"6ea6afb2-d056-488e-8f9a-7b3589627413","system_id":"levelo_inurba_marseille","lat":43.30533,"lon":5.36722,"is_reserved":false,"is_disabled":false,"rental_uris":{"android":"levelo://app?vid=6ea6afb2-d056-488e-8f9a-7b3589627413","ios":"levelo://app?vid=6ea6afb2-d056-488e-8f9a-7b3589627413"},"vehicle_type_id":"4","last_reported":1744971051,"current_range_meters":3600,"station_id":"ce4bgrp2rcd13ifvqc9g","pricing_plan_id":"cebpf4jnsgd1na2vs0mg"},{"bike_id":"e2a6577c-7192-4441-8e7c-1d2109fe1a33","system_id":"levelo_inurba_marseille","lat":43.29876,"lon":5.39744,"is_reserved":false,"is_disabled":false,"rental_uris":{"android":"levelo://app?vid=e2a6577c-7192-4441-8e7c-1d2109fe1a33","ios":"levelo://app?vid=e2a6577c-7192-4441-8e7c-1d2109fe1a33"},"vehicle_type_id":"4","last_reported":1744971051,"current_range_meters":4000,"station_id":"ce4bh0h2rcd13ifvqd50","pricing_plan_id":"cebpf4jnsgd1na2vs0mg"},{"bike_id":"593f200f-acc6-4515-9b2c-377663e6c433","system_id":"levelo_inurba_marseille","lat":43.2175,"lon":5.34604,"is_reserved":false,"is_disabled":true,"rental_uris":{"android":"levelo://app?vid=593f200f-acc6-4515-9b2c-377663e6c433","ios":"levelo://app?vid=593f200f-acc6-4515-9b2c-377663e6c433"},"vehicle_type_id":"4","last_reported":1744971051,"current_range_meters":4400,"station_id":"st_cvj6r9ubvosntc0bgbag","pricing_plan_id":"cebpf4jnsgd1na2vs0mg"},{"bike_id":"feb647ca-7a8f-4f1a-b97c-2b80e6d0277d","system_id":"levelo_inurba_marseille","lat":43.30377,"lon":5.42485,"is_reserved":false,"is_disabled":false,"rental_uris":{"android":"levelo://app?vid=feb647ca-7a8f-4f1a-b97c-2b80e6d0277d","ios":"levelo://app?vid=feb647ca-7a8f-4f1a-b97c-2b80e6d0277d"},"vehicle_type_id":"4","last_reported":1744971051,"current_range_meters":4400,"station_id":"ce4bhoh2rcd13ifvqh6g","pricing_plan_id":"cebpf4jnsgd1na2vs0mg"},{"bike_id":"c490ef4c-f8b1-43fb-90bb-f1d9c2f3b1f8","system_id":"levelo_inurba_marseille","lat":43.27208,"lon":5.39181,"is_reserved":false,"is_disabled":false,"rental_uris":{"android":"levelo://app?vid=c490ef4c-f8b1-43fb-90bb-f1d9c2f3b1f8","ios":"levelo://app?vid=c490ef4c-f8b1-43fb-90bb-f1d9c2f3b1f8"},"vehicle_type_id":"4","last_reported":1744971051,"current_range_meters":4400,"station_id":"ce4bhhp2rcd13ifvqfm0","pricing_plan_id":"cebpf4jnsgd1na2vs0mg"},{"bike_id":"c028cd54-65d9-403d-b29a-b55a170a6cea","system_id":"levelo_inurba_marseille","lat":43.232735,"lon":5.43609,"is_reserved":false,"is_disabled":false,"rental_uris":{"android":"levelo://app?vid=c028cd54-65d9-403d-b29a-b55a170a6cea","ios":"levelo://app?vid=c028cd54-65d9-403d-b29a-b55a170a6cea"},"vehicle_type_id":"4","last_reported":1744971051,"current_range_meters":4400,"station_id":"ce4bgm92rcd13ifvqbr0","pricing_plan_id":"cebpf4jnsgd1na2vs0mg"},{"bike_id":"50dc23ed-5e19-46ee-92cf-f2ca4c445852","system_id":"levelo_inurba_marseille","lat":43.33722,"lon":5.39185,"is_reserved":false,"is_disabled":false,"rental_uris":{"android":"levelo://app?vid=50dc23ed-5e19-46ee-92cf-f2ca4c445852","ios":"levelo://app?vid=50dc23ed-5e19-46ee-92cf-f2ca4c445852"},"vehicle_type_id":"4","last_reported":1744971051,"current_range_meters":4800,"station_id":"ce4bhr92rcd13ifvqhsg","pricing_plan_id":"cebpf4jnsgd1na2vs0mg"},{"bike_id":"206e6eed-90ee-4177-ab5a-4bcb1810ce02","system_id":"levelo_inurba_marseille","lat":43.32361,"lon":5.36766,"is_reserved":false,"is_disabled":false,"rental_uris":{"android":"levelo://app?vid=206e6eed-90ee-4177-ab5a-4bcb1810ce02","ios":"levelo://app?vid=206e6eed-90ee-4177-ab5a-4bcb1810ce02"},"vehicle_type_id":"4","last_reported":1744971051,"current_range_meters":5600,"station_id":"ce4bhsh2rcd13ifvqi2g","pricing_plan_id":"cebpf4jnsgd1na2vs0mg"},{"bike_id":"b5e16c44-c6cc-4253-b466-143426aa0017","system_id":"levelo_inurba_marseille","lat":43.31352,"lon":5.36741,"is_reserved":false,"is_disabled":false,"rental_uris":{"android":"levelo://app?vid=b5e16c44-c6cc-4253-b466-143426aa0017","ios":"levelo://app?vid=b5e16c44-c6cc-4253-b466-143426aa0017"},"vehicle_type_id":"4","last_reported":1744971051,"current_range_meters":5600,"station_id":"ce4bgr92rcd13ifvqc6g","pricing_plan_id":"cebpf4jnsgd1na2vs0mg"},{"bike_id":"d3455303-ad12-477a-98fb-6b1ea11029e4","system_id":"levelo_inurba_marseille","lat":43.3038,"lon":5.42488,"is_reserved":false,"is_disabled":false,"rental_uris":{"android":"levelo://app?vid=d3455303-ad12-477a-98fb-6b1ea11029e4","ios":"levelo://app?vid=d3455303-ad12-477a-98fb-6b1ea11029e4"},"vehicle_type_id":"4","last_reported":1744971051,"current_range_meters":6000,"station_id":"ce4bhoh2rcd13ifvqh6g","pricing_plan_id":"cebpf4jnsgd1na2vs0mg"},{"bike_id":"1812e504-d01c-4a74-9e55-135c932d22ed","system_id":"levelo_inurba_marseille","lat":43.27424,"lon":5.394105,"is_reserved":false,"is_disabled":false,"rental_uris":{"android":"levelo://app?vid=1812e504-d01c-4a74-9e55-135c932d22ed","ios":"levelo://app?vid=1812e504-d01c-4a74-9e55-135c932d22ed"},"vehicle_type_id":"4","last_reported":1744971051,"current_range_meters":6000,"station_id":"ce4bhdp2rcd13ifvqf20","pricing_plan_id":"cebpf4jnsgd1na2vs0mg"},{"bike_id":"2df22311-bac1-4b8f-abff-11893969de63","system_id":"levelo_inurba_marseille","lat":43.337444,"lon":5.374475,"is_reserved":false,"is_disabled":false,"rental_uris":{"android":"levelo://app?vid=2df22311-bac1-4b8f-abff-11893969de63","ios":"levelo://app?vid=2df22311-bac1-4b8f-abff-11893969de63"},"vehicle_type_id":"4","last_reported":1744971051,"current_range_meters":6400,"station_id":"","pricing_plan_id":"cebpf4jnsgd1na2vs0mg"},{"bike_id":"7b09dfe8-4549-4e15-baf3-df132e32d464","system_id":"levelo_inurba_marseille","lat":43.24185,"lon":5.39744,"is_reserved":false,"is_disabled":false,"rental_uris":{"android":"levelo://app?vid=7b09dfe8-4549-4e15-baf3-df132e32d464","ios":"levelo://app?vid=7b09dfe8-4549-4e15-baf3-df132e32d464"},"vehicle_type_id":"4","last_reported":1744971051,"current_range_meters":6400,"station_id":"ce4bhn12rcd13ifvqgpg","pricing_plan_id":"cebpf4jnsgd1na2vs0mg"},{"bike_id":"e76672c6-c6b2-46e2-9da9-d51fcefc6261","system_id":"levelo_inurba_marseille","lat":43.21747,"lon":5.346,"is_reserved":false,"is_disabled":false,"rental_uris":{"android":"levelo://app?vid=e76672c6-c6b2-46e2-9da9-d51fcefc6261","ios":"levelo://app?vid=e76672c6-c6b2-46e2-9da9-d51fcefc6261"},"vehicle_type_id":"4","last_reported":1744971051,"current_range_meters":6400,"station_id":"st_cvj6r9ubvosntc0bgbag","pricing_plan_id":"cebpf4jnsgd1na2vs0mg"},{"bike_id":"6143ffec-2d02-4b43-a56c-2f23fb5f5739","system_id":"levelo_inurba_marseille","lat":43.2971,"lon":5.37708,"is_reserved":false,"is_disabled":false,"rental_uris":{"android":"levelo://app?vid=6143ffec-2d02-4b43-a56c-2f23fb5f5739","ios":"levelo://app?vid=6143ffec-2d02-4b43-a56c-2f23fb5f5739"},"vehicle_type_id":"4","last_reported":1744971051,"current_range_meters":6400,"station_id":"ce4bgkh2rcd13ifvqbl0","pricing_plan_id":"cebpf4jnsgd1na2vs0mg"},{"bike_id":"2a297b53-e6c9-4a44-8832-a1535085da75","system_id":"levelo_inurba_marseille","lat":43.31999,"lon":5.38165,"is_reserved":false,"is_disabled":true,"rental_uris":{"android":"levelo://app?vid=2a297b53-e6c9-4a44-8832-a1535085da75","ios":"levelo://app?vid=2a297b53-e6c9-4a44-8832-a1535085da75"},"vehicle_type_id":"4","last_reported":1744971051,"current_range_meters":6800,"station_id":"ce4bhr12rcd13ifvqhpg","pricing_plan_id":"cebpf4jnsgd1na2vs0mg"},{"bike_id":"efe2c559-3f1f-4eae-8f0d-9b098103009d","system_id":"levelo_inurba_marseille","lat":43.30914,"lon":5.39063,"is_reserved":false,"is_disabled":true,"rental_uris":{"android":"levelo://app?vid=efe2c559-3f1f-4eae-8f0d-9b098103009d","ios":"levelo://app?vid=efe2c559-3f1f-4eae-8f0d-9b098103009d"},"vehicle_type_id":"4","last_reported":1744971051,"current_range_meters":6800,"station_id":"ce4bgup2rcd13ifvqco0","pricing_plan_id":"cebpf4jnsgd1na2vs0mg"},{"bike_id":"9d32b83e-0cbd-433f-9951-11b1b56c804c","system_id":"levelo_inurba_marseille","lat":43.24176,"lon":5.3973,"is_reserved":false,"is_disabled":false,"rental_uris":{"android":"levelo://app?vid=9d32b83e-0cbd-433f-9951-11b1b56c804c","ios":"levelo://app?vid=9d32b83e-0cbd-433f-9951-11b1b56c804c"},"vehicle_type_id":"4","last_reported":1744971051,"current_range_meters":6800,"station_id":"ce4bhn12rcd13ifvqgpg","pricing_plan_id":"cebpf4jnsgd1na2vs0mg"},{"bike_id":"683727aa-af5c-4a30-b620-923da0da034b","system_id":"levelo_inurba_marseille","lat":43.26933,"lon":5.40365,"is_reserved":false,"is_disabled":false,"rental_uris":{"android":"levelo://app?vid=683727aa-af5c-4a30-b620-923da0da034b","ios":"levelo://app?vid=683727aa-af5c-4a30-b620-923da0da034b"},"vehicle_type_id":"4","last_reported":1744971051,"current_range_meters":6800,"station_id":"cjm6bp8fraef2m0cb0m0","pricing_plan_id":"cebpf4jnsgd1na2vs0mg"},{"bike_id":"4887e160-95fd-47de-bb0c-1add7bc150f8","system_id":"levelo_inurba_marseille","lat":43.292653,"lon":5.401483,"is_reserved":false,"is_disabled":false,"rental_uris":{"android":"levelo://app?vid=4887e160-95fd-47de-bb0c-1add7bc150f8","ios":"levelo://app?vid=4887e160-95fd-47de-bb0c-1add7bc150f8"},"vehicle_type_id":"4","last_reported":1744971051,"current_range_meters":7200,"station_id":"ce4bh312rcd13ifvqdk0","pricing_plan_id":"cebpf4jnsgd1na2vs0mg"},{"bike_id":"aa218f95-160e-4f32-8136-18fcfa03334d","system_id":"levelo_inurba_marseille","lat":43.26566,"lon":5.39019,"is_reserved":false,"is_disabled":false,"rental_uris":{"android":"levelo://app?vid=aa218f95-160e-4f32-8136-18fcfa03334d","ios":"levelo://app?vid=aa218f95-160e-4f32-8136-18fcfa03334d"},"vehicle_type_id":"4","last_reported":1744971051,"current_range_meters":7200,"station_id":"ce4bhe12rcd13ifvqf30","pricing_plan_id":"cebpf4jnsgd1na2vs0mg"},{"bike_id":"1b1cf1bb-3df0-467c-80d8-18088e402fdc","system_id":"levelo_inurba_marseille","lat":43.28277,"lon":5.35057,"is_reserved":false,"is_disabled":false,"rental_uris":{"android":"levelo://app?vid=1b1cf1bb-3df0-467c-80d8-18088e402fdc","ios":"levelo://app?vid=1b1cf1bb-3df0-467c-80d8-18088e402fdc"},"vehicle_type_id":"4","last_reported":1744971051,"current_range_meters":7200,"station_id":"ce4bhbp2rcd13ifvqerg","pricing_plan_id":"cebpf4jnsgd1na2vs0mg"},{"bike_id":"937f6ffc-64e7-4a6b-9ed4-a0df5c33130a","system_id":"levelo_inurba_marseille","lat":43.26568,"lon":5.39009,"is_reserved":false,"is_disabled":false,"rental_uris":{"android":"levelo://app?vid=937f6ffc-64e7-4a6b-9ed4-a0df5c33130a","ios":"levelo://app?vid=937f6ffc-64e7-4a6b-9ed4-a0df5c33130a"},"vehicle_type_id":"4","last_reported":1744971051,"current_range_meters":7200,"station_id":"ce4bhe12rcd13ifvqf30","pricing_plan_id":"cebpf4jnsgd1na2vs0mg"},{"bike_id":"318178ab-18c4-4763-a7ec-fd9e64268800","system_id":"levelo_inurba_marseille","lat":43.27994,"lon":5.41666,"is_reserved":false,"is_disabled":false,"rental_uris":{"android":"levelo://app?vid=318178ab-18c4-4763-a7ec-fd9e64268800","ios":"levelo://app?vid=318178ab-18c4-4763-a7ec-fd9e64268800"},"vehicle_type_id":"4","last_reported":1744971051,"current_range_meters":7200,"station_id":"ce4bho12rcd13ifvqh1g","pricing_plan_id":"cebpf4jnsgd1na2vs0mg"},{"bike_id":"891b2e27-b00a-432a-bd45-6f390f245d49","system_id":"levelo_inurba_marseille","lat":43.26953,"lon":5.38639,"is_reserved":false,"is_disabled":false,"rental_uris":{"android":"levelo://app?vid=891b2e27-b00a-432a-bd45-6f390f245d49","ios":"levelo://app?vid=891b2e27-b00a-432a-bd45-6f390f245d49"},"vehicle_type_id":"4","last_reported":1744971051,"current_range_meters":8000,"station_id":"ce4bhh92rcd13ifvqfh0","pricing_plan_id":"cebpf4jnsgd1na2vs0mg"},{"bike_id":"35034e15-5b06-4fd5-a7e6-cfa47c1f46a4","system_id":"levelo_inurba_marseille","lat":43.24801,"lon":5.37459,"is_reserved":false,"is_disabled":false,"rental_uris":{"android":"levelo://app?vid=35034e15-5b06-4fd5-a7e6-cfa47c1f46a4","ios":"levelo://app?vid=35034e15-5b06-4fd5-a7e6-cfa47c1f46a4"},"vehicle_type_id":"4","last_reported":1744971051,"current_range_meters":8000,"station_id":"ce4bhgh2rcd13ifvqfb0","pricing_plan_id":"cebpf4jnsgd1na2vs0mg"},{"bike_id":"1724b1f1-dc48-4e94-8bc5-3e76e966f7d4","system_id":"levelo_inurba_marseille","lat":43.29519,"lon":5.37506,"is_reserved":false,"is_disabled":false,"rental_uris":{"android":"levelo://app?vid=1724b1f1-dc48-4e94-8bc5-3e76e966f7d4","ios":"levelo://app?vid=1724b1f1-dc48-4e94-8bc5-3e76e966f7d4"},"vehicle_type_id":"4","last_reported":1744971051,"current_range_meters":7200,"station_id":"ce4bgkp2rcd13ifvqbmg","pricing_plan_id":"cebpf4jnsgd1na2vs0mg"},{"bike_id":"9dac2e69-a062-49d6-92a9-7e004e1a897d","system_id":"levelo_inurba_marseille","lat":43.24182,"lon":5.39725,"is_reserved":false,"is_disabled":false,"rental_uris":{"android":"levelo://app?vid=9dac2e69-a062-49d6-92a9-7e004e1a897d","ios":"levelo://app?vid=9dac2e69-a062-49d6-92a9-7e004e1a897d"},"vehicle_type_id":"4","last_reported":1744971051,"current_range_meters":8400,"station_id":"ce4bhn12rcd13ifvqgpg","pricing_plan_id":"cebpf4jnsgd1na2vs0mg"},{"bike_id":"140da54e-159a-44b8-b6ed-2b7143b9bcad","system_id":"levelo_inurba_marseille","lat":43.28432,"lon":5.34987,"is_reserved":false,"is_disabled":false,"rental_uris":{"android":"levelo://app?vid=140da54e-159a-44b8-b6ed-2b7143b9bcad","ios":"levelo://app?vid=140da54e-159a-44b8-b6ed-2b7143b9bcad"},"vehicle_type_id":"4","last_reported":1744971051,"current_range_meters":8400,"station_id":"ce4bhbh2rcd13ifvqepg","pricing_plan_id":"cebpf4jnsgd1na2vs0mg"},{"bike_id":"e3061286-add2-4bc6-a803-66a4d7d63e42","system_id":"levelo_inurba_marseille","lat":43.28609,"lon":5.35106,"is_reserved":false,"is_disabled":false,"rental_uris":{"android":"levelo://app?vid=e3061286-add2-4bc6-a803-66a4d7d63e42","ios":"levelo://app?vid=e3061286-add2-4bc6-a803-66a4d7d63e42"},"vehicle_type_id":"4","last_reported":1744971051,"current_range_meters":8400,"station_id":"ce4bhch2rcd13ifvqeug","pricing_plan_id":"cebpf4jnsgd1na2vs0mg"},{"bike_id":"6070c5cd-d309-40c2-bd9f-ee9619ace9d2","system_id":"levelo_inurba_marseille","lat":43.28849,"lon":5.35852,"is_reserved":false,"is_disabled":false,"rental_uris":{"android":"levelo://app?vid=6070c5cd-d309-40c2-bd9f-ee9619ace9d2","ios":"levelo://app?vid=6070c5cd-d309-40c2-bd9f-ee9619ace9d2"},"vehicle_type_id":"4","last_reported":1744971051,"current_range_meters":8400,"station_id":"ce4bhb12rcd13ifvqem0","pricing_plan_id":"cebpf4jnsgd1na2vs0mg"},{"bike_id":"15682121-171e-4172-9f23-615a94b8b7fc","system_id":"levelo_inurba_marseille","lat":43.26551,"lon":5.37286,"is_reserved":false,"is_disabled":false,"rental_uris":{"android":"levelo://app?vid=15682121-171e-4172-9f23-615a94b8b7fc","ios":"levelo://app?vid=15682121-171e-4172-9f23-615a94b8b7fc"},"vehicle_type_id":"4","last_reported":1744971051,"current_range_meters":8800,"station_id":"ce4bhg12rcd13ifvqf70","pricing_plan_id":"cebpf4jnsgd1na2vs0mg"},{"bike_id":"083432d3-cf08-4185-a762-6c7b460be089","system_id":"levelo_inurba_marseille","lat":43.23152,"lon":5.43719,"is_reserved":false,"is_disabled":false,"rental_uris":{"android":"levelo://app?vid=083432d3-cf08-4185-a762-6c7b460be089","ios":"levelo://app?vid=083432d3-cf08-4185-a762-6c7b460be089"},"vehicle_type_id":"4","last_reported":1744971051,"current_range_meters":8800,"station_id":"ce4bhmp2rcd13ifvqgog","pricing_plan_id":"cebpf4jnsgd1na2vs0mg"},{"bike_id":"44889067-86b3-47da-bac6-5ded598a78cf","system_id":"levelo_inurba_marseille","lat":43.23157,"lon":5.43702,"is_reserved":false,"is_disabled":false,"rental_uris":{"android":"levelo://app?vid=44889067-86b3-47da-bac6-5ded598a78cf","ios":"levelo://app?vid=44889067-86b3-47da-bac6-5ded598a78cf"},"vehicle_type_id":"4","last_reported":1744971051,"current_range_meters":8400,"station_id":"ce4bhmp2rcd13ifvqgog","pricing_plan_id":"cebpf4jnsgd1na2vs0mg"},{"bike_id":"41fb0398-f2fe-4abb-ae37-a38f47615ea9","system_id":"levelo_inurba_marseille","lat":43.32358,"lon":5.36753,"is_reserved":false,"is_disabled":true,"rental_uris":{"android":"levelo://app?vid=41fb0398-f2fe-4abb-ae37-a38f47615ea9","ios":"levelo://app?vid=41fb0398-f2fe-4abb-ae37-a38f47615ea9"},"vehicle_type_id":"4","last_reported":1744971051,"current_range_meters":9200,"station_id":"ce4bhsh2rcd13ifvqi2g","pricing_plan_id":"cebpf4jnsgd1na2vs0mg"},{"bike_id":"c5ad34a5-de23-413d-9e8b-ec61ed7009c1","system_id":"levelo_inurba_marseille","lat":43.28602,"lon":5.35123,"is_reserved":false,"is_disabled":false,"rental_uris":{"android":"levelo://app?vid=c5ad34a5-de23-413d-9e8b-ec61ed7009c1","ios":"levelo://app?vid=c5ad34a5-de23-413d-9e8b-ec61ed7009c1"},"vehicle_type_id":"4","last_reported":1744971051,"current_range_meters":9200,"station_id":"ce4bhch2rcd13ifvqeug","pricing_plan_id":"cebpf4jnsgd1na2vs0mg"},{"bike_id":"f752abb3-d000-41c2-8e9c-0afc1872ae67","system_id":"levelo_inurba_marseille","lat":43.25573,"lon":5.38228,"is_reserved":false,"is_disabled":false,"rental_uris":{"android":"levelo://app?vid=f752abb3-d000-41c2-8e9c-0afc1872ae67","ios":"levelo://app?vid=f752abb3-d000-41c2-8e9c-0afc1872ae67"},"vehicle_type_id":"4","last_reported":1744971051,"current_range_meters":9200,"station_id":"","pricing_plan_id":"cebpf4jnsgd1na2vs0mg"},{"bike_id":"b5f21405-31b6-4146-bc04-e82845a77fd4","system_id":"levelo_inurba_marseille","lat":43.338,"lon":5.37432,"is_reserved":false,"is_disabled":false,"rental_uris":{"android":"levelo://app?vid=b5f21405-31b6-4146-bc04-e82845a77fd4","ios":"levelo://app?vid=b5f21405-31b6-4146-bc04-e82845a77fd4"},"vehicle_type_id":"4","last_reported":1744971051,"current_range_meters":9600,"station_id":"","pricing_plan_id":"cebpf4jnsgd1na2vs0mg"},{"bike_id":"4a17a27b-4979-4133-9ae1-996785f8fee4","system_id":"levelo_inurba_marseille","lat":43.23073,"lon":5.35497,"is_reserved":false,"is_disabled":false,"rental_uris":{"android":"levelo://app?vid=4a17a27b-4979-4133-9ae1-996785f8fee4","ios":"levelo://app?vid=4a17a27b-4979-4133-9ae1-996785f8fee4"},"vehicle_type_id":"4","last_reported":1744971051,"current_range_meters":9600,"station_id":"cpo3342slgdg3j2ifvpg","pricing_plan_id":"cebpf4jnsgd1na2vs0mg"},{"bike_id":"2f52d163-dd56-4334-be9f-8d6905835b03","system_id":"levelo_inurba_marseille","lat":43.31372,"lon":5.36706,"is_reserved":false,"is_disabled":false,"rental_uris":{"android":"levelo://app?vid=2f52d163-dd56-4334-be9f-8d6905835b03","ios":"levelo://app?vid=2f52d163-dd56-4334-be9f-8d6905835b03"},"vehicle_type_id":"4","last_reported":1744971051,"current_range_meters":9600,"station_id":"ce4bgr92rcd13ifvqc6g","pricing_plan_id":"cebpf4jnsgd1na2vs0mg"},{"bike_id":"ec8c9ac7-1e95-4171-97f3-226ce1e3c951","system_id":"levelo_inurba_marseille","lat":43.32105,"lon":5.36782,"is_reserved":false,"is_disabled":false,"rental_uris":{"android":"levelo://app?vid=ec8c9ac7-1e95-4171-97f3-226ce1e3c951","ios":"levelo://app?vid=ec8c9ac7-1e95-4171-97f3-226ce1e3c951"},"vehicle_type_id":"4","last_reported":1744971051,"current_range_meters":10000,"station_id":"ce4bhrh2rcd13ifvqhug","pricing_plan_id":"cebpf4jnsgd1na2vs0mg"},{"bike_id":"849f403e-ec44-44d8-beab-c3b0509871af","system_id":"levelo_inurba_marseille","lat":43.31231,"lon":5.36847,"is_reserved":false,"is_disabled":true,"rental_uris":{"android":"levelo://app?vid=849f403e-ec44-44d8-beab-c3b0509871af","ios":"levelo://app?vid=849f403e-ec44-44d8-beab-c3b0509871af"},"vehicle_type_id":"4","last_reported":1744971051,"current_range_meters":10000,"station_id":"ce4bgl92rcd13ifvqbq0","pricing_plan_id":"cebpf4jnsgd1na2vs0mg"},{"bike_id":"70b6b133-6705-4dfd-b4a7-6e88067904e8","system_id":"levelo_inurba_marseille","lat":43.24164,"lon":5.36403,"is_reserved":false,"is_disabled":false,"rental_uris":{"android":"levelo://app?vid=70b6b133-6705-4dfd-b4a7-6e88067904e8","ios":"levelo://app?vid=70b6b133-6705-4dfd-b4a7-6e88067904e8"},"vehicle_type_id":"4","last_reported":1744971051,"current_range_meters":10000,"station_id":"cpo36qri1sfpv3e86is0","pricing_plan_id":"cebpf4jnsgd1na2vs0mg"},{"bike_id":"4dbdb663-6ae9-4416-abee-6e1482cfda69","system_id":"levelo_inurba_marseille","lat":43.29852,"lon":5.36291,"is_reserved":false,"is_disabled":false,"rental_uris":{"android":"levelo://app?vid=4dbdb663-6ae9-4416-abee-6e1482cfda69","ios":"levelo://app?vid=4dbdb663-6ae9-4416-abee-6e1482cfda69"},"vehicle_type_id":"4","last_reported":1744971051,"current_range_meters":10000,"station_id":"ce4bgpp2rcd13ifvqc3g","pricing_plan_id":"cebpf4jnsgd1na2vs0mg"},{"bike_id":"d7e9d8be-e49c-45a8-80f8-1f65bfb83645","system_id":"levelo_inurba_marseille","lat":43.23554,"lon":5.40328,"is_reserved":false,"is_disabled":false,"rental_uris":{"android":"levelo://app?vid=d7e9d8be-e49c-45a8-80f8-1f65bfb83645","ios":"levelo://app?vid=d7e9d8be-e49c-45a8-80f8-1f65bfb83645"},"vehicle_type_id":"4","last_reported":1744971051,"current_range_meters":10000,"station_id":"","pricing_plan_id":"cebpf4jnsgd1na2vs0mg"},{"bike_id":"3d6ad01f-e233-4ed4-bd4b-9dd88ce78cb3","system_id":"levelo_inurba_marseille","lat":43.31351,"lon":5.36717,"is_reserved":false,"is_disabled":false,"rental_uris":{"android":"levelo://app?vid=3d6ad01f-e233-4ed4-bd4b-9dd88ce78cb3","ios":"levelo://app?vid=3d6ad01f-e233-4ed4-bd4b-9dd88ce78cb3"},"vehicle_type_id":"4","last_reported":1744971051,"current_range_meters":10800,"station_id":"ce4bgr92rcd13ifvqc6g","pricing_plan_id":"cebpf4jnsgd1na2vs0mg"},{"bike_id":"5fddd535-ab4d-402f-9080-0ad0b96c0735","system_id":"levelo_inurba_marseille","lat":43.30938,"lon":5.36748,"is_reserved":false,"is_disabled":false,"rental_uris":{"android":"levelo://app?vid=5fddd535-ab4d-402f-9080-0ad0b96c0735","ios":"levelo://app?vid=5fddd535-ab4d-402f-9080-0ad0b96c0735"},"vehicle_type_id":"4","last_reported":1744971051,"current_range_meters":10800,"station_id":"","pricing_plan_id":"cebpf4jnsgd1na2vs0mg"},{"bike_id":"5e08de35-3e0c-4d5f-b69b-a662212c4dac","system_id":"levelo_inurba_marseille","lat":43.24187,"lon":5.39726,"is_reserved":false,"is_disabled":false,"rental_uris":{"android":"levelo://app?vid=5e08de35-3e0c-4d5f-b69b-a662212c4dac","ios":"levelo://app?vid=5e08de35-3e0c-4d5f-b69b-a662212c4dac"},"vehicle_type_id":"4","last_reported":1744971051,"current_range_meters":10800,"station_id":"ce4bhn12rcd13ifvqgpg","pricing_plan_id":"cebpf4jnsgd1na2vs0mg"},{"bike_id":"1e954ebd-6f87-4cd4-8c0c-e1f08423f7c4","system_id":"levelo_inurba_marseille","lat":43.29916,"lon":5.36543,"is_reserved":false,"is_disabled":false,"rental_uris":{"android":"levelo://app?vid=1e954ebd-6f87-4cd4-8c0c-e1f08423f7c4","ios":"levelo://app?vid=1e954ebd-6f87-4cd4-8c0c-e1f08423f7c4"},"vehicle_type_id":"4","last_reported":1744971051,"current_range_meters":11200,"station_id":"ce4bgm92rcd13ifvqbr0","pricing_plan_id":"cebpf4jnsgd1na2vs0mg"},{"bike_id":"1210dc72-37b8-49f7-b249-6faa54daba28","system_id":"levelo_inurba_marseille","lat":43.32354,"lon":5.36771,"is_reserved":false,"is_disabled":false,"rental_uris":{"android":"levelo://app?vid=1210dc72-37b8-49f7-b249-6faa54daba28","ios":"levelo://app?vid=1210dc72-37b8-49f7-b249-6faa54daba28"},"vehicle_type_id":"4","last_reported":1744971051,"current_range_meters":11200,"station_id":"ce4bhsh2rcd13ifvqi2g","pricing_plan_id":"cebpf4jnsgd1na2vs0mg"},{"bike_id":"80e897ed-764d-4553-8a10-27cd3972481d","system_id":"levelo_inurba_marseille","lat":43.30955,"lon":5.39038,"is_reserved":false,"is_disabled":true,"rental_uris":{"android":"levelo://app?vid=80e897ed-764d-4553-8a10-27cd3972481d","ios":"levelo://app?vid=80e897ed-764d-4553-8a10-27cd3972481d"},"vehicle_type_id":"4","last_reported":1744971051,"current_range_meters":11600,"station_id":"ce4bgup2rcd13ifvqco0","pricing_plan_id":"cebpf4jnsgd1na2vs0mg"},{"bike_id":"f720e68a-58c8-440f-bcbc-822e9ccaaecb","system_id":"levelo_inurba_marseille","lat":43.29908,"lon":5.36546,"is_reserved":false,"is_disabled":false,"rental_uris":{"android":"levelo://app?vid=f720e68a-58c8-440f-bcbc-822e9ccaaecb","ios":"levelo://app?vid=f720e68a-58c8-440f-bcbc-822e9ccaaecb"},"vehicle_type_id":"4","last_reported":1744971051,"current_range_meters":11600,"station_id":"ce4bgm92rcd13ifvqbr0","pricing_plan_id":"cebpf4jnsgd1na2vs0mg"},{"bike_id":"d0e2cda6-d2c6-4b7b-80aa-bb30d69233ed","system_id":"levelo_inurba_marseille","lat":43.23153,"lon":5.4371,"is_reserved":false,"is_disabled":false,"rental_uris":{"android":"levelo://app?vid=d0e2cda6-d2c6-4b7b-80aa-bb30d69233ed","ios":"levelo://app?vid=d0e2cda6-d2c6-4b7b-80aa-bb30d69233ed"},"vehicle_type_id":"4","last_reported":1744971051,"current_range_meters":11600,"station_id":"ce4bhmp2rcd13ifvqgog","pricing_plan_id":"cebpf4jnsgd1na2vs0mg"},{"bike_id":"8b159ce4-1a4b-4455-81c3-92721d694d41","system_id":"levelo_inurba_marseille","lat":43.29576,"lon":5.37519,"is_reserved":false,"is_disabled":false,"rental_uris":{"android":"levelo://app?vid=8b159ce4-1a4b-4455-81c3-92721d694d41","ios":"levelo://app?vid=8b159ce4-1a4b-4455-81c3-92721d694d41"},"vehicle_type_id":"4","last_reported":1744971051,"current_range_meters":11200,"station_id":"ce4bgh92rcd13ifvqb50","pricing_plan_id":"cebpf4jnsgd1na2vs0mg"},{"bike_id":"ba9786bb-1cac-4b75-83c5-e113aaf2f7c3","system_id":"levelo_inurba_marseille","lat":43.31329,"lon":5.36698,"is_reserved":false,"is_disabled":false,"rental_uris":{"android":"levelo://app?vid=ba9786bb-1cac-4b75-83c5-e113aaf2f7c3","ios":"levelo://app?vid=ba9786bb-1cac-4b75-83c5-e113aaf2f7c3"},"vehicle_type_id":"4","last_reported":1744971051,"current_range_meters":12000,"station_id":"ce4bgr92rcd13ifvqc6g","pricing_plan_id":"cebpf4jnsgd1na2vs0mg"},{"bike_id":"7ed91d22-3d5b-4254-83bf-64eb2a7d5481","system_id":"levelo_inurba_marseille","lat":43.22499,"lon":5.34781,"is_reserved":false,"is_disabled":false,"rental_uris":{"android":"levelo://app?vid=7ed91d22-3d5b-4254-83bf-64eb2a7d5481","ios":"levelo://app?vid=7ed91d22-3d5b-4254-83bf-64eb2a7d5481"},"vehicle_type_id":"4","last_reported":1744971051,"current_range_meters":12000,"station_id":"","pricing_plan_id":"cebpf4jnsgd1na2vs0mg"},{"bike_id":"265e5aa0-ad97-47b4-99df-fe92d7db56b3","system_id":"levelo_inurba_marseille","lat":43.29029,"lon":5.38643,"is_reserved":false,"is_disabled":false,"rental_uris":{"android":"levelo://app?vid=265e5aa0-ad97-47b4-99df-fe92d7db56b3","ios":"levelo://app?vid=265e5aa0-ad97-47b4-99df-fe92d7db56b3"},"vehicle_type_id":"4","last_reported":1744971051,"current_range_meters":12400,"station_id":"ce4bh4p2rcd13ifvqe0g","pricing_plan_id":"cebpf4jnsgd1na2vs0mg"},{"bike_id":"9ccc1250-0ff6-4acc-bd2f-67431ef76582","system_id":"levelo_inurba_marseille","lat":43.28416,"lon":5.34992,"is_reserved":false,"is_disabled":false,"rental_uris":{"android":"levelo://app?vid=9ccc1250-0ff6-4acc-bd2f-67431ef76582","ios":"levelo://app?vid=9ccc1250-0ff6-4acc-bd2f-67431ef76582"},"vehicle_type_id":"4","last_reported":1744971051,"current_range_meters":12400,"station_id":"ce4bhbh2rcd13ifvqepg","pricing_plan_id":"cebpf4jnsgd1na2vs0mg"},{"bike_id":"1eaca8f5-0017-418a-9bfc-52185bf67513","system_id":"levelo_inurba_marseille","lat":43.33712,"lon":5.39195,"is_reserved":false,"is_disabled":false,"rental_uris":{"android":"levelo://app?vid=1eaca8f5-0017-418a-9bfc-52185bf67513","ios":"levelo://app?vid=1eaca8f5-0017-418a-9bfc-52185bf67513"},"vehicle_type_id":"4","last_reported":1744971051,"current_range_meters":12800,"station_id":"ce4bhr92rcd13ifvqhsg","pricing_plan_id":"cebpf4jnsgd1na2vs0mg"},{"bike_id":"7ec20ca7-d9ce-46a9-adc5-54f7229307b9","system_id":"levelo_inurba_marseille","lat":43.2927,"lon":5.3684,"is_reserved":false,"is_disabled":false,"rental_uris":{"android":"levelo://app?vid=7ec20ca7-d9ce-46a9-adc5-54f7229307b9","ios":"levelo://app?vid=7ec20ca7-d9ce-46a9-adc5-54f7229307b9"},"vehicle_type_id":"4","last_reported":1744971051,"current_range_meters":12800,"station_id":"ce4bhbp2rcd13ifvqesg","pricing_plan_id":"cebpf4jnsgd1na2vs0mg"},{"bike_id":"43a3694f-7f84-470f-9d1c-52cd8adf9510","system_id":"levelo_inurba_marseille","lat":43.29277,"lon":5.36849,"is_reserved":false,"is_disabled":false,"rental_uris":{"android":"levelo://app?vid=43a3694f-7f84-470f-9d1c-52cd8adf9510","ios":"levelo://app?vid=43a3694f-7f84-470f-9d1c-52cd8adf9510"},"vehicle_type_id":"4","last_reported":1744971051,"current_range_meters":12800,"station_id":"ce4bhbp2rcd13ifvqesg","pricing_plan_id":"cebpf4jnsgd1na2vs0mg"},{"bike_id":"e958ceba-4434-4f79-b484-187ec91793f9","system_id":"levelo_inurba_marseille","lat":43.292311,"lon":5.36092,"is_reserved":false,"is_disabled":false,"rental_uris":{"android":"levelo://app?vid=e958ceba-4434-4f79-b484-187ec91793f9","ios":"levelo://app?vid=e958ceba-4434-4f79-b484-187ec91793f9"},"vehicle_type_id":"4","last_reported":1744971051,"current_range_meters":12400,"station_id":"ce4bhbh2rcd13ifvqeqg","pricing_plan_id":"cebpf4jnsgd1na2vs0mg"},{"bike_id":"4becf1cb-3eb7-496f-875e-073c9c5f6cd1","system_id":"levelo_inurba_marseille","lat":43.29898,"lon":5.43671,"is_reserved":false,"is_disabled":false,"rental_uris":{"android":"levelo://app?vid=4becf1cb-3eb7-496f-875e-073c9c5f6cd1","ios":"levelo://app?vid=4becf1cb-3eb7-496f-875e-073c9c5f6cd1"},"vehicle_type_id":"4","last_reported":1744971051,"current_range_meters":12800,"station_id":"ce4bhpp2rcd13ifvqhfg","pricing_plan_id":"cebpf4jnsgd1na2vs0mg"},{"bike_id":"fdb736b6-d23f-4fa0-8b91-7424bf67be26","system_id":"levelo_inurba_marseille","lat":43.341338,"lon":5.409258,"is_reserved":false,"is_disabled":false,"rental_uris":{"android":"levelo://app?vid=fdb736b6-d23f-4fa0-8b91-7424bf67be26","ios":"levelo://app?vid=fdb736b6-d23f-4fa0-8b91-7424bf67be26"},"vehicle_type_id":"4","last_reported":1744971051,"current_range_meters":12800,"station_id":"ce4bhqh2rcd13ifvqhlg","pricing_plan_id":"cebpf4jnsgd1na2vs0mg"},{"bike_id":"397aa98a-9e95-44d5-b872-9acc43faf340","system_id":"levelo_inurba_marseille","lat":43.28617,"lon":5.35103,"is_reserved":false,"is_disabled":false,"rental_uris":{"android":"levelo://app?vid=397aa98a-9e95-44d5-b872-9acc43faf340","ios":"levelo://app?vid=397aa98a-9e95-44d5-b872-9acc43faf340"},"vehicle_type_id":"4","last_reported":1744971051,"current_range_meters":12800,"station_id":"ce4bhch2rcd13ifvqeug","pricing_plan_id":"cebpf4jnsgd1na2vs0mg"},{"bike_id":"934a8fc0-98f8-4aaf-a145-d485dee937c7","system_id":"levelo_inurba_marseille","lat":43.3236,"lon":5.36752,"is_reserved":false,"is_disabled":false,"rental_uris":{"android":"levelo://app?vid=934a8fc0-98f8-4aaf-a145-d485dee937c7","ios":"levelo://app?vid=934a8fc0-98f8-4aaf-a145-d485dee937c7"},"vehicle_type_id":"4","last_reported":1744971051,"current_range_meters":13600,"station_id":"ce4bhsh2rcd13ifvqi2g","pricing_plan_id":"cebpf4jnsgd1na2vs0mg"},{"bike_id":"8c9cb089-ecfb-4b82-a678-09b0f352f9b9","system_id":"levelo_inurba_marseille","lat":43.23166,"lon":5.43704,"is_reserved":false,"is_disabled":false,"rental_uris":{"android":"levelo://app?vid=8c9cb089-ecfb-4b82-a678-09b0f352f9b9","ios":"levelo://app?vid=8c9cb089-ecfb-4b82-a678-09b0f352f9b9"},"vehicle_type_id":"4","last_reported":1744971051,"current_range_meters":13600,"station_id":"ce4bhmp2rcd13ifvqgog","pricing_plan_id":"cebpf4jnsgd1na2vs0mg"},{"bike_id":"a0ddb0a5-f7f0-4281-aa27-9e82747cc573","system_id":"levelo_inurba_marseille","lat":43.33754,"lon":5.37491,"is_reserved":false,"is_disabled":false,"rental_uris":{"android":"levelo://app?vid=a0ddb0a5-f7f0-4281-aa27-9e82747cc573","ios":"levelo://app?vid=a0ddb0a5-f7f0-4281-aa27-9e82747cc573"},"vehicle_type_id":"4","last_reported":1744971051,"current_range_meters":13600,"station_id":"","pricing_plan_id":"cebpf4jnsgd1na2vs0mg"},{"bike_id":"9fe6b68c-b08e-4d81-8c7d-760938ace4d6","system_id":"levelo_inurba_marseille","lat":43.29191,"lon":5.36055,"is_reserved":false,"is_disabled":false,"rental_uris":{"android":"levelo://app?vid=9fe6b68c-b08e-4d81-8c7d-760938ace4d6","ios":"levelo://app?vid=9fe6b68c-b08e-4d81-8c7d-760938ace4d6"},"vehicle_type_id":"4","last_reported":1744971051,"current_range_meters":14000,"station_id":"ce4bhbh2rcd13ifvqeqg","pricing_plan_id":"cebpf4jnsgd1na2vs0mg"},{"bike_id":"bbb1c662-cc65-4c72-8489-de78d2f0f12f","system_id":"levelo_inurba_marseille","lat":43.23058,"lon":5.35492,"is_reserved":false,"is_disabled":false,"rental_uris":{"android":"levelo://app?vid=bbb1c662-cc65-4c72-8489-de78d2f0f12f","ios":"levelo://app?vid=bbb1c662-cc65-4c72-8489-de78d2f0f12f"},"vehicle_type_id":"4","last_reported":1744971051,"current_range_meters":14000,"station_id":"cpo3342slgdg3j2ifvpg","pricing_plan_id":"cebpf4jnsgd1na2vs0mg"},{"bike_id":"bd492354-2d79-4427-82ee-84e4a12dea30","system_id":"levelo_inurba_marseille","lat":43.21203,"lon":5.3509,"is_reserved":false,"is_disabled":false,"rental_uris":{"android":"levelo://app?vid=bd492354-2d79-4427-82ee-84e4a12dea30","ios":"levelo://app?vid=bd492354-2d79-4427-82ee-84e4a12dea30"},"vehicle_type_id":"4","last_reported":1744971051,"current_range_meters":14000,"station_id":"st_cvj6sg6p6f1abm77japg","pricing_plan_id":"cebpf4jnsgd1na2vs0mg"},{"bike_id":"0412a1ca-4def-4ac7-bfaa-effc8cbb5510","system_id":"levelo_inurba_marseille","lat":43.22936,"lon":5.35389,"is_reserved":false,"is_disabled":false,"rental_uris":{"android":"levelo://app?vid=0412a1ca-4def-4ac7-bfaa-effc8cbb5510","ios":"levelo://app?vid=0412a1ca-4def-4ac7-bfaa-effc8cbb5510"},"vehicle_type_id":"4","last_reported":1744971051,"current_range_meters":14000,"station_id":"cpo3532slgdg3j2ikp40","pricing_plan_id":"cebpf4jnsgd1na2vs0mg"},{"bike_id":"b8b2ce6a-fabb-4e44-9820-f849f43325dd","system_id":"levelo_inurba_marseille","lat":43.25862,"lon":5.39904,"is_reserved":false,"is_disabled":false,"rental_uris":{"android":"levelo://app?vid=b8b2ce6a-fabb-4e44-9820-f849f43325dd","ios":"levelo://app?vid=b8b2ce6a-fabb-4e44-9820-f849f43325dd"},"vehicle_type_id":"4","last_reported":1744971051,"current_range_meters":14800,"station_id":"ce4bhl92rcd13ifvqghg","pricing_plan_id":"cebpf4jnsgd1na2vs0mg"},{"bike_id":"a5576019-43e7-4c3f-9b3f-bda5c803876a","system_id":"levelo_inurba_marseille","lat":43.24172,"lon":5.39723,"is_reserved":false,"is_disabled":false,"rental_uris":{"android":"levelo://app?vid=a5576019-43e7-4c3f-9b3f-bda5c803876a","ios":"levelo://app?vid=a5576019-43e7-4c3f-9b3f-bda5c803876a"},"vehicle_type_id":"4","last_reported":1744971051,"current_range_meters":14400,"station_id":"ce4bhn12rcd13ifvqgpg","pricing_plan_id":"cebpf4jnsgd1na2vs0mg"},{"bike_id":"782db3f8-bdab-4544-8575-27ef42251d0b","system_id":"levelo_inurba_marseille","lat":43.24167,"lon":5.36396,"is_reserved":false,"is_disabled":false,"rental_uris":{"android":"levelo://app?vid=782db3f8-bdab-4544-8575-27ef42251d0b","ios":"levelo://app?vid=782db3f8-bdab-4544-8575-27ef42251d0b"},"vehicle_type_id":"4","last_reported":1744971051,"current_range_meters":14400,"station_id":"cpo36qri1sfpv3e86is0","pricing_plan_id":"cebpf4jnsgd1na2vs0mg"},{"bike_id":"1e3196f3-6665-4e4a-b234-6f6f72690d83","system_id":"levelo_inurba_marseille","lat":43.21755,"lon":5.34597,"is_reserved":false,"is_disabled":false,"rental_uris":{"android":"levelo://app?vid=1e3196f3-6665-4e4a-b234-6f6f72690d83","ios":"levelo://app?vid=1e3196f3-6665-4e4a-b234-6f6f72690d83"},"vehicle_type_id":"4","last_reported":1744971051,"current_range_meters":15200,"station_id":"","pricing_plan_id":"cebpf4jnsgd1na2vs0mg"},{"bike_id":"c88a5dd2-901d-49a3-8e12-381647ebeaf3","system_id":"levelo_inurba_marseille","lat":43.282683,"lon":5.350614,"is_reserved":false,"is_disabled":false,"rental_uris":{"android":"levelo://app?vid=c88a5dd2-901d-49a3-8e12-381647ebeaf3","ios":"levelo://app?vid=c88a5dd2-901d-49a3-8e12-381647ebeaf3"},"vehicle_type_id":"4","last_reported":1744971051,"current_range_meters":17600,"station_id":"ce4bht12rcd13ifvqi60","pricing_plan_id":"cebpf4jnsgd1na2vs0mg"},{"bike_id":"e1e3e6bc-b01c-4956-9cee-5d40831d6ec1","system_id":"levelo_inurba_marseille","lat":43.241777,"lon":5.397354,"is_reserved":false,"is_disabled":false,"rental_uris":{"android":"levelo://app?vid=e1e3e6bc-b01c-4956-9cee-5d40831d6ec1","ios":"levelo://app?vid=e1e3e6bc-b01c-4956-9cee-5d40831d6ec1"},"vehicle_type_id":"4","last_reported":1744971051,"current_range_meters":15200,"station_id":"ce4bhjp2rcd13ifvqg90","pricing_plan_id":"cebpf4jnsgd1na2vs0mg"},{"bike_id":"5ea3100f-c34b-4bbd-b4ea-bf9621895fc6","system_id":"levelo_inurba_marseille","lat":43.29549,"lon":5.42287,"is_reserved":false,"is_disabled":false,"rental_uris":{"android":"levelo://app?vid=5ea3100f-c34b-4bbd-b4ea-bf9621895fc6","ios":"levelo://app?vid=5ea3100f-c34b-4bbd-b4ea-bf9621895fc6"},"vehicle_type_id":"4","last_reported":1744971051,"current_range_meters":15200,"station_id":"ce4bhph2rcd13ifvqhdg","pricing_plan_id":"cebpf4jnsgd1na2vs0mg"},{"bike_id":"ce02d5f0-6da3-49fd-98f5-0a7ac8ed6787","system_id":"levelo_inurba_marseille","lat":43.21192,"lon":5.35072,"is_reserved":false,"is_disabled":false,"rental_uris":{"android":"levelo://app?vid=ce02d5f0-6da3-49fd-98f5-0a7ac8ed6787","ios":"levelo://app?vid=ce02d5f0-6da3-49fd-98f5-0a7ac8ed6787"},"vehicle_type_id":"4","last_reported":1744971051,"current_range_meters":15200,"station_id":"st_cvj6sg6p6f1abm77japg","pricing_plan_id":"cebpf4jnsgd1na2vs0mg"},{"bike_id":"c669ab87-c7b0-4b32-982b-e598873901df","system_id":"levelo_inurba_marseille","lat":43.27377,"lon":5.36255,"is_reserved":false,"is_disabled":false,"rental_uris":{"android":"levelo://app?vid=c669ab87-c7b0-4b32-982b-e598873901df","ios":"levelo://app?vid=c669ab87-c7b0-4b32-982b-e598873901df"},"vehicle_type_id":"4","last_reported":1744971051,"current_range_meters":15200,"station_id":"ce4bhbh2rcd13ifvqeo0","pricing_plan_id":"cebpf4jnsgd1na2vs0mg"},{"bike_id":"3d8c248e-bb6e-4b01-81fc-fc98a296095f","system_id":"levelo_inurba_marseille","lat":43.26205,"lon":5.37462,"is_reserved":false,"is_disabled":false,"rental_uris":{"android":"levelo://app?vid=3d8c248e-bb6e-4b01-81fc-fc98a296095f","ios":"levelo://app?vid=3d8c248e-bb6e-4b01-81fc-fc98a296095f"},"vehicle_type_id":"4","last_reported":1744971051,"current_range_meters":15200,"station_id":"ce4bhgp2rcd13ifvqfc0","pricing_plan_id":"cebpf4jnsgd1na2vs0mg"},{"bike_id":"5e7e577a-6813-4369-b373-104fbbf76bf8","system_id":"levelo_inurba_marseille","lat":43.30557,"lon":5.38429,"is_reserved":false,"is_disabled":false,"rental_uris":{"android":"levelo://app?vid=5e7e577a-6813-4369-b373-104fbbf76bf8","ios":"levelo://app?vid=5e7e577a-6813-4369-b373-104fbbf76bf8"},"vehicle_type_id":"4","last_reported":1744971051,"current_range_meters":15200,"station_id":"ce4bgg92rcd13ifvqb30","pricing_plan_id":"cebpf4jnsgd1na2vs0mg"},{"bike_id":"50d4a2c6-4a96-473e-8d34-d513024f852d","system_id":"levelo_inurba_marseille","lat":43.23971,"lon":5.36623,"is_reserved":false,"is_disabled":false,"rental_uris":{"android":"levelo://app?vid=50d4a2c6-4a96-473e-8d34-d513024f852d","ios":"levelo://app?vid=50d4a2c6-4a96-473e-8d34-d513024f852d"},"vehicle_type_id":"4","last_reported":1744971051,"current_range_meters":15200,"station_id":"ce4bhi12rcd13ifvqfp0","pricing_plan_id":"cebpf4jnsgd1na2vs0mg"},{"bike_id":"ef6e9c6f-8f69-4fcf-9727-b556a001e5bc","system_id":"levelo_inurba_marseille","lat":43.29548,"lon":5.42275,"is_reserved":false,"is_disabled":false,"rental_uris":{"android":"levelo://app?vid=ef6e9c6f-8f69-4fcf-9727-b556a001e5bc","ios":"levelo://app?vid=ef6e9c6f-8f69-4fcf-9727-b556a001e5bc"},"vehicle_type_id":"4","last_reported":1744971051,"current_range_meters":15200,"station_id":"ce4bhph2rcd13ifvqhdg","pricing_plan_id":"cebpf4jnsgd1na2vs0mg"},{"bike_id":"33efbe4e-e642-4271-be29-4926b421ca5b","system_id":"levelo_inurba_marseille","lat":43.241697,"lon":5.364024,"is_reserved":false,"is_disabled":false,"rental_uris":{"android":"levelo://app?vid=33efbe4e-e642-4271-be29-4926b421ca5b","ios":"levelo://app?vid=33efbe4e-e642-4271-be29-4926b421ca5b"},"vehicle_type_id":"4","last_reported":1744971051,"current_range_meters":15200,"station_id":"cpo36qri1sfpv3e86is0","pricing_plan_id":"cebpf4jnsgd1na2vs0mg"},{"bike_id":"68342d9f-f0b6-47e7-b690-b27078e67a77","system_id":"levelo_inurba_marseille","lat":43.24171,"lon":5.36387,"is_reserved":false,"is_disabled":false,"rental_uris":{"android":"levelo://app?vid=68342d9f-f0b6-47e7-b690-b27078e67a77","ios":"levelo://app?vid=68342d9f-f0b6-47e7-b690-b27078e67a77"},"vehicle_type_id":"4","last_reported":1744971051,"current_range_meters":16000,"station_id":"cpo36qri1sfpv3e86is0","pricing_plan_id":"cebpf4jnsgd1na2vs0mg"},{"bike_id":"7eb8853e-3665-40f5-8308-1299f0674652","system_id":"levelo_inurba_marseille","lat":43.30379,"lon":5.4249,"is_reserved":false,"is_disabled":false,"rental_uris":{"android":"levelo://app?vid=7eb8853e-3665-40f5-8308-1299f0674652","ios":"levelo://app?vid=7eb8853e-3665-40f5-8308-1299f0674652"},"vehicle_type_id":"4","last_reported":1744971051,"current_range_meters":16000,"station_id":"ce4bhoh2rcd13ifvqh6g","pricing_plan_id":"cebpf4jnsgd1na2vs0mg"},{"bike_id":"f9d3fbe6-73e5-424e-af02-f446d5b07152","system_id":"levelo_inurba_marseille","lat":43.21742,"lon":5.34618,"is_reserved":false,"is_disabled":false,"rental_uris":{"android":"levelo://app?vid=f9d3fbe6-73e5-424e-af02-f446d5b07152","ios":"levelo://app?vid=f9d3fbe6-73e5-424e-af02-f446d5b07152"},"vehicle_type_id":"4","last_reported":1744971051,"current_range_meters":16000,"station_id":"st_cvj6r9ubvosntc0bgbag","pricing_plan_id":"cebpf4jnsgd1na2vs0mg"},{"bike_id":"5e6be620-a3d0-49c3-9ff0-b85332cde817","system_id":"levelo_inurba_marseille","lat":43.23195,"lon":5.35555,"is_reserved":false,"is_disabled":false,"rental_uris":{"android":"levelo://app?vid=5e6be620-a3d0-49c3-9ff0-b85332cde817","ios":"levelo://app?vid=5e6be620-a3d0-49c3-9ff0-b85332cde817"},"vehicle_type_id":"4","last_reported":1744971051,"current_range_meters":16000,"station_id":"ce4bhu92rcd13ifvqi70","pricing_plan_id":"cebpf4jnsgd1na2vs0mg"},{"bike_id":"54c18ae4-fb9e-4f9c-8e98-a792665bc160","system_id":"levelo_inurba_marseille","lat":43.32101,"lon":5.36794,"is_reserved":false,"is_disabled":false,"rental_uris":{"android":"levelo://app?vid=54c18ae4-fb9e-4f9c-8e98-a792665bc160","ios":"levelo://app?vid=54c18ae4-fb9e-4f9c-8e98-a792665bc160"},"vehicle_type_id":"4","last_reported":1744971051,"current_range_meters":16000,"station_id":"ce4bhrh2rcd13ifvqhug","pricing_plan_id":"cebpf4jnsgd1na2vs0mg"},{"bike_id":"f9257457-af89-46ea-a09c-323ad0c42b2f","system_id":"levelo_inurba_marseille","lat":43.3136,"lon":5.3672,"is_reserved":false,"is_disabled":false,"rental_uris":{"android":"levelo://app?vid=f9257457-af89-46ea-a09c-323ad0c42b2f","ios":"levelo://app?vid=f9257457-af89-46ea-a09c-323ad0c42b2f"},"vehicle_type_id":"4","last_reported":1744971051,"current_range_meters":16000,"station_id":"ce4bgr92rcd13ifvqc6g","pricing_plan_id":"cebpf4jnsgd1na2vs0mg"},{"bike_id":"c6525b00-a980-408d-a69e-4561d1c1c9eb","system_id":"levelo_inurba_marseille","lat":43.28164,"lon":5.42655,"is_reserved":false,"is_disabled":false,"rental_uris":{"android":"levelo://app?vid=c6525b00-a980-408d-a69e-4561d1c1c9eb","ios":"levelo://app?vid=c6525b00-a980-408d-a69e-4561d1c1c9eb"},"vehicle_type_id":"4","last_reported":1744971051,"current_range_meters":16000,"station_id":"ce4bhnh2rcd13ifvqgug","pricing_plan_id":"cebpf4jnsgd1na2vs0mg"},{"bike_id":"19481d9b-6a00-4a11-8cb7-677b61ea5d1e","system_id":"levelo_inurba_marseille","lat":43.28144,"lon":5.42646,"is_reserved":false,"is_disabled":false,"rental_uris":{"android":"levelo://app?vid=19481d9b-6a00-4a11-8cb7-677b61ea5d1e","ios":"levelo://app?vid=19481d9b-6a00-4a11-8cb7-677b61ea5d1e"},"vehicle_type_id":"4","last_reported":1744971051,"current_range_meters":16400,"station_id":"ce4bhnh2rcd13ifvqgug","pricing_plan_id":"cebpf4jnsgd1na2vs0mg"},{"bike_id":"d67219f9-c90b-45db-b424-a3511feb8353","system_id":"levelo_inurba_marseille","lat":43.30461,"lon":5.37911,"is_reserved":false,"is_disabled":false,"rental_uris":{"android":"levelo://app?vid=d67219f9-c90b-45db-b424-a3511feb8353","ios":"levelo://app?vid=d67219f9-c90b-45db-b424-a3511feb8353"},"vehicle_type_id":"4","last_reported":1744971051,"current_range_meters":16400,"station_id":"ce4bgup2rcd13ifvqcn0","pricing_plan_id":"cebpf4jnsgd1na2vs0mg"},{"bike_id":"51b95633-670a-4c09-bc14-2b0f1e6f6a22","system_id":"levelo_inurba_marseille","lat":43.28856,"lon":5.35839,"is_reserved":false,"is_disabled":false,"rental_uris":{"android":"levelo://app?vid=51b95633-670a-4c09-bc14-2b0f1e6f6a22","ios":"levelo://app?vid=51b95633-670a-4c09-bc14-2b0f1e6f6a22"},"vehicle_type_id":"4","last_reported":1744971051,"current_range_meters":16400,"station_id":"ce4bhb12rcd13ifvqem0","pricing_plan_id":"cebpf4jnsgd1na2vs0mg"},{"bike_id":"2147c0f4-32eb-45b5-8939-dd6bd82c3fad","system_id":"levelo_inurba_marseille","lat":43.23156,"lon":5.43705,"is_reserved":false,"is_disabled":false,"rental_uris":{"android":"levelo://app?vid=2147c0f4-32eb-45b5-8939-dd6bd82c3fad","ios":"levelo://app?vid=2147c0f4-32eb-45b5-8939-dd6bd82c3fad"},"vehicle_type_id":"4","last_reported":1744971051,"current_range_meters":16400,"station_id":"ce4bhmp2rcd13ifvqgog","pricing_plan_id":"cebpf4jnsgd1na2vs0mg"},{"bike_id":"5fba1097-d266-4f11-ba7e-0f0b630b3da9","system_id":"levelo_inurba_marseille","lat":43.30802,"lon":5.43494,"is_reserved":false,"is_disabled":false,"rental_uris":{"android":"levelo://app?vid=5fba1097-d266-4f11-ba7e-0f0b630b3da9","ios":"levelo://app?vid=5fba1097-d266-4f11-ba7e-0f0b630b3da9"},"vehicle_type_id":"4","last_reported":1744971051,"current_range_meters":16400,"station_id":"ce4bhph2rcd13ifvqheg","pricing_plan_id":"cebpf4jnsgd1na2vs0mg"},{"bike_id":"030978cd-eddc-40be-b582-b7fe69c6a341","system_id":"levelo_inurba_marseille","lat":43.30461,"lon":5.37909,"is_reserved":false,"is_disabled":false,"rental_uris":{"android":"levelo://app?vid=030978cd-eddc-40be-b582-b7fe69c6a341","ios":"levelo://app?vid=030978cd-eddc-40be-b582-b7fe69c6a341"},"vehicle_type_id":"4","last_reported":1744971051,"current_range_meters":16400,"station_id":"ce4bgup2rcd13ifvqcn0","pricing_plan_id":"cebpf4jnsgd1na2vs0mg"},{"bike_id":"85f45f6c-a256-4847-b339-046bd5a947d5","system_id":"levelo_inurba_marseille","lat":43.28848,"lon":5.35846,"is_reserved":false,"is_disabled":false,"rental_uris":{"android":"levelo://app?vid=85f45f6c-a256-4847-b339-046bd5a947d5","ios":"levelo://app?vid=85f45f6c-a256-4847-b339-046bd5a947d5"},"vehicle_type_id":"4","last_reported":1744971051,"current_range_meters":16400,"station_id":"ce4bhb12rcd13ifvqem0","pricing_plan_id":"cebpf4jnsgd1na2vs0mg"},{"bike_id":"07006dad-1eac-4c5b-8e9f-977d282a6f86","system_id":"levelo_inurba_marseille","lat":43.30729,"lon":5.42447,"is_reserved":false,"is_disabled":false,"rental_uris":{"android":"levelo://app?vid=07006dad-1eac-4c5b-8e9f-977d282a6f86","ios":"levelo://app?vid=07006dad-1eac-4c5b-8e9f-977d282a6f86"},"vehicle_type_id":"4","last_reported":1744971051,"current_range_meters":16400,"station_id":"st_cvj6ca6bvosntc0bfgr0","pricing_plan_id":"cebpf4jnsgd1na2vs0mg"},{"bike_id":"766703f1-4dae-4ab5-bf7c-2526acca3e21","system_id":"levelo_inurba_marseille","lat":43.336078,"lon":5.410259,"is_reserved":false,"is_disabled":false,"rental_uris":{"android":"levelo://app?vid=766703f1-4dae-4ab5-bf7c-2526acca3e21","ios":"levelo://app?vid=766703f1-4dae-4ab5-bf7c-2526acca3e21"},"vehicle_type_id":"4","last_reported":1744971051,"current_range_meters":16000,"station_id":"ce4bhpp2rcd13ifvqhgg","pricing_plan_id":"cebpf4jnsgd1na2vs0mg"},{"bike_id":"03650c45-0174-4b91-8587-2d45b43f952f","system_id":"levelo_inurba_marseille","lat":43.23967,"lon":5.36629,"is_reserved":false,"is_disabled":false,"rental_uris":{"android":"levelo://app?vid=03650c45-0174-4b91-8587-2d45b43f952f","ios":"levelo://app?vid=03650c45-0174-4b91-8587-2d45b43f952f"},"vehicle_type_id":"4","last_reported":1744971051,"current_range_meters":16800,"station_id":"ce4bhi12rcd13ifvqfp0","pricing_plan_id":"cebpf4jnsgd1na2vs0mg"},{"bike_id":"b2786285-c550-4e2b-ae66-6ff3ce3b73f0","system_id":"levelo_inurba_marseille","lat":43.29621,"lon":5.37173,"is_reserved":false,"is_disabled":false,"rental_uris":{"android":"levelo://app?vid=b2786285-c550-4e2b-ae66-6ff3ce3b73f0","ios":"levelo://app?vid=b2786285-c550-4e2b-ae66-6ff3ce3b73f0"},"vehicle_type_id":"4","last_reported":1744971051,"current_range_meters":16800,"station_id":"ce4bgnh2rcd13ifvqc0g","pricing_plan_id":"cebpf4jnsgd1na2vs0mg"},{"bike_id":"2e590bf5-d8f3-4efd-9398-47a9805d7dce","system_id":"levelo_inurba_marseille","lat":43.29005,"lon":5.35615,"is_reserved":false,"is_disabled":false,"rental_uris":{"android":"levelo://app?vid=2e590bf5-d8f3-4efd-9398-47a9805d7dce","ios":"levelo://app?vid=2e590bf5-d8f3-4efd-9398-47a9805d7dce"},"vehicle_type_id":"4","last_reported":1744971051,"current_range_meters":16800,"station_id":"ce4bhb92rcd13ifvqen0","pricing_plan_id":"cebpf4jnsgd1na2vs0mg"},{"bike_id":"f11c1877-2531-4187-8a4e-82f9bf9c66d8","system_id":"levelo_inurba_marseille","lat":43.25002,"lon":5.38945,"is_reserved":false,"is_disabled":false,"rental_uris":{"android":"levelo://app?vid=f11c1877-2531-4187-8a4e-82f9bf9c66d8","ios":"levelo://app?vid=f11c1877-2531-4187-8a4e-82f9bf9c66d8"},"vehicle_type_id":"4","last_reported":1744971051,"current_range_meters":16800,"station_id":"ce4bhgp2rcd13ifvqfd0","pricing_plan_id":"cebpf4jnsgd1na2vs0mg"},{"bike_id":"cbc8b22e-bd0a-4fcf-a1f4-cf4849485342","system_id":"levelo_inurba_marseille","lat":43.2926,"lon":5.3845,"is_reserved":false,"is_disabled":false,"rental_uris":{"android":"levelo://app?vid=cbc8b22e-bd0a-4fcf-a1f4-cf4849485342","ios":"levelo://app?vid=cbc8b22e-bd0a-4fcf-a1f4-cf4849485342"},"vehicle_type_id":"4","last_reported":1744971051,"current_range_meters":16800,"station_id":"ce4bh692rcd13ifvqea0","pricing_plan_id":"cebpf4jnsgd1na2vs0mg"},{"bike_id":"9f45b2bf-53d1-4e39-9a64-fb391bdbd395","system_id":"levelo_inurba_marseille","lat":43.33741,"lon":5.39184,"is_reserved":false,"is_disabled":false,"rental_uris":{"android":"levelo://app?vid=9f45b2bf-53d1-4e39-9a64-fb391bdbd395","ios":"levelo://app?vid=9f45b2bf-53d1-4e39-9a64-fb391bdbd395"},"vehicle_type_id":"4","last_reported":1744971051,"current_range_meters":16800,"station_id":"ce4bhr92rcd13ifvqhsg","pricing_plan_id":"cebpf4jnsgd1na2vs0mg"},{"bike_id":"789c3822-56ca-4769-bcd4-8845bdea2fda","system_id":"levelo_inurba_marseille","lat":43.24164,"lon":5.36392,"is_reserved":false,"is_disabled":false,"rental_uris":{"android":"levelo://app?vid=789c3822-56ca-4769-bcd4-8845bdea2fda","ios":"levelo://app?vid=789c3822-56ca-4769-bcd4-8845bdea2fda"},"vehicle_type_id":"4","last_reported":1744971051,"current_range_meters":16800,"station_id":"cpo36qri1sfpv3e86is0","pricing_plan_id":"cebpf4jnsgd1na2vs0mg"},{"bike_id":"04a40253-7607-456c-90a5-53d1295549ee","system_id":"levelo_inurba_marseille","lat":43.29256,"lon":5.37628,"is_reserved":false,"is_disabled":false,"rental_uris":{"android":"levelo://app?vid=04a40253-7607-456c-90a5-53d1295549ee","ios":"levelo://app?vid=04a40253-7607-456c-90a5-53d1295549ee"},"vehicle_type_id":"4","last_reported":1744971051,"current_range_meters":16800,"station_id":"ce4bgi12rcd13ifvqb80","pricing_plan_id":"cebpf4jnsgd1na2vs0mg"},{"bike_id":"7ac2d338-3082-4dcd-bd51-590e0a489ac9","system_id":"levelo_inurba_marseille","lat":43.25134,"lon":5.40295,"is_reserved":false,"is_disabled":false,"rental_uris":{"android":"levelo://app?vid=7ac2d338-3082-4dcd-bd51-590e0a489ac9","ios":"levelo://app?vid=7ac2d338-3082-4dcd-bd51-590e0a489ac9"},"vehicle_type_id":"4","last_reported":1744971051,"current_range_meters":16800,"station_id":"ce4bhlh2rcd13ifvqgig","pricing_plan_id":"cebpf4jnsgd1na2vs0mg"},{"bike_id":"a1183122-2c11-405c-8c55-e035bd8761a2","system_id":"levelo_inurba_marseille","lat":43.27376,"lon":5.36252,"is_reserved":false,"is_disabled":false,"rental_uris":{"android":"levelo://app?vid=a1183122-2c11-405c-8c55-e035bd8761a2","ios":"levelo://app?vid=a1183122-2c11-405c-8c55-e035bd8761a2"},"vehicle_type_id":"4","last_reported":1744971051,"current_range_meters":16800,"station_id":"ce4bhbh2rcd13ifvqeo0","pricing_plan_id":"cebpf4jnsgd1na2vs0mg"},{"bike_id":"bf11a46d-f4da-4fd5-880e-ca73ef535e39","system_id":"levelo_inurba_marseille","lat":43.23155,"lon":5.43705,"is_reserved":false,"is_disabled":false,"rental_uris":{"android":"levelo://app?vid=bf11a46d-f4da-4fd5-880e-ca73ef535e39","ios":"levelo://app?vid=bf11a46d-f4da-4fd5-880e-ca73ef535e39"},"vehicle_type_id":"4","last_reported":1744971051,"current_range_meters":16800,"station_id":"ce4bhmp2rcd13ifvqgog","pricing_plan_id":"cebpf4jnsgd1na2vs0mg"},{"bike_id":"36b90cff-40d2-47e2-985b-e09410752cc5","system_id":"levelo_inurba_marseille","lat":43.29896,"lon":5.43669,"is_reserved":false,"is_disabled":false,"rental_uris":{"android":"levelo://app?vid=36b90cff-40d2-47e2-985b-e09410752cc5","ios":"levelo://app?vid=36b90cff-40d2-47e2-985b-e09410752cc5"},"vehicle_type_id":"4","last_reported":1744971051,"current_range_meters":17200,"station_id":"ce4bhpp2rcd13ifvqhfg","pricing_plan_id":"cebpf4jnsgd1na2vs0mg"},{"bike_id":"2d21f93b-21b0-4a0b-9a30-4b5ce63ef856","system_id":"levelo_inurba_marseille","lat":43.31071,"lon":5.38352,"is_reserved":false,"is_disabled":false,"rental_uris":{"android":"levelo://app?vid=2d21f93b-21b0-4a0b-9a30-4b5ce63ef856","ios":"levelo://app?vid=2d21f93b-21b0-4a0b-9a30-4b5ce63ef856"},"vehicle_type_id":"4","last_reported":1744971051,"current_range_meters":17200,"station_id":"ce4bgv92rcd13ifvqcr0","pricing_plan_id":"cebpf4jnsgd1na2vs0mg"},{"bike_id":"d1d39195-7105-40ac-9e9f-412e283490af","system_id":"levelo_inurba_marseille","lat":43.26196,"lon":5.37454,"is_reserved":false,"is_disabled":false,"rental_uris":{"android":"levelo://app?vid=d1d39195-7105-40ac-9e9f-412e283490af","ios":"levelo://app?vid=d1d39195-7105-40ac-9e9f-412e283490af"},"vehicle_type_id":"4","last_reported":1744971051,"current_range_meters":17200,"station_id":"ce4bhgp2rcd13ifvqfc0","pricing_plan_id":"cebpf4jnsgd1na2vs0mg"},{"bike_id":"41e92576-4a20-4da8-828c-8a4b916376b4","system_id":"levelo_inurba_marseille","lat":43.21747,"lon":5.34605,"is_reserved":false,"is_disabled":false,"rental_uris":{"android":"levelo://app?vid=41e92576-4a20-4da8-828c-8a4b916376b4","ios":"levelo://app?vid=41e92576-4a20-4da8-828c-8a4b916376b4"},"vehicle_type_id":"4","last_reported":1744971051,"current_range_meters":17200,"station_id":"st_cvj6r9ubvosntc0bgbag","pricing_plan_id":"cebpf4jnsgd1na2vs0mg"},{"bike_id":"80ba535d-5b6b-4c54-9b2f-af3ad0246b91","system_id":"levelo_inurba_marseille","lat":43.294141,"lon":5.386232,"is_reserved":false,"is_disabled":false,"rental_uris":{"android":"levelo://app?vid=80ba535d-5b6b-4c54-9b2f-af3ad0246b91","ios":"levelo://app?vid=80ba535d-5b6b-4c54-9b2f-af3ad0246b91"},"vehicle_type_id":"4","last_reported":1744971051,"current_range_meters":17200,"station_id":"ce4bh2h2rcd13ifvqdh0","pricing_plan_id":"cebpf4jnsgd1na2vs0mg"},{"bike_id":"35153b2d-d81c-4f04-a823-f8049c6c6d5c","system_id":"levelo_inurba_marseille","lat":43.29219,"lon":5.36054,"is_reserved":false,"is_disabled":false,"rental_uris":{"android":"levelo://app?vid=35153b2d-d81c-4f04-a823-f8049c6c6d5c","ios":"levelo://app?vid=35153b2d-d81c-4f04-a823-f8049c6c6d5c"},"vehicle_type_id":"4","last_reported":1744971051,"current_range_meters":17200,"station_id":"ce4bhbh2rcd13ifvqeqg","pricing_plan_id":"cebpf4jnsgd1na2vs0mg"},{"bike_id":"bfa49018-87e7-4e6d-a73f-f9b53d1a144b","system_id":"levelo_inurba_marseille","lat":43.3136,"lon":5.3671,"is_reserved":false,"is_disabled":false,"rental_uris":{"android":"levelo://app?vid=bfa49018-87e7-4e6d-a73f-f9b53d1a144b","ios":"levelo://app?vid=bfa49018-87e7-4e6d-a73f-f9b53d1a144b"},"vehicle_type_id":"4","last_reported":1744971051,"current_range_meters":17200,"station_id":"ce4bgr92rcd13ifvqc6g","pricing_plan_id":"cebpf4jnsgd1na2vs0mg"},{"bike_id":"f1d513e7-93f2-472b-b840-4c42490aad95","system_id":"levelo_inurba_marseille","lat":43.24168,"lon":5.364,"is_reserved":false,"is_disabled":false,"rental_uris":{"android":"levelo://app?vid=f1d513e7-93f2-472b-b840-4c42490aad95","ios":"levelo://app?vid=f1d513e7-93f2-472b-b840-4c42490aad95"},"vehicle_type_id":"4","last_reported":1744971051,"current_range_meters":17200,"station_id":"cpo36qri1sfpv3e86is0","pricing_plan_id":"cebpf4jnsgd1na2vs0mg"},{"bike_id":"06c69cbf-f6a8-4497-b97f-4ec81764e0ec","system_id":"levelo_inurba_marseille","lat":43.25586,"lon":5.38241,"is_reserved":false,"is_disabled":false,"rental_uris":{"android":"levelo://app?vid=06c69cbf-f6a8-4497-b97f-4ec81764e0ec","ios":"levelo://app?vid=06c69cbf-f6a8-4497-b97f-4ec81764e0ec"},"vehicle_type_id":"4","last_reported":1744971051,"current_range_meters":17200,"station_id":"ce4bhih2rcd13ifvqfs0","pricing_plan_id":"cebpf4jnsgd1na2vs0mg"},{"bike_id":"23cc3c21-39d5-401a-998d-6365ef24751a","system_id":"levelo_inurba_marseille","lat":43.22938,"lon":5.35374,"is_reserved":false,"is_disabled":false,"rental_uris":{"android":"levelo://app?vid=23cc3c21-39d5-401a-998d-6365ef24751a","ios":"levelo://app?vid=23cc3c21-39d5-401a-998d-6365ef24751a"},"vehicle_type_id":"4","last_reported":1744971051,"current_range_meters":17200,"station_id":"cpo3532slgdg3j2ikp40","pricing_plan_id":"cebpf4jnsgd1na2vs0mg"},{"bike_id":"91aa591a-3e56-4092-a295-ecb6aebe69eb","system_id":"levelo_inurba_marseille","lat":43.22498,"lon":5.34799,"is_reserved":false,"is_disabled":false,"rental_uris":{"android":"levelo://app?vid=91aa591a-3e56-4092-a295-ecb6aebe69eb","ios":"levelo://app?vid=91aa591a-3e56-4092-a295-ecb6aebe69eb"},"vehicle_type_id":"4","last_reported":1744971051,"current_range_meters":17600,"station_id":"st_cvj5dfep6f1abm77gieg","pricing_plan_id":"cebpf4jnsgd1na2vs0mg"},{"bike_id":"682f2b70-6da5-414c-a6cd-737bed56e2cf","system_id":"levelo_inurba_marseille","lat":43.290768,"lon":5.371561,"is_reserved":false,"is_disabled":false,"rental_uris":{"android":"levelo://app?vid=682f2b70-6da5-414c-a6cd-737bed56e2cf","ios":"levelo://app?vid=682f2b70-6da5-414c-a6cd-737bed56e2cf"},"vehicle_type_id":"4","last_reported":1744971051,"current_range_meters":18000,"station_id":"ce4bgs12rcd13ifvqcag","pricing_plan_id":"cebpf4jnsgd1na2vs0mg"},{"bike_id":"f7967425-0532-4485-ae5a-4aa628190a0b","system_id":"levelo_inurba_marseille","lat":43.29578,"lon":5.37531,"is_reserved":false,"is_disabled":false,"rental_uris":{"android":"levelo://app?vid=f7967425-0532-4485-ae5a-4aa628190a0b","ios":"levelo://app?vid=f7967425-0532-4485-ae5a-4aa628190a0b"},"vehicle_type_id":"4","last_reported":1744971051,"current_range_meters":17600,"station_id":"ce4bgh92rcd13ifvqb50","pricing_plan_id":"cebpf4jnsgd1na2vs0mg"},{"bike_id":"5db7c5ab-73d5-47e4-9713-3ef31de4325c","system_id":"levelo_inurba_marseille","lat":43.308,"lon":5.37348,"is_reserved":false,"is_disabled":false,"rental_uris":{"android":"levelo://app?vid=5db7c5ab-73d5-47e4-9713-3ef31de4325c","ios":"levelo://app?vid=5db7c5ab-73d5-47e4-9713-3ef31de4325c"},"vehicle_type_id":"4","last_reported":1744971051,"current_range_meters":17600,"station_id":"","pricing_plan_id":"cebpf4jnsgd1na2vs0mg"},{"bike_id":"4c05fc04-5a3e-4846-ae6c-06609c17f5be","system_id":"levelo_inurba_marseille","lat":43.26237,"lon":5.40457,"is_reserved":false,"is_disabled":false,"rental_uris":{"android":"levelo://app?vid=4c05fc04-5a3e-4846-ae6c-06609c17f5be","ios":"levelo://app?vid=4c05fc04-5a3e-4846-ae6c-06609c17f5be"},"vehicle_type_id":"4","last_reported":1744971051,"current_range_meters":17600,"station_id":"ce4bhmh2rcd13ifvqgmg","pricing_plan_id":"cebpf4jnsgd1na2vs0mg"},{"bike_id":"87000f8c-cb12-4914-a210-bfeb8f7b3c93","system_id":"levelo_inurba_marseille","lat":43.289373,"lon":5.366446,"is_reserved":false,"is_disabled":false,"rental_uris":{"android":"levelo://app?vid=87000f8c-cb12-4914-a210-bfeb8f7b3c93","ios":"levelo://app?vid=87000f8c-cb12-4914-a210-bfeb8f7b3c93"},"vehicle_type_id":"4","last_reported":1744971051,"current_range_meters":17600,"station_id":"ce4bhap2rcd13ifvqek0","pricing_plan_id":"cebpf4jnsgd1na2vs0mg"},{"bike_id":"beae55ab-1a39-49d3-9e51-9498979f641f","system_id":"levelo_inurba_marseille","lat":43.29938,"lon":5.36535,"is_reserved":false,"is_disabled":false,"rental_uris":{"android":"levelo://app?vid=beae55ab-1a39-49d3-9e51-9498979f641f","ios":"levelo://app?vid=beae55ab-1a39-49d3-9e51-9498979f641f"},"vehicle_type_id":"4","last_reported":1744971051,"current_range_meters":17600,"station_id":"ce4bgm92rcd13ifvqbr0","pricing_plan_id":"cebpf4jnsgd1na2vs0mg"},{"bike_id":"9eb6738d-486c-4d0a-88f4-70b8d81983d1","system_id":"levelo_inurba_marseille","lat":43.21761,"lon":5.3459,"is_reserved":false,"is_disabled":false,"rental_uris":{"android":"levelo://app?vid=9eb6738d-486c-4d0a-88f4-70b8d81983d1","ios":"levelo://app?vid=9eb6738d-486c-4d0a-88f4-70b8d81983d1"},"vehicle_type_id":"4","last_reported":1744971051,"current_range_meters":17600,"station_id":"st_cvj6r9ubvosntc0bgbag","pricing_plan_id":"cebpf4jnsgd1na2vs0mg"},{"bike_id":"93b9782e-4342-471d-a1c1-8468aa50c1e6","system_id":"levelo_inurba_marseille","lat":43.23152,"lon":5.43706,"is_reserved":false,"is_disabled":false,"rental_uris":{"android":"levelo://app?vid=93b9782e-4342-471d-a1c1-8468aa50c1e6","ios":"levelo://app?vid=93b9782e-4342-471d-a1c1-8468aa50c1e6"},"vehicle_type_id":"4","last_reported":1744971051,"current_range_meters":18000,"station_id":"ce4bhmp2rcd13ifvqgog","pricing_plan_id":"cebpf4jnsgd1na2vs0mg"},{"bike_id":"aea2afb6-112e-4c3a-968a-5eb5aa77e9be","system_id":"levelo_inurba_marseille","lat":43.21183,"lon":5.35077,"is_reserved":false,"is_disabled":false,"rental_uris":{"android":"levelo://app?vid=aea2afb6-112e-4c3a-968a-5eb5aa77e9be","ios":"levelo://app?vid=aea2afb6-112e-4c3a-968a-5eb5aa77e9be"},"vehicle_type_id":"4","last_reported":1744971051,"current_range_meters":18000,"station_id":"st_cvj6sg6p6f1abm77japg","pricing_plan_id":"cebpf4jnsgd1na2vs0mg"},{"bike_id":"82a001e1-327f-4a58-b355-bcf2e1a86bf6","system_id":"levelo_inurba_marseille","lat":43.3094,"lon":5.36687,"is_reserved":false,"is_disabled":false,"rental_uris":{"android":"levelo://app?vid=82a001e1-327f-4a58-b355-bcf2e1a86bf6","ios":"levelo://app?vid=82a001e1-327f-4a58-b355-bcf2e1a86bf6"},"vehicle_type_id":"4","last_reported":1744971051,"current_range_meters":18000,"station_id":"","pricing_plan_id":"cebpf4jnsgd1na2vs0mg"},{"bike_id":"b5bd9b06-075e-406d-b8b3-1edd652eea1a","system_id":"levelo_inurba_marseille","lat":43.286966,"lon":5.400035,"is_reserved":false,"is_disabled":false,"rental_uris":{"android":"levelo://app?vid=b5bd9b06-075e-406d-b8b3-1edd652eea1a","ios":"levelo://app?vid=b5bd9b06-075e-406d-b8b3-1edd652eea1a"},"vehicle_type_id":"4","last_reported":1744971051,"current_range_meters":18000,"station_id":"ce4bho92rcd13ifvqh3g","pricing_plan_id":"cebpf4jnsgd1na2vs0mg"},{"bike_id":"95d975d7-8b02-49ed-98b8-71ea37818776","system_id":"levelo_inurba_marseille","lat":43.31719,"lon":5.437,"is_reserved":false,"is_disabled":false,"rental_uris":{"android":"levelo://app?vid=95d975d7-8b02-49ed-98b8-71ea37818776","ios":"levelo://app?vid=95d975d7-8b02-49ed-98b8-71ea37818776"},"vehicle_type_id":"4","last_reported":1744971051,"current_range_meters":18000,"station_id":"ce4bhp92rcd13ifvqhcg","pricing_plan_id":"cebpf4jnsgd1na2vs0mg"},{"bike_id":"80bac1fe-218c-4068-937c-4aa733df023f","system_id":"levelo_inurba_marseille","lat":43.28602,"lon":5.37068,"is_reserved":false,"is_disabled":true,"rental_uris":{"android":"levelo://app?vid=80bac1fe-218c-4068-937c-4aa733df023f","ios":"levelo://app?vid=80bac1fe-218c-4068-937c-4aa733df023f"},"vehicle_type_id":"4","last_reported":1744971051,"current_range_meters":18000,"station_id":"","pricing_plan_id":"cebpf4jnsgd1na2vs0mg"},{"bike_id":"0513d50a-d6e4-4093-a8cf-4d32d2c45b4c","system_id":"levelo_inurba_marseille","lat":43.32477,"lon":5.36567,"is_reserved":false,"is_disabled":false,"rental_uris":{"android":"levelo://app?vid=0513d50a-d6e4-4093-a8cf-4d32d2c45b4c","ios":"levelo://app?vid=0513d50a-d6e4-4093-a8cf-4d32d2c45b4c"},"vehicle_type_id":"4","last_reported":1744971051,"current_range_meters":18000,"station_id":"ce4bhs12rcd13ifvqhvg","pricing_plan_id":"cebpf4jnsgd1na2vs0mg"},{"bike_id":"b3db7714-dbf3-4bc4-a6f1-64ff1086c08f","system_id":"levelo_inurba_marseille","lat":43.21742,"lon":5.34628,"is_reserved":false,"is_disabled":false,"rental_uris":{"android":"levelo://app?vid=b3db7714-dbf3-4bc4-a6f1-64ff1086c08f","ios":"levelo://app?vid=b3db7714-dbf3-4bc4-a6f1-64ff1086c08f"},"vehicle_type_id":"4","last_reported":1744971051,"current_range_meters":18000,"station_id":"st_cvj6r9ubvosntc0bgbag","pricing_plan_id":"cebpf4jnsgd1na2vs0mg"},{"bike_id":"a059423f-0b4c-4291-bb08-73943e2d77a4","system_id":"levelo_inurba_marseille","lat":43.23187,"lon":5.39982,"is_reserved":false,"is_disabled":false,"rental_uris":{"android":"levelo://app?vid=a059423f-0b4c-4291-bb08-73943e2d77a4","ios":"levelo://app?vid=a059423f-0b4c-4291-bb08-73943e2d77a4"},"vehicle_type_id":"4","last_reported":1744971051,"current_range_meters":18000,"station_id":"ce4bhn12rcd13ifvqgqg","pricing_plan_id":"cebpf4jnsgd1na2vs0mg"},{"bike_id":"bd58ffb5-7ed1-4262-b4d6-291d63420895","system_id":"levelo_inurba_marseille","lat":43.28618,"lon":5.35104,"is_reserved":false,"is_disabled":false,"rental_uris":{"android":"levelo://app?vid=bd58ffb5-7ed1-4262-b4d6-291d63420895","ios":"levelo://app?vid=bd58ffb5-7ed1-4262-b4d6-291d63420895"},"vehicle_type_id":"4","last_reported":1744971051,"current_range_meters":18000,"station_id":"ce4bhch2rcd13ifvqeug","pricing_plan_id":"cebpf4jnsgd1na2vs0mg"},{"bike_id":"846231f6-6953-4ff8-b8a5-3a085f1dbb55","system_id":"levelo_inurba_marseille","lat":43.29895,"lon":5.43676,"is_reserved":false,"is_disabled":false,"rental_uris":{"android":"levelo://app?vid=846231f6-6953-4ff8-b8a5-3a085f1dbb55","ios":"levelo://app?vid=846231f6-6953-4ff8-b8a5-3a085f1dbb55"},"vehicle_type_id":"4","last_reported":1744971051,"current_range_meters":18000,"station_id":"ce4bhpp2rcd13ifvqhfg","pricing_plan_id":"cebpf4jnsgd1na2vs0mg"},{"bike_id":"bb9cc5b6-0c7a-4871-8383-15ba04455dec","system_id":"levelo_inurba_marseille","lat":43.29901,"lon":5.43674,"is_reserved":false,"is_disabled":false,"rental_uris":{"android":"levelo://app?vid=bb9cc5b6-0c7a-4871-8383-15ba04455dec","ios":"levelo://app?vid=bb9cc5b6-0c7a-4871-8383-15ba04455dec"},"vehicle_type_id":"4","last_reported":1744971051,"current_range_meters":18800,"station_id":"ce4bhpp2rcd13ifvqhfg","pricing_plan_id":"cebpf4jnsgd1na2vs0mg"},{"bike_id":"9360118a-1cfa-4c49-98a9-9c7e9c5db42c","system_id":"levelo_inurba_marseille","lat":43.24653,"lon":5.38895,"is_reserved":false,"is_disabled":false,"rental_uris":{"android":"levelo://app?vid=9360118a-1cfa-4c49-98a9-9c7e9c5db42c","ios":"levelo://app?vid=9360118a-1cfa-4c49-98a9-9c7e9c5db42c"},"vehicle_type_id":"4","last_reported":1744971051,"current_range_meters":18800,"station_id":"ce4bhg12rcd13ifvqf60","pricing_plan_id":"cebpf4jnsgd1na2vs0mg"},{"bike_id":"5bfdd3ac-ac87-4124-a941-1bd318b8cd03","system_id":"levelo_inurba_marseille","lat":43.304617,"lon":5.379123,"is_reserved":false,"is_disabled":false,"rental_uris":{"android":"levelo://app?vid=5bfdd3ac-ac87-4124-a941-1bd318b8cd03","ios":"levelo://app?vid=5bfdd3ac-ac87-4124-a941-1bd318b8cd03"},"vehicle_type_id":"4","last_reported":1744971051,"current_range_meters":18800,"station_id":"ce4bgup2rcd13ifvqcn0","pricing_plan_id":"cebpf4jnsgd1na2vs0mg"},{"bike_id":"5c87a66e-a468-4c06-bf6a-016059f2b476","system_id":"levelo_inurba_marseille","lat":43.22936,"lon":5.35405,"is_reserved":false,"is_disabled":false,"rental_uris":{"android":"levelo://app?vid=5c87a66e-a468-4c06-bf6a-016059f2b476","ios":"levelo://app?vid=5c87a66e-a468-4c06-bf6a-016059f2b476"},"vehicle_type_id":"4","last_reported":1744971051,"current_range_meters":18800,"station_id":"cpo3532slgdg3j2ikp40","pricing_plan_id":"cebpf4jnsgd1na2vs0mg"},{"bike_id":"69b7209e-d43e-4335-acc1-31be1a8e2542","system_id":"levelo_inurba_marseille","lat":43.26953,"lon":5.38632,"is_reserved":false,"is_disabled":false,"rental_uris":{"android":"levelo://app?vid=69b7209e-d43e-4335-acc1-31be1a8e2542","ios":"levelo://app?vid=69b7209e-d43e-4335-acc1-31be1a8e2542"},"vehicle_type_id":"4","last_reported":1744971051,"current_range_meters":18000,"station_id":"ce4bhh92rcd13ifvqfh0","pricing_plan_id":"cebpf4jnsgd1na2vs0mg"},{"bike_id":"935377c0-a8c8-47e7-8726-21d70a212587","system_id":"levelo_inurba_marseille","lat":43.33747,"lon":5.37449,"is_reserved":false,"is_disabled":false,"rental_uris":{"android":"levelo://app?vid=935377c0-a8c8-47e7-8726-21d70a212587","ios":"levelo://app?vid=935377c0-a8c8-47e7-8726-21d70a212587"},"vehicle_type_id":"4","last_reported":1744971051,"current_range_meters":18800,"station_id":"ce4bh2h2rcd13ifvqdh0","pricing_plan_id":"cebpf4jnsgd1na2vs0mg"},{"bike_id":"d05b7cc4-f88b-4d02-ae6c-c344f22c0e5c","system_id":"levelo_inurba_marseille","lat":43.29815,"lon":5.36522,"is_reserved":false,"is_disabled":false,"rental_uris":{"android":"levelo://app?vid=d05b7cc4-f88b-4d02-ae6c-c344f22c0e5c","ios":"levelo://app?vid=d05b7cc4-f88b-4d02-ae6c-c344f22c0e5c"},"vehicle_type_id":"4","last_reported":1744971051,"current_range_meters":19200,"station_id":"","pricing_plan_id":"cebpf4jnsgd1na2vs0mg"},{"bike_id":"d03355fa-c7f9-4104-958e-81d7994c7f64","system_id":"levelo_inurba_marseille","lat":43.28154,"lon":5.42646,"is_reserved":false,"is_disabled":false,"rental_uris":{"android":"levelo://app?vid=d03355fa-c7f9-4104-958e-81d7994c7f64","ios":"levelo://app?vid=d03355fa-c7f9-4104-958e-81d7994c7f64"},"vehicle_type_id":"4","last_reported":1744971051,"current_range_meters":19200,"station_id":"ce4bhnh2rcd13ifvqgug","pricing_plan_id":"cebpf4jnsgd1na2vs0mg"},{"bike_id":"64f6454e-41b7-4b81-88ca-c8e7f835b0cd","system_id":"levelo_inurba_marseille","lat":43.29009,"lon":5.35612,"is_reserved":false,"is_disabled":false,"rental_uris":{"android":"levelo://app?vid=64f6454e-41b7-4b81-88ca-c8e7f835b0cd","ios":"levelo://app?vid=64f6454e-41b7-4b81-88ca-c8e7f835b0cd"},"vehicle_type_id":"4","last_reported":1744971051,"current_range_meters":18800,"station_id":"ce4bhb92rcd13ifvqen0","pricing_plan_id":"cebpf4jnsgd1na2vs0mg"},{"bike_id":"bf4996f6-a558-4f7a-b69d-1640d84d2545","system_id":"levelo_inurba_marseille","lat":43.31759,"lon":5.39021,"is_reserved":false,"is_disabled":false,"rental_uris":{"android":"levelo://app?vid=bf4996f6-a558-4f7a-b69d-1640d84d2545","ios":"levelo://app?vid=bf4996f6-a558-4f7a-b69d-1640d84d2545"},"vehicle_type_id":"4","last_reported":1744971051,"current_range_meters":19200,"station_id":"ce4bhqp2rcd13ifvqhng","pricing_plan_id":"cebpf4jnsgd1na2vs0mg"},{"bike_id":"efad763c-5ba9-4eee-a69c-dfbb136427d4","system_id":"levelo_inurba_marseille","lat":43.23144,"lon":5.43722,"is_reserved":false,"is_disabled":false,"rental_uris":{"android":"levelo://app?vid=efad763c-5ba9-4eee-a69c-dfbb136427d4","ios":"levelo://app?vid=efad763c-5ba9-4eee-a69c-dfbb136427d4"},"vehicle_type_id":"4","last_reported":1744971051,"current_range_meters":19200,"station_id":"ce4bhmp2rcd13ifvqgog","pricing_plan_id":"cebpf4jnsgd1na2vs0mg"},{"bike_id":"c21dd99d-1cb7-4ac4-a10d-a87b41b74d39","system_id":"levelo_inurba_marseille","lat":43.23193,"lon":5.35557,"is_reserved":false,"is_disabled":false,"rental_uris":{"android":"levelo://app?vid=c21dd99d-1cb7-4ac4-a10d-a87b41b74d39","ios":"levelo://app?vid=c21dd99d-1cb7-4ac4-a10d-a87b41b74d39"},"vehicle_type_id":"4","last_reported":1744971051,"current_range_meters":19200,"station_id":"ce4bhu92rcd13ifvqi70","pricing_plan_id":"cebpf4jnsgd1na2vs0mg"},{"bike_id":"056beed3-732b-4c15-871c-8c4749c0b234","system_id":"levelo_inurba_marseille","lat":43.26554,"lon":5.3901,"is_reserved":false,"is_disabled":false,"rental_uris":{"android":"levelo://app?vid=056beed3-732b-4c15-871c-8c4749c0b234","ios":"levelo://app?vid=056beed3-732b-4c15-871c-8c4749c0b234"},"vehicle_type_id":"4","last_reported":1744971051,"current_range_meters":19200,"station_id":"ce4bhe12rcd13ifvqf30","pricing_plan_id":"cebpf4jnsgd1na2vs0mg"},{"bike_id":"24213b37-b766-4d9c-a174-f6bf34920497","system_id":"levelo_inurba_marseille","lat":43.28469,"lon":5.384178,"is_reserved":false,"is_disabled":false,"rental_uris":{"android":"levelo://app?vid=24213b37-b766-4d9c-a174-f6bf34920497","ios":"levelo://app?vid=24213b37-b766-4d9c-a174-f6bf34920497"},"vehicle_type_id":"4","last_reported":1744971051,"current_range_meters":19200,"station_id":"ce4bh512rcd13ifvqe3g","pricing_plan_id":"cebpf4jnsgd1na2vs0mg"},{"bike_id":"17de6571-3c1c-4621-995b-d445cb9c6f14","system_id":"levelo_inurba_marseille","lat":43.21197,"lon":5.35075,"is_reserved":false,"is_disabled":false,"rental_uris":{"android":"levelo://app?vid=17de6571-3c1c-4621-995b-d445cb9c6f14","ios":"levelo://app?vid=17de6571-3c1c-4621-995b-d445cb9c6f14"},"vehicle_type_id":"4","last_reported":1744971051,"current_range_meters":19200,"station_id":"st_cvj6sg6p6f1abm77japg","pricing_plan_id":"cebpf4jnsgd1na2vs0mg"},{"bike_id":"ce880216-3d5c-4f9b-acbd-0765c15ded74","system_id":"levelo_inurba_marseille","lat":43.29898,"lon":5.4367,"is_reserved":false,"is_disabled":false,"rental_uris":{"android":"levelo://app?vid=ce880216-3d5c-4f9b-acbd-0765c15ded74","ios":"levelo://app?vid=ce880216-3d5c-4f9b-acbd-0765c15ded74"},"vehicle_type_id":"4","last_reported":1744971051,"current_range_meters":19200,"station_id":"ce4bhpp2rcd13ifvqhfg","pricing_plan_id":"cebpf4jnsgd1na2vs0mg"},{"bike_id":"fa1f5ec5-d9ac-4273-91fc-eed04d23cf5b","system_id":"levelo_inurba_marseille","lat":43.28425,"lon":5.34982,"is_reserved":false,"is_disabled":false,"rental_uris":{"android":"levelo://app?vid=fa1f5ec5-d9ac-4273-91fc-eed04d23cf5b","ios":"levelo://app?vid=fa1f5ec5-d9ac-4273-91fc-eed04d23cf5b"},"vehicle_type_id":"4","last_reported":1744971051,"current_range_meters":19200,"station_id":"ce4bhbh2rcd13ifvqepg","pricing_plan_id":"cebpf4jnsgd1na2vs0mg"},{"bike_id":"e8c35f53-33e9-4cc6-90e3-4f5913565f51","system_id":"levelo_inurba_marseille","lat":43.23144,"lon":5.43721,"is_reserved":false,"is_disabled":false,"rental_uris":{"android":"levelo://app?vid=e8c35f53-33e9-4cc6-90e3-4f5913565f51","ios":"levelo://app?vid=e8c35f53-33e9-4cc6-90e3-4f5913565f51"},"vehicle_type_id":"4","last_reported":1744971051,"current_range_meters":19600,"station_id":"ce4bhmp2rcd13ifvqgog","pricing_plan_id":"cebpf4jnsgd1na2vs0mg"},{"bike_id":"57e4bf49-afd3-40be-be28-f9c625a8dbad","system_id":"levelo_inurba_marseille","lat":43.273546,"lon":5.362418,"is_reserved":false,"is_disabled":false,"rental_uris":{"android":"levelo://app?vid=57e4bf49-afd3-40be-be28-f9c625a8dbad","ios":"levelo://app?vid=57e4bf49-afd3-40be-be28-f9c625a8dbad"},"vehicle_type_id":"4","last_reported":1744971051,"current_range_meters":19600,"station_id":"ce4bhbh2rcd13ifvqeo0","pricing_plan_id":"cebpf4jnsgd1na2vs0mg"},{"bike_id":"13a52aae-cb1f-4d42-a6e1-bc908cee61fc","system_id":"levelo_inurba_marseille","lat":43.27994,"lon":5.40013,"is_reserved":false,"is_disabled":false,"rental_uris":{"android":"levelo://app?vid=13a52aae-cb1f-4d42-a6e1-bc908cee61fc","ios":"levelo://app?vid=13a52aae-cb1f-4d42-a6e1-bc908cee61fc"},"vehicle_type_id":"4","last_reported":1744971051,"current_range_meters":19600,"station_id":"ce4bho92rcd13ifvqh4g","pricing_plan_id":"cebpf4jnsgd1na2vs0mg"},{"bike_id":"7de48f14-7797-4b06-ac93-3d5cdc757db4","system_id":"levelo_inurba_marseille","lat":43.30477,"lon":5.37926,"is_reserved":false,"is_disabled":false,"rental_uris":{"android":"levelo://app?vid=7de48f14-7797-4b06-ac93-3d5cdc757db4","ios":"levelo://app?vid=7de48f14-7797-4b06-ac93-3d5cdc757db4"},"vehicle_type_id":"4","last_reported":1744971051,"current_range_meters":19600,"station_id":"ce4bgup2rcd13ifvqcn0","pricing_plan_id":"cebpf4jnsgd1na2vs0mg"},{"bike_id":"d52be970-ec48-4545-bc59-de81d161700d","system_id":"levelo_inurba_marseille","lat":43.25577,"lon":5.38236,"is_reserved":false,"is_disabled":false,"rental_uris":{"android":"levelo://app?vid=d52be970-ec48-4545-bc59-de81d161700d","ios":"levelo://app?vid=d52be970-ec48-4545-bc59-de81d161700d"},"vehicle_type_id":"4","last_reported":1744971051,"current_range_meters":19600,"station_id":"ce4bhih2rcd13ifvqfs0","pricing_plan_id":"cebpf4jnsgd1na2vs0mg"},{"bike_id":"ea4647b5-c874-4b91-b056-8e48ba7c710b","system_id":"levelo_inurba_marseille","lat":43.29587,"lon":5.374315,"is_reserved":false,"is_disabled":false,"rental_uris":{"android":"levelo://app?vid=ea4647b5-c874-4b91-b056-8e48ba7c710b","ios":"levelo://app?vid=ea4647b5-c874-4b91-b056-8e48ba7c710b"},"vehicle_type_id":"4","last_reported":1744971051,"current_range_meters":19600,"station_id":"ce4bgr92rcd13ifvqc7g","pricing_plan_id":"cebpf4jnsgd1na2vs0mg"},{"bike_id":"3eab262d-44bd-47f2-8450-1e74c612cfc9","system_id":"levelo_inurba_marseille","lat":43.24399,"lon":5.3706,"is_reserved":false,"is_disabled":false,"rental_uris":{"android":"levelo://app?vid=3eab262d-44bd-47f2-8450-1e74c612cfc9","ios":"levelo://app?vid=3eab262d-44bd-47f2-8450-1e74c612cfc9"},"vehicle_type_id":"4","last_reported":1744971051,"current_range_meters":19600,"station_id":"ce4bhhh2rcd13ifvqfk0","pricing_plan_id":"cebpf4jnsgd1na2vs0mg"},{"bike_id":"4dbd5237-caf3-4921-a92a-7b1379b3153c","system_id":"levelo_inurba_marseille","lat":43.29306,"lon":5.371498,"is_reserved":false,"is_disabled":false,"rental_uris":{"android":"levelo://app?vid=4dbd5237-caf3-4921-a92a-7b1379b3153c","ios":"levelo://app?vid=4dbd5237-caf3-4921-a92a-7b1379b3153c"},"vehicle_type_id":"4","last_reported":1744971051,"current_range_meters":19600,"station_id":"ce4bgh92rcd13ifvqb40","pricing_plan_id":"cebpf4jnsgd1na2vs0mg"},{"bike_id":"32e1baf6-f2a8-4876-8b0a-9cc13511ff65","system_id":"levelo_inurba_marseille","lat":43.24168,"lon":5.3973,"is_reserved":false,"is_disabled":false,"rental_uris":{"android":"levelo://app?vid=32e1baf6-f2a8-4876-8b0a-9cc13511ff65","ios":"levelo://app?vid=32e1baf6-f2a8-4876-8b0a-9cc13511ff65"},"vehicle_type_id":"4","last_reported":1744971051,"current_range_meters":19600,"station_id":"ce4bhn12rcd13ifvqgpg","pricing_plan_id":"cebpf4jnsgd1na2vs0mg"},{"bike_id":"55a5cc39-6fd4-4093-8a64-ffa7e9e9573f","system_id":"levelo_inurba_marseille","lat":43.27213,"lon":5.3918,"is_reserved":false,"is_disabled":false,"rental_uris":{"android":"levelo://app?vid=55a5cc39-6fd4-4093-8a64-ffa7e9e9573f","ios":"levelo://app?vid=55a5cc39-6fd4-4093-8a64-ffa7e9e9573f"},"vehicle_type_id":"4","last_reported":1744971051,"current_range_meters":19200,"station_id":"ce4bhhp2rcd13ifvqfm0","pricing_plan_id":"cebpf4jnsgd1na2vs0mg"},{"bike_id":"e479b9a8-bdc8-42d7-8801-93266aa8f9c7","system_id":"levelo_inurba_marseille","lat":43.25003,"lon":5.38925,"is_reserved":false,"is_disabled":false,"rental_uris":{"android":"levelo://app?vid=e479b9a8-bdc8-42d7-8801-93266aa8f9c7","ios":"levelo://app?vid=e479b9a8-bdc8-42d7-8801-93266aa8f9c7"},"vehicle_type_id":"4","last_reported":1744971051,"current_range_meters":19200,"station_id":"ce4bhgp2rcd13ifvqfd0","pricing_plan_id":"cebpf4jnsgd1na2vs0mg"},{"bike_id":"4151051b-cba5-4517-9e63-4081e6bec2ee","system_id":"levelo_inurba_marseille","lat":43.27367,"lon":5.36259,"is_reserved":false,"is_disabled":false,"rental_uris":{"android":"levelo://app?vid=4151051b-cba5-4517-9e63-4081e6bec2ee","ios":"levelo://app?vid=4151051b-cba5-4517-9e63-4081e6bec2ee"},"vehicle_type_id":"4","last_reported":1744971051,"current_range_meters":19600,"station_id":"ce4bhbh2rcd13ifvqeo0","pricing_plan_id":"cebpf4jnsgd1na2vs0mg"},{"bike_id":"afbcb06e-4465-4c11-9552-e5a7ea75a394","system_id":"levelo_inurba_marseille","lat":43.27316,"lon":5.39089,"is_reserved":false,"is_disabled":false,"rental_uris":{"android":"levelo://app?vid=afbcb06e-4465-4c11-9552-e5a7ea75a394","ios":"levelo://app?vid=afbcb06e-4465-4c11-9552-e5a7ea75a394"},"vehicle_type_id":"4","last_reported":1744971051,"current_range_meters":19600,"station_id":"ce4bhgp2rcd13ifvqfe0","pricing_plan_id":"cebpf4jnsgd1na2vs0mg"},{"bike_id":"ff6fdeb3-4f98-4ba9-96e2-a417ad336a28","system_id":"levelo_inurba_marseille","lat":43.24815,"lon":5.37441,"is_reserved":false,"is_disabled":false,"rental_uris":{"android":"levelo://app?vid=ff6fdeb3-4f98-4ba9-96e2-a417ad336a28","ios":"levelo://app?vid=ff6fdeb3-4f98-4ba9-96e2-a417ad336a28"},"vehicle_type_id":"4","last_reported":1744971051,"current_range_meters":20000,"station_id":"ce4bhgh2rcd13ifvqfb0","pricing_plan_id":"cebpf4jnsgd1na2vs0mg"},{"bike_id":"41df27f8-10c5-4b64-9554-0761b3102f67","system_id":"levelo_inurba_marseille","lat":43.298458,"lon":5.362878,"is_reserved":false,"is_disabled":false,"rental_uris":{"android":"levelo://app?vid=41df27f8-10c5-4b64-9554-0761b3102f67","ios":"levelo://app?vid=41df27f8-10c5-4b64-9554-0761b3102f67"},"vehicle_type_id":"4","last_reported":1744971051,"current_range_meters":20000,"station_id":"ce4bgpp2rcd13ifvqc3g","pricing_plan_id":"cebpf4jnsgd1na2vs0mg"},{"bike_id":"20dd2fb4-8e76-4164-aeb7-8c4771f432e4","system_id":"levelo_inurba_marseille","lat":43.28169,"lon":5.42627,"is_reserved":false,"is_disabled":true,"rental_uris":{"android":"levelo://app?vid=20dd2fb4-8e76-4164-aeb7-8c4771f432e4","ios":"levelo://app?vid=20dd2fb4-8e76-4164-aeb7-8c4771f432e4"},"vehicle_type_id":"4","last_reported":1744971051,"current_range_meters":20000,"station_id":"ce4bhnh2rcd13ifvqgug","pricing_plan_id":"cebpf4jnsgd1na2vs0mg"},{"bike_id":"33e8bf9d-d1e9-454c-9875-5fa8087009ed","system_id":"levelo_inurba_marseille","lat":43.2767,"lon":5.38882,"is_reserved":false,"is_disabled":false,"rental_uris":{"android":"levelo://app?vid=33e8bf9d-d1e9-454c-9875-5fa8087009ed","ios":"levelo://app?vid=33e8bf9d-d1e9-454c-9875-5fa8087009ed"},"vehicle_type_id":"4","last_reported":1744971051,"current_range_meters":20400,"station_id":"ce4bhi12rcd13ifvqfo0","pricing_plan_id":"cebpf4jnsgd1na2vs0mg"},{"bike_id":"154def0d-0d4f-486e-8308-5952a9e62ef1","system_id":"levelo_inurba_marseille","lat":43.22903,"lon":5.35417,"is_reserved":false,"is_disabled":false,"rental_uris":{"android":"levelo://app?vid=154def0d-0d4f-486e-8308-5952a9e62ef1","ios":"levelo://app?vid=154def0d-0d4f-486e-8308-5952a9e62ef1"},"vehicle_type_id":"4","last_reported":1744971051,"current_range_meters":20400,"station_id":"cpo3532slgdg3j2ikp40","pricing_plan_id":"cebpf4jnsgd1na2vs0mg"},{"bike_id":"09f95fea-c6da-4763-8600-a88272da027a","system_id":"levelo_inurba_marseille","lat":43.31402,"lon":5.36661,"is_reserved":false,"is_disabled":false,"rental_uris":{"android":"levelo://app?vid=09f95fea-c6da-4763-8600-a88272da027a","ios":"levelo://app?vid=09f95fea-c6da-4763-8600-a88272da027a"},"vehicle_type_id":"4","last_reported":1744971051,"current_range_meters":20400,"station_id":"","pricing_plan_id":"cebpf4jnsgd1na2vs0mg"},{"bike_id":"83c03145-72a8-411a-8d95-e95f770fe07c","system_id":"levelo_inurba_marseille","lat":43.33025,"lon":5.39038,"is_reserved":false,"is_disabled":false,"rental_uris":{"android":"levelo://app?vid=83c03145-72a8-411a-8d95-e95f770fe07c","ios":"levelo://app?vid=83c03145-72a8-411a-8d95-e95f770fe07c"},"vehicle_type_id":"4","last_reported":1744971051,"current_range_meters":20400,"station_id":"ce4bhr92rcd13ifvqhrg","pricing_plan_id":"cebpf4jnsgd1na2vs0mg"},{"bike_id":"2c7763c2-4820-4121-ba08-c10f56dcd64f","system_id":"levelo_inurba_marseille","lat":43.32499,"lon":5.3657,"is_reserved":false,"is_disabled":false,"rental_uris":{"android":"levelo://app?vid=2c7763c2-4820-4121-ba08-c10f56dcd64f","ios":"levelo://app?vid=2c7763c2-4820-4121-ba08-c10f56dcd64f"},"vehicle_type_id":"4","last_reported":1744971051,"current_range_meters":20800,"station_id":"ce4bhs12rcd13ifvqhvg","pricing_plan_id":"cebpf4jnsgd1na2vs0mg"},{"bike_id":"9603cf39-4992-44b6-8d7d-d6207666041e","system_id":"levelo_inurba_marseille","lat":43.33049,"lon":5.40274,"is_reserved":false,"is_disabled":false,"rental_uris":{"android":"levelo://app?vid=9603cf39-4992-44b6-8d7d-d6207666041e","ios":"levelo://app?vid=9603cf39-4992-44b6-8d7d-d6207666041e"},"vehicle_type_id":"4","last_reported":1744971051,"current_range_meters":20800,"station_id":"","pricing_plan_id":"cebpf4jnsgd1na2vs0mg"},{"bike_id":"50aaf5ec-3a56-44c9-af77-6af6129eb140","system_id":"levelo_inurba_marseille","lat":43.26215,"lon":5.37442,"is_reserved":false,"is_disabled":false,"rental_uris":{"android":"levelo://app?vid=50aaf5ec-3a56-44c9-af77-6af6129eb140","ios":"levelo://app?vid=50aaf5ec-3a56-44c9-af77-6af6129eb140"},"vehicle_type_id":"4","last_reported":1744971051,"current_range_meters":20800,"station_id":"ce4bhgp2rcd13ifvqfc0","pricing_plan_id":"cebpf4jnsgd1na2vs0mg"},{"bike_id":"7caea720-a621-434a-8738-29ceb5283d93","system_id":"levelo_inurba_marseille","lat":43.27373,"lon":5.36256,"is_reserved":false,"is_disabled":false,"rental_uris":{"android":"levelo://app?vid=7caea720-a621-434a-8738-29ceb5283d93","ios":"levelo://app?vid=7caea720-a621-434a-8738-29ceb5283d93"},"vehicle_type_id":"4","last_reported":1744971051,"current_range_meters":20800,"station_id":"ce4bhbh2rcd13ifvqeo0","pricing_plan_id":"cebpf4jnsgd1na2vs0mg"},{"bike_id":"1700f39e-ef71-4eea-96f4-07471eac9a6f","system_id":"levelo_inurba_marseille","lat":43.304045,"lon":5.366967,"is_reserved":false,"is_disabled":false,"rental_uris":{"android":"levelo://app?vid=1700f39e-ef71-4eea-96f4-07471eac9a6f","ios":"levelo://app?vid=1700f39e-ef71-4eea-96f4-07471eac9a6f"},"vehicle_type_id":"4","last_reported":1744971051,"current_range_meters":21600,"station_id":"ce4bgrh2rcd13ifvqc8g","pricing_plan_id":"cebpf4jnsgd1na2vs0mg"},{"bike_id":"625caf8d-0c30-4178-b98b-e24b4a4fa9d0","system_id":"levelo_inurba_marseille","lat":43.27378,"lon":5.36257,"is_reserved":false,"is_disabled":false,"rental_uris":{"android":"levelo://app?vid=625caf8d-0c30-4178-b98b-e24b4a4fa9d0","ios":"levelo://app?vid=625caf8d-0c30-4178-b98b-e24b4a4fa9d0"},"vehicle_type_id":"4","last_reported":1744971051,"current_range_meters":21600,"station_id":"ce4bhbh2rcd13ifvqeo0","pricing_plan_id":"cebpf4jnsgd1na2vs0mg"},{"bike_id":"2b99f081-4f05-46ee-b560-dbfbd455ff86","system_id":"levelo_inurba_marseille","lat":43.2418,"lon":5.39725,"is_reserved":false,"is_disabled":false,"rental_uris":{"android":"levelo://app?vid=2b99f081-4f05-46ee-b560-dbfbd455ff86","ios":"levelo://app?vid=2b99f081-4f05-46ee-b560-dbfbd455ff86"},"vehicle_type_id":"4","last_reported":1744971051,"current_range_meters":21600,"station_id":"ce4bhn12rcd13ifvqgpg","pricing_plan_id":"cebpf4jnsgd1na2vs0mg"},{"bike_id":"8f1cd72b-9f82-4da4-9c42-9063d7914251","system_id":"levelo_inurba_marseille","lat":43.28382,"lon":5.38647,"is_reserved":false,"is_disabled":false,"rental_uris":{"android":"levelo://app?vid=8f1cd72b-9f82-4da4-9c42-9063d7914251","ios":"levelo://app?vid=8f1cd72b-9f82-4da4-9c42-9063d7914251"},"vehicle_type_id":"4","last_reported":1744971051,"current_range_meters":21600,"station_id":"ce4bh492rcd13ifvqdvg","pricing_plan_id":"cebpf4jnsgd1na2vs0mg"},{"bike_id":"23ad8614-333d-461f-aa4c-5b46cf021d14","system_id":"levelo_inurba_marseille","lat":43.240658,"lon":5.377605,"is_reserved":false,"is_disabled":false,"rental_uris":{"android":"levelo://app?vid=23ad8614-333d-461f-aa4c-5b46cf021d14","ios":"levelo://app?vid=23ad8614-333d-461f-aa4c-5b46cf021d14"},"vehicle_type_id":"4","last_reported":1744971051,"current_range_meters":21600,"station_id":"ce4bhnp2rcd13ifvqgvg","pricing_plan_id":"cebpf4jnsgd1na2vs0mg"},{"bike_id":"c0591a27-cac0-448f-81e1-85c1613fa735","system_id":"levelo_inurba_marseille","lat":43.27238,"lon":5.39159,"is_reserved":false,"is_disabled":false,"rental_uris":{"android":"levelo://app?vid=c0591a27-cac0-448f-81e1-85c1613fa735","ios":"levelo://app?vid=c0591a27-cac0-448f-81e1-85c1613fa735"},"vehicle_type_id":"4","last_reported":1744971051,"current_range_meters":21600,"station_id":"ce4bhhp2rcd13ifvqfm0","pricing_plan_id":"cebpf4jnsgd1na2vs0mg"},{"bike_id":"cdfa50e9-e973-4ca1-b5de-ef6d0b77474f","system_id":"levelo_inurba_marseille","lat":43.25001,"lon":5.38928,"is_reserved":false,"is_disabled":false,"rental_uris":{"android":"levelo://app?vid=cdfa50e9-e973-4ca1-b5de-ef6d0b77474f","ios":"levelo://app?vid=cdfa50e9-e973-4ca1-b5de-ef6d0b77474f"},"vehicle_type_id":"4","last_reported":1744971051,"current_range_meters":21600,"station_id":"ce4bhgp2rcd13ifvqfd0","pricing_plan_id":"cebpf4jnsgd1na2vs0mg"},{"bike_id":"9e0fa519-8c7d-45a0-bee0-af55ec953c6c","system_id":"levelo_inurba_marseille","lat":43.24171,"lon":5.36397,"is_reserved":false,"is_disabled":false,"rental_uris":{"android":"levelo://app?vid=9e0fa519-8c7d-45a0-bee0-af55ec953c6c","ios":"levelo://app?vid=9e0fa519-8c7d-45a0-bee0-af55ec953c6c"},"vehicle_type_id":"4","last_reported":1744971051,"current_range_meters":21600,"station_id":"cpo36qri1sfpv3e86is0","pricing_plan_id":"cebpf4jnsgd1na2vs0mg"},{"bike_id":"9fe77292-f4df-4fc8-aad3-0a60bffc473a","system_id":"levelo_inurba_marseille","lat":43.28864,"lon":5.35856,"is_reserved":false,"is_disabled":false,"rental_uris":{"android":"levelo://app?vid=9fe77292-f4df-4fc8-aad3-0a60bffc473a","ios":"levelo://app?vid=9fe77292-f4df-4fc8-aad3-0a60bffc473a"},"vehicle_type_id":"4","last_reported":1744971051,"current_range_meters":22000,"station_id":"ce4bhb12rcd13ifvqem0","pricing_plan_id":"cebpf4jnsgd1na2vs0mg"},{"bike_id":"6158e805-4a16-43da-bd24-a273a90c9dfd","system_id":"levelo_inurba_marseille","lat":43.25001,"lon":5.38925,"is_reserved":false,"is_disabled":false,"rental_uris":{"android":"levelo://app?vid=6158e805-4a16-43da-bd24-a273a90c9dfd","ios":"levelo://app?vid=6158e805-4a16-43da-bd24-a273a90c9dfd"},"vehicle_type_id":"4","last_reported":1744971051,"current_range_meters":22000,"station_id":"ce4bhgp2rcd13ifvqfd0","pricing_plan_id":"cebpf4jnsgd1na2vs0mg"},{"bike_id":"9554a1b7-f280-4c5b-8912-bd2d781e4e5d","system_id":"levelo_inurba_marseille","lat":43.26218,"lon":5.3744,"is_reserved":false,"is_disabled":false,"rental_uris":{"android":"levelo://app?vid=9554a1b7-f280-4c5b-8912-bd2d781e4e5d","ios":"levelo://app?vid=9554a1b7-f280-4c5b-8912-bd2d781e4e5d"},"vehicle_type_id":"4","last_reported":1744971051,"current_range_meters":22000,"station_id":"ce4bhgp2rcd13ifvqfc0","pricing_plan_id":"cebpf4jnsgd1na2vs0mg"},{"bike_id":"8cc9cb0d-7515-44b6-b515-32085aa3cef1","system_id":"levelo_inurba_marseille","lat":43.260252,"lon":5.417416,"is_reserved":false,"is_disabled":false,"rental_uris":{"android":"levelo://app?vid=8cc9cb0d-7515-44b6-b515-32085aa3cef1","ios":"levelo://app?vid=8cc9cb0d-7515-44b6-b515-32085aa3cef1"},"vehicle_type_id":"4","last_reported":1744971051,"current_range_meters":22000,"station_id":"","pricing_plan_id":"cebpf4jnsgd1na2vs0mg"},{"bike_id":"c6af8e20-0757-49a7-9e90-4ab9254669fc","system_id":"levelo_inurba_marseille","lat":43.23928,"lon":5.3661,"is_reserved":false,"is_disabled":false,"rental_uris":{"android":"levelo://app?vid=c6af8e20-0757-49a7-9e90-4ab9254669fc","ios":"levelo://app?vid=c6af8e20-0757-49a7-9e90-4ab9254669fc"},"vehicle_type_id":"4","last_reported":1744971051,"current_range_meters":22000,"station_id":"ce4bhi12rcd13ifvqfp0","pricing_plan_id":"cebpf4jnsgd1na2vs0mg"},{"bike_id":"692d9163-a033-450e-9d18-5ccbc8045ce2","system_id":"levelo_inurba_marseille","lat":43.25119,"lon":5.40322,"is_reserved":false,"is_disabled":false,"rental_uris":{"android":"levelo://app?vid=692d9163-a033-450e-9d18-5ccbc8045ce2","ios":"levelo://app?vid=692d9163-a033-450e-9d18-5ccbc8045ce2"},"vehicle_type_id":"4","last_reported":1744971051,"current_range_meters":22000,"station_id":"ce4bhlh2rcd13ifvqgig","pricing_plan_id":"cebpf4jnsgd1na2vs0mg"},{"bike_id":"b1ac05fc-7a9e-4d53-8434-ea2c7c5106f5","system_id":"levelo_inurba_marseille","lat":43.2861,"lon":5.35092,"is_reserved":false,"is_disabled":false,"rental_uris":{"android":"levelo://app?vid=b1ac05fc-7a9e-4d53-8434-ea2c7c5106f5","ios":"levelo://app?vid=b1ac05fc-7a9e-4d53-8434-ea2c7c5106f5"},"vehicle_type_id":"4","last_reported":1744971051,"current_range_meters":22000,"station_id":"ce4bhch2rcd13ifvqeug","pricing_plan_id":"cebpf4jnsgd1na2vs0mg"},{"bike_id":"99062e51-0348-47f0-b002-ff3974ccfd47","system_id":"levelo_inurba_marseille","lat":43.2119,"lon":5.35077,"is_reserved":false,"is_disabled":false,"rental_uris":{"android":"levelo://app?vid=99062e51-0348-47f0-b002-ff3974ccfd47","ios":"levelo://app?vid=99062e51-0348-47f0-b002-ff3974ccfd47"},"vehicle_type_id":"4","last_reported":1744971051,"current_range_meters":22400,"station_id":"st_cvj6sg6p6f1abm77japg","pricing_plan_id":"cebpf4jnsgd1na2vs0mg"},{"bike_id":"7c849143-e42b-4228-9a3d-8d898ec4456a","system_id":"levelo_inurba_marseille","lat":43.29802,"lon":5.40396,"is_reserved":false,"is_disabled":false,"rental_uris":{"android":"levelo://app?vid=7c849143-e42b-4228-9a3d-8d898ec4456a","ios":"levelo://app?vid=7c849143-e42b-4228-9a3d-8d898ec4456a"},"vehicle_type_id":"4","last_reported":1744971051,"current_range_meters":22400,"station_id":"ce4bh112rcd13ifvqd90","pricing_plan_id":"cebpf4jnsgd1na2vs0mg"},{"bike_id":"d775a69a-2038-4c31-b285-96fb9d926a56","system_id":"levelo_inurba_marseille","lat":43.3138,"lon":5.36709,"is_reserved":false,"is_disabled":false,"rental_uris":{"android":"levelo://app?vid=d775a69a-2038-4c31-b285-96fb9d926a56","ios":"levelo://app?vid=d775a69a-2038-4c31-b285-96fb9d926a56"},"vehicle_type_id":"4","last_reported":1744971051,"current_range_meters":22400,"station_id":"ce4bgr92rcd13ifvqc6g","pricing_plan_id":"cebpf4jnsgd1na2vs0mg"},{"bike_id":"b22472bb-fa13-4f8a-abc7-0a20813a4a24","system_id":"levelo_inurba_marseille","lat":43.28409,"lon":5.34984,"is_reserved":false,"is_disabled":false,"rental_uris":{"android":"levelo://app?vid=b22472bb-fa13-4f8a-abc7-0a20813a4a24","ios":"levelo://app?vid=b22472bb-fa13-4f8a-abc7-0a20813a4a24"},"vehicle_type_id":"4","last_reported":1744971051,"current_range_meters":22400,"station_id":"ce4bhbh2rcd13ifvqepg","pricing_plan_id":"cebpf4jnsgd1na2vs0mg"},{"bike_id":"9b4d8359-a0da-4d75-bddc-3c4accdcbc46","system_id":"levelo_inurba_marseille","lat":43.30741,"lon":5.37557,"is_reserved":false,"is_disabled":false,"rental_uris":{"android":"levelo://app?vid=9b4d8359-a0da-4d75-bddc-3c4accdcbc46","ios":"levelo://app?vid=9b4d8359-a0da-4d75-bddc-3c4accdcbc46"},"vehicle_type_id":"4","last_reported":1744971051,"current_range_meters":22400,"station_id":"","pricing_plan_id":"cebpf4jnsgd1na2vs0mg"},{"bike_id":"b9256e4c-9f36-4e1a-b77a-1a381867ca37","system_id":"levelo_inurba_marseille","lat":43.26577,"lon":5.39029,"is_reserved":false,"is_disabled":false,"rental_uris":{"android":"levelo://app?vid=b9256e4c-9f36-4e1a-b77a-1a381867ca37","ios":"levelo://app?vid=b9256e4c-9f36-4e1a-b77a-1a381867ca37"},"vehicle_type_id":"4","last_reported":1744971051,"current_range_meters":22400,"station_id":"ce4bhe12rcd13ifvqf30","pricing_plan_id":"cebpf4jnsgd1na2vs0mg"},{"bike_id":"67bd36b0-91bc-434d-9017-3f050bb01bfa","system_id":"levelo_inurba_marseille","lat":43.292524,"lon":5.364601,"is_reserved":false,"is_disabled":false,"rental_uris":{"android":"levelo://app?vid=67bd36b0-91bc-434d-9017-3f050bb01bfa","ios":"levelo://app?vid=67bd36b0-91bc-434d-9017-3f050bb01bfa"},"vehicle_type_id":"4","last_reported":1744971051,"current_range_meters":22400,"station_id":"","pricing_plan_id":"cebpf4jnsgd1na2vs0mg"},{"bike_id":"94529fe1-c301-46f5-a50d-c48834da4dc1","system_id":"levelo_inurba_marseille","lat":43.24386,"lon":5.37061,"is_reserved":false,"is_disabled":false,"rental_uris":{"android":"levelo://app?vid=94529fe1-c301-46f5-a50d-c48834da4dc1","ios":"levelo://app?vid=94529fe1-c301-46f5-a50d-c48834da4dc1"},"vehicle_type_id":"4","last_reported":1744971051,"current_range_meters":22400,"station_id":"ce4bhhh2rcd13ifvqfk0","pricing_plan_id":"cebpf4jnsgd1na2vs0mg"},{"bike_id":"ea6fd639-f9f4-4fbd-9b5c-f3c77e453173","system_id":"levelo_inurba_marseille","lat":43.2956,"lon":5.42277,"is_reserved":false,"is_disabled":false,"rental_uris":{"android":"levelo://app?vid=ea6fd639-f9f4-4fbd-9b5c-f3c77e453173","ios":"levelo://app?vid=ea6fd639-f9f4-4fbd-9b5c-f3c77e453173"},"vehicle_type_id":"4","last_reported":1744971051,"current_range_meters":22800,"station_id":"ce4bhph2rcd13ifvqhdg","pricing_plan_id":"cebpf4jnsgd1na2vs0mg"},{"bike_id":"56b8b8b2-fe25-4bd6-b8ee-89ebffa2b48b","system_id":"levelo_inurba_marseille","lat":43.27372,"lon":5.36252,"is_reserved":false,"is_disabled":false,"rental_uris":{"android":"levelo://app?vid=56b8b8b2-fe25-4bd6-b8ee-89ebffa2b48b","ios":"levelo://app?vid=56b8b8b2-fe25-4bd6-b8ee-89ebffa2b48b"},"vehicle_type_id":"4","last_reported":1744971051,"current_range_meters":22800,"station_id":"ce4bhbh2rcd13ifvqeo0","pricing_plan_id":"cebpf4jnsgd1na2vs0mg"},{"bike_id":"d1882f30-2ff8-4e4f-9ca6-147c38426708","system_id":"levelo_inurba_marseille","lat":43.30308,"lon":5.39217,"is_reserved":false,"is_disabled":true,"rental_uris":{"android":"levelo://app?vid=d1882f30-2ff8-4e4f-9ca6-147c38426708","ios":"levelo://app?vid=d1882f30-2ff8-4e4f-9ca6-147c38426708"},"vehicle_type_id":"4","last_reported":1744971051,"current_range_meters":22800,"station_id":"ce4bgkh2rcd13ifvqbk0","pricing_plan_id":"cebpf4jnsgd1na2vs0mg"},{"bike_id":"e5529a9c-019c-49a8-b98d-9a958c37889d","system_id":"levelo_inurba_marseille","lat":43.29196,"lon":5.35802,"is_reserved":false,"is_disabled":true,"rental_uris":{"android":"levelo://app?vid=e5529a9c-019c-49a8-b98d-9a958c37889d","ios":"levelo://app?vid=e5529a9c-019c-49a8-b98d-9a958c37889d"},"vehicle_type_id":"4","last_reported":1744971051,"current_range_meters":22800,"station_id":"ce4bhb12rcd13ifvqel0","pricing_plan_id":"cebpf4jnsgd1na2vs0mg"},{"bike_id":"b3065546-f2b6-4c0a-86e1-f385a124e115","system_id":"levelo_inurba_marseille","lat":43.23183,"lon":5.4,"is_reserved":false,"is_disabled":false,"rental_uris":{"android":"levelo://app?vid=b3065546-f2b6-4c0a-86e1-f385a124e115","ios":"levelo://app?vid=b3065546-f2b6-4c0a-86e1-f385a124e115"},"vehicle_type_id":"4","last_reported":1744971051,"current_range_meters":22800,"station_id":"ce4bhn12rcd13ifvqgqg","pricing_plan_id":"cebpf4jnsgd1na2vs0mg"},{"bike_id":"ec432883-086e-4e72-881d-8af2b96ac2b5","system_id":"levelo_inurba_marseille","lat":43.29001,"lon":5.35602,"is_reserved":false,"is_disabled":false,"rental_uris":{"android":"levelo://app?vid=ec432883-086e-4e72-881d-8af2b96ac2b5","ios":"levelo://app?vid=ec432883-086e-4e72-881d-8af2b96ac2b5"},"vehicle_type_id":"4","last_reported":1744971051,"current_range_meters":22800,"station_id":"ce4bhb92rcd13ifvqen0","pricing_plan_id":"cebpf4jnsgd1na2vs0mg"},{"bike_id":"b4f7ceb8-061f-48fd-8cb8-a98658d60202","system_id":"levelo_inurba_marseille","lat":43.29552,"lon":5.42277,"is_reserved":false,"is_disabled":false,"rental_uris":{"android":"levelo://app?vid=b4f7ceb8-061f-48fd-8cb8-a98658d60202","ios":"levelo://app?vid=b4f7ceb8-061f-48fd-8cb8-a98658d60202"},"vehicle_type_id":"4","last_reported":1744971051,"current_range_meters":23200,"station_id":"ce4bhph2rcd13ifvqhdg","pricing_plan_id":"cebpf4jnsgd1na2vs0mg"},{"bike_id":"6caff7b6-6759-4609-aa2e-8b3611e813d8","system_id":"levelo_inurba_marseille","lat":43.30158,"lon":5.38091,"is_reserved":false,"is_disabled":false,"rental_uris":{"android":"levelo://app?vid=6caff7b6-6759-4609-aa2e-8b3611e813d8","ios":"levelo://app?vid=6caff7b6-6759-4609-aa2e-8b3611e813d8"},"vehicle_type_id":"4","last_reported":1744971051,"current_range_meters":23200,"station_id":"ce4bgjp2rcd13ifvqbh0","pricing_plan_id":"cebpf4jnsgd1na2vs0mg"},{"bike_id":"0d6879ba-6809-4e92-ad98-b93f39820a33","system_id":"levelo_inurba_marseille","lat":43.29272,"lon":5.38444,"is_reserved":false,"is_disabled":false,"rental_uris":{"android":"levelo://app?vid=0d6879ba-6809-4e92-ad98-b93f39820a33","ios":"levelo://app?vid=0d6879ba-6809-4e92-ad98-b93f39820a33"},"vehicle_type_id":"4","last_reported":1744971051,"current_range_meters":23200,"station_id":"ce4bh692rcd13ifvqea0","pricing_plan_id":"cebpf4jnsgd1na2vs0mg"},