{"last_updated":1744132146,"ttl":60,"version":"2.2","data":{"bikes":[{"bike_id":"ff1505b3-a9b1-4546-8d4a-94f6acc48fe7","system_id":"levelo_inurba_marseille","lat":43.29006,"lon":5.35607,"is_reserved":false,"is_disabled":false,"rental_uris":{"android":"levelo://app?vid=ff1505b3-a9b1-4546-8d4a-94f6acc48fe7","ios":"levelo://app?vid=ff1505b3-a9b1-4546-8d4a-94f6acc48fe7"},"vehicle_type_id":"4","last_reported":1744132146,"current_range_meters":2800,"station_id":"ce4bhb92rcd13ifvqen0","pricing_plan_id":"cebpf4jnsgd1na2vs0mg"},{"bike_id":"370bd400-5170-4dc8-ad78-1709b42382bb","system_id":"levelo_inurba_marseille","lat":43.28927,"lon":5.38382,"is_reserved":false,"is_disabled":false,"rental_uris":{"android":"levelo://app?vid=370bd400-5170-4dc8-ad78-1709b42382bb","ios":"levelo://app?vid=370bd400-5170-4dc8-ad78-1709b42382bb"},"vehicle_type_id":"4","last_reported":1744132146,"current_range_meters":2800,"station_id":"ce4bh612rcd13ifvqe6g","pricing_plan_id":"cebpf4jnsgd1na2vs0mg"},{"bike_id":"0ac2eea9-8468-43b3-ae8b-72e21f6f0486","system_id":"levelo_inurba_marseille","lat":43.26497,"lon":5.39535,"is_reserved":false,"is_disabled":false,"rental_uris":{"android":"levelo://app?vid=0ac2eea9-8468-43b3-ae8b-72e21f6f0486","ios":"levelo://app?vid=0ac2eea9-8468-43b3-ae8b-72e21f6f0486"},"vehicle_type_id":"4","last_reported":1744132146,"current_range_meters":2000,"station_id":"ce4bhi12rcd13ifvqfq0","pricing_plan_id":"cebpf4jnsgd1na2vs0mg"},{"bike_id":"fb0f7ea3-b799-4f54-bf26-03379fb531b6","system_id":"levelo_inurba_marseille","lat":43.29255,"lon":5.38441,"is_reserved":false,"is_disabled":false,"rental_uris":{"android":"levelo://app?vid=fb0f7ea3-b799-4f54-bf26-03379fb531b6","ios":"levelo://app?vid=fb0f7ea3-b799-4f54-bf26-03379fb531b6"},"vehicle_type_id":"4","last_reported":1744132146,"current_range_meters":2800,"station_id":"ce4bh692rcd13ifvqea0","pricing_plan_id":"cebpf4jnsgd1na2vs0mg"},{"bike_id":"a98088f1-6649-4fef-95bf-2d883c69ad00","system_id":"levelo_inurba_marseille","lat":43.28365,"lon":5.39959,"is_reserved":false,"is_disabled":false,"rental_uris":{"android":"levelo://app?vid=a98088f1-6649-4fef-95bf-2d883c69ad00","ios":"levelo://app?vid=a98088f1-6649-4fef-95bf-2d883c69ad00"},"vehicle_type_id":"4","last_reported":1744132146,"current_range_meters":2000,"station_id":"ce4bho92rcd13ifvqh3g","pricing_plan_id":"cebpf4jnsgd1na2vs0mg"},{"bike_id":"3944b4a0-54fb-4d6c-af80-4ca20b89931c","system_id":"levelo_inurba_marseille","lat":43.28003,"lon":5.41659,"is_reserved":false,"is_disabled":false,"rental_uris":{"android":"levelo://app?vid=3944b4a0-54fb-4d6c-af80-4ca20b89931c","ios":"levelo://app?vid=3944b4a0-54fb-4d6c-af80-4ca20b89931c"},"vehicle_type_id":"4","last_reported":1744132146,"current_range_meters":2800,"station_id":"ce4bho12rcd13ifvqh1g","pricing_plan_id":"cebpf4jnsgd1na2vs0mg"},{"bike_id":"a959694d-18ce-4d80-917f-23c91ed81065","system_id":"levelo_inurba_marseille","lat":43.299,"lon":5.43666,"is_reserved":false,"is_disabled":true,"rental_uris":{"android":"levelo://app?vid=a959694d-18ce-4d80-917f-23c91ed81065","ios":"levelo://app?vid=a959694d-18ce-4d80-917f-23c91ed81065"},"vehicle_type_id":"4","last_reported":1744132146,"current_range_meters":2800,"station_id":"ce4bhpp2rcd13ifvqhfg","pricing_plan_id":"cebpf4jnsgd1na2vs0mg"},{"bike_id":"c36bafe6-090b-4654-865f-898f7c5109e8","system_id":"levelo_inurba_marseille","lat":43.31117,"lon":5.37756,"is_reserved":false,"is_disabled":false,"rental_uris":{"android":"levelo://app?vid=c36bafe6-090b-4654-865f-898f7c5109e8","ios":"levelo://app?vid=c36bafe6-090b-4654-865f-898f7c5109e8"},"vehicle_type_id":"4","last_reported":1744132146,"current_range_meters":2800,"station_id":"ce4bgt92rcd13ifvqcg0","pricing_plan_id":"cebpf4jnsgd1na2vs0mg"},{"bike_id":"cbdb2506-1e4f-47fa-b389-bc34c13ce401","system_id":"levelo_inurba_marseille","lat":43.23184,"lon":5.39985,"is_reserved":false,"is_disabled":false,"rental_uris":{"android":"levelo://app?vid=cbdb2506-1e4f-47fa-b389-bc34c13ce401","ios":"levelo://app?vid=cbdb2506-1e4f-47fa-b389-bc34c13ce401"},"vehicle_type_id":"4","last_reported":1744132146,"current_range_meters":2800,"station_id":"ce4bhn12rcd13ifvqgqg","pricing_plan_id":"cebpf4jnsgd1na2vs0mg"},{"bike_id":"37651ac3-280e-4ec8-be26-e70609da7324","system_id":"levelo_inurba_marseille","lat":43.30951,"lon":5.39032,"is_reserved":false,"is_disabled":false,"rental_uris":{"android":"levelo://app?vid=37651ac3-280e-4ec8-be26-e70609da7324","ios":"levelo://app?vid=37651ac3-280e-4ec8-be26-e70609da7324"},"vehicle_type_id":"4","last_reported":1744132146,"current_range_meters":2800,"station_id":"ce4bgup2rcd13ifvqco0","pricing_plan_id":"cebpf4jnsgd1na2vs0mg"},{"bike_id":"f605dd46-df71-4b6e-b7a1-eaaa11c10e43","system_id":"levelo_inurba_marseille","lat":43.257599,"lon":5.410503,"is_reserved":false,"is_disabled":false,"rental_uris":{"android":"levelo://app?vid=f605dd46-df71-4b6e-b7a1-eaaa11c10e43","ios":"levelo://app?vid=f605dd46-df71-4b6e-b7a1-eaaa11c10e43"},"vehicle_type_id":"4","last_reported":1744132146,"current_range_meters":3200,"station_id":"ce4bhkp2rcd13ifvqgd0","pricing_plan_id":"cebpf4jnsgd1na2vs0mg"},{"bike_id":"2b5cff5c-c91f-46b5-9d56-d26670171ded","system_id":"levelo_inurba_marseille","lat":43.282697,"lon":5.35052,"is_reserved":false,"is_disabled":false,"rental_uris":{"android":"levelo://app?vid=2b5cff5c-c91f-46b5-9d56-d26670171ded","ios":"levelo://app?vid=2b5cff5c-c91f-46b5-9d56-d26670171ded"},"vehicle_type_id":"4","last_reported":1744132146,"current_range_meters":3200,"station_id":"ce4bhbp2rcd13ifvqerg","pricing_plan_id":"cebpf4jnsgd1na2vs0mg"},{"bike_id":"560e17bf-ac37-4844-88f0-aa3a929cf095","system_id":"levelo_inurba_marseille","lat":43.2942,"lon":5.38626,"is_reserved":false,"is_disabled":false,"rental_uris":{"android":"levelo://app?vid=560e17bf-ac37-4844-88f0-aa3a929cf095","ios":"levelo://app?vid=560e17bf-ac37-4844-88f0-aa3a929cf095"},"vehicle_type_id":"4","last_reported":1744132146,"current_range_meters":3200,"station_id":"ce4bh2h2rcd13ifvqdh0","pricing_plan_id":"cebpf4jnsgd1na2vs0mg"},{"bike_id":"e32fffdc-040c-437d-89cf-6f8c0a077a11","system_id":"levelo_inurba_marseille","lat":43.28619,"lon":5.35105,"is_reserved":false,"is_disabled":false,"rental_uris":{"android":"levelo://app?vid=e32fffdc-040c-437d-89cf-6f8c0a077a11","ios":"levelo://app?vid=e32fffdc-040c-437d-89cf-6f8c0a077a11"},"vehicle_type_id":"4","last_reported":1744132146,"current_range_meters":3200,"station_id":"ce4bhch2rcd13ifvqeug","pricing_plan_id":"cebpf4jnsgd1na2vs0mg"},{"bike_id":"d3045b13-ea31-46e1-9d34-d6ac8eb2daa2","system_id":"levelo_inurba_marseille","lat":43.27377,"lon":5.362633,"is_reserved":false,"is_disabled":true,"rental_uris":{"android":"levelo://app?vid=d3045b13-ea31-46e1-9d34-d6ac8eb2daa2","ios":"levelo://app?vid=d3045b13-ea31-46e1-9d34-d6ac8eb2daa2"},"vehicle_type_id":"4","last_reported":1744132146,"current_range_meters":3200,"station_id":"ce4bhbh2rcd13ifvqeo0","pricing_plan_id":"cebpf4jnsgd1na2vs0mg"},{"bike_id":"9e94c236-f6b3-4912-83f9-260f6785ba5b","system_id":"levelo_inurba_marseille","lat":43.271922,"lon":5.391607,"is_reserved":false,"is_disabled":false,"rental_uris":{"android":"levelo://app?vid=9e94c236-f6b3-4912-83f9-260f6785ba5b","ios":"levelo://app?vid=9e94c236-f6b3-4912-83f9-260f6785ba5b"},"vehicle_type_id":"4","last_reported":1744132146,"current_range_meters":2800,"station_id":"ce4bhhp2rcd13ifvqfm0","pricing_plan_id":"cebpf4jnsgd1na2vs0mg"},{"bike_id":"f17c502a-085d-4bdf-a361-926e443c635b","system_id":"levelo_inurba_marseille","lat":43.28856,"lon":5.3584,"is_reserved":false,"is_disabled":false,"rental_uris":{"android":"levelo://app?vid=f17c502a-085d-4bdf-a361-926e443c635b","ios":"levelo://app?vid=f17c502a-085d-4bdf-a361-926e443c635b"},"vehicle_type_id":"4","last_reported":1744132146,"current_range_meters":3200,"station_id":"ce4bhb12rcd13ifvqem0","pricing_plan_id":"cebpf4jnsgd1na2vs0mg"},{"bike_id":"de103f43-5584-45e8-9bea-a439d7878a8b","system_id":"levelo_inurba_marseille","lat":43.29559,"lon":5.42293,"is_reserved":false,"is_disabled":false,"rental_uris":{"android":"levelo://app?vid=de103f43-5584-45e8-9bea-a439d7878a8b","ios":"levelo://app?vid=de103f43-5584-45e8-9bea-a439d7878a8b"},"vehicle_type_id":"4","last_reported":1744132146,"current_range_meters":3200,"station_id":"ce4bhph2rcd13ifvqhdg","pricing_plan_id":"cebpf4jnsgd1na2vs0mg"},{"bike_id":"b9784eae-28be-45ae-9508-0b4f30be86d8","system_id":"levelo_inurba_marseille","lat":43.25112,"lon":5.40317,"is_reserved":false,"is_disabled":false,"rental_uris":{"android":"levelo://app?vid=b9784eae-28be-45ae-9508-0b4f30be86d8","ios":"levelo://app?vid=b9784eae-28be-45ae-9508-0b4f30be86d8"},"vehicle_type_id":"4","last_reported":1744132146,"current_range_meters":3200,"station_id":"ce4bhlh2rcd13ifvqgig","pricing_plan_id":"cebpf4jnsgd1na2vs0mg"},{"bike_id":"e615de16-bf28-45aa-8c0a-faafe76bdcdc","system_id":"levelo_inurba_marseille","lat":43.31341,"lon":5.39697,"is_reserved":false,"is_disabled":true,"rental_uris":{"android":"levelo://app?vid=e615de16-bf28-45aa-8c0a-faafe76bdcdc","ios":"levelo://app?vid=e615de16-bf28-45aa-8c0a-faafe76bdcdc"},"vehicle_type_id":"4","last_reported":1744132146,"current_range_meters":3600,"station_id":"ce4bgvp2rcd13ifvqcu0","pricing_plan_id":"cebpf4jnsgd1na2vs0mg"},{"bike_id":"02f98bad-f491-4ee4-879e-d89b0d54da4b","system_id":"levelo_inurba_marseille","lat":43.29537,"lon":5.38548,"is_reserved":false,"is_disabled":false,"rental_uris":{"android":"levelo://app?vid=02f98bad-f491-4ee4-879e-d89b0d54da4b","ios":"levelo://app?vid=02f98bad-f491-4ee4-879e-d89b0d54da4b"},"vehicle_type_id":"4","last_reported":1744132146,"current_range_meters":3600,"station_id":"ce4bgih2rcd13ifvqba0","pricing_plan_id":"cebpf4jnsgd1na2vs0mg"},{"bike_id":"624df095-dbb5-4483-8413-4270df3d776b","system_id":"levelo_inurba_marseille","lat":43.275,"lon":5.4245,"is_reserved":false,"is_disabled":false,"rental_uris":{"android":"levelo://app?vid=624df095-dbb5-4483-8413-4270df3d776b","ios":"levelo://app?vid=624df095-dbb5-4483-8413-4270df3d776b"},"vehicle_type_id":"4","last_reported":1744132146,"current_range_meters":3600,"station_id":"ce4bhn92rcd13ifvqgrg","pricing_plan_id":"cebpf4jnsgd1na2vs0mg"},{"bike_id":"eca10973-177a-4ddf-82de-78ab6f249bc4","system_id":"levelo_inurba_marseille","lat":43.29225,"lon":5.36073,"is_reserved":false,"is_disabled":false,"rental_uris":{"android":"levelo://app?vid=eca10973-177a-4ddf-82de-78ab6f249bc4","ios":"levelo://app?vid=eca10973-177a-4ddf-82de-78ab6f249bc4"},"vehicle_type_id":"4","last_reported":1744132146,"current_range_meters":3600,"station_id":"ce4bhbh2rcd13ifvqeqg","pricing_plan_id":"cebpf4jnsgd1na2vs0mg"},{"bike_id":"e2be3212-153f-44fa-ac6b-1582beba71a4","system_id":"levelo_inurba_marseille","lat":43.29019,"lon":5.38648,"is_reserved":false,"is_disabled":false,"rental_uris":{"android":"levelo://app?vid=e2be3212-153f-44fa-ac6b-1582beba71a4","ios":"levelo://app?vid=e2be3212-153f-44fa-ac6b-1582beba71a4"},"vehicle_type_id":"4","last_reported":1744132146,"current_range_meters":3600,"station_id":"ce4bh4p2rcd13ifvqe0g","pricing_plan_id":"cebpf4jnsgd1na2vs0mg"},{"bike_id":"500b552f-56b8-4b4a-939e-43e5a1336a03","system_id":"levelo_inurba_marseille","lat":43.24663,"lon":5.38166,"is_reserved":false,"is_disabled":false,"rental_uris":{"android":"levelo://app?vid=500b552f-56b8-4b4a-939e-43e5a1336a03","ios":"levelo://app?vid=500b552f-56b8-4b4a-939e-43e5a1336a03"},"vehicle_type_id":"4","last_reported":1744132146,"current_range_meters":3600,"station_id":"ce4bhih2rcd13ifvqfr0","pricing_plan_id":"cebpf4jnsgd1na2vs0mg"},{"bike_id":"5e915f82-a4c1-4e4f-a760-938d066b707c","system_id":"levelo_inurba_marseille","lat":43.28943,"lon":5.36401,"is_reserved":false,"is_disabled":false,"rental_uris":{"android":"levelo://app?vid=5e915f82-a4c1-4e4f-a760-938d066b707c","ios":"levelo://app?vid=5e915f82-a4c1-4e4f-a760-938d066b707c"},"vehicle_type_id":"4","last_reported":1744132146,"current_range_meters":3600,"station_id":"ce4bhc92rcd13ifvqetg","pricing_plan_id":"cebpf4jnsgd1na2vs0mg"},{"bike_id":"aef084df-6e56-446b-a5ed-2e974c0373ad","system_id":"levelo_inurba_marseille","lat":43.28362,"lon":5.38636,"is_reserved":false,"is_disabled":false,"rental_uris":{"android":"levelo://app?vid=aef084df-6e56-446b-a5ed-2e974c0373ad","ios":"levelo://app?vid=aef084df-6e56-446b-a5ed-2e974c0373ad"},"vehicle_type_id":"4","last_reported":1744132146,"current_range_meters":4000,"station_id":"ce4bh492rcd13ifvqdvg","pricing_plan_id":"cebpf4jnsgd1na2vs0mg"},{"bike_id":"6dc857b9-7d5c-408e-aed6-68bfc737751d","system_id":"levelo_inurba_marseille","lat":43.29259,"lon":5.38432,"is_reserved":false,"is_disabled":false,"rental_uris":{"android":"levelo://app?vid=6dc857b9-7d5c-408e-aed6-68bfc737751d","ios":"levelo://app?vid=6dc857b9-7d5c-408e-aed6-68bfc737751d"},"vehicle_type_id":"4","last_reported":1744132146,"current_range_meters":4000,"station_id":"ce4bh692rcd13ifvqea0","pricing_plan_id":"cebpf4jnsgd1na2vs0mg"},{"bike_id":"23c1ebe8-5e45-439d-9fd2-ca3fd925690b","system_id":"levelo_inurba_marseille","lat":43.27083,"lon":5.42266,"is_reserved":false,"is_disabled":false,"rental_uris":{"android":"levelo://app?vid=23c1ebe8-5e45-439d-9fd2-ca3fd925690b","ios":"levelo://app?vid=23c1ebe8-5e45-439d-9fd2-ca3fd925690b"},"vehicle_type_id":"4","last_reported":1744132146,"current_range_meters":4000,"station_id":"ce4bhk92rcd13ifvqgb0","pricing_plan_id":"cebpf4jnsgd1na2vs0mg"},{"bike_id":"85afaff9-e963-4a65-b785-4c14ae025145","system_id":"levelo_inurba_marseille","lat":43.28377,"lon":5.38627,"is_reserved":false,"is_disabled":false,"rental_uris":{"android":"levelo://app?vid=85afaff9-e963-4a65-b785-4c14ae025145","ios":"levelo://app?vid=85afaff9-e963-4a65-b785-4c14ae025145"},"vehicle_type_id":"4","last_reported":1744132146,"current_range_meters":3600,"station_id":"ce4bh492rcd13ifvqdvg","pricing_plan_id":"cebpf4jnsgd1na2vs0mg"},{"bike_id":"7c485db2-a823-48a5-8381-0853f162f011","system_id":"levelo_inurba_marseille","lat":43.274198,"lon":5.394147,"is_reserved":false,"is_disabled":false,"rental_uris":{"android":"levelo://app?vid=7c485db2-a823-48a5-8381-0853f162f011","ios":"levelo://app?vid=7c485db2-a823-48a5-8381-0853f162f011"},"vehicle_type_id":"4","last_reported":1744132146,"current_range_meters":4400,"station_id":"ce4bhdp2rcd13ifvqf20","pricing_plan_id":"cebpf4jnsgd1na2vs0mg"},{"bike_id":"5b6d9dca-0caa-423b-874a-af0d1023f251","system_id":"levelo_inurba_marseille","lat":43.29036,"lon":5.35933,"is_reserved":false,"is_disabled":false,"rental_uris":{"android":"levelo://app?vid=5b6d9dca-0caa-423b-874a-af0d1023f251","ios":"levelo://app?vid=5b6d9dca-0caa-423b-874a-af0d1023f251"},"vehicle_type_id":"4","last_reported":1744132146,"current_range_meters":4400,"station_id":"ce4bha92rcd13ifvqeg0","pricing_plan_id":"cebpf4jnsgd1na2vs0mg"},{"bike_id":"5b79fd17-71c7-46ba-a08e-72b15d99e820","system_id":"levelo_inurba_marseille","lat":43.22503,"lon":5.34812,"is_reserved":false,"is_disabled":true,"rental_uris":{"android":"levelo://app?vid=5b79fd17-71c7-46ba-a08e-72b15d99e820","ios":"levelo://app?vid=5b79fd17-71c7-46ba-a08e-72b15d99e820"},"vehicle_type_id":"4","last_reported":1744132146,"current_range_meters":4400,"station_id":"st_cvj5dfep6f1abm77gieg","pricing_plan_id":"cebpf4jnsgd1na2vs0mg"},{"bike_id":"8c56fc30-b446-4c8f-9e86-24c730ed9b38","system_id":"levelo_inurba_marseille","lat":43.290405,"lon":5.37579,"is_reserved":false,"is_disabled":false,"rental_uris":{"android":"levelo://app?vid=8c56fc30-b446-4c8f-9e86-24c730ed9b38","ios":"levelo://app?vid=8c56fc30-b446-4c8f-9e86-24c730ed9b38"},"vehicle_type_id":"4","last_reported":1744132146,"current_range_meters":4400,"station_id":"ce4bgih2rcd13ifvqba0","pricing_plan_id":"cebpf4jnsgd1na2vs0mg"},{"bike_id":"020572ba-a5aa-440a-b36f-c17175204926","system_id":"levelo_inurba_marseille","lat":43.29538,"lon":5.38532,"is_reserved":false,"is_disabled":false,"rental_uris":{"android":"levelo://app?vid=020572ba-a5aa-440a-b36f-c17175204926","ios":"levelo://app?vid=020572ba-a5aa-440a-b36f-c17175204926"},"vehicle_type_id":"4","last_reported":1744132146,"current_range_meters":4400,"station_id":"ce4bgih2rcd13ifvqba0","pricing_plan_id":"cebpf4jnsgd1na2vs0mg"},{"bike_id":"b95f3cd3-0a5b-40e0-b06e-939996ffefa6","system_id":"levelo_inurba_marseille","lat":43.27815,"lon":5.40714,"is_reserved":false,"is_disabled":true,"rental_uris":{"android":"levelo://app?vid=b95f3cd3-0a5b-40e0-b06e-939996ffefa6","ios":"levelo://app?vid=b95f3cd3-0a5b-40e0-b06e-939996ffefa6"},"vehicle_type_id":"4","last_reported":1744132146,"current_range_meters":4400,"station_id":"ce4bhnh2rcd13ifvqgtg","pricing_plan_id":"cebpf4jnsgd1na2vs0mg"},{"bike_id":"d58063e6-59a0-4216-a73b-856c66264ba0","system_id":"levelo_inurba_marseille","lat":43.30418,"lon":5.41308,"is_reserved":false,"is_disabled":false,"rental_uris":{"android":"levelo://app?vid=d58063e6-59a0-4216-a73b-856c66264ba0","ios":"levelo://app?vid=d58063e6-59a0-4216-a73b-856c66264ba0"},"vehicle_type_id":"4","last_reported":1744132146,"current_range_meters":4400,"station_id":"ce4bhop2rcd13ifvqh8g","pricing_plan_id":"cebpf4jnsgd1na2vs0mg"},{"bike_id":"8bc2cd2e-a51d-4b7f-9138-8b214e78941f","system_id":"levelo_inurba_marseille","lat":43.31081,"lon":5.38358,"is_reserved":false,"is_disabled":false,"rental_uris":{"android":"levelo://app?vid=8bc2cd2e-a51d-4b7f-9138-8b214e78941f","ios":"levelo://app?vid=8bc2cd2e-a51d-4b7f-9138-8b214e78941f"},"vehicle_type_id":"4","last_reported":1744132146,"current_range_meters":4800,"station_id":"ce4bgv92rcd13ifvqcr0","pricing_plan_id":"cebpf4jnsgd1na2vs0mg"},{"bike_id":"8c3a64a9-c47c-4353-865a-4eecac8d7c79","system_id":"levelo_inurba_marseille","lat":43.29518,"lon":5.39393,"is_reserved":false,"is_disabled":false,"rental_uris":{"android":"levelo://app?vid=8c3a64a9-c47c-4353-865a-4eecac8d7c79","ios":"levelo://app?vid=8c3a64a9-c47c-4353-865a-4eecac8d7c79"},"vehicle_type_id":"4","last_reported":1744132146,"current_range_meters":4400,"station_id":"ce4bh292rcd13ifvqdf0","pricing_plan_id":"cebpf4jnsgd1na2vs0mg"},{"bike_id":"7e158114-def0-4066-97b6-1e42407ccad1","system_id":"levelo_inurba_marseille","lat":43.26218,"lon":5.37439,"is_reserved":false,"is_disabled":true,"rental_uris":{"android":"levelo://app?vid=7e158114-def0-4066-97b6-1e42407ccad1","ios":"levelo://app?vid=7e158114-def0-4066-97b6-1e42407ccad1"},"vehicle_type_id":"4","last_reported":1744132146,"current_range_meters":4800,"station_id":"ce4bhgp2rcd13ifvqfc0","pricing_plan_id":"cebpf4jnsgd1na2vs0mg"},{"bike_id":"76dea8df-d5c1-4522-9737-a8494bc03721","system_id":"levelo_inurba_marseille","lat":43.25117,"lon":5.40324,"is_reserved":false,"is_disabled":false,"rental_uris":{"android":"levelo://app?vid=76dea8df-d5c1-4522-9737-a8494bc03721","ios":"levelo://app?vid=76dea8df-d5c1-4522-9737-a8494bc03721"},"vehicle_type_id":"4","last_reported":1744132146,"current_range_meters":4800,"station_id":"ce4bhlh2rcd13ifvqgig","pricing_plan_id":"cebpf4jnsgd1na2vs0mg"},{"bike_id":"28de6e55-3d8d-4193-b713-7d374b032122","system_id":"levelo_inurba_marseille","lat":43.28413,"lon":5.34991,"is_reserved":false,"is_disabled":false,"rental_uris":{"android":"levelo://app?vid=28de6e55-3d8d-4193-b713-7d374b032122","ios":"levelo://app?vid=28de6e55-3d8d-4193-b713-7d374b032122"},"vehicle_type_id":"4","last_reported":1744132146,"current_range_meters":4800,"station_id":"ce4bhbh2rcd13ifvqepg","pricing_plan_id":"cebpf4jnsgd1na2vs0mg"},{"bike_id":"035d7c23-e323-4667-8f98-de16bc887a4f","system_id":"levelo_inurba_marseille","lat":43.273203,"lon":5.362516,"is_reserved":false,"is_disabled":false,"rental_uris":{"android":"levelo://app?vid=035d7c23-e323-4667-8f98-de16bc887a4f","ios":"levelo://app?vid=035d7c23-e323-4667-8f98-de16bc887a4f"},"vehicle_type_id":"4","last_reported":1744132146,"current_range_meters":5600,"station_id":"ce4bh192rcd13ifvqdd0","pricing_plan_id":"cebpf4jnsgd1na2vs0mg"},{"bike_id":"bd65a4aa-ce1d-4b8b-a727-3151bd41caa4","system_id":"levelo_inurba_marseille","lat":43.29536,"lon":5.38549,"is_reserved":false,"is_disabled":false,"rental_uris":{"android":"levelo://app?vid=bd65a4aa-ce1d-4b8b-a727-3151bd41caa4","ios":"levelo://app?vid=bd65a4aa-ce1d-4b8b-a727-3151bd41caa4"},"vehicle_type_id":"4","last_reported":1744132146,"current_range_meters":5600,"station_id":"ce4bgih2rcd13ifvqba0","pricing_plan_id":"cebpf4jnsgd1na2vs0mg"},{"bike_id":"7819c983-ecd6-4063-a1e3-e79453583a4d","system_id":"levelo_inurba_marseille","lat":43.31725,"lon":5.42395,"is_reserved":false,"is_disabled":false,"rental_uris":{"android":"levelo://app?vid=7819c983-ecd6-4063-a1e3-e79453583a4d","ios":"levelo://app?vid=7819c983-ecd6-4063-a1e3-e79453583a4d"},"vehicle_type_id":"4","last_reported":1744132146,"current_range_meters":5600,"station_id":"ce4bhp92rcd13ifvqhbg","pricing_plan_id":"cebpf4jnsgd1na2vs0mg"},{"bike_id":"3e0147d9-05d5-4c43-8728-19287e29524c","system_id":"levelo_inurba_marseille","lat":43.2953,"lon":5.38543,"is_reserved":false,"is_disabled":false,"rental_uris":{"android":"levelo://app?vid=3e0147d9-05d5-4c43-8728-19287e29524c","ios":"levelo://app?vid=3e0147d9-05d5-4c43-8728-19287e29524c"},"vehicle_type_id":"4","last_reported":1744132146,"current_range_meters":5600,"station_id":"ce4bgih2rcd13ifvqba0","pricing_plan_id":"cebpf4jnsgd1na2vs0mg"},{"bike_id":"b5435d74-9117-42ec-bdf8-16f6366708e8","system_id":"levelo_inurba_marseille","lat":43.29533,"lon":5.38535,"is_reserved":false,"is_disabled":false,"rental_uris":{"android":"levelo://app?vid=b5435d74-9117-42ec-bdf8-16f6366708e8","ios":"levelo://app?vid=b5435d74-9117-42ec-bdf8-16f6366708e8"},"vehicle_type_id":"4","last_reported":1744132146,"current_range_meters":5600,"station_id":"ce4bgih2rcd13ifvqba0","pricing_plan_id":"cebpf4jnsgd1na2vs0mg"},{"bike_id":"2c358e51-bff9-4546-8292-76faf7ac33be","system_id":"levelo_inurba_marseille","lat":43.27376,"lon":5.36268,"is_reserved":false,"is_disabled":false,"rental_uris":{"android":"levelo://app?vid=2c358e51-bff9-4546-8292-76faf7ac33be","ios":"levelo://app?vid=2c358e51-bff9-4546-8292-76faf7ac33be"},"vehicle_type_id":"4","last_reported":1744132146,"current_range_meters":5600,"station_id":"ce4bhbh2rcd13ifvqeo0","pricing_plan_id":"cebpf4jnsgd1na2vs0mg"},{"bike_id":"14786e30-d52f-41c9-a0ba-3ac7e868d00c","system_id":"levelo_inurba_marseille","lat":43.28265,"lon":5.35058,"is_reserved":false,"is_disabled":false,"rental_uris":{"android":"levelo://app?vid=14786e30-d52f-41c9-a0ba-3ac7e868d00c","ios":"levelo://app?vid=14786e30-d52f-41c9-a0ba-3ac7e868d00c"},"vehicle_type_id":"4","last_reported":1744132146,"current_range_meters":5600,"station_id":"ce4bhbp2rcd13ifvqerg","pricing_plan_id":"cebpf4jnsgd1na2vs0mg"},{"bike_id":"cc057f14-b1e1-4dee-b107-8741c01c5964","system_id":"levelo_inurba_marseille","lat":43.321158,"lon":5.36789,"is_reserved":false,"is_disabled":true,"rental_uris":{"android":"levelo://app?vid=cc057f14-b1e1-4dee-b107-8741c01c5964","ios":"levelo://app?vid=cc057f14-b1e1-4dee-b107-8741c01c5964"},"vehicle_type_id":"4","last_reported":1744132146,"current_range_meters":5600,"station_id":"ce4bhrh2rcd13ifvqhug","pricing_plan_id":"cebpf4jnsgd1na2vs0mg"},{"bike_id":"809cadfd-d9c6-4c22-889b-af5f4b1c725c","system_id":"levelo_inurba_marseille","lat":43.28652,"lon":5.3514,"is_reserved":false,"is_disabled":false,"rental_uris":{"android":"levelo://app?vid=809cadfd-d9c6-4c22-889b-af5f4b1c725c","ios":"levelo://app?vid=809cadfd-d9c6-4c22-889b-af5f4b1c725c"},"vehicle_type_id":"4","last_reported":1744132146,"current_range_meters":6000,"station_id":"ce4bhch2rcd13ifvqeug","pricing_plan_id":"cebpf4jnsgd1na2vs0mg"},{"bike_id":"67800b66-a175-414a-b634-cc5af04876e7","system_id":"levelo_inurba_marseille","lat":43.28859,"lon":5.35857,"is_reserved":false,"is_disabled":false,"rental_uris":{"android":"levelo://app?vid=67800b66-a175-414a-b634-cc5af04876e7","ios":"levelo://app?vid=67800b66-a175-414a-b634-cc5af04876e7"},"vehicle_type_id":"4","last_reported":1744132146,"current_range_meters":6000,"station_id":"ce4bhb12rcd13ifvqem0","pricing_plan_id":"cebpf4jnsgd1na2vs0mg"},{"bike_id":"252e6c12-3e63-49da-b6ab-9d85406b6d2d","system_id":"levelo_inurba_marseille","lat":43.28412,"lon":5.34972,"is_reserved":false,"is_disabled":false,"rental_uris":{"android":"levelo://app?vid=252e6c12-3e63-49da-b6ab-9d85406b6d2d","ios":"levelo://app?vid=252e6c12-3e63-49da-b6ab-9d85406b6d2d"},"vehicle_type_id":"4","last_reported":1744132146,"current_range_meters":6000,"station_id":"ce4bhbh2rcd13ifvqepg","pricing_plan_id":"cebpf4jnsgd1na2vs0mg"},{"bike_id":"13be73e1-390c-4dad-a91b-51e2eb5c28cb","system_id":"levelo_inurba_marseille","lat":43.28268,"lon":5.35062,"is_reserved":false,"is_disabled":false,"rental_uris":{"android":"levelo://app?vid=13be73e1-390c-4dad-a91b-51e2eb5c28cb","ios":"levelo://app?vid=13be73e1-390c-4dad-a91b-51e2eb5c28cb"},"vehicle_type_id":"4","last_reported":1744132146,"current_range_meters":6000,"station_id":"ce4bhbp2rcd13ifvqerg","pricing_plan_id":"cebpf4jnsgd1na2vs0mg"},{"bike_id":"87bda883-ac94-49fc-94c2-3a86e52b4f97","system_id":"levelo_inurba_marseille","lat":43.30714,"lon":5.38349,"is_reserved":false,"is_disabled":false,"rental_uris":{"android":"levelo://app?vid=87bda883-ac94-49fc-94c2-3a86e52b4f97","ios":"levelo://app?vid=87bda883-ac94-49fc-94c2-3a86e52b4f97"},"vehicle_type_id":"4","last_reported":1744132146,"current_range_meters":6000,"station_id":"","pricing_plan_id":"cebpf4jnsgd1na2vs0mg"},{"bike_id":"6702b04f-cbab-4f8a-8bb7-bc1f2994a696","system_id":"levelo_inurba_marseille","lat":43.28431,"lon":5.37515,"is_reserved":false,"is_disabled":false,"rental_uris":{"android":"levelo://app?vid=6702b04f-cbab-4f8a-8bb7-bc1f2994a696","ios":"levelo://app?vid=6702b04f-cbab-4f8a-8bb7-bc1f2994a696"},"vehicle_type_id":"4","last_reported":1744132146,"current_range_meters":6000,"station_id":"ce4bh412rcd13ifvqds0","pricing_plan_id":"cebpf4jnsgd1na2vs0mg"},{"bike_id":"7e74df95-e6bd-42d9-aa83-3803dd36dd29","system_id":"levelo_inurba_marseille","lat":43.2893,"lon":5.38389,"is_reserved":false,"is_disabled":false,"rental_uris":{"android":"levelo://app?vid=7e74df95-e6bd-42d9-aa83-3803dd36dd29","ios":"levelo://app?vid=7e74df95-e6bd-42d9-aa83-3803dd36dd29"},"vehicle_type_id":"4","last_reported":1744132146,"current_range_meters":6000,"station_id":"ce4bh612rcd13ifvqe6g","pricing_plan_id":"cebpf4jnsgd1na2vs0mg"},{"bike_id":"159779cf-52bd-4b36-a130-092d2c35fb4d","system_id":"levelo_inurba_marseille","lat":43.27392,"lon":5.36259,"is_reserved":false,"is_disabled":false,"rental_uris":{"android":"levelo://app?vid=159779cf-52bd-4b36-a130-092d2c35fb4d","ios":"levelo://app?vid=159779cf-52bd-4b36-a130-092d2c35fb4d"},"vehicle_type_id":"4","last_reported":1744132146,"current_range_meters":6400,"station_id":"ce4bhbh2rcd13ifvqeo0","pricing_plan_id":"cebpf4jnsgd1na2vs0mg"},{"bike_id":"ca84a181-cc0f-482a-9cb0-425031a72bab","system_id":"levelo_inurba_marseille","lat":43.30808,"lon":5.3814,"is_reserved":false,"is_disabled":false,"rental_uris":{"android":"levelo://app?vid=ca84a181-cc0f-482a-9cb0-425031a72bab","ios":"levelo://app?vid=ca84a181-cc0f-482a-9cb0-425031a72bab"},"vehicle_type_id":"4","last_reported":1744132146,"current_range_meters":6400,"station_id":"ce4bgt12rcd13ifvqce0","pricing_plan_id":"cebpf4jnsgd1na2vs0mg"},{"bike_id":"52bb4546-a44a-4a99-ad8f-4417c26107a2","system_id":"levelo_inurba_marseille","lat":43.28938,"lon":5.39633,"is_reserved":false,"is_disabled":false,"rental_uris":{"android":"levelo://app?vid=52bb4546-a44a-4a99-ad8f-4417c26107a2","ios":"levelo://app?vid=52bb4546-a44a-4a99-ad8f-4417c26107a2"},"vehicle_type_id":"4","last_reported":1744132146,"current_range_meters":6400,"station_id":"ce4bh3h2rcd13ifvqdn0","pricing_plan_id":"cebpf4jnsgd1na2vs0mg"},{"bike_id":"095b0a3d-4e82-45c5-9411-919ef9545a2e","system_id":"levelo_inurba_marseille","lat":43.2886,"lon":5.35848,"is_reserved":false,"is_disabled":false,"rental_uris":{"android":"levelo://app?vid=095b0a3d-4e82-45c5-9411-919ef9545a2e","ios":"levelo://app?vid=095b0a3d-4e82-45c5-9411-919ef9545a2e"},"vehicle_type_id":"4","last_reported":1744132146,"current_range_meters":6400,"station_id":"ce4bhb12rcd13ifvqem0","pricing_plan_id":"cebpf4jnsgd1na2vs0mg"},{"bike_id":"d11b34d0-b1c4-4636-a982-319b870ae552","system_id":"levelo_inurba_marseille","lat":43.284668,"lon":5.384247,"is_reserved":false,"is_disabled":false,"rental_uris":{"android":"levelo://app?vid=d11b34d0-b1c4-4636-a982-319b870ae552","ios":"levelo://app?vid=d11b34d0-b1c4-4636-a982-319b870ae552"},"vehicle_type_id":"4","last_reported":1744132146,"current_range_meters":6400,"station_id":"ce4bh512rcd13ifvqe3g","pricing_plan_id":"cebpf4jnsgd1na2vs0mg"},{"bike_id":"a5a3b1e0-74c4-483a-bc6d-25e78d47fd62","system_id":"levelo_inurba_marseille","lat":43.28462,"lon":5.3589,"is_reserved":false,"is_disabled":false,"rental_uris":{"android":"levelo://app?vid=a5a3b1e0-74c4-483a-bc6d-25e78d47fd62","ios":"levelo://app?vid=a5a3b1e0-74c4-483a-bc6d-25e78d47fd62"},"vehicle_type_id":"4","last_reported":1744132146,"current_range_meters":6400,"station_id":"ce4bhah2rcd13ifvqei0","pricing_plan_id":"cebpf4jnsgd1na2vs0mg"},{"bike_id":"ebee4a3a-d966-4efc-8539-cb5f81f13eb0","system_id":"levelo_inurba_marseille","lat":43.250276,"lon":5.388754,"is_reserved":false,"is_disabled":false,"rental_uris":{"android":"levelo://app?vid=ebee4a3a-d966-4efc-8539-cb5f81f13eb0","ios":"levelo://app?vid=ebee4a3a-d966-4efc-8539-cb5f81f13eb0"},"vehicle_type_id":"4","last_reported":1744132146,"current_range_meters":6800,"station_id":"ce4bhgp2rcd13ifvqfd0","pricing_plan_id":"cebpf4jnsgd1na2vs0mg"},{"bike_id":"f559ef9e-22f2-4437-ad7c-a40a94731b3c","system_id":"levelo_inurba_marseille","lat":43.31268,"lon":5.4017,"is_reserved":false,"is_disabled":false,"rental_uris":{"android":"levelo://app?vid=f559ef9e-22f2-4437-ad7c-a40a94731b3c","ios":"levelo://app?vid=f559ef9e-22f2-4437-ad7c-a40a94731b3c"},"vehicle_type_id":"4","last_reported":1744132146,"current_range_meters":6800,"station_id":"ce4bh092rcd13ifvqd30","pricing_plan_id":"cebpf4jnsgd1na2vs0mg"},{"bike_id":"1f2f6228-74ea-422a-b195-b7d1a28d01fe","system_id":"levelo_inurba_marseille","lat":43.2953,"lon":5.38548,"is_reserved":false,"is_disabled":false,"rental_uris":{"android":"levelo://app?vid=1f2f6228-74ea-422a-b195-b7d1a28d01fe","ios":"levelo://app?vid=1f2f6228-74ea-422a-b195-b7d1a28d01fe"},"vehicle_type_id":"4","last_reported":1744132146,"current_range_meters":6800,"station_id":"ce4bgih2rcd13ifvqba0","pricing_plan_id":"cebpf4jnsgd1na2vs0mg"},{"bike_id":"b7240a4b-48f4-4a68-8f21-64c492c28cf3","system_id":"levelo_inurba_marseille","lat":43.28474,"lon":5.38406,"is_reserved":false,"is_disabled":false,"rental_uris":{"android":"levelo://app?vid=b7240a4b-48f4-4a68-8f21-64c492c28cf3","ios":"levelo://app?vid=b7240a4b-48f4-4a68-8f21-64c492c28cf3"},"vehicle_type_id":"4","last_reported":1744132146,"current_range_meters":6800,"station_id":"ce4bh512rcd13ifvqe3g","pricing_plan_id":"cebpf4jnsgd1na2vs0mg"},{"bike_id":"13976762-fe06-4c69-a05c-f98ad49cb1e4","system_id":"levelo_inurba_marseille","lat":43.29006,"lon":5.35604,"is_reserved":false,"is_disabled":false,"rental_uris":{"android":"levelo://app?vid=13976762-fe06-4c69-a05c-f98ad49cb1e4","ios":"levelo://app?vid=13976762-fe06-4c69-a05c-f98ad49cb1e4"},"vehicle_type_id":"4","last_reported":1744132146,"current_range_meters":6800,"station_id":"ce4bhb92rcd13ifvqen0","pricing_plan_id":"cebpf4jnsgd1na2vs0mg"},{"bike_id":"4b8dddbd-4a73-4c7c-a615-40a931cd78e8","system_id":"levelo_inurba_marseille","lat":43.25072,"lon":5.39542,"is_reserved":false,"is_disabled":false,"rental_uris":{"android":"levelo://app?vid=4b8dddbd-4a73-4c7c-a615-40a931cd78e8","ios":"levelo://app?vid=4b8dddbd-4a73-4c7c-a615-40a931cd78e8"},"vehicle_type_id":"4","last_reported":1744132146,"current_range_meters":7200,"station_id":"ce4bhm12rcd13ifvqgkg","pricing_plan_id":"cebpf4jnsgd1na2vs0mg"},{"bike_id":"73948350-f656-45a4-915d-809cae2ac447","system_id":"levelo_inurba_marseille","lat":43.251334,"lon":5.375635,"is_reserved":false,"is_disabled":false,"rental_uris":{"android":"levelo://app?vid=73948350-f656-45a4-915d-809cae2ac447","ios":"levelo://app?vid=73948350-f656-45a4-915d-809cae2ac447"},"vehicle_type_id":"4","last_reported":1744132146,"current_range_meters":7200,"station_id":"ce4bhgh2rcd13ifvqfb0","pricing_plan_id":"cebpf4jnsgd1na2vs0mg"},{"bike_id":"faed10aa-f469-4f37-8c4a-89065619cc9b","system_id":"levelo_inurba_marseille","lat":43.28664,"lon":5.36362,"is_reserved":false,"is_disabled":false,"rental_uris":{"android":"levelo://app?vid=faed10aa-f469-4f37-8c4a-89065619cc9b","ios":"levelo://app?vid=faed10aa-f469-4f37-8c4a-89065619cc9b"},"vehicle_type_id":"4","last_reported":1744132146,"current_range_meters":7200,"station_id":"ce4bhah2rcd13ifvqej0","pricing_plan_id":"cebpf4jnsgd1na2vs0mg"},{"bike_id":"7d72cc5d-40d0-423c-8e08-8d65df7edc8a","system_id":"levelo_inurba_marseille","lat":43.28439,"lon":5.39195,"is_reserved":false,"is_disabled":false,"rental_uris":{"android":"levelo://app?vid=7d72cc5d-40d0-423c-8e08-8d65df7edc8a","ios":"levelo://app?vid=7d72cc5d-40d0-423c-8e08-8d65df7edc8a"},"vehicle_type_id":"4","last_reported":1744132146,"current_range_meters":7200,"station_id":"ce4bhoh2rcd13ifvqh5g","pricing_plan_id":"cebpf4jnsgd1na2vs0mg"},{"bike_id":"a2bc1534-fa4c-44c0-9bf1-e145e671d810","system_id":"levelo_inurba_marseille","lat":43.30325,"lon":5.40071,"is_reserved":false,"is_disabled":false,"rental_uris":{"android":"levelo://app?vid=a2bc1534-fa4c-44c0-9bf1-e145e671d810","ios":"levelo://app?vid=a2bc1534-fa4c-44c0-9bf1-e145e671d810"},"vehicle_type_id":"4","last_reported":1744132146,"current_range_meters":7200,"station_id":"","pricing_plan_id":"cebpf4jnsgd1na2vs0mg"},{"bike_id":"95e4d341-aa1d-45d3-97d4-58ce3861535b","system_id":"levelo_inurba_marseille","lat":43.21196,"lon":5.35088,"is_reserved":false,"is_disabled":true,"rental_uris":{"android":"levelo://app?vid=95e4d341-aa1d-45d3-97d4-58ce3861535b","ios":"levelo://app?vid=95e4d341-aa1d-45d3-97d4-58ce3861535b"},"vehicle_type_id":"4","last_reported":1744132146,"current_range_meters":7200,"station_id":"","pricing_plan_id":"cebpf4jnsgd1na2vs0mg"},{"bike_id":"14beac6a-b60c-44ce-b661-1aafeddb42ec","system_id":"levelo_inurba_marseille","lat":43.27503,"lon":5.42453,"is_reserved":false,"is_disabled":false,"rental_uris":{"android":"levelo://app?vid=14beac6a-b60c-44ce-b661-1aafeddb42ec","ios":"levelo://app?vid=14beac6a-b60c-44ce-b661-1aafeddb42ec"},"vehicle_type_id":"4","last_reported":1744132146,"current_range_meters":7200,"station_id":"ce4bhn92rcd13ifvqgrg","pricing_plan_id":"cebpf4jnsgd1na2vs0mg"},{"bike_id":"e2b59902-6359-4dca-bc19-3e3e3e41aed4","system_id":"levelo_inurba_marseille","lat":43.24799,"lon":5.37444,"is_reserved":false,"is_disabled":true,"rental_uris":{"android":"levelo://app?vid=e2b59902-6359-4dca-bc19-3e3e3e41aed4","ios":"levelo://app?vid=e2b59902-6359-4dca-bc19-3e3e3e41aed4"},"vehicle_type_id":"4","last_reported":1744132146,"current_range_meters":8000,"station_id":"ce4bhgh2rcd13ifvqfb0","pricing_plan_id":"cebpf4jnsgd1na2vs0mg"},{"bike_id":"36d31c45-6bd8-46c0-9300-dabcdb177996","system_id":"levelo_inurba_marseille","lat":43.287134,"lon":5.379286,"is_reserved":false,"is_disabled":false,"rental_uris":{"android":"levelo://app?vid=36d31c45-6bd8-46c0-9300-dabcdb177996","ios":"levelo://app?vid=36d31c45-6bd8-46c0-9300-dabcdb177996"},"vehicle_type_id":"4","last_reported":1744132146,"current_range_meters":8000,"station_id":"ce4bh9p2rcd13ifvqec0","pricing_plan_id":"cebpf4jnsgd1na2vs0mg"},{"bike_id":"bd4bc5c5-5592-4fbd-9f6f-e36bc72c85c5","system_id":"levelo_inurba_marseille","lat":43.29298,"lon":5.37463,"is_reserved":false,"is_disabled":false,"rental_uris":{"android":"levelo://app?vid=bd4bc5c5-5592-4fbd-9f6f-e36bc72c85c5","ios":"levelo://app?vid=bd4bc5c5-5592-4fbd-9f6f-e36bc72c85c5"},"vehicle_type_id":"4","last_reported":1744132146,"current_range_meters":8000,"station_id":"ce4bgi12rcd13ifvqb70","pricing_plan_id":"cebpf4jnsgd1na2vs0mg"},{"bike_id":"a6fe96b3-9a4b-42d5-9844-f579b59c6d83","system_id":"levelo_inurba_marseille","lat":43.25062,"lon":5.395,"is_reserved":false,"is_disabled":false,"rental_uris":{"android":"levelo://app?vid=a6fe96b3-9a4b-42d5-9844-f579b59c6d83","ios":"levelo://app?vid=a6fe96b3-9a4b-42d5-9844-f579b59c6d83"},"vehicle_type_id":"4","last_reported":1744132146,"current_range_meters":8000,"station_id":"ce4bhm12rcd13ifvqgkg","pricing_plan_id":"cebpf4jnsgd1na2vs0mg"},{"bike_id":"459fbb74-7e1e-46ff-8116-96f6b619525d","system_id":"levelo_inurba_marseille","lat":43.30324,"lon":5.40434,"is_reserved":false,"is_disabled":false,"rental_uris":{"android":"levelo://app?vid=459fbb74-7e1e-46ff-8116-96f6b619525d","ios":"levelo://app?vid=459fbb74-7e1e-46ff-8116-96f6b619525d"},"vehicle_type_id":"4","last_reported":1744132146,"current_range_meters":8000,"station_id":"ce4bh012rcd13ifvqd10","pricing_plan_id":"cebpf4jnsgd1na2vs0mg"},{"bike_id":"55dc4da1-c460-470f-a2f0-571e88492fdf","system_id":"levelo_inurba_marseille","lat":43.3026,"lon":5.40055,"is_reserved":false,"is_disabled":false,"rental_uris":{"android":"levelo://app?vid=55dc4da1-c460-470f-a2f0-571e88492fdf","ios":"levelo://app?vid=55dc4da1-c460-470f-a2f0-571e88492fdf"},"vehicle_type_id":"4","last_reported":1744132146,"current_range_meters":8000,"station_id":"ce4bgvh2rcd13ifvqcs0","pricing_plan_id":"cebpf4jnsgd1na2vs0mg"},{"bike_id":"ecef8e9e-03dc-4612-b74e-b978f92e2873","system_id":"levelo_inurba_marseille","lat":43.30098,"lon":5.39126,"is_reserved":false,"is_disabled":true,"rental_uris":{"android":"levelo://app?vid=ecef8e9e-03dc-4612-b74e-b978f92e2873","ios":"levelo://app?vid=ecef8e9e-03dc-4612-b74e-b978f92e2873"},"vehicle_type_id":"4","last_reported":1744132146,"current_range_meters":8000,"station_id":"ce4bh192rcd13ifvqdb0","pricing_plan_id":"cebpf4jnsgd1na2vs0mg"},{"bike_id":"4964b241-49e9-48d2-a853-e3f2b9344087","system_id":"levelo_inurba_marseille","lat":43.29531,"lon":5.38552,"is_reserved":false,"is_disabled":false,"rental_uris":{"android":"levelo://app?vid=4964b241-49e9-48d2-a853-e3f2b9344087","ios":"levelo://app?vid=4964b241-49e9-48d2-a853-e3f2b9344087"},"vehicle_type_id":"4","last_reported":1744132146,"current_range_meters":8000,"station_id":"ce4bgih2rcd13ifvqba0","pricing_plan_id":"cebpf4jnsgd1na2vs0mg"},{"bike_id":"c93b6376-f011-48a2-b5ee-7f78a090db4b","system_id":"levelo_inurba_marseille","lat":43.260284,"lon":5.375491,"is_reserved":false,"is_disabled":false,"rental_uris":{"android":"levelo://app?vid=c93b6376-f011-48a2-b5ee-7f78a090db4b","ios":"levelo://app?vid=c93b6376-f011-48a2-b5ee-7f78a090db4b"},"vehicle_type_id":"4","last_reported":1744132146,"current_range_meters":7200,"station_id":"ce4bhgh2rcd13ifvqfa0","pricing_plan_id":"cebpf4jnsgd1na2vs0mg"},{"bike_id":"a0c96c7e-3e1f-4900-a614-78c63f115acd","system_id":"levelo_inurba_marseille","lat":43.26039,"lon":5.37535,"is_reserved":false,"is_disabled":false,"rental_uris":{"android":"levelo://app?vid=a0c96c7e-3e1f-4900-a614-78c63f115acd","ios":"levelo://app?vid=a0c96c7e-3e1f-4900-a614-78c63f115acd"},"vehicle_type_id":"4","last_reported":1744132146,"current_range_meters":8000,"station_id":"ce4bhgh2rcd13ifvqfa0","pricing_plan_id":"cebpf4jnsgd1na2vs0mg"},{"bike_id":"f39be6f5-2f69-4c37-b021-559d20b299a4","system_id":"levelo_inurba_marseille","lat":43.30008,"lon":5.37641,"is_reserved":false,"is_disabled":false,"rental_uris":{"android":"levelo://app?vid=f39be6f5-2f69-4c37-b021-559d20b299a4","ios":"levelo://app?vid=f39be6f5-2f69-4c37-b021-559d20b299a4"},"vehicle_type_id":"4","last_reported":1744132146,"current_range_meters":8000,"station_id":"","pricing_plan_id":"cebpf4jnsgd1na2vs0mg"},{"bike_id":"a2d46cb9-9eeb-44f6-ab18-0e5c210fd7b5","system_id":"levelo_inurba_marseille","lat":43.28926,"lon":5.36644,"is_reserved":false,"is_disabled":true,"rental_uris":{"android":"levelo://app?vid=a2d46cb9-9eeb-44f6-ab18-0e5c210fd7b5","ios":"levelo://app?vid=a2d46cb9-9eeb-44f6-ab18-0e5c210fd7b5"},"vehicle_type_id":"4","last_reported":1744132146,"current_range_meters":8000,"station_id":"ce4bhap2rcd13ifvqek0","pricing_plan_id":"cebpf4jnsgd1na2vs0mg"},{"bike_id":"d25a6475-ec8e-4ab9-a32b-fa73293f74eb","system_id":"levelo_inurba_marseille","lat":43.24803,"lon":5.3745,"is_reserved":false,"is_disabled":false,"rental_uris":{"android":"levelo://app?vid=d25a6475-ec8e-4ab9-a32b-fa73293f74eb","ios":"levelo://app?vid=d25a6475-ec8e-4ab9-a32b-fa73293f74eb"},"vehicle_type_id":"4","last_reported":1744132146,"current_range_meters":8000,"station_id":"ce4bhgh2rcd13ifvqfb0","pricing_plan_id":"cebpf4jnsgd1na2vs0mg"},{"bike_id":"56432a72-5f38-4ffe-919e-121cfb11a3be","system_id":"levelo_inurba_marseille","lat":43.29268,"lon":5.38435,"is_reserved":false,"is_disabled":false,"rental_uris":{"android":"levelo://app?vid=56432a72-5f38-4ffe-919e-121cfb11a3be","ios":"levelo://app?vid=56432a72-5f38-4ffe-919e-121cfb11a3be"},"vehicle_type_id":"4","last_reported":1744132146,"current_range_meters":8400,"station_id":"ce4bh692rcd13ifvqea0","pricing_plan_id":"cebpf4jnsgd1na2vs0mg"},{"bike_id":"3576b946-70b3-456f-a60a-d98e227f015c","system_id":"levelo_inurba_marseille","lat":43.30084,"lon":5.38263,"is_reserved":false,"is_disabled":false,"rental_uris":{"android":"levelo://app?vid=3576b946-70b3-456f-a60a-d98e227f015c","ios":"levelo://app?vid=3576b946-70b3-456f-a60a-d98e227f015c"},"vehicle_type_id":"4","last_reported":1744132146,"current_range_meters":8400,"station_id":"ce4bgup2rcd13ifvqcn0","pricing_plan_id":"cebpf4jnsgd1na2vs0mg"},{"bike_id":"02f5f556-9aca-41a9-928c-e217b6392b4b","system_id":"levelo_inurba_marseille","lat":43.31827,"lon":5.43511,"is_reserved":false,"is_disabled":false,"rental_uris":{"android":"levelo://app?vid=02f5f556-9aca-41a9-928c-e217b6392b4b","ios":"levelo://app?vid=02f5f556-9aca-41a9-928c-e217b6392b4b"},"vehicle_type_id":"4","last_reported":1744132146,"current_range_meters":8400,"station_id":"","pricing_plan_id":"cebpf4jnsgd1na2vs0mg"},{"bike_id":"75ba6115-496c-4bb3-9d43-dc0a1593e399","system_id":"levelo_inurba_marseille","lat":43.29312,"lon":5.37184,"is_reserved":false,"is_disabled":false,"rental_uris":{"android":"levelo://app?vid=75ba6115-496c-4bb3-9d43-dc0a1593e399","ios":"levelo://app?vid=75ba6115-496c-4bb3-9d43-dc0a1593e399"},"vehicle_type_id":"4","last_reported":1744132146,"current_range_meters":8400,"station_id":"ce4bgh92rcd13ifvqb40","pricing_plan_id":"cebpf4jnsgd1na2vs0mg"},{"bike_id":"e59051cf-599d-44e5-b103-bcfbd325bed4","system_id":"levelo_inurba_marseille","lat":43.2862,"lon":5.35106,"is_reserved":false,"is_disabled":false,"rental_uris":{"android":"levelo://app?vid=e59051cf-599d-44e5-b103-bcfbd325bed4","ios":"levelo://app?vid=e59051cf-599d-44e5-b103-bcfbd325bed4"},"vehicle_type_id":"4","last_reported":1744132146,"current_range_meters":8400,"station_id":"ce4bhch2rcd13ifvqeug","pricing_plan_id":"cebpf4jnsgd1na2vs0mg"},{"bike_id":"39565443-0c12-46d1-9e76-98c988609e4b","system_id":"levelo_inurba_marseille","lat":43.28858,"lon":5.35846,"is_reserved":false,"is_disabled":false,"rental_uris":{"android":"levelo://app?vid=39565443-0c12-46d1-9e76-98c988609e4b","ios":"levelo://app?vid=39565443-0c12-46d1-9e76-98c988609e4b"},"vehicle_type_id":"4","last_reported":1744132146,"current_range_meters":8400,"station_id":"ce4bhb12rcd13ifvqem0","pricing_plan_id":"cebpf4jnsgd1na2vs0mg"},{"bike_id":"8391fb49-d5d7-4cb2-afbd-9565f53dad12","system_id":"levelo_inurba_marseille","lat":43.28662,"lon":5.36362,"is_reserved":false,"is_disabled":false,"rental_uris":{"android":"levelo://app?vid=8391fb49-d5d7-4cb2-afbd-9565f53dad12","ios":"levelo://app?vid=8391fb49-d5d7-4cb2-afbd-9565f53dad12"},"vehicle_type_id":"4","last_reported":1744132146,"current_range_meters":8400,"station_id":"ce4bhah2rcd13ifvqej0","pricing_plan_id":"cebpf4jnsgd1na2vs0mg"},{"bike_id":"b2092001-7faa-474d-a975-51c57fda7c61","system_id":"levelo_inurba_marseille","lat":43.28722,"lon":5.37926,"is_reserved":false,"is_disabled":false,"rental_uris":{"android":"levelo://app?vid=b2092001-7faa-474d-a975-51c57fda7c61","ios":"levelo://app?vid=b2092001-7faa-474d-a975-51c57fda7c61"},"vehicle_type_id":"4","last_reported":1744132146,"current_range_meters":8400,"station_id":"ce4bh9p2rcd13ifvqec0","pricing_plan_id":"cebpf4jnsgd1na2vs0mg"},{"bike_id":"a060b497-2f77-4226-9955-ab275acaa2c5","system_id":"levelo_inurba_marseille","lat":43.28851,"lon":5.35863,"is_reserved":false,"is_disabled":false,"rental_uris":{"android":"levelo://app?vid=a060b497-2f77-4226-9955-ab275acaa2c5","ios":"levelo://app?vid=a060b497-2f77-4226-9955-ab275acaa2c5"},"vehicle_type_id":"4","last_reported":1744132146,"current_range_meters":8400,"station_id":"ce4bhb12rcd13ifvqem0","pricing_plan_id":"cebpf4jnsgd1na2vs0mg"},{"bike_id":"a1214fb6-ec32-4f6d-b480-2c868d210d82","system_id":"levelo_inurba_marseille","lat":43.23231,"lon":5.35543,"is_reserved":false,"is_disabled":false,"rental_uris":{"android":"levelo://app?vid=a1214fb6-ec32-4f6d-b480-2c868d210d82","ios":"levelo://app?vid=a1214fb6-ec32-4f6d-b480-2c868d210d82"},"vehicle_type_id":"4","last_reported":1744132146,"current_range_meters":8400,"station_id":"ce4bhu92rcd13ifvqi70","pricing_plan_id":"cebpf4jnsgd1na2vs0mg"},{"bike_id":"371ad84f-6364-46ba-8052-de0026a42c16","system_id":"levelo_inurba_marseille","lat":43.28857,"lon":5.3585,"is_reserved":false,"is_disabled":false,"rental_uris":{"android":"levelo://app?vid=371ad84f-6364-46ba-8052-de0026a42c16","ios":"levelo://app?vid=371ad84f-6364-46ba-8052-de0026a42c16"},"vehicle_type_id":"4","last_reported":1744132146,"current_range_meters":8400,"station_id":"ce4bhb12rcd13ifvqem0","pricing_plan_id":"cebpf4jnsgd1na2vs0mg"},{"bike_id":"2e9000dc-6400-4918-a994-dd60039ca96d","system_id":"levelo_inurba_marseille","lat":43.32013,"lon":5.38153,"is_reserved":false,"is_disabled":true,"rental_uris":{"android":"levelo://app?vid=2e9000dc-6400-4918-a994-dd60039ca96d","ios":"levelo://app?vid=2e9000dc-6400-4918-a994-dd60039ca96d"},"vehicle_type_id":"4","last_reported":1744132146,"current_range_meters":8400,"station_id":"ce4bhr12rcd13ifvqhpg","pricing_plan_id":"cebpf4jnsgd1na2vs0mg"},{"bike_id":"82f28cf6-556c-431d-a12b-bd3ce5fc2f28","system_id":"levelo_inurba_marseille","lat":43.27496,"lon":5.37773,"is_reserved":false,"is_disabled":false,"rental_uris":{"android":"levelo://app?vid=82f28cf6-556c-431d-a12b-bd3ce5fc2f28","ios":"levelo://app?vid=82f28cf6-556c-431d-a12b-bd3ce5fc2f28"},"vehicle_type_id":"4","last_reported":1744132146,"current_range_meters":8800,"station_id":"","pricing_plan_id":"cebpf4jnsgd1na2vs0mg"},{"bike_id":"6788d942-c7a7-4398-83f9-96b814ec7bb5","system_id":"levelo_inurba_marseille","lat":43.28462,"lon":5.35891,"is_reserved":false,"is_disabled":false,"rental_uris":{"android":"levelo://app?vid=6788d942-c7a7-4398-83f9-96b814ec7bb5","ios":"levelo://app?vid=6788d942-c7a7-4398-83f9-96b814ec7bb5"},"vehicle_type_id":"4","last_reported":1744132146,"current_range_meters":8800,"station_id":"ce4bhah2rcd13ifvqei0","pricing_plan_id":"cebpf4jnsgd1na2vs0mg"},{"bike_id":"49b5b449-0414-42f8-89c2-1949e69312b5","system_id":"levelo_inurba_marseille","lat":43.25657,"lon":5.376808,"is_reserved":false,"is_disabled":false,"rental_uris":{"android":"levelo://app?vid=49b5b449-0414-42f8-89c2-1949e69312b5","ios":"levelo://app?vid=49b5b449-0414-42f8-89c2-1949e69312b5"},"vehicle_type_id":"4","last_reported":1744132146,"current_range_meters":8800,"station_id":"ce4bhgh2rcd13ifvqfb0","pricing_plan_id":"cebpf4jnsgd1na2vs0mg"},{"bike_id":"70810d3e-9936-4863-b211-84f880613e88","system_id":"levelo_inurba_marseille","lat":43.31279,"lon":5.37331,"is_reserved":false,"is_disabled":false,"rental_uris":{"android":"levelo://app?vid=70810d3e-9936-4863-b211-84f880613e88","ios":"levelo://app?vid=70810d3e-9936-4863-b211-84f880613e88"},"vehicle_type_id":"4","last_reported":1744132146,"current_range_meters":9200,"station_id":"","pricing_plan_id":"cebpf4jnsgd1na2vs0mg"},{"bike_id":"fa95498d-ef32-49d4-bc1c-53627fe0b5fe","system_id":"levelo_inurba_marseille","lat":43.28854,"lon":5.35843,"is_reserved":false,"is_disabled":false,"rental_uris":{"android":"levelo://app?vid=fa95498d-ef32-49d4-bc1c-53627fe0b5fe","ios":"levelo://app?vid=fa95498d-ef32-49d4-bc1c-53627fe0b5fe"},"vehicle_type_id":"4","last_reported":1744132146,"current_range_meters":8800,"station_id":"ce4bhb12rcd13ifvqem0","pricing_plan_id":"cebpf4jnsgd1na2vs0mg"},{"bike_id":"05ebd012-a397-44d6-8d3a-b4fd8a759a09","system_id":"levelo_inurba_marseille","lat":43.30799,"lon":5.43528,"is_reserved":false,"is_disabled":false,"rental_uris":{"android":"levelo://app?vid=05ebd012-a397-44d6-8d3a-b4fd8a759a09","ios":"levelo://app?vid=05ebd012-a397-44d6-8d3a-b4fd8a759a09"},"vehicle_type_id":"4","last_reported":1744132146,"current_range_meters":8800,"station_id":"ce4bhph2rcd13ifvqheg","pricing_plan_id":"cebpf4jnsgd1na2vs0mg"},{"bike_id":"b1cbed1e-0536-471a-b4c1-447cb7965bb6","system_id":"levelo_inurba_marseille","lat":43.3229,"lon":5.38273,"is_reserved":false,"is_disabled":false,"rental_uris":{"android":"levelo://app?vid=b1cbed1e-0536-471a-b4c1-447cb7965bb6","ios":"levelo://app?vid=b1cbed1e-0536-471a-b4c1-447cb7965bb6"},"vehicle_type_id":"4","last_reported":1744132146,"current_range_meters":8800,"station_id":"ce4bhr12rcd13ifvqhqg","pricing_plan_id":"cebpf4jnsgd1na2vs0mg"},{"bike_id":"dff0c398-5457-4c82-99b9-071db8607d47","system_id":"levelo_inurba_marseille","lat":43.25697,"lon":5.41957,"is_reserved":false,"is_disabled":false,"rental_uris":{"android":"levelo://app?vid=dff0c398-5457-4c82-99b9-071db8607d47","ios":"levelo://app?vid=dff0c398-5457-4c82-99b9-071db8607d47"},"vehicle_type_id":"4","last_reported":1744132146,"current_range_meters":9200,"station_id":"","pricing_plan_id":"cebpf4jnsgd1na2vs0mg"},{"bike_id":"f17ce36f-e80a-4732-89e2-7a7dfab19d87","system_id":"levelo_inurba_marseille","lat":43.29914,"lon":5.4367,"is_reserved":false,"is_disabled":false,"rental_uris":{"android":"levelo://app?vid=f17ce36f-e80a-4732-89e2-7a7dfab19d87","ios":"levelo://app?vid=f17ce36f-e80a-4732-89e2-7a7dfab19d87"},"vehicle_type_id":"4","last_reported":1744132146,"current_range_meters":9200,"station_id":"ce4bhpp2rcd13ifvqhfg","pricing_plan_id":"cebpf4jnsgd1na2vs0mg"},{"bike_id":"3ef2a66e-4300-4af4-a2da-6f3509c0dc07","system_id":"levelo_inurba_marseille","lat":43.33728,"lon":5.39188,"is_reserved":false,"is_disabled":false,"rental_uris":{"android":"levelo://app?vid=3ef2a66e-4300-4af4-a2da-6f3509c0dc07","ios":"levelo://app?vid=3ef2a66e-4300-4af4-a2da-6f3509c0dc07"},"vehicle_type_id":"4","last_reported":1744132146,"current_range_meters":9200,"station_id":"ce4bhr92rcd13ifvqhsg","pricing_plan_id":"cebpf4jnsgd1na2vs0mg"},{"bike_id":"9c132947-5547-4324-be44-8cfb6db9d88e","system_id":"levelo_inurba_marseille","lat":43.26217,"lon":5.37436,"is_reserved":false,"is_disabled":false,"rental_uris":{"android":"levelo://app?vid=9c132947-5547-4324-be44-8cfb6db9d88e","ios":"levelo://app?vid=9c132947-5547-4324-be44-8cfb6db9d88e"},"vehicle_type_id":"4","last_reported":1744132146,"current_range_meters":9200,"station_id":"ce4bhgp2rcd13ifvqfc0","pricing_plan_id":"cebpf4jnsgd1na2vs0mg"},{"bike_id":"ec41b842-c84f-4ab1-894c-fc6101e00efb","system_id":"levelo_inurba_marseille","lat":43.31714,"lon":5.40294,"is_reserved":false,"is_disabled":false,"rental_uris":{"android":"levelo://app?vid=ec41b842-c84f-4ab1-894c-fc6101e00efb","ios":"levelo://app?vid=ec41b842-c84f-4ab1-894c-fc6101e00efb"},"vehicle_type_id":"4","last_reported":1744132146,"current_range_meters":9200,"station_id":"","pricing_plan_id":"cebpf4jnsgd1na2vs0mg"},{"bike_id":"fe99e046-985a-46b1-851c-b9ef21b28f6c","system_id":"levelo_inurba_marseille","lat":43.27075,"lon":5.42275,"is_reserved":false,"is_disabled":false,"rental_uris":{"android":"levelo://app?vid=fe99e046-985a-46b1-851c-b9ef21b28f6c","ios":"levelo://app?vid=fe99e046-985a-46b1-851c-b9ef21b28f6c"},"vehicle_type_id":"4","last_reported":1744132146,"current_range_meters":9200,"station_id":"ce4bhk92rcd13ifvqgb0","pricing_plan_id":"cebpf4jnsgd1na2vs0mg"},{"bike_id":"e4043965-764c-4eb2-b456-d98d161afda2","system_id":"levelo_inurba_marseille","lat":43.23195,"lon":5.35547,"is_reserved":false,"is_disabled":false,"rental_uris":{"android":"levelo://app?vid=e4043965-764c-4eb2-b456-d98d161afda2","ios":"levelo://app?vid=e4043965-764c-4eb2-b456-d98d161afda2"},"vehicle_type_id":"4","last_reported":1744132146,"current_range_meters":9200,"station_id":"ce4bhu92rcd13ifvqi70","pricing_plan_id":"cebpf4jnsgd1na2vs0mg"},{"bike_id":"685ebb7e-6d17-4973-836e-3a5c4c8ee7e6","system_id":"levelo_inurba_marseille","lat":43.23197,"lon":5.35556,"is_reserved":false,"is_disabled":false,"rental_uris":{"android":"levelo://app?vid=685ebb7e-6d17-4973-836e-3a5c4c8ee7e6","ios":"levelo://app?vid=685ebb7e-6d17-4973-836e-3a5c4c8ee7e6"},"vehicle_type_id":"4","last_reported":1744132146,"current_range_meters":9200,"station_id":"ce4bhu92rcd13ifvqi70","pricing_plan_id":"cebpf4jnsgd1na2vs0mg"},{"bike_id":"a1a3433d-ab3b-4311-abc7-5e379783a58a","system_id":"levelo_inurba_marseille","lat":43.286127,"lon":5.351123,"is_reserved":false,"is_disabled":false,"rental_uris":{"android":"levelo://app?vid=a1a3433d-ab3b-4311-abc7-5e379783a58a","ios":"levelo://app?vid=a1a3433d-ab3b-4311-abc7-5e379783a58a"},"vehicle_type_id":"4","last_reported":1744132146,"current_range_meters":9200,"station_id":"ce4bhch2rcd13ifvqeug","pricing_plan_id":"cebpf4jnsgd1na2vs0mg"},{"bike_id":"c57c451f-2113-4f8f-8962-6b5082c0541f","system_id":"levelo_inurba_marseille","lat":43.28431,"lon":5.35004,"is_reserved":false,"is_disabled":false,"rental_uris":{"android":"levelo://app?vid=c57c451f-2113-4f8f-8962-6b5082c0541f","ios":"levelo://app?vid=c57c451f-2113-4f8f-8962-6b5082c0541f"},"vehicle_type_id":"4","last_reported":1744132146,"current_range_meters":9200,"station_id":"ce4bhbh2rcd13ifvqepg","pricing_plan_id":"cebpf4jnsgd1na2vs0mg"},{"bike_id":"20481e75-a5a2-4a13-9850-bb126181f38b","system_id":"levelo_inurba_marseille","lat":43.28423,"lon":5.34975,"is_reserved":false,"is_disabled":false,"rental_uris":{"android":"levelo://app?vid=20481e75-a5a2-4a13-9850-bb126181f38b","ios":"levelo://app?vid=20481e75-a5a2-4a13-9850-bb126181f38b"},"vehicle_type_id":"4","last_reported":1744132146,"current_range_meters":9200,"station_id":"ce4bhbh2rcd13ifvqepg","pricing_plan_id":"cebpf4jnsgd1na2vs0mg"},{"bike_id":"37b2591d-7265-4820-a87b-554301495f71","system_id":"levelo_inurba_marseille","lat":43.28942,"lon":5.36648,"is_reserved":false,"is_disabled":true,"rental_uris":{"android":"levelo://app?vid=37b2591d-7265-4820-a87b-554301495f71","ios":"levelo://app?vid=37b2591d-7265-4820-a87b-554301495f71"},"vehicle_type_id":"4","last_reported":1744132146,"current_range_meters":9600,"station_id":"ce4bhap2rcd13ifvqek0","pricing_plan_id":"cebpf4jnsgd1na2vs0mg"},{"bike_id":"d41270f1-fec7-4c37-a954-f4e257bbdc37","system_id":"levelo_inurba_marseille","lat":43.29268,"lon":5.3843,"is_reserved":false,"is_disabled":false,"rental_uris":{"android":"levelo://app?vid=d41270f1-fec7-4c37-a954-f4e257bbdc37","ios":"levelo://app?vid=d41270f1-fec7-4c37-a954-f4e257bbdc37"},"vehicle_type_id":"4","last_reported":1744132146,"current_range_meters":9600,"station_id":"ce4bh692rcd13ifvqea0","pricing_plan_id":"cebpf4jnsgd1na2vs0mg"},{"bike_id":"5a397a69-1795-46a6-9ab5-0a8581ce03b4","system_id":"levelo_inurba_marseille","lat":43.29006,"lon":5.35607,"is_reserved":false,"is_disabled":false,"rental_uris":{"android":"levelo://app?vid=5a397a69-1795-46a6-9ab5-0a8581ce03b4","ios":"levelo://app?vid=5a397a69-1795-46a6-9ab5-0a8581ce03b4"},"vehicle_type_id":"4","last_reported":1744132146,"current_range_meters":9600,"station_id":"ce4bhb92rcd13ifvqen0","pricing_plan_id":"cebpf4jnsgd1na2vs0mg"},{"bike_id":"81b4eeec-d26b-4050-a92d-04743fb93072","system_id":"levelo_inurba_marseille","lat":43.23194,"lon":5.39994,"is_reserved":false,"is_disabled":true,"rental_uris":{"android":"levelo://app?vid=81b4eeec-d26b-4050-a92d-04743fb93072","ios":"levelo://app?vid=81b4eeec-d26b-4050-a92d-04743fb93072"},"vehicle_type_id":"4","last_reported":1744132146,"current_range_meters":9600,"station_id":"ce4bhn12rcd13ifvqgqg","pricing_plan_id":"cebpf4jnsgd1na2vs0mg"},{"bike_id":"df2baa51-08b7-496f-afff-07b7c107f835","system_id":"levelo_inurba_marseille","lat":43.27965,"lon":5.38705,"is_reserved":false,"is_disabled":false,"rental_uris":{"android":"levelo://app?vid=df2baa51-08b7-496f-afff-07b7c107f835","ios":"levelo://app?vid=df2baa51-08b7-496f-afff-07b7c107f835"},"vehicle_type_id":"4","last_reported":1744132146,"current_range_meters":8000,"station_id":"ce4bhg12rcd13ifvqf80","pricing_plan_id":"cebpf4jnsgd1na2vs0mg"},{"bike_id":"c07d4816-4c32-4b00-8ca8-e504c523b6d3","system_id":"levelo_inurba_marseille","lat":43.24549,"lon":5.39523,"is_reserved":false,"is_disabled":false,"rental_uris":{"android":"levelo://app?vid=c07d4816-4c32-4b00-8ca8-e504c523b6d3","ios":"levelo://app?vid=c07d4816-4c32-4b00-8ca8-e504c523b6d3"},"vehicle_type_id":"4","last_reported":1744132146,"current_range_meters":9600,"station_id":"ce4bhlp2rcd13ifvqgjg","pricing_plan_id":"cebpf4jnsgd1na2vs0mg"},{"bike_id":"42a2a0dd-e073-46d3-a004-33e2e45e3038","system_id":"levelo_inurba_marseille","lat":43.34154,"lon":5.40912,"is_reserved":false,"is_disabled":false,"rental_uris":{"android":"levelo://app?vid=42a2a0dd-e073-46d3-a004-33e2e45e3038","ios":"levelo://app?vid=42a2a0dd-e073-46d3-a004-33e2e45e3038"},"vehicle_type_id":"4","last_reported":1744132146,"current_range_meters":10000,"station_id":"ce4bhqh2rcd13ifvqhlg","pricing_plan_id":"cebpf4jnsgd1na2vs0mg"},{"bike_id":"949509d7-2150-4bd6-b0fa-fd0f69f12e62","system_id":"levelo_inurba_marseille","lat":43.26158,"lon":5.37474,"is_reserved":false,"is_disabled":false,"rental_uris":{"android":"levelo://app?vid=949509d7-2150-4bd6-b0fa-fd0f69f12e62","ios":"levelo://app?vid=949509d7-2150-4bd6-b0fa-fd0f69f12e62"},"vehicle_type_id":"4","last_reported":1744132146,"current_range_meters":10000,"station_id":"ce4bhgp2rcd13ifvqfc0","pricing_plan_id":"cebpf4jnsgd1na2vs0mg"},{"bike_id":"49a7e352-2279-4113-9b35-b6fd4add9d3a","system_id":"levelo_inurba_marseille","lat":43.28986,"lon":5.37822,"is_reserved":false,"is_disabled":false,"rental_uris":{"android":"levelo://app?vid=49a7e352-2279-4113-9b35-b6fd4add9d3a","ios":"levelo://app?vid=49a7e352-2279-4113-9b35-b6fd4add9d3a"},"vehicle_type_id":"4","last_reported":1744132146,"current_range_meters":10000,"station_id":"ce4bh9p2rcd13ifvqed0","pricing_plan_id":"cebpf4jnsgd1na2vs0mg"},{"bike_id":"d512b302-ba27-499f-96cc-d8e6e0e2e6fa","system_id":"levelo_inurba_marseille","lat":43.24171,"lon":5.36385,"is_reserved":false,"is_disabled":false,"rental_uris":{"android":"levelo://app?vid=d512b302-ba27-499f-96cc-d8e6e0e2e6fa","ios":"levelo://app?vid=d512b302-ba27-499f-96cc-d8e6e0e2e6fa"},"vehicle_type_id":"4","last_reported":1744132146,"current_range_meters":10000,"station_id":"cpo36qri1sfpv3e86is0","pricing_plan_id":"cebpf4jnsgd1na2vs0mg"},{"bike_id":"1c16ce55-fc77-44db-8b14-5e0e03e28ace","system_id":"levelo_inurba_marseille","lat":43.2842,"lon":5.34986,"is_reserved":false,"is_disabled":false,"rental_uris":{"android":"levelo://app?vid=1c16ce55-fc77-44db-8b14-5e0e03e28ace","ios":"levelo://app?vid=1c16ce55-fc77-44db-8b14-5e0e03e28ace"},"vehicle_type_id":"4","last_reported":1744132146,"current_range_meters":10000,"station_id":"ce4bhbh2rcd13ifvqepg","pricing_plan_id":"cebpf4jnsgd1na2vs0mg"},{"bike_id":"650cd787-8c2a-4d8d-94da-55ff49e8aeb3","system_id":"levelo_inurba_marseille","lat":43.2885,"lon":5.3586,"is_reserved":false,"is_disabled":false,"rental_uris":{"android":"levelo://app?vid=650cd787-8c2a-4d8d-94da-55ff49e8aeb3","ios":"levelo://app?vid=650cd787-8c2a-4d8d-94da-55ff49e8aeb3"},"vehicle_type_id":"4","last_reported":1744132146,"current_range_meters":10000,"station_id":"ce4bhb12rcd13ifvqem0","pricing_plan_id":"cebpf4jnsgd1na2vs0mg"},{"bike_id":"31134649-31b9-42bc-b51e-ef06ed5b347a","system_id":"levelo_inurba_marseille","lat":43.28618,"lon":5.35104,"is_reserved":false,"is_disabled":false,"rental_uris":{"android":"levelo://app?vid=31134649-31b9-42bc-b51e-ef06ed5b347a","ios":"levelo://app?vid=31134649-31b9-42bc-b51e-ef06ed5b347a"},"vehicle_type_id":"4","last_reported":1744132146,"current_range_meters":10800,"station_id":"ce4bhch2rcd13ifvqeug","pricing_plan_id":"cebpf4jnsgd1na2vs0mg"},{"bike_id":"462484fb-7399-4810-a9af-37dc48881c50","system_id":"levelo_inurba_marseille","lat":43.25509,"lon":5.37622,"is_reserved":false,"is_disabled":false,"rental_uris":{"android":"levelo://app?vid=462484fb-7399-4810-a9af-37dc48881c50","ios":"levelo://app?vid=462484fb-7399-4810-a9af-37dc48881c50"},"vehicle_type_id":"4","last_reported":1744132146,"current_range_meters":10800,"station_id":"ce4bhh12rcd13ifvqff0","pricing_plan_id":"cebpf4jnsgd1na2vs0mg"},{"bike_id":"7ad0553a-9e68-4cf1-a043-b272b4b08716","system_id":"levelo_inurba_marseille","lat":43.30883,"lon":5.39653,"is_reserved":false,"is_disabled":false,"rental_uris":{"android":"levelo://app?vid=7ad0553a-9e68-4cf1-a043-b272b4b08716","ios":"levelo://app?vid=7ad0553a-9e68-4cf1-a043-b272b4b08716"},"vehicle_type_id":"4","last_reported":1744132146,"current_range_meters":10000,"station_id":"ce4bh012rcd13ifvqcv0","pricing_plan_id":"cebpf4jnsgd1na2vs0mg"},{"bike_id":"3835d549-071b-423e-93fd-67935bf6af95","system_id":"levelo_inurba_marseille","lat":43.26071,"lon":5.39381,"is_reserved":false,"is_disabled":false,"rental_uris":{"android":"levelo://app?vid=3835d549-071b-423e-93fd-67935bf6af95","ios":"levelo://app?vid=3835d549-071b-423e-93fd-67935bf6af95"},"vehicle_type_id":"4","last_reported":1744132146,"current_range_meters":10000,"station_id":"ce4bhh92rcd13ifvqfj0","pricing_plan_id":"cebpf4jnsgd1na2vs0mg"},{"bike_id":"ee22328b-554a-4b1a-b84c-e86b9e5143a2","system_id":"levelo_inurba_marseille","lat":43.27371,"lon":5.36217,"is_reserved":false,"is_disabled":false,"rental_uris":{"android":"levelo://app?vid=ee22328b-554a-4b1a-b84c-e86b9e5143a2","ios":"levelo://app?vid=ee22328b-554a-4b1a-b84c-e86b9e5143a2"},"vehicle_type_id":"4","last_reported":1744132146,"current_range_meters":10800,"station_id":"ce4bhbh2rcd13ifvqeo0","pricing_plan_id":"cebpf4jnsgd1na2vs0mg"},{"bike_id":"848d9d76-f5dd-4ef7-828d-798363e506a0","system_id":"levelo_inurba_marseille","lat":43.28432,"lon":5.37521,"is_reserved":false,"is_disabled":false,"rental_uris":{"android":"levelo://app?vid=848d9d76-f5dd-4ef7-828d-798363e506a0","ios":"levelo://app?vid=848d9d76-f5dd-4ef7-828d-798363e506a0"},"vehicle_type_id":"4","last_reported":1744132146,"current_range_meters":10800,"station_id":"ce4bh412rcd13ifvqds0","pricing_plan_id":"cebpf4jnsgd1na2vs0mg"},{"bike_id":"0aa02c49-cbb3-4907-a588-f754056f3ba8","system_id":"levelo_inurba_marseille","lat":43.308036,"lon":5.381478,"is_reserved":false,"is_disabled":true,"rental_uris":{"android":"levelo://app?vid=0aa02c49-cbb3-4907-a588-f754056f3ba8","ios":"levelo://app?vid=0aa02c49-cbb3-4907-a588-f754056f3ba8"},"vehicle_type_id":"4","last_reported":1744132146,"current_range_meters":10800,"station_id":"ce4bgt12rcd13ifvqce0","pricing_plan_id":"cebpf4jnsgd1na2vs0mg"},{"bike_id":"4af48280-972e-4331-a42c-8ad0c9df46e1","system_id":"levelo_inurba_marseille","lat":43.2738,"lon":5.36252,"is_reserved":false,"is_disabled":false,"rental_uris":{"android":"levelo://app?vid=4af48280-972e-4331-a42c-8ad0c9df46e1","ios":"levelo://app?vid=4af48280-972e-4331-a42c-8ad0c9df46e1"},"vehicle_type_id":"4","last_reported":1744132146,"current_range_meters":10800,"station_id":"ce4bhbh2rcd13ifvqeo0","pricing_plan_id":"cebpf4jnsgd1na2vs0mg"},{"bike_id":"68d1cc33-0218-451e-8e10-d32225c21263","system_id":"levelo_inurba_marseille","lat":43.23135,"lon":5.43692,"is_reserved":false,"is_disabled":true,"rental_uris":{"android":"levelo://app?vid=68d1cc33-0218-451e-8e10-d32225c21263","ios":"levelo://app?vid=68d1cc33-0218-451e-8e10-d32225c21263"},"vehicle_type_id":"4","last_reported":1744132146,"current_range_meters":10800,"station_id":"ce4bhmp2rcd13ifvqgog","pricing_plan_id":"cebpf4jnsgd1na2vs0mg"},{"bike_id":"977f4b9a-a24e-49f2-be73-634d2922992e","system_id":"levelo_inurba_marseille","lat":43.231934,"lon":5.355544,"is_reserved":false,"is_disabled":false,"rental_uris":{"android":"levelo://app?vid=977f4b9a-a24e-49f2-be73-634d2922992e","ios":"levelo://app?vid=977f4b9a-a24e-49f2-be73-634d2922992e"},"vehicle_type_id":"4","last_reported":1744132146,"current_range_meters":10800,"station_id":"ce4bhu92rcd13ifvqi70","pricing_plan_id":"cebpf4jnsgd1na2vs0mg"},{"bike_id":"665a064a-920d-4999-9ff5-cba7d7ade4b6","system_id":"levelo_inurba_marseille","lat":43.240999,"lon":5.377842,"is_reserved":false,"is_disabled":false,"rental_uris":{"android":"levelo://app?vid=665a064a-920d-4999-9ff5-cba7d7ade4b6","ios":"levelo://app?vid=665a064a-920d-4999-9ff5-cba7d7ade4b6"},"vehicle_type_id":"4","last_reported":1744132146,"current_range_meters":10800,"station_id":"ce4bhnp2rcd13ifvqgvg","pricing_plan_id":"cebpf4jnsgd1na2vs0mg"},{"bike_id":"07ccd88b-3734-4d52-b47c-d3e6f06004c9","system_id":"levelo_inurba_marseille","lat":43.26578,"lon":5.3733,"is_reserved":false,"is_disabled":false,"rental_uris":{"android":"levelo://app?vid=07ccd88b-3734-4d52-b47c-d3e6f06004c9","ios":"levelo://app?vid=07ccd88b-3734-4d52-b47c-d3e6f06004c9"},"vehicle_type_id":"4","last_reported":1744132146,"current_range_meters":10800,"station_id":"ce4bhg12rcd13ifvqf70","pricing_plan_id":"cebpf4jnsgd1na2vs0mg"},{"bike_id":"93e3fd92-d65f-4f36-ba40-a3e5476ebc87","system_id":"levelo_inurba_marseille","lat":43.306709,"lon":5.365826,"is_reserved":false,"is_disabled":false,"rental_uris":{"android":"levelo://app?vid=93e3fd92-d65f-4f36-ba40-a3e5476ebc87","ios":"levelo://app?vid=93e3fd92-d65f-4f36-ba40-a3e5476ebc87"},"vehicle_type_id":"4","last_reported":1744132146,"current_range_meters":11200,"station_id":"","pricing_plan_id":"cebpf4jnsgd1na2vs0mg"},{"bike_id":"ef42c1b7-23d3-4ee1-9d3c-ad638f99fcb9","system_id":"levelo_inurba_marseille","lat":43.2812,"lon":5.37826,"is_reserved":false,"is_disabled":false,"rental_uris":{"android":"levelo://app?vid=ef42c1b7-23d3-4ee1-9d3c-ad638f99fcb9","ios":"levelo://app?vid=ef42c1b7-23d3-4ee1-9d3c-ad638f99fcb9"},"vehicle_type_id":"4","last_reported":1744132146,"current_range_meters":11200,"station_id":"ce4bha12rcd13ifvqee0","pricing_plan_id":"cebpf4jnsgd1na2vs0mg"},{"bike_id":"2afe2a5e-3e55-4f26-90a2-1d4bb80018d6","system_id":"levelo_inurba_marseille","lat":43.30792,"lon":5.38166,"is_reserved":false,"is_disabled":false,"rental_uris":{"android":"levelo://app?vid=2afe2a5e-3e55-4f26-90a2-1d4bb80018d6","ios":"levelo://app?vid=2afe2a5e-3e55-4f26-90a2-1d4bb80018d6"},"vehicle_type_id":"4","last_reported":1744132146,"current_range_meters":11200,"station_id":"ce4bgt12rcd13ifvqce0","pricing_plan_id":"cebpf4jnsgd1na2vs0mg"},{"bike_id":"0ec55704-a4b1-4c36-98a0-5706058311b7","system_id":"levelo_inurba_marseille","lat":43.29879,"lon":5.3891,"is_reserved":false,"is_disabled":false,"rental_uris":{"android":"levelo://app?vid=0ec55704-a4b1-4c36-98a0-5706058311b7","ios":"levelo://app?vid=0ec55704-a4b1-4c36-98a0-5706058311b7"},"vehicle_type_id":"4","last_reported":1744132146,"current_range_meters":11200,"station_id":"ce4bh392rcd13ifvqdl0","pricing_plan_id":"cebpf4jnsgd1na2vs0mg"},{"bike_id":"217916ae-129b-4549-b248-929d386fa3f9","system_id":"levelo_inurba_marseille","lat":43.25118,"lon":5.40322,"is_reserved":false,"is_disabled":false,"rental_uris":{"android":"levelo://app?vid=217916ae-129b-4549-b248-929d386fa3f9","ios":"levelo://app?vid=217916ae-129b-4549-b248-929d386fa3f9"},"vehicle_type_id":"4","last_reported":1744132146,"current_range_meters":11200,"station_id":"ce4bhlh2rcd13ifvqgig","pricing_plan_id":"cebpf4jnsgd1na2vs0mg"},{"bike_id":"ab85dc3f-0d81-4cad-a84a-2dbe4b34fea1","system_id":"levelo_inurba_marseille","lat":43.2827,"lon":5.35059,"is_reserved":false,"is_disabled":false,"rental_uris":{"android":"levelo://app?vid=ab85dc3f-0d81-4cad-a84a-2dbe4b34fea1","ios":"levelo://app?vid=ab85dc3f-0d81-4cad-a84a-2dbe4b34fea1"},"vehicle_type_id":"4","last_reported":1744132146,"current_range_meters":11200,"station_id":"ce4bhbp2rcd13ifvqerg","pricing_plan_id":"cebpf4jnsgd1na2vs0mg"},{"bike_id":"129bbaee-442d-43d1-b91a-b90596092174","system_id":"levelo_inurba_marseille","lat":43.30145,"lon":5.37415,"is_reserved":false,"is_disabled":false,"rental_uris":{"android":"levelo://app?vid=129bbaee-442d-43d1-b91a-b90596092174","ios":"levelo://app?vid=129bbaee-442d-43d1-b91a-b90596092174"},"vehicle_type_id":"4","last_reported":1744132146,"current_range_meters":11200,"station_id":"ce4bgs92rcd13ifvqcc0","pricing_plan_id":"cebpf4jnsgd1na2vs0mg"},{"bike_id":"4563eb7b-9273-4327-8c05-5bb0fcbe4efa","system_id":"levelo_inurba_marseille","lat":43.287193,"lon":5.379387,"is_reserved":false,"is_disabled":false,"rental_uris":{"android":"levelo://app?vid=4563eb7b-9273-4327-8c05-5bb0fcbe4efa","ios":"levelo://app?vid=4563eb7b-9273-4327-8c05-5bb0fcbe4efa"},"vehicle_type_id":"4","last_reported":1744132146,"current_range_meters":11200,"station_id":"ce4bh9p2rcd13ifvqec0","pricing_plan_id":"cebpf4jnsgd1na2vs0mg"},{"bike_id":"4516663a-6bd6-48f9-a6ce-42e1bc54548e","system_id":"levelo_inurba_marseille","lat":43.28011,"lon":5.40002,"is_reserved":false,"is_disabled":false,"rental_uris":{"android":"levelo://app?vid=4516663a-6bd6-48f9-a6ce-42e1bc54548e","ios":"levelo://app?vid=4516663a-6bd6-48f9-a6ce-42e1bc54548e"},"vehicle_type_id":"4","last_reported":1744132146,"current_range_meters":11200,"station_id":"ce4bho92rcd13ifvqh4g","pricing_plan_id":"cebpf4jnsgd1na2vs0mg"},{"bike_id":"ced3a9e3-d3f6-4990-af2a-fdb290727192","system_id":"levelo_inurba_marseille","lat":43.27501,"lon":5.42448,"is_reserved":false,"is_disabled":false,"rental_uris":{"android":"levelo://app?vid=ced3a9e3-d3f6-4990-af2a-fdb290727192","ios":"levelo://app?vid=ced3a9e3-d3f6-4990-af2a-fdb290727192"},"vehicle_type_id":"4","last_reported":1744132146,"current_range_meters":11600,"station_id":"ce4bhn92rcd13ifvqgrg","pricing_plan_id":"cebpf4jnsgd1na2vs0mg"},{"bike_id":"1ca7d0c4-b7aa-4350-ad9f-4e24c2ba029a","system_id":"levelo_inurba_marseille","lat":43.30378,"lon":5.42485,"is_reserved":false,"is_disabled":true,"rental_uris":{"android":"levelo://app?vid=1ca7d0c4-b7aa-4350-ad9f-4e24c2ba029a","ios":"levelo://app?vid=1ca7d0c4-b7aa-4350-ad9f-4e24c2ba029a"},"vehicle_type_id":"4","last_reported":1744132146,"current_range_meters":11600,"station_id":"ce4bhoh2rcd13ifvqh6g","pricing_plan_id":"cebpf4jnsgd1na2vs0mg"},{"bike_id":"7cf15b1e-2be4-4266-9044-c30da29a9006","system_id":"levelo_inurba_marseille","lat":43.27849,"lon":5.39202,"is_reserved":false,"is_disabled":false,"rental_uris":{"android":"levelo://app?vid=7cf15b1e-2be4-4266-9044-c30da29a9006","ios":"levelo://app?vid=7cf15b1e-2be4-4266-9044-c30da29a9006"},"vehicle_type_id":"4","last_reported":1744132146,"current_range_meters":11600,"station_id":"ce4bhjp2rcd13ifvqga0","pricing_plan_id":"cebpf4jnsgd1na2vs0mg"},{"bike_id":"a2bd0f4f-9974-486e-aa20-26fc4ac10b7c","system_id":"levelo_inurba_marseille","lat":43.28924,"lon":5.36636,"is_reserved":false,"is_disabled":false,"rental_uris":{"android":"levelo://app?vid=a2bd0f4f-9974-486e-aa20-26fc4ac10b7c","ios":"levelo://app?vid=a2bd0f4f-9974-486e-aa20-26fc4ac10b7c"},"vehicle_type_id":"4","last_reported":1744132146,"current_range_meters":11600,"station_id":"ce4bhap2rcd13ifvqek0","pricing_plan_id":"cebpf4jnsgd1na2vs0mg"},{"bike_id":"196aab48-85b0-499e-8220-62200322436d","system_id":"levelo_inurba_marseille","lat":43.23195,"lon":5.35567,"is_reserved":false,"is_disabled":false,"rental_uris":{"android":"levelo://app?vid=196aab48-85b0-499e-8220-62200322436d","ios":"levelo://app?vid=196aab48-85b0-499e-8220-62200322436d"},"vehicle_type_id":"4","last_reported":1744132146,"current_range_meters":11600,"station_id":"ce4bhu92rcd13ifvqi70","pricing_plan_id":"cebpf4jnsgd1na2vs0mg"},{"bike_id":"08f9c0c8-8b33-4578-8a03-20f44d582241","system_id":"levelo_inurba_marseille","lat":43.30607,"lon":5.37168,"is_reserved":false,"is_disabled":false,"rental_uris":{"android":"levelo://app?vid=08f9c0c8-8b33-4578-8a03-20f44d582241","ios":"levelo://app?vid=08f9c0c8-8b33-4578-8a03-20f44d582241"},"vehicle_type_id":"4","last_reported":1744132146,"current_range_meters":11600,"station_id":"ce4bgqh2rcd13ifvqc4g","pricing_plan_id":"cebpf4jnsgd1na2vs0mg"},{"bike_id":"8f9af02d-49d2-434c-8bcd-32a1aa1c3ab1","system_id":"levelo_inurba_marseille","lat":43.31271,"lon":5.40166,"is_reserved":false,"is_disabled":false,"rental_uris":{"android":"levelo://app?vid=8f9af02d-49d2-434c-8bcd-32a1aa1c3ab1","ios":"levelo://app?vid=8f9af02d-49d2-434c-8bcd-32a1aa1c3ab1"},"vehicle_type_id":"4","last_reported":1744132146,"current_range_meters":11200,"station_id":"ce4bh092rcd13ifvqd30","pricing_plan_id":"cebpf4jnsgd1na2vs0mg"},{"bike_id":"9b4d8b01-eb11-4827-905f-bde0dedd5280","system_id":"levelo_inurba_marseille","lat":43.24635,"lon":5.38229,"is_reserved":false,"is_disabled":false,"rental_uris":{"android":"levelo://app?vid=9b4d8b01-eb11-4827-905f-bde0dedd5280","ios":"levelo://app?vid=9b4d8b01-eb11-4827-905f-bde0dedd5280"},"vehicle_type_id":"4","last_reported":1744132146,"current_range_meters":12000,"station_id":"ce4bhih2rcd13ifvqfr0","pricing_plan_id":"cebpf4jnsgd1na2vs0mg"},{"bike_id":"0ec03e2b-336d-43c4-9733-8dde327dc40e","system_id":"levelo_inurba_marseille","lat":43.28997,"lon":5.35602,"is_reserved":false,"is_disabled":false,"rental_uris":{"android":"levelo://app?vid=0ec03e2b-336d-43c4-9733-8dde327dc40e","ios":"levelo://app?vid=0ec03e2b-336d-43c4-9733-8dde327dc40e"},"vehicle_type_id":"4","last_reported":1744132146,"current_range_meters":12000,"station_id":"ce4bhb92rcd13ifvqen0","pricing_plan_id":"cebpf4jnsgd1na2vs0mg"},{"bike_id":"b397701f-0d3d-44bf-ab3e-3ccc7e74fb2e","system_id":"levelo_inurba_marseille","lat":43.26412,"lon":5.42316,"is_reserved":false,"is_disabled":false,"rental_uris":{"android":"levelo://app?vid=b397701f-0d3d-44bf-ab3e-3ccc7e74fb2e","ios":"levelo://app?vid=b397701f-0d3d-44bf-ab3e-3ccc7e74fb2e"},"vehicle_type_id":"4","last_reported":1744132146,"current_range_meters":12000,"station_id":"","pricing_plan_id":"cebpf4jnsgd1na2vs0mg"},{"bike_id":"11f5b405-ef45-4aed-a82c-6144e3e2c1de","system_id":"levelo_inurba_marseille","lat":43.25083,"lon":5.39506,"is_reserved":false,"is_disabled":false,"rental_uris":{"android":"levelo://app?vid=11f5b405-ef45-4aed-a82c-6144e3e2c1de","ios":"levelo://app?vid=11f5b405-ef45-4aed-a82c-6144e3e2c1de"},"vehicle_type_id":"4","last_reported":1744132146,"current_range_meters":12400,"station_id":"ce4bhm12rcd13ifvqgkg","pricing_plan_id":"cebpf4jnsgd1na2vs0mg"},{"bike_id":"6930d67b-2458-4570-9e0b-4358d6227b4b","system_id":"levelo_inurba_marseille","lat":43.23202,"lon":5.35532,"is_reserved":false,"is_disabled":false,"rental_uris":{"android":"levelo://app?vid=6930d67b-2458-4570-9e0b-4358d6227b4b","ios":"levelo://app?vid=6930d67b-2458-4570-9e0b-4358d6227b4b"},"vehicle_type_id":"4","last_reported":1744132146,"current_range_meters":12400,"station_id":"ce4bhu92rcd13ifvqi70","pricing_plan_id":"cebpf4jnsgd1na2vs0mg"},{"bike_id":"851f622b-5b5f-4b47-895b-adaba874c943","system_id":"levelo_inurba_marseille","lat":43.280017,"lon":5.416525,"is_reserved":false,"is_disabled":false,"rental_uris":{"android":"levelo://app?vid=851f622b-5b5f-4b47-895b-adaba874c943","ios":"levelo://app?vid=851f622b-5b5f-4b47-895b-adaba874c943"},"vehicle_type_id":"4","last_reported":1744132146,"current_range_meters":12400,"station_id":"ce4bho12rcd13ifvqh1g","pricing_plan_id":"cebpf4jnsgd1na2vs0mg"},{"bike_id":"9fce7fb9-26b6-4832-9f96-ea1b75c489f0","system_id":"levelo_inurba_marseille","lat":43.23194,"lon":5.35552,"is_reserved":false,"is_disabled":false,"rental_uris":{"android":"levelo://app?vid=9fce7fb9-26b6-4832-9f96-ea1b75c489f0","ios":"levelo://app?vid=9fce7fb9-26b6-4832-9f96-ea1b75c489f0"},"vehicle_type_id":"4","last_reported":1744132146,"current_range_meters":12400,"station_id":"ce4bhu92rcd13ifvqi70","pricing_plan_id":"cebpf4jnsgd1na2vs0mg"},{"bike_id":"56ee759a-b574-4911-9e6e-32e32e9ade9a","system_id":"levelo_inurba_marseille","lat":43.28615,"lon":5.35107,"is_reserved":false,"is_disabled":false,"rental_uris":{"android":"levelo://app?vid=56ee759a-b574-4911-9e6e-32e32e9ade9a","ios":"levelo://app?vid=56ee759a-b574-4911-9e6e-32e32e9ade9a"},"vehicle_type_id":"4","last_reported":1744132146,"current_range_meters":12400,"station_id":"ce4bhch2rcd13ifvqeug","pricing_plan_id":"cebpf4jnsgd1na2vs0mg"},{"bike_id":"db36dae9-7031-428f-bd21-04c5ca015500","system_id":"levelo_inurba_marseille","lat":43.32368,"lon":5.38882,"is_reserved":false,"is_disabled":false,"rental_uris":{"android":"levelo://app?vid=db36dae9-7031-428f-bd21-04c5ca015500","ios":"levelo://app?vid=db36dae9-7031-428f-bd21-04c5ca015500"},"vehicle_type_id":"4","last_reported":1744132146,"current_range_meters":12400,"station_id":"ce4bhqp2rcd13ifvqhog","pricing_plan_id":"cebpf4jnsgd1na2vs0mg"},{"bike_id":"54071f3d-c5bc-4836-b63e-49d086a72e6e","system_id":"levelo_inurba_marseille","lat":43.29231,"lon":5.36068,"is_reserved":false,"is_disabled":false,"rental_uris":{"android":"levelo://app?vid=54071f3d-c5bc-4836-b63e-49d086a72e6e","ios":"levelo://app?vid=54071f3d-c5bc-4836-b63e-49d086a72e6e"},"vehicle_type_id":"4","last_reported":1744132146,"current_range_meters":12400,"station_id":"ce4bhbh2rcd13ifvqeqg","pricing_plan_id":"cebpf4jnsgd1na2vs0mg"},{"bike_id":"7acd706f-d802-4581-aa8a-51defad803fb","system_id":"levelo_inurba_marseille","lat":43.29796,"lon":5.38076,"is_reserved":false,"is_disabled":false,"rental_uris":{"android":"levelo://app?vid=7acd706f-d802-4581-aa8a-51defad803fb","ios":"levelo://app?vid=7acd706f-d802-4581-aa8a-51defad803fb"},"vehicle_type_id":"4","last_reported":1744132146,"current_range_meters":12000,"station_id":"ce4bgip2rcd13ifvqbb0","pricing_plan_id":"cebpf4jnsgd1na2vs0mg"},{"bike_id":"fcba2fad-8717-4251-93ef-1b115b919533","system_id":"levelo_inurba_marseille","lat":43.2738,"lon":5.36232,"is_reserved":false,"is_disabled":false,"rental_uris":{"android":"levelo://app?vid=fcba2fad-8717-4251-93ef-1b115b919533","ios":"levelo://app?vid=fcba2fad-8717-4251-93ef-1b115b919533"},"vehicle_type_id":"4","last_reported":1744132146,"current_range_meters":12400,"station_id":"ce4bhbh2rcd13ifvqeo0","pricing_plan_id":"cebpf4jnsgd1na2vs0mg"},{"bike_id":"8c33120b-fb8a-43fc-b964-011265f7c0c0","system_id":"levelo_inurba_marseille","lat":43.28619,"lon":5.35132,"is_reserved":false,"is_disabled":false,"rental_uris":{"android":"levelo://app?vid=8c33120b-fb8a-43fc-b964-011265f7c0c0","ios":"levelo://app?vid=8c33120b-fb8a-43fc-b964-011265f7c0c0"},"vehicle_type_id":"4","last_reported":1744132146,"current_range_meters":12800,"station_id":"ce4bhch2rcd13ifvqeug","pricing_plan_id":"cebpf4jnsgd1na2vs0mg"},{"bike_id":"0a97b44d-30bf-4e7f-9776-24a7a0066167","system_id":"levelo_inurba_marseille","lat":43.28105,"lon":5.37861,"is_reserved":false,"is_disabled":false,"rental_uris":{"android":"levelo://app?vid=0a97b44d-30bf-4e7f-9776-24a7a0066167","ios":"levelo://app?vid=0a97b44d-30bf-4e7f-9776-24a7a0066167"},"vehicle_type_id":"4","last_reported":1744132146,"current_range_meters":12800,"station_id":"ce4bha12rcd13ifvqee0","pricing_plan_id":"cebpf4jnsgd1na2vs0mg"},{"bike_id":"d3696390-63d4-4427-afbb-c82b55bdd77e","system_id":"levelo_inurba_marseille","lat":43.30301,"lon":5.3921,"is_reserved":false,"is_disabled":false,"rental_uris":{"android":"levelo://app?vid=d3696390-63d4-4427-afbb-c82b55bdd77e","ios":"levelo://app?vid=d3696390-63d4-4427-afbb-c82b55bdd77e"},"vehicle_type_id":"4","last_reported":1744132146,"current_range_meters":12800,"station_id":"ce4bgkh2rcd13ifvqbk0","pricing_plan_id":"cebpf4jnsgd1na2vs0mg"},{"bike_id":"69e106a1-fcae-46cf-99cc-aa8001be4b20","system_id":"levelo_inurba_marseille","lat":43.28619,"lon":5.35107,"is_reserved":false,"is_disabled":false,"rental_uris":{"android":"levelo://app?vid=69e106a1-fcae-46cf-99cc-aa8001be4b20","ios":"levelo://app?vid=69e106a1-fcae-46cf-99cc-aa8001be4b20"},"vehicle_type_id":"4","last_reported":1744132146,"current_range_meters":12800,"station_id":"ce4bhch2rcd13ifvqeug","pricing_plan_id":"cebpf4jnsgd1na2vs0mg"},{"bike_id":"2f34184e-2108-4f3b-8a8d-9c40e17a8684","system_id":"levelo_inurba_marseille","lat":43.28619,"lon":5.35106,"is_reserved":false,"is_disabled":false,"rental_uris":{"android":"levelo://app?vid=2f34184e-2108-4f3b-8a8d-9c40e17a8684","ios":"levelo://app?vid=2f34184e-2108-4f3b-8a8d-9c40e17a8684"},"vehicle_type_id":"4","last_reported":1744132146,"current_range_meters":12800,"station_id":"ce4bhch2rcd13ifvqeug","pricing_plan_id":"cebpf4jnsgd1na2vs0mg"},{"bike_id":"c1e94783-8ec7-4caa-9ecb-7fd381961fce","system_id":"levelo_inurba_marseille","lat":43.28616,"lon":5.351,"is_reserved":false,"is_disabled":false,"rental_uris":{"android":"levelo://app?vid=c1e94783-8ec7-4caa-9ecb-7fd381961fce","ios":"levelo://app?vid=c1e94783-8ec7-4caa-9ecb-7fd381961fce"},"vehicle_type_id":"4","last_reported":1744132146,"current_range_meters":12800,"station_id":"ce4bhch2rcd13ifvqeug","pricing_plan_id":"cebpf4jnsgd1na2vs0mg"},{"bike_id":"a9b640cf-d8c7-40cb-98c4-dbdec725374f","system_id":"levelo_inurba_marseille","lat":43.30532,"lon":5.36714,"is_reserved":false,"is_disabled":false,"rental_uris":{"android":"levelo://app?vid=a9b640cf-d8c7-40cb-98c4-dbdec725374f","ios":"levelo://app?vid=a9b640cf-d8c7-40cb-98c4-dbdec725374f"},"vehicle_type_id":"4","last_reported":1744132146,"current_range_meters":12800,"station_id":"ce4bgrp2rcd13ifvqc9g","pricing_plan_id":"cebpf4jnsgd1na2vs0mg"},{"bike_id":"16b1f7e2-9d61-4a84-ad43-cbc8f21d47b2","system_id":"levelo_inurba_marseille","lat":43.29254,"lon":5.38446,"is_reserved":false,"is_disabled":false,"rental_uris":{"android":"levelo://app?vid=16b1f7e2-9d61-4a84-ad43-cbc8f21d47b2","ios":"levelo://app?vid=16b1f7e2-9d61-4a84-ad43-cbc8f21d47b2"},"vehicle_type_id":"4","last_reported":1744132146,"current_range_meters":12800,"station_id":"ce4bh692rcd13ifvqea0","pricing_plan_id":"cebpf4jnsgd1na2vs0mg"},{"bike_id":"35ef3ca8-9e98-4d77-a389-741a024bd307","system_id":"levelo_inurba_marseille","lat":43.286987,"lon":5.373796,"is_reserved":false,"is_disabled":false,"rental_uris":{"android":"levelo://app?vid=35ef3ca8-9e98-4d77-a389-741a024bd307","ios":"levelo://app?vid=35ef3ca8-9e98-4d77-a389-741a024bd307"},"vehicle_type_id":"4","last_reported":1744132146,"current_range_meters":12800,"station_id":"ce4bh3p2rcd13ifvqdq0","pricing_plan_id":"cebpf4jnsgd1na2vs0mg"},{"bike_id":"0e7d1395-045a-4463-bea8-7ab3c7b86f44","system_id":"levelo_inurba_marseille","lat":43.2862,"lon":5.35104,"is_reserved":false,"is_disabled":false,"rental_uris":{"android":"levelo://app?vid=0e7d1395-045a-4463-bea8-7ab3c7b86f44","ios":"levelo://app?vid=0e7d1395-045a-4463-bea8-7ab3c7b86f44"},"vehicle_type_id":"4","last_reported":1744132146,"current_range_meters":13600,"station_id":"ce4bhch2rcd13ifvqeug","pricing_plan_id":"cebpf4jnsgd1na2vs0mg"},{"bike_id":"07d93480-84c4-43b8-87f9-3fae02b2bb1d","system_id":"levelo_inurba_marseille","lat":43.302993,"lon":5.392066,"is_reserved":false,"is_disabled":false,"rental_uris":{"android":"levelo://app?vid=07d93480-84c4-43b8-87f9-3fae02b2bb1d","ios":"levelo://app?vid=07d93480-84c4-43b8-87f9-3fae02b2bb1d"},"vehicle_type_id":"4","last_reported":1744132146,"current_range_meters":13600,"station_id":"ce4bgkh2rcd13ifvqbk0","pricing_plan_id":"cebpf4jnsgd1na2vs0mg"},{"bike_id":"bc53b481-4dc9-4bcb-8920-6f3b955764f8","system_id":"levelo_inurba_marseille","lat":43.28391,"lon":5.38647,"is_reserved":false,"is_disabled":false,"rental_uris":{"android":"levelo://app?vid=bc53b481-4dc9-4bcb-8920-6f3b955764f8","ios":"levelo://app?vid=bc53b481-4dc9-4bcb-8920-6f3b955764f8"},"vehicle_type_id":"4","last_reported":1744132146,"current_range_meters":13600,"station_id":"ce4bh492rcd13ifvqdvg","pricing_plan_id":"cebpf4jnsgd1na2vs0mg"},{"bike_id":"68ba815a-6e75-43cd-8a96-54a492f666f0","system_id":"levelo_inurba_marseille","lat":43.28935,"lon":5.36631,"is_reserved":false,"is_disabled":false,"rental_uris":{"android":"levelo://app?vid=68ba815a-6e75-43cd-8a96-54a492f666f0","ios":"levelo://app?vid=68ba815a-6e75-43cd-8a96-54a492f666f0"},"vehicle_type_id":"4","last_reported":1744132146,"current_range_meters":14000,"station_id":"ce4bhap2rcd13ifvqek0","pricing_plan_id":"cebpf4jnsgd1na2vs0mg"},{"bike_id":"9719e735-7f03-450f-8995-a21dae30970a","system_id":"levelo_inurba_marseille","lat":43.28159,"lon":5.42635,"is_reserved":false,"is_disabled":false,"rental_uris":{"android":"levelo://app?vid=9719e735-7f03-450f-8995-a21dae30970a","ios":"levelo://app?vid=9719e735-7f03-450f-8995-a21dae30970a"},"vehicle_type_id":"4","last_reported":1744132146,"current_range_meters":14000,"station_id":"ce4bhnh2rcd13ifvqgug","pricing_plan_id":"cebpf4jnsgd1na2vs0mg"},{"bike_id":"baa77dc8-1836-4271-a6a3-450ea4d17934","system_id":"levelo_inurba_marseille","lat":43.282536,"lon":5.350635,"is_reserved":false,"is_disabled":false,"rental_uris":{"android":"levelo://app?vid=baa77dc8-1836-4271-a6a3-450ea4d17934","ios":"levelo://app?vid=baa77dc8-1836-4271-a6a3-450ea4d17934"},"vehicle_type_id":"4","last_reported":1744132146,"current_range_meters":14000,"station_id":"ce4bh692rcd13ifvqea0","pricing_plan_id":"cebpf4jnsgd1na2vs0mg"},{"bike_id":"c7b13a9b-256e-4dd1-86ef-11cd2d1e8f34","system_id":"levelo_inurba_marseille","lat":43.29027,"lon":5.386434,"is_reserved":false,"is_disabled":false,"rental_uris":{"android":"levelo://app?vid=c7b13a9b-256e-4dd1-86ef-11cd2d1e8f34","ios":"levelo://app?vid=c7b13a9b-256e-4dd1-86ef-11cd2d1e8f34"},"vehicle_type_id":"4","last_reported":1744132146,"current_range_meters":14000,"station_id":"ce4bh4p2rcd13ifvqe0g","pricing_plan_id":"cebpf4jnsgd1na2vs0mg"},{"bike_id":"e189e61d-db94-4de0-926f-77cb581f5370","system_id":"levelo_inurba_marseille","lat":43.28264,"lon":5.35056,"is_reserved":false,"is_disabled":false,"rental_uris":{"android":"levelo://app?vid=e189e61d-db94-4de0-926f-77cb581f5370","ios":"levelo://app?vid=e189e61d-db94-4de0-926f-77cb581f5370"},"vehicle_type_id":"4","last_reported":1744132146,"current_range_meters":14800,"station_id":"ce4bhbp2rcd13ifvqerg","pricing_plan_id":"cebpf4jnsgd1na2vs0mg"},{"bike_id":"05ffc472-8ce8-4726-962e-2a2ea7519e76","system_id":"levelo_inurba_marseille","lat":43.2957,"lon":5.39978,"is_reserved":false,"is_disabled":false,"rental_uris":{"android":"levelo://app?vid=05ffc472-8ce8-4726-962e-2a2ea7519e76","ios":"levelo://app?vid=05ffc472-8ce8-4726-962e-2a2ea7519e76"},"vehicle_type_id":"4","last_reported":1744132146,"current_range_meters":14800,"station_id":"ce4bh312rcd13ifvqdj0","pricing_plan_id":"cebpf4jnsgd1na2vs0mg"},{"bike_id":"e82d3cbf-6990-4eca-9743-6a7db542c284","system_id":"levelo_inurba_marseille","lat":43.32342,"lon":5.40614,"is_reserved":false,"is_disabled":false,"rental_uris":{"android":"levelo://app?vid=e82d3cbf-6990-4eca-9743-6a7db542c284","ios":"levelo://app?vid=e82d3cbf-6990-4eca-9743-6a7db542c284"},"vehicle_type_id":"4","last_reported":1744132146,"current_range_meters":14800,"station_id":"ce4bhq92rcd13ifvqhjg","pricing_plan_id":"cebpf4jnsgd1na2vs0mg"},{"bike_id":"68e25fe8-a4cc-44a3-9ab4-6552cba09819","system_id":"levelo_inurba_marseille","lat":43.28419,"lon":5.34985,"is_reserved":false,"is_disabled":false,"rental_uris":{"android":"levelo://app?vid=68e25fe8-a4cc-44a3-9ab4-6552cba09819","ios":"levelo://app?vid=68e25fe8-a4cc-44a3-9ab4-6552cba09819"},"vehicle_type_id":"4","last_reported":1744132146,"current_range_meters":14800,"station_id":"ce4bhbh2rcd13ifvqepg","pricing_plan_id":"cebpf4jnsgd1na2vs0mg"},{"bike_id":"808bcd76-394d-4ceb-8ef4-49baab31510e","system_id":"levelo_inurba_marseille","lat":43.284118,"lon":5.375226,"is_reserved":false,"is_disabled":false,"rental_uris":{"android":"levelo://app?vid=808bcd76-394d-4ceb-8ef4-49baab31510e","ios":"levelo://app?vid=808bcd76-394d-4ceb-8ef4-49baab31510e"},"vehicle_type_id":"4","last_reported":1744132146,"current_range_meters":14800,"station_id":"ce4bh9p2rcd13ifvqed0","pricing_plan_id":"cebpf4jnsgd1na2vs0mg"},{"bike_id":"61f7d8e6-5e88-4369-b611-197926654d43","system_id":"levelo_inurba_marseille","lat":43.29006,"lon":5.3561,"is_reserved":false,"is_disabled":false,"rental_uris":{"android":"levelo://app?vid=61f7d8e6-5e88-4369-b611-197926654d43","ios":"levelo://app?vid=61f7d8e6-5e88-4369-b611-197926654d43"},"vehicle_type_id":"4","last_reported":1744132146,"current_range_meters":14800,"station_id":"ce4bhb92rcd13ifvqen0","pricing_plan_id":"cebpf4jnsgd1na2vs0mg"},{"bike_id":"bd0f6dae-aa02-473b-92f0-4d9a900d37e8","system_id":"levelo_inurba_marseille","lat":43.28714,"lon":5.36113,"is_reserved":false,"is_disabled":false,"rental_uris":{"android":"levelo://app?vid=bd0f6dae-aa02-473b-92f0-4d9a900d37e8","ios":"levelo://app?vid=bd0f6dae-aa02-473b-92f0-4d9a900d37e8"},"vehicle_type_id":"4","last_reported":1744132146,"current_range_meters":15200,"station_id":"cki0cbj6b192h4jlfktg","pricing_plan_id":"cebpf4jnsgd1na2vs0mg"},{"bike_id":"df9c09c9-70d3-478b-9aee-aac256075033","system_id":"levelo_inurba_marseille","lat":43.243885,"lon":5.370578,"is_reserved":false,"is_disabled":false,"rental_uris":{"android":"levelo://app?vid=df9c09c9-70d3-478b-9aee-aac256075033","ios":"levelo://app?vid=df9c09c9-70d3-478b-9aee-aac256075033"},"vehicle_type_id":"4","last_reported":1744132146,"current_range_meters":15200,"station_id":"ce4bhhh2rcd13ifvqfk0","pricing_plan_id":"cebpf4jnsgd1na2vs0mg"},{"bike_id":"78f8ad86-bef7-4b40-8997-0d18f6eccb9e","system_id":"levelo_inurba_marseille","lat":43.29612,"lon":5.37751,"is_reserved":false,"is_disabled":false,"rental_uris":{"android":"levelo://app?vid=78f8ad86-bef7-4b40-8997-0d18f6eccb9e","ios":"levelo://app?vid=78f8ad86-bef7-4b40-8997-0d18f6eccb9e"},"vehicle_type_id":"4","last_reported":1744132146,"current_range_meters":15200,"station_id":"ce4bgi92rcd13ifvqb90","pricing_plan_id":"cebpf4jnsgd1na2vs0mg"},{"bike_id":"9f183e38-1e96-4307-b617-9e3406e78855","system_id":"levelo_inurba_marseille","lat":43.2901,"lon":5.35609,"is_reserved":false,"is_disabled":false,"rental_uris":{"android":"levelo://app?vid=9f183e38-1e96-4307-b617-9e3406e78855","ios":"levelo://app?vid=9f183e38-1e96-4307-b617-9e3406e78855"},"vehicle_type_id":"4","last_reported":1744132146,"current_range_meters":15200,"station_id":"ce4bhb92rcd13ifvqen0","pricing_plan_id":"cebpf4jnsgd1na2vs0mg"},{"bike_id":"e24c6fd3-f9cb-40c7-9e57-dd2c20540e9b","system_id":"levelo_inurba_marseille","lat":43.31721,"lon":5.42424,"is_reserved":false,"is_disabled":false,"rental_uris":{"android":"levelo://app?vid=e24c6fd3-f9cb-40c7-9e57-dd2c20540e9b","ios":"levelo://app?vid=e24c6fd3-f9cb-40c7-9e57-dd2c20540e9b"},"vehicle_type_id":"4","last_reported":1744132146,"current_range_meters":15200,"station_id":"ce4bhp92rcd13ifvqhbg","pricing_plan_id":"cebpf4jnsgd1na2vs0mg"},{"bike_id":"f72f75a5-43f0-45ff-942a-fd3cc84b7d49","system_id":"levelo_inurba_marseille","lat":43.27373,"lon":5.36249,"is_reserved":false,"is_disabled":false,"rental_uris":{"android":"levelo://app?vid=f72f75a5-43f0-45ff-942a-fd3cc84b7d49","ios":"levelo://app?vid=f72f75a5-43f0-45ff-942a-fd3cc84b7d49"},"vehicle_type_id":"4","last_reported":1744132146,"current_range_meters":15200,"station_id":"ce4bhbh2rcd13ifvqeo0","pricing_plan_id":"cebpf4jnsgd1na2vs0mg"},{"bike_id":"80c9f10b-9fed-4514-af83-7e303cdc66a1","system_id":"levelo_inurba_marseille","lat":43.28265,"lon":5.35065,"is_reserved":false,"is_disabled":false,"rental_uris":{"android":"levelo://app?vid=80c9f10b-9fed-4514-af83-7e303cdc66a1","ios":"levelo://app?vid=80c9f10b-9fed-4514-af83-7e303cdc66a1"},"vehicle_type_id":"4","last_reported":1744132146,"current_range_meters":15200,"station_id":"ce4bhbp2rcd13ifvqerg","pricing_plan_id":"cebpf4jnsgd1na2vs0mg"},{"bike_id":"5f30ee6e-01f5-470a-a590-19f7d46ca97e","system_id":"levelo_inurba_marseille","lat":43.25114,"lon":5.40322,"is_reserved":false,"is_disabled":false,"rental_uris":{"android":"levelo://app?vid=5f30ee6e-01f5-470a-a590-19f7d46ca97e","ios":"levelo://app?vid=5f30ee6e-01f5-470a-a590-19f7d46ca97e"},"vehicle_type_id":"4","last_reported":1744132146,"current_range_meters":15200,"station_id":"ce4bhlh2rcd13ifvqgig","pricing_plan_id":"cebpf4jnsgd1na2vs0mg"},{"bike_id":"dc92e84f-c532-4ea5-ba73-f4002b6f85aa","system_id":"levelo_inurba_marseille","lat":43.299006,"lon":5.436714,"is_reserved":false,"is_disabled":false,"rental_uris":{"android":"levelo://app?vid=dc92e84f-c532-4ea5-ba73-f4002b6f85aa","ios":"levelo://app?vid=dc92e84f-c532-4ea5-ba73-f4002b6f85aa"},"vehicle_type_id":"4","last_reported":1744132146,"current_range_meters":15200,"station_id":"ce4bhpp2rcd13ifvqhfg","pricing_plan_id":"cebpf4jnsgd1na2vs0mg"},{"bike_id":"69ee4a35-1697-4507-937e-a89be0ee1a2d","system_id":"levelo_inurba_marseille","lat":43.29248,"lon":5.40791,"is_reserved":false,"is_disabled":false,"rental_uris":{"android":"levelo://app?vid=69ee4a35-1697-4507-937e-a89be0ee1a2d","ios":"levelo://app?vid=69ee4a35-1697-4507-937e-a89be0ee1a2d"},"vehicle_type_id":"4","last_reported":1744132146,"current_range_meters":15200,"station_id":"","pricing_plan_id":"cebpf4jnsgd1na2vs0mg"},{"bike_id":"2b16592e-3741-4870-a776-c07019f90028","system_id":"levelo_inurba_marseille","lat":43.31524,"lon":5.3804,"is_reserved":false,"is_disabled":false,"rental_uris":{"android":"levelo://app?vid=2b16592e-3741-4870-a776-c07019f90028","ios":"levelo://app?vid=2b16592e-3741-4870-a776-c07019f90028"},"vehicle_type_id":"4","last_reported":1744132146,"current_range_meters":16000,"station_id":"ce4bhsp2rcd13ifvqi50","pricing_plan_id":"cebpf4jnsgd1na2vs0mg"},{"bike_id":"ecb38bba-0c77-4b37-bcd8-8f9b2f030c42","system_id":"levelo_inurba_marseille","lat":43.28676,"lon":5.38661,"is_reserved":false,"is_disabled":false,"rental_uris":{"android":"levelo://app?vid=ecb38bba-0c77-4b37-bcd8-8f9b2f030c42","ios":"levelo://app?vid=ecb38bba-0c77-4b37-bcd8-8f9b2f030c42"},"vehicle_type_id":"4","last_reported":1744132146,"current_range_meters":16000,"station_id":"ce4bh492rcd13ifvqdug","pricing_plan_id":"cebpf4jnsgd1na2vs0mg"},{"bike_id":"6cbc1a4c-3f8c-4264-b176-81c01b366a06","system_id":"levelo_inurba_marseille","lat":43.298979,"lon":5.436754,"is_reserved":false,"is_disabled":false,"rental_uris":{"android":"levelo://app?vid=6cbc1a4c-3f8c-4264-b176-81c01b366a06","ios":"levelo://app?vid=6cbc1a4c-3f8c-4264-b176-81c01b366a06"},"vehicle_type_id":"4","last_reported":1744132146,"current_range_meters":16000,"station_id":"ce4bhpp2rcd13ifvqhfg","pricing_plan_id":"cebpf4jnsgd1na2vs0mg"},{"bike_id":"8d11d752-fff8-4e19-b068-1c37491d010a","system_id":"levelo_inurba_marseille","lat":43.28268,"lon":5.35069,"is_reserved":false,"is_disabled":false,"rental_uris":{"android":"levelo://app?vid=8d11d752-fff8-4e19-b068-1c37491d010a","ios":"levelo://app?vid=8d11d752-fff8-4e19-b068-1c37491d010a"},"vehicle_type_id":"4","last_reported":1744132146,"current_range_meters":16000,"station_id":"ce4bhbp2rcd13ifvqerg","pricing_plan_id":"cebpf4jnsgd1na2vs0mg"},{"bike_id":"77bf1b8c-314e-4df8-8865-c0b5cdb8fbee","system_id":"levelo_inurba_marseille","lat":43.25085,"lon":5.39523,"is_reserved":false,"is_disabled":false,"rental_uris":{"android":"levelo://app?vid=77bf1b8c-314e-4df8-8865-c0b5cdb8fbee","ios":"levelo://app?vid=77bf1b8c-314e-4df8-8865-c0b5cdb8fbee"},"vehicle_type_id":"4","last_reported":1744132146,"current_range_meters":16000,"station_id":"ce4bhm12rcd13ifvqgkg","pricing_plan_id":"cebpf4jnsgd1na2vs0mg"},{"bike_id":"46c99737-914c-4908-aeb8-48d54b22c93a","system_id":"levelo_inurba_marseille","lat":43.31735,"lon":5.42424,"is_reserved":false,"is_disabled":false,"rental_uris":{"android":"levelo://app?vid=46c99737-914c-4908-aeb8-48d54b22c93a","ios":"levelo://app?vid=46c99737-914c-4908-aeb8-48d54b22c93a"},"vehicle_type_id":"4","last_reported":1744132146,"current_range_meters":16000,"station_id":"ce4bhp92rcd13ifvqhbg","pricing_plan_id":"cebpf4jnsgd1na2vs0mg"},{"bike_id":"d229a2a9-4e7b-43eb-bd5a-7aed6af59124","system_id":"levelo_inurba_marseille","lat":43.28858,"lon":5.358446,"is_reserved":false,"is_disabled":false,"rental_uris":{"android":"levelo://app?vid=d229a2a9-4e7b-43eb-bd5a-7aed6af59124","ios":"levelo://app?vid=d229a2a9-4e7b-43eb-bd5a-7aed6af59124"},"vehicle_type_id":"4","last_reported":1744132146,"current_range_meters":16000,"station_id":"ce4bhlp2rcd13ifvqgjg","pricing_plan_id":"cebpf4jnsgd1na2vs0mg"},{"bike_id":"e0fd6dfe-2ee7-4885-afd8-4dab70c7b899","system_id":"levelo_inurba_marseille","lat":43.28667,"lon":5.36361,"is_reserved":false,"is_disabled":false,"rental_uris":{"android":"levelo://app?vid=e0fd6dfe-2ee7-4885-afd8-4dab70c7b899","ios":"levelo://app?vid=e0fd6dfe-2ee7-4885-afd8-4dab70c7b899"},"vehicle_type_id":"4","last_reported":1744132146,"current_range_meters":16000,"station_id":"ce4bhah2rcd13ifvqej0","pricing_plan_id":"cebpf4jnsgd1na2vs0mg"},{"bike_id":"883c8d90-abeb-4704-9c82-a9172c11ee9f","system_id":"levelo_inurba_marseille","lat":43.29536,"lon":5.38545,"is_reserved":false,"is_disabled":false,"rental_uris":{"android":"levelo://app?vid=883c8d90-abeb-4704-9c82-a9172c11ee9f","ios":"levelo://app?vid=883c8d90-abeb-4704-9c82-a9172c11ee9f"},"vehicle_type_id":"4","last_reported":1744132146,"current_range_meters":16400,"station_id":"ce4bgih2rcd13ifvqba0","pricing_plan_id":"cebpf4jnsgd1na2vs0mg"},{"bike_id":"80e7aebd-09ed-4523-b806-06b5c588e88e","system_id":"levelo_inurba_marseille","lat":43.29205,"lon":5.35788,"is_reserved":false,"is_disabled":false,"rental_uris":{"android":"levelo://app?vid=80e7aebd-09ed-4523-b806-06b5c588e88e","ios":"levelo://app?vid=80e7aebd-09ed-4523-b806-06b5c588e88e"},"vehicle_type_id":"4","last_reported":1744132146,"current_range_meters":16400,"station_id":"ce4bhb12rcd13ifvqel0","pricing_plan_id":"cebpf4jnsgd1na2vs0mg"},{"bike_id":"a95ccc11-645a-4b62-a629-0170defa74ce","system_id":"levelo_inurba_marseille","lat":43.29286,"lon":5.36841,"is_reserved":false,"is_disabled":false,"rental_uris":{"android":"levelo://app?vid=a95ccc11-645a-4b62-a629-0170defa74ce","ios":"levelo://app?vid=a95ccc11-645a-4b62-a629-0170defa74ce"},"vehicle_type_id":"4","last_reported":1744132146,"current_range_meters":16400,"station_id":"ce4bhbp2rcd13ifvqesg","pricing_plan_id":"cebpf4jnsgd1na2vs0mg"},{"bike_id":"5273534c-3473-4abd-9c4b-e677a5c1499a","system_id":"levelo_inurba_marseille","lat":43.29119,"lon":5.37,"is_reserved":false,"is_disabled":false,"rental_uris":{"android":"levelo://app?vid=5273534c-3473-4abd-9c4b-e677a5c1499a","ios":"levelo://app?vid=5273534c-3473-4abd-9c4b-e677a5c1499a"},"vehicle_type_id":"4","last_reported":1744132146,"current_range_meters":16400,"station_id":"","pricing_plan_id":"cebpf4jnsgd1na2vs0mg"},{"bike_id":"1e099cf5-9456-4ac3-8d36-9153ce8a87f2","system_id":"levelo_inurba_marseille","lat":43.29569,"lon":5.39964,"is_reserved":false,"is_disabled":true,"rental_uris":{"android":"levelo://app?vid=1e099cf5-9456-4ac3-8d36-9153ce8a87f2","ios":"levelo://app?vid=1e099cf5-9456-4ac3-8d36-9153ce8a87f2"},"vehicle_type_id":"4","last_reported":1744132146,"current_range_meters":16800,"station_id":"ce4bh312rcd13ifvqdj0","pricing_plan_id":"cebpf4jnsgd1na2vs0mg"},{"bike_id":"6b1aaabd-e54b-4069-a9f7-98fa404be4e0","system_id":"levelo_inurba_marseille","lat":43.31277,"lon":5.40157,"is_reserved":false,"is_disabled":false,"rental_uris":{"android":"levelo://app?vid=6b1aaabd-e54b-4069-a9f7-98fa404be4e0","ios":"levelo://app?vid=6b1aaabd-e54b-4069-a9f7-98fa404be4e0"},"vehicle_type_id":"4","last_reported":1744132146,"current_range_meters":16800,"station_id":"ce4bh092rcd13ifvqd30","pricing_plan_id":"cebpf4jnsgd1na2vs0mg"},{"bike_id":"96f37942-070e-4db3-a4b6-8c86183dfd4b","system_id":"levelo_inurba_marseille","lat":43.28673,"lon":5.3867,"is_reserved":false,"is_disabled":false,"rental_uris":{"android":"levelo://app?vid=96f37942-070e-4db3-a4b6-8c86183dfd4b","ios":"levelo://app?vid=96f37942-070e-4db3-a4b6-8c86183dfd4b"},"vehicle_type_id":"4","last_reported":1744132146,"current_range_meters":16800,"station_id":"ce4bh492rcd13ifvqdug","pricing_plan_id":"cebpf4jnsgd1na2vs0mg"},{"bike_id":"4ac0442a-faad-4c11-885f-bfd16fb59317","system_id":"levelo_inurba_marseille","lat":43.32293,"lon":5.38269,"is_reserved":false,"is_disabled":false,"rental_uris":{"android":"levelo://app?vid=4ac0442a-faad-4c11-885f-bfd16fb59317","ios":"levelo://app?vid=4ac0442a-faad-4c11-885f-bfd16fb59317"},"vehicle_type_id":"4","last_reported":1744132146,"current_range_meters":16800,"station_id":"ce4bhr12rcd13ifvqhqg","pricing_plan_id":"cebpf4jnsgd1na2vs0mg"},{"bike_id":"a2de091c-dc2b-48d7-95a3-eed86e079c57","system_id":"levelo_inurba_marseille","lat":43.286163,"lon":5.351086,"is_reserved":false,"is_disabled":false,"rental_uris":{"android":"levelo://app?vid=a2de091c-dc2b-48d7-95a3-eed86e079c57","ios":"levelo://app?vid=a2de091c-dc2b-48d7-95a3-eed86e079c57"},"vehicle_type_id":"4","last_reported":1744132146,"current_range_meters":16800,"station_id":"ce4bhch2rcd13ifvqeug","pricing_plan_id":"cebpf4jnsgd1na2vs0mg"},