{"last_updated":1733991232,"ttl":60,"version":"2.2","data":{"bikes":[{"bike_id":"f273d2db-9d28-4c2f-99d9-9f030249d630","system_id":"levelo_inurba_marseille","lat":43.24082,"lon":5.37757,"is_reserved":false,"is_disabled":false,"rental_uris":{"android":"levelo://app?vid=f273d2db-9d28-4c2f-99d9-9f030249d630","ios":"levelo://app?vid=f273d2db-9d28-4c2f-99d9-9f030249d630"},"vehicle_type_id":"4","last_reported":1733991232,"current_range_meters":29600,"station_id":"ce4bhnp2rcd13ifvqgvg","pricing_plan_id":"cebpf4jnsgd1na2vs0mg"},{"bike_id":"8263a4d7-7ccc-4204-8a4c-16e4591ea1b3","system_id":"levelo_inurba_marseille","lat":43.29681,"lon":5.37308,"is_reserved":false,"is_disabled":false,"rental_uris":{"android":"levelo://app?vid=8263a4d7-7ccc-4204-8a4c-16e4591ea1b3","ios":"levelo://app?vid=8263a4d7-7ccc-4204-8a4c-16e4591ea1b3"},"vehicle_type_id":"4","last_reported":1733991232,"current_range_meters":27200,"station_id":"ce4bgk12rcd13ifvqbj0","pricing_plan_id":"cebpf4jnsgd1na2vs0mg"},{"bike_id":"60e9ed68-c2d5-4fcc-b1fe-df98992a2ea5","system_id":"levelo_inurba_marseille","lat":43.30764,"lon":5.36837,"is_reserved":false,"is_disabled":true,"rental_uris":{"android":"levelo://app?vid=60e9ed68-c2d5-4fcc-b1fe-df98992a2ea5","ios":"levelo://app?vid=60e9ed68-c2d5-4fcc-b1fe-df98992a2ea5"},"vehicle_type_id":"4","last_reported":1733991232,"current_range_meters":0,"station_id":"","pricing_plan_id":"cebpf4jnsgd1na2vs0mg"},{"bike_id":"f744e09c-8eab-4841-a591-6090e5f5c82d","system_id":"levelo_inurba_marseille","lat":43.29043,"lon":5.37567,"is_reserved":false,"is_disabled":false,"rental_uris":{"android":"levelo://app?vid=f744e09c-8eab-4841-a591-6090e5f5c82d","ios":"levelo://app?vid=f744e09c-8eab-4841-a591-6090e5f5c82d"},"vehicle_type_id":"4","last_reported":1733991232,"current_range_meters":22800,"station_id":"ce4bh692rcd13ifvqe90","pricing_plan_id":"cebpf4jnsgd1na2vs0mg"},{"bike_id":"b266efff-3a14-4d1a-a25a-c68ad062a1f4","system_id":"levelo_inurba_marseille","lat":43.24162,"lon":5.36399,"is_reserved":false,"is_disabled":false,"rental_uris":{"android":"levelo://app?vid=b266efff-3a14-4d1a-a25a-c68ad062a1f4","ios":"levelo://app?vid=b266efff-3a14-4d1a-a25a-c68ad062a1f4"},"vehicle_type_id":"4","last_reported":1733991232,"current_range_meters":6400,"station_id":"cpo36qri1sfpv3e86is0","pricing_plan_id":"cebpf4jnsgd1na2vs0mg"},{"bike_id":"f2676ae1-aa79-4ab9-8ade-6a25f90c5540","system_id":"levelo_inurba_marseille","lat":43.25936,"lon":5.40897,"is_reserved":false,"is_disabled":false,"rental_uris":{"android":"levelo://app?vid=f2676ae1-aa79-4ab9-8ade-6a25f90c5540","ios":"levelo://app?vid=f2676ae1-aa79-4ab9-8ade-6a25f90c5540"},"vehicle_type_id":"4","last_reported":1733991232,"current_range_meters":30000,"station_id":"ce4bhm92rcd13ifvqglg","pricing_plan_id":"cebpf4jnsgd1na2vs0mg"},{"bike_id":"7ea4d232-e2a4-497c-83a9-c6bd7e71ef17","system_id":"levelo_inurba_marseille","lat":43.24083,"lon":5.37757,"is_reserved":false,"is_disabled":false,"rental_uris":{"android":"levelo://app?vid=7ea4d232-e2a4-497c-83a9-c6bd7e71ef17","ios":"levelo://app?vid=7ea4d232-e2a4-497c-83a9-c6bd7e71ef17"},"vehicle_type_id":"4","last_reported":1733991232,"current_range_meters":12400,"station_id":"ce4bhnp2rcd13ifvqgvg","pricing_plan_id":"cebpf4jnsgd1na2vs0mg"},{"bike_id":"317ccf12-2059-42d8-b035-6e2e75ca8e08","system_id":"levelo_inurba_marseille","lat":43.30519,"lon":5.41307,"is_reserved":false,"is_disabled":false,"rental_uris":{"android":"levelo://app?vid=317ccf12-2059-42d8-b035-6e2e75ca8e08","ios":"levelo://app?vid=317ccf12-2059-42d8-b035-6e2e75ca8e08"},"vehicle_type_id":"4","last_reported":1733991232,"current_range_meters":25200,"station_id":"","pricing_plan_id":"cebpf4jnsgd1na2vs0mg"},{"bike_id":"fb886c68-9c54-4ccd-b964-6489edb35b3a","system_id":"levelo_inurba_marseille","lat":43.26935,"lon":5.3892,"is_reserved":false,"is_disabled":true,"rental_uris":{"android":"levelo://app?vid=fb886c68-9c54-4ccd-b964-6489edb35b3a","ios":"levelo://app?vid=fb886c68-9c54-4ccd-b964-6489edb35b3a"},"vehicle_type_id":"4","last_reported":1733991232,"current_range_meters":24800,"station_id":"ce4bhhh2rcd13ifvqfl0","pricing_plan_id":"cebpf4jnsgd1na2vs0mg"},{"bike_id":"007e69be-6d2e-4359-917b-ad1c3c2a58f6","system_id":"levelo_inurba_marseille","lat":43.28364,"lon":5.38616,"is_reserved":false,"is_disabled":true,"rental_uris":{"android":"levelo://app?vid=007e69be-6d2e-4359-917b-ad1c3c2a58f6","ios":"levelo://app?vid=007e69be-6d2e-4359-917b-ad1c3c2a58f6"},"vehicle_type_id":"4","last_reported":1733991232,"current_range_meters":16800,"station_id":"ce4bh492rcd13ifvqdvg","pricing_plan_id":"cebpf4jnsgd1na2vs0mg"},{"bike_id":"18e61f94-f0f7-41a3-b73e-0b22c6b66c7c","system_id":"levelo_inurba_marseille","lat":43.30151,"lon":5.38079,"is_reserved":false,"is_disabled":false,"rental_uris":{"android":"levelo://app?vid=18e61f94-f0f7-41a3-b73e-0b22c6b66c7c","ios":"levelo://app?vid=18e61f94-f0f7-41a3-b73e-0b22c6b66c7c"},"vehicle_type_id":"4","last_reported":1733991232,"current_range_meters":22800,"station_id":"ce4bgjp2rcd13ifvqbh0","pricing_plan_id":"cebpf4jnsgd1na2vs0mg"},{"bike_id":"980f96eb-32c9-4906-98f6-c44dbf4c84a1","system_id":"levelo_inurba_marseille","lat":43.27455,"lon":5.40073,"is_reserved":false,"is_disabled":true,"rental_uris":{"android":"levelo://app?vid=980f96eb-32c9-4906-98f6-c44dbf4c84a1","ios":"levelo://app?vid=980f96eb-32c9-4906-98f6-c44dbf4c84a1"},"vehicle_type_id":"4","last_reported":1733991232,"current_range_meters":0,"station_id":"","pricing_plan_id":"cebpf4jnsgd1na2vs0mg"},{"bike_id":"294f0fc2-6098-4ef2-9532-49b9abc126d6","system_id":"levelo_inurba_marseille","lat":43.29174,"lon":5.3716,"is_reserved":false,"is_disabled":false,"rental_uris":{"android":"levelo://app?vid=294f0fc2-6098-4ef2-9532-49b9abc126d6","ios":"levelo://app?vid=294f0fc2-6098-4ef2-9532-49b9abc126d6"},"vehicle_type_id":"4","last_reported":1733991232,"current_range_meters":25200,"station_id":"ce4bha92rcd13ifvqeh0","pricing_plan_id":"cebpf4jnsgd1na2vs0mg"},{"bike_id":"2b3a9813-17a5-4b25-abbb-517e85f35dd3","system_id":"levelo_inurba_marseille","lat":43.30542,"lon":5.38421,"is_reserved":false,"is_disabled":true,"rental_uris":{"android":"levelo://app?vid=2b3a9813-17a5-4b25-abbb-517e85f35dd3","ios":"levelo://app?vid=2b3a9813-17a5-4b25-abbb-517e85f35dd3"},"vehicle_type_id":"4","last_reported":1733991232,"current_range_meters":32000,"station_id":"ce4bgg92rcd13ifvqb30","pricing_plan_id":"cebpf4jnsgd1na2vs0mg"},{"bike_id":"e184f6ac-238c-4ab6-9649-af5dc41745d8","system_id":"levelo_inurba_marseille","lat":43.31346,"lon":5.36709,"is_reserved":false,"is_disabled":false,"rental_uris":{"android":"levelo://app?vid=e184f6ac-238c-4ab6-9649-af5dc41745d8","ios":"levelo://app?vid=e184f6ac-238c-4ab6-9649-af5dc41745d8"},"vehicle_type_id":"4","last_reported":1733991232,"current_range_meters":33600,"station_id":"ce4bgr92rcd13ifvqc6g","pricing_plan_id":"cebpf4jnsgd1na2vs0mg"},{"bike_id":"e77c41ec-01fc-4fd5-a63a-7ada717e028a","system_id":"levelo_inurba_marseille","lat":43.26056,"lon":5.39391,"is_reserved":false,"is_disabled":false,"rental_uris":{"android":"levelo://app?vid=e77c41ec-01fc-4fd5-a63a-7ada717e028a","ios":"levelo://app?vid=e77c41ec-01fc-4fd5-a63a-7ada717e028a"},"vehicle_type_id":"4","last_reported":1733991232,"current_range_meters":38800,"station_id":"ce4bhh92rcd13ifvqfj0","pricing_plan_id":"cebpf4jnsgd1na2vs0mg"},{"bike_id":"d721ce4d-f675-4ec7-8264-3655d66274ca","system_id":"levelo_inurba_marseille","lat":43.25592,"lon":5.38221,"is_reserved":false,"is_disabled":false,"rental_uris":{"android":"levelo://app?vid=d721ce4d-f675-4ec7-8264-3655d66274ca","ios":"levelo://app?vid=d721ce4d-f675-4ec7-8264-3655d66274ca"},"vehicle_type_id":"4","last_reported":1733991232,"current_range_meters":14800,"station_id":"ce4bhih2rcd13ifvqfs0","pricing_plan_id":"cebpf4jnsgd1na2vs0mg"},{"bike_id":"f5664abe-9f1e-4458-b6a4-39fb7e8b900a","system_id":"levelo_inurba_marseille","lat":43.29571,"lon":5.37515,"is_reserved":false,"is_disabled":true,"rental_uris":{"android":"levelo://app?vid=f5664abe-9f1e-4458-b6a4-39fb7e8b900a","ios":"levelo://app?vid=f5664abe-9f1e-4458-b6a4-39fb7e8b900a"},"vehicle_type_id":"4","last_reported":1733991232,"current_range_meters":0,"station_id":"ce4bgh92rcd13ifvqb50","pricing_plan_id":"cebpf4jnsgd1na2vs0mg"},{"bike_id":"5d8b54bf-ec9d-4f64-936f-80b735b228c8","system_id":"levelo_inurba_marseille","lat":43.27988,"lon":5.41655,"is_reserved":false,"is_disabled":false,"rental_uris":{"android":"levelo://app?vid=5d8b54bf-ec9d-4f64-936f-80b735b228c8","ios":"levelo://app?vid=5d8b54bf-ec9d-4f64-936f-80b735b228c8"},"vehicle_type_id":"4","last_reported":1733991232,"current_range_meters":37600,"station_id":"ce4bho12rcd13ifvqh1g","pricing_plan_id":"cebpf4jnsgd1na2vs0mg"},{"bike_id":"a118724e-099d-4517-9529-bc6e47cefa3a","system_id":"levelo_inurba_marseille","lat":43.30558,"lon":5.36524,"is_reserved":false,"is_disabled":false,"rental_uris":{"android":"levelo://app?vid=a118724e-099d-4517-9529-bc6e47cefa3a","ios":"levelo://app?vid=a118724e-099d-4517-9529-bc6e47cefa3a"},"vehicle_type_id":"4","last_reported":1733991232,"current_range_meters":30400,"station_id":"ce4bgs12rcd13ifvqcag","pricing_plan_id":"cebpf4jnsgd1na2vs0mg"},{"bike_id":"2e858be5-355e-49f4-a437-bb76e1d96d64","system_id":"levelo_inurba_marseille","lat":43.292,"lon":5.39319,"is_reserved":false,"is_disabled":false,"rental_uris":{"android":"levelo://app?vid=2e858be5-355e-49f4-a437-bb76e1d96d64","ios":"levelo://app?vid=2e858be5-355e-49f4-a437-bb76e1d96d64"},"vehicle_type_id":"4","last_reported":1733991232,"current_range_meters":34800,"station_id":"ce4bh192rcd13ifvqdd0","pricing_plan_id":"cebpf4jnsgd1na2vs0mg"},{"bike_id":"7068b4a8-ea4d-4a77-8a10-ade7ea67a6a9","system_id":"levelo_inurba_marseille","lat":43.27499,"lon":5.42455,"is_reserved":false,"is_disabled":false,"rental_uris":{"android":"levelo://app?vid=7068b4a8-ea4d-4a77-8a10-ade7ea67a6a9","ios":"levelo://app?vid=7068b4a8-ea4d-4a77-8a10-ade7ea67a6a9"},"vehicle_type_id":"4","last_reported":1733991232,"current_range_meters":17200,"station_id":"ce4bhn92rcd13ifvqgrg","pricing_plan_id":"cebpf4jnsgd1na2vs0mg"},{"bike_id":"1301c2fd-c7ff-4e18-9e0a-494e4e9bcdd5","system_id":"levelo_inurba_marseille","lat":43.30533,"lon":5.36527,"is_reserved":false,"is_disabled":false,"rental_uris":{"android":"levelo://app?vid=1301c2fd-c7ff-4e18-9e0a-494e4e9bcdd5","ios":"levelo://app?vid=1301c2fd-c7ff-4e18-9e0a-494e4e9bcdd5"},"vehicle_type_id":"4","last_reported":1733991232,"current_range_meters":39200,"station_id":"ce4bgs12rcd13ifvqcag","pricing_plan_id":"cebpf4jnsgd1na2vs0mg"},{"bike_id":"0aef8e9d-f456-4f07-bb45-92c78106ea88","system_id":"levelo_inurba_marseille","lat":43.2917,"lon":5.37162,"is_reserved":false,"is_disabled":false,"rental_uris":{"android":"levelo://app?vid=0aef8e9d-f456-4f07-bb45-92c78106ea88","ios":"levelo://app?vid=0aef8e9d-f456-4f07-bb45-92c78106ea88"},"vehicle_type_id":"4","last_reported":1733991232,"current_range_meters":29600,"station_id":"ce4bha92rcd13ifvqeh0","pricing_plan_id":"cebpf4jnsgd1na2vs0mg"},{"bike_id":"ea7efa02-e04c-456d-bb9f-f7af6f405ec5","system_id":"levelo_inurba_marseille","lat":43.33749,"lon":5.37459,"is_reserved":false,"is_disabled":false,"rental_uris":{"android":"levelo://app?vid=ea7efa02-e04c-456d-bb9f-f7af6f405ec5","ios":"levelo://app?vid=ea7efa02-e04c-456d-bb9f-f7af6f405ec5"},"vehicle_type_id":"4","last_reported":1733991232,"current_range_meters":38000,"station_id":"","pricing_plan_id":"cebpf4jnsgd1na2vs0mg"},{"bike_id":"a63aa4f7-416d-41b3-86ee-b1056509ed96","system_id":"levelo_inurba_marseille","lat":43.30282,"lon":5.37723,"is_reserved":false,"is_disabled":false,"rental_uris":{"android":"levelo://app?vid=a63aa4f7-416d-41b3-86ee-b1056509ed96","ios":"levelo://app?vid=a63aa4f7-416d-41b3-86ee-b1056509ed96"},"vehicle_type_id":"4","last_reported":1733991232,"current_range_meters":39200,"station_id":"ce4bguh2rcd13ifvqcj0","pricing_plan_id":"cebpf4jnsgd1na2vs0mg"},{"bike_id":"faf2cdbf-7416-4127-8f63-110aab24cbfa","system_id":"levelo_inurba_marseille","lat":43.30186,"lon":5.36624,"is_reserved":false,"is_disabled":false,"rental_uris":{"android":"levelo://app?vid=faf2cdbf-7416-4127-8f63-110aab24cbfa","ios":"levelo://app?vid=faf2cdbf-7416-4127-8f63-110aab24cbfa"},"vehicle_type_id":"4","last_reported":1733991232,"current_range_meters":32000,"station_id":"ce4bgrh2rcd13ifvqc8g","pricing_plan_id":"cebpf4jnsgd1na2vs0mg"},{"bike_id":"36272bbc-2413-4d65-9f8d-f8eaf63041c0","system_id":"levelo_inurba_marseille","lat":43.270626,"lon":5.40261,"is_reserved":false,"is_disabled":true,"rental_uris":{"android":"levelo://app?vid=36272bbc-2413-4d65-9f8d-f8eaf63041c0","ios":"levelo://app?vid=36272bbc-2413-4d65-9f8d-f8eaf63041c0"},"vehicle_type_id":"4","last_reported":1733991232,"current_range_meters":24800,"station_id":"ce4bhk92rcd13ifvqgc0","pricing_plan_id":"cebpf4jnsgd1na2vs0mg"},{"bike_id":"fe4cab58-ba30-4c78-b62f-d4434eea7628","system_id":"levelo_inurba_marseille","lat":43.29444,"lon":5.39768,"is_reserved":false,"is_disabled":true,"rental_uris":{"android":"levelo://app?vid=fe4cab58-ba30-4c78-b62f-d4434eea7628","ios":"levelo://app?vid=fe4cab58-ba30-4c78-b62f-d4434eea7628"},"vehicle_type_id":"4","last_reported":1733991232,"current_range_meters":32400,"station_id":"ce4bh3h2rcd13ifvqdo0","pricing_plan_id":"cebpf4jnsgd1na2vs0mg"},{"bike_id":"3093cc6a-4dc7-42db-8355-04f1168da239","system_id":"levelo_inurba_marseille","lat":43.24077,"lon":5.37754,"is_reserved":false,"is_disabled":false,"rental_uris":{"android":"levelo://app?vid=3093cc6a-4dc7-42db-8355-04f1168da239","ios":"levelo://app?vid=3093cc6a-4dc7-42db-8355-04f1168da239"},"vehicle_type_id":"4","last_reported":1733991232,"current_range_meters":16400,"station_id":"ce4bhnp2rcd13ifvqgvg","pricing_plan_id":"cebpf4jnsgd1na2vs0mg"},{"bike_id":"80f66b82-54aa-4843-b64e-91d3afce4948","system_id":"levelo_inurba_marseille","lat":43.31219,"lon":5.36821,"is_reserved":false,"is_disabled":true,"rental_uris":{"android":"levelo://app?vid=80f66b82-54aa-4843-b64e-91d3afce4948","ios":"levelo://app?vid=80f66b82-54aa-4843-b64e-91d3afce4948"},"vehicle_type_id":"4","last_reported":1733991232,"current_range_meters":32800,"station_id":"ce4bgl92rcd13ifvqbq0","pricing_plan_id":"cebpf4jnsgd1na2vs0mg"},{"bike_id":"1c05fdb4-c893-4820-9992-1b73a6bfec3b","system_id":"levelo_inurba_marseille","lat":43.29844,"lon":5.36265,"is_reserved":false,"is_disabled":false,"rental_uris":{"android":"levelo://app?vid=1c05fdb4-c893-4820-9992-1b73a6bfec3b","ios":"levelo://app?vid=1c05fdb4-c893-4820-9992-1b73a6bfec3b"},"vehicle_type_id":"4","last_reported":1733991232,"current_range_meters":17200,"station_id":"ce4bgpp2rcd13ifvqc3g","pricing_plan_id":"cebpf4jnsgd1na2vs0mg"},{"bike_id":"4aa82461-109c-4724-a4f6-f62095b7ba2d","system_id":"levelo_inurba_marseille","lat":43.29628,"lon":5.37693,"is_reserved":false,"is_disabled":false,"rental_uris":{"android":"levelo://app?vid=4aa82461-109c-4724-a4f6-f62095b7ba2d","ios":"levelo://app?vid=4aa82461-109c-4724-a4f6-f62095b7ba2d"},"vehicle_type_id":"4","last_reported":1733991232,"current_range_meters":38800,"station_id":"ce4bgi92rcd13ifvqb90","pricing_plan_id":"cebpf4jnsgd1na2vs0mg"},{"bike_id":"35808104-2e52-4245-b12f-c8dafc5cce55","system_id":"levelo_inurba_marseille","lat":43.32476,"lon":5.36596,"is_reserved":false,"is_disabled":false,"rental_uris":{"android":"levelo://app?vid=35808104-2e52-4245-b12f-c8dafc5cce55","ios":"levelo://app?vid=35808104-2e52-4245-b12f-c8dafc5cce55"},"vehicle_type_id":"4","last_reported":1733991232,"current_range_meters":27600,"station_id":"ce4bhs12rcd13ifvqhvg","pricing_plan_id":"cebpf4jnsgd1na2vs0mg"},{"bike_id":"3a56946e-b571-4f0a-89c3-228266a44430","system_id":"levelo_inurba_marseille","lat":43.26597,"lon":5.38971,"is_reserved":false,"is_disabled":true,"rental_uris":{"android":"levelo://app?vid=3a56946e-b571-4f0a-89c3-228266a44430","ios":"levelo://app?vid=3a56946e-b571-4f0a-89c3-228266a44430"},"vehicle_type_id":"4","last_reported":1733991232,"current_range_meters":4000,"station_id":"","pricing_plan_id":"cebpf4jnsgd1na2vs0mg"},{"bike_id":"a7f580ed-51b4-4313-a41e-537f7413d4cc","system_id":"levelo_inurba_marseille","lat":43.27493,"lon":5.42451,"is_reserved":false,"is_disabled":true,"rental_uris":{"android":"levelo://app?vid=a7f580ed-51b4-4313-a41e-537f7413d4cc","ios":"levelo://app?vid=a7f580ed-51b4-4313-a41e-537f7413d4cc"},"vehicle_type_id":"4","last_reported":1733991232,"current_range_meters":36000,"station_id":"ce4bhn92rcd13ifvqgrg","pricing_plan_id":"cebpf4jnsgd1na2vs0mg"},{"bike_id":"3ab18063-f363-4655-acbb-1b91bc803794","system_id":"levelo_inurba_marseille","lat":43.28978,"lon":5.3783,"is_reserved":false,"is_disabled":true,"rental_uris":{"android":"levelo://app?vid=3ab18063-f363-4655-acbb-1b91bc803794","ios":"levelo://app?vid=3ab18063-f363-4655-acbb-1b91bc803794"},"vehicle_type_id":"4","last_reported":1733991232,"current_range_meters":1600,"station_id":"ce4bh9p2rcd13ifvqed0","pricing_plan_id":"cebpf4jnsgd1na2vs0mg"},{"bike_id":"83d86471-0b95-4477-9349-a015d55c6b4b","system_id":"levelo_inurba_marseille","lat":43.31984,"lon":5.38125,"is_reserved":false,"is_disabled":true,"rental_uris":{"android":"levelo://app?vid=83d86471-0b95-4477-9349-a015d55c6b4b","ios":"levelo://app?vid=83d86471-0b95-4477-9349-a015d55c6b4b"},"vehicle_type_id":"4","last_reported":1733991232,"current_range_meters":0,"station_id":"ce4bhr12rcd13ifvqhpg","pricing_plan_id":"cebpf4jnsgd1na2vs0mg"},{"bike_id":"538c5820-1da6-405b-97ad-542e7b6c44b3","system_id":"levelo_inurba_marseille","lat":43.23194,"lon":5.39989,"is_reserved":false,"is_disabled":false,"rental_uris":{"android":"levelo://app?vid=538c5820-1da6-405b-97ad-542e7b6c44b3","ios":"levelo://app?vid=538c5820-1da6-405b-97ad-542e7b6c44b3"},"vehicle_type_id":"4","last_reported":1733991232,"current_range_meters":19200,"station_id":"ce4bhn12rcd13ifvqgqg","pricing_plan_id":"cebpf4jnsgd1na2vs0mg"},{"bike_id":"f14d2b3c-9aaa-458d-8182-65880c735ed7","system_id":"levelo_inurba_marseille","lat":43.26571,"lon":5.39013,"is_reserved":false,"is_disabled":false,"rental_uris":{"android":"levelo://app?vid=f14d2b3c-9aaa-458d-8182-65880c735ed7","ios":"levelo://app?vid=f14d2b3c-9aaa-458d-8182-65880c735ed7"},"vehicle_type_id":"4","last_reported":1733991232,"current_range_meters":33200,"station_id":"ce4bhe12rcd13ifvqf30","pricing_plan_id":"cebpf4jnsgd1na2vs0mg"},{"bike_id":"8bb7e083-cec3-4d7e-a331-c7cc5d7b23df","system_id":"levelo_inurba_marseille","lat":43.27495,"lon":5.42455,"is_reserved":false,"is_disabled":false,"rental_uris":{"android":"levelo://app?vid=8bb7e083-cec3-4d7e-a331-c7cc5d7b23df","ios":"levelo://app?vid=8bb7e083-cec3-4d7e-a331-c7cc5d7b23df"},"vehicle_type_id":"4","last_reported":1733991232,"current_range_meters":20400,"station_id":"ce4bhn92rcd13ifvqgrg","pricing_plan_id":"cebpf4jnsgd1na2vs0mg"},{"bike_id":"607dead6-d82d-4803-872b-9405f5b50010","system_id":"levelo_inurba_marseille","lat":43.30143,"lon":5.37399,"is_reserved":false,"is_disabled":false,"rental_uris":{"android":"levelo://app?vid=607dead6-d82d-4803-872b-9405f5b50010","ios":"levelo://app?vid=607dead6-d82d-4803-872b-9405f5b50010"},"vehicle_type_id":"4","last_reported":1733991232,"current_range_meters":23200,"station_id":"ce4bgs92rcd13ifvqcc0","pricing_plan_id":"cebpf4jnsgd1na2vs0mg"},{"bike_id":"9f59e8d7-10ba-46c0-a923-c79005d0d0a6","system_id":"levelo_inurba_marseille","lat":43.29933,"lon":5.37465,"is_reserved":false,"is_disabled":false,"rental_uris":{"android":"levelo://app?vid=9f59e8d7-10ba-46c0-a923-c79005d0d0a6","ios":"levelo://app?vid=9f59e8d7-10ba-46c0-a923-c79005d0d0a6"},"vehicle_type_id":"4","last_reported":1733991232,"current_range_meters":30000,"station_id":"ce4bgjh2rcd13ifvqbg0","pricing_plan_id":"cebpf4jnsgd1na2vs0mg"},{"bike_id":"1b52a459-b8e5-48e8-9d1f-6855d5a13160","system_id":"levelo_inurba_marseille","lat":43.30274,"lon":5.37705,"is_reserved":false,"is_disabled":false,"rental_uris":{"android":"levelo://app?vid=1b52a459-b8e5-48e8-9d1f-6855d5a13160","ios":"levelo://app?vid=1b52a459-b8e5-48e8-9d1f-6855d5a13160"},"vehicle_type_id":"4","last_reported":1733991232,"current_range_meters":38800,"station_id":"ce4bguh2rcd13ifvqcj0","pricing_plan_id":"cebpf4jnsgd1na2vs0mg"},{"bike_id":"9871f0da-4b77-4909-a316-de5e03fee1c8","system_id":"levelo_inurba_marseille","lat":43.29725,"lon":5.37696,"is_reserved":false,"is_disabled":false,"rental_uris":{"android":"levelo://app?vid=9871f0da-4b77-4909-a316-de5e03fee1c8","ios":"levelo://app?vid=9871f0da-4b77-4909-a316-de5e03fee1c8"},"vehicle_type_id":"4","last_reported":1733991232,"current_range_meters":36400,"station_id":"ce4bgkh2rcd13ifvqbl0","pricing_plan_id":"cebpf4jnsgd1na2vs0mg"},{"bike_id":"11933e04-d81a-4d25-aa83-cc295172b3a1","system_id":"levelo_inurba_marseille","lat":43.25415,"lon":5.38254,"is_reserved":false,"is_disabled":true,"rental_uris":{"android":"levelo://app?vid=11933e04-d81a-4d25-aa83-cc295172b3a1","ios":"levelo://app?vid=11933e04-d81a-4d25-aa83-cc295172b3a1"},"vehicle_type_id":"4","last_reported":1733991232,"current_range_meters":30800,"station_id":"","pricing_plan_id":"cebpf4jnsgd1na2vs0mg"},{"bike_id":"eb6dfd80-6e3a-4c5a-b329-b4b580f057e4","system_id":"levelo_inurba_marseille","lat":43.27493,"lon":5.42457,"is_reserved":false,"is_disabled":false,"rental_uris":{"android":"levelo://app?vid=eb6dfd80-6e3a-4c5a-b329-b4b580f057e4","ios":"levelo://app?vid=eb6dfd80-6e3a-4c5a-b329-b4b580f057e4"},"vehicle_type_id":"4","last_reported":1733991232,"current_range_meters":30400,"station_id":"ce4bhn92rcd13ifvqgrg","pricing_plan_id":"cebpf4jnsgd1na2vs0mg"},{"bike_id":"6faa6ee7-a588-4286-8e0c-a7deeaae5bab","system_id":"levelo_inurba_marseille","lat":43.27369,"lon":5.36264,"is_reserved":false,"is_disabled":false,"rental_uris":{"android":"levelo://app?vid=6faa6ee7-a588-4286-8e0c-a7deeaae5bab","ios":"levelo://app?vid=6faa6ee7-a588-4286-8e0c-a7deeaae5bab"},"vehicle_type_id":"4","last_reported":1733991232,"current_range_meters":38800,"station_id":"ce4bhbh2rcd13ifvqeo0","pricing_plan_id":"cebpf4jnsgd1na2vs0mg"},{"bike_id":"b6a68996-7580-4e05-9793-92d20ed9e0c0","system_id":"levelo_inurba_marseille","lat":43.25003,"lon":5.38924,"is_reserved":false,"is_disabled":false,"rental_uris":{"android":"levelo://app?vid=b6a68996-7580-4e05-9793-92d20ed9e0c0","ios":"levelo://app?vid=b6a68996-7580-4e05-9793-92d20ed9e0c0"},"vehicle_type_id":"4","last_reported":1733991232,"current_range_meters":27200,"station_id":"ce4bhgp2rcd13ifvqfd0","pricing_plan_id":"cebpf4jnsgd1na2vs0mg"},{"bike_id":"30b7f7b0-cffb-44e8-9e23-86428fe1183d","system_id":"levelo_inurba_marseille","lat":43.23059,"lon":5.35486,"is_reserved":false,"is_disabled":false,"rental_uris":{"android":"levelo://app?vid=30b7f7b0-cffb-44e8-9e23-86428fe1183d","ios":"levelo://app?vid=30b7f7b0-cffb-44e8-9e23-86428fe1183d"},"vehicle_type_id":"4","last_reported":1733991232,"current_range_meters":8800,"station_id":"cpo3342slgdg3j2ifvpg","pricing_plan_id":"cebpf4jnsgd1na2vs0mg"},{"bike_id":"6af13618-4365-4d73-921a-aee3b3e1b285","system_id":"levelo_inurba_marseille","lat":43.26677,"lon":5.38266,"is_reserved":false,"is_disabled":false,"rental_uris":{"android":"levelo://app?vid=6af13618-4365-4d73-921a-aee3b3e1b285","ios":"levelo://app?vid=6af13618-4365-4d73-921a-aee3b3e1b285"},"vehicle_type_id":"4","last_reported":1733991232,"current_range_meters":8400,"station_id":"ce4bhg92rcd13ifvqf90","pricing_plan_id":"cebpf4jnsgd1na2vs0mg"},{"bike_id":"d6d5670a-39f7-4193-8de1-90ffa577f14e","system_id":"levelo_inurba_marseille","lat":43.26204,"lon":5.37932,"is_reserved":false,"is_disabled":false,"rental_uris":{"android":"levelo://app?vid=d6d5670a-39f7-4193-8de1-90ffa577f14e","ios":"levelo://app?vid=d6d5670a-39f7-4193-8de1-90ffa577f14e"},"vehicle_type_id":"4","last_reported":1733991232,"current_range_meters":38400,"station_id":"ce4bhjp2rcd13ifvqg90","pricing_plan_id":"cebpf4jnsgd1na2vs0mg"},{"bike_id":"de97b613-0ba9-495e-88ca-5ec4dd312484","system_id":"levelo_inurba_marseille","lat":43.28023,"lon":5.36945,"is_reserved":false,"is_disabled":false,"rental_uris":{"android":"levelo://app?vid=de97b613-0ba9-495e-88ca-5ec4dd312484","ios":"levelo://app?vid=de97b613-0ba9-495e-88ca-5ec4dd312484"},"vehicle_type_id":"4","last_reported":1733991232,"current_range_meters":23200,"station_id":"ce4bha12rcd13ifvqef0","pricing_plan_id":"cebpf4jnsgd1na2vs0mg"},{"bike_id":"f8b49a8b-76af-4c34-a445-4719a4b98693","system_id":"levelo_inurba_marseille","lat":43.322869,"lon":5.382832,"is_reserved":false,"is_disabled":false,"rental_uris":{"android":"levelo://app?vid=f8b49a8b-76af-4c34-a445-4719a4b98693","ios":"levelo://app?vid=f8b49a8b-76af-4c34-a445-4719a4b98693"},"vehicle_type_id":"4","last_reported":1733991232,"current_range_meters":38400,"station_id":"ce4bhr12rcd13ifvqhqg","pricing_plan_id":"cebpf4jnsgd1na2vs0mg"},{"bike_id":"302f543c-4369-40d9-baa7-901915e518d9","system_id":"levelo_inurba_marseille","lat":43.2586,"lon":5.39905,"is_reserved":false,"is_disabled":true,"rental_uris":{"android":"levelo://app?vid=302f543c-4369-40d9-baa7-901915e518d9","ios":"levelo://app?vid=302f543c-4369-40d9-baa7-901915e518d9"},"vehicle_type_id":"4","last_reported":1733991232,"current_range_meters":37600,"station_id":"ce4bhl92rcd13ifvqghg","pricing_plan_id":"cebpf4jnsgd1na2vs0mg"},{"bike_id":"8d2c5b72-3521-42ce-b57e-737839661ba9","system_id":"levelo_inurba_marseille","lat":43.24164,"lon":5.39726,"is_reserved":false,"is_disabled":false,"rental_uris":{"android":"levelo://app?vid=8d2c5b72-3521-42ce-b57e-737839661ba9","ios":"levelo://app?vid=8d2c5b72-3521-42ce-b57e-737839661ba9"},"vehicle_type_id":"4","last_reported":1733991232,"current_range_meters":20800,"station_id":"ce4bhn12rcd13ifvqgpg","pricing_plan_id":"cebpf4jnsgd1na2vs0mg"},{"bike_id":"b6b6c307-3f7e-4b60-a9aa-2658b68f071c","system_id":"levelo_inurba_marseille","lat":43.30145,"lon":5.37421,"is_reserved":false,"is_disabled":false,"rental_uris":{"android":"levelo://app?vid=b6b6c307-3f7e-4b60-a9aa-2658b68f071c","ios":"levelo://app?vid=b6b6c307-3f7e-4b60-a9aa-2658b68f071c"},"vehicle_type_id":"4","last_reported":1733991232,"current_range_meters":7200,"station_id":"ce4bgs92rcd13ifvqcc0","pricing_plan_id":"cebpf4jnsgd1na2vs0mg"},{"bike_id":"38be23f3-2117-4b68-8daa-edbad697b6c1","system_id":"levelo_inurba_marseille","lat":43.24078,"lon":5.37754,"is_reserved":false,"is_disabled":true,"rental_uris":{"android":"levelo://app?vid=38be23f3-2117-4b68-8daa-edbad697b6c1","ios":"levelo://app?vid=38be23f3-2117-4b68-8daa-edbad697b6c1"},"vehicle_type_id":"4","last_reported":1733991232,"current_range_meters":0,"station_id":"ce4bhnp2rcd13ifvqgvg","pricing_plan_id":"cebpf4jnsgd1na2vs0mg"},{"bike_id":"4a9f9a51-24ec-47fd-8095-5370f9a21e11","system_id":"levelo_inurba_marseille","lat":43.24182,"lon":5.3973,"is_reserved":false,"is_disabled":false,"rental_uris":{"android":"levelo://app?vid=4a9f9a51-24ec-47fd-8095-5370f9a21e11","ios":"levelo://app?vid=4a9f9a51-24ec-47fd-8095-5370f9a21e11"},"vehicle_type_id":"4","last_reported":1733991232,"current_range_meters":3600,"station_id":"ce4bhn12rcd13ifvqgpg","pricing_plan_id":"cebpf4jnsgd1na2vs0mg"},{"bike_id":"62407a8f-37a9-47a9-a09a-3cd8c28b9b64","system_id":"levelo_inurba_marseille","lat":43.28708,"lon":5.39992,"is_reserved":false,"is_disabled":true,"rental_uris":{"android":"levelo://app?vid=62407a8f-37a9-47a9-a09a-3cd8c28b9b64","ios":"levelo://app?vid=62407a8f-37a9-47a9-a09a-3cd8c28b9b64"},"vehicle_type_id":"4","last_reported":1733991232,"current_range_meters":28800,"station_id":"ce4bho92rcd13ifvqh3g","pricing_plan_id":"cebpf4jnsgd1na2vs0mg"},{"bike_id":"0f17d2c4-bf96-42e6-978b-f52d4d5288cd","system_id":"levelo_inurba_marseille","lat":43.30322,"lon":5.40433,"is_reserved":false,"is_disabled":true,"rental_uris":{"android":"levelo://app?vid=0f17d2c4-bf96-42e6-978b-f52d4d5288cd","ios":"levelo://app?vid=0f17d2c4-bf96-42e6-978b-f52d4d5288cd"},"vehicle_type_id":"4","last_reported":1733991232,"current_range_meters":7200,"station_id":"ce4bh012rcd13ifvqd10","pricing_plan_id":"cebpf4jnsgd1na2vs0mg"},{"bike_id":"474239fd-a2ed-4e9a-8815-5f6006a21991","system_id":"levelo_inurba_marseille","lat":43.298637,"lon":5.397341,"is_reserved":false,"is_disabled":false,"rental_uris":{"android":"levelo://app?vid=474239fd-a2ed-4e9a-8815-5f6006a21991","ios":"levelo://app?vid=474239fd-a2ed-4e9a-8815-5f6006a21991"},"vehicle_type_id":"4","last_reported":1733991232,"current_range_meters":17600,"station_id":"ce4bh0h2rcd13ifvqd50","pricing_plan_id":"cebpf4jnsgd1na2vs0mg"},{"bike_id":"6d2f0303-649f-4545-92f4-9fddd7a1267f","system_id":"levelo_inurba_marseille","lat":43.29609,"lon":5.38097,"is_reserved":false,"is_disabled":true,"rental_uris":{"android":"levelo://app?vid=6d2f0303-649f-4545-92f4-9fddd7a1267f","ios":"levelo://app?vid=6d2f0303-649f-4545-92f4-9fddd7a1267f"},"vehicle_type_id":"4","last_reported":1733991232,"current_range_meters":37600,"station_id":"ce4bgl12rcd13ifvqbo0","pricing_plan_id":"cebpf4jnsgd1na2vs0mg"},{"bike_id":"5643395f-4df5-4a4c-aae8-4f0653e11b52","system_id":"levelo_inurba_marseille","lat":43.287,"lon":5.39984,"is_reserved":false,"is_disabled":false,"rental_uris":{"android":"levelo://app?vid=5643395f-4df5-4a4c-aae8-4f0653e11b52","ios":"levelo://app?vid=5643395f-4df5-4a4c-aae8-4f0653e11b52"},"vehicle_type_id":"4","last_reported":1733991232,"current_range_meters":14800,"station_id":"ce4bho92rcd13ifvqh3g","pricing_plan_id":"cebpf4jnsgd1na2vs0mg"},{"bike_id":"6b7da9da-7ed8-4376-8377-8274a75ba481","system_id":"levelo_inurba_marseille","lat":43.26624,"lon":5.4031,"is_reserved":false,"is_disabled":true,"rental_uris":{"android":"levelo://app?vid=6b7da9da-7ed8-4376-8377-8274a75ba481","ios":"levelo://app?vid=6b7da9da-7ed8-4376-8377-8274a75ba481"},"vehicle_type_id":"4","last_reported":1733991232,"current_range_meters":37600,"station_id":"","pricing_plan_id":"cebpf4jnsgd1na2vs0mg"},{"bike_id":"18532735-bad4-47e0-8873-b9635deb372b","system_id":"levelo_inurba_marseille","lat":43.29578,"lon":5.37497,"is_reserved":false,"is_disabled":false,"rental_uris":{"android":"levelo://app?vid=18532735-bad4-47e0-8873-b9635deb372b","ios":"levelo://app?vid=18532735-bad4-47e0-8873-b9635deb372b"},"vehicle_type_id":"4","last_reported":1733991232,"current_range_meters":33200,"station_id":"ce4bgh92rcd13ifvqb50","pricing_plan_id":"cebpf4jnsgd1na2vs0mg"},{"bike_id":"4f0c1ef8-f41d-45b8-b048-56d2ab124e5f","system_id":"levelo_inurba_marseille","lat":43.27614,"lon":5.36124,"is_reserved":false,"is_disabled":false,"rental_uris":{"android":"levelo://app?vid=4f0c1ef8-f41d-45b8-b048-56d2ab124e5f","ios":"levelo://app?vid=4f0c1ef8-f41d-45b8-b048-56d2ab124e5f"},"vehicle_type_id":"4","last_reported":1733991232,"current_range_meters":38800,"station_id":"ce4bgj92rcd13ifvqbe0","pricing_plan_id":"cebpf4jnsgd1na2vs0mg"},{"bike_id":"af67ac53-ba21-4ff0-8334-95679e9ff2cc","system_id":"levelo_inurba_marseille","lat":43.278805,"lon":5.388003,"is_reserved":false,"is_disabled":true,"rental_uris":{"android":"levelo://app?vid=af67ac53-ba21-4ff0-8334-95679e9ff2cc","ios":"levelo://app?vid=af67ac53-ba21-4ff0-8334-95679e9ff2cc"},"vehicle_type_id":"4","last_reported":1733991232,"current_range_meters":0,"station_id":"","pricing_plan_id":"cebpf4jnsgd1na2vs0mg"},{"bike_id":"ab6bb814-6be0-4a23-8be0-7c219c550454","system_id":"levelo_inurba_marseille","lat":43.29449,"lon":5.39761,"is_reserved":false,"is_disabled":true,"rental_uris":{"android":"levelo://app?vid=ab6bb814-6be0-4a23-8be0-7c219c550454","ios":"levelo://app?vid=ab6bb814-6be0-4a23-8be0-7c219c550454"},"vehicle_type_id":"4","last_reported":1733991232,"current_range_meters":0,"station_id":"ce4bh3h2rcd13ifvqdo0","pricing_plan_id":"cebpf4jnsgd1na2vs0mg"},{"bike_id":"10e0d1c7-d5b6-43ea-aa33-672040a7841b","system_id":"levelo_inurba_marseille","lat":43.25496,"lon":5.37637,"is_reserved":false,"is_disabled":false,"rental_uris":{"android":"levelo://app?vid=10e0d1c7-d5b6-43ea-aa33-672040a7841b","ios":"levelo://app?vid=10e0d1c7-d5b6-43ea-aa33-672040a7841b"},"vehicle_type_id":"4","last_reported":1733991232,"current_range_meters":38800,"station_id":"ce4bhh12rcd13ifvqff0","pricing_plan_id":"cebpf4jnsgd1na2vs0mg"},{"bike_id":"47d1ce41-a735-452d-86c1-d05bd6961be4","system_id":"levelo_inurba_marseille","lat":43.31484,"lon":5.37299,"is_reserved":false,"is_disabled":false,"rental_uris":{"android":"levelo://app?vid=47d1ce41-a735-452d-86c1-d05bd6961be4","ios":"levelo://app?vid=47d1ce41-a735-452d-86c1-d05bd6961be4"},"vehicle_type_id":"4","last_reported":1733991232,"current_range_meters":23200,"station_id":"ce4bgt12rcd13ifvqcd0","pricing_plan_id":"cebpf4jnsgd1na2vs0mg"},{"bike_id":"8702494f-d11b-4ff7-a416-5cf45f7af1a7","system_id":"levelo_inurba_marseille","lat":43.25003,"lon":5.38921,"is_reserved":false,"is_disabled":false,"rental_uris":{"android":"levelo://app?vid=8702494f-d11b-4ff7-a416-5cf45f7af1a7","ios":"levelo://app?vid=8702494f-d11b-4ff7-a416-5cf45f7af1a7"},"vehicle_type_id":"4","last_reported":1733991232,"current_range_meters":28000,"station_id":"ce4bhgp2rcd13ifvqfd0","pricing_plan_id":"cebpf4jnsgd1na2vs0mg"},{"bike_id":"0fa2039c-5ee9-4ac8-bd2f-e5ab82259f0e","system_id":"levelo_inurba_marseille","lat":43.3118,"lon":5.36726,"is_reserved":false,"is_disabled":true,"rental_uris":{"android":"levelo://app?vid=0fa2039c-5ee9-4ac8-bd2f-e5ab82259f0e","ios":"levelo://app?vid=0fa2039c-5ee9-4ac8-bd2f-e5ab82259f0e"},"vehicle_type_id":"4","last_reported":1733991232,"current_range_meters":0,"station_id":"","pricing_plan_id":"cebpf4jnsgd1na2vs0mg"},{"bike_id":"a8b08dda-ea61-47f1-9c9e-08e25bc9cc96","system_id":"levelo_inurba_marseille","lat":43.30461,"lon":5.378935,"is_reserved":false,"is_disabled":false,"rental_uris":{"android":"levelo://app?vid=a8b08dda-ea61-47f1-9c9e-08e25bc9cc96","ios":"levelo://app?vid=a8b08dda-ea61-47f1-9c9e-08e25bc9cc96"},"vehicle_type_id":"4","last_reported":1733991232,"current_range_meters":38800,"station_id":"ce4bgup2rcd13ifvqcn0","pricing_plan_id":"cebpf4jnsgd1na2vs0mg"},{"bike_id":"059df3f9-5720-4cb1-aaa5-bc3bdbc78631","system_id":"levelo_inurba_marseille","lat":43.27498,"lon":5.42448,"is_reserved":false,"is_disabled":false,"rental_uris":{"android":"levelo://app?vid=059df3f9-5720-4cb1-aaa5-bc3bdbc78631","ios":"levelo://app?vid=059df3f9-5720-4cb1-aaa5-bc3bdbc78631"},"vehicle_type_id":"4","last_reported":1733991232,"current_range_meters":20400,"station_id":"ce4bhn92rcd13ifvqgrg","pricing_plan_id":"cebpf4jnsgd1na2vs0mg"},{"bike_id":"077a5362-7fe4-48f0-a290-1dc6951f628f","system_id":"levelo_inurba_marseille","lat":43.30558,"lon":5.36533,"is_reserved":false,"is_disabled":false,"rental_uris":{"android":"levelo://app?vid=077a5362-7fe4-48f0-a290-1dc6951f628f","ios":"levelo://app?vid=077a5362-7fe4-48f0-a290-1dc6951f628f"},"vehicle_type_id":"4","last_reported":1733991232,"current_range_meters":24000,"station_id":"ce4bgs12rcd13ifvqcag","pricing_plan_id":"cebpf4jnsgd1na2vs0mg"},{"bike_id":"be0b8c3f-0afb-42d7-82d2-88e533cc17ea","system_id":"levelo_inurba_marseille","lat":43.29111,"lon":5.37224,"is_reserved":false,"is_disabled":true,"rental_uris":{"android":"levelo://app?vid=be0b8c3f-0afb-42d7-82d2-88e533cc17ea","ios":"levelo://app?vid=be0b8c3f-0afb-42d7-82d2-88e533cc17ea"},"vehicle_type_id":"4","last_reported":1733991232,"current_range_meters":24000,"station_id":"","pricing_plan_id":"cebpf4jnsgd1na2vs0mg"},{"bike_id":"db10f0e3-cea8-424b-8f33-32da3a1e05c2","system_id":"levelo_inurba_marseille","lat":43.30907,"lon":5.3685,"is_reserved":false,"is_disabled":false,"rental_uris":{"android":"levelo://app?vid=db10f0e3-cea8-424b-8f33-32da3a1e05c2","ios":"levelo://app?vid=db10f0e3-cea8-424b-8f33-32da3a1e05c2"},"vehicle_type_id":"4","last_reported":1733991232,"current_range_meters":36800,"station_id":"ce4bgn92rcd13ifvqbvg","pricing_plan_id":"cebpf4jnsgd1na2vs0mg"},{"bike_id":"b5fcaa86-c09e-4c69-8628-53e487fd6934","system_id":"levelo_inurba_marseille","lat":43.29379,"lon":5.37846,"is_reserved":false,"is_disabled":true,"rental_uris":{"android":"levelo://app?vid=b5fcaa86-c09e-4c69-8628-53e487fd6934","ios":"levelo://app?vid=b5fcaa86-c09e-4c69-8628-53e487fd6934"},"vehicle_type_id":"4","last_reported":1733991232,"current_range_meters":36800,"station_id":"ce4bgjh2rcd13ifvqbf0","pricing_plan_id":"cebpf4jnsgd1na2vs0mg"},{"bike_id":"870e6636-b21e-471c-863d-86dd369d4305","system_id":"levelo_inurba_marseille","lat":43.26937,"lon":5.40253,"is_reserved":false,"is_disabled":false,"rental_uris":{"android":"levelo://app?vid=870e6636-b21e-471c-863d-86dd369d4305","ios":"levelo://app?vid=870e6636-b21e-471c-863d-86dd369d4305"},"vehicle_type_id":"4","last_reported":1733991232,"current_range_meters":38800,"station_id":"cjm6bp8fraef2m0cb0m0","pricing_plan_id":"cebpf4jnsgd1na2vs0mg"},{"bike_id":"cebd5362-7b70-47b1-bc49-530ef80e1944","system_id":"levelo_inurba_marseille","lat":43.31812,"lon":5.38132,"is_reserved":false,"is_disabled":true,"rental_uris":{"android":"levelo://app?vid=cebd5362-7b70-47b1-bc49-530ef80e1944","ios":"levelo://app?vid=cebd5362-7b70-47b1-bc49-530ef80e1944"},"vehicle_type_id":"4","last_reported":1733991232,"current_range_meters":0,"station_id":"","pricing_plan_id":"cebpf4jnsgd1na2vs0mg"},{"bike_id":"2a6d0539-b439-4436-a9dc-712f280b5e24","system_id":"levelo_inurba_marseille","lat":43.30514,"lon":5.3844,"is_reserved":false,"is_disabled":false,"rental_uris":{"android":"levelo://app?vid=2a6d0539-b439-4436-a9dc-712f280b5e24","ios":"levelo://app?vid=2a6d0539-b439-4436-a9dc-712f280b5e24"},"vehicle_type_id":"4","last_reported":1733991232,"current_range_meters":39200,"station_id":"ce4bgg92rcd13ifvqb30","pricing_plan_id":"cebpf4jnsgd1na2vs0mg"},{"bike_id":"0384611d-fb77-4073-bab5-4771298f7f3a","system_id":"levelo_inurba_marseille","lat":43.25825,"lon":5.39435,"is_reserved":false,"is_disabled":false,"rental_uris":{"android":"levelo://app?vid=0384611d-fb77-4073-bab5-4771298f7f3a","ios":"levelo://app?vid=0384611d-fb77-4073-bab5-4771298f7f3a"},"vehicle_type_id":"4","last_reported":1733991232,"current_range_meters":8400,"station_id":"ce4bhip2rcd13ifvqft0","pricing_plan_id":"cebpf4jnsgd1na2vs0mg"},{"bike_id":"91c3f92e-5d61-470b-b958-c89d04138b23","system_id":"levelo_inurba_marseille","lat":43.29588,"lon":5.37494,"is_reserved":false,"is_disabled":true,"rental_uris":{"android":"levelo://app?vid=91c3f92e-5d61-470b-b958-c89d04138b23","ios":"levelo://app?vid=91c3f92e-5d61-470b-b958-c89d04138b23"},"vehicle_type_id":"4","last_reported":1733991232,"current_range_meters":1600,"station_id":"ce4bgh92rcd13ifvqb50","pricing_plan_id":"cebpf4jnsgd1na2vs0mg"},{"bike_id":"2a59f130-b2ae-411d-ae47-88e4fab7e3be","system_id":"levelo_inurba_marseille","lat":43.3016,"lon":5.38099,"is_reserved":false,"is_disabled":false,"rental_uris":{"android":"levelo://app?vid=2a59f130-b2ae-411d-ae47-88e4fab7e3be","ios":"levelo://app?vid=2a59f130-b2ae-411d-ae47-88e4fab7e3be"},"vehicle_type_id":"4","last_reported":1733991232,"current_range_meters":29600,"station_id":"ce4bgjp2rcd13ifvqbh0","pricing_plan_id":"cebpf4jnsgd1na2vs0mg"},{"bike_id":"f607e23f-a1c8-4aab-975b-9cefcd091f7e","system_id":"levelo_inurba_marseille","lat":43.25578,"lon":5.38238,"is_reserved":false,"is_disabled":true,"rental_uris":{"android":"levelo://app?vid=f607e23f-a1c8-4aab-975b-9cefcd091f7e","ios":"levelo://app?vid=f607e23f-a1c8-4aab-975b-9cefcd091f7e"},"vehicle_type_id":"4","last_reported":1733991232,"current_range_meters":6000,"station_id":"ce4bhih2rcd13ifvqfs0","pricing_plan_id":"cebpf4jnsgd1na2vs0mg"},{"bike_id":"00713d08-3585-4832-9aef-8aa637a45100","system_id":"levelo_inurba_marseille","lat":43.25827,"lon":5.39434,"is_reserved":false,"is_disabled":false,"rental_uris":{"android":"levelo://app?vid=00713d08-3585-4832-9aef-8aa637a45100","ios":"levelo://app?vid=00713d08-3585-4832-9aef-8aa637a45100"},"vehicle_type_id":"4","last_reported":1733991232,"current_range_meters":18000,"station_id":"ce4bhip2rcd13ifvqft0","pricing_plan_id":"cebpf4jnsgd1na2vs0mg"},{"bike_id":"3f566ab8-0746-4570-af91-a981628ea26d","system_id":"levelo_inurba_marseille","lat":43.27076,"lon":5.42278,"is_reserved":false,"is_disabled":false,"rental_uris":{"android":"levelo://app?vid=3f566ab8-0746-4570-af91-a981628ea26d","ios":"levelo://app?vid=3f566ab8-0746-4570-af91-a981628ea26d"},"vehicle_type_id":"4","last_reported":1733991232,"current_range_meters":9200,"station_id":"ce4bhk92rcd13ifvqgb0","pricing_plan_id":"cebpf4jnsgd1na2vs0mg"},{"bike_id":"903fc880-9114-4f5a-ab5e-510528b4f0ca","system_id":"levelo_inurba_marseille","lat":43.31358,"lon":5.36715,"is_reserved":false,"is_disabled":false,"rental_uris":{"android":"levelo://app?vid=903fc880-9114-4f5a-ab5e-510528b4f0ca","ios":"levelo://app?vid=903fc880-9114-4f5a-ab5e-510528b4f0ca"},"vehicle_type_id":"4","last_reported":1733991232,"current_range_meters":36800,"station_id":"ce4bgr92rcd13ifvqc6g","pricing_plan_id":"cebpf4jnsgd1na2vs0mg"},{"bike_id":"4a8ffd00-9d61-445e-ba3a-9443214ba621","system_id":"levelo_inurba_marseille","lat":43.29363,"lon":5.3784,"is_reserved":false,"is_disabled":false,"rental_uris":{"android":"levelo://app?vid=4a8ffd00-9d61-445e-ba3a-9443214ba621","ios":"levelo://app?vid=4a8ffd00-9d61-445e-ba3a-9443214ba621"},"vehicle_type_id":"4","last_reported":1733991232,"current_range_meters":30800,"station_id":"ce4bgjh2rcd13ifvqbf0","pricing_plan_id":"cebpf4jnsgd1na2vs0mg"},{"bike_id":"5746a913-59cb-4881-b851-217de753d5a3","system_id":"levelo_inurba_marseille","lat":43.25078,"lon":5.39532,"is_reserved":false,"is_disabled":false,"rental_uris":{"android":"levelo://app?vid=5746a913-59cb-4881-b851-217de753d5a3","ios":"levelo://app?vid=5746a913-59cb-4881-b851-217de753d5a3"},"vehicle_type_id":"4","last_reported":1733991232,"current_range_meters":26000,"station_id":"ce4bhm12rcd13ifvqgkg","pricing_plan_id":"cebpf4jnsgd1na2vs0mg"},{"bike_id":"f25e5e19-02c4-4e95-894e-041a1800bd5f","system_id":"levelo_inurba_marseille","lat":43.30465,"lon":5.37904,"is_reserved":false,"is_disabled":false,"rental_uris":{"android":"levelo://app?vid=f25e5e19-02c4-4e95-894e-041a1800bd5f","ios":"levelo://app?vid=f25e5e19-02c4-4e95-894e-041a1800bd5f"},"vehicle_type_id":"4","last_reported":1733991232,"current_range_meters":19600,"station_id":"ce4bgup2rcd13ifvqcn0","pricing_plan_id":"cebpf4jnsgd1na2vs0mg"},{"bike_id":"a8de43c7-abc0-44e1-b620-b4884d4b94b7","system_id":"levelo_inurba_marseille","lat":43.25941,"lon":5.40899,"is_reserved":false,"is_disabled":false,"rental_uris":{"android":"levelo://app?vid=a8de43c7-abc0-44e1-b620-b4884d4b94b7","ios":"levelo://app?vid=a8de43c7-abc0-44e1-b620-b4884d4b94b7"},"vehicle_type_id":"4","last_reported":1733991232,"current_range_meters":24000,"station_id":"ce4bhm92rcd13ifvqglg","pricing_plan_id":"cebpf4jnsgd1na2vs0mg"},{"bike_id":"dc41af96-3e97-4e55-ad35-c01cd8642b98","system_id":"levelo_inurba_marseille","lat":43.33611,"lon":5.41032,"is_reserved":false,"is_disabled":true,"rental_uris":{"android":"levelo://app?vid=dc41af96-3e97-4e55-ad35-c01cd8642b98","ios":"levelo://app?vid=dc41af96-3e97-4e55-ad35-c01cd8642b98"},"vehicle_type_id":"4","last_reported":1733991232,"current_range_meters":6800,"station_id":"ce4bhqh2rcd13ifvqhmg","pricing_plan_id":"cebpf4jnsgd1na2vs0mg"},{"bike_id":"9f59f892-069b-4e04-9fca-167860a220e8","system_id":"levelo_inurba_marseille","lat":43.30795,"lon":5.37963,"is_reserved":false,"is_disabled":false,"rental_uris":{"android":"levelo://app?vid=9f59f892-069b-4e04-9fca-167860a220e8","ios":"levelo://app?vid=9f59f892-069b-4e04-9fca-167860a220e8"},"vehicle_type_id":"4","last_reported":1733991232,"current_range_meters":18000,"station_id":"","pricing_plan_id":"cebpf4jnsgd1na2vs0mg"},{"bike_id":"3f36e9a5-9307-4070-8174-896a4b5ec011","system_id":"levelo_inurba_marseille","lat":43.30885,"lon":5.39648,"is_reserved":false,"is_disabled":false,"rental_uris":{"android":"levelo://app?vid=3f36e9a5-9307-4070-8174-896a4b5ec011","ios":"levelo://app?vid=3f36e9a5-9307-4070-8174-896a4b5ec011"},"vehicle_type_id":"4","last_reported":1733991232,"current_range_meters":18000,"station_id":"ce4bh012rcd13ifvqcv0","pricing_plan_id":"cebpf4jnsgd1na2vs0mg"},{"bike_id":"76f3328f-e574-457e-a081-a550f776ec21","system_id":"levelo_inurba_marseille","lat":43.24066,"lon":5.37765,"is_reserved":false,"is_disabled":false,"rental_uris":{"android":"levelo://app?vid=76f3328f-e574-457e-a081-a550f776ec21","ios":"levelo://app?vid=76f3328f-e574-457e-a081-a550f776ec21"},"vehicle_type_id":"4","last_reported":1733991232,"current_range_meters":27600,"station_id":"ce4bhnp2rcd13ifvqgvg","pricing_plan_id":"cebpf4jnsgd1na2vs0mg"},{"bike_id":"cce7ced0-0163-4611-8067-49ddc9b38410","system_id":"levelo_inurba_marseille","lat":43.33602,"lon":5.41034,"is_reserved":false,"is_disabled":false,"rental_uris":{"android":"levelo://app?vid=cce7ced0-0163-4611-8067-49ddc9b38410","ios":"levelo://app?vid=cce7ced0-0163-4611-8067-49ddc9b38410"},"vehicle_type_id":"4","last_reported":1733991232,"current_range_meters":22000,"station_id":"ce4bhqh2rcd13ifvqhmg","pricing_plan_id":"cebpf4jnsgd1na2vs0mg"},{"bike_id":"134bfdd8-0286-4d28-ac71-79cfd778afdd","system_id":"levelo_inurba_marseille","lat":43.30543,"lon":5.38435,"is_reserved":false,"is_disabled":false,"rental_uris":{"android":"levelo://app?vid=134bfdd8-0286-4d28-ac71-79cfd778afdd","ios":"levelo://app?vid=134bfdd8-0286-4d28-ac71-79cfd778afdd"},"vehicle_type_id":"4","last_reported":1733991232,"current_range_meters":26000,"station_id":"ce4bgg92rcd13ifvqb30","pricing_plan_id":"cebpf4jnsgd1na2vs0mg"},{"bike_id":"53e14b4a-061d-47e0-9d41-ff9b1a6d0a08","system_id":"levelo_inurba_marseille","lat":43.29836,"lon":5.36269,"is_reserved":false,"is_disabled":false,"rental_uris":{"android":"levelo://app?vid=53e14b4a-061d-47e0-9d41-ff9b1a6d0a08","ios":"levelo://app?vid=53e14b4a-061d-47e0-9d41-ff9b1a6d0a08"},"vehicle_type_id":"4","last_reported":1733991232,"current_range_meters":24800,"station_id":"ce4bgpp2rcd13ifvqc3g","pricing_plan_id":"cebpf4jnsgd1na2vs0mg"},{"bike_id":"440c0882-719b-4b38-aba1-872c74c75218","system_id":"levelo_inurba_marseille","lat":43.32283,"lon":5.38257,"is_reserved":false,"is_disabled":false,"rental_uris":{"android":"levelo://app?vid=440c0882-719b-4b38-aba1-872c74c75218","ios":"levelo://app?vid=440c0882-719b-4b38-aba1-872c74c75218"},"vehicle_type_id":"4","last_reported":1733991232,"current_range_meters":36800,"station_id":"ce4bhr12rcd13ifvqhqg","pricing_plan_id":"cebpf4jnsgd1na2vs0mg"},{"bike_id":"9f4ff309-16c5-4f67-9aac-83afe40d118a","system_id":"levelo_inurba_marseille","lat":43.23959,"lon":5.36627,"is_reserved":false,"is_disabled":false,"rental_uris":{"android":"levelo://app?vid=9f4ff309-16c5-4f67-9aac-83afe40d118a","ios":"levelo://app?vid=9f4ff309-16c5-4f67-9aac-83afe40d118a"},"vehicle_type_id":"4","last_reported":1733991232,"current_range_meters":38800,"station_id":"ce4bhi12rcd13ifvqfp0","pricing_plan_id":"cebpf4jnsgd1na2vs0mg"},{"bike_id":"4c5d8b7b-8bd0-42d9-87a8-58f7aaa374b6","system_id":"levelo_inurba_marseille","lat":43.29374,"lon":5.37828,"is_reserved":false,"is_disabled":false,"rental_uris":{"android":"levelo://app?vid=4c5d8b7b-8bd0-42d9-87a8-58f7aaa374b6","ios":"levelo://app?vid=4c5d8b7b-8bd0-42d9-87a8-58f7aaa374b6"},"vehicle_type_id":"4","last_reported":1733991232,"current_range_meters":28400,"station_id":"ce4bgjh2rcd13ifvqbf0","pricing_plan_id":"cebpf4jnsgd1na2vs0mg"},{"bike_id":"55b90ab8-ad6e-4330-b578-7b6440304b5c","system_id":"levelo_inurba_marseille","lat":43.26209,"lon":5.37442,"is_reserved":false,"is_disabled":true,"rental_uris":{"android":"levelo://app?vid=55b90ab8-ad6e-4330-b578-7b6440304b5c","ios":"levelo://app?vid=55b90ab8-ad6e-4330-b578-7b6440304b5c"},"vehicle_type_id":"4","last_reported":1733991232,"current_range_meters":37600,"station_id":"ce4bhgp2rcd13ifvqfc0","pricing_plan_id":"cebpf4jnsgd1na2vs0mg"},{"bike_id":"accc15c2-75c8-4823-a61f-1d4d7e399167","system_id":"levelo_inurba_marseille","lat":43.29414,"lon":5.38604,"is_reserved":false,"is_disabled":true,"rental_uris":{"android":"levelo://app?vid=accc15c2-75c8-4823-a61f-1d4d7e399167","ios":"levelo://app?vid=accc15c2-75c8-4823-a61f-1d4d7e399167"},"vehicle_type_id":"4","last_reported":1733991232,"current_range_meters":8400,"station_id":"ce4bh2h2rcd13ifvqdh0","pricing_plan_id":"cebpf4jnsgd1na2vs0mg"},{"bike_id":"260817ff-1b27-48c6-84be-3217d73f88d8","system_id":"levelo_inurba_marseille","lat":43.27501,"lon":5.42458,"is_reserved":false,"is_disabled":false,"rental_uris":{"android":"levelo://app?vid=260817ff-1b27-48c6-84be-3217d73f88d8","ios":"levelo://app?vid=260817ff-1b27-48c6-84be-3217d73f88d8"},"vehicle_type_id":"4","last_reported":1733991232,"current_range_meters":26000,"station_id":"ce4bhn92rcd13ifvqgrg","pricing_plan_id":"cebpf4jnsgd1na2vs0mg"},{"bike_id":"6ce33b40-587a-4312-930f-f782a3c14ab2","system_id":"levelo_inurba_marseille","lat":43.29551,"lon":5.42283,"is_reserved":false,"is_disabled":false,"rental_uris":{"android":"levelo://app?vid=6ce33b40-587a-4312-930f-f782a3c14ab2","ios":"levelo://app?vid=6ce33b40-587a-4312-930f-f782a3c14ab2"},"vehicle_type_id":"4","last_reported":1733991232,"current_range_meters":32800,"station_id":"ce4bhph2rcd13ifvqhdg","pricing_plan_id":"cebpf4jnsgd1na2vs0mg"},{"bike_id":"582f7d7e-d41d-4085-8809-4c51570abd78","system_id":"levelo_inurba_marseille","lat":43.30465,"lon":5.37906,"is_reserved":false,"is_disabled":false,"rental_uris":{"android":"levelo://app?vid=582f7d7e-d41d-4085-8809-4c51570abd78","ios":"levelo://app?vid=582f7d7e-d41d-4085-8809-4c51570abd78"},"vehicle_type_id":"4","last_reported":1733991232,"current_range_meters":28800,"station_id":"ce4bgup2rcd13ifvqcn0","pricing_plan_id":"cebpf4jnsgd1na2vs0mg"},{"bike_id":"2c014ae4-7d58-406f-a0f3-e7beffdd9a3b","system_id":"levelo_inurba_marseille","lat":43.30076,"lon":5.39086,"is_reserved":false,"is_disabled":true,"rental_uris":{"android":"levelo://app?vid=2c014ae4-7d58-406f-a0f3-e7beffdd9a3b","ios":"levelo://app?vid=2c014ae4-7d58-406f-a0f3-e7beffdd9a3b"},"vehicle_type_id":"4","last_reported":1733991232,"current_range_meters":28000,"station_id":"ce4bh192rcd13ifvqdb0","pricing_plan_id":"cebpf4jnsgd1na2vs0mg"},{"bike_id":"9d4fff27-d07d-4950-b1c9-9dd1b0811241","system_id":"levelo_inurba_marseille","lat":43.26568,"lon":5.39003,"is_reserved":false,"is_disabled":false,"rental_uris":{"android":"levelo://app?vid=9d4fff27-d07d-4950-b1c9-9dd1b0811241","ios":"levelo://app?vid=9d4fff27-d07d-4950-b1c9-9dd1b0811241"},"vehicle_type_id":"4","last_reported":1733991232,"current_range_meters":25600,"station_id":"ce4bhe12rcd13ifvqf30","pricing_plan_id":"cebpf4jnsgd1na2vs0mg"},{"bike_id":"e966d2c7-c9e1-4cb1-9a39-6325607b0be4","system_id":"levelo_inurba_marseille","lat":43.337444,"lon":5.374475,"is_reserved":false,"is_disabled":true,"rental_uris":{"android":"levelo://app?vid=e966d2c7-c9e1-4cb1-9a39-6325607b0be4","ios":"levelo://app?vid=e966d2c7-c9e1-4cb1-9a39-6325607b0be4"},"vehicle_type_id":"4","last_reported":1733991232,"current_range_meters":0,"station_id":"","pricing_plan_id":"cebpf4jnsgd1na2vs0mg"},{"bike_id":"ca3d46d5-3442-4d65-a9d8-53012fc65828","system_id":"levelo_inurba_marseille","lat":43.30534,"lon":5.38421,"is_reserved":false,"is_disabled":true,"rental_uris":{"android":"levelo://app?vid=ca3d46d5-3442-4d65-a9d8-53012fc65828","ios":"levelo://app?vid=ca3d46d5-3442-4d65-a9d8-53012fc65828"},"vehicle_type_id":"4","last_reported":1733991232,"current_range_meters":18800,"station_id":"ce4bgg92rcd13ifvqb30","pricing_plan_id":"cebpf4jnsgd1na2vs0mg"},{"bike_id":"08f6dfd2-5a55-4565-9eb0-3f7235020a27","system_id":"levelo_inurba_marseille","lat":43.24544,"lon":5.39523,"is_reserved":false,"is_disabled":false,"rental_uris":{"android":"levelo://app?vid=08f6dfd2-5a55-4565-9eb0-3f7235020a27","ios":"levelo://app?vid=08f6dfd2-5a55-4565-9eb0-3f7235020a27"},"vehicle_type_id":"4","last_reported":1733991232,"current_range_meters":28400,"station_id":"ce4bhlp2rcd13ifvqgjg","pricing_plan_id":"cebpf4jnsgd1na2vs0mg"},{"bike_id":"312bb54d-7981-48b2-bad1-cc0be49295b2","system_id":"levelo_inurba_marseille","lat":43.28838,"lon":5.35875,"is_reserved":false,"is_disabled":false,"rental_uris":{"android":"levelo://app?vid=312bb54d-7981-48b2-bad1-cc0be49295b2","ios":"levelo://app?vid=312bb54d-7981-48b2-bad1-cc0be49295b2"},"vehicle_type_id":"4","last_reported":1733991232,"current_range_meters":38800,"station_id":"ce4bhb12rcd13ifvqem0","pricing_plan_id":"cebpf4jnsgd1na2vs0mg"},{"bike_id":"f0a4f587-2333-4a7a-8819-09121e495e1b","system_id":"levelo_inurba_marseille","lat":43.22935,"lon":5.35368,"is_reserved":false,"is_disabled":true,"rental_uris":{"android":"levelo://app?vid=f0a4f587-2333-4a7a-8819-09121e495e1b","ios":"levelo://app?vid=f0a4f587-2333-4a7a-8819-09121e495e1b"},"vehicle_type_id":"4","last_reported":1733991232,"current_range_meters":9600,"station_id":"cpo3532slgdg3j2ikp40","pricing_plan_id":"cebpf4jnsgd1na2vs0mg"},{"bike_id":"ba6fe419-774c-4091-895e-a76421491481","system_id":"levelo_inurba_marseille","lat":43.23159,"lon":5.43734,"is_reserved":false,"is_disabled":true,"rental_uris":{"android":"levelo://app?vid=ba6fe419-774c-4091-895e-a76421491481","ios":"levelo://app?vid=ba6fe419-774c-4091-895e-a76421491481"},"vehicle_type_id":"4","last_reported":1733991232,"current_range_meters":19200,"station_id":"ce4bhmp2rcd13ifvqgog","pricing_plan_id":"cebpf4jnsgd1na2vs0mg"},{"bike_id":"3e785f90-65e1-4989-8401-b8a6867e03c6","system_id":"levelo_inurba_marseille","lat":43.27501,"lon":5.42457,"is_reserved":false,"is_disabled":false,"rental_uris":{"android":"levelo://app?vid=3e785f90-65e1-4989-8401-b8a6867e03c6","ios":"levelo://app?vid=3e785f90-65e1-4989-8401-b8a6867e03c6"},"vehicle_type_id":"4","last_reported":1733991232,"current_range_meters":28400,"station_id":"ce4bhn92rcd13ifvqgrg","pricing_plan_id":"cebpf4jnsgd1na2vs0mg"},{"bike_id":"e2b090ff-7c7f-4d4a-8f5b-c317e750043e","system_id":"levelo_inurba_marseille","lat":43.27066,"lon":5.42274,"is_reserved":false,"is_disabled":true,"rental_uris":{"android":"levelo://app?vid=e2b090ff-7c7f-4d4a-8f5b-c317e750043e","ios":"levelo://app?vid=e2b090ff-7c7f-4d4a-8f5b-c317e750043e"},"vehicle_type_id":"4","last_reported":1733991232,"current_range_meters":0,"station_id":"ce4bhk92rcd13ifvqgb0","pricing_plan_id":"cebpf4jnsgd1na2vs0mg"},{"bike_id":"1802c294-deb8-4890-b7ca-3e995fd26543","system_id":"levelo_inurba_marseille","lat":43.27084,"lon":5.42284,"is_reserved":false,"is_disabled":false,"rental_uris":{"android":"levelo://app?vid=1802c294-deb8-4890-b7ca-3e995fd26543","ios":"levelo://app?vid=1802c294-deb8-4890-b7ca-3e995fd26543"},"vehicle_type_id":"4","last_reported":1733991232,"current_range_meters":34000,"station_id":"ce4bhk92rcd13ifvqgb0","pricing_plan_id":"cebpf4jnsgd1na2vs0mg"},{"bike_id":"7a5579cc-748b-4bbc-9f31-a214603f1c3c","system_id":"levelo_inurba_marseille","lat":43.28351,"lon":5.38638,"is_reserved":false,"is_disabled":false,"rental_uris":{"android":"levelo://app?vid=7a5579cc-748b-4bbc-9f31-a214603f1c3c","ios":"levelo://app?vid=7a5579cc-748b-4bbc-9f31-a214603f1c3c"},"vehicle_type_id":"4","last_reported":1733991232,"current_range_meters":24400,"station_id":"ce4bh492rcd13ifvqdvg","pricing_plan_id":"cebpf4jnsgd1na2vs0mg"},{"bike_id":"8f5acc20-369f-4d5d-9326-9ec3b91815dc","system_id":"levelo_inurba_marseille","lat":43.25086,"lon":5.39525,"is_reserved":false,"is_disabled":true,"rental_uris":{"android":"levelo://app?vid=8f5acc20-369f-4d5d-9326-9ec3b91815dc","ios":"levelo://app?vid=8f5acc20-369f-4d5d-9326-9ec3b91815dc"},"vehicle_type_id":"4","last_reported":1733991232,"current_range_meters":39200,"station_id":"ce4bhm12rcd13ifvqgkg","pricing_plan_id":"cebpf4jnsgd1na2vs0mg"},{"bike_id":"fe4d47c1-dfb5-4e68-bfe4-126efd20c0c3","system_id":"levelo_inurba_marseille","lat":43.30801,"lon":5.37329,"is_reserved":false,"is_disabled":false,"rental_uris":{"android":"levelo://app?vid=fe4d47c1-dfb5-4e68-bfe4-126efd20c0c3","ios":"levelo://app?vid=fe4d47c1-dfb5-4e68-bfe4-126efd20c0c3"},"vehicle_type_id":"4","last_reported":1733991232,"current_range_meters":22800,"station_id":"","pricing_plan_id":"cebpf4jnsgd1na2vs0mg"},{"bike_id":"1b65d3f1-7078-4000-8b9e-5ae81dbfd59b","system_id":"levelo_inurba_marseille","lat":43.28358,"lon":5.38619,"is_reserved":false,"is_disabled":true,"rental_uris":{"android":"levelo://app?vid=1b65d3f1-7078-4000-8b9e-5ae81dbfd59b","ios":"levelo://app?vid=1b65d3f1-7078-4000-8b9e-5ae81dbfd59b"},"vehicle_type_id":"4","last_reported":1733991232,"current_range_meters":35600,"station_id":"ce4bh492rcd13ifvqdvg","pricing_plan_id":"cebpf4jnsgd1na2vs0mg"},{"bike_id":"5972da37-2dbe-44dc-8e16-61a2367a86b8","system_id":"levelo_inurba_marseille","lat":43.31118,"lon":5.37776,"is_reserved":false,"is_disabled":false,"rental_uris":{"android":"levelo://app?vid=5972da37-2dbe-44dc-8e16-61a2367a86b8","ios":"levelo://app?vid=5972da37-2dbe-44dc-8e16-61a2367a86b8"},"vehicle_type_id":"4","last_reported":1733991232,"current_range_meters":39200,"station_id":"ce4bgt92rcd13ifvqcg0","pricing_plan_id":"cebpf4jnsgd1na2vs0mg"},{"bike_id":"65a10ee3-71a7-4f2a-91dc-3804e3c4ab90","system_id":"levelo_inurba_marseille","lat":43.31346,"lon":5.36721,"is_reserved":false,"is_disabled":false,"rental_uris":{"android":"levelo://app?vid=65a10ee3-71a7-4f2a-91dc-3804e3c4ab90","ios":"levelo://app?vid=65a10ee3-71a7-4f2a-91dc-3804e3c4ab90"},"vehicle_type_id":"4","last_reported":1733991232,"current_range_meters":12000,"station_id":"ce4bgr92rcd13ifvqc6g","pricing_plan_id":"cebpf4jnsgd1na2vs0mg"},{"bike_id":"8bce4d14-97e1-4732-8b97-92aecbbe2473","system_id":"levelo_inurba_marseille","lat":43.24078,"lon":5.3775,"is_reserved":false,"is_disabled":false,"rental_uris":{"android":"levelo://app?vid=8bce4d14-97e1-4732-8b97-92aecbbe2473","ios":"levelo://app?vid=8bce4d14-97e1-4732-8b97-92aecbbe2473"},"vehicle_type_id":"4","last_reported":1733991232,"current_range_meters":6000,"station_id":"ce4bhnp2rcd13ifvqgvg","pricing_plan_id":"cebpf4jnsgd1na2vs0mg"},{"bike_id":"e59bf1e6-7465-4219-b82d-5206448279ce","system_id":"levelo_inurba_marseille","lat":43.29616,"lon":5.37712,"is_reserved":false,"is_disabled":false,"rental_uris":{"android":"levelo://app?vid=e59bf1e6-7465-4219-b82d-5206448279ce","ios":"levelo://app?vid=e59bf1e6-7465-4219-b82d-5206448279ce"},"vehicle_type_id":"4","last_reported":1733991232,"current_range_meters":37600,"station_id":"ce4bgi92rcd13ifvqb90","pricing_plan_id":"cebpf4jnsgd1na2vs0mg"},{"bike_id":"097a41bf-6635-41a6-b7a7-1173cae29ada","system_id":"levelo_inurba_marseille","lat":43.22939,"lon":5.35367,"is_reserved":false,"is_disabled":false,"rental_uris":{"android":"levelo://app?vid=097a41bf-6635-41a6-b7a7-1173cae29ada","ios":"levelo://app?vid=097a41bf-6635-41a6-b7a7-1173cae29ada"},"vehicle_type_id":"4","last_reported":1733991232,"current_range_meters":39200,"station_id":"cpo3532slgdg3j2ikp40","pricing_plan_id":"cebpf4jnsgd1na2vs0mg"},{"bike_id":"a90ab59e-9775-4bc6-a3e9-285e464122de","system_id":"levelo_inurba_marseille","lat":43.2465,"lon":5.38892,"is_reserved":false,"is_disabled":false,"rental_uris":{"android":"levelo://app?vid=a90ab59e-9775-4bc6-a3e9-285e464122de","ios":"levelo://app?vid=a90ab59e-9775-4bc6-a3e9-285e464122de"},"vehicle_type_id":"4","last_reported":1733991232,"current_range_meters":36400,"station_id":"ce4bhg12rcd13ifvqf60","pricing_plan_id":"cebpf4jnsgd1na2vs0mg"},{"bike_id":"6dbe5ff9-a06a-4039-9585-5ed14ff918da","system_id":"levelo_inurba_marseille","lat":43.305419,"lon":5.367325,"is_reserved":false,"is_disabled":false,"rental_uris":{"android":"levelo://app?vid=6dbe5ff9-a06a-4039-9585-5ed14ff918da","ios":"levelo://app?vid=6dbe5ff9-a06a-4039-9585-5ed14ff918da"},"vehicle_type_id":"4","last_reported":1733991232,"current_range_meters":26000,"station_id":"ce4bgrp2rcd13ifvqc9g","pricing_plan_id":"cebpf4jnsgd1na2vs0mg"},{"bike_id":"e08a3c45-9a07-474f-9717-a27fa81c4ce9","system_id":"levelo_inurba_marseille","lat":43.30784,"lon":5.38749,"is_reserved":false,"is_disabled":true,"rental_uris":{"android":"levelo://app?vid=e08a3c45-9a07-474f-9717-a27fa81c4ce9","ios":"levelo://app?vid=e08a3c45-9a07-474f-9717-a27fa81c4ce9"},"vehicle_type_id":"4","last_reported":1733991232,"current_range_meters":0,"station_id":"","pricing_plan_id":"cebpf4jnsgd1na2vs0mg"},{"bike_id":"3f8f8697-509e-49e2-b4f2-9c5b4ebb2382","system_id":"levelo_inurba_marseille","lat":43.3054,"lon":5.36563,"is_reserved":false,"is_disabled":false,"rental_uris":{"android":"levelo://app?vid=3f8f8697-509e-49e2-b4f2-9c5b4ebb2382","ios":"levelo://app?vid=3f8f8697-509e-49e2-b4f2-9c5b4ebb2382"},"vehicle_type_id":"4","last_reported":1733991232,"current_range_meters":9200,"station_id":"ce4bgs12rcd13ifvqcag","pricing_plan_id":"cebpf4jnsgd1na2vs0mg"},{"bike_id":"19f5ca87-44ba-46b8-a333-1df09527680f","system_id":"levelo_inurba_marseille","lat":43.26795,"lon":5.39415,"is_reserved":false,"is_disabled":false,"rental_uris":{"android":"levelo://app?vid=19f5ca87-44ba-46b8-a333-1df09527680f","ios":"levelo://app?vid=19f5ca87-44ba-46b8-a333-1df09527680f"},"vehicle_type_id":"4","last_reported":1733991232,"current_range_meters":38400,"station_id":"ce4bhh12rcd13ifvqfg0","pricing_plan_id":"cebpf4jnsgd1na2vs0mg"},{"bike_id":"3bd6fdf4-9935-4470-9ffe-982f15671a5a","system_id":"levelo_inurba_marseille","lat":43.305257,"lon":5.365556,"is_reserved":false,"is_disabled":false,"rental_uris":{"android":"levelo://app?vid=3bd6fdf4-9935-4470-9ffe-982f15671a5a","ios":"levelo://app?vid=3bd6fdf4-9935-4470-9ffe-982f15671a5a"},"vehicle_type_id":"4","last_reported":1733991232,"current_range_meters":28000,"station_id":"ce4bgs12rcd13ifvqcag","pricing_plan_id":"cebpf4jnsgd1na2vs0mg"},{"bike_id":"6ada8f03-172b-4a51-a0b1-6fff0b60f680","system_id":"levelo_inurba_marseille","lat":43.29033,"lon":5.39953,"is_reserved":false,"is_disabled":true,"rental_uris":{"android":"levelo://app?vid=6ada8f03-172b-4a51-a0b1-6fff0b60f680","ios":"levelo://app?vid=6ada8f03-172b-4a51-a0b1-6fff0b60f680"},"vehicle_type_id":"4","last_reported":1733991232,"current_range_meters":28800,"station_id":"ce4bh392rcd13ifvqdm0","pricing_plan_id":"cebpf4jnsgd1na2vs0mg"},{"bike_id":"dbf212a4-5c61-42a2-9fb0-64e326737fba","system_id":"levelo_inurba_marseille","lat":43.25585,"lon":5.3823,"is_reserved":false,"is_disabled":false,"rental_uris":{"android":"levelo://app?vid=dbf212a4-5c61-42a2-9fb0-64e326737fba","ios":"levelo://app?vid=dbf212a4-5c61-42a2-9fb0-64e326737fba"},"vehicle_type_id":"4","last_reported":1733991232,"current_range_meters":35200,"station_id":"ce4bhih2rcd13ifvqfs0","pricing_plan_id":"cebpf4jnsgd1na2vs0mg"},{"bike_id":"89f24dc5-38fd-4c74-af12-df0de405d696","system_id":"levelo_inurba_marseille","lat":43.29573,"lon":5.37496,"is_reserved":false,"is_disabled":true,"rental_uris":{"android":"levelo://app?vid=89f24dc5-38fd-4c74-af12-df0de405d696","ios":"levelo://app?vid=89f24dc5-38fd-4c74-af12-df0de405d696"},"vehicle_type_id":"4","last_reported":1733991232,"current_range_meters":34000,"station_id":"ce4bgh92rcd13ifvqb50","pricing_plan_id":"cebpf4jnsgd1na2vs0mg"},{"bike_id":"bf78e681-d980-45d9-ba1c-6f08b8dfe071","system_id":"levelo_inurba_marseille","lat":43.31125,"lon":5.37776,"is_reserved":false,"is_disabled":false,"rental_uris":{"android":"levelo://app?vid=bf78e681-d980-45d9-ba1c-6f08b8dfe071","ios":"levelo://app?vid=bf78e681-d980-45d9-ba1c-6f08b8dfe071"},"vehicle_type_id":"4","last_reported":1733991232,"current_range_meters":27200,"station_id":"ce4bgt92rcd13ifvqcg0","pricing_plan_id":"cebpf4jnsgd1na2vs0mg"},{"bike_id":"af77a2c4-4f01-4eac-8bd5-698508bacd7c","system_id":"levelo_inurba_marseille","lat":43.27191,"lon":5.40994,"is_reserved":false,"is_disabled":false,"rental_uris":{"android":"levelo://app?vid=af77a2c4-4f01-4eac-8bd5-698508bacd7c","ios":"levelo://app?vid=af77a2c4-4f01-4eac-8bd5-698508bacd7c"},"vehicle_type_id":"4","last_reported":1733991232,"current_range_meters":19600,"station_id":"ce4bhl12rcd13ifvqgf0","pricing_plan_id":"cebpf4jnsgd1na2vs0mg"},{"bike_id":"e2a77f5d-1d63-4243-bf72-8b9ec30686b1","system_id":"levelo_inurba_marseille","lat":43.28719,"lon":5.37947,"is_reserved":false,"is_disabled":true,"rental_uris":{"android":"levelo://app?vid=e2a77f5d-1d63-4243-bf72-8b9ec30686b1","ios":"levelo://app?vid=e2a77f5d-1d63-4243-bf72-8b9ec30686b1"},"vehicle_type_id":"4","last_reported":1733991232,"current_range_meters":30400,"station_id":"ce4bh9p2rcd13ifvqec0","pricing_plan_id":"cebpf4jnsgd1na2vs0mg"},{"bike_id":"37e0fd74-33a1-43f6-a0c4-a0035f1b43ad","system_id":"levelo_inurba_marseille","lat":43.30943,"lon":5.39022,"is_reserved":false,"is_disabled":false,"rental_uris":{"android":"levelo://app?vid=37e0fd74-33a1-43f6-a0c4-a0035f1b43ad","ios":"levelo://app?vid=37e0fd74-33a1-43f6-a0c4-a0035f1b43ad"},"vehicle_type_id":"4","last_reported":1733991232,"current_range_meters":24800,"station_id":"ce4bgup2rcd13ifvqco0","pricing_plan_id":"cebpf4jnsgd1na2vs0mg"},{"bike_id":"a57d4740-3421-4fe8-a560-aacf170b24e6","system_id":"levelo_inurba_marseille","lat":43.23151,"lon":5.43718,"is_reserved":false,"is_disabled":false,"rental_uris":{"android":"levelo://app?vid=a57d4740-3421-4fe8-a560-aacf170b24e6","ios":"levelo://app?vid=a57d4740-3421-4fe8-a560-aacf170b24e6"},"vehicle_type_id":"4","last_reported":1733991232,"current_range_meters":21600,"station_id":"ce4bhmp2rcd13ifvqgog","pricing_plan_id":"cebpf4jnsgd1na2vs0mg"},{"bike_id":"127c0d0c-feff-4dd8-b28b-0023208de9c2","system_id":"levelo_inurba_marseille","lat":43.26215,"lon":5.37445,"is_reserved":false,"is_disabled":false,"rental_uris":{"android":"levelo://app?vid=127c0d0c-feff-4dd8-b28b-0023208de9c2","ios":"levelo://app?vid=127c0d0c-feff-4dd8-b28b-0023208de9c2"},"vehicle_type_id":"4","last_reported":1733991232,"current_range_meters":36400,"station_id":"ce4bhgp2rcd13ifvqfc0","pricing_plan_id":"cebpf4jnsgd1na2vs0mg"},{"bike_id":"998fb05a-2a3b-4974-807b-b61a778b4ca7","system_id":"levelo_inurba_marseille","lat":43.30474,"lon":5.37912,"is_reserved":false,"is_disabled":true,"rental_uris":{"android":"levelo://app?vid=998fb05a-2a3b-4974-807b-b61a778b4ca7","ios":"levelo://app?vid=998fb05a-2a3b-4974-807b-b61a778b4ca7"},"vehicle_type_id":"4","last_reported":1733991232,"current_range_meters":18800,"station_id":"ce4bgup2rcd13ifvqcn0","pricing_plan_id":"cebpf4jnsgd1na2vs0mg"},{"bike_id":"719781ef-4cbd-4631-965b-6343c9720e99","system_id":"levelo_inurba_marseille","lat":43.3237,"lon":5.38885,"is_reserved":false,"is_disabled":false,"rental_uris":{"android":"levelo://app?vid=719781ef-4cbd-4631-965b-6343c9720e99","ios":"levelo://app?vid=719781ef-4cbd-4631-965b-6343c9720e99"},"vehicle_type_id":"4","last_reported":1733991232,"current_range_meters":38400,"station_id":"ce4bhqp2rcd13ifvqhog","pricing_plan_id":"cebpf4jnsgd1na2vs0mg"},{"bike_id":"ce2b0e59-342e-409f-a90c-8a761b298627","system_id":"levelo_inurba_marseille","lat":43.30278,"lon":5.3771,"is_reserved":false,"is_disabled":false,"rental_uris":{"android":"levelo://app?vid=ce2b0e59-342e-409f-a90c-8a761b298627","ios":"levelo://app?vid=ce2b0e59-342e-409f-a90c-8a761b298627"},"vehicle_type_id":"4","last_reported":1733991232,"current_range_meters":18800,"station_id":"ce4bguh2rcd13ifvqcj0","pricing_plan_id":"cebpf4jnsgd1na2vs0mg"},{"bike_id":"b4b002af-b566-4f7f-b733-4ec08c23fb23","system_id":"levelo_inurba_marseille","lat":43.31345,"lon":5.36708,"is_reserved":false,"is_disabled":false,"rental_uris":{"android":"levelo://app?vid=b4b002af-b566-4f7f-b733-4ec08c23fb23","ios":"levelo://app?vid=b4b002af-b566-4f7f-b733-4ec08c23fb23"},"vehicle_type_id":"4","last_reported":1733991232,"current_range_meters":24400,"station_id":"ce4bgr92rcd13ifvqc6g","pricing_plan_id":"cebpf4jnsgd1na2vs0mg"},{"bike_id":"a66c4b95-337e-4b9a-950c-e8c8d8e7a3a1","system_id":"levelo_inurba_marseille","lat":43.324799,"lon":5.365716,"is_reserved":false,"is_disabled":true,"rental_uris":{"android":"levelo://app?vid=a66c4b95-337e-4b9a-950c-e8c8d8e7a3a1","ios":"levelo://app?vid=a66c4b95-337e-4b9a-950c-e8c8d8e7a3a1"},"vehicle_type_id":"4","last_reported":1733991232,"current_range_meters":0,"station_id":"","pricing_plan_id":"cebpf4jnsgd1na2vs0mg"},{"bike_id":"b58dec10-b03c-40f8-ab2d-1fb5d5b47267","system_id":"levelo_inurba_marseille","lat":43.30546,"lon":5.38425,"is_reserved":false,"is_disabled":false,"rental_uris":{"android":"levelo://app?vid=b58dec10-b03c-40f8-ab2d-1fb5d5b47267","ios":"levelo://app?vid=b58dec10-b03c-40f8-ab2d-1fb5d5b47267"},"vehicle_type_id":"4","last_reported":1733991232,"current_range_meters":17600,"station_id":"ce4bgg92rcd13ifvqb30","pricing_plan_id":"cebpf4jnsgd1na2vs0mg"},{"bike_id":"fd68a44b-d7e7-4ac9-9f93-63b59e3318d2","system_id":"levelo_inurba_marseille","lat":43.33721,"lon":5.39185,"is_reserved":false,"is_disabled":true,"rental_uris":{"android":"levelo://app?vid=fd68a44b-d7e7-4ac9-9f93-63b59e3318d2","ios":"levelo://app?vid=fd68a44b-d7e7-4ac9-9f93-63b59e3318d2"},"vehicle_type_id":"4","last_reported":1733991232,"current_range_meters":38800,"station_id":"ce4bhr92rcd13ifvqhsg","pricing_plan_id":"cebpf4jnsgd1na2vs0mg"},{"bike_id":"321fd520-305a-4bff-ae40-2c4ccb7ccf74","system_id":"levelo_inurba_marseille","lat":43.2903,"lon":5.38114,"is_reserved":false,"is_disabled":true,"rental_uris":{"android":"levelo://app?vid=321fd520-305a-4bff-ae40-2c4ccb7ccf74","ios":"levelo://app?vid=321fd520-305a-4bff-ae40-2c4ccb7ccf74"},"vehicle_type_id":"4","last_reported":1733991232,"current_range_meters":38800,"station_id":"ce4bh4p2rcd13ifvqe1g","pricing_plan_id":"cebpf4jnsgd1na2vs0mg"},{"bike_id":"88a87f09-cb36-4c14-9b4f-da3830e7be3e","system_id":"levelo_inurba_marseille","lat":43.23154,"lon":5.43712,"is_reserved":false,"is_disabled":false,"rental_uris":{"android":"levelo://app?vid=88a87f09-cb36-4c14-9b4f-da3830e7be3e","ios":"levelo://app?vid=88a87f09-cb36-4c14-9b4f-da3830e7be3e"},"vehicle_type_id":"4","last_reported":1733991232,"current_range_meters":7200,"station_id":"ce4bhmp2rcd13ifvqgog","pricing_plan_id":"cebpf4jnsgd1na2vs0mg"},{"bike_id":"75bc53cd-099d-4532-9fce-83fc33d36897","system_id":"levelo_inurba_marseille","lat":43.24065,"lon":5.37762,"is_reserved":false,"is_disabled":true,"rental_uris":{"android":"levelo://app?vid=75bc53cd-099d-4532-9fce-83fc33d36897","ios":"levelo://app?vid=75bc53cd-099d-4532-9fce-83fc33d36897"},"vehicle_type_id":"4","last_reported":1733991232,"current_range_meters":13600,"station_id":"ce4bhnp2rcd13ifvqgvg","pricing_plan_id":"cebpf4jnsgd1na2vs0mg"},{"bike_id":"36c22a16-66d2-4f78-a6c0-ae41b756b49e","system_id":"levelo_inurba_marseille","lat":43.309603,"lon":5.390514,"is_reserved":false,"is_disabled":true,"rental_uris":{"android":"levelo://app?vid=36c22a16-66d2-4f78-a6c0-ae41b756b49e","ios":"levelo://app?vid=36c22a16-66d2-4f78-a6c0-ae41b756b49e"},"vehicle_type_id":"4","last_reported":1733991232,"current_range_meters":38800,"station_id":"ce4bgup2rcd13ifvqco0","pricing_plan_id":"cebpf4jnsgd1na2vs0mg"},{"bike_id":"a607fd84-3ef6-4d33-a3f4-7e19d6449a9a","system_id":"levelo_inurba_marseille","lat":43.30535,"lon":5.36685,"is_reserved":false,"is_disabled":false,"rental_uris":{"android":"levelo://app?vid=a607fd84-3ef6-4d33-a3f4-7e19d6449a9a","ios":"levelo://app?vid=a607fd84-3ef6-4d33-a3f4-7e19d6449a9a"},"vehicle_type_id":"4","last_reported":1733991232,"current_range_meters":36400,"station_id":"ce4bgrp2rcd13ifvqc9g","pricing_plan_id":"cebpf4jnsgd1na2vs0mg"},{"bike_id":"2175ae3c-739a-49a6-8b88-c695a996a497","system_id":"levelo_inurba_marseille","lat":43.24073,"lon":5.37743,"is_reserved":false,"is_disabled":true,"rental_uris":{"android":"levelo://app?vid=2175ae3c-739a-49a6-8b88-c695a996a497","ios":"levelo://app?vid=2175ae3c-739a-49a6-8b88-c695a996a497"},"vehicle_type_id":"4","last_reported":1733991232,"current_range_meters":32400,"station_id":"ce4bhnp2rcd13ifvqgvg","pricing_plan_id":"cebpf4jnsgd1na2vs0mg"},{"bike_id":"b28364cf-3764-46be-9e34-df111405ff85","system_id":"levelo_inurba_marseille","lat":43.3266,"lon":5.40983,"is_reserved":false,"is_disabled":false,"rental_uris":{"android":"levelo://app?vid=b28364cf-3764-46be-9e34-df111405ff85","ios":"levelo://app?vid=b28364cf-3764-46be-9e34-df111405ff85"},"vehicle_type_id":"4","last_reported":1733991232,"current_range_meters":37600,"station_id":"ce4bhpp2rcd13ifvqhgg","pricing_plan_id":"cebpf4jnsgd1na2vs0mg"},{"bike_id":"bbcff5ca-4212-4f97-ad4e-cc9f02df715c","system_id":"levelo_inurba_marseille","lat":43.23189,"lon":5.39994,"is_reserved":false,"is_disabled":false,"rental_uris":{"android":"levelo://app?vid=bbcff5ca-4212-4f97-ad4e-cc9f02df715c","ios":"levelo://app?vid=bbcff5ca-4212-4f97-ad4e-cc9f02df715c"},"vehicle_type_id":"4","last_reported":1733991232,"current_range_meters":37600,"station_id":"ce4bhn12rcd13ifvqgqg","pricing_plan_id":"cebpf4jnsgd1na2vs0mg"},{"bike_id":"56c498ab-b0b0-4d17-8d89-430397f8d006","system_id":"levelo_inurba_marseille","lat":43.30915,"lon":5.36853,"is_reserved":false,"is_disabled":true,"rental_uris":{"android":"levelo://app?vid=56c498ab-b0b0-4d17-8d89-430397f8d006","ios":"levelo://app?vid=56c498ab-b0b0-4d17-8d89-430397f8d006"},"vehicle_type_id":"4","last_reported":1733991232,"current_range_meters":22800,"station_id":"ce4bgn92rcd13ifvqbvg","pricing_plan_id":"cebpf4jnsgd1na2vs0mg"},{"bike_id":"94d24d12-981d-4c28-b9a7-c4bd686eb9f2","system_id":"levelo_inurba_marseille","lat":43.25737,"lon":5.41099,"is_reserved":false,"is_disabled":false,"rental_uris":{"android":"levelo://app?vid=94d24d12-981d-4c28-b9a7-c4bd686eb9f2","ios":"levelo://app?vid=94d24d12-981d-4c28-b9a7-c4bd686eb9f2"},"vehicle_type_id":"4","last_reported":1733991232,"current_range_meters":38800,"station_id":"ce4bhkp2rcd13ifvqgd0","pricing_plan_id":"cebpf4jnsgd1na2vs0mg"},{"bike_id":"f9006d5e-9c0f-4454-b9fb-dff906778f64","system_id":"levelo_inurba_marseille","lat":43.29315,"lon":5.37179,"is_reserved":false,"is_disabled":false,"rental_uris":{"android":"levelo://app?vid=f9006d5e-9c0f-4454-b9fb-dff906778f64","ios":"levelo://app?vid=f9006d5e-9c0f-4454-b9fb-dff906778f64"},"vehicle_type_id":"4","last_reported":1733991232,"current_range_meters":38000,"station_id":"ce4bgh92rcd13ifvqb40","pricing_plan_id":"cebpf4jnsgd1na2vs0mg"},{"bike_id":"cbbff6b4-11dd-4a22-bbf0-bd9f53ccbf1c","system_id":"levelo_inurba_marseille","lat":43.28358,"lon":5.38101,"is_reserved":false,"is_disabled":false,"rental_uris":{"android":"levelo://app?vid=cbbff6b4-11dd-4a22-bbf0-bd9f53ccbf1c","ios":"levelo://app?vid=cbbff6b4-11dd-4a22-bbf0-bd9f53ccbf1c"},"vehicle_type_id":"4","last_reported":1733991232,"current_range_meters":26800,"station_id":"ce4bh412rcd13ifvqdr0","pricing_plan_id":"cebpf4jnsgd1na2vs0mg"},{"bike_id":"b29f3572-8242-4e95-9b80-1ba5e655a43a","system_id":"levelo_inurba_marseille","lat":43.305383,"lon":5.36547,"is_reserved":false,"is_disabled":true,"rental_uris":{"android":"levelo://app?vid=b29f3572-8242-4e95-9b80-1ba5e655a43a","ios":"levelo://app?vid=b29f3572-8242-4e95-9b80-1ba5e655a43a"},"vehicle_type_id":"4","last_reported":1733991232,"current_range_meters":26000,"station_id":"ce4bgs12rcd13ifvqcag","pricing_plan_id":"cebpf4jnsgd1na2vs0mg"},{"bike_id":"fb4ae101-739f-40ac-ab32-39ecf441504d","system_id":"levelo_inurba_marseille","lat":43.26495,"lon":5.3955,"is_reserved":false,"is_disabled":false,"rental_uris":{"android":"levelo://app?vid=fb4ae101-739f-40ac-ab32-39ecf441504d","ios":"levelo://app?vid=fb4ae101-739f-40ac-ab32-39ecf441504d"},"vehicle_type_id":"4","last_reported":1733991232,"current_range_meters":23200,"station_id":"ce4bhi12rcd13ifvqfq0","pricing_plan_id":"cebpf4jnsgd1na2vs0mg"},{"bike_id":"ab1c6a12-19ac-4afb-af5f-776c48efacd2","system_id":"levelo_inurba_marseille","lat":43.23195,"lon":5.35549,"is_reserved":false,"is_disabled":false,"rental_uris":{"android":"levelo://app?vid=ab1c6a12-19ac-4afb-af5f-776c48efacd2","ios":"levelo://app?vid=ab1c6a12-19ac-4afb-af5f-776c48efacd2"},"vehicle_type_id":"4","last_reported":1733991232,"current_range_meters":14800,"station_id":"ce4bhu92rcd13ifvqi70","pricing_plan_id":"cebpf4jnsgd1na2vs0mg"},{"bike_id":"ac09602b-8f45-470a-ac00-2f9a5e15457c","system_id":"levelo_inurba_marseille","lat":43.34138,"lon":5.40904,"is_reserved":false,"is_disabled":false,"rental_uris":{"android":"levelo://app?vid=ac09602b-8f45-470a-ac00-2f9a5e15457c","ios":"levelo://app?vid=ac09602b-8f45-470a-ac00-2f9a5e15457c"},"vehicle_type_id":"4","last_reported":1733991232,"current_range_meters":39200,"station_id":"ce4bhqh2rcd13ifvqhlg","pricing_plan_id":"cebpf4jnsgd1na2vs0mg"},{"bike_id":"7675075a-043e-4f3e-bff9-a33a42fea2d8","system_id":"levelo_inurba_marseille","lat":43.24099,"lon":5.37757,"is_reserved":false,"is_disabled":false,"rental_uris":{"android":"levelo://app?vid=7675075a-043e-4f3e-bff9-a33a42fea2d8","ios":"levelo://app?vid=7675075a-043e-4f3e-bff9-a33a42fea2d8"},"vehicle_type_id":"4","last_reported":1733991232,"current_range_meters":13600,"station_id":"ce4bhnp2rcd13ifvqgvg","pricing_plan_id":"cebpf4jnsgd1na2vs0mg"},{"bike_id":"034afd89-7884-46aa-947a-c5f301e52728","system_id":"levelo_inurba_marseille","lat":43.30891,"lon":5.39623,"is_reserved":false,"is_disabled":true,"rental_uris":{"android":"levelo://app?vid=034afd89-7884-46aa-947a-c5f301e52728","ios":"levelo://app?vid=034afd89-7884-46aa-947a-c5f301e52728"},"vehicle_type_id":"4","last_reported":1733991232,"current_range_meters":18800,"station_id":"ce4bh012rcd13ifvqcv0","pricing_plan_id":"cebpf4jnsgd1na2vs0mg"},{"bike_id":"834fc96a-9de9-496c-a039-d0a9302e8f66","system_id":"levelo_inurba_marseille","lat":43.26688,"lon":5.38271,"is_reserved":false,"is_disabled":true,"rental_uris":{"android":"levelo://app?vid=834fc96a-9de9-496c-a039-d0a9302e8f66","ios":"levelo://app?vid=834fc96a-9de9-496c-a039-d0a9302e8f66"},"vehicle_type_id":"4","last_reported":1733991232,"current_range_meters":36800,"station_id":"ce4bhg92rcd13ifvqf90","pricing_plan_id":"cebpf4jnsgd1na2vs0mg"},{"bike_id":"63128977-3866-4d15-8716-1acea914ac16","system_id":"levelo_inurba_marseille","lat":43.33475,"lon":5.41022,"is_reserved":false,"is_disabled":false,"rental_uris":{"android":"levelo://app?vid=63128977-3866-4d15-8716-1acea914ac16","ios":"levelo://app?vid=63128977-3866-4d15-8716-1acea914ac16"},"vehicle_type_id":"4","last_reported":1733991232,"current_range_meters":7200,"station_id":"","pricing_plan_id":"cebpf4jnsgd1na2vs0mg"},{"bike_id":"4b159905-2f67-447e-8a98-04131f27344a","system_id":"levelo_inurba_marseille","lat":43.31946,"lon":5.40885,"is_reserved":false,"is_disabled":false,"rental_uris":{"android":"levelo://app?vid=4b159905-2f67-447e-8a98-04131f27344a","ios":"levelo://app?vid=4b159905-2f67-447e-8a98-04131f27344a"},"vehicle_type_id":"4","last_reported":1733991232,"current_range_meters":27600,"station_id":"","pricing_plan_id":"cebpf4jnsgd1na2vs0mg"},{"bike_id":"3125d0ae-884f-4a3e-823a-ed0e3cad176b","system_id":"levelo_inurba_marseille","lat":43.24389,"lon":5.37067,"is_reserved":false,"is_disabled":false,"rental_uris":{"android":"levelo://app?vid=3125d0ae-884f-4a3e-823a-ed0e3cad176b","ios":"levelo://app?vid=3125d0ae-884f-4a3e-823a-ed0e3cad176b"},"vehicle_type_id":"4","last_reported":1733991232,"current_range_meters":38000,"station_id":"ce4bhhh2rcd13ifvqfk0","pricing_plan_id":"cebpf4jnsgd1na2vs0mg"},{"bike_id":"f43a00c2-71b7-4582-ac6b-b98ace4d6a1b","system_id":"levelo_inurba_marseille","lat":43.28715,"lon":5.37945,"is_reserved":false,"is_disabled":true,"rental_uris":{"android":"levelo://app?vid=f43a00c2-71b7-4582-ac6b-b98ace4d6a1b","ios":"levelo://app?vid=f43a00c2-71b7-4582-ac6b-b98ace4d6a1b"},"vehicle_type_id":"4","last_reported":1733991232,"current_range_meters":0,"station_id":"ce4bh9p2rcd13ifvqec0","pricing_plan_id":"cebpf4jnsgd1na2vs0mg"},{"bike_id":"30ce810b-c162-4f79-b5df-f0810e22f189","system_id":"levelo_inurba_marseille","lat":43.30541,"lon":5.3842,"is_reserved":false,"is_disabled":false,"rental_uris":{"android":"levelo://app?vid=30ce810b-c162-4f79-b5df-f0810e22f189","ios":"levelo://app?vid=30ce810b-c162-4f79-b5df-f0810e22f189"},"vehicle_type_id":"4","last_reported":1733991232,"current_range_meters":36800,"station_id":"ce4bgg92rcd13ifvqb30","pricing_plan_id":"cebpf4jnsgd1na2vs0mg"},{"bike_id":"8679f1c1-344a-4ff4-9f6c-cde7ef28d65b","system_id":"levelo_inurba_marseille","lat":43.29565,"lon":5.3764,"is_reserved":false,"is_disabled":false,"rental_uris":{"android":"levelo://app?vid=8679f1c1-344a-4ff4-9f6c-cde7ef28d65b","ios":"levelo://app?vid=8679f1c1-344a-4ff4-9f6c-cde7ef28d65b"},"vehicle_type_id":"4","last_reported":1733991232,"current_range_meters":9600,"station_id":"","pricing_plan_id":"cebpf4jnsgd1na2vs0mg"},{"bike_id":"624b12d5-af23-40f5-adb2-ec3fe650c5b9","system_id":"levelo_inurba_marseille","lat":43.29304,"lon":5.37461,"is_reserved":false,"is_disabled":false,"rental_uris":{"android":"levelo://app?vid=624b12d5-af23-40f5-adb2-ec3fe650c5b9","ios":"levelo://app?vid=624b12d5-af23-40f5-adb2-ec3fe650c5b9"},"vehicle_type_id":"4","last_reported":1733991232,"current_range_meters":30400,"station_id":"ce4bgi12rcd13ifvqb70","pricing_plan_id":"cebpf4jnsgd1na2vs0mg"},{"bike_id":"05ee6a10-776e-4cc2-aca8-1e6b67fba24f","system_id":"levelo_inurba_marseille","lat":43.2408,"lon":5.37753,"is_reserved":false,"is_disabled":false,"rental_uris":{"android":"levelo://app?vid=05ee6a10-776e-4cc2-aca8-1e6b67fba24f","ios":"levelo://app?vid=05ee6a10-776e-4cc2-aca8-1e6b67fba24f"},"vehicle_type_id":"4","last_reported":1733991232,"current_range_meters":8800,"station_id":"ce4bhnp2rcd13ifvqgvg","pricing_plan_id":"cebpf4jnsgd1na2vs0mg"},{"bike_id":"e6090969-8098-42ea-859d-789288aaa8dc","system_id":"levelo_inurba_marseille","lat":43.2957,"lon":5.3751,"is_reserved":false,"is_disabled":false,"rental_uris":{"android":"levelo://app?vid=e6090969-8098-42ea-859d-789288aaa8dc","ios":"levelo://app?vid=e6090969-8098-42ea-859d-789288aaa8dc"},"vehicle_type_id":"4","last_reported":1733991232,"current_range_meters":13600,"station_id":"ce4bgh92rcd13ifvqb50","pricing_plan_id":"cebpf4jnsgd1na2vs0mg"},{"bike_id":"1e40000b-f99d-478c-90f7-9ab9b7eac13b","system_id":"levelo_inurba_marseille","lat":43.30199,"lon":5.37403,"is_reserved":false,"is_disabled":false,"rental_uris":{"android":"levelo://app?vid=1e40000b-f99d-478c-90f7-9ab9b7eac13b","ios":"levelo://app?vid=1e40000b-f99d-478c-90f7-9ab9b7eac13b"},"vehicle_type_id":"4","last_reported":1733991232,"current_range_meters":38000,"station_id":"","pricing_plan_id":"cebpf4jnsgd1na2vs0mg"},{"bike_id":"204d1fcc-217b-486d-9c03-32fb3688ac3d","system_id":"levelo_inurba_marseille","lat":43.29997,"lon":5.37185,"is_reserved":false,"is_disabled":true,"rental_uris":{"android":"levelo://app?vid=204d1fcc-217b-486d-9c03-32fb3688ac3d","ios":"levelo://app?vid=204d1fcc-217b-486d-9c03-32fb3688ac3d"},"vehicle_type_id":"4","last_reported":1733991232,"current_range_meters":36400,"station_id":"ce4bgr92rcd13ifvqc7g","pricing_plan_id":"cebpf4jnsgd1na2vs0mg"},{"bike_id":"713823b4-c30b-4009-b498-f5ede3d91e75","system_id":"levelo_inurba_marseille","lat":43.24071,"lon":5.3776,"is_reserved":false,"is_disabled":false,"rental_uris":{"android":"levelo://app?vid=713823b4-c30b-4009-b498-f5ede3d91e75","ios":"levelo://app?vid=713823b4-c30b-4009-b498-f5ede3d91e75"},"vehicle_type_id":"4","last_reported":1733991232,"current_range_meters":9600,"station_id":"ce4bhnp2rcd13ifvqgvg","pricing_plan_id":"cebpf4jnsgd1na2vs0mg"},{"bike_id":"38c1f477-54b0-487d-9e9c-970db0f0bad4","system_id":"levelo_inurba_marseille","lat":43.25496,"lon":5.37654,"is_reserved":false,"is_disabled":true,"rental_uris":{"android":"levelo://app?vid=38c1f477-54b0-487d-9e9c-970db0f0bad4","ios":"levelo://app?vid=38c1f477-54b0-487d-9e9c-970db0f0bad4"},"vehicle_type_id":"4","last_reported":1733991232,"current_range_meters":0,"station_id":"ce4bhh12rcd13ifvqff0","pricing_plan_id":"cebpf4jnsgd1na2vs0mg"},{"bike_id":"904d13dc-3376-485f-9e3c-11b56520a450","system_id":"levelo_inurba_marseille","lat":43.3171,"lon":5.40438,"is_reserved":false,"is_disabled":false,"rental_uris":{"android":"levelo://app?vid=904d13dc-3376-485f-9e3c-11b56520a450","ios":"levelo://app?vid=904d13dc-3376-485f-9e3c-11b56520a450"},"vehicle_type_id":"4","last_reported":1733991232,"current_range_meters":6800,"station_id":"ce4bh012rcd13ifvqd00","pricing_plan_id":"cebpf4jnsgd1na2vs0mg"},{"bike_id":"aeee7448-02e6-45b0-b0ac-d55c99806503","system_id":"levelo_inurba_marseille","lat":43.25575,"lon":5.38233,"is_reserved":false,"is_disabled":true,"rental_uris":{"android":"levelo://app?vid=aeee7448-02e6-45b0-b0ac-d55c99806503","ios":"levelo://app?vid=aeee7448-02e6-45b0-b0ac-d55c99806503"},"vehicle_type_id":"4","last_reported":1733991232,"current_range_meters":4000,"station_id":"ce4bhih2rcd13ifvqfs0","pricing_plan_id":"cebpf4jnsgd1na2vs0mg"},{"bike_id":"f2df0fef-7ab3-42b0-99e0-a085dcf5c5be","system_id":"levelo_inurba_marseille","lat":43.24052,"lon":5.37792,"is_reserved":false,"is_disabled":true,"rental_uris":{"android":"levelo://app?vid=f2df0fef-7ab3-42b0-99e0-a085dcf5c5be","ios":"levelo://app?vid=f2df0fef-7ab3-42b0-99e0-a085dcf5c5be"},"vehicle_type_id":"4","last_reported":1733991232,"current_range_meters":38400,"station_id":"ce4bhnp2rcd13ifvqgvg","pricing_plan_id":"cebpf4jnsgd1na2vs0mg"},{"bike_id":"c2fde2da-8299-48ae-b4b2-b821f66d2003","system_id":"levelo_inurba_marseille","lat":43.28437,"lon":5.39196,"is_reserved":false,"is_disabled":true,"rental_uris":{"android":"levelo://app?vid=c2fde2da-8299-48ae-b4b2-b821f66d2003","ios":"levelo://app?vid=c2fde2da-8299-48ae-b4b2-b821f66d2003"},"vehicle_type_id":"4","last_reported":1733991232,"current_range_meters":36400,"station_id":"ce4bhoh2rcd13ifvqh5g","pricing_plan_id":"cebpf4jnsgd1na2vs0mg"},{"bike_id":"b54994e2-acf0-495c-8932-67e9eb200df4","system_id":"levelo_inurba_marseille","lat":43.30279,"lon":5.37719,"is_reserved":false,"is_disabled":false,"rental_uris":{"android":"levelo://app?vid=b54994e2-acf0-495c-8932-67e9eb200df4","ios":"levelo://app?vid=b54994e2-acf0-495c-8932-67e9eb200df4"},"vehicle_type_id":"4","last_reported":1733991232,"current_range_meters":29600,"station_id":"ce4bguh2rcd13ifvqcj0","pricing_plan_id":"cebpf4jnsgd1na2vs0mg"},{"bike_id":"90acf504-b5df-4fe5-8f73-df39a8823ac4","system_id":"levelo_inurba_marseille","lat":43.27973,"lon":5.38745,"is_reserved":false,"is_disabled":true,"rental_uris":{"android":"levelo://app?vid=90acf504-b5df-4fe5-8f73-df39a8823ac4","ios":"levelo://app?vid=90acf504-b5df-4fe5-8f73-df39a8823ac4"},"vehicle_type_id":"4","last_reported":1733991232,"current_range_meters":38400,"station_id":"ce4bhg12rcd13ifvqf80","pricing_plan_id":"cebpf4jnsgd1na2vs0mg"},{"bike_id":"698a7b18-c893-4030-b3e9-6e044675884c","system_id":"levelo_inurba_marseille","lat":43.313433,"lon":5.367174,"is_reserved":false,"is_disabled":false,"rental_uris":{"android":"levelo://app?vid=698a7b18-c893-4030-b3e9-6e044675884c","ios":"levelo://app?vid=698a7b18-c893-4030-b3e9-6e044675884c"},"vehicle_type_id":"4","last_reported":1733991232,"current_range_meters":39200,"station_id":"ce4bgr92rcd13ifvqc6g","pricing_plan_id":"cebpf4jnsgd1na2vs0mg"},{"bike_id":"8a939789-b594-464c-87bc-cdbd1182be3b","system_id":"levelo_inurba_marseille","lat":43.2455,"lon":5.39526,"is_reserved":false,"is_disabled":false,"rental_uris":{"android":"levelo://app?vid=8a939789-b594-464c-87bc-cdbd1182be3b","ios":"levelo://app?vid=8a939789-b594-464c-87bc-cdbd1182be3b"},"vehicle_type_id":"4","last_reported":1733991232,"current_range_meters":16800,"station_id":"ce4bhlp2rcd13ifvqgjg","pricing_plan_id":"cebpf4jnsgd1na2vs0mg"},{"bike_id":"20b6570c-093e-4008-92f3-61a850c673d0","system_id":"levelo_inurba_marseille","lat":43.24085,"lon":5.37748,"is_reserved":false,"is_disabled":false,"rental_uris":{"android":"levelo://app?vid=20b6570c-093e-4008-92f3-61a850c673d0","ios":"levelo://app?vid=20b6570c-093e-4008-92f3-61a850c673d0"},"vehicle_type_id":"4","last_reported":1733991232,"current_range_meters":36800,"station_id":"ce4bhnp2rcd13ifvqgvg","pricing_plan_id":"cebpf4jnsgd1na2vs0mg"},{"bike_id":"467a8ed9-8f9d-4f9c-a7a2-b2a4bc21bd4a","system_id":"levelo_inurba_marseille","lat":43.24645,"lon":5.38893,"is_reserved":false,"is_disabled":false,"rental_uris":{"android":"levelo://app?vid=467a8ed9-8f9d-4f9c-a7a2-b2a4bc21bd4a","ios":"levelo://app?vid=467a8ed9-8f9d-4f9c-a7a2-b2a4bc21bd4a"},"vehicle_type_id":"4","last_reported":1733991232,"current_range_meters":36400,"station_id":"ce4bhg12rcd13ifvqf60","pricing_plan_id":"cebpf4jnsgd1na2vs0mg"},{"bike_id":"ab975408-e5d0-45ee-9b96-a68884d1795b","system_id":"levelo_inurba_marseille","lat":43.26199,"lon":5.37932,"is_reserved":false,"is_disabled":false,"rental_uris":{"android":"levelo://app?vid=ab975408-e5d0-45ee-9b96-a68884d1795b","ios":"levelo://app?vid=ab975408-e5d0-45ee-9b96-a68884d1795b"},"vehicle_type_id":"4","last_reported":1733991232,"current_range_meters":25200,"station_id":"ce4bhjp2rcd13ifvqg90","pricing_plan_id":"cebpf4jnsgd1na2vs0mg"},{"bike_id":"33099d93-ce10-45ff-bd7c-95104a3498a9","system_id":"levelo_inurba_marseille","lat":43.27999,"lon":5.41674,"is_reserved":false,"is_disabled":true,"rental_uris":{"android":"levelo://app?vid=33099d93-ce10-45ff-bd7c-95104a3498a9","ios":"levelo://app?vid=33099d93-ce10-45ff-bd7c-95104a3498a9"},"vehicle_type_id":"4","last_reported":1733991232,"current_range_meters":36400,"station_id":"ce4bho12rcd13ifvqh1g","pricing_plan_id":"cebpf4jnsgd1na2vs0mg"},{"bike_id":"a5589391-a7e4-412b-9a87-f917b2322580","system_id":"levelo_inurba_marseille","lat":43.2306,"lon":5.35495,"is_reserved":false,"is_disabled":false,"rental_uris":{"android":"levelo://app?vid=a5589391-a7e4-412b-9a87-f917b2322580","ios":"levelo://app?vid=a5589391-a7e4-412b-9a87-f917b2322580"},"vehicle_type_id":"4","last_reported":1733991232,"current_range_meters":15200,"station_id":"cpo3342slgdg3j2ifvpg","pricing_plan_id":"cebpf4jnsgd1na2vs0mg"},{"bike_id":"1ac25f57-d61f-4b3f-b565-480d33d7852d","system_id":"levelo_inurba_marseille","lat":43.290495,"lon":5.399725,"is_reserved":false,"is_disabled":true,"rental_uris":{"android":"levelo://app?vid=1ac25f57-d61f-4b3f-b565-480d33d7852d","ios":"levelo://app?vid=1ac25f57-d61f-4b3f-b565-480d33d7852d"},"vehicle_type_id":"4","last_reported":1733991232,"current_range_meters":0,"station_id":"ce4bh392rcd13ifvqdm0","pricing_plan_id":"cebpf4jnsgd1na2vs0mg"},{"bike_id":"4adbefe7-e022-4183-953c-b8d94d86066c","system_id":"levelo_inurba_marseille","lat":43.29841,"lon":5.36264,"is_reserved":false,"is_disabled":false,"rental_uris":{"android":"levelo://app?vid=4adbefe7-e022-4183-953c-b8d94d86066c","ios":"levelo://app?vid=4adbefe7-e022-4183-953c-b8d94d86066c"},"vehicle_type_id":"4","last_reported":1733991232,"current_range_meters":32400,"station_id":"ce4bgpp2rcd13ifvqc3g","pricing_plan_id":"cebpf4jnsgd1na2vs0mg"},{"bike_id":"d34abab3-92c0-4d2f-adea-3b2e45fb361d","system_id":"levelo_inurba_marseille","lat":43.29297,"lon":5.3746,"is_reserved":false,"is_disabled":true,"rental_uris":{"android":"levelo://app?vid=d34abab3-92c0-4d2f-adea-3b2e45fb361d","ios":"levelo://app?vid=d34abab3-92c0-4d2f-adea-3b2e45fb361d"},"vehicle_type_id":"4","last_reported":1733991232,"current_range_meters":29600,"station_id":"ce4bgi12rcd13ifvqb70","pricing_plan_id":"cebpf4jnsgd1na2vs0mg"},{"bike_id":"146c18c0-2d54-4c53-8578-b97326fbb246","system_id":"levelo_inurba_marseille","lat":43.32474,"lon":5.36576,"is_reserved":false,"is_disabled":false,"rental_uris":{"android":"levelo://app?vid=146c18c0-2d54-4c53-8578-b97326fbb246","ios":"levelo://app?vid=146c18c0-2d54-4c53-8578-b97326fbb246"},"vehicle_type_id":"4","last_reported":1733991232,"current_range_meters":38800,"station_id":"ce4bhs12rcd13ifvqhvg","pricing_plan_id":"cebpf4jnsgd1na2vs0mg"},{"bike_id":"b7927644-2322-4164-b7de-97a02d83afe4","system_id":"levelo_inurba_marseille","lat":43.29202,"lon":5.3581,"is_reserved":false,"is_disabled":false,"rental_uris":{"android":"levelo://app?vid=b7927644-2322-4164-b7de-97a02d83afe4","ios":"levelo://app?vid=b7927644-2322-4164-b7de-97a02d83afe4"},"vehicle_type_id":"4","last_reported":1733991232,"current_range_meters":38800,"station_id":"ce4bhb12rcd13ifvqel0","pricing_plan_id":"cebpf4jnsgd1na2vs0mg"},{"bike_id":"837ea001-3dca-43b1-bf44-3c63cdc8ec4f","system_id":"levelo_inurba_marseille","lat":43.24081,"lon":5.3776,"is_reserved":false,"is_disabled":false,"rental_uris":{"android":"levelo://app?vid=837ea001-3dca-43b1-bf44-3c63cdc8ec4f","ios":"levelo://app?vid=837ea001-3dca-43b1-bf44-3c63cdc8ec4f"},"vehicle_type_id":"4","last_reported":1733991232,"current_range_meters":38800,"station_id":"ce4bhnp2rcd13ifvqgvg","pricing_plan_id":"cebpf4jnsgd1na2vs0mg"},{"bike_id":"cb3ae327-e15e-4a4b-a09c-e1d30e70b31f","system_id":"levelo_inurba_marseille","lat":43.25941,"lon":5.40902,"is_reserved":false,"is_disabled":false,"rental_uris":{"android":"levelo://app?vid=cb3ae327-e15e-4a4b-a09c-e1d30e70b31f","ios":"levelo://app?vid=cb3ae327-e15e-4a4b-a09c-e1d30e70b31f"},"vehicle_type_id":"4","last_reported":1733991232,"current_range_meters":9600,"station_id":"ce4bhm92rcd13ifvqglg","pricing_plan_id":"cebpf4jnsgd1na2vs0mg"},{"bike_id":"54238831-b2f8-4803-a465-8faa1bf52ffc","system_id":"levelo_inurba_marseille","lat":43.24097,"lon":5.37754,"is_reserved":false,"is_disabled":false,"rental_uris":{"android":"levelo://app?vid=54238831-b2f8-4803-a465-8faa1bf52ffc","ios":"levelo://app?vid=54238831-b2f8-4803-a465-8faa1bf52ffc"},"vehicle_type_id":"4","last_reported":1733991232,"current_range_meters":37600,"station_id":"ce4bhnp2rcd13ifvqgvg","pricing_plan_id":"cebpf4jnsgd1na2vs0mg"},{"bike_id":"61df4582-7c9f-489e-b7da-d6a0cfdcd7c7","system_id":"levelo_inurba_marseille","lat":43.28662,"lon":5.36349,"is_reserved":false,"is_disabled":true,"rental_uris":{"android":"levelo://app?vid=61df4582-7c9f-489e-b7da-d6a0cfdcd7c7","ios":"levelo://app?vid=61df4582-7c9f-489e-b7da-d6a0cfdcd7c7"},"vehicle_type_id":"4","last_reported":1733991232,"current_range_meters":0,"station_id":"ce4bhah2rcd13ifvqej0","pricing_plan_id":"cebpf4jnsgd1na2vs0mg"},{"bike_id":"46674d8d-a9e4-4076-b0f7-639bb4a07060","system_id":"levelo_inurba_marseille","lat":43.29304,"lon":5.37183,"is_reserved":false,"is_disabled":false,"rental_uris":{"android":"levelo://app?vid=46674d8d-a9e4-4076-b0f7-639bb4a07060","ios":"levelo://app?vid=46674d8d-a9e4-4076-b0f7-639bb4a07060"},"vehicle_type_id":"4","last_reported":1733991232,"current_range_meters":34800,"station_id":"ce4bgh92rcd13ifvqb40","pricing_plan_id":"cebpf4jnsgd1na2vs0mg"},{"bike_id":"e8412108-842b-4522-b8c9-76f6a7add12d","system_id":"levelo_inurba_marseille","lat":43.25825,"lon":5.39427,"is_reserved":false,"is_disabled":true,"rental_uris":{"android":"levelo://app?vid=e8412108-842b-4522-b8c9-76f6a7add12d","ios":"levelo://app?vid=e8412108-842b-4522-b8c9-76f6a7add12d"},"vehicle_type_id":"4","last_reported":1733991232,"current_range_meters":0,"station_id":"ce4bhip2rcd13ifvqft0","pricing_plan_id":"cebpf4jnsgd1na2vs0mg"},{"bike_id":"c3a7ecdd-5659-4915-847f-1af1fee194ca","system_id":"levelo_inurba_marseille","lat":43.29842,"lon":5.36271,"is_reserved":false,"is_disabled":false,"rental_uris":{"android":"levelo://app?vid=c3a7ecdd-5659-4915-847f-1af1fee194ca","ios":"levelo://app?vid=c3a7ecdd-5659-4915-847f-1af1fee194ca"},"vehicle_type_id":"4","last_reported":1733991232,"current_range_meters":10000,"station_id":"ce4bgpp2rcd13ifvqc3g","pricing_plan_id":"cebpf4jnsgd1na2vs0mg"},{"bike_id":"ca3bf6a0-806c-4046-b219-bbea4c2ba646","system_id":"levelo_inurba_marseille","lat":43.23195,"lon":5.35543,"is_reserved":false,"is_disabled":false,"rental_uris":{"android":"levelo://app?vid=ca3bf6a0-806c-4046-b219-bbea4c2ba646","ios":"levelo://app?vid=ca3bf6a0-806c-4046-b219-bbea4c2ba646"},"vehicle_type_id":"4","last_reported":1733991232,"current_range_meters":39200,"station_id":"ce4bhu92rcd13ifvqi70","pricing_plan_id":"cebpf4jnsgd1na2vs0mg"},{"bike_id":"69b95809-81ae-461d-9e16-c1b95cba0914","system_id":"levelo_inurba_marseille","lat":43.25106,"lon":5.40322,"is_reserved":false,"is_disabled":false,"rental_uris":{"android":"levelo://app?vid=69b95809-81ae-461d-9e16-c1b95cba0914","ios":"levelo://app?vid=69b95809-81ae-461d-9e16-c1b95cba0914"},"vehicle_type_id":"4","last_reported":1733991232,"current_range_meters":16800,"station_id":"ce4bhlh2rcd13ifvqgig","pricing_plan_id":"cebpf4jnsgd1na2vs0mg"},{"bike_id":"46b2fdec-0870-4ae2-84dc-b1f57512351e","system_id":"levelo_inurba_marseille","lat":43.337444,"lon":5.374475,"is_reserved":false,"is_disabled":true,"rental_uris":{"android":"levelo://app?vid=46b2fdec-0870-4ae2-84dc-b1f57512351e","ios":"levelo://app?vid=46b2fdec-0870-4ae2-84dc-b1f57512351e"},"vehicle_type_id":"4","last_reported":1733991232,"current_range_meters":0,"station_id":"","pricing_plan_id":"cebpf4jnsgd1na2vs0mg"},{"bike_id":"84db1469-9a0f-4940-9164-f1201f75cc07","system_id":"levelo_inurba_marseille","lat":43.29934,"lon":5.37474,"is_reserved":false,"is_disabled":false,"rental_uris":{"android":"levelo://app?vid=84db1469-9a0f-4940-9164-f1201f75cc07","ios":"levelo://app?vid=84db1469-9a0f-4940-9164-f1201f75cc07"},"vehicle_type_id":"4","last_reported":1733991232,"current_range_meters":8400,"station_id":"ce4bgjh2rcd13ifvqbg0","pricing_plan_id":"cebpf4jnsgd1na2vs0mg"},{"bike_id":"99351dd2-2628-45e0-99d5-b6db5b978cac","system_id":"levelo_inurba_marseille","lat":43.2669,"lon":5.38259,"is_reserved":false,"is_disabled":false,"rental_uris":{"android":"levelo://app?vid=99351dd2-2628-45e0-99d5-b6db5b978cac","ios":"levelo://app?vid=99351dd2-2628-45e0-99d5-b6db5b978cac"},"vehicle_type_id":"4","last_reported":1733991232,"current_range_meters":38800,"station_id":"ce4bhg92rcd13ifvqf90","pricing_plan_id":"cebpf4jnsgd1na2vs0mg"},{"bike_id":"4478b45e-0c2c-4987-838a-30d2f52e725d","system_id":"levelo_inurba_marseille","lat":43.29525,"lon":5.39407,"is_reserved":false,"is_disabled":false,"rental_uris":{"android":"levelo://app?vid=4478b45e-0c2c-4987-838a-30d2f52e725d","ios":"levelo://app?vid=4478b45e-0c2c-4987-838a-30d2f52e725d"},"vehicle_type_id":"4","last_reported":1733991232,"current_range_meters":21600,"station_id":"ce4bh292rcd13ifvqdf0","pricing_plan_id":"cebpf4jnsgd1na2vs0mg"},{"bike_id":"3cbaada0-311f-4a5e-9193-44fb2c3e8078","system_id":"levelo_inurba_marseille","lat":43.29073,"lon":5.37184,"is_reserved":false,"is_disabled":false,"rental_uris":{"android":"levelo://app?vid=3cbaada0-311f-4a5e-9193-44fb2c3e8078","ios":"levelo://app?vid=3cbaada0-311f-4a5e-9193-44fb2c3e8078"},"vehicle_type_id":"4","last_reported":1733991232,"current_range_meters":32800,"station_id":"ce4bh5p2rcd13ifvqe4g","pricing_plan_id":"cebpf4jnsgd1na2vs0mg"},{"bike_id":"8598e0e8-ad7f-41a0-ac11-32a4fd6d8e6b","system_id":"levelo_inurba_marseille","lat":43.28931,"lon":5.36398,"is_reserved":false,"is_disabled":false,"rental_uris":{"android":"levelo://app?vid=8598e0e8-ad7f-41a0-ac11-32a4fd6d8e6b","ios":"levelo://app?vid=8598e0e8-ad7f-41a0-ac11-32a4fd6d8e6b"},"vehicle_type_id":"4","last_reported":1733991232,"current_range_meters":34000,"station_id":"ce4bhc92rcd13ifvqetg","pricing_plan_id":"cebpf4jnsgd1na2vs0mg"},{"bike_id":"4f19ef6c-f134-4044-a4a0-21e345818f81","system_id":"levelo_inurba_marseille","lat":43.24802,"lon":5.3745,"is_reserved":false,"is_disabled":false,"rental_uris":{"android":"levelo://app?vid=4f19ef6c-f134-4044-a4a0-21e345818f81","ios":"levelo://app?vid=4f19ef6c-f134-4044-a4a0-21e345818f81"},"vehicle_type_id":"4","last_reported":1733991232,"current_range_meters":33200,"station_id":"ce4bhgh2rcd13ifvqfb0","pricing_plan_id":"cebpf4jnsgd1na2vs0mg"},{"bike_id":"2ebd2fc6-13ac-4b60-8a2e-07cab16d51cc","system_id":"levelo_inurba_marseille","lat":43.24648,"lon":5.38893,"is_reserved":false,"is_disabled":false,"rental_uris":{"android":"levelo://app?vid=2ebd2fc6-13ac-4b60-8a2e-07cab16d51cc","ios":"levelo://app?vid=2ebd2fc6-13ac-4b60-8a2e-07cab16d51cc"},"vehicle_type_id":"4","last_reported":1733991232,"current_range_meters":17600,"station_id":"ce4bhg12rcd13ifvqf60","pricing_plan_id":"cebpf4jnsgd1na2vs0mg"},{"bike_id":"8736927c-71b2-48c5-acc5-b69b0c1791af","system_id":"levelo_inurba_marseille","lat":43.26497,"lon":5.39535,"is_reserved":false,"is_disabled":false,"rental_uris":{"android":"levelo://app?vid=8736927c-71b2-48c5-acc5-b69b0c1791af","ios":"levelo://app?vid=8736927c-71b2-48c5-acc5-b69b0c1791af"},"vehicle_type_id":"4","last_reported":1733991232,"current_range_meters":21600,"station_id":"ce4bhi12rcd13ifvqfq0","pricing_plan_id":"cebpf4jnsgd1na2vs0mg"},{"bike_id":"e35e8ca2-ce16-4dcf-b3da-e717ccd59bd4","system_id":"levelo_inurba_marseille","lat":43.25002,"lon":5.38919,"is_reserved":false,"is_disabled":false,"rental_uris":{"android":"levelo://app?vid=e35e8ca2-ce16-4dcf-b3da-e717ccd59bd4","ios":"levelo://app?vid=e35e8ca2-ce16-4dcf-b3da-e717ccd59bd4"},"vehicle_type_id":"4","last_reported":1733991232,"current_range_meters":17600,"station_id":"ce4bhgp2rcd13ifvqfd0","pricing_plan_id":"cebpf4jnsgd1na2vs0mg"},{"bike_id":"9763c34f-c931-449c-a245-dfe0c63b961a","system_id":"levelo_inurba_marseille","lat":43.29649,"lon":5.35988,"is_reserved":false,"is_disabled":false,"rental_uris":{"android":"levelo://app?vid=9763c34f-c931-449c-a245-dfe0c63b961a","ios":"levelo://app?vid=9763c34f-c931-449c-a245-dfe0c63b961a"},"vehicle_type_id":"4","last_reported":1733991232,"current_range_meters":26000,"station_id":"","pricing_plan_id":"cebpf4jnsgd1na2vs0mg"},