{"last_updated":1706339173,"ttl":30,"version":"2.2","data":{"bikes":[{"bike_id":"91e842b9-36ec-437b-845d-4985910019ba","system_id":"levelo_inurba_marseille","lat":43.313391,"lon":5.36706,"is_reserved":false,"is_disabled":false,"rental_uris":{"android":"levelo://app?vid=91e842b9-36ec-437b-845d-4985910019ba","ios":"levelo://app?vid=91e842b9-36ec-437b-845d-4985910019ba"},"vehicle_type_id":"4","last_reported":1706339173,"current_range_meters":31200,"station_id":"ce4bgr92rcd13ifvqc6g","pricing_plan_id":"free"},{"bike_id":"e0a7538e-a774-47a5-9fa8-12a472db2163","system_id":"levelo_inurba_marseille","lat":43.313391,"lon":5.36706,"is_reserved":false,"is_disabled":false,"rental_uris":{"android":"levelo://app?vid=e0a7538e-a774-47a5-9fa8-12a472db2163","ios":"levelo://app?vid=e0a7538e-a774-47a5-9fa8-12a472db2163"},"vehicle_type_id":"4","last_reported":1706339173,"current_range_meters":31600,"station_id":"ce4bgr92rcd13ifvqc6g","pricing_plan_id":"free"},{"bike_id":"03f8040e-51f3-4dce-a126-786e4f7d7bd4","system_id":"levelo_inurba_marseille","lat":43.31341,"lon":5.367098,"is_reserved":false,"is_disabled":false,"rental_uris":{"android":"levelo://app?vid=03f8040e-51f3-4dce-a126-786e4f7d7bd4","ios":"levelo://app?vid=03f8040e-51f3-4dce-a126-786e4f7d7bd4"},"vehicle_type_id":"4","last_reported":1706339173,"current_range_meters":8000,"station_id":"ce4bgr92rcd13ifvqc6g","pricing_plan_id":"free"},{"bike_id":"73f0855b-1880-43e1-833c-eb8f443beef0","system_id":"levelo_inurba_marseille","lat":43.313391,"lon":5.36706,"is_reserved":false,"is_disabled":false,"rental_uris":{"android":"levelo://app?vid=73f0855b-1880-43e1-833c-eb8f443beef0","ios":"levelo://app?vid=73f0855b-1880-43e1-833c-eb8f443beef0"},"vehicle_type_id":"4","last_reported":1706339173,"current_range_meters":27200,"station_id":"ce4bgr92rcd13ifvqc6g","pricing_plan_id":"free"},{"bike_id":"e35a0181-3688-4c9a-93ce-ac3b40f14bd0","system_id":"levelo_inurba_marseille","lat":43.312239,"lon":5.368562,"is_reserved":false,"is_disabled":false,"rental_uris":{"android":"levelo://app?vid=e35a0181-3688-4c9a-93ce-ac3b40f14bd0","ios":"levelo://app?vid=e35a0181-3688-4c9a-93ce-ac3b40f14bd0"},"vehicle_type_id":"4","last_reported":1706339173,"current_range_meters":30000,"station_id":"ce4bgl92rcd13ifvqbq0","pricing_plan_id":"free"},{"bike_id":"0f8a6acd-c84b-4702-86b2-1d54bd1f9299","system_id":"levelo_inurba_marseille","lat":43.312239,"lon":5.368562,"is_reserved":false,"is_disabled":false,"rental_uris":{"android":"levelo://app?vid=0f8a6acd-c84b-4702-86b2-1d54bd1f9299","ios":"levelo://app?vid=0f8a6acd-c84b-4702-86b2-1d54bd1f9299"},"vehicle_type_id":"4","last_reported":1706339173,"current_range_meters":31200,"station_id":"ce4bgl92rcd13ifvqbq0","pricing_plan_id":"free"},{"bike_id":"9f089259-b25e-4d90-9c09-8d181c67076a","system_id":"levelo_inurba_marseille","lat":43.312239,"lon":5.368562,"is_reserved":false,"is_disabled":false,"rental_uris":{"android":"levelo://app?vid=9f089259-b25e-4d90-9c09-8d181c67076a","ios":"levelo://app?vid=9f089259-b25e-4d90-9c09-8d181c67076a"},"vehicle_type_id":"4","last_reported":1706339173,"current_range_meters":16400,"station_id":"ce4bgl92rcd13ifvqbq0","pricing_plan_id":"free"},{"bike_id":"1170059e-9c6a-45e0-a305-1b14dd437de6","system_id":"levelo_inurba_marseille","lat":43.309076,"lon":5.368465,"is_reserved":false,"is_disabled":false,"rental_uris":{"android":"levelo://app?vid=1170059e-9c6a-45e0-a305-1b14dd437de6","ios":"levelo://app?vid=1170059e-9c6a-45e0-a305-1b14dd437de6"},"vehicle_type_id":"4","last_reported":1706339173,"current_range_meters":18800,"station_id":"ce4bgn92rcd13ifvqbvg","pricing_plan_id":"free"},{"bike_id":"25965371-a7a9-487a-9c48-b5ba4bcbacf5","system_id":"levelo_inurba_marseille","lat":43.309076,"lon":5.368465,"is_reserved":false,"is_disabled":false,"rental_uris":{"android":"levelo://app?vid=25965371-a7a9-487a-9c48-b5ba4bcbacf5","ios":"levelo://app?vid=25965371-a7a9-487a-9c48-b5ba4bcbacf5"},"vehicle_type_id":"4","last_reported":1706339173,"current_range_meters":28000,"station_id":"ce4bgn92rcd13ifvqbvg","pricing_plan_id":"free"},{"bike_id":"923bede3-0579-41a5-ba3f-ff405fc1a95b","system_id":"levelo_inurba_marseille","lat":43.309076,"lon":5.368465,"is_reserved":false,"is_disabled":false,"rental_uris":{"android":"levelo://app?vid=923bede3-0579-41a5-ba3f-ff405fc1a95b","ios":"levelo://app?vid=923bede3-0579-41a5-ba3f-ff405fc1a95b"},"vehicle_type_id":"4","last_reported":1706339173,"current_range_meters":24800,"station_id":"ce4bgn92rcd13ifvqbvg","pricing_plan_id":"free"},{"bike_id":"c3243fdc-e724-44a0-92f4-3cf4ede62065","system_id":"levelo_inurba_marseille","lat":43.314811,"lon":5.373104,"is_reserved":false,"is_disabled":false,"rental_uris":{"android":"levelo://app?vid=c3243fdc-e724-44a0-92f4-3cf4ede62065","ios":"levelo://app?vid=c3243fdc-e724-44a0-92f4-3cf4ede62065"},"vehicle_type_id":"4","last_reported":1706339173,"current_range_meters":29200,"station_id":"ce4bgt12rcd13ifvqcd0","pricing_plan_id":"free"},{"bike_id":"bb91ffc4-19a7-4ea8-805d-ef95cd048208","system_id":"levelo_inurba_marseille","lat":43.309039,"lon":5.371797,"is_reserved":false,"is_disabled":false,"rental_uris":{"android":"levelo://app?vid=bb91ffc4-19a7-4ea8-805d-ef95cd048208","ios":"levelo://app?vid=bb91ffc4-19a7-4ea8-805d-ef95cd048208"},"vehicle_type_id":"4","last_reported":1706339173,"current_range_meters":3600,"station_id":"ce4bguh2rcd13ifvqckg","pricing_plan_id":"free"},{"bike_id":"9443e511-2e2d-41e7-a2cd-4c95bf03992f","system_id":"levelo_inurba_marseille","lat":43.31353,"lon":5.37614,"is_reserved":false,"is_disabled":false,"rental_uris":{"android":"levelo://app?vid=9443e511-2e2d-41e7-a2cd-4c95bf03992f","ios":"levelo://app?vid=9443e511-2e2d-41e7-a2cd-4c95bf03992f"},"vehicle_type_id":"4","last_reported":1706339173,"current_range_meters":3200,"station_id":"","pricing_plan_id":"free"},{"bike_id":"93b98c7f-9a03-4ef7-8bb9-67bf7680920a","system_id":"levelo_inurba_marseille","lat":43.305368,"lon":5.367343,"is_reserved":false,"is_disabled":false,"rental_uris":{"android":"levelo://app?vid=93b98c7f-9a03-4ef7-8bb9-67bf7680920a","ios":"levelo://app?vid=93b98c7f-9a03-4ef7-8bb9-67bf7680920a"},"vehicle_type_id":"4","last_reported":1706339173,"current_range_meters":26000,"station_id":"ce4bgrp2rcd13ifvqc9g","pricing_plan_id":"free"},{"bike_id":"ad09e83a-b239-4429-a26a-3fd85b23a558","system_id":"levelo_inurba_marseille","lat":43.305368,"lon":5.367343,"is_reserved":false,"is_disabled":false,"rental_uris":{"android":"levelo://app?vid=ad09e83a-b239-4429-a26a-3fd85b23a558","ios":"levelo://app?vid=ad09e83a-b239-4429-a26a-3fd85b23a558"},"vehicle_type_id":"4","last_reported":1706339173,"current_range_meters":6400,"station_id":"ce4bgrp2rcd13ifvqc9g","pricing_plan_id":"free"},{"bike_id":"7bdd5f0c-71b4-418a-a33d-68a3c5ac3bfa","system_id":"levelo_inurba_marseille","lat":43.305989,"lon":5.37225,"is_reserved":false,"is_disabled":false,"rental_uris":{"android":"levelo://app?vid=7bdd5f0c-71b4-418a-a33d-68a3c5ac3bfa","ios":"levelo://app?vid=7bdd5f0c-71b4-418a-a33d-68a3c5ac3bfa"},"vehicle_type_id":"4","last_reported":1706339173,"current_range_meters":22800,"station_id":"ce4bgqh2rcd13ifvqc4g","pricing_plan_id":"free"},{"bike_id":"e41ed85e-08df-498e-b585-a3868af65243","system_id":"levelo_inurba_marseille","lat":43.305989,"lon":5.37225,"is_reserved":false,"is_disabled":false,"rental_uris":{"android":"levelo://app?vid=e41ed85e-08df-498e-b585-a3868af65243","ios":"levelo://app?vid=e41ed85e-08df-498e-b585-a3868af65243"},"vehicle_type_id":"4","last_reported":1706339173,"current_range_meters":22000,"station_id":"ce4bgqh2rcd13ifvqc4g","pricing_plan_id":"free"},{"bike_id":"ed0b91a0-52c1-45ac-87be-ed8c6ef49bcd","system_id":"levelo_inurba_marseille","lat":43.305989,"lon":5.37225,"is_reserved":false,"is_disabled":false,"rental_uris":{"android":"levelo://app?vid=ed0b91a0-52c1-45ac-87be-ed8c6ef49bcd","ios":"levelo://app?vid=ed0b91a0-52c1-45ac-87be-ed8c6ef49bcd"},"vehicle_type_id":"4","last_reported":1706339173,"current_range_meters":29200,"station_id":"ce4bgqh2rcd13ifvqc4g","pricing_plan_id":"free"},{"bike_id":"25a4d521-abcb-4cd0-9604-be3d44290839","system_id":"levelo_inurba_marseille","lat":43.305989,"lon":5.37225,"is_reserved":false,"is_disabled":false,"rental_uris":{"android":"levelo://app?vid=25a4d521-abcb-4cd0-9604-be3d44290839","ios":"levelo://app?vid=25a4d521-abcb-4cd0-9604-be3d44290839"},"vehicle_type_id":"4","last_reported":1706339173,"current_range_meters":4400,"station_id":"ce4bgqh2rcd13ifvqc4g","pricing_plan_id":"free"},{"bike_id":"678ee84d-3c78-4ebd-a88f-25d0f1ee0c5c","system_id":"levelo_inurba_marseille","lat":43.30603,"lon":5.37244,"is_reserved":false,"is_disabled":false,"rental_uris":{"android":"levelo://app?vid=678ee84d-3c78-4ebd-a88f-25d0f1ee0c5c","ios":"levelo://app?vid=678ee84d-3c78-4ebd-a88f-25d0f1ee0c5c"},"vehicle_type_id":"4","last_reported":1706339173,"current_range_meters":29600,"station_id":"ce4bgqh2rcd13ifvqc4g","pricing_plan_id":"free"},{"bike_id":"cdb8d2a9-d413-4c5a-ae7d-7ab5c7e1dd6f","system_id":"levelo_inurba_marseille","lat":43.311327,"lon":5.377547,"is_reserved":false,"is_disabled":false,"rental_uris":{"android":"levelo://app?vid=cdb8d2a9-d413-4c5a-ae7d-7ab5c7e1dd6f","ios":"levelo://app?vid=cdb8d2a9-d413-4c5a-ae7d-7ab5c7e1dd6f"},"vehicle_type_id":"4","last_reported":1706339173,"current_range_meters":5600,"station_id":"ce4bgt92rcd13ifvqcg0","pricing_plan_id":"free"},{"bike_id":"f908880e-b233-4e54-9e91-657533675421","system_id":"levelo_inurba_marseille","lat":43.3112,"lon":5.37756,"is_reserved":false,"is_disabled":false,"rental_uris":{"android":"levelo://app?vid=f908880e-b233-4e54-9e91-657533675421","ios":"levelo://app?vid=f908880e-b233-4e54-9e91-657533675421"},"vehicle_type_id":"4","last_reported":1706339173,"current_range_meters":9600,"station_id":"ce4bgt92rcd13ifvqcg0","pricing_plan_id":"free"},{"bike_id":"6f81a0e5-ec8f-4ce9-9396-e8dea8a408a0","system_id":"levelo_inurba_marseille","lat":43.311211,"lon":5.377577,"is_reserved":false,"is_disabled":false,"rental_uris":{"android":"levelo://app?vid=6f81a0e5-ec8f-4ce9-9396-e8dea8a408a0","ios":"levelo://app?vid=6f81a0e5-ec8f-4ce9-9396-e8dea8a408a0"},"vehicle_type_id":"4","last_reported":1706339173,"current_range_meters":31200,"station_id":"ce4bgt92rcd13ifvqcg0","pricing_plan_id":"free"},{"bike_id":"1c0d4dc0-325c-4866-8541-798517ba7f78","system_id":"levelo_inurba_marseille","lat":43.311221,"lon":5.377585,"is_reserved":false,"is_disabled":false,"rental_uris":{"android":"levelo://app?vid=1c0d4dc0-325c-4866-8541-798517ba7f78","ios":"levelo://app?vid=1c0d4dc0-325c-4866-8541-798517ba7f78"},"vehicle_type_id":"4","last_reported":1706339173,"current_range_meters":6400,"station_id":"ce4bgt92rcd13ifvqcg0","pricing_plan_id":"free"},{"bike_id":"7912ef14-46e0-4fa3-8b27-205683eaa5c7","system_id":"levelo_inurba_marseille","lat":43.311217,"lon":5.377607,"is_reserved":false,"is_disabled":false,"rental_uris":{"android":"levelo://app?vid=7912ef14-46e0-4fa3-8b27-205683eaa5c7","ios":"levelo://app?vid=7912ef14-46e0-4fa3-8b27-205683eaa5c7"},"vehicle_type_id":"4","last_reported":1706339173,"current_range_meters":31200,"station_id":"ce4bgt92rcd13ifvqcg0","pricing_plan_id":"free"},{"bike_id":"ed544e4a-b52b-40ac-9788-d80405501b10","system_id":"levelo_inurba_marseille","lat":43.311196,"lon":5.377613,"is_reserved":false,"is_disabled":false,"rental_uris":{"android":"levelo://app?vid=ed544e4a-b52b-40ac-9788-d80405501b10","ios":"levelo://app?vid=ed544e4a-b52b-40ac-9788-d80405501b10"},"vehicle_type_id":"4","last_reported":1706339173,"current_range_meters":24000,"station_id":"ce4bgt92rcd13ifvqcg0","pricing_plan_id":"free"},{"bike_id":"1a45d629-20b9-421a-86b2-032044853962","system_id":"levelo_inurba_marseille","lat":43.31124,"lon":5.37766,"is_reserved":false,"is_disabled":false,"rental_uris":{"android":"levelo://app?vid=1a45d629-20b9-421a-86b2-032044853962","ios":"levelo://app?vid=1a45d629-20b9-421a-86b2-032044853962"},"vehicle_type_id":"4","last_reported":1706339173,"current_range_meters":25200,"station_id":"ce4bgt92rcd13ifvqcg0","pricing_plan_id":"free"},{"bike_id":"40fa915f-1438-49c8-b248-480c3b137c58","system_id":"levelo_inurba_marseille","lat":43.311125,"lon":5.377624,"is_reserved":false,"is_disabled":false,"rental_uris":{"android":"levelo://app?vid=40fa915f-1438-49c8-b248-480c3b137c58","ios":"levelo://app?vid=40fa915f-1438-49c8-b248-480c3b137c58"},"vehicle_type_id":"4","last_reported":1706339173,"current_range_meters":30000,"station_id":"ce4bgt92rcd13ifvqcg0","pricing_plan_id":"free"},{"bike_id":"fd1a8f69-9c15-4cdb-97b1-96db5e1e66d5","system_id":"levelo_inurba_marseille","lat":43.311131,"lon":5.377651,"is_reserved":false,"is_disabled":false,"rental_uris":{"android":"levelo://app?vid=fd1a8f69-9c15-4cdb-97b1-96db5e1e66d5","ios":"levelo://app?vid=fd1a8f69-9c15-4cdb-97b1-96db5e1e66d5"},"vehicle_type_id":"4","last_reported":1706339173,"current_range_meters":6000,"station_id":"ce4bgt92rcd13ifvqcg0","pricing_plan_id":"free"},{"bike_id":"b5f9d4fe-2cc8-4a02-bfc7-f8741d25d0f9","system_id":"levelo_inurba_marseille","lat":43.311157,"lon":5.377727,"is_reserved":false,"is_disabled":false,"rental_uris":{"android":"levelo://app?vid=b5f9d4fe-2cc8-4a02-bfc7-f8741d25d0f9","ios":"levelo://app?vid=b5f9d4fe-2cc8-4a02-bfc7-f8741d25d0f9"},"vehicle_type_id":"4","last_reported":1706339173,"current_range_meters":22800,"station_id":"ce4bgt92rcd13ifvqcg0","pricing_plan_id":"free"},{"bike_id":"0fb831b8-9da0-48e0-93f2-77074367cd59","system_id":"levelo_inurba_marseille","lat":43.307945,"lon":5.376487,"is_reserved":false,"is_disabled":false,"rental_uris":{"android":"levelo://app?vid=0fb831b8-9da0-48e0-93f2-77074367cd59","ios":"levelo://app?vid=0fb831b8-9da0-48e0-93f2-77074367cd59"},"vehicle_type_id":"4","last_reported":1706339173,"current_range_meters":28000,"station_id":"ce4bgv92rcd13ifvqcq0","pricing_plan_id":"free"},{"bike_id":"6e4db0d7-1b96-421e-ba31-97128a21e5a0","system_id":"levelo_inurba_marseille","lat":43.307945,"lon":5.376487,"is_reserved":false,"is_disabled":false,"rental_uris":{"android":"levelo://app?vid=6e4db0d7-1b96-421e-ba31-97128a21e5a0","ios":"levelo://app?vid=6e4db0d7-1b96-421e-ba31-97128a21e5a0"},"vehicle_type_id":"4","last_reported":1706339173,"current_range_meters":25600,"station_id":"ce4bgv92rcd13ifvqcq0","pricing_plan_id":"free"},{"bike_id":"5b0a56ae-3d70-40f6-ad3f-78c604f89c73","system_id":"levelo_inurba_marseille","lat":43.312396,"lon":5.379951,"is_reserved":false,"is_disabled":false,"rental_uris":{"android":"levelo://app?vid=5b0a56ae-3d70-40f6-ad3f-78c604f89c73","ios":"levelo://app?vid=5b0a56ae-3d70-40f6-ad3f-78c604f89c73"},"vehicle_type_id":"4","last_reported":1706339173,"current_range_meters":15200,"station_id":"","pricing_plan_id":"free"},{"bike_id":"b83daeb9-a39c-4884-86e2-16a37c651f7f","system_id":"levelo_inurba_marseille","lat":43.32005,"lon":5.37623,"is_reserved":false,"is_disabled":false,"rental_uris":{"android":"levelo://app?vid=b83daeb9-a39c-4884-86e2-16a37c651f7f","ios":"levelo://app?vid=b83daeb9-a39c-4884-86e2-16a37c651f7f"},"vehicle_type_id":"4","last_reported":1706339173,"current_range_meters":12000,"station_id":"","pricing_plan_id":"free"},{"bike_id":"98bdbb50-17ab-4e77-949c-66c8c2086063","system_id":"levelo_inurba_marseille","lat":43.308012,"lon":5.381511,"is_reserved":false,"is_disabled":false,"rental_uris":{"android":"levelo://app?vid=98bdbb50-17ab-4e77-949c-66c8c2086063","ios":"levelo://app?vid=98bdbb50-17ab-4e77-949c-66c8c2086063"},"vehicle_type_id":"4","last_reported":1706339173,"current_range_meters":30800,"station_id":"ce4bgt12rcd13ifvqce0","pricing_plan_id":"free"},{"bike_id":"b68c1ca2-c647-429e-a2bf-e236db525342","system_id":"levelo_inurba_marseille","lat":43.308012,"lon":5.381511,"is_reserved":false,"is_disabled":false,"rental_uris":{"android":"levelo://app?vid=b68c1ca2-c647-429e-a2bf-e236db525342","ios":"levelo://app?vid=b68c1ca2-c647-429e-a2bf-e236db525342"},"vehicle_type_id":"4","last_reported":1706339173,"current_range_meters":31200,"station_id":"ce4bgt12rcd13ifvqce0","pricing_plan_id":"free"},{"bike_id":"4c28409d-b4c4-48e1-b320-160f119d005b","system_id":"levelo_inurba_marseille","lat":43.304606,"lon":5.379026,"is_reserved":false,"is_disabled":false,"rental_uris":{"android":"levelo://app?vid=4c28409d-b4c4-48e1-b320-160f119d005b","ios":"levelo://app?vid=4c28409d-b4c4-48e1-b320-160f119d005b"},"vehicle_type_id":"4","last_reported":1706339173,"current_range_meters":27600,"station_id":"ce4bgup2rcd13ifvqcn0","pricing_plan_id":"free"},{"bike_id":"2c60c43f-6ecf-43cd-9eee-d81e440dd64f","system_id":"levelo_inurba_marseille","lat":43.304606,"lon":5.379026,"is_reserved":false,"is_disabled":false,"rental_uris":{"android":"levelo://app?vid=2c60c43f-6ecf-43cd-9eee-d81e440dd64f","ios":"levelo://app?vid=2c60c43f-6ecf-43cd-9eee-d81e440dd64f"},"vehicle_type_id":"4","last_reported":1706339173,"current_range_meters":20400,"station_id":"ce4bgup2rcd13ifvqcn0","pricing_plan_id":"free"},{"bike_id":"f01a1b80-fbb4-45e0-9c63-451b7c48bfc0","system_id":"levelo_inurba_marseille","lat":43.304606,"lon":5.379026,"is_reserved":false,"is_disabled":false,"rental_uris":{"android":"levelo://app?vid=f01a1b80-fbb4-45e0-9c63-451b7c48bfc0","ios":"levelo://app?vid=f01a1b80-fbb4-45e0-9c63-451b7c48bfc0"},"vehicle_type_id":"4","last_reported":1706339173,"current_range_meters":17200,"station_id":"ce4bgup2rcd13ifvqcn0","pricing_plan_id":"free"},{"bike_id":"ab554bd9-65e3-4382-980c-898cd12b7609","system_id":"levelo_inurba_marseille","lat":43.304606,"lon":5.379026,"is_reserved":false,"is_disabled":false,"rental_uris":{"android":"levelo://app?vid=ab554bd9-65e3-4382-980c-898cd12b7609","ios":"levelo://app?vid=ab554bd9-65e3-4382-980c-898cd12b7609"},"vehicle_type_id":"4","last_reported":1706339173,"current_range_meters":12800,"station_id":"ce4bgup2rcd13ifvqcn0","pricing_plan_id":"free"},{"bike_id":"4656fb9f-8bf9-4cfa-b416-ff62b8168e80","system_id":"levelo_inurba_marseille","lat":43.304606,"lon":5.379026,"is_reserved":false,"is_disabled":false,"rental_uris":{"android":"levelo://app?vid=4656fb9f-8bf9-4cfa-b416-ff62b8168e80","ios":"levelo://app?vid=4656fb9f-8bf9-4cfa-b416-ff62b8168e80"},"vehicle_type_id":"4","last_reported":1706339173,"current_range_meters":16400,"station_id":"ce4bgup2rcd13ifvqcn0","pricing_plan_id":"free"},{"bike_id":"ecd194a0-97e2-4753-b716-0f8a178ad203","system_id":"levelo_inurba_marseille","lat":43.304606,"lon":5.379026,"is_reserved":false,"is_disabled":false,"rental_uris":{"android":"levelo://app?vid=ecd194a0-97e2-4753-b716-0f8a178ad203","ios":"levelo://app?vid=ecd194a0-97e2-4753-b716-0f8a178ad203"},"vehicle_type_id":"4","last_reported":1706339173,"current_range_meters":25600,"station_id":"ce4bgup2rcd13ifvqcn0","pricing_plan_id":"free"},{"bike_id":"8b18958d-4b15-4c24-8ca8-bac72fe1a3bc","system_id":"levelo_inurba_marseille","lat":43.304606,"lon":5.379026,"is_reserved":false,"is_disabled":false,"rental_uris":{"android":"levelo://app?vid=8b18958d-4b15-4c24-8ca8-bac72fe1a3bc","ios":"levelo://app?vid=8b18958d-4b15-4c24-8ca8-bac72fe1a3bc"},"vehicle_type_id":"4","last_reported":1706339173,"current_range_meters":22400,"station_id":"ce4bgup2rcd13ifvqcn0","pricing_plan_id":"free"},{"bike_id":"fd7cb71a-afa3-40a5-bab4-206767e97588","system_id":"levelo_inurba_marseille","lat":43.304606,"lon":5.379026,"is_reserved":false,"is_disabled":false,"rental_uris":{"android":"levelo://app?vid=fd7cb71a-afa3-40a5-bab4-206767e97588","ios":"levelo://app?vid=fd7cb71a-afa3-40a5-bab4-206767e97588"},"vehicle_type_id":"4","last_reported":1706339173,"current_range_meters":24400,"station_id":"ce4bgup2rcd13ifvqcn0","pricing_plan_id":"free"},{"bike_id":"70a34565-c5fc-44b7-8bee-b5475e5bc3c3","system_id":"levelo_inurba_marseille","lat":43.304606,"lon":5.379026,"is_reserved":false,"is_disabled":false,"rental_uris":{"android":"levelo://app?vid=70a34565-c5fc-44b7-8bee-b5475e5bc3c3","ios":"levelo://app?vid=70a34565-c5fc-44b7-8bee-b5475e5bc3c3"},"vehicle_type_id":"4","last_reported":1706339173,"current_range_meters":13200,"station_id":"ce4bgup2rcd13ifvqcn0","pricing_plan_id":"free"},{"bike_id":"d1ac5303-4932-4456-871f-7434431ab0a7","system_id":"levelo_inurba_marseille","lat":43.304606,"lon":5.379026,"is_reserved":false,"is_disabled":false,"rental_uris":{"android":"levelo://app?vid=d1ac5303-4932-4456-871f-7434431ab0a7","ios":"levelo://app?vid=d1ac5303-4932-4456-871f-7434431ab0a7"},"vehicle_type_id":"4","last_reported":1706339173,"current_range_meters":17600,"station_id":"ce4bgup2rcd13ifvqcn0","pricing_plan_id":"free"},{"bike_id":"387adbba-7e92-4060-9d50-39a15b32664b","system_id":"levelo_inurba_marseille","lat":43.304606,"lon":5.379026,"is_reserved":false,"is_disabled":false,"rental_uris":{"android":"levelo://app?vid=387adbba-7e92-4060-9d50-39a15b32664b","ios":"levelo://app?vid=387adbba-7e92-4060-9d50-39a15b32664b"},"vehicle_type_id":"4","last_reported":1706339173,"current_range_meters":28000,"station_id":"ce4bgup2rcd13ifvqcn0","pricing_plan_id":"free"},{"bike_id":"7e655ff1-388a-4a07-b6ad-b564b9c6aa64","system_id":"levelo_inurba_marseille","lat":43.304606,"lon":5.379026,"is_reserved":false,"is_disabled":false,"rental_uris":{"android":"levelo://app?vid=7e655ff1-388a-4a07-b6ad-b564b9c6aa64","ios":"levelo://app?vid=7e655ff1-388a-4a07-b6ad-b564b9c6aa64"},"vehicle_type_id":"4","last_reported":1706339173,"current_range_meters":26000,"station_id":"ce4bgup2rcd13ifvqcn0","pricing_plan_id":"free"},{"bike_id":"c0cfe97a-7e0d-48f7-a143-5a19275e9328","system_id":"levelo_inurba_marseille","lat":43.304606,"lon":5.379026,"is_reserved":false,"is_disabled":false,"rental_uris":{"android":"levelo://app?vid=c0cfe97a-7e0d-48f7-a143-5a19275e9328","ios":"levelo://app?vid=c0cfe97a-7e0d-48f7-a143-5a19275e9328"},"vehicle_type_id":"4","last_reported":1706339173,"current_range_meters":30800,"station_id":"ce4bgup2rcd13ifvqcn0","pricing_plan_id":"free"},{"bike_id":"c8a51c06-f5de-46e5-b055-552cfa492a63","system_id":"levelo_inurba_marseille","lat":43.304606,"lon":5.379026,"is_reserved":false,"is_disabled":false,"rental_uris":{"android":"levelo://app?vid=c8a51c06-f5de-46e5-b055-552cfa492a63","ios":"levelo://app?vid=c8a51c06-f5de-46e5-b055-552cfa492a63"},"vehicle_type_id":"4","last_reported":1706339173,"current_range_meters":18000,"station_id":"ce4bgup2rcd13ifvqcn0","pricing_plan_id":"free"},{"bike_id":"5b8d3872-ace0-4dae-9650-067c56e79fe8","system_id":"levelo_inurba_marseille","lat":43.304606,"lon":5.379026,"is_reserved":false,"is_disabled":false,"rental_uris":{"android":"levelo://app?vid=5b8d3872-ace0-4dae-9650-067c56e79fe8","ios":"levelo://app?vid=5b8d3872-ace0-4dae-9650-067c56e79fe8"},"vehicle_type_id":"4","last_reported":1706339173,"current_range_meters":25200,"station_id":"ce4bgup2rcd13ifvqcn0","pricing_plan_id":"free"},{"bike_id":"ec40115e-0430-4944-8ece-51306c67ea7e","system_id":"levelo_inurba_marseille","lat":43.324771,"lon":5.36557,"is_reserved":false,"is_disabled":false,"rental_uris":{"android":"levelo://app?vid=ec40115e-0430-4944-8ece-51306c67ea7e","ios":"levelo://app?vid=ec40115e-0430-4944-8ece-51306c67ea7e"},"vehicle_type_id":"4","last_reported":1706339173,"current_range_meters":16400,"station_id":"ce4bhs12rcd13ifvqhvg","pricing_plan_id":"free"},{"bike_id":"e3cfa974-2663-4965-a96a-f55f3013619c","system_id":"levelo_inurba_marseille","lat":43.324771,"lon":5.36557,"is_reserved":false,"is_disabled":false,"rental_uris":{"android":"levelo://app?vid=e3cfa974-2663-4965-a96a-f55f3013619c","ios":"levelo://app?vid=e3cfa974-2663-4965-a96a-f55f3013619c"},"vehicle_type_id":"4","last_reported":1706339173,"current_range_meters":6000,"station_id":"ce4bhs12rcd13ifvqhvg","pricing_plan_id":"free"},{"bike_id":"88aa8230-dcc9-433d-96e4-513a284697d7","system_id":"levelo_inurba_marseille","lat":43.302784,"lon":5.377158,"is_reserved":false,"is_disabled":false,"rental_uris":{"android":"levelo://app?vid=88aa8230-dcc9-433d-96e4-513a284697d7","ios":"levelo://app?vid=88aa8230-dcc9-433d-96e4-513a284697d7"},"vehicle_type_id":"4","last_reported":1706339173,"current_range_meters":27200,"station_id":"ce4bguh2rcd13ifvqcj0","pricing_plan_id":"free"},{"bike_id":"86d4df1c-8a93-45a8-af3f-2f4e9388b4dd","system_id":"levelo_inurba_marseille","lat":43.302784,"lon":5.377158,"is_reserved":false,"is_disabled":false,"rental_uris":{"android":"levelo://app?vid=86d4df1c-8a93-45a8-af3f-2f4e9388b4dd","ios":"levelo://app?vid=86d4df1c-8a93-45a8-af3f-2f4e9388b4dd"},"vehicle_type_id":"4","last_reported":1706339173,"current_range_meters":400,"station_id":"ce4bguh2rcd13ifvqcj0","pricing_plan_id":"free"},{"bike_id":"01533f59-2c23-4279-b5fa-c0608335cf09","system_id":"levelo_inurba_marseille","lat":43.319956,"lon":5.381385,"is_reserved":false,"is_disabled":false,"rental_uris":{"android":"levelo://app?vid=01533f59-2c23-4279-b5fa-c0608335cf09","ios":"levelo://app?vid=01533f59-2c23-4279-b5fa-c0608335cf09"},"vehicle_type_id":"4","last_reported":1706339173,"current_range_meters":0,"station_id":"ce4bhr12rcd13ifvqhpg","pricing_plan_id":"free"},{"bike_id":"d11a1f3a-d548-483b-8bfb-a3d43524c954","system_id":"levelo_inurba_marseille","lat":43.319935,"lon":5.381699,"is_reserved":false,"is_disabled":false,"rental_uris":{"android":"levelo://app?vid=d11a1f3a-d548-483b-8bfb-a3d43524c954","ios":"levelo://app?vid=d11a1f3a-d548-483b-8bfb-a3d43524c954"},"vehicle_type_id":"4","last_reported":1706339173,"current_range_meters":800,"station_id":"ce4bhr12rcd13ifvqhpg","pricing_plan_id":"free"},{"bike_id":"5f7ec9ca-defa-4048-96f4-b62ebd1a927a","system_id":"levelo_inurba_marseille","lat":43.319935,"lon":5.381699,"is_reserved":false,"is_disabled":false,"rental_uris":{"android":"levelo://app?vid=5f7ec9ca-defa-4048-96f4-b62ebd1a927a","ios":"levelo://app?vid=5f7ec9ca-defa-4048-96f4-b62ebd1a927a"},"vehicle_type_id":"4","last_reported":1706339173,"current_range_meters":20400,"station_id":"ce4bhr12rcd13ifvqhpg","pricing_plan_id":"free"},{"bike_id":"fbd1c7c8-59f4-40f3-bd13-92a41198f404","system_id":"levelo_inurba_marseille","lat":43.319935,"lon":5.381699,"is_reserved":false,"is_disabled":false,"rental_uris":{"android":"levelo://app?vid=fbd1c7c8-59f4-40f3-bd13-92a41198f404","ios":"levelo://app?vid=fbd1c7c8-59f4-40f3-bd13-92a41198f404"},"vehicle_type_id":"4","last_reported":1706339173,"current_range_meters":17200,"station_id":"ce4bhr12rcd13ifvqhpg","pricing_plan_id":"free"},{"bike_id":"fc51b747-b33f-40c9-9c2c-bd6f886bc3e2","system_id":"levelo_inurba_marseille","lat":43.319943,"lon":5.381531,"is_reserved":false,"is_disabled":false,"rental_uris":{"android":"levelo://app?vid=fc51b747-b33f-40c9-9c2c-bd6f886bc3e2","ios":"levelo://app?vid=fc51b747-b33f-40c9-9c2c-bd6f886bc3e2"},"vehicle_type_id":"4","last_reported":1706339173,"current_range_meters":11200,"station_id":"ce4bhr12rcd13ifvqhpg","pricing_plan_id":"free"},{"bike_id":"ae7ab608-8fac-4c0d-9f43-8ffacb07a49d","system_id":"levelo_inurba_marseille","lat":43.319935,"lon":5.381699,"is_reserved":false,"is_disabled":false,"rental_uris":{"android":"levelo://app?vid=ae7ab608-8fac-4c0d-9f43-8ffacb07a49d","ios":"levelo://app?vid=ae7ab608-8fac-4c0d-9f43-8ffacb07a49d"},"vehicle_type_id":"4","last_reported":1706339173,"current_range_meters":6000,"station_id":"ce4bhr12rcd13ifvqhpg","pricing_plan_id":"free"},{"bike_id":"fd388e30-6c90-4fbf-abdf-dd15ef425659","system_id":"levelo_inurba_marseille","lat":43.319967,"lon":5.381565,"is_reserved":false,"is_disabled":false,"rental_uris":{"android":"levelo://app?vid=fd388e30-6c90-4fbf-abdf-dd15ef425659","ios":"levelo://app?vid=fd388e30-6c90-4fbf-abdf-dd15ef425659"},"vehicle_type_id":"4","last_reported":1706339173,"current_range_meters":7600,"station_id":"ce4bhr12rcd13ifvqhpg","pricing_plan_id":"free"},{"bike_id":"3222bc7e-608d-4651-bf7f-0c26d677544e","system_id":"levelo_inurba_marseille","lat":43.299724,"lon":5.371829,"is_reserved":false,"is_disabled":false,"rental_uris":{"android":"levelo://app?vid=3222bc7e-608d-4651-bf7f-0c26d677544e","ios":"levelo://app?vid=3222bc7e-608d-4651-bf7f-0c26d677544e"},"vehicle_type_id":"4","last_reported":1706339173,"current_range_meters":17200,"station_id":"ce4bgr92rcd13ifvqc7g","pricing_plan_id":"free"},{"bike_id":"43ed3ce8-1c13-4e1c-b59c-e5726e8cb06c","system_id":"levelo_inurba_marseille","lat":43.305364,"lon":5.384119,"is_reserved":false,"is_disabled":false,"rental_uris":{"android":"levelo://app?vid=43ed3ce8-1c13-4e1c-b59c-e5726e8cb06c","ios":"levelo://app?vid=43ed3ce8-1c13-4e1c-b59c-e5726e8cb06c"},"vehicle_type_id":"4","last_reported":1706339173,"current_range_meters":29200,"station_id":"ce4bgg92rcd13ifvqb30","pricing_plan_id":"free"},{"bike_id":"1d0a5778-249d-4c35-af01-8c614baa6bce","system_id":"levelo_inurba_marseille","lat":43.298433,"lon":5.362774,"is_reserved":false,"is_disabled":false,"rental_uris":{"android":"levelo://app?vid=1d0a5778-249d-4c35-af01-8c614baa6bce","ios":"levelo://app?vid=1d0a5778-249d-4c35-af01-8c614baa6bce"},"vehicle_type_id":"4","last_reported":1706339173,"current_range_meters":30400,"station_id":"ce4bgpp2rcd13ifvqc3g","pricing_plan_id":"free"},{"bike_id":"dd9ec174-253c-44f8-b8d7-8a7233741b5a","system_id":"levelo_inurba_marseille","lat":43.311722,"lon":5.387247,"is_reserved":false,"is_disabled":false,"rental_uris":{"android":"levelo://app?vid=dd9ec174-253c-44f8-b8d7-8a7233741b5a","ios":"levelo://app?vid=dd9ec174-253c-44f8-b8d7-8a7233741b5a"},"vehicle_type_id":"4","last_reported":1706339173,"current_range_meters":31200,"station_id":"ce4bgv12rcd13ifvqcp0","pricing_plan_id":"free"},{"bike_id":"cb09dd04-9353-46fb-abb7-9fbe78e1c2a6","system_id":"levelo_inurba_marseille","lat":43.297794,"lon":5.370888,"is_reserved":false,"is_disabled":false,"rental_uris":{"android":"levelo://app?vid=cb09dd04-9353-46fb-abb7-9fbe78e1c2a6","ios":"levelo://app?vid=cb09dd04-9353-46fb-abb7-9fbe78e1c2a6"},"vehicle_type_id":"4","last_reported":1706339173,"current_range_meters":3200,"station_id":"ce4bgop2rcd13ifvqc1g","pricing_plan_id":"free"},{"bike_id":"8bf65041-c8dd-43cf-a9ff-fa61bea9339e","system_id":"levelo_inurba_marseille","lat":43.297794,"lon":5.370888,"is_reserved":false,"is_disabled":false,"rental_uris":{"android":"levelo://app?vid=8bf65041-c8dd-43cf-a9ff-fa61bea9339e","ios":"levelo://app?vid=8bf65041-c8dd-43cf-a9ff-fa61bea9339e"},"vehicle_type_id":"4","last_reported":1706339173,"current_range_meters":31200,"station_id":"ce4bgop2rcd13ifvqc1g","pricing_plan_id":"free"},{"bike_id":"b2167919-7b57-4d9b-9f8b-d5a3411c7038","system_id":"levelo_inurba_marseille","lat":43.297774,"lon":5.370875,"is_reserved":false,"is_disabled":false,"rental_uris":{"android":"levelo://app?vid=b2167919-7b57-4d9b-9f8b-d5a3411c7038","ios":"levelo://app?vid=b2167919-7b57-4d9b-9f8b-d5a3411c7038"},"vehicle_type_id":"4","last_reported":1706339173,"current_range_meters":22800,"station_id":"ce4bgop2rcd13ifvqc1g","pricing_plan_id":"free"},{"bike_id":"8808aadf-602d-4e5d-8736-6f6e721b2252","system_id":"levelo_inurba_marseille","lat":43.297774,"lon":5.370875,"is_reserved":false,"is_disabled":false,"rental_uris":{"android":"levelo://app?vid=8808aadf-602d-4e5d-8736-6f6e721b2252","ios":"levelo://app?vid=8808aadf-602d-4e5d-8736-6f6e721b2252"},"vehicle_type_id":"4","last_reported":1706339173,"current_range_meters":30000,"station_id":"ce4bgop2rcd13ifvqc1g","pricing_plan_id":"free"},{"bike_id":"c0bacbb9-2761-4491-a8c1-93af05373d9b","system_id":"levelo_inurba_marseille","lat":43.32826,"lon":5.36689,"is_reserved":false,"is_disabled":false,"rental_uris":{"android":"levelo://app?vid=c0bacbb9-2761-4491-a8c1-93af05373d9b","ios":"levelo://app?vid=c0bacbb9-2761-4491-a8c1-93af05373d9b"},"vehicle_type_id":"4","last_reported":1706339173,"current_range_meters":20800,"station_id":"ce4bhs92rcd13ifvqi0g","pricing_plan_id":"free"},{"bike_id":"448ceccf-de0e-4e04-9ad9-52fbd4150784","system_id":"levelo_inurba_marseille","lat":43.32831,"lon":5.36681,"is_reserved":false,"is_disabled":false,"rental_uris":{"android":"levelo://app?vid=448ceccf-de0e-4e04-9ad9-52fbd4150784","ios":"levelo://app?vid=448ceccf-de0e-4e04-9ad9-52fbd4150784"},"vehicle_type_id":"4","last_reported":1706339173,"current_range_meters":0,"station_id":"ce4bhs92rcd13ifvqi0g","pricing_plan_id":"free"},{"bike_id":"e7ff6a46-5165-4d65-a94a-7f6484c2f8d3","system_id":"levelo_inurba_marseille","lat":43.297163,"lon":5.365866,"is_reserved":false,"is_disabled":false,"rental_uris":{"android":"levelo://app?vid=e7ff6a46-5165-4d65-a94a-7f6484c2f8d3","ios":"levelo://app?vid=e7ff6a46-5165-4d65-a94a-7f6484c2f8d3"},"vehicle_type_id":"4","last_reported":1706339173,"current_range_meters":12000,"station_id":"ce4bgn12rcd13ifvqbt0","pricing_plan_id":"free"},{"bike_id":"05d061de-efd2-4b42-809b-38b74ebaab78","system_id":"levelo_inurba_marseille","lat":43.297163,"lon":5.365866,"is_reserved":false,"is_disabled":false,"rental_uris":{"android":"levelo://app?vid=05d061de-efd2-4b42-809b-38b74ebaab78","ios":"levelo://app?vid=05d061de-efd2-4b42-809b-38b74ebaab78"},"vehicle_type_id":"4","last_reported":1706339173,"current_range_meters":30800,"station_id":"ce4bgn12rcd13ifvqbt0","pricing_plan_id":"free"},{"bike_id":"7a920a10-f7bc-4938-b989-92e28d1f0394","system_id":"levelo_inurba_marseille","lat":43.299028,"lon":5.381509,"is_reserved":false,"is_disabled":false,"rental_uris":{"android":"levelo://app?vid=7a920a10-f7bc-4938-b989-92e28d1f0394","ios":"levelo://app?vid=7a920a10-f7bc-4938-b989-92e28d1f0394"},"vehicle_type_id":"4","last_reported":1706339173,"current_range_meters":26800,"station_id":"ce4bgj12rcd13ifvqbc0","pricing_plan_id":"free"},{"bike_id":"88eb7829-cdc5-45f7-88fd-c5010452cab9","system_id":"levelo_inurba_marseille","lat":43.309589,"lon":5.390258,"is_reserved":false,"is_disabled":false,"rental_uris":{"android":"levelo://app?vid=88eb7829-cdc5-45f7-88fd-c5010452cab9","ios":"levelo://app?vid=88eb7829-cdc5-45f7-88fd-c5010452cab9"},"vehicle_type_id":"4","last_reported":1706339173,"current_range_meters":24400,"station_id":"ce4bgup2rcd13ifvqco0","pricing_plan_id":"free"},{"bike_id":"bdf065ec-5930-4161-9513-dfe39352c567","system_id":"levelo_inurba_marseille","lat":43.296935,"lon":5.376544,"is_reserved":false,"is_disabled":false,"rental_uris":{"android":"levelo://app?vid=bdf065ec-5930-4161-9513-dfe39352c567","ios":"levelo://app?vid=bdf065ec-5930-4161-9513-dfe39352c567"},"vehicle_type_id":"4","last_reported":1706339173,"current_range_meters":23600,"station_id":"ce4bgkh2rcd13ifvqbl0","pricing_plan_id":"free"},{"bike_id":"af9f98fc-1b38-483c-9bb8-cf5dbd0ec1e8","system_id":"levelo_inurba_marseille","lat":43.317557,"lon":5.390173,"is_reserved":false,"is_disabled":false,"rental_uris":{"android":"levelo://app?vid=af9f98fc-1b38-483c-9bb8-cf5dbd0ec1e8","ios":"levelo://app?vid=af9f98fc-1b38-483c-9bb8-cf5dbd0ec1e8"},"vehicle_type_id":"4","last_reported":1706339173,"current_range_meters":31200,"station_id":"ce4bhqp2rcd13ifvqhng","pricing_plan_id":"free"},{"bike_id":"5c4194e7-e53c-4201-8c19-b625935b093e","system_id":"levelo_inurba_marseille","lat":43.317557,"lon":5.390173,"is_reserved":false,"is_disabled":false,"rental_uris":{"android":"levelo://app?vid=5c4194e7-e53c-4201-8c19-b625935b093e","ios":"levelo://app?vid=5c4194e7-e53c-4201-8c19-b625935b093e"},"vehicle_type_id":"4","last_reported":1706339173,"current_range_meters":5600,"station_id":"ce4bhqp2rcd13ifvqhng","pricing_plan_id":"free"},{"bike_id":"5849c8f1-de07-480c-ab10-c023b55280ba","system_id":"levelo_inurba_marseille","lat":43.322167,"lon":5.387383,"is_reserved":false,"is_disabled":false,"rental_uris":{"android":"levelo://app?vid=5849c8f1-de07-480c-ab10-c023b55280ba","ios":"levelo://app?vid=5849c8f1-de07-480c-ab10-c023b55280ba"},"vehicle_type_id":"4","last_reported":1706339173,"current_range_meters":3600,"station_id":"","pricing_plan_id":"free"},{"bike_id":"7484487e-2206-4cee-854b-43c5cd578e5a","system_id":"levelo_inurba_marseille","lat":43.298037,"lon":5.381066,"is_reserved":false,"is_disabled":false,"rental_uris":{"android":"levelo://app?vid=7484487e-2206-4cee-854b-43c5cd578e5a","ios":"levelo://app?vid=7484487e-2206-4cee-854b-43c5cd578e5a"},"vehicle_type_id":"4","last_reported":1706339173,"current_range_meters":31200,"station_id":"ce4bgip2rcd13ifvqbb0","pricing_plan_id":"free"},{"bike_id":"57c6c420-ce3e-499f-8ade-ea6236a84e95","system_id":"levelo_inurba_marseille","lat":43.298037,"lon":5.381066,"is_reserved":false,"is_disabled":false,"rental_uris":{"android":"levelo://app?vid=57c6c420-ce3e-499f-8ade-ea6236a84e95","ios":"levelo://app?vid=57c6c420-ce3e-499f-8ade-ea6236a84e95"},"vehicle_type_id":"4","last_reported":1706339173,"current_range_meters":28000,"station_id":"ce4bgip2rcd13ifvqbb0","pricing_plan_id":"free"},{"bike_id":"b6fdd77d-a899-4f4d-b927-8b074037755c","system_id":"levelo_inurba_marseille","lat":43.304278,"lon":5.388868,"is_reserved":false,"is_disabled":false,"rental_uris":{"android":"levelo://app?vid=b6fdd77d-a899-4f4d-b927-8b074037755c","ios":"levelo://app?vid=b6fdd77d-a899-4f4d-b927-8b074037755c"},"vehicle_type_id":"4","last_reported":1706339173,"current_range_meters":24800,"station_id":"ce4bgk12rcd13ifvqbi0","pricing_plan_id":"free"},{"bike_id":"800087ba-6692-4939-822b-94219f6c250f","system_id":"levelo_inurba_marseille","lat":43.298037,"lon":5.381066,"is_reserved":false,"is_disabled":false,"rental_uris":{"android":"levelo://app?vid=800087ba-6692-4939-822b-94219f6c250f","ios":"levelo://app?vid=800087ba-6692-4939-822b-94219f6c250f"},"vehicle_type_id":"4","last_reported":1706339173,"current_range_meters":13600,"station_id":"ce4bgip2rcd13ifvqbb0","pricing_plan_id":"free"},{"bike_id":"1fbeffba-65c8-4e3e-92f1-30867c14d077","system_id":"levelo_inurba_marseille","lat":43.295748,"lon":5.37522,"is_reserved":false,"is_disabled":false,"rental_uris":{"android":"levelo://app?vid=1fbeffba-65c8-4e3e-92f1-30867c14d077","ios":"levelo://app?vid=1fbeffba-65c8-4e3e-92f1-30867c14d077"},"vehicle_type_id":"4","last_reported":1706339173,"current_range_meters":24800,"station_id":"ce4bgh92rcd13ifvqb50","pricing_plan_id":"free"},{"bike_id":"2690e0cf-f29c-4ea5-8963-4415a7d8348c","system_id":"levelo_inurba_marseille","lat":43.295748,"lon":5.37522,"is_reserved":false,"is_disabled":false,"rental_uris":{"android":"levelo://app?vid=2690e0cf-f29c-4ea5-8963-4415a7d8348c","ios":"levelo://app?vid=2690e0cf-f29c-4ea5-8963-4415a7d8348c"},"vehicle_type_id":"4","last_reported":1706339173,"current_range_meters":23200,"station_id":"ce4bgh92rcd13ifvqb50","pricing_plan_id":"free"},{"bike_id":"40996b4a-fac6-4cc2-a8e8-9a9ba72f10c9","system_id":"levelo_inurba_marseille","lat":43.295707,"lon":5.37518,"is_reserved":false,"is_disabled":false,"rental_uris":{"android":"levelo://app?vid=40996b4a-fac6-4cc2-a8e8-9a9ba72f10c9","ios":"levelo://app?vid=40996b4a-fac6-4cc2-a8e8-9a9ba72f10c9"},"vehicle_type_id":"4","last_reported":1706339173,"current_range_meters":4800,"station_id":"","pricing_plan_id":"free"},{"bike_id":"714b0313-37dd-4111-83b8-7ef8b143373b","system_id":"levelo_inurba_marseille","lat":43.304274,"lon":5.388873,"is_reserved":false,"is_disabled":false,"rental_uris":{"android":"levelo://app?vid=714b0313-37dd-4111-83b8-7ef8b143373b","ios":"levelo://app?vid=714b0313-37dd-4111-83b8-7ef8b143373b"},"vehicle_type_id":"4","last_reported":1706339173,"current_range_meters":24400,"station_id":"ce4bgk12rcd13ifvqbi0","pricing_plan_id":"free"},{"bike_id":"291ad5c4-751c-4d00-84b7-8b03bae5fc70","system_id":"levelo_inurba_marseille","lat":43.296263,"lon":5.377094,"is_reserved":false,"is_disabled":false,"rental_uris":{"android":"levelo://app?vid=291ad5c4-751c-4d00-84b7-8b03bae5fc70","ios":"levelo://app?vid=291ad5c4-751c-4d00-84b7-8b03bae5fc70"},"vehicle_type_id":"4","last_reported":1706339173,"current_range_meters":19600,"station_id":"ce4bgi92rcd13ifvqb90","pricing_plan_id":"free"},{"bike_id":"a19c3d91-8639-404b-a990-2c3dd19df794","system_id":"levelo_inurba_marseille","lat":43.295748,"lon":5.37522,"is_reserved":false,"is_disabled":false,"rental_uris":{"android":"levelo://app?vid=a19c3d91-8639-404b-a990-2c3dd19df794","ios":"levelo://app?vid=a19c3d91-8639-404b-a990-2c3dd19df794"},"vehicle_type_id":"4","last_reported":1706339173,"current_range_meters":16800,"station_id":"ce4bgh92rcd13ifvqb50","pricing_plan_id":"free"},{"bike_id":"884aa033-35eb-4e0a-a83c-8cb8f9deedaa","system_id":"levelo_inurba_marseille","lat":43.296263,"lon":5.377094,"is_reserved":false,"is_disabled":false,"rental_uris":{"android":"levelo://app?vid=884aa033-35eb-4e0a-a83c-8cb8f9deedaa","ios":"levelo://app?vid=884aa033-35eb-4e0a-a83c-8cb8f9deedaa"},"vehicle_type_id":"4","last_reported":1706339173,"current_range_meters":29600,"station_id":"ce4bgi92rcd13ifvqb90","pricing_plan_id":"free"},{"bike_id":"0bc072b0-3d8c-456b-a0b1-41f90c8deefb","system_id":"levelo_inurba_marseille","lat":43.299707,"lon":5.384859,"is_reserved":false,"is_disabled":false,"rental_uris":{"android":"levelo://app?vid=0bc072b0-3d8c-456b-a0b1-41f90c8deefb","ios":"levelo://app?vid=0bc072b0-3d8c-456b-a0b1-41f90c8deefb"},"vehicle_type_id":"4","last_reported":1706339173,"current_range_meters":16800,"station_id":"ce4bgj92rcd13ifvqbd0","pricing_plan_id":"free"},{"bike_id":"be67941c-cbe3-490a-bc78-4ed3c65661b3","system_id":"levelo_inurba_marseille","lat":43.299707,"lon":5.384859,"is_reserved":false,"is_disabled":false,"rental_uris":{"android":"levelo://app?vid=be67941c-cbe3-490a-bc78-4ed3c65661b3","ios":"levelo://app?vid=be67941c-cbe3-490a-bc78-4ed3c65661b3"},"vehicle_type_id":"4","last_reported":1706339173,"current_range_meters":27200,"station_id":"ce4bgj92rcd13ifvqbd0","pricing_plan_id":"free"},{"bike_id":"0d7116c4-9fda-40b0-bf76-ada84a060645","system_id":"levelo_inurba_marseille","lat":43.29973,"lon":5.38492,"is_reserved":false,"is_disabled":false,"rental_uris":{"android":"levelo://app?vid=0d7116c4-9fda-40b0-bf76-ada84a060645","ios":"levelo://app?vid=0d7116c4-9fda-40b0-bf76-ada84a060645"},"vehicle_type_id":"4","last_reported":1706339173,"current_range_meters":19600,"station_id":"ce4bgj92rcd13ifvqbd0","pricing_plan_id":"free"},{"bike_id":"b54e5d4c-be5d-4940-9476-02e9e23c1ccd","system_id":"levelo_inurba_marseille","lat":43.295279,"lon":5.375048,"is_reserved":false,"is_disabled":false,"rental_uris":{"android":"levelo://app?vid=b54e5d4c-be5d-4940-9476-02e9e23c1ccd","ios":"levelo://app?vid=b54e5d4c-be5d-4940-9476-02e9e23c1ccd"},"vehicle_type_id":"4","last_reported":1706339173,"current_range_meters":10400,"station_id":"ce4bgkp2rcd13ifvqbmg","pricing_plan_id":"free"},{"bike_id":"110e294d-4ae1-4d3c-9a1c-3e70b490847b","system_id":"levelo_inurba_marseille","lat":43.32367,"lon":5.388836,"is_reserved":false,"is_disabled":false,"rental_uris":{"android":"levelo://app?vid=110e294d-4ae1-4d3c-9a1c-3e70b490847b","ios":"levelo://app?vid=110e294d-4ae1-4d3c-9a1c-3e70b490847b"},"vehicle_type_id":"4","last_reported":1706339173,"current_range_meters":7600,"station_id":"ce4bhqp2rcd13ifvqhog","pricing_plan_id":"free"},{"bike_id":"0ea3fd81-3f73-43eb-a24e-cc7fa2617f9d","system_id":"levelo_inurba_marseille","lat":43.32367,"lon":5.388836,"is_reserved":false,"is_disabled":false,"rental_uris":{"android":"levelo://app?vid=0ea3fd81-3f73-43eb-a24e-cc7fa2617f9d","ios":"levelo://app?vid=0ea3fd81-3f73-43eb-a24e-cc7fa2617f9d"},"vehicle_type_id":"4","last_reported":1706339173,"current_range_meters":5600,"station_id":"ce4bhqp2rcd13ifvqhog","pricing_plan_id":"free"},{"bike_id":"def703ed-e78e-4412-a809-c10b7fb945a5","system_id":"levelo_inurba_marseille","lat":43.32361,"lon":5.38881,"is_reserved":false,"is_disabled":false,"rental_uris":{"android":"levelo://app?vid=def703ed-e78e-4412-a809-c10b7fb945a5","ios":"levelo://app?vid=def703ed-e78e-4412-a809-c10b7fb945a5"},"vehicle_type_id":"4","last_reported":1706339173,"current_range_meters":25600,"station_id":"ce4bhqp2rcd13ifvqhog","pricing_plan_id":"free"},{"bike_id":"6d4e98a9-3b8c-4251-9bc4-f50fadfe25a7","system_id":"levelo_inurba_marseille","lat":43.32366,"lon":5.3888,"is_reserved":false,"is_disabled":false,"rental_uris":{"android":"levelo://app?vid=6d4e98a9-3b8c-4251-9bc4-f50fadfe25a7","ios":"levelo://app?vid=6d4e98a9-3b8c-4251-9bc4-f50fadfe25a7"},"vehicle_type_id":"4","last_reported":1706339173,"current_range_meters":22000,"station_id":"ce4bhqp2rcd13ifvqhog","pricing_plan_id":"free"},{"bike_id":"cec4ad59-07b9-4fac-98fd-7e0e4d5c0fc2","system_id":"levelo_inurba_marseille","lat":43.32367,"lon":5.388836,"is_reserved":false,"is_disabled":false,"rental_uris":{"android":"levelo://app?vid=cec4ad59-07b9-4fac-98fd-7e0e4d5c0fc2","ios":"levelo://app?vid=cec4ad59-07b9-4fac-98fd-7e0e4d5c0fc2"},"vehicle_type_id":"4","last_reported":1706339173,"current_range_meters":11200,"station_id":"ce4bhqp2rcd13ifvqhog","pricing_plan_id":"free"},{"bike_id":"c69fc2b7-c2b2-4d45-9f5c-8abf8e5b4583","system_id":"levelo_inurba_marseille","lat":43.32367,"lon":5.388836,"is_reserved":false,"is_disabled":false,"rental_uris":{"android":"levelo://app?vid=c69fc2b7-c2b2-4d45-9f5c-8abf8e5b4583","ios":"levelo://app?vid=c69fc2b7-c2b2-4d45-9f5c-8abf8e5b4583"},"vehicle_type_id":"4","last_reported":1706339173,"current_range_meters":11200,"station_id":"ce4bhqp2rcd13ifvqhog","pricing_plan_id":"free"},{"bike_id":"d7803bed-fb47-4ba6-b32d-728fc496b369","system_id":"levelo_inurba_marseille","lat":43.32367,"lon":5.388836,"is_reserved":false,"is_disabled":false,"rental_uris":{"android":"levelo://app?vid=d7803bed-fb47-4ba6-b32d-728fc496b369","ios":"levelo://app?vid=d7803bed-fb47-4ba6-b32d-728fc496b369"},"vehicle_type_id":"4","last_reported":1706339173,"current_range_meters":14400,"station_id":"ce4bhqp2rcd13ifvqhog","pricing_plan_id":"free"},{"bike_id":"7b171855-7227-484b-93cb-d6480fb4a50d","system_id":"levelo_inurba_marseille","lat":43.32367,"lon":5.388836,"is_reserved":false,"is_disabled":false,"rental_uris":{"android":"levelo://app?vid=7b171855-7227-484b-93cb-d6480fb4a50d","ios":"levelo://app?vid=7b171855-7227-484b-93cb-d6480fb4a50d"},"vehicle_type_id":"4","last_reported":1706339173,"current_range_meters":25200,"station_id":"ce4bhqp2rcd13ifvqhog","pricing_plan_id":"free"},{"bike_id":"dc37ec2e-a757-473a-84ee-e56f0a08c7c1","system_id":"levelo_inurba_marseille","lat":43.29601,"lon":5.381084,"is_reserved":false,"is_disabled":false,"rental_uris":{"android":"levelo://app?vid=dc37ec2e-a757-473a-84ee-e56f0a08c7c1","ios":"levelo://app?vid=dc37ec2e-a757-473a-84ee-e56f0a08c7c1"},"vehicle_type_id":"4","last_reported":1706339173,"current_range_meters":4000,"station_id":"ce4bgl12rcd13ifvqbo0","pricing_plan_id":"free"},{"bike_id":"fec282b3-c4b8-4625-9dcc-7773c36eabbf","system_id":"levelo_inurba_marseille","lat":43.292749,"lon":5.368398,"is_reserved":false,"is_disabled":false,"rental_uris":{"android":"levelo://app?vid=fec282b3-c4b8-4625-9dcc-7773c36eabbf","ios":"levelo://app?vid=fec282b3-c4b8-4625-9dcc-7773c36eabbf"},"vehicle_type_id":"4","last_reported":1706339173,"current_range_meters":30800,"station_id":"ce4bhbp2rcd13ifvqesg","pricing_plan_id":"free"},{"bike_id":"92208956-158d-4f6e-b1d9-f18b0d3dbc94","system_id":"levelo_inurba_marseille","lat":43.292768,"lon":5.368449,"is_reserved":false,"is_disabled":false,"rental_uris":{"android":"levelo://app?vid=92208956-158d-4f6e-b1d9-f18b0d3dbc94","ios":"levelo://app?vid=92208956-158d-4f6e-b1d9-f18b0d3dbc94"},"vehicle_type_id":"4","last_reported":1706339173,"current_range_meters":2000,"station_id":"","pricing_plan_id":"free"},{"bike_id":"434f1f83-66c9-4a31-87a8-192edb77f4c0","system_id":"levelo_inurba_marseille","lat":43.292749,"lon":5.368402,"is_reserved":false,"is_disabled":false,"rental_uris":{"android":"levelo://app?vid=434f1f83-66c9-4a31-87a8-192edb77f4c0","ios":"levelo://app?vid=434f1f83-66c9-4a31-87a8-192edb77f4c0"},"vehicle_type_id":"4","last_reported":1706339173,"current_range_meters":31200,"station_id":"ce4bhbp2rcd13ifvqesg","pricing_plan_id":"free"},{"bike_id":"52f22a29-b6a9-479c-a57f-2c27d401ab9a","system_id":"levelo_inurba_marseille","lat":43.293009,"lon":5.374584,"is_reserved":false,"is_disabled":false,"rental_uris":{"android":"levelo://app?vid=52f22a29-b6a9-479c-a57f-2c27d401ab9a","ios":"levelo://app?vid=52f22a29-b6a9-479c-a57f-2c27d401ab9a"},"vehicle_type_id":"4","last_reported":1706339173,"current_range_meters":26800,"station_id":"ce4bgi12rcd13ifvqb70","pricing_plan_id":"free"},{"bike_id":"1a32745c-77fb-4789-87b7-7ab372da34d6","system_id":"levelo_inurba_marseille","lat":43.305917,"lon":5.39351,"is_reserved":false,"is_disabled":false,"rental_uris":{"android":"levelo://app?vid=1a32745c-77fb-4789-87b7-7ab372da34d6","ios":"levelo://app?vid=1a32745c-77fb-4789-87b7-7ab372da34d6"},"vehicle_type_id":"4","last_reported":1706339173,"current_range_meters":16400,"station_id":"ce4bh0p2rcd13ifvqd80","pricing_plan_id":"free"},{"bike_id":"dd69b7a3-5686-4ac1-9882-a9d15f9fa5e9","system_id":"levelo_inurba_marseille","lat":43.305994,"lon":5.393687,"is_reserved":false,"is_disabled":false,"rental_uris":{"android":"levelo://app?vid=dd69b7a3-5686-4ac1-9882-a9d15f9fa5e9","ios":"levelo://app?vid=dd69b7a3-5686-4ac1-9882-a9d15f9fa5e9"},"vehicle_type_id":"4","last_reported":1706339173,"current_range_meters":14400,"station_id":"ce4bh0p2rcd13ifvqd80","pricing_plan_id":"free"},{"bike_id":"944a160f-97fd-487e-bc75-4b77e2952336","system_id":"levelo_inurba_marseille","lat":43.305994,"lon":5.393687,"is_reserved":false,"is_disabled":false,"rental_uris":{"android":"levelo://app?vid=944a160f-97fd-487e-bc75-4b77e2952336","ios":"levelo://app?vid=944a160f-97fd-487e-bc75-4b77e2952336"},"vehicle_type_id":"4","last_reported":1706339173,"current_range_meters":19200,"station_id":"ce4bh0p2rcd13ifvqd80","pricing_plan_id":"free"},{"bike_id":"bbdb1aef-c2d1-48fb-ae2b-df55ffbd6541","system_id":"levelo_inurba_marseille","lat":43.305994,"lon":5.393687,"is_reserved":false,"is_disabled":false,"rental_uris":{"android":"levelo://app?vid=bbdb1aef-c2d1-48fb-ae2b-df55ffbd6541","ios":"levelo://app?vid=bbdb1aef-c2d1-48fb-ae2b-df55ffbd6541"},"vehicle_type_id":"4","last_reported":1706339173,"current_range_meters":26000,"station_id":"ce4bh0p2rcd13ifvqd80","pricing_plan_id":"free"},{"bike_id":"9be5e2fb-33ce-4890-bd1e-fd9f479b1501","system_id":"levelo_inurba_marseille","lat":43.305994,"lon":5.393687,"is_reserved":false,"is_disabled":false,"rental_uris":{"android":"levelo://app?vid=9be5e2fb-33ce-4890-bd1e-fd9f479b1501","ios":"levelo://app?vid=9be5e2fb-33ce-4890-bd1e-fd9f479b1501"},"vehicle_type_id":"4","last_reported":1706339173,"current_range_meters":30400,"station_id":"ce4bh0p2rcd13ifvqd80","pricing_plan_id":"free"},{"bike_id":"55f7e523-d7a6-496d-8b6b-f49092472675","system_id":"levelo_inurba_marseille","lat":43.293009,"lon":5.374584,"is_reserved":false,"is_disabled":false,"rental_uris":{"android":"levelo://app?vid=55f7e523-d7a6-496d-8b6b-f49092472675","ios":"levelo://app?vid=55f7e523-d7a6-496d-8b6b-f49092472675"},"vehicle_type_id":"4","last_reported":1706339173,"current_range_meters":14000,"station_id":"ce4bgi12rcd13ifvqb70","pricing_plan_id":"free"},{"bike_id":"49a2c948-7fa1-4c9a-98fa-79707e6a2666","system_id":"levelo_inurba_marseille","lat":43.302992,"lon":5.392136,"is_reserved":false,"is_disabled":false,"rental_uris":{"android":"levelo://app?vid=49a2c948-7fa1-4c9a-98fa-79707e6a2666","ios":"levelo://app?vid=49a2c948-7fa1-4c9a-98fa-79707e6a2666"},"vehicle_type_id":"4","last_reported":1706339173,"current_range_meters":17200,"station_id":"ce4bgkh2rcd13ifvqbk0","pricing_plan_id":"free"},{"bike_id":"9ac101f1-6a34-4d8a-9c3f-b4eed3d4e9f3","system_id":"levelo_inurba_marseille","lat":43.303002,"lon":5.392142,"is_reserved":false,"is_disabled":false,"rental_uris":{"android":"levelo://app?vid=9ac101f1-6a34-4d8a-9c3f-b4eed3d4e9f3","ios":"levelo://app?vid=9ac101f1-6a34-4d8a-9c3f-b4eed3d4e9f3"},"vehicle_type_id":"4","last_reported":1706339173,"current_range_meters":26800,"station_id":"ce4bgkh2rcd13ifvqbk0","pricing_plan_id":"free"},{"bike_id":"36409716-c53b-4ce8-87d3-995ab70086c5","system_id":"levelo_inurba_marseille","lat":43.2936,"lon":5.37835,"is_reserved":false,"is_disabled":false,"rental_uris":{"android":"levelo://app?vid=36409716-c53b-4ce8-87d3-995ab70086c5","ios":"levelo://app?vid=36409716-c53b-4ce8-87d3-995ab70086c5"},"vehicle_type_id":"4","last_reported":1706339173,"current_range_meters":14800,"station_id":"ce4bgjh2rcd13ifvqbf0","pricing_plan_id":"free"},{"bike_id":"74df6015-1cdb-4d66-a2f7-0f195e350995","system_id":"levelo_inurba_marseille","lat":43.2936,"lon":5.37835,"is_reserved":false,"is_disabled":false,"rental_uris":{"android":"levelo://app?vid=74df6015-1cdb-4d66-a2f7-0f195e350995","ios":"levelo://app?vid=74df6015-1cdb-4d66-a2f7-0f195e350995"},"vehicle_type_id":"4","last_reported":1706339173,"current_range_meters":31200,"station_id":"ce4bgjh2rcd13ifvqbf0","pricing_plan_id":"free"},{"bike_id":"35e9469f-f528-41c8-9f63-dc44732576fa","system_id":"levelo_inurba_marseille","lat":43.292311,"lon":5.360731,"is_reserved":false,"is_disabled":false,"rental_uris":{"android":"levelo://app?vid=35e9469f-f528-41c8-9f63-dc44732576fa","ios":"levelo://app?vid=35e9469f-f528-41c8-9f63-dc44732576fa"},"vehicle_type_id":"4","last_reported":1706339173,"current_range_meters":20800,"station_id":"ce4bhbh2rcd13ifvqeqg","pricing_plan_id":"free"},{"bike_id":"6baf013a-7e30-4170-9b5b-ea021d366460","system_id":"levelo_inurba_marseille","lat":43.292311,"lon":5.360731,"is_reserved":false,"is_disabled":false,"rental_uris":{"android":"levelo://app?vid=6baf013a-7e30-4170-9b5b-ea021d366460","ios":"levelo://app?vid=6baf013a-7e30-4170-9b5b-ea021d366460"},"vehicle_type_id":"4","last_reported":1706339173,"current_range_meters":30000,"station_id":"ce4bhbh2rcd13ifvqeqg","pricing_plan_id":"free"},{"bike_id":"21a3cfc0-7aa8-4767-9293-11368b76f605","system_id":"levelo_inurba_marseille","lat":43.292311,"lon":5.360731,"is_reserved":false,"is_disabled":false,"rental_uris":{"android":"levelo://app?vid=21a3cfc0-7aa8-4767-9293-11368b76f605","ios":"levelo://app?vid=21a3cfc0-7aa8-4767-9293-11368b76f605"},"vehicle_type_id":"4","last_reported":1706339173,"current_range_meters":29600,"station_id":"ce4bhbh2rcd13ifvqeqg","pricing_plan_id":"free"},{"bike_id":"8ff59bc3-b06d-48b5-bd36-baa3a9d283f8","system_id":"levelo_inurba_marseille","lat":43.29169,"lon":5.3714,"is_reserved":false,"is_disabled":false,"rental_uris":{"android":"levelo://app?vid=8ff59bc3-b06d-48b5-bd36-baa3a9d283f8","ios":"levelo://app?vid=8ff59bc3-b06d-48b5-bd36-baa3a9d283f8"},"vehicle_type_id":"4","last_reported":1706339173,"current_range_meters":6000,"station_id":"ce4bha92rcd13ifvqeh0","pricing_plan_id":"free"},{"bike_id":"2cdd5039-e8ec-441b-9bd5-4c34b690b828","system_id":"levelo_inurba_marseille","lat":43.304951,"lon":5.394235,"is_reserved":false,"is_disabled":false,"rental_uris":{"android":"levelo://app?vid=2cdd5039-e8ec-441b-9bd5-4c34b690b828","ios":"levelo://app?vid=2cdd5039-e8ec-441b-9bd5-4c34b690b828"},"vehicle_type_id":"4","last_reported":1706339173,"current_range_meters":21200,"station_id":"","pricing_plan_id":"free"},{"bike_id":"4e4d6c1a-0731-4d76-8841-868a674e1838","system_id":"levelo_inurba_marseille","lat":43.291994,"lon":5.357886,"is_reserved":false,"is_disabled":false,"rental_uris":{"android":"levelo://app?vid=4e4d6c1a-0731-4d76-8841-868a674e1838","ios":"levelo://app?vid=4e4d6c1a-0731-4d76-8841-868a674e1838"},"vehicle_type_id":"4","last_reported":1706339173,"current_range_meters":14000,"station_id":"ce4bhb12rcd13ifvqel0","pricing_plan_id":"free"},{"bike_id":"8db0cd2f-68ae-489a-a8d0-28524063c0b0","system_id":"levelo_inurba_marseille","lat":43.291994,"lon":5.357886,"is_reserved":false,"is_disabled":false,"rental_uris":{"android":"levelo://app?vid=8db0cd2f-68ae-489a-a8d0-28524063c0b0","ios":"levelo://app?vid=8db0cd2f-68ae-489a-a8d0-28524063c0b0"},"vehicle_type_id":"4","last_reported":1706339173,"current_range_meters":28000,"station_id":"ce4bhb12rcd13ifvqel0","pricing_plan_id":"free"},{"bike_id":"e538fd5b-1314-4e21-b42e-7359a636eb3c","system_id":"levelo_inurba_marseille","lat":43.291994,"lon":5.357886,"is_reserved":false,"is_disabled":false,"rental_uris":{"android":"levelo://app?vid=e538fd5b-1314-4e21-b42e-7359a636eb3c","ios":"levelo://app?vid=e538fd5b-1314-4e21-b42e-7359a636eb3c"},"vehicle_type_id":"4","last_reported":1706339173,"current_range_meters":29200,"station_id":"ce4bhb12rcd13ifvqel0","pricing_plan_id":"free"},{"bike_id":"add8940b-1cc6-42fa-a9c3-03b9acd02f19","system_id":"levelo_inurba_marseille","lat":43.313291,"lon":5.396838,"is_reserved":false,"is_disabled":false,"rental_uris":{"android":"levelo://app?vid=add8940b-1cc6-42fa-a9c3-03b9acd02f19","ios":"levelo://app?vid=add8940b-1cc6-42fa-a9c3-03b9acd02f19"},"vehicle_type_id":"4","last_reported":1706339173,"current_range_meters":31200,"station_id":"ce4bgvp2rcd13ifvqcu0","pricing_plan_id":"free"},{"bike_id":"be7bc071-47d8-49cb-8b4e-8b5b8ed986c9","system_id":"levelo_inurba_marseille","lat":43.313291,"lon":5.396838,"is_reserved":false,"is_disabled":false,"rental_uris":{"android":"levelo://app?vid=be7bc071-47d8-49cb-8b4e-8b5b8ed986c9","ios":"levelo://app?vid=be7bc071-47d8-49cb-8b4e-8b5b8ed986c9"},"vehicle_type_id":"4","last_reported":1706339173,"current_range_meters":15600,"station_id":"ce4bgvp2rcd13ifvqcu0","pricing_plan_id":"free"},{"bike_id":"c3f3bb41-60d1-47f0-86e6-2983b4188cfe","system_id":"levelo_inurba_marseille","lat":43.313291,"lon":5.396838,"is_reserved":false,"is_disabled":false,"rental_uris":{"android":"levelo://app?vid=c3f3bb41-60d1-47f0-86e6-2983b4188cfe","ios":"levelo://app?vid=c3f3bb41-60d1-47f0-86e6-2983b4188cfe"},"vehicle_type_id":"4","last_reported":1706339173,"current_range_meters":30000,"station_id":"ce4bgvp2rcd13ifvqcu0","pricing_plan_id":"free"},{"bike_id":"1727e6c1-2533-4545-a7b1-3e1073f00002","system_id":"levelo_inurba_marseille","lat":43.313291,"lon":5.396838,"is_reserved":false,"is_disabled":false,"rental_uris":{"android":"levelo://app?vid=1727e6c1-2533-4545-a7b1-3e1073f00002","ios":"levelo://app?vid=1727e6c1-2533-4545-a7b1-3e1073f00002"},"vehicle_type_id":"4","last_reported":1706339173,"current_range_meters":22000,"station_id":"ce4bgvp2rcd13ifvqcu0","pricing_plan_id":"free"},{"bike_id":"d73f7593-0bab-4faf-905d-3b1c5a0a6568","system_id":"levelo_inurba_marseille","lat":43.313291,"lon":5.396838,"is_reserved":false,"is_disabled":false,"rental_uris":{"android":"levelo://app?vid=d73f7593-0bab-4faf-905d-3b1c5a0a6568","ios":"levelo://app?vid=d73f7593-0bab-4faf-905d-3b1c5a0a6568"},"vehicle_type_id":"4","last_reported":1706339173,"current_range_meters":29200,"station_id":"ce4bgvp2rcd13ifvqcu0","pricing_plan_id":"free"},{"bike_id":"dfc37c8a-0875-4b9d-aba0-31912e3b37ca","system_id":"levelo_inurba_marseille","lat":43.313291,"lon":5.396838,"is_reserved":false,"is_disabled":false,"rental_uris":{"android":"levelo://app?vid=dfc37c8a-0875-4b9d-aba0-31912e3b37ca","ios":"levelo://app?vid=dfc37c8a-0875-4b9d-aba0-31912e3b37ca"},"vehicle_type_id":"4","last_reported":1706339173,"current_range_meters":31200,"station_id":"ce4bgvp2rcd13ifvqcu0","pricing_plan_id":"free"},{"bike_id":"f22ea6b4-dd47-4f9a-8afb-1db7640deca3","system_id":"levelo_inurba_marseille","lat":43.313291,"lon":5.396838,"is_reserved":false,"is_disabled":false,"rental_uris":{"android":"levelo://app?vid=f22ea6b4-dd47-4f9a-8afb-1db7640deca3","ios":"levelo://app?vid=f22ea6b4-dd47-4f9a-8afb-1db7640deca3"},"vehicle_type_id":"4","last_reported":1706339173,"current_range_meters":13600,"station_id":"ce4bgvp2rcd13ifvqcu0","pricing_plan_id":"free"},{"bike_id":"5d77c02f-cf39-4001-8f61-f8f411f597ff","system_id":"levelo_inurba_marseille","lat":43.29534,"lon":5.38542,"is_reserved":false,"is_disabled":false,"rental_uris":{"android":"levelo://app?vid=5d77c02f-cf39-4001-8f61-f8f411f597ff","ios":"levelo://app?vid=5d77c02f-cf39-4001-8f61-f8f411f597ff"},"vehicle_type_id":"4","last_reported":1706339173,"current_range_meters":31200,"station_id":"ce4bgih2rcd13ifvqba0","pricing_plan_id":"free"},{"bike_id":"3abb43b6-90bd-4079-81da-a5ae426eb4e5","system_id":"levelo_inurba_marseille","lat":43.29529,"lon":5.385581,"is_reserved":false,"is_disabled":false,"rental_uris":{"android":"levelo://app?vid=3abb43b6-90bd-4079-81da-a5ae426eb4e5","ios":"levelo://app?vid=3abb43b6-90bd-4079-81da-a5ae426eb4e5"},"vehicle_type_id":"4","last_reported":1706339173,"current_range_meters":30000,"station_id":"ce4bgih2rcd13ifvqba0","pricing_plan_id":"free"},{"bike_id":"8d204fb2-7b45-434d-a12f-a21cafef7c0b","system_id":"levelo_inurba_marseille","lat":43.29535,"lon":5.38544,"is_reserved":false,"is_disabled":false,"rental_uris":{"android":"levelo://app?vid=8d204fb2-7b45-434d-a12f-a21cafef7c0b","ios":"levelo://app?vid=8d204fb2-7b45-434d-a12f-a21cafef7c0b"},"vehicle_type_id":"4","last_reported":1706339173,"current_range_meters":6400,"station_id":"ce4bgih2rcd13ifvqba0","pricing_plan_id":"free"},{"bike_id":"a0ff76fc-7dbe-4e08-b183-0b09248bebc0","system_id":"levelo_inurba_marseille","lat":43.29529,"lon":5.385581,"is_reserved":false,"is_disabled":false,"rental_uris":{"android":"levelo://app?vid=a0ff76fc-7dbe-4e08-b183-0b09248bebc0","ios":"levelo://app?vid=a0ff76fc-7dbe-4e08-b183-0b09248bebc0"},"vehicle_type_id":"4","last_reported":1706339173,"current_range_meters":27600,"station_id":"ce4bgih2rcd13ifvqba0","pricing_plan_id":"free"},{"bike_id":"80abe394-023e-4574-9c80-d6e41a007192","system_id":"levelo_inurba_marseille","lat":43.29529,"lon":5.38547,"is_reserved":false,"is_disabled":false,"rental_uris":{"android":"levelo://app?vid=80abe394-023e-4574-9c80-d6e41a007192","ios":"levelo://app?vid=80abe394-023e-4574-9c80-d6e41a007192"},"vehicle_type_id":"4","last_reported":1706339173,"current_range_meters":26800,"station_id":"ce4bgih2rcd13ifvqba0","pricing_plan_id":"free"},{"bike_id":"1f605fa3-fd13-492e-b3c4-38ed38079474","system_id":"levelo_inurba_marseille","lat":43.2953,"lon":5.38549,"is_reserved":false,"is_disabled":false,"rental_uris":{"android":"levelo://app?vid=1f605fa3-fd13-492e-b3c4-38ed38079474","ios":"levelo://app?vid=1f605fa3-fd13-492e-b3c4-38ed38079474"},"vehicle_type_id":"4","last_reported":1706339173,"current_range_meters":29200,"station_id":"ce4bgih2rcd13ifvqba0","pricing_plan_id":"free"},{"bike_id":"fc08f2a2-7fad-40e9-b2da-60d151623b28","system_id":"levelo_inurba_marseille","lat":43.295733,"lon":5.387323,"is_reserved":false,"is_disabled":false,"rental_uris":{"android":"levelo://app?vid=fc08f2a2-7fad-40e9-b2da-60d151623b28","ios":"levelo://app?vid=fc08f2a2-7fad-40e9-b2da-60d151623b28"},"vehicle_type_id":"4","last_reported":1706339173,"current_range_meters":6400,"station_id":"","pricing_plan_id":"free"},{"bike_id":"891e97dd-bca4-4186-9730-f674ee6f6a87","system_id":"levelo_inurba_marseille","lat":43.290631,"lon":5.359244,"is_reserved":false,"is_disabled":false,"rental_uris":{"android":"levelo://app?vid=891e97dd-bca4-4186-9730-f674ee6f6a87","ios":"levelo://app?vid=891e97dd-bca4-4186-9730-f674ee6f6a87"},"vehicle_type_id":"4","last_reported":1706339173,"current_range_meters":30000,"station_id":"ce4bha92rcd13ifvqeg0","pricing_plan_id":"free"},{"bike_id":"18295b90-a400-4ff9-af5b-9af8fd5622c7","system_id":"levelo_inurba_marseille","lat":43.289695,"lon":5.366205,"is_reserved":false,"is_disabled":false,"rental_uris":{"android":"levelo://app?vid=18295b90-a400-4ff9-af5b-9af8fd5622c7","ios":"levelo://app?vid=18295b90-a400-4ff9-af5b-9af8fd5622c7"},"vehicle_type_id":"4","last_reported":1706339173,"current_range_meters":14400,"station_id":"","pricing_plan_id":"free"},{"bike_id":"43890696-3fb0-4c6a-882d-e1236f452ce0","system_id":"levelo_inurba_marseille","lat":43.29423,"lon":5.38615,"is_reserved":false,"is_disabled":false,"rental_uris":{"android":"levelo://app?vid=43890696-3fb0-4c6a-882d-e1236f452ce0","ios":"levelo://app?vid=43890696-3fb0-4c6a-882d-e1236f452ce0"},"vehicle_type_id":"4","last_reported":1706339173,"current_range_meters":28800,"station_id":"ce4bh2h2rcd13ifvqdh0","pricing_plan_id":"free"},{"bike_id":"35101469-a10e-430d-9584-6cad5ed8c23a","system_id":"levelo_inurba_marseille","lat":43.290327,"lon":5.375711,"is_reserved":false,"is_disabled":false,"rental_uris":{"android":"levelo://app?vid=35101469-a10e-430d-9584-6cad5ed8c23a","ios":"levelo://app?vid=35101469-a10e-430d-9584-6cad5ed8c23a"},"vehicle_type_id":"4","last_reported":1706339173,"current_range_meters":31200,"station_id":"ce4bh692rcd13ifvqe90","pricing_plan_id":"free"},{"bike_id":"625662bb-20b0-4ec2-b931-6882bc80057e","system_id":"levelo_inurba_marseille","lat":43.29418,"lon":5.386236,"is_reserved":false,"is_disabled":false,"rental_uris":{"android":"levelo://app?vid=625662bb-20b0-4ec2-b931-6882bc80057e","ios":"levelo://app?vid=625662bb-20b0-4ec2-b931-6882bc80057e"},"vehicle_type_id":"4","last_reported":1706339173,"current_range_meters":29600,"station_id":"ce4bh2h2rcd13ifvqdh0","pricing_plan_id":"free"},{"bike_id":"6a3157b0-d4a5-47ad-89dc-2e933d3773ab","system_id":"levelo_inurba_marseille","lat":43.289184,"lon":5.366408,"is_reserved":false,"is_disabled":false,"rental_uris":{"android":"levelo://app?vid=6a3157b0-d4a5-47ad-89dc-2e933d3773ab","ios":"levelo://app?vid=6a3157b0-d4a5-47ad-89dc-2e933d3773ab"},"vehicle_type_id":"4","last_reported":1706339173,"current_range_meters":23200,"station_id":"ce4bhap2rcd13ifvqek0","pricing_plan_id":"free"},{"bike_id":"67662245-f3f8-4a7d-a8b0-2c7738bbc2aa","system_id":"levelo_inurba_marseille","lat":43.294177,"lon":5.386333,"is_reserved":false,"is_disabled":false,"rental_uris":{"android":"levelo://app?vid=67662245-f3f8-4a7d-a8b0-2c7738bbc2aa","ios":"levelo://app?vid=67662245-f3f8-4a7d-a8b0-2c7738bbc2aa"},"vehicle_type_id":"4","last_reported":1706339173,"current_range_meters":31200,"station_id":"ce4bh2h2rcd13ifvqdh0","pricing_plan_id":"free"},{"bike_id":"7b140fdb-f9ff-429e-8377-179f7431e639","system_id":"levelo_inurba_marseille","lat":43.289413,"lon":5.366277,"is_reserved":false,"is_disabled":false,"rental_uris":{"android":"levelo://app?vid=7b140fdb-f9ff-429e-8377-179f7431e639","ios":"levelo://app?vid=7b140fdb-f9ff-429e-8377-179f7431e639"},"vehicle_type_id":"4","last_reported":1706339173,"current_range_meters":31200,"station_id":"ce4bhap2rcd13ifvqek0","pricing_plan_id":"free"},{"bike_id":"0294a333-9c42-4acb-9229-c0b6036f55c4","system_id":"levelo_inurba_marseille","lat":43.289468,"lon":5.363719,"is_reserved":false,"is_disabled":false,"rental_uris":{"android":"levelo://app?vid=0294a333-9c42-4acb-9229-c0b6036f55c4","ios":"levelo://app?vid=0294a333-9c42-4acb-9229-c0b6036f55c4"},"vehicle_type_id":"4","last_reported":1706339173,"current_range_meters":26400,"station_id":"ce4bhc92rcd13ifvqetg","pricing_plan_id":"free"},{"bike_id":"37cd2bc6-7a7c-4cff-abf0-136262c7a562","system_id":"levelo_inurba_marseille","lat":43.289468,"lon":5.363719,"is_reserved":false,"is_disabled":false,"rental_uris":{"android":"levelo://app?vid=37cd2bc6-7a7c-4cff-abf0-136262c7a562","ios":"levelo://app?vid=37cd2bc6-7a7c-4cff-abf0-136262c7a562"},"vehicle_type_id":"4","last_reported":1706339173,"current_range_meters":27600,"station_id":"ce4bhc92rcd13ifvqetg","pricing_plan_id":"free"},{"bike_id":"30b26d8e-2b5f-436d-a89e-35314bb93ca0","system_id":"levelo_inurba_marseille","lat":43.289468,"lon":5.363719,"is_reserved":false,"is_disabled":false,"rental_uris":{"android":"levelo://app?vid=30b26d8e-2b5f-436d-a89e-35314bb93ca0","ios":"levelo://app?vid=30b26d8e-2b5f-436d-a89e-35314bb93ca0"},"vehicle_type_id":"4","last_reported":1706339173,"current_range_meters":28800,"station_id":"ce4bhc92rcd13ifvqetg","pricing_plan_id":"free"},{"bike_id":"73341ce3-0ecd-49f8-9790-d045fbdb81db","system_id":"levelo_inurba_marseille","lat":43.289184,"lon":5.366408,"is_reserved":false,"is_disabled":false,"rental_uris":{"android":"levelo://app?vid=73341ce3-0ecd-49f8-9790-d045fbdb81db","ios":"levelo://app?vid=73341ce3-0ecd-49f8-9790-d045fbdb81db"},"vehicle_type_id":"4","last_reported":1706339173,"current_range_meters":28400,"station_id":"ce4bhap2rcd13ifvqek0","pricing_plan_id":"free"},{"bike_id":"a86ba8ac-e420-4988-9f45-9a1b5b8b7e8b","system_id":"levelo_inurba_marseille","lat":43.29011,"lon":5.3561,"is_reserved":false,"is_disabled":false,"rental_uris":{"android":"levelo://app?vid=a86ba8ac-e420-4988-9f45-9a1b5b8b7e8b","ios":"levelo://app?vid=a86ba8ac-e420-4988-9f45-9a1b5b8b7e8b"},"vehicle_type_id":"4","last_reported":1706339173,"current_range_meters":26800,"station_id":"ce4bhb92rcd13ifvqen0","pricing_plan_id":"free"},{"bike_id":"6244bedc-c35d-4351-b5f4-4aa33630d66b","system_id":"levelo_inurba_marseille","lat":43.29008,"lon":5.35609,"is_reserved":false,"is_disabled":false,"rental_uris":{"android":"levelo://app?vid=6244bedc-c35d-4351-b5f4-4aa33630d66b","ios":"levelo://app?vid=6244bedc-c35d-4351-b5f4-4aa33630d66b"},"vehicle_type_id":"4","last_reported":1706339173,"current_range_meters":30400,"station_id":"ce4bhb92rcd13ifvqen0","pricing_plan_id":"free"},{"bike_id":"79a06bed-b6fc-45a1-82f5-4c17f490d569","system_id":"levelo_inurba_marseille","lat":43.309144,"lon":5.399573,"is_reserved":false,"is_disabled":false,"rental_uris":{"android":"levelo://app?vid=79a06bed-b6fc-45a1-82f5-4c17f490d569","ios":"levelo://app?vid=79a06bed-b6fc-45a1-82f5-4c17f490d569"},"vehicle_type_id":"4","last_reported":1706339173,"current_range_meters":22800,"station_id":"","pricing_plan_id":"free"},{"bike_id":"e9f96293-069a-419a-8230-1e554ffffe69","system_id":"levelo_inurba_marseille","lat":43.29003,"lon":5.35609,"is_reserved":false,"is_disabled":false,"rental_uris":{"android":"levelo://app?vid=e9f96293-069a-419a-8230-1e554ffffe69","ios":"levelo://app?vid=e9f96293-069a-419a-8230-1e554ffffe69"},"vehicle_type_id":"4","last_reported":1706339173,"current_range_meters":26800,"station_id":"ce4bhb92rcd13ifvqen0","pricing_plan_id":"free"},{"bike_id":"97ecf7bc-50e2-4955-9530-67010a926dd3","system_id":"levelo_inurba_marseille","lat":43.29004,"lon":5.35604,"is_reserved":false,"is_disabled":false,"rental_uris":{"android":"levelo://app?vid=97ecf7bc-50e2-4955-9530-67010a926dd3","ios":"levelo://app?vid=97ecf7bc-50e2-4955-9530-67010a926dd3"},"vehicle_type_id":"4","last_reported":1706339173,"current_range_meters":12400,"station_id":"ce4bhb92rcd13ifvqen0","pricing_plan_id":"free"},{"bike_id":"50494803-6ee5-4abc-8acc-e9bb31dedd6f","system_id":"levelo_inurba_marseille","lat":43.289741,"lon":5.378306,"is_reserved":false,"is_disabled":false,"rental_uris":{"android":"levelo://app?vid=50494803-6ee5-4abc-8acc-e9bb31dedd6f","ios":"levelo://app?vid=50494803-6ee5-4abc-8acc-e9bb31dedd6f"},"vehicle_type_id":"4","last_reported":1706339173,"current_range_meters":26800,"station_id":"ce4bh9p2rcd13ifvqed0","pricing_plan_id":"free"},{"bike_id":"57804f70-0653-4c61-ab9d-75fb997af4d7","system_id":"levelo_inurba_marseille","lat":43.289743,"lon":5.378304,"is_reserved":false,"is_disabled":false,"rental_uris":{"android":"levelo://app?vid=57804f70-0653-4c61-ab9d-75fb997af4d7","ios":"levelo://app?vid=57804f70-0653-4c61-ab9d-75fb997af4d7"},"vehicle_type_id":"4","last_reported":1706339173,"current_range_meters":18000,"station_id":"ce4bh9p2rcd13ifvqed0","pricing_plan_id":"free"},{"bike_id":"17c9044b-1e1a-4ec5-a29a-4d2b191e11f0","system_id":"levelo_inurba_marseille","lat":43.330442,"lon":5.389148,"is_reserved":false,"is_disabled":false,"rental_uris":{"android":"levelo://app?vid=17c9044b-1e1a-4ec5-a29a-4d2b191e11f0","ios":"levelo://app?vid=17c9044b-1e1a-4ec5-a29a-4d2b191e11f0"},"vehicle_type_id":"4","last_reported":1706339173,"current_range_meters":11600,"station_id":"ce4bhr92rcd13ifvqhrg","pricing_plan_id":"free"},{"bike_id":"21f1f53c-7ddb-4314-9563-0209f8a6c6e8","system_id":"levelo_inurba_marseille","lat":43.330442,"lon":5.389148,"is_reserved":false,"is_disabled":false,"rental_uris":{"android":"levelo://app?vid=21f1f53c-7ddb-4314-9563-0209f8a6c6e8","ios":"levelo://app?vid=21f1f53c-7ddb-4314-9563-0209f8a6c6e8"},"vehicle_type_id":"4","last_reported":1706339173,"current_range_meters":26800,"station_id":"ce4bhr92rcd13ifvqhrg","pricing_plan_id":"free"},{"bike_id":"68efe2fd-566a-4c0f-bb91-8c661c67a5a0","system_id":"levelo_inurba_marseille","lat":43.289741,"lon":5.378306,"is_reserved":false,"is_disabled":false,"rental_uris":{"android":"levelo://app?vid=68efe2fd-566a-4c0f-bb91-8c661c67a5a0","ios":"levelo://app?vid=68efe2fd-566a-4c0f-bb91-8c661c67a5a0"},"vehicle_type_id":"4","last_reported":1706339173,"current_range_meters":8000,"station_id":"ce4bh9p2rcd13ifvqed0","pricing_plan_id":"free"},{"bike_id":"43236fd2-e2e9-4b1e-9ed5-bfdbf82475b3","system_id":"levelo_inurba_marseille","lat":43.337274,"lon":5.374849,"is_reserved":false,"is_disabled":false,"rental_uris":{"android":"levelo://app?vid=43236fd2-e2e9-4b1e-9ed5-bfdbf82475b3","ios":"levelo://app?vid=43236fd2-e2e9-4b1e-9ed5-bfdbf82475b3"},"vehicle_type_id":"4","last_reported":1706339173,"current_range_meters":30400,"station_id":"","pricing_plan_id":"free"},{"bike_id":"a955b3e1-d2f0-4235-a805-c4e33bb52b48","system_id":"levelo_inurba_marseille","lat":43.312609,"lon":5.401662,"is_reserved":false,"is_disabled":false,"rental_uris":{"android":"levelo://app?vid=a955b3e1-d2f0-4235-a805-c4e33bb52b48","ios":"levelo://app?vid=a955b3e1-d2f0-4235-a805-c4e33bb52b48"},"vehicle_type_id":"4","last_reported":1706339173,"current_range_meters":10000,"station_id":"ce4bh092rcd13ifvqd30","pricing_plan_id":"free"},{"bike_id":"d3f9bfb1-3059-46b7-b44a-998b305b324a","system_id":"levelo_inurba_marseille","lat":43.312609,"lon":5.401662,"is_reserved":false,"is_disabled":false,"rental_uris":{"android":"levelo://app?vid=d3f9bfb1-3059-46b7-b44a-998b305b324a","ios":"levelo://app?vid=d3f9bfb1-3059-46b7-b44a-998b305b324a"},"vehicle_type_id":"4","last_reported":1706339173,"current_range_meters":3600,"station_id":"ce4bh092rcd13ifvqd30","pricing_plan_id":"free"},{"bike_id":"3e8250c4-7892-4712-900c-b50082c9d1ba","system_id":"levelo_inurba_marseille","lat":43.312609,"lon":5.401662,"is_reserved":false,"is_disabled":false,"rental_uris":{"android":"levelo://app?vid=3e8250c4-7892-4712-900c-b50082c9d1ba","ios":"levelo://app?vid=3e8250c4-7892-4712-900c-b50082c9d1ba"},"vehicle_type_id":"4","last_reported":1706339173,"current_range_meters":13600,"station_id":"ce4bh092rcd13ifvqd30","pricing_plan_id":"free"},{"bike_id":"71aa682c-d708-4d54-982b-c52cb8285714","system_id":"levelo_inurba_marseille","lat":43.312609,"lon":5.401662,"is_reserved":false,"is_disabled":false,"rental_uris":{"android":"levelo://app?vid=71aa682c-d708-4d54-982b-c52cb8285714","ios":"levelo://app?vid=71aa682c-d708-4d54-982b-c52cb8285714"},"vehicle_type_id":"4","last_reported":1706339173,"current_range_meters":9200,"station_id":"ce4bh092rcd13ifvqd30","pricing_plan_id":"free"},{"bike_id":"a797ffc5-c458-40ba-9bc9-6560dd2a2969","system_id":"levelo_inurba_marseille","lat":43.312609,"lon":5.401662,"is_reserved":false,"is_disabled":false,"rental_uris":{"android":"levelo://app?vid=a797ffc5-c458-40ba-9bc9-6560dd2a2969","ios":"levelo://app?vid=a797ffc5-c458-40ba-9bc9-6560dd2a2969"},"vehicle_type_id":"4","last_reported":1706339173,"current_range_meters":29200,"station_id":"ce4bh092rcd13ifvqd30","pricing_plan_id":"free"},{"bike_id":"b11abc06-83f9-44c4-a2e8-c4f89cee6a71","system_id":"levelo_inurba_marseille","lat":43.312609,"lon":5.401662,"is_reserved":false,"is_disabled":false,"rental_uris":{"android":"levelo://app?vid=b11abc06-83f9-44c4-a2e8-c4f89cee6a71","ios":"levelo://app?vid=b11abc06-83f9-44c4-a2e8-c4f89cee6a71"},"vehicle_type_id":"4","last_reported":1706339173,"current_range_meters":22000,"station_id":"ce4bh092rcd13ifvqd30","pricing_plan_id":"free"},{"bike_id":"eb006cec-40ad-4259-bf5d-87751f7ad9c3","system_id":"levelo_inurba_marseille","lat":43.309288,"lon":5.401388,"is_reserved":false,"is_disabled":false,"rental_uris":{"android":"levelo://app?vid=eb006cec-40ad-4259-bf5d-87751f7ad9c3","ios":"levelo://app?vid=eb006cec-40ad-4259-bf5d-87751f7ad9c3"},"vehicle_type_id":"4","last_reported":1706339173,"current_range_meters":19200,"station_id":"ce4bgvp2rcd13ifvqct0","pricing_plan_id":"free"},{"bike_id":"5f4f2e5e-bf27-44ee-9683-c4a626c43b84","system_id":"levelo_inurba_marseille","lat":43.309371,"lon":5.401449,"is_reserved":false,"is_disabled":false,"rental_uris":{"android":"levelo://app?vid=5f4f2e5e-bf27-44ee-9683-c4a626c43b84","ios":"levelo://app?vid=5f4f2e5e-bf27-44ee-9683-c4a626c43b84"},"vehicle_type_id":"4","last_reported":1706339173,"current_range_meters":31200,"station_id":"ce4bgvp2rcd13ifvqct0","pricing_plan_id":"free"},{"bike_id":"48c1fa8b-ed72-4d16-a653-ad54f91e9dca","system_id":"levelo_inurba_marseille","lat":43.309371,"lon":5.401449,"is_reserved":false,"is_disabled":false,"rental_uris":{"android":"levelo://app?vid=48c1fa8b-ed72-4d16-a653-ad54f91e9dca","ios":"levelo://app?vid=48c1fa8b-ed72-4d16-a653-ad54f91e9dca"},"vehicle_type_id":"4","last_reported":1706339173,"current_range_meters":26400,"station_id":"ce4bgvp2rcd13ifvqct0","pricing_plan_id":"free"},{"bike_id":"a474cd44-8dc2-4612-9cbc-ff001672523a","system_id":"levelo_inurba_marseille","lat":43.309318,"lon":5.401421,"is_reserved":false,"is_disabled":false,"rental_uris":{"android":"levelo://app?vid=a474cd44-8dc2-4612-9cbc-ff001672523a","ios":"levelo://app?vid=a474cd44-8dc2-4612-9cbc-ff001672523a"},"vehicle_type_id":"4","last_reported":1706339173,"current_range_meters":5200,"station_id":"ce4bgvp2rcd13ifvqct0","pricing_plan_id":"free"},{"bike_id":"b47cbc50-35aa-4993-8522-854fb7534e7e","system_id":"levelo_inurba_marseille","lat":43.30642,"lon":5.401031,"is_reserved":false,"is_disabled":false,"rental_uris":{"android":"levelo://app?vid=b47cbc50-35aa-4993-8522-854fb7534e7e","ios":"levelo://app?vid=b47cbc50-35aa-4993-8522-854fb7534e7e"},"vehicle_type_id":"4","last_reported":1706339173,"current_range_meters":31200,"station_id":"ce4bh112rcd13ifvqda0","pricing_plan_id":"free"},{"bike_id":"25c5f330-eae6-4505-a822-a943ccd0036a","system_id":"levelo_inurba_marseille","lat":43.30932,"lon":5.40147,"is_reserved":false,"is_disabled":false,"rental_uris":{"android":"levelo://app?vid=25c5f330-eae6-4505-a822-a943ccd0036a","ios":"levelo://app?vid=25c5f330-eae6-4505-a822-a943ccd0036a"},"vehicle_type_id":"4","last_reported":1706339173,"current_range_meters":0,"station_id":"ce4bgvp2rcd13ifvqct0","pricing_plan_id":"free"},{"bike_id":"ebc0fa7a-2f9b-4fc6-9087-d8a432674857","system_id":"levelo_inurba_marseille","lat":43.309371,"lon":5.401449,"is_reserved":false,"is_disabled":false,"rental_uris":{"android":"levelo://app?vid=ebc0fa7a-2f9b-4fc6-9087-d8a432674857","ios":"levelo://app?vid=ebc0fa7a-2f9b-4fc6-9087-d8a432674857"},"vehicle_type_id":"4","last_reported":1706339173,"current_range_meters":25200,"station_id":"ce4bgvp2rcd13ifvqct0","pricing_plan_id":"free"},{"bike_id":"b7f12eab-e0a6-499e-87ec-2b4381c4602a","system_id":"levelo_inurba_marseille","lat":43.337545,"lon":5.374749,"is_reserved":false,"is_disabled":false,"rental_uris":{"android":"levelo://app?vid=b7f12eab-e0a6-499e-87ec-2b4381c4602a","ios":"levelo://app?vid=b7f12eab-e0a6-499e-87ec-2b4381c4602a"},"vehicle_type_id":"4","last_reported":1706339173,"current_range_meters":25200,"station_id":"","pricing_plan_id":"free"},{"bike_id":"34d53784-607d-44b5-85d0-497fcfe6ed8d","system_id":"levelo_inurba_marseille","lat":43.30642,"lon":5.401031,"is_reserved":false,"is_disabled":false,"rental_uris":{"android":"levelo://app?vid=34d53784-607d-44b5-85d0-497fcfe6ed8d","ios":"levelo://app?vid=34d53784-607d-44b5-85d0-497fcfe6ed8d"},"vehicle_type_id":"4","last_reported":1706339173,"current_range_meters":18800,"station_id":"ce4bh112rcd13ifvqda0","pricing_plan_id":"free"},{"bike_id":"633e408b-3f4c-41e5-a5ca-5e58b2dba3e6","system_id":"levelo_inurba_marseille","lat":43.28727,"lon":5.36078,"is_reserved":false,"is_disabled":false,"rental_uris":{"android":"levelo://app?vid=633e408b-3f4c-41e5-a5ca-5e58b2dba3e6","ios":"levelo://app?vid=633e408b-3f4c-41e5-a5ca-5e58b2dba3e6"},"vehicle_type_id":"4","last_reported":1706339173,"current_range_meters":25600,"station_id":"cki0cbj6b192h4jlfktg","pricing_plan_id":"free"},{"bike_id":"89e72ce6-db2c-4ac7-953d-4a1bdcb9140c","system_id":"levelo_inurba_marseille","lat":43.28727,"lon":5.36078,"is_reserved":false,"is_disabled":false,"rental_uris":{"android":"levelo://app?vid=89e72ce6-db2c-4ac7-953d-4a1bdcb9140c","ios":"levelo://app?vid=89e72ce6-db2c-4ac7-953d-4a1bdcb9140c"},"vehicle_type_id":"4","last_reported":1706339173,"current_range_meters":17200,"station_id":"cki0cbj6b192h4jlfktg","pricing_plan_id":"free"},{"bike_id":"e013211c-401c-464a-bb5b-513d95aaeb4f","system_id":"levelo_inurba_marseille","lat":43.28669,"lon":5.36336,"is_reserved":false,"is_disabled":false,"rental_uris":{"android":"levelo://app?vid=e013211c-401c-464a-bb5b-513d95aaeb4f","ios":"levelo://app?vid=e013211c-401c-464a-bb5b-513d95aaeb4f"},"vehicle_type_id":"4","last_reported":1706339173,"current_range_meters":16000,"station_id":"ce4bhah2rcd13ifvqej0","pricing_plan_id":"free"},{"bike_id":"07956add-1d0f-4283-a159-1e137089a754","system_id":"levelo_inurba_marseille","lat":43.286961,"lon":5.373785,"is_reserved":false,"is_disabled":false,"rental_uris":{"android":"levelo://app?vid=07956add-1d0f-4283-a159-1e137089a754","ios":"levelo://app?vid=07956add-1d0f-4283-a159-1e137089a754"},"vehicle_type_id":"4","last_reported":1706339173,"current_range_meters":2000,"station_id":"ce4bh3p2rcd13ifvqdq0","pricing_plan_id":"free"},{"bike_id":"3cb93632-8be0-4df3-a6e0-3a17b9547e10","system_id":"levelo_inurba_marseille","lat":43.286961,"lon":5.373785,"is_reserved":false,"is_disabled":false,"rental_uris":{"android":"levelo://app?vid=3cb93632-8be0-4df3-a6e0-3a17b9547e10","ios":"levelo://app?vid=3cb93632-8be0-4df3-a6e0-3a17b9547e10"},"vehicle_type_id":"4","last_reported":1706339173,"current_range_meters":29200,"station_id":"ce4bh3p2rcd13ifvqdq0","pricing_plan_id":"free"},{"bike_id":"0c1e8900-0676-4db4-8cef-b5637305cf51","system_id":"levelo_inurba_marseille","lat":43.28659,"lon":5.36354,"is_reserved":false,"is_disabled":false,"rental_uris":{"android":"levelo://app?vid=0c1e8900-0676-4db4-8cef-b5637305cf51","ios":"levelo://app?vid=0c1e8900-0676-4db4-8cef-b5637305cf51"},"vehicle_type_id":"4","last_reported":1706339173,"current_range_meters":28000,"station_id":"","pricing_plan_id":"free"},{"bike_id":"374d9d48-fc1e-42c5-aa8e-aed1a606bc54","system_id":"levelo_inurba_marseille","lat":43.286593,"lon":5.363346,"is_reserved":false,"is_disabled":false,"rental_uris":{"android":"levelo://app?vid=374d9d48-fc1e-42c5-aa8e-aed1a606bc54","ios":"levelo://app?vid=374d9d48-fc1e-42c5-aa8e-aed1a606bc54"},"vehicle_type_id":"4","last_reported":1706339173,"current_range_meters":31200,"station_id":"ce4bhah2rcd13ifvqej0","pricing_plan_id":"free"},{"bike_id":"74c64a85-2d4d-4076-baa0-b16a2362ea20","system_id":"levelo_inurba_marseille","lat":43.298681,"lon":5.397225,"is_reserved":false,"is_disabled":false,"rental_uris":{"android":"levelo://app?vid=74c64a85-2d4d-4076-baa0-b16a2362ea20","ios":"levelo://app?vid=74c64a85-2d4d-4076-baa0-b16a2362ea20"},"vehicle_type_id":"4","last_reported":1706339173,"current_range_meters":27200,"station_id":"ce4bh0h2rcd13ifvqd50","pricing_plan_id":"free"},{"bike_id":"6455ba4b-89e5-438b-93e2-7de48f59f4bb","system_id":"levelo_inurba_marseille","lat":43.286559,"lon":5.363488,"is_reserved":false,"is_disabled":false,"rental_uris":{"android":"levelo://app?vid=6455ba4b-89e5-438b-93e2-7de48f59f4bb","ios":"levelo://app?vid=6455ba4b-89e5-438b-93e2-7de48f59f4bb"},"vehicle_type_id":"4","last_reported":1706339173,"current_range_meters":31200,"station_id":"ce4bhah2rcd13ifvqej0","pricing_plan_id":"free"},{"bike_id":"befb3d23-39da-4372-9e85-3add37283084","system_id":"levelo_inurba_marseille","lat":43.286593,"lon":5.363346,"is_reserved":false,"is_disabled":false,"rental_uris":{"android":"levelo://app?vid=befb3d23-39da-4372-9e85-3add37283084","ios":"levelo://app?vid=befb3d23-39da-4372-9e85-3add37283084"},"vehicle_type_id":"4","last_reported":1706339173,"current_range_meters":15200,"station_id":"ce4bhah2rcd13ifvqej0","pricing_plan_id":"free"},{"bike_id":"183bb1c1-398f-466c-b05d-327ac4efc436","system_id":"levelo_inurba_marseille","lat":43.302511,"lon":5.400653,"is_reserved":false,"is_disabled":false,"rental_uris":{"android":"levelo://app?vid=183bb1c1-398f-466c-b05d-327ac4efc436","ios":"levelo://app?vid=183bb1c1-398f-466c-b05d-327ac4efc436"},"vehicle_type_id":"4","last_reported":1706339173,"current_range_meters":16000,"station_id":"ce4bgth2rcd13ifvqch0","pricing_plan_id":"free"},{"bike_id":"f54b7f48-7437-4c51-bcbb-99f6377d9702","system_id":"levelo_inurba_marseille","lat":43.286039,"lon":5.370681,"is_reserved":false,"is_disabled":false,"rental_uris":{"android":"levelo://app?vid=f54b7f48-7437-4c51-bcbb-99f6377d9702","ios":"levelo://app?vid=f54b7f48-7437-4c51-bcbb-99f6377d9702"},"vehicle_type_id":"4","last_reported":1706339173,"current_range_meters":23600,"station_id":"ce4bht12rcd13ifvqi60","pricing_plan_id":"free"},{"bike_id":"cd2e8384-1758-41b7-8b66-e6112be1b4da","system_id":"levelo_inurba_marseille","lat":43.286039,"lon":5.370681,"is_reserved":false,"is_disabled":false,"rental_uris":{"android":"levelo://app?vid=cd2e8384-1758-41b7-8b66-e6112be1b4da","ios":"levelo://app?vid=cd2e8384-1758-41b7-8b66-e6112be1b4da"},"vehicle_type_id":"4","last_reported":1706339173,"current_range_meters":1200,"station_id":"ce4bht12rcd13ifvqi60","pricing_plan_id":"free"},{"bike_id":"3aea296b-6c1e-47c0-b496-241ed0d07879","system_id":"levelo_inurba_marseille","lat":43.287184,"lon":5.37937,"is_reserved":false,"is_disabled":false,"rental_uris":{"android":"levelo://app?vid=3aea296b-6c1e-47c0-b496-241ed0d07879","ios":"levelo://app?vid=3aea296b-6c1e-47c0-b496-241ed0d07879"},"vehicle_type_id":"4","last_reported":1706339173,"current_range_meters":25600,"station_id":"ce4bh9p2rcd13ifvqec0","pricing_plan_id":"free"},{"bike_id":"5949b5d5-f006-464b-9e78-b04223735305","system_id":"levelo_inurba_marseille","lat":43.287185,"lon":5.379373,"is_reserved":false,"is_disabled":false,"rental_uris":{"android":"levelo://app?vid=5949b5d5-f006-464b-9e78-b04223735305","ios":"levelo://app?vid=5949b5d5-f006-464b-9e78-b04223735305"},"vehicle_type_id":"4","last_reported":1706339173,"current_range_meters":26000,"station_id":"ce4bh9p2rcd13ifvqec0","pricing_plan_id":"free"},{"bike_id":"42ed94a0-bf0a-4e3e-b0c8-1fb7f06f3a40","system_id":"levelo_inurba_marseille","lat":43.287184,"lon":5.37937,"is_reserved":false,"is_disabled":false,"rental_uris":{"android":"levelo://app?vid=42ed94a0-bf0a-4e3e-b0c8-1fb7f06f3a40","ios":"levelo://app?vid=42ed94a0-bf0a-4e3e-b0c8-1fb7f06f3a40"},"vehicle_type_id":"4","last_reported":1706339173,"current_range_meters":21600,"station_id":"ce4bh9p2rcd13ifvqec0","pricing_plan_id":"free"},{"bike_id":"b332df60-0a81-4841-a021-c7d35a6d7740","system_id":"levelo_inurba_marseille","lat":43.316915,"lon":5.404655,"is_reserved":false,"is_disabled":false,"rental_uris":{"android":"levelo://app?vid=b332df60-0a81-4841-a021-c7d35a6d7740","ios":"levelo://app?vid=b332df60-0a81-4841-a021-c7d35a6d7740"},"vehicle_type_id":"4","last_reported":1706339173,"current_range_meters":10400,"station_id":"ce4bh012rcd13ifvqd00","pricing_plan_id":"free"},{"bike_id":"315e45df-6d01-4551-9d5f-6aca85d814c7","system_id":"levelo_inurba_marseille","lat":43.316896,"lon":5.40466,"is_reserved":false,"is_disabled":false,"rental_uris":{"android":"levelo://app?vid=315e45df-6d01-4551-9d5f-6aca85d814c7","ios":"levelo://app?vid=315e45df-6d01-4551-9d5f-6aca85d814c7"},"vehicle_type_id":"4","last_reported":1706339173,"current_range_meters":27200,"station_id":"ce4bh012rcd13ifvqd00","pricing_plan_id":"free"},{"bike_id":"067f72eb-f2f8-4229-9f25-2784bb7c6730","system_id":"levelo_inurba_marseille","lat":43.316828,"lon":5.404723,"is_reserved":false,"is_disabled":false,"rental_uris":{"android":"levelo://app?vid=067f72eb-f2f8-4229-9f25-2784bb7c6730","ios":"levelo://app?vid=067f72eb-f2f8-4229-9f25-2784bb7c6730"},"vehicle_type_id":"4","last_reported":1706339173,"current_range_meters":18400,"station_id":"ce4bh012rcd13ifvqd00","pricing_plan_id":"free"},{"bike_id":"a53bd4c0-701e-4a9b-9632-5ff3b1dd7662","system_id":"levelo_inurba_marseille","lat":43.316861,"lon":5.404703,"is_reserved":false,"is_disabled":false,"rental_uris":{"android":"levelo://app?vid=a53bd4c0-701e-4a9b-9632-5ff3b1dd7662","ios":"levelo://app?vid=a53bd4c0-701e-4a9b-9632-5ff3b1dd7662"},"vehicle_type_id":"4","last_reported":1706339173,"current_range_meters":8400,"station_id":"ce4bh012rcd13ifvqd00","pricing_plan_id":"free"},{"bike_id":"2251fc59-2828-4aff-966d-0a6777ecbd36","system_id":"levelo_inurba_marseille","lat":43.316919,"lon":5.404699,"is_reserved":false,"is_disabled":false,"rental_uris":{"android":"levelo://app?vid=2251fc59-2828-4aff-966d-0a6777ecbd36","ios":"levelo://app?vid=2251fc59-2828-4aff-966d-0a6777ecbd36"},"vehicle_type_id":"4","last_reported":1706339173,"current_range_meters":7600,"station_id":"ce4bh012rcd13ifvqd00","pricing_plan_id":"free"},{"bike_id":"c011c8ab-84d3-4588-a847-3df4c973ed80","system_id":"levelo_inurba_marseille","lat":43.316828,"lon":5.404723,"is_reserved":false,"is_disabled":false,"rental_uris":{"android":"levelo://app?vid=c011c8ab-84d3-4588-a847-3df4c973ed80","ios":"levelo://app?vid=c011c8ab-84d3-4588-a847-3df4c973ed80"},"vehicle_type_id":"4","last_reported":1706339173,"current_range_meters":13600,"station_id":"ce4bh012rcd13ifvqd00","pricing_plan_id":"free"},{"bike_id":"374b6022-e143-4f7b-8c2f-48a77247f7e7","system_id":"levelo_inurba_marseille","lat":43.31693,"lon":5.40472,"is_reserved":false,"is_disabled":false,"rental_uris":{"android":"levelo://app?vid=374b6022-e143-4f7b-8c2f-48a77247f7e7","ios":"levelo://app?vid=374b6022-e143-4f7b-8c2f-48a77247f7e7"},"vehicle_type_id":"4","last_reported":1706339173,"current_range_meters":3200,"station_id":"ce4bh012rcd13ifvqd00","pricing_plan_id":"free"},{"bike_id":"4eddbdfe-93cf-4221-bb9d-31b393a2d4e0","system_id":"levelo_inurba_marseille","lat":43.316828,"lon":5.404723,"is_reserved":false,"is_disabled":false,"rental_uris":{"android":"levelo://app?vid=4eddbdfe-93cf-4221-bb9d-31b393a2d4e0","ios":"levelo://app?vid=4eddbdfe-93cf-4221-bb9d-31b393a2d4e0"},"vehicle_type_id":"4","last_reported":1706339173,"current_range_meters":20000,"station_id":"ce4bh012rcd13ifvqd00","pricing_plan_id":"free"},{"bike_id":"162575f2-9df5-4589-909a-0a21141a2d84","system_id":"levelo_inurba_marseille","lat":43.291994,"lon":5.392907,"is_reserved":false,"is_disabled":false,"rental_uris":{"android":"levelo://app?vid=162575f2-9df5-4589-909a-0a21141a2d84","ios":"levelo://app?vid=162575f2-9df5-4589-909a-0a21141a2d84"},"vehicle_type_id":"4","last_reported":1706339173,"current_range_meters":23200,"station_id":"ce4bh192rcd13ifvqdd0","pricing_plan_id":"free"},{"bike_id":"80b82f46-4e87-4a84-968e-fe9c546b9a87","system_id":"levelo_inurba_marseille","lat":43.28468,"lon":5.35876,"is_reserved":false,"is_disabled":false,"rental_uris":{"android":"levelo://app?vid=80b82f46-4e87-4a84-968e-fe9c546b9a87","ios":"levelo://app?vid=80b82f46-4e87-4a84-968e-fe9c546b9a87"},"vehicle_type_id":"4","last_reported":1706339173,"current_range_meters":28800,"station_id":"ce4bhah2rcd13ifvqei0","pricing_plan_id":"free"},{"bike_id":"7b8610ad-df41-4fc3-8d70-b368302fad68","system_id":"levelo_inurba_marseille","lat":43.28467,"lon":5.3588,"is_reserved":false,"is_disabled":false,"rental_uris":{"android":"levelo://app?vid=7b8610ad-df41-4fc3-8d70-b368302fad68","ios":"levelo://app?vid=7b8610ad-df41-4fc3-8d70-b368302fad68"},"vehicle_type_id":"4","last_reported":1706339173,"current_range_meters":31200,"station_id":"ce4bhah2rcd13ifvqei0","pricing_plan_id":"free"},{"bike_id":"fa9a378e-2b9d-4b25-bf49-4396f1d4f633","system_id":"levelo_inurba_marseille","lat":43.28465,"lon":5.35883,"is_reserved":false,"is_disabled":false,"rental_uris":{"android":"levelo://app?vid=fa9a378e-2b9d-4b25-bf49-4396f1d4f633","ios":"levelo://app?vid=fa9a378e-2b9d-4b25-bf49-4396f1d4f633"},"vehicle_type_id":"4","last_reported":1706339173,"current_range_meters":28400,"station_id":"ce4bhah2rcd13ifvqei0","pricing_plan_id":"free"},{"bike_id":"56ffc8fd-0c48-459a-954b-3a3deaffcfeb","system_id":"levelo_inurba_marseille","lat":43.284641,"lon":5.358858,"is_reserved":false,"is_disabled":false,"rental_uris":{"android":"levelo://app?vid=56ffc8fd-0c48-459a-954b-3a3deaffcfeb","ios":"levelo://app?vid=56ffc8fd-0c48-459a-954b-3a3deaffcfeb"},"vehicle_type_id":"4","last_reported":1706339173,"current_range_meters":31200,"station_id":"ce4bhah2rcd13ifvqei0","pricing_plan_id":"free"},{"bike_id":"cc9abdb4-1d97-4ced-abb7-ad709664dd7c","system_id":"levelo_inurba_marseille","lat":43.284639,"lon":5.358848,"is_reserved":false,"is_disabled":false,"rental_uris":{"android":"levelo://app?vid=cc9abdb4-1d97-4ced-abb7-ad709664dd7c","ios":"levelo://app?vid=cc9abdb4-1d97-4ced-abb7-ad709664dd7c"},"vehicle_type_id":"4","last_reported":1706339173,"current_range_meters":5200,"station_id":"ce4bhah2rcd13ifvqei0","pricing_plan_id":"free"},{"bike_id":"71142f29-2e80-4d73-930d-6b58e0cf1dfd","system_id":"levelo_inurba_marseille","lat":43.284632,"lon":5.35887,"is_reserved":false,"is_disabled":false,"rental_uris":{"android":"levelo://app?vid=71142f29-2e80-4d73-930d-6b58e0cf1dfd","ios":"levelo://app?vid=71142f29-2e80-4d73-930d-6b58e0cf1dfd"},"vehicle_type_id":"4","last_reported":1706339173,"current_range_meters":30000,"station_id":"ce4bhah2rcd13ifvqei0","pricing_plan_id":"free"},{"bike_id":"f5aa2d10-9888-4799-8737-378a432eac3f","system_id":"levelo_inurba_marseille","lat":43.284601,"lon":5.358862,"is_reserved":false,"is_disabled":false,"rental_uris":{"android":"levelo://app?vid=f5aa2d10-9888-4799-8737-378a432eac3f","ios":"levelo://app?vid=f5aa2d10-9888-4799-8737-378a432eac3f"},"vehicle_type_id":"4","last_reported":1706339173,"current_range_meters":27200,"station_id":"ce4bhah2rcd13ifvqei0","pricing_plan_id":"free"},{"bike_id":"797d711e-1a1e-4c18-a0ca-1c7ce65474c3","system_id":"levelo_inurba_marseille","lat":43.284583,"lon":5.358907,"is_reserved":false,"is_disabled":false,"rental_uris":{"android":"levelo://app?vid=797d711e-1a1e-4c18-a0ca-1c7ce65474c3","ios":"levelo://app?vid=797d711e-1a1e-4c18-a0ca-1c7ce65474c3"},"vehicle_type_id":"4","last_reported":1706339173,"current_range_meters":31200,"station_id":"ce4bhah2rcd13ifvqei0","pricing_plan_id":"free"},{"bike_id":"98d6564a-1986-4742-b3eb-ea560d383324","system_id":"levelo_inurba_marseille","lat":43.284534,"lon":5.358662,"is_reserved":false,"is_disabled":false,"rental_uris":{"android":"levelo://app?vid=98d6564a-1986-4742-b3eb-ea560d383324","ios":"levelo://app?vid=98d6564a-1986-4742-b3eb-ea560d383324"},"vehicle_type_id":"4","last_reported":1706339173,"current_range_meters":28000,"station_id":"ce4bhah2rcd13ifvqei0","pricing_plan_id":"free"},{"bike_id":"afb8e961-87ff-4a0b-86b8-e21758c33c91","system_id":"levelo_inurba_marseille","lat":43.284578,"lon":5.358847,"is_reserved":false,"is_disabled":false,"rental_uris":{"android":"levelo://app?vid=afb8e961-87ff-4a0b-86b8-e21758c33c91","ios":"levelo://app?vid=afb8e961-87ff-4a0b-86b8-e21758c33c91"},"vehicle_type_id":"4","last_reported":1706339173,"current_range_meters":24800,"station_id":"ce4bhah2rcd13ifvqei0","pricing_plan_id":"free"},{"bike_id":"8d18cb27-8bef-4e98-8434-ef651ee0335a","system_id":"levelo_inurba_marseille","lat":43.28455,"lon":5.35895,"is_reserved":false,"is_disabled":false,"rental_uris":{"android":"levelo://app?vid=8d18cb27-8bef-4e98-8434-ef651ee0335a","ios":"levelo://app?vid=8d18cb27-8bef-4e98-8434-ef651ee0335a"},"vehicle_type_id":"4","last_reported":1706339173,"current_range_meters":27600,"station_id":"ce4bhah2rcd13ifvqei0","pricing_plan_id":"free"},{"bike_id":"1a1884a4-4521-4176-b2d8-09e549334186","system_id":"levelo_inurba_marseille","lat":43.28452,"lon":5.35899,"is_reserved":false,"is_disabled":false,"rental_uris":{"android":"levelo://app?vid=1a1884a4-4521-4176-b2d8-09e549334186","ios":"levelo://app?vid=1a1884a4-4521-4176-b2d8-09e549334186"},"vehicle_type_id":"4","last_reported":1706339173,"current_range_meters":20400,"station_id":"ce4bhah2rcd13ifvqei0","pricing_plan_id":"free"},{"bike_id":"4edbb916-17e8-4f4d-9ce5-2a59dd0b3d9f","system_id":"levelo_inurba_marseille","lat":43.28453,"lon":5.35891,"is_reserved":false,"is_disabled":false,"rental_uris":{"android":"levelo://app?vid=4edbb916-17e8-4f4d-9ce5-2a59dd0b3d9f","ios":"levelo://app?vid=4edbb916-17e8-4f4d-9ce5-2a59dd0b3d9f"},"vehicle_type_id":"4","last_reported":1706339173,"current_range_meters":4400,"station_id":"ce4bhah2rcd13ifvqei0","pricing_plan_id":"free"},{"bike_id":"a0410c20-f599-43da-b27d-8f5fb725b590","system_id":"levelo_inurba_marseille","lat":43.284538,"lon":5.358657,"is_reserved":false,"is_disabled":false,"rental_uris":{"android":"levelo://app?vid=a0410c20-f599-43da-b27d-8f5fb725b590","ios":"levelo://app?vid=a0410c20-f599-43da-b27d-8f5fb725b590"},"vehicle_type_id":"4","last_reported":1706339173,"current_range_meters":21600,"station_id":"ce4bhah2rcd13ifvqei0","pricing_plan_id":"free"},{"bike_id":"aa453e07-1f9d-43a1-aeb4-4003e3dc2b47","system_id":"levelo_inurba_marseille","lat":43.285848,"lon":5.350787,"is_reserved":false,"is_disabled":false,"rental_uris":{"android":"levelo://app?vid=aa453e07-1f9d-43a1-aeb4-4003e3dc2b47","ios":"levelo://app?vid=aa453e07-1f9d-43a1-aeb4-4003e3dc2b47"},"vehicle_type_id":"4","last_reported":1706339173,"current_range_meters":30800,"station_id":"ce4bhch2rcd13ifvqeug","pricing_plan_id":"free"},{"bike_id":"25e1b4f3-0b71-4761-b336-9c3fa9cc345d","system_id":"levelo_inurba_marseille","lat":43.28616,"lon":5.35102,"is_reserved":false,"is_disabled":false,"rental_uris":{"android":"levelo://app?vid=25e1b4f3-0b71-4761-b336-9c3fa9cc345d","ios":"levelo://app?vid=25e1b4f3-0b71-4761-b336-9c3fa9cc345d"},"vehicle_type_id":"4","last_reported":1706339173,"current_range_meters":12800,"station_id":"ce4bhch2rcd13ifvqeug","pricing_plan_id":"free"},{"bike_id":"55993c3f-eb92-4bc7-9c66-80f3e0ea39aa","system_id":"levelo_inurba_marseille","lat":43.286147,"lon":5.351016,"is_reserved":false,"is_disabled":false,"rental_uris":{"android":"levelo://app?vid=55993c3f-eb92-4bc7-9c66-80f3e0ea39aa","ios":"levelo://app?vid=55993c3f-eb92-4bc7-9c66-80f3e0ea39aa"},"vehicle_type_id":"4","last_reported":1706339173,"current_range_meters":31200,"station_id":"ce4bhch2rcd13ifvqeug","pricing_plan_id":"free"},{"bike_id":"32562790-2b73-4515-8163-bab4c08f678a","system_id":"levelo_inurba_marseille","lat":43.286157,"lon":5.350983,"is_reserved":false,"is_disabled":false,"rental_uris":{"android":"levelo://app?vid=32562790-2b73-4515-8163-bab4c08f678a","ios":"levelo://app?vid=32562790-2b73-4515-8163-bab4c08f678a"},"vehicle_type_id":"4","last_reported":1706339173,"current_range_meters":24800,"station_id":"ce4bhch2rcd13ifvqeug","pricing_plan_id":"free"},{"bike_id":"97766269-ff63-4f7a-9ec9-2b869b957851","system_id":"levelo_inurba_marseille","lat":43.28609,"lon":5.35102,"is_reserved":false,"is_disabled":false,"rental_uris":{"android":"levelo://app?vid=97766269-ff63-4f7a-9ec9-2b869b957851","ios":"levelo://app?vid=97766269-ff63-4f7a-9ec9-2b869b957851"},"vehicle_type_id":"4","last_reported":1706339173,"current_range_meters":13600,"station_id":"ce4bhch2rcd13ifvqeug","pricing_plan_id":"free"},{"bike_id":"eccb0f66-d6aa-45e2-ab66-74ef999b9097","system_id":"levelo_inurba_marseille","lat":43.284168,"lon":5.375161,"is_reserved":false,"is_disabled":false,"rental_uris":{"android":"levelo://app?vid=eccb0f66-d6aa-45e2-ab66-74ef999b9097","ios":"levelo://app?vid=eccb0f66-d6aa-45e2-ab66-74ef999b9097"},"vehicle_type_id":"4","last_reported":1706339173,"current_range_meters":0,"station_id":"ce4bh412rcd13ifvqds0","pricing_plan_id":"free"},{"bike_id":"59075b31-cd2c-4091-b6ad-fa6f54d78034","system_id":"levelo_inurba_marseille","lat":43.283998,"lon":5.375062,"is_reserved":false,"is_disabled":false,"rental_uris":{"android":"levelo://app?vid=59075b31-cd2c-4091-b6ad-fa6f54d78034","ios":"levelo://app?vid=59075b31-cd2c-4091-b6ad-fa6f54d78034"},"vehicle_type_id":"4","last_reported":1706339173,"current_range_meters":30000,"station_id":"ce4bh412rcd13ifvqds0","pricing_plan_id":"free"},{"bike_id":"ce355b34-2912-4555-a4fa-d29c260cc901","system_id":"levelo_inurba_marseille","lat":43.28413,"lon":5.37498,"is_reserved":false,"is_disabled":false,"rental_uris":{"android":"levelo://app?vid=ce355b34-2912-4555-a4fa-d29c260cc901","ios":"levelo://app?vid=ce355b34-2912-4555-a4fa-d29c260cc901"},"vehicle_type_id":"4","last_reported":1706339173,"current_range_meters":24400,"station_id":"ce4bh412rcd13ifvqds0","pricing_plan_id":"free"},{"bike_id":"2fa0db0a-3220-4039-88a3-57a4c27a7fe7","system_id":"levelo_inurba_marseille","lat":43.284143,"lon":5.37519,"is_reserved":false,"is_disabled":false,"rental_uris":{"android":"levelo://app?vid=2fa0db0a-3220-4039-88a3-57a4c27a7fe7","ios":"levelo://app?vid=2fa0db0a-3220-4039-88a3-57a4c27a7fe7"},"vehicle_type_id":"4","last_reported":1706339173,"current_range_meters":16400,"station_id":"ce4bh412rcd13ifvqds0","pricing_plan_id":"free"},