{"last_updated":1735312091,"ttl":60,"version":"2.2","data":{"bikes":[{"bike_id":"19a455ec-6544-47c3-8e0d-bc953fe1fb24","system_id":"levelo_inurba_marseille","lat":43.2815,"lon":5.4264,"is_reserved":false,"is_disabled":false,"rental_uris":{"android":"levelo://app?vid=19a455ec-6544-47c3-8e0d-bc953fe1fb24","ios":"levelo://app?vid=19a455ec-6544-47c3-8e0d-bc953fe1fb24"},"vehicle_type_id":"4","last_reported":1735312091,"current_range_meters":24000,"station_id":"ce4bhnh2rcd13ifvqgug","pricing_plan_id":"cebpf4jnsgd1na2vs0mg"},{"bike_id":"d041f2f2-9068-4e64-b5bd-8f32d02eb035","system_id":"levelo_inurba_marseille","lat":43.29582,"lon":5.36738,"is_reserved":false,"is_disabled":false,"rental_uris":{"android":"levelo://app?vid=d041f2f2-9068-4e64-b5bd-8f32d02eb035","ios":"levelo://app?vid=d041f2f2-9068-4e64-b5bd-8f32d02eb035"},"vehicle_type_id":"4","last_reported":1735312091,"current_range_meters":38800,"station_id":"ce4bgph2rcd13ifvqc2g","pricing_plan_id":"cebpf4jnsgd1na2vs0mg"},{"bike_id":"f52c2897-0e1e-4374-ae77-9ce773cee8d5","system_id":"levelo_inurba_marseille","lat":43.27901,"lon":5.38001,"is_reserved":false,"is_disabled":false,"rental_uris":{"android":"levelo://app?vid=f52c2897-0e1e-4374-ae77-9ce773cee8d5","ios":"levelo://app?vid=f52c2897-0e1e-4374-ae77-9ce773cee8d5"},"vehicle_type_id":"4","last_reported":1735312091,"current_range_meters":33200,"station_id":"ce4bhf92rcd13ifvqf50","pricing_plan_id":"cebpf4jnsgd1na2vs0mg"},{"bike_id":"015f3506-0edf-4591-879e-490275f7a7d2","system_id":"levelo_inurba_marseille","lat":43.23965,"lon":5.36636,"is_reserved":false,"is_disabled":false,"rental_uris":{"android":"levelo://app?vid=015f3506-0edf-4591-879e-490275f7a7d2","ios":"levelo://app?vid=015f3506-0edf-4591-879e-490275f7a7d2"},"vehicle_type_id":"4","last_reported":1735312091,"current_range_meters":24800,"station_id":"ce4bhi12rcd13ifvqfp0","pricing_plan_id":"cebpf4jnsgd1na2vs0mg"},{"bike_id":"43018bbb-f5df-4f0b-b23d-13d1a6852495","system_id":"levelo_inurba_marseille","lat":43.28914,"lon":5.36651,"is_reserved":false,"is_disabled":false,"rental_uris":{"android":"levelo://app?vid=43018bbb-f5df-4f0b-b23d-13d1a6852495","ios":"levelo://app?vid=43018bbb-f5df-4f0b-b23d-13d1a6852495"},"vehicle_type_id":"4","last_reported":1735312091,"current_range_meters":38000,"station_id":"ce4bhap2rcd13ifvqek0","pricing_plan_id":"cebpf4jnsgd1na2vs0mg"},{"bike_id":"2b592331-6e0f-4410-af9b-ae9a7c72d5e1","system_id":"levelo_inurba_marseille","lat":43.29824,"lon":5.38091,"is_reserved":false,"is_disabled":false,"rental_uris":{"android":"levelo://app?vid=2b592331-6e0f-4410-af9b-ae9a7c72d5e1","ios":"levelo://app?vid=2b592331-6e0f-4410-af9b-ae9a7c72d5e1"},"vehicle_type_id":"4","last_reported":1735312091,"current_range_meters":38800,"station_id":"ce4bgip2rcd13ifvqbb0","pricing_plan_id":"cebpf4jnsgd1na2vs0mg"},{"bike_id":"c5ae2603-f401-40f4-955e-2701cd69408d","system_id":"levelo_inurba_marseille","lat":43.27943,"lon":5.41046,"is_reserved":false,"is_disabled":false,"rental_uris":{"android":"levelo://app?vid=c5ae2603-f401-40f4-955e-2701cd69408d","ios":"levelo://app?vid=c5ae2603-f401-40f4-955e-2701cd69408d"},"vehicle_type_id":"4","last_reported":1735312091,"current_range_meters":6000,"station_id":"ce4bhnp2rcd13ifvqh0g","pricing_plan_id":"cebpf4jnsgd1na2vs0mg"},{"bike_id":"3991aac2-ec7f-43c8-801f-23e11845f2d6","system_id":"levelo_inurba_marseille","lat":43.28152,"lon":5.42661,"is_reserved":false,"is_disabled":false,"rental_uris":{"android":"levelo://app?vid=3991aac2-ec7f-43c8-801f-23e11845f2d6","ios":"levelo://app?vid=3991aac2-ec7f-43c8-801f-23e11845f2d6"},"vehicle_type_id":"4","last_reported":1735312091,"current_range_meters":38800,"station_id":"ce4bhnh2rcd13ifvqgug","pricing_plan_id":"cebpf4jnsgd1na2vs0mg"},{"bike_id":"221ba48f-d8fe-4a93-b923-6a469ee17004","system_id":"levelo_inurba_marseille","lat":43.26793,"lon":5.39407,"is_reserved":false,"is_disabled":false,"rental_uris":{"android":"levelo://app?vid=221ba48f-d8fe-4a93-b923-6a469ee17004","ios":"levelo://app?vid=221ba48f-d8fe-4a93-b923-6a469ee17004"},"vehicle_type_id":"4","last_reported":1735312091,"current_range_meters":38000,"station_id":"ce4bhh12rcd13ifvqfg0","pricing_plan_id":"cebpf4jnsgd1na2vs0mg"},{"bike_id":"aa910906-3ca2-4107-80e1-4fe46d1472a6","system_id":"levelo_inurba_marseille","lat":43.3204,"lon":5.41568,"is_reserved":false,"is_disabled":false,"rental_uris":{"android":"levelo://app?vid=aa910906-3ca2-4107-80e1-4fe46d1472a6","ios":"levelo://app?vid=aa910906-3ca2-4107-80e1-4fe46d1472a6"},"vehicle_type_id":"4","last_reported":1735312091,"current_range_meters":34800,"station_id":"ce4bhq92rcd13ifvqhkg","pricing_plan_id":"cebpf4jnsgd1na2vs0mg"},{"bike_id":"6ce1c022-acc8-490f-a6d1-40494c9ad385","system_id":"levelo_inurba_marseille","lat":43.25721,"lon":5.411,"is_reserved":false,"is_disabled":false,"rental_uris":{"android":"levelo://app?vid=6ce1c022-acc8-490f-a6d1-40494c9ad385","ios":"levelo://app?vid=6ce1c022-acc8-490f-a6d1-40494c9ad385"},"vehicle_type_id":"4","last_reported":1735312091,"current_range_meters":35600,"station_id":"ce4bhkp2rcd13ifvqgd0","pricing_plan_id":"cebpf4jnsgd1na2vs0mg"},{"bike_id":"9e3649a1-b7ce-402a-9c6e-e69be91c3b25","system_id":"levelo_inurba_marseille","lat":43.26203,"lon":5.37928,"is_reserved":false,"is_disabled":true,"rental_uris":{"android":"levelo://app?vid=9e3649a1-b7ce-402a-9c6e-e69be91c3b25","ios":"levelo://app?vid=9e3649a1-b7ce-402a-9c6e-e69be91c3b25"},"vehicle_type_id":"4","last_reported":1735312091,"current_range_meters":0,"station_id":"ce4bhjp2rcd13ifvqg90","pricing_plan_id":"cebpf4jnsgd1na2vs0mg"},{"bike_id":"cb35f7d8-c204-4a7f-801e-8a8f1f547ed7","system_id":"levelo_inurba_marseille","lat":43.2721,"lon":5.39185,"is_reserved":false,"is_disabled":false,"rental_uris":{"android":"levelo://app?vid=cb35f7d8-c204-4a7f-801e-8a8f1f547ed7","ios":"levelo://app?vid=cb35f7d8-c204-4a7f-801e-8a8f1f547ed7"},"vehicle_type_id":"4","last_reported":1735312091,"current_range_meters":38800,"station_id":"ce4bhhp2rcd13ifvqfm0","pricing_plan_id":"cebpf4jnsgd1na2vs0mg"},{"bike_id":"c43fe026-00aa-4f7a-a6b2-502b7802be12","system_id":"levelo_inurba_marseille","lat":43.30546,"lon":5.36528,"is_reserved":false,"is_disabled":false,"rental_uris":{"android":"levelo://app?vid=c43fe026-00aa-4f7a-a6b2-502b7802be12","ios":"levelo://app?vid=c43fe026-00aa-4f7a-a6b2-502b7802be12"},"vehicle_type_id":"4","last_reported":1735312091,"current_range_meters":16000,"station_id":"ce4bgs12rcd13ifvqcag","pricing_plan_id":"cebpf4jnsgd1na2vs0mg"},{"bike_id":"4b0fd93f-ab44-4d17-9609-4abb396d054c","system_id":"levelo_inurba_marseille","lat":43.231925,"lon":5.355535,"is_reserved":false,"is_disabled":false,"rental_uris":{"android":"levelo://app?vid=4b0fd93f-ab44-4d17-9609-4abb396d054c","ios":"levelo://app?vid=4b0fd93f-ab44-4d17-9609-4abb396d054c"},"vehicle_type_id":"4","last_reported":1735312091,"current_range_meters":38800,"station_id":"ce4bhu92rcd13ifvqi70","pricing_plan_id":"cebpf4jnsgd1na2vs0mg"},{"bike_id":"0d1a290a-5fe1-4374-9cc0-659193d3d110","system_id":"levelo_inurba_marseille","lat":43.27338,"lon":5.39086,"is_reserved":false,"is_disabled":false,"rental_uris":{"android":"levelo://app?vid=0d1a290a-5fe1-4374-9cc0-659193d3d110","ios":"levelo://app?vid=0d1a290a-5fe1-4374-9cc0-659193d3d110"},"vehicle_type_id":"4","last_reported":1735312091,"current_range_meters":20400,"station_id":"ce4bhgp2rcd13ifvqfe0","pricing_plan_id":"cebpf4jnsgd1na2vs0mg"},{"bike_id":"eab97c06-cf43-4913-af3b-23975aa171de","system_id":"levelo_inurba_marseille","lat":43.23963,"lon":5.3663,"is_reserved":false,"is_disabled":false,"rental_uris":{"android":"levelo://app?vid=eab97c06-cf43-4913-af3b-23975aa171de","ios":"levelo://app?vid=eab97c06-cf43-4913-af3b-23975aa171de"},"vehicle_type_id":"4","last_reported":1735312091,"current_range_meters":14800,"station_id":"ce4bhi12rcd13ifvqfp0","pricing_plan_id":"cebpf4jnsgd1na2vs0mg"},{"bike_id":"c4291b18-841c-47d1-b17c-99016ab7f166","system_id":"levelo_inurba_marseille","lat":43.28267,"lon":5.35075,"is_reserved":false,"is_disabled":false,"rental_uris":{"android":"levelo://app?vid=c4291b18-841c-47d1-b17c-99016ab7f166","ios":"levelo://app?vid=c4291b18-841c-47d1-b17c-99016ab7f166"},"vehicle_type_id":"4","last_reported":1735312091,"current_range_meters":20800,"station_id":"ce4bhbp2rcd13ifvqerg","pricing_plan_id":"cebpf4jnsgd1na2vs0mg"},{"bike_id":"7f93e1bc-e16a-489d-9145-2eb1c430ec73","system_id":"levelo_inurba_marseille","lat":43.29711,"lon":5.36592,"is_reserved":false,"is_disabled":false,"rental_uris":{"android":"levelo://app?vid=7f93e1bc-e16a-489d-9145-2eb1c430ec73","ios":"levelo://app?vid=7f93e1bc-e16a-489d-9145-2eb1c430ec73"},"vehicle_type_id":"4","last_reported":1735312091,"current_range_meters":38000,"station_id":"ce4bgn12rcd13ifvqbt0","pricing_plan_id":"cebpf4jnsgd1na2vs0mg"},{"bike_id":"0cdab610-e5ce-49e9-a2be-9d2724d4228a","system_id":"levelo_inurba_marseille","lat":43.29779,"lon":5.38107,"is_reserved":false,"is_disabled":false,"rental_uris":{"android":"levelo://app?vid=0cdab610-e5ce-49e9-a2be-9d2724d4228a","ios":"levelo://app?vid=0cdab610-e5ce-49e9-a2be-9d2724d4228a"},"vehicle_type_id":"4","last_reported":1735312091,"current_range_meters":25600,"station_id":"ce4bgip2rcd13ifvqbb0","pricing_plan_id":"cebpf4jnsgd1na2vs0mg"},{"bike_id":"3fcb2f6f-39f4-445d-a829-8626c3812c7e","system_id":"levelo_inurba_marseille","lat":43.27672,"lon":5.38901,"is_reserved":false,"is_disabled":false,"rental_uris":{"android":"levelo://app?vid=3fcb2f6f-39f4-445d-a829-8626c3812c7e","ios":"levelo://app?vid=3fcb2f6f-39f4-445d-a829-8626c3812c7e"},"vehicle_type_id":"4","last_reported":1735312091,"current_range_meters":26000,"station_id":"ce4bhi12rcd13ifvqfo0","pricing_plan_id":"cebpf4jnsgd1na2vs0mg"},{"bike_id":"54e82adf-653a-40bc-8212-b0e67d34d16f","system_id":"levelo_inurba_marseille","lat":43.29928,"lon":5.36538,"is_reserved":false,"is_disabled":false,"rental_uris":{"android":"levelo://app?vid=54e82adf-653a-40bc-8212-b0e67d34d16f","ios":"levelo://app?vid=54e82adf-653a-40bc-8212-b0e67d34d16f"},"vehicle_type_id":"4","last_reported":1735312091,"current_range_meters":38800,"station_id":"ce4bgm92rcd13ifvqbr0","pricing_plan_id":"cebpf4jnsgd1na2vs0mg"},{"bike_id":"734cf85d-1f99-46de-805c-5d0ba7857cfe","system_id":"levelo_inurba_marseille","lat":43.28563,"lon":5.39499,"is_reserved":false,"is_disabled":false,"rental_uris":{"android":"levelo://app?vid=734cf85d-1f99-46de-805c-5d0ba7857cfe","ios":"levelo://app?vid=734cf85d-1f99-46de-805c-5d0ba7857cfe"},"vehicle_type_id":"4","last_reported":1735312091,"current_range_meters":38800,"station_id":"ce4bh292rcd13ifvqdg0","pricing_plan_id":"cebpf4jnsgd1na2vs0mg"},{"bike_id":"857344dd-6be1-4d34-90e7-6f62afbbef2e","system_id":"levelo_inurba_marseille","lat":43.32109,"lon":5.3677,"is_reserved":false,"is_disabled":false,"rental_uris":{"android":"levelo://app?vid=857344dd-6be1-4d34-90e7-6f62afbbef2e","ios":"levelo://app?vid=857344dd-6be1-4d34-90e7-6f62afbbef2e"},"vehicle_type_id":"4","last_reported":1735312091,"current_range_meters":36800,"station_id":"ce4bhrh2rcd13ifvqhug","pricing_plan_id":"cebpf4jnsgd1na2vs0mg"},{"bike_id":"f4c7fd2b-f500-454b-bc1a-f60806a73c0c","system_id":"levelo_inurba_marseille","lat":43.30146,"lon":5.38074,"is_reserved":false,"is_disabled":false,"rental_uris":{"android":"levelo://app?vid=f4c7fd2b-f500-454b-bc1a-f60806a73c0c","ios":"levelo://app?vid=f4c7fd2b-f500-454b-bc1a-f60806a73c0c"},"vehicle_type_id":"4","last_reported":1735312091,"current_range_meters":20000,"station_id":"ce4bgjp2rcd13ifvqbh0","pricing_plan_id":"cebpf4jnsgd1na2vs0mg"},{"bike_id":"cd4c556a-1ca0-4785-843f-9e0bb52ee97e","system_id":"levelo_inurba_marseille","lat":43.29601,"lon":5.37717,"is_reserved":false,"is_disabled":false,"rental_uris":{"android":"levelo://app?vid=cd4c556a-1ca0-4785-843f-9e0bb52ee97e","ios":"levelo://app?vid=cd4c556a-1ca0-4785-843f-9e0bb52ee97e"},"vehicle_type_id":"4","last_reported":1735312091,"current_range_meters":12800,"station_id":"ce4bgi92rcd13ifvqb90","pricing_plan_id":"cebpf4jnsgd1na2vs0mg"},{"bike_id":"721c1c7f-f5c5-437c-8a8d-3564f4f522ad","system_id":"levelo_inurba_marseille","lat":43.30422,"lon":5.39754,"is_reserved":false,"is_disabled":false,"rental_uris":{"android":"levelo://app?vid=721c1c7f-f5c5-437c-8a8d-3564f4f522ad","ios":"levelo://app?vid=721c1c7f-f5c5-437c-8a8d-3564f4f522ad"},"vehicle_type_id":"4","last_reported":1735312091,"current_range_meters":38800,"station_id":"ce4bh092rcd13ifvqd20","pricing_plan_id":"cebpf4jnsgd1na2vs0mg"},{"bike_id":"4bd7f16b-a13a-408c-8f0b-645b687ee475","system_id":"levelo_inurba_marseille","lat":43.24081,"lon":5.37756,"is_reserved":false,"is_disabled":false,"rental_uris":{"android":"levelo://app?vid=4bd7f16b-a13a-408c-8f0b-645b687ee475","ios":"levelo://app?vid=4bd7f16b-a13a-408c-8f0b-645b687ee475"},"vehicle_type_id":"4","last_reported":1735312091,"current_range_meters":36400,"station_id":"ce4bhnp2rcd13ifvqgvg","pricing_plan_id":"cebpf4jnsgd1na2vs0mg"},{"bike_id":"ad66ce9d-e2b2-4064-ae7f-fe87403c632b","system_id":"levelo_inurba_marseille","lat":43.23063,"lon":5.35493,"is_reserved":false,"is_disabled":false,"rental_uris":{"android":"levelo://app?vid=ad66ce9d-e2b2-4064-ae7f-fe87403c632b","ios":"levelo://app?vid=ad66ce9d-e2b2-4064-ae7f-fe87403c632b"},"vehicle_type_id":"4","last_reported":1735312091,"current_range_meters":24800,"station_id":"cpo3342slgdg3j2ifvpg","pricing_plan_id":"cebpf4jnsgd1na2vs0mg"},{"bike_id":"17aea9b0-65da-4c7f-956c-753bcc5f69fb","system_id":"levelo_inurba_marseille","lat":43.29367,"lon":5.37843,"is_reserved":false,"is_disabled":false,"rental_uris":{"android":"levelo://app?vid=17aea9b0-65da-4c7f-956c-753bcc5f69fb","ios":"levelo://app?vid=17aea9b0-65da-4c7f-956c-753bcc5f69fb"},"vehicle_type_id":"4","last_reported":1735312091,"current_range_meters":28800,"station_id":"ce4bgjh2rcd13ifvqbf0","pricing_plan_id":"cebpf4jnsgd1na2vs0mg"},{"bike_id":"88e835d9-fa90-407f-9683-537dff14d659","system_id":"levelo_inurba_marseille","lat":43.24555,"lon":5.39532,"is_reserved":false,"is_disabled":false,"rental_uris":{"android":"levelo://app?vid=88e835d9-fa90-407f-9683-537dff14d659","ios":"levelo://app?vid=88e835d9-fa90-407f-9683-537dff14d659"},"vehicle_type_id":"4","last_reported":1735312091,"current_range_meters":26000,"station_id":"ce4bhlp2rcd13ifvqgjg","pricing_plan_id":"cebpf4jnsgd1na2vs0mg"},{"bike_id":"56b6b8fe-7ba0-44c1-9ed1-0f7ea82c8919","system_id":"levelo_inurba_marseille","lat":43.29569,"lon":5.375,"is_reserved":false,"is_disabled":false,"rental_uris":{"android":"levelo://app?vid=56b6b8fe-7ba0-44c1-9ed1-0f7ea82c8919","ios":"levelo://app?vid=56b6b8fe-7ba0-44c1-9ed1-0f7ea82c8919"},"vehicle_type_id":"4","last_reported":1735312091,"current_range_meters":38800,"station_id":"ce4bgh92rcd13ifvqb50","pricing_plan_id":"cebpf4jnsgd1na2vs0mg"},{"bike_id":"ced76378-03ce-491e-8851-299c9e2a0e28","system_id":"levelo_inurba_marseille","lat":43.27209,"lon":5.39187,"is_reserved":false,"is_disabled":false,"rental_uris":{"android":"levelo://app?vid=ced76378-03ce-491e-8851-299c9e2a0e28","ios":"levelo://app?vid=ced76378-03ce-491e-8851-299c9e2a0e28"},"vehicle_type_id":"4","last_reported":1735312091,"current_range_meters":38800,"station_id":"ce4bhhp2rcd13ifvqfm0","pricing_plan_id":"cebpf4jnsgd1na2vs0mg"},{"bike_id":"01a5ff22-84d7-4c4a-8c16-3a738f5156aa","system_id":"levelo_inurba_marseille","lat":43.30535,"lon":5.36522,"is_reserved":false,"is_disabled":false,"rental_uris":{"android":"levelo://app?vid=01a5ff22-84d7-4c4a-8c16-3a738f5156aa","ios":"levelo://app?vid=01a5ff22-84d7-4c4a-8c16-3a738f5156aa"},"vehicle_type_id":"4","last_reported":1735312091,"current_range_meters":38800,"station_id":"ce4bgs12rcd13ifvqcag","pricing_plan_id":"cebpf4jnsgd1na2vs0mg"},{"bike_id":"d0533ccb-11ce-46dc-9cca-daa9f7a4985a","system_id":"levelo_inurba_marseille","lat":43.295503,"lon":5.422851,"is_reserved":false,"is_disabled":false,"rental_uris":{"android":"levelo://app?vid=d0533ccb-11ce-46dc-9cca-daa9f7a4985a","ios":"levelo://app?vid=d0533ccb-11ce-46dc-9cca-daa9f7a4985a"},"vehicle_type_id":"4","last_reported":1735312091,"current_range_meters":38800,"station_id":"ce4bhph2rcd13ifvqhdg","pricing_plan_id":"cebpf4jnsgd1na2vs0mg"},{"bike_id":"e83cd2d5-2fe6-4392-98e0-662f8e196681","system_id":"levelo_inurba_marseille","lat":43.26206,"lon":5.37932,"is_reserved":false,"is_disabled":false,"rental_uris":{"android":"levelo://app?vid=e83cd2d5-2fe6-4392-98e0-662f8e196681","ios":"levelo://app?vid=e83cd2d5-2fe6-4392-98e0-662f8e196681"},"vehicle_type_id":"4","last_reported":1735312091,"current_range_meters":38000,"station_id":"ce4bhjp2rcd13ifvqg90","pricing_plan_id":"cebpf4jnsgd1na2vs0mg"},{"bike_id":"9df6a86e-973a-4959-9331-7febd711fb7d","system_id":"levelo_inurba_marseille","lat":43.28926,"lon":5.3664,"is_reserved":false,"is_disabled":false,"rental_uris":{"android":"levelo://app?vid=9df6a86e-973a-4959-9331-7febd711fb7d","ios":"levelo://app?vid=9df6a86e-973a-4959-9331-7febd711fb7d"},"vehicle_type_id":"4","last_reported":1735312091,"current_range_meters":39200,"station_id":"ce4bhap2rcd13ifvqek0","pricing_plan_id":"cebpf4jnsgd1na2vs0mg"},{"bike_id":"3ede3619-15db-4756-9308-7f44c3dca819","system_id":"levelo_inurba_marseille","lat":43.30453,"lon":5.37894,"is_reserved":false,"is_disabled":false,"rental_uris":{"android":"levelo://app?vid=3ede3619-15db-4756-9308-7f44c3dca819","ios":"levelo://app?vid=3ede3619-15db-4756-9308-7f44c3dca819"},"vehicle_type_id":"4","last_reported":1735312091,"current_range_meters":38000,"station_id":"ce4bgup2rcd13ifvqcn0","pricing_plan_id":"cebpf4jnsgd1na2vs0mg"},{"bike_id":"b32fb18a-c8a8-4404-98aa-9a585746a89d","system_id":"levelo_inurba_marseille","lat":43.317766,"lon":5.405839,"is_reserved":false,"is_disabled":false,"rental_uris":{"android":"levelo://app?vid=b32fb18a-c8a8-4404-98aa-9a585746a89d","ios":"levelo://app?vid=b32fb18a-c8a8-4404-98aa-9a585746a89d"},"vehicle_type_id":"4","last_reported":1735312091,"current_range_meters":28400,"station_id":"","pricing_plan_id":"cebpf4jnsgd1na2vs0mg"},{"bike_id":"fb65f68e-01b9-464f-abae-a60e8b871ed3","system_id":"levelo_inurba_marseille","lat":43.279186,"lon":5.395882,"is_reserved":false,"is_disabled":false,"rental_uris":{"android":"levelo://app?vid=fb65f68e-01b9-464f-abae-a60e8b871ed3","ios":"levelo://app?vid=fb65f68e-01b9-464f-abae-a60e8b871ed3"},"vehicle_type_id":"4","last_reported":1735312091,"current_range_meters":27600,"station_id":"ce4bhf92rcd13ifvqf40","pricing_plan_id":"cebpf4jnsgd1na2vs0mg"},{"bike_id":"6dce4481-54c2-4c2f-84d4-7dceb5b23b22","system_id":"levelo_inurba_marseille","lat":43.26793,"lon":5.39418,"is_reserved":false,"is_disabled":false,"rental_uris":{"android":"levelo://app?vid=6dce4481-54c2-4c2f-84d4-7dceb5b23b22","ios":"levelo://app?vid=6dce4481-54c2-4c2f-84d4-7dceb5b23b22"},"vehicle_type_id":"4","last_reported":1735312091,"current_range_meters":35600,"station_id":"ce4bhh12rcd13ifvqfg0","pricing_plan_id":"cebpf4jnsgd1na2vs0mg"},{"bike_id":"caab34a4-5264-4b72-a12f-e55159fe93b6","system_id":"levelo_inurba_marseille","lat":43.27075,"lon":5.42276,"is_reserved":false,"is_disabled":false,"rental_uris":{"android":"levelo://app?vid=caab34a4-5264-4b72-a12f-e55159fe93b6","ios":"levelo://app?vid=caab34a4-5264-4b72-a12f-e55159fe93b6"},"vehicle_type_id":"4","last_reported":1735312091,"current_range_meters":33600,"station_id":"ce4bhk92rcd13ifvqgb0","pricing_plan_id":"cebpf4jnsgd1na2vs0mg"},{"bike_id":"8945d0ae-de7c-47f8-bcb0-1536c9716097","system_id":"levelo_inurba_marseille","lat":43.29521,"lon":5.39029,"is_reserved":false,"is_disabled":true,"rental_uris":{"android":"levelo://app?vid=8945d0ae-de7c-47f8-bcb0-1536c9716097","ios":"levelo://app?vid=8945d0ae-de7c-47f8-bcb0-1536c9716097"},"vehicle_type_id":"4","last_reported":1735312091,"current_range_meters":36000,"station_id":"ce4bh3p2rcd13ifvqdp0","pricing_plan_id":"cebpf4jnsgd1na2vs0mg"},{"bike_id":"fe50a5ce-c05b-410c-af59-7143f0371395","system_id":"levelo_inurba_marseille","lat":43.30154,"lon":5.39853,"is_reserved":false,"is_disabled":false,"rental_uris":{"android":"levelo://app?vid=fe50a5ce-c05b-410c-af59-7143f0371395","ios":"levelo://app?vid=fe50a5ce-c05b-410c-af59-7143f0371395"},"vehicle_type_id":"4","last_reported":1735312091,"current_range_meters":38800,"station_id":"ce4bh0h2rcd13ifvqd40","pricing_plan_id":"cebpf4jnsgd1na2vs0mg"},{"bike_id":"71d370eb-36d3-4b16-a166-aa4873ad2504","system_id":"levelo_inurba_marseille","lat":43.273136,"lon":5.390802,"is_reserved":false,"is_disabled":false,"rental_uris":{"android":"levelo://app?vid=71d370eb-36d3-4b16-a166-aa4873ad2504","ios":"levelo://app?vid=71d370eb-36d3-4b16-a166-aa4873ad2504"},"vehicle_type_id":"4","last_reported":1735312091,"current_range_meters":6400,"station_id":"ce4bhgp2rcd13ifvqfe0","pricing_plan_id":"cebpf4jnsgd1na2vs0mg"},{"bike_id":"2b08ca99-c6f3-4395-ab2d-aeebc3305aa4","system_id":"levelo_inurba_marseille","lat":43.3376,"lon":5.37445,"is_reserved":false,"is_disabled":false,"rental_uris":{"android":"levelo://app?vid=2b08ca99-c6f3-4395-ab2d-aeebc3305aa4","ios":"levelo://app?vid=2b08ca99-c6f3-4395-ab2d-aeebc3305aa4"},"vehicle_type_id":"4","last_reported":1735312091,"current_range_meters":38400,"station_id":"","pricing_plan_id":"cebpf4jnsgd1na2vs0mg"},{"bike_id":"33525228-07ab-4bce-acad-04f53fe2124b","system_id":"levelo_inurba_marseille","lat":43.28434,"lon":5.39189,"is_reserved":false,"is_disabled":false,"rental_uris":{"android":"levelo://app?vid=33525228-07ab-4bce-acad-04f53fe2124b","ios":"levelo://app?vid=33525228-07ab-4bce-acad-04f53fe2124b"},"vehicle_type_id":"4","last_reported":1735312091,"current_range_meters":32000,"station_id":"ce4bhoh2rcd13ifvqh5g","pricing_plan_id":"cebpf4jnsgd1na2vs0mg"},{"bike_id":"33e4c278-497a-4992-9269-3f4bd7a2ca60","system_id":"levelo_inurba_marseille","lat":43.29905,"lon":5.37468,"is_reserved":false,"is_disabled":false,"rental_uris":{"android":"levelo://app?vid=33e4c278-497a-4992-9269-3f4bd7a2ca60","ios":"levelo://app?vid=33e4c278-497a-4992-9269-3f4bd7a2ca60"},"vehicle_type_id":"4","last_reported":1735312091,"current_range_meters":39200,"station_id":"ce4bgjh2rcd13ifvqbg0","pricing_plan_id":"cebpf4jnsgd1na2vs0mg"},{"bike_id":"0b7fe5e9-2f66-4cab-b816-ee2852772e79","system_id":"levelo_inurba_marseille","lat":43.30925,"lon":5.4015,"is_reserved":false,"is_disabled":false,"rental_uris":{"android":"levelo://app?vid=0b7fe5e9-2f66-4cab-b816-ee2852772e79","ios":"levelo://app?vid=0b7fe5e9-2f66-4cab-b816-ee2852772e79"},"vehicle_type_id":"4","last_reported":1735312091,"current_range_meters":28000,"station_id":"ce4bgvp2rcd13ifvqct0","pricing_plan_id":"cebpf4jnsgd1na2vs0mg"},{"bike_id":"4e1b440e-dc87-47f0-92e1-32a898eeb09a","system_id":"levelo_inurba_marseille","lat":43.32034,"lon":5.41569,"is_reserved":false,"is_disabled":false,"rental_uris":{"android":"levelo://app?vid=4e1b440e-dc87-47f0-92e1-32a898eeb09a","ios":"levelo://app?vid=4e1b440e-dc87-47f0-92e1-32a898eeb09a"},"vehicle_type_id":"4","last_reported":1735312091,"current_range_meters":8000,"station_id":"ce4bhq92rcd13ifvqhkg","pricing_plan_id":"cebpf4jnsgd1na2vs0mg"},{"bike_id":"3c05e8da-d803-4ee1-9e38-b3f9d89e9be8","system_id":"levelo_inurba_marseille","lat":43.22935,"lon":5.3538,"is_reserved":false,"is_disabled":false,"rental_uris":{"android":"levelo://app?vid=3c05e8da-d803-4ee1-9e38-b3f9d89e9be8","ios":"levelo://app?vid=3c05e8da-d803-4ee1-9e38-b3f9d89e9be8"},"vehicle_type_id":"4","last_reported":1735312091,"current_range_meters":39200,"station_id":"cpo3532slgdg3j2ikp40","pricing_plan_id":"cebpf4jnsgd1na2vs0mg"},{"bike_id":"c0c3e5c6-edc3-41c4-8feb-85aaa21b750a","system_id":"levelo_inurba_marseille","lat":43.320309,"lon":5.415699,"is_reserved":false,"is_disabled":false,"rental_uris":{"android":"levelo://app?vid=c0c3e5c6-edc3-41c4-8feb-85aaa21b750a","ios":"levelo://app?vid=c0c3e5c6-edc3-41c4-8feb-85aaa21b750a"},"vehicle_type_id":"4","last_reported":1735312091,"current_range_meters":38800,"station_id":"ce4bhq92rcd13ifvqhkg","pricing_plan_id":"cebpf4jnsgd1na2vs0mg"},{"bike_id":"953a648f-5d0b-44d0-be14-3a1296ce9ba0","system_id":"levelo_inurba_marseille","lat":43.28363,"lon":5.38625,"is_reserved":false,"is_disabled":false,"rental_uris":{"android":"levelo://app?vid=953a648f-5d0b-44d0-be14-3a1296ce9ba0","ios":"levelo://app?vid=953a648f-5d0b-44d0-be14-3a1296ce9ba0"},"vehicle_type_id":"4","last_reported":1735312091,"current_range_meters":16800,"station_id":"ce4bh492rcd13ifvqdvg","pricing_plan_id":"cebpf4jnsgd1na2vs0mg"},{"bike_id":"18bc1f72-2985-4563-8c4b-a663b4aade98","system_id":"levelo_inurba_marseille","lat":43.28949,"lon":5.36627,"is_reserved":false,"is_disabled":false,"rental_uris":{"android":"levelo://app?vid=18bc1f72-2985-4563-8c4b-a663b4aade98","ios":"levelo://app?vid=18bc1f72-2985-4563-8c4b-a663b4aade98"},"vehicle_type_id":"4","last_reported":1735312091,"current_range_meters":38800,"station_id":"ce4bhap2rcd13ifvqek0","pricing_plan_id":"cebpf4jnsgd1na2vs0mg"},{"bike_id":"ec31cf3c-cb5a-4639-89ed-66c774666725","system_id":"levelo_inurba_marseille","lat":43.25719,"lon":5.41124,"is_reserved":false,"is_disabled":false,"rental_uris":{"android":"levelo://app?vid=ec31cf3c-cb5a-4639-89ed-66c774666725","ios":"levelo://app?vid=ec31cf3c-cb5a-4639-89ed-66c774666725"},"vehicle_type_id":"4","last_reported":1735312091,"current_range_meters":26800,"station_id":"ce4bhkp2rcd13ifvqgd0","pricing_plan_id":"cebpf4jnsgd1na2vs0mg"},{"bike_id":"471f4702-f3a3-45ea-b707-3471a23d2e35","system_id":"levelo_inurba_marseille","lat":43.2416,"lon":5.36392,"is_reserved":false,"is_disabled":false,"rental_uris":{"android":"levelo://app?vid=471f4702-f3a3-45ea-b707-3471a23d2e35","ios":"levelo://app?vid=471f4702-f3a3-45ea-b707-3471a23d2e35"},"vehicle_type_id":"4","last_reported":1735312091,"current_range_meters":9600,"station_id":"cpo36qri1sfpv3e86is0","pricing_plan_id":"cebpf4jnsgd1na2vs0mg"},{"bike_id":"0bf1bf3f-3244-4553-a44a-196fa30249fc","system_id":"levelo_inurba_marseille","lat":43.29679,"lon":5.37311,"is_reserved":false,"is_disabled":false,"rental_uris":{"android":"levelo://app?vid=0bf1bf3f-3244-4553-a44a-196fa30249fc","ios":"levelo://app?vid=0bf1bf3f-3244-4553-a44a-196fa30249fc"},"vehicle_type_id":"4","last_reported":1735312091,"current_range_meters":32400,"station_id":"ce4bgk12rcd13ifvqbj0","pricing_plan_id":"cebpf4jnsgd1na2vs0mg"},{"bike_id":"6a04b905-0891-4e4a-9e63-c7ff29242858","system_id":"levelo_inurba_marseille","lat":43.28394,"lon":5.3752,"is_reserved":false,"is_disabled":false,"rental_uris":{"android":"levelo://app?vid=6a04b905-0891-4e4a-9e63-c7ff29242858","ios":"levelo://app?vid=6a04b905-0891-4e4a-9e63-c7ff29242858"},"vehicle_type_id":"4","last_reported":1735312091,"current_range_meters":11200,"station_id":"ce4bh412rcd13ifvqds0","pricing_plan_id":"cebpf4jnsgd1na2vs0mg"},{"bike_id":"51380689-00d9-4638-9e8c-ba05d22870af","system_id":"levelo_inurba_marseille","lat":43.30131,"lon":5.39855,"is_reserved":false,"is_disabled":false,"rental_uris":{"android":"levelo://app?vid=51380689-00d9-4638-9e8c-ba05d22870af","ios":"levelo://app?vid=51380689-00d9-4638-9e8c-ba05d22870af"},"vehicle_type_id":"4","last_reported":1735312091,"current_range_meters":38800,"station_id":"ce4bh0h2rcd13ifvqd40","pricing_plan_id":"cebpf4jnsgd1na2vs0mg"},{"bike_id":"fc8f1da3-b1e2-4b23-8e38-b05bd9cb00eb","system_id":"levelo_inurba_marseille","lat":43.29676,"lon":5.37296,"is_reserved":false,"is_disabled":false,"rental_uris":{"android":"levelo://app?vid=fc8f1da3-b1e2-4b23-8e38-b05bd9cb00eb","ios":"levelo://app?vid=fc8f1da3-b1e2-4b23-8e38-b05bd9cb00eb"},"vehicle_type_id":"4","last_reported":1735312091,"current_range_meters":35600,"station_id":"ce4bgk12rcd13ifvqbj0","pricing_plan_id":"cebpf4jnsgd1na2vs0mg"},{"bike_id":"fb86dc07-2dc6-4bfa-b85e-9957685650ab","system_id":"levelo_inurba_marseille","lat":43.23062,"lon":5.35492,"is_reserved":false,"is_disabled":false,"rental_uris":{"android":"levelo://app?vid=fb86dc07-2dc6-4bfa-b85e-9957685650ab","ios":"levelo://app?vid=fb86dc07-2dc6-4bfa-b85e-9957685650ab"},"vehicle_type_id":"4","last_reported":1735312091,"current_range_meters":22400,"station_id":"cpo3342slgdg3j2ifvpg","pricing_plan_id":"cebpf4jnsgd1na2vs0mg"},{"bike_id":"d177b97f-9cb5-44b2-b733-700a96a10b48","system_id":"levelo_inurba_marseille","lat":43.30143,"lon":5.37421,"is_reserved":false,"is_disabled":false,"rental_uris":{"android":"levelo://app?vid=d177b97f-9cb5-44b2-b733-700a96a10b48","ios":"levelo://app?vid=d177b97f-9cb5-44b2-b733-700a96a10b48"},"vehicle_type_id":"4","last_reported":1735312091,"current_range_meters":20800,"station_id":"ce4bgs92rcd13ifvqcc0","pricing_plan_id":"cebpf4jnsgd1na2vs0mg"},{"bike_id":"fdae94dd-ad1c-4886-bcec-366c610d9b90","system_id":"levelo_inurba_marseille","lat":43.25724,"lon":5.41114,"is_reserved":false,"is_disabled":false,"rental_uris":{"android":"levelo://app?vid=fdae94dd-ad1c-4886-bcec-366c610d9b90","ios":"levelo://app?vid=fdae94dd-ad1c-4886-bcec-366c610d9b90"},"vehicle_type_id":"4","last_reported":1735312091,"current_range_meters":6800,"station_id":"ce4bhkp2rcd13ifvqgd0","pricing_plan_id":"cebpf4jnsgd1na2vs0mg"},{"bike_id":"69368558-4204-4eaa-a79c-61be1f693387","system_id":"levelo_inurba_marseille","lat":43.29796,"lon":5.40413,"is_reserved":false,"is_disabled":false,"rental_uris":{"android":"levelo://app?vid=69368558-4204-4eaa-a79c-61be1f693387","ios":"levelo://app?vid=69368558-4204-4eaa-a79c-61be1f693387"},"vehicle_type_id":"4","last_reported":1735312091,"current_range_meters":38800,"station_id":"ce4bh112rcd13ifvqd90","pricing_plan_id":"cebpf4jnsgd1na2vs0mg"},{"bike_id":"f717c6a9-46b2-4ee8-8468-f9569b692b66","system_id":"levelo_inurba_marseille","lat":43.29909,"lon":5.37478,"is_reserved":false,"is_disabled":false,"rental_uris":{"android":"levelo://app?vid=f717c6a9-46b2-4ee8-8468-f9569b692b66","ios":"levelo://app?vid=f717c6a9-46b2-4ee8-8468-f9569b692b66"},"vehicle_type_id":"4","last_reported":1735312091,"current_range_meters":32800,"station_id":"ce4bgjh2rcd13ifvqbg0","pricing_plan_id":"cebpf4jnsgd1na2vs0mg"},{"bike_id":"258867d5-6dcc-426b-90e6-82a3c252e630","system_id":"levelo_inurba_marseille","lat":43.29574,"lon":5.37505,"is_reserved":false,"is_disabled":false,"rental_uris":{"android":"levelo://app?vid=258867d5-6dcc-426b-90e6-82a3c252e630","ios":"levelo://app?vid=258867d5-6dcc-426b-90e6-82a3c252e630"},"vehicle_type_id":"4","last_reported":1735312091,"current_range_meters":38000,"station_id":"ce4bgh92rcd13ifvqb50","pricing_plan_id":"cebpf4jnsgd1na2vs0mg"},{"bike_id":"09898dd2-84ad-4911-a21d-d1f0823964b3","system_id":"levelo_inurba_marseille","lat":43.29583,"lon":5.37757,"is_reserved":false,"is_disabled":false,"rental_uris":{"android":"levelo://app?vid=09898dd2-84ad-4911-a21d-d1f0823964b3","ios":"levelo://app?vid=09898dd2-84ad-4911-a21d-d1f0823964b3"},"vehicle_type_id":"4","last_reported":1735312091,"current_range_meters":38800,"station_id":"ce4bgi92rcd13ifvqb90","pricing_plan_id":"cebpf4jnsgd1na2vs0mg"},{"bike_id":"ece6be29-f78d-4549-adf1-762eaf99662a","system_id":"levelo_inurba_marseille","lat":43.27211,"lon":5.39177,"is_reserved":false,"is_disabled":false,"rental_uris":{"android":"levelo://app?vid=ece6be29-f78d-4549-adf1-762eaf99662a","ios":"levelo://app?vid=ece6be29-f78d-4549-adf1-762eaf99662a"},"vehicle_type_id":"4","last_reported":1735312091,"current_range_meters":17200,"station_id":"ce4bhhp2rcd13ifvqfm0","pricing_plan_id":"cebpf4jnsgd1na2vs0mg"},{"bike_id":"40eee063-b95d-4d32-aca8-c581cf8477cf","system_id":"levelo_inurba_marseille","lat":43.25008,"lon":5.38905,"is_reserved":false,"is_disabled":false,"rental_uris":{"android":"levelo://app?vid=40eee063-b95d-4d32-aca8-c581cf8477cf","ios":"levelo://app?vid=40eee063-b95d-4d32-aca8-c581cf8477cf"},"vehicle_type_id":"4","last_reported":1735312091,"current_range_meters":28400,"station_id":"ce4bhgp2rcd13ifvqfd0","pricing_plan_id":"cebpf4jnsgd1na2vs0mg"},{"bike_id":"29ca1805-11c8-4407-b908-0abf57db1b38","system_id":"levelo_inurba_marseille","lat":43.33023,"lon":5.39041,"is_reserved":false,"is_disabled":false,"rental_uris":{"android":"levelo://app?vid=29ca1805-11c8-4407-b908-0abf57db1b38","ios":"levelo://app?vid=29ca1805-11c8-4407-b908-0abf57db1b38"},"vehicle_type_id":"4","last_reported":1735312091,"current_range_meters":34800,"station_id":"ce4bhr92rcd13ifvqhrg","pricing_plan_id":"cebpf4jnsgd1na2vs0mg"},{"bike_id":"c6c61ca9-1703-4aea-9737-adfb7896b213","system_id":"levelo_inurba_marseille","lat":43.29611,"lon":5.37715,"is_reserved":false,"is_disabled":false,"rental_uris":{"android":"levelo://app?vid=c6c61ca9-1703-4aea-9737-adfb7896b213","ios":"levelo://app?vid=c6c61ca9-1703-4aea-9737-adfb7896b213"},"vehicle_type_id":"4","last_reported":1735312091,"current_range_meters":38800,"station_id":"ce4bgi92rcd13ifvqb90","pricing_plan_id":"cebpf4jnsgd1na2vs0mg"},{"bike_id":"02d9720a-6116-424c-96d4-8178e4f37ecf","system_id":"levelo_inurba_marseille","lat":43.29619,"lon":5.37158,"is_reserved":false,"is_disabled":false,"rental_uris":{"android":"levelo://app?vid=02d9720a-6116-424c-96d4-8178e4f37ecf","ios":"levelo://app?vid=02d9720a-6116-424c-96d4-8178e4f37ecf"},"vehicle_type_id":"4","last_reported":1735312091,"current_range_meters":28800,"station_id":"ce4bgnh2rcd13ifvqc0g","pricing_plan_id":"cebpf4jnsgd1na2vs0mg"},{"bike_id":"e23f0746-c9e0-42fb-821e-a43f737e9cb7","system_id":"levelo_inurba_marseille","lat":43.27829,"lon":5.39209,"is_reserved":false,"is_disabled":false,"rental_uris":{"android":"levelo://app?vid=e23f0746-c9e0-42fb-821e-a43f737e9cb7","ios":"levelo://app?vid=e23f0746-c9e0-42fb-821e-a43f737e9cb7"},"vehicle_type_id":"4","last_reported":1735312091,"current_range_meters":38000,"station_id":"ce4bhjp2rcd13ifvqga0","pricing_plan_id":"cebpf4jnsgd1na2vs0mg"},{"bike_id":"6fc39219-982d-4feb-9b3b-e1ba4db40afe","system_id":"levelo_inurba_marseille","lat":43.29597,"lon":5.38082,"is_reserved":false,"is_disabled":false,"rental_uris":{"android":"levelo://app?vid=6fc39219-982d-4feb-9b3b-e1ba4db40afe","ios":"levelo://app?vid=6fc39219-982d-4feb-9b3b-e1ba4db40afe"},"vehicle_type_id":"4","last_reported":1735312091,"current_range_meters":38800,"station_id":"ce4bgl12rcd13ifvqbo0","pricing_plan_id":"cebpf4jnsgd1na2vs0mg"},{"bike_id":"e73e6057-e6e9-407b-a17e-f4e119a96aba","system_id":"levelo_inurba_marseille","lat":43.32105,"lon":5.36775,"is_reserved":false,"is_disabled":false,"rental_uris":{"android":"levelo://app?vid=e73e6057-e6e9-407b-a17e-f4e119a96aba","ios":"levelo://app?vid=e73e6057-e6e9-407b-a17e-f4e119a96aba"},"vehicle_type_id":"4","last_reported":1735312091,"current_range_meters":21600,"station_id":"ce4bhrh2rcd13ifvqhug","pricing_plan_id":"cebpf4jnsgd1na2vs0mg"},{"bike_id":"3ff64cbe-5267-4b47-90a4-ecf84ad2fe1c","system_id":"levelo_inurba_marseille","lat":43.29287,"lon":5.3744,"is_reserved":false,"is_disabled":false,"rental_uris":{"android":"levelo://app?vid=3ff64cbe-5267-4b47-90a4-ecf84ad2fe1c","ios":"levelo://app?vid=3ff64cbe-5267-4b47-90a4-ecf84ad2fe1c"},"vehicle_type_id":"4","last_reported":1735312091,"current_range_meters":38000,"station_id":"ce4bgi12rcd13ifvqb70","pricing_plan_id":"cebpf4jnsgd1na2vs0mg"},{"bike_id":"fd4ed52d-512a-49f4-be09-bed2afc20d92","system_id":"levelo_inurba_marseille","lat":43.32475,"lon":5.36569,"is_reserved":false,"is_disabled":false,"rental_uris":{"android":"levelo://app?vid=fd4ed52d-512a-49f4-be09-bed2afc20d92","ios":"levelo://app?vid=fd4ed52d-512a-49f4-be09-bed2afc20d92"},"vehicle_type_id":"4","last_reported":1735312091,"current_range_meters":24400,"station_id":"ce4bhs12rcd13ifvqhvg","pricing_plan_id":"cebpf4jnsgd1na2vs0mg"},{"bike_id":"4457ac0b-5759-4724-82b6-65c4e675216e","system_id":"levelo_inurba_marseille","lat":43.27809,"lon":5.40714,"is_reserved":false,"is_disabled":false,"rental_uris":{"android":"levelo://app?vid=4457ac0b-5759-4724-82b6-65c4e675216e","ios":"levelo://app?vid=4457ac0b-5759-4724-82b6-65c4e675216e"},"vehicle_type_id":"4","last_reported":1735312091,"current_range_meters":4800,"station_id":"ce4bhnh2rcd13ifvqgtg","pricing_plan_id":"cebpf4jnsgd1na2vs0mg"},{"bike_id":"fa32f3df-6f54-480f-8c4c-897558ffa9df","system_id":"levelo_inurba_marseille","lat":43.27989,"lon":5.41657,"is_reserved":false,"is_disabled":false,"rental_uris":{"android":"levelo://app?vid=fa32f3df-6f54-480f-8c4c-897558ffa9df","ios":"levelo://app?vid=fa32f3df-6f54-480f-8c4c-897558ffa9df"},"vehicle_type_id":"4","last_reported":1735312091,"current_range_meters":26800,"station_id":"ce4bho12rcd13ifvqh1g","pricing_plan_id":"cebpf4jnsgd1na2vs0mg"},{"bike_id":"f63f5337-03ae-46cd-8ef7-915402171e98","system_id":"levelo_inurba_marseille","lat":43.2827,"lon":5.3507,"is_reserved":false,"is_disabled":false,"rental_uris":{"android":"levelo://app?vid=f63f5337-03ae-46cd-8ef7-915402171e98","ios":"levelo://app?vid=f63f5337-03ae-46cd-8ef7-915402171e98"},"vehicle_type_id":"4","last_reported":1735312091,"current_range_meters":24400,"station_id":"ce4bhbp2rcd13ifvqerg","pricing_plan_id":"cebpf4jnsgd1na2vs0mg"},{"bike_id":"2c7b1210-4c8b-48ac-b49f-64e2a4a91518","system_id":"levelo_inurba_marseille","lat":43.22929,"lon":5.35379,"is_reserved":false,"is_disabled":false,"rental_uris":{"android":"levelo://app?vid=2c7b1210-4c8b-48ac-b49f-64e2a4a91518","ios":"levelo://app?vid=2c7b1210-4c8b-48ac-b49f-64e2a4a91518"},"vehicle_type_id":"4","last_reported":1735312091,"current_range_meters":33200,"station_id":"cpo3532slgdg3j2ikp40","pricing_plan_id":"cebpf4jnsgd1na2vs0mg"},{"bike_id":"39c2c987-3b88-4998-bc24-3c208058baed","system_id":"levelo_inurba_marseille","lat":43.29907,"lon":5.37474,"is_reserved":false,"is_disabled":false,"rental_uris":{"android":"levelo://app?vid=39c2c987-3b88-4998-bc24-3c208058baed","ios":"levelo://app?vid=39c2c987-3b88-4998-bc24-3c208058baed"},"vehicle_type_id":"4","last_reported":1735312091,"current_range_meters":28400,"station_id":"ce4bgjh2rcd13ifvqbg0","pricing_plan_id":"cebpf4jnsgd1na2vs0mg"},{"bike_id":"731ba9de-00dd-4cec-ab12-769c3978dcf6","system_id":"levelo_inurba_marseille","lat":43.32035,"lon":5.41571,"is_reserved":false,"is_disabled":false,"rental_uris":{"android":"levelo://app?vid=731ba9de-00dd-4cec-ab12-769c3978dcf6","ios":"levelo://app?vid=731ba9de-00dd-4cec-ab12-769c3978dcf6"},"vehicle_type_id":"4","last_reported":1735312091,"current_range_meters":37600,"station_id":"ce4bhq92rcd13ifvqhkg","pricing_plan_id":"cebpf4jnsgd1na2vs0mg"},{"bike_id":"56e782f4-514e-44d7-93b8-d80474857cfd","system_id":"levelo_inurba_marseille","lat":43.28421,"lon":5.34981,"is_reserved":false,"is_disabled":false,"rental_uris":{"android":"levelo://app?vid=56e782f4-514e-44d7-93b8-d80474857cfd","ios":"levelo://app?vid=56e782f4-514e-44d7-93b8-d80474857cfd"},"vehicle_type_id":"4","last_reported":1735312091,"current_range_meters":26000,"station_id":"ce4bhbh2rcd13ifvqepg","pricing_plan_id":"cebpf4jnsgd1na2vs0mg"},{"bike_id":"96e14c54-0140-4802-a4fb-b66404aabb9d","system_id":"levelo_inurba_marseille","lat":43.29616,"lon":5.37716,"is_reserved":false,"is_disabled":false,"rental_uris":{"android":"levelo://app?vid=96e14c54-0140-4802-a4fb-b66404aabb9d","ios":"levelo://app?vid=96e14c54-0140-4802-a4fb-b66404aabb9d"},"vehicle_type_id":"4","last_reported":1735312091,"current_range_meters":27600,"station_id":"ce4bgi92rcd13ifvqb90","pricing_plan_id":"cebpf4jnsgd1na2vs0mg"},{"bike_id":"5f900647-c14e-451e-b352-f30b00097dda","system_id":"levelo_inurba_marseille","lat":43.30535,"lon":5.36697,"is_reserved":false,"is_disabled":false,"rental_uris":{"android":"levelo://app?vid=5f900647-c14e-451e-b352-f30b00097dda","ios":"levelo://app?vid=5f900647-c14e-451e-b352-f30b00097dda"},"vehicle_type_id":"4","last_reported":1735312091,"current_range_meters":38800,"station_id":"ce4bgrp2rcd13ifvqc9g","pricing_plan_id":"cebpf4jnsgd1na2vs0mg"},{"bike_id":"f523f994-10cd-4740-b49c-26b69297a317","system_id":"levelo_inurba_marseille","lat":43.25581,"lon":5.38239,"is_reserved":false,"is_disabled":false,"rental_uris":{"android":"levelo://app?vid=f523f994-10cd-4740-b49c-26b69297a317","ios":"levelo://app?vid=f523f994-10cd-4740-b49c-26b69297a317"},"vehicle_type_id":"4","last_reported":1735312091,"current_range_meters":36000,"station_id":"ce4bhih2rcd13ifvqfs0","pricing_plan_id":"cebpf4jnsgd1na2vs0mg"},{"bike_id":"9609b93f-d4e4-498f-9877-c06863aef471","system_id":"levelo_inurba_marseille","lat":43.22925,"lon":5.35374,"is_reserved":false,"is_disabled":false,"rental_uris":{"android":"levelo://app?vid=9609b93f-d4e4-498f-9877-c06863aef471","ios":"levelo://app?vid=9609b93f-d4e4-498f-9877-c06863aef471"},"vehicle_type_id":"4","last_reported":1735312091,"current_range_meters":6400,"station_id":"cpo3532slgdg3j2ikp40","pricing_plan_id":"cebpf4jnsgd1na2vs0mg"},{"bike_id":"dad6db58-f5bc-4da2-b0b4-3d5d1002166b","system_id":"levelo_inurba_marseille","lat":43.32115,"lon":5.36769,"is_reserved":false,"is_disabled":false,"rental_uris":{"android":"levelo://app?vid=dad6db58-f5bc-4da2-b0b4-3d5d1002166b","ios":"levelo://app?vid=dad6db58-f5bc-4da2-b0b4-3d5d1002166b"},"vehicle_type_id":"4","last_reported":1735312091,"current_range_meters":16000,"station_id":"ce4bhrh2rcd13ifvqhug","pricing_plan_id":"cebpf4jnsgd1na2vs0mg"},{"bike_id":"39f6bc2c-f37a-4235-b9a6-f4c0803eb487","system_id":"levelo_inurba_marseille","lat":43.29978,"lon":5.37187,"is_reserved":false,"is_disabled":false,"rental_uris":{"android":"levelo://app?vid=39f6bc2c-f37a-4235-b9a6-f4c0803eb487","ios":"levelo://app?vid=39f6bc2c-f37a-4235-b9a6-f4c0803eb487"},"vehicle_type_id":"4","last_reported":1735312091,"current_range_meters":36400,"station_id":"ce4bgr92rcd13ifvqc7g","pricing_plan_id":"cebpf4jnsgd1na2vs0mg"},{"bike_id":"f2e3ed34-0147-4c9f-8085-b1de9cd13964","system_id":"levelo_inurba_marseille","lat":43.29261,"lon":5.38438,"is_reserved":false,"is_disabled":false,"rental_uris":{"android":"levelo://app?vid=f2e3ed34-0147-4c9f-8085-b1de9cd13964","ios":"levelo://app?vid=f2e3ed34-0147-4c9f-8085-b1de9cd13964"},"vehicle_type_id":"4","last_reported":1735312091,"current_range_meters":14400,"station_id":"ce4bh692rcd13ifvqea0","pricing_plan_id":"cebpf4jnsgd1na2vs0mg"},{"bike_id":"962a1d2e-9596-44b4-b390-1549e516e638","system_id":"levelo_inurba_marseille","lat":43.29069,"lon":5.37164,"is_reserved":false,"is_disabled":false,"rental_uris":{"android":"levelo://app?vid=962a1d2e-9596-44b4-b390-1549e516e638","ios":"levelo://app?vid=962a1d2e-9596-44b4-b390-1549e516e638"},"vehicle_type_id":"4","last_reported":1735312091,"current_range_meters":6800,"station_id":"ce4bh5p2rcd13ifvqe4g","pricing_plan_id":"cebpf4jnsgd1na2vs0mg"},{"bike_id":"a3b5e29c-4425-483d-9fe4-2d25fea7803f","system_id":"levelo_inurba_marseille","lat":43.25013,"lon":5.3892,"is_reserved":false,"is_disabled":true,"rental_uris":{"android":"levelo://app?vid=a3b5e29c-4425-483d-9fe4-2d25fea7803f","ios":"levelo://app?vid=a3b5e29c-4425-483d-9fe4-2d25fea7803f"},"vehicle_type_id":"4","last_reported":1735312091,"current_range_meters":32000,"station_id":"ce4bhgp2rcd13ifvqfd0","pricing_plan_id":"cebpf4jnsgd1na2vs0mg"},{"bike_id":"396c5533-5cfa-4087-be42-c0b4bf33858d","system_id":"levelo_inurba_marseille","lat":43.32653,"lon":5.40994,"is_reserved":false,"is_disabled":false,"rental_uris":{"android":"levelo://app?vid=396c5533-5cfa-4087-be42-c0b4bf33858d","ios":"levelo://app?vid=396c5533-5cfa-4087-be42-c0b4bf33858d"},"vehicle_type_id":"4","last_reported":1735312091,"current_range_meters":10800,"station_id":"ce4bhpp2rcd13ifvqhgg","pricing_plan_id":"cebpf4jnsgd1na2vs0mg"},{"bike_id":"5f4a2e38-74b5-4a61-9b7b-9f8a076c61ce","system_id":"levelo_inurba_marseille","lat":43.289323,"lon":5.366315,"is_reserved":false,"is_disabled":false,"rental_uris":{"android":"levelo://app?vid=5f4a2e38-74b5-4a61-9b7b-9f8a076c61ce","ios":"levelo://app?vid=5f4a2e38-74b5-4a61-9b7b-9f8a076c61ce"},"vehicle_type_id":"4","last_reported":1735312091,"current_range_meters":32000,"station_id":"ce4bhap2rcd13ifvqek0","pricing_plan_id":"cebpf4jnsgd1na2vs0mg"},{"bike_id":"2b06f6a3-718e-4d76-9d77-5416c349f969","system_id":"levelo_inurba_marseille","lat":43.27567,"lon":5.38418,"is_reserved":false,"is_disabled":false,"rental_uris":{"android":"levelo://app?vid=2b06f6a3-718e-4d76-9d77-5416c349f969","ios":"levelo://app?vid=2b06f6a3-718e-4d76-9d77-5416c349f969"},"vehicle_type_id":"4","last_reported":1735312091,"current_range_meters":10800,"station_id":"ce4bhh92rcd13ifvqfi0","pricing_plan_id":"cebpf4jnsgd1na2vs0mg"},{"bike_id":"05b253d1-e13a-4205-9339-dc52c4e75f0a","system_id":"levelo_inurba_marseille","lat":43.251056,"lon":5.395283,"is_reserved":false,"is_disabled":false,"rental_uris":{"android":"levelo://app?vid=05b253d1-e13a-4205-9339-dc52c4e75f0a","ios":"levelo://app?vid=05b253d1-e13a-4205-9339-dc52c4e75f0a"},"vehicle_type_id":"4","last_reported":1735312091,"current_range_meters":7200,"station_id":"ce4bhm12rcd13ifvqgkg","pricing_plan_id":"cebpf4jnsgd1na2vs0mg"},{"bike_id":"5da02a2a-679f-48e9-9bcd-11e3cf1bd7c8","system_id":"levelo_inurba_marseille","lat":43.29436,"lon":5.39751,"is_reserved":false,"is_disabled":false,"rental_uris":{"android":"levelo://app?vid=5da02a2a-679f-48e9-9bcd-11e3cf1bd7c8","ios":"levelo://app?vid=5da02a2a-679f-48e9-9bcd-11e3cf1bd7c8"},"vehicle_type_id":"4","last_reported":1735312091,"current_range_meters":26000,"station_id":"ce4bh3h2rcd13ifvqdo0","pricing_plan_id":"cebpf4jnsgd1na2vs0mg"},{"bike_id":"f4e9527f-2a6a-4034-ba51-2be0b8da27ce","system_id":"levelo_inurba_marseille","lat":43.25574,"lon":5.38229,"is_reserved":false,"is_disabled":false,"rental_uris":{"android":"levelo://app?vid=f4e9527f-2a6a-4034-ba51-2be0b8da27ce","ios":"levelo://app?vid=f4e9527f-2a6a-4034-ba51-2be0b8da27ce"},"vehicle_type_id":"4","last_reported":1735312091,"current_range_meters":10000,"station_id":"ce4bhih2rcd13ifvqfs0","pricing_plan_id":"cebpf4jnsgd1na2vs0mg"},{"bike_id":"3d792549-4957-417c-af96-fd60ad161e9d","system_id":"levelo_inurba_marseille","lat":43.30545,"lon":5.36557,"is_reserved":false,"is_disabled":false,"rental_uris":{"android":"levelo://app?vid=3d792549-4957-417c-af96-fd60ad161e9d","ios":"levelo://app?vid=3d792549-4957-417c-af96-fd60ad161e9d"},"vehicle_type_id":"4","last_reported":1735312091,"current_range_meters":36400,"station_id":"ce4bgs12rcd13ifvqcag","pricing_plan_id":"cebpf4jnsgd1na2vs0mg"},{"bike_id":"821d987d-d104-4e4b-b2f2-ae7d66aa4bb2","system_id":"levelo_inurba_marseille","lat":43.28951,"lon":5.37835,"is_reserved":false,"is_disabled":false,"rental_uris":{"android":"levelo://app?vid=821d987d-d104-4e4b-b2f2-ae7d66aa4bb2","ios":"levelo://app?vid=821d987d-d104-4e4b-b2f2-ae7d66aa4bb2"},"vehicle_type_id":"4","last_reported":1735312091,"current_range_meters":39200,"station_id":"ce4bh9p2rcd13ifvqed0","pricing_plan_id":"cebpf4jnsgd1na2vs0mg"},{"bike_id":"487dbf04-079b-42ea-8b48-ebcade46edcb","system_id":"levelo_inurba_marseille","lat":43.29955,"lon":5.41319,"is_reserved":false,"is_disabled":false,"rental_uris":{"android":"levelo://app?vid=487dbf04-079b-42ea-8b48-ebcade46edcb","ios":"levelo://app?vid=487dbf04-079b-42ea-8b48-ebcade46edcb"},"vehicle_type_id":"4","last_reported":1735312091,"current_range_meters":31200,"station_id":"ce4bhp12rcd13ifvqh9g","pricing_plan_id":"cebpf4jnsgd1na2vs0mg"},{"bike_id":"1f03e07b-50b0-4a9e-bd03-dc766534a5b3","system_id":"levelo_inurba_marseille","lat":43.25574,"lon":5.38237,"is_reserved":false,"is_disabled":false,"rental_uris":{"android":"levelo://app?vid=1f03e07b-50b0-4a9e-bd03-dc766534a5b3","ios":"levelo://app?vid=1f03e07b-50b0-4a9e-bd03-dc766534a5b3"},"vehicle_type_id":"4","last_reported":1735312091,"current_range_meters":39200,"station_id":"ce4bhih2rcd13ifvqfs0","pricing_plan_id":"cebpf4jnsgd1na2vs0mg"},{"bike_id":"aaf1aa19-ffff-4e74-a4a3-b75b3a29f183","system_id":"levelo_inurba_marseille","lat":43.27826,"lon":5.39214,"is_reserved":false,"is_disabled":false,"rental_uris":{"android":"levelo://app?vid=aaf1aa19-ffff-4e74-a4a3-b75b3a29f183","ios":"levelo://app?vid=aaf1aa19-ffff-4e74-a4a3-b75b3a29f183"},"vehicle_type_id":"4","last_reported":1735312091,"current_range_meters":30800,"station_id":"ce4bhjp2rcd13ifvqga0","pricing_plan_id":"cebpf4jnsgd1na2vs0mg"},{"bike_id":"c6834b76-82f1-466a-8b2d-118839d142cc","system_id":"levelo_inurba_marseille","lat":43.29897,"lon":5.4365,"is_reserved":false,"is_disabled":false,"rental_uris":{"android":"levelo://app?vid=c6834b76-82f1-466a-8b2d-118839d142cc","ios":"levelo://app?vid=c6834b76-82f1-466a-8b2d-118839d142cc"},"vehicle_type_id":"4","last_reported":1735312091,"current_range_meters":38000,"station_id":"ce4bhpp2rcd13ifvqhfg","pricing_plan_id":"cebpf4jnsgd1na2vs0mg"},{"bike_id":"1107b56a-98a5-4a01-8449-9eba086fee5a","system_id":"levelo_inurba_marseille","lat":43.29073,"lon":5.39883,"is_reserved":false,"is_disabled":false,"rental_uris":{"android":"levelo://app?vid=1107b56a-98a5-4a01-8449-9eba086fee5a","ios":"levelo://app?vid=1107b56a-98a5-4a01-8449-9eba086fee5a"},"vehicle_type_id":"4","last_reported":1735312091,"current_range_meters":23200,"station_id":"","pricing_plan_id":"cebpf4jnsgd1na2vs0mg"},{"bike_id":"e0742e5b-a0d4-47b3-aaec-dd66251ca448","system_id":"levelo_inurba_marseille","lat":43.28416,"lon":5.34987,"is_reserved":false,"is_disabled":false,"rental_uris":{"android":"levelo://app?vid=e0742e5b-a0d4-47b3-aaec-dd66251ca448","ios":"levelo://app?vid=e0742e5b-a0d4-47b3-aaec-dd66251ca448"},"vehicle_type_id":"4","last_reported":1735312091,"current_range_meters":38000,"station_id":"ce4bhbh2rcd13ifvqepg","pricing_plan_id":"cebpf4jnsgd1na2vs0mg"},{"bike_id":"dc22f9d7-52a7-406e-8ea1-f604dc28f74f","system_id":"levelo_inurba_marseille","lat":43.28577,"lon":5.39499,"is_reserved":false,"is_disabled":false,"rental_uris":{"android":"levelo://app?vid=dc22f9d7-52a7-406e-8ea1-f604dc28f74f","ios":"levelo://app?vid=dc22f9d7-52a7-406e-8ea1-f604dc28f74f"},"vehicle_type_id":"4","last_reported":1735312091,"current_range_meters":38800,"station_id":"ce4bh292rcd13ifvqdg0","pricing_plan_id":"cebpf4jnsgd1na2vs0mg"},{"bike_id":"2925bf33-bacb-4473-8d24-718819fb0c15","system_id":"levelo_inurba_marseille","lat":43.29796,"lon":5.40422,"is_reserved":false,"is_disabled":false,"rental_uris":{"android":"levelo://app?vid=2925bf33-bacb-4473-8d24-718819fb0c15","ios":"levelo://app?vid=2925bf33-bacb-4473-8d24-718819fb0c15"},"vehicle_type_id":"4","last_reported":1735312091,"current_range_meters":38800,"station_id":"ce4bh112rcd13ifvqd90","pricing_plan_id":"cebpf4jnsgd1na2vs0mg"},{"bike_id":"011402b4-5a26-4984-8433-55d86d515fdd","system_id":"levelo_inurba_marseille","lat":43.27813,"lon":5.40713,"is_reserved":false,"is_disabled":false,"rental_uris":{"android":"levelo://app?vid=011402b4-5a26-4984-8433-55d86d515fdd","ios":"levelo://app?vid=011402b4-5a26-4984-8433-55d86d515fdd"},"vehicle_type_id":"4","last_reported":1735312091,"current_range_meters":32400,"station_id":"ce4bhnh2rcd13ifvqgtg","pricing_plan_id":"cebpf4jnsgd1na2vs0mg"},{"bike_id":"e00dfb05-17e3-4fe6-bb2e-302de9c485a7","system_id":"levelo_inurba_marseille","lat":43.29595,"lon":5.38096,"is_reserved":false,"is_disabled":false,"rental_uris":{"android":"levelo://app?vid=e00dfb05-17e3-4fe6-bb2e-302de9c485a7","ios":"levelo://app?vid=e00dfb05-17e3-4fe6-bb2e-302de9c485a7"},"vehicle_type_id":"4","last_reported":1735312091,"current_range_meters":30800,"station_id":"ce4bgl12rcd13ifvqbo0","pricing_plan_id":"cebpf4jnsgd1na2vs0mg"},{"bike_id":"5608df94-b66e-460e-9f45-682a8f36b500","system_id":"levelo_inurba_marseille","lat":43.2693,"lon":5.38929,"is_reserved":false,"is_disabled":false,"rental_uris":{"android":"levelo://app?vid=5608df94-b66e-460e-9f45-682a8f36b500","ios":"levelo://app?vid=5608df94-b66e-460e-9f45-682a8f36b500"},"vehicle_type_id":"4","last_reported":1735312091,"current_range_meters":37600,"station_id":"ce4bhhh2rcd13ifvqfl0","pricing_plan_id":"cebpf4jnsgd1na2vs0mg"},{"bike_id":"3fbbac4e-077e-476b-9b1a-9cc6e989ecb0","system_id":"levelo_inurba_marseille","lat":43.25021,"lon":5.38915,"is_reserved":false,"is_disabled":false,"rental_uris":{"android":"levelo://app?vid=3fbbac4e-077e-476b-9b1a-9cc6e989ecb0","ios":"levelo://app?vid=3fbbac4e-077e-476b-9b1a-9cc6e989ecb0"},"vehicle_type_id":"4","last_reported":1735312091,"current_range_meters":38000,"station_id":"ce4bhgp2rcd13ifvqfd0","pricing_plan_id":"cebpf4jnsgd1na2vs0mg"},{"bike_id":"52096130-b4a8-446c-9b4b-6aa4b2cc4f7f","system_id":"levelo_inurba_marseille","lat":43.31216,"lon":5.36851,"is_reserved":false,"is_disabled":false,"rental_uris":{"android":"levelo://app?vid=52096130-b4a8-446c-9b4b-6aa4b2cc4f7f","ios":"levelo://app?vid=52096130-b4a8-446c-9b4b-6aa4b2cc4f7f"},"vehicle_type_id":"4","last_reported":1735312091,"current_range_meters":38800,"station_id":"ce4bgl92rcd13ifvqbq0","pricing_plan_id":"cebpf4jnsgd1na2vs0mg"},{"bike_id":"d0ac690d-0efe-47fa-9059-f0f7881223f1","system_id":"levelo_inurba_marseille","lat":43.29701,"lon":5.37723,"is_reserved":false,"is_disabled":false,"rental_uris":{"android":"levelo://app?vid=d0ac690d-0efe-47fa-9059-f0f7881223f1","ios":"levelo://app?vid=d0ac690d-0efe-47fa-9059-f0f7881223f1"},"vehicle_type_id":"4","last_reported":1735312091,"current_range_meters":36000,"station_id":"ce4bgkh2rcd13ifvqbl0","pricing_plan_id":"cebpf4jnsgd1na2vs0mg"},{"bike_id":"e203eede-93d4-4367-be9a-c6d93cdc799f","system_id":"levelo_inurba_marseille","lat":43.29931,"lon":5.36541,"is_reserved":false,"is_disabled":false,"rental_uris":{"android":"levelo://app?vid=e203eede-93d4-4367-be9a-c6d93cdc799f","ios":"levelo://app?vid=e203eede-93d4-4367-be9a-c6d93cdc799f"},"vehicle_type_id":"4","last_reported":1735312091,"current_range_meters":20800,"station_id":"ce4bgm92rcd13ifvqbr0","pricing_plan_id":"cebpf4jnsgd1na2vs0mg"},{"bike_id":"41120cbf-bc5b-424d-9746-9dedf3547a24","system_id":"levelo_inurba_marseille","lat":43.26788,"lon":5.39414,"is_reserved":false,"is_disabled":false,"rental_uris":{"android":"levelo://app?vid=41120cbf-bc5b-424d-9746-9dedf3547a24","ios":"levelo://app?vid=41120cbf-bc5b-424d-9746-9dedf3547a24"},"vehicle_type_id":"4","last_reported":1735312091,"current_range_meters":38400,"station_id":"ce4bhh12rcd13ifvqfg0","pricing_plan_id":"cebpf4jnsgd1na2vs0mg"},{"bike_id":"56006fb6-cdff-4448-b25a-36be513a8961","system_id":"levelo_inurba_marseille","lat":43.30549,"lon":5.36556,"is_reserved":false,"is_disabled":false,"rental_uris":{"android":"levelo://app?vid=56006fb6-cdff-4448-b25a-36be513a8961","ios":"levelo://app?vid=56006fb6-cdff-4448-b25a-36be513a8961"},"vehicle_type_id":"4","last_reported":1735312091,"current_range_meters":35200,"station_id":"ce4bgs12rcd13ifvqcag","pricing_plan_id":"cebpf4jnsgd1na2vs0mg"},{"bike_id":"41e441a8-4ad2-4bf0-81ba-96c35feaf6d8","system_id":"levelo_inurba_marseille","lat":43.28153,"lon":5.42639,"is_reserved":false,"is_disabled":false,"rental_uris":{"android":"levelo://app?vid=41e441a8-4ad2-4bf0-81ba-96c35feaf6d8","ios":"levelo://app?vid=41e441a8-4ad2-4bf0-81ba-96c35feaf6d8"},"vehicle_type_id":"4","last_reported":1735312091,"current_range_meters":38000,"station_id":"ce4bhnh2rcd13ifvqgug","pricing_plan_id":"cebpf4jnsgd1na2vs0mg"},{"bike_id":"a25819d3-be17-4947-b999-ef13378a38e4","system_id":"levelo_inurba_marseille","lat":43.29903,"lon":5.37465,"is_reserved":false,"is_disabled":false,"rental_uris":{"android":"levelo://app?vid=a25819d3-be17-4947-b999-ef13378a38e4","ios":"levelo://app?vid=a25819d3-be17-4947-b999-ef13378a38e4"},"vehicle_type_id":"4","last_reported":1735312091,"current_range_meters":30000,"station_id":"ce4bgjh2rcd13ifvqbg0","pricing_plan_id":"cebpf4jnsgd1na2vs0mg"},{"bike_id":"dd34c349-c597-450a-88c9-42e9545758b6","system_id":"levelo_inurba_marseille","lat":43.29612,"lon":5.37729,"is_reserved":false,"is_disabled":false,"rental_uris":{"android":"levelo://app?vid=dd34c349-c597-450a-88c9-42e9545758b6","ios":"levelo://app?vid=dd34c349-c597-450a-88c9-42e9545758b6"},"vehicle_type_id":"4","last_reported":1735312091,"current_range_meters":35200,"station_id":"ce4bgi92rcd13ifvqb90","pricing_plan_id":"cebpf4jnsgd1na2vs0mg"},{"bike_id":"7775d7ea-9117-4efa-ae58-10fb8632c78f","system_id":"levelo_inurba_marseille","lat":43.2811,"lon":5.37834,"is_reserved":false,"is_disabled":false,"rental_uris":{"android":"levelo://app?vid=7775d7ea-9117-4efa-ae58-10fb8632c78f","ios":"levelo://app?vid=7775d7ea-9117-4efa-ae58-10fb8632c78f"},"vehicle_type_id":"4","last_reported":1735312091,"current_range_meters":32400,"station_id":"","pricing_plan_id":"cebpf4jnsgd1na2vs0mg"},{"bike_id":"4e04e3c8-bad8-47c2-a784-0c5eba8b5d4f","system_id":"levelo_inurba_marseille","lat":43.27073,"lon":5.42274,"is_reserved":false,"is_disabled":false,"rental_uris":{"android":"levelo://app?vid=4e04e3c8-bad8-47c2-a784-0c5eba8b5d4f","ios":"levelo://app?vid=4e04e3c8-bad8-47c2-a784-0c5eba8b5d4f"},"vehicle_type_id":"4","last_reported":1735312091,"current_range_meters":29600,"station_id":"ce4bhk92rcd13ifvqgb0","pricing_plan_id":"cebpf4jnsgd1na2vs0mg"},{"bike_id":"807925e0-3c01-43e3-b6e8-2dacd5eae631","system_id":"levelo_inurba_marseille","lat":43.28425,"lon":5.34992,"is_reserved":false,"is_disabled":false,"rental_uris":{"android":"levelo://app?vid=807925e0-3c01-43e3-b6e8-2dacd5eae631","ios":"levelo://app?vid=807925e0-3c01-43e3-b6e8-2dacd5eae631"},"vehicle_type_id":"4","last_reported":1735312091,"current_range_meters":22000,"station_id":"ce4bhbh2rcd13ifvqepg","pricing_plan_id":"cebpf4jnsgd1na2vs0mg"},{"bike_id":"22ff3201-b7a3-4c5e-970c-2a89343fabf7","system_id":"levelo_inurba_marseille","lat":43.30548,"lon":5.36534,"is_reserved":false,"is_disabled":false,"rental_uris":{"android":"levelo://app?vid=22ff3201-b7a3-4c5e-970c-2a89343fabf7","ios":"levelo://app?vid=22ff3201-b7a3-4c5e-970c-2a89343fabf7"},"vehicle_type_id":"4","last_reported":1735312091,"current_range_meters":39200,"station_id":"ce4bgs12rcd13ifvqcag","pricing_plan_id":"cebpf4jnsgd1na2vs0mg"},{"bike_id":"03350f70-f6b0-4c73-9b04-89800e70085e","system_id":"levelo_inurba_marseille","lat":43.29591,"lon":5.36749,"is_reserved":false,"is_disabled":false,"rental_uris":{"android":"levelo://app?vid=03350f70-f6b0-4c73-9b04-89800e70085e","ios":"levelo://app?vid=03350f70-f6b0-4c73-9b04-89800e70085e"},"vehicle_type_id":"4","last_reported":1735312091,"current_range_meters":38800,"station_id":"ce4bgph2rcd13ifvqc2g","pricing_plan_id":"cebpf4jnsgd1na2vs0mg"},{"bike_id":"9729fc41-f9c3-49f6-b29a-3e005f0daeb5","system_id":"levelo_inurba_marseille","lat":43.23061,"lon":5.35492,"is_reserved":false,"is_disabled":false,"rental_uris":{"android":"levelo://app?vid=9729fc41-f9c3-49f6-b29a-3e005f0daeb5","ios":"levelo://app?vid=9729fc41-f9c3-49f6-b29a-3e005f0daeb5"},"vehicle_type_id":"4","last_reported":1735312091,"current_range_meters":22800,"station_id":"cpo3342slgdg3j2ifvpg","pricing_plan_id":"cebpf4jnsgd1na2vs0mg"},{"bike_id":"68748034-e5dc-43d6-9c47-2c8088710c68","system_id":"levelo_inurba_marseille","lat":43.29549,"lon":5.42279,"is_reserved":false,"is_disabled":false,"rental_uris":{"android":"levelo://app?vid=68748034-e5dc-43d6-9c47-2c8088710c68","ios":"levelo://app?vid=68748034-e5dc-43d6-9c47-2c8088710c68"},"vehicle_type_id":"4","last_reported":1735312091,"current_range_meters":37600,"station_id":"ce4bhph2rcd13ifvqhdg","pricing_plan_id":"cebpf4jnsgd1na2vs0mg"},{"bike_id":"97c672d0-c134-4330-b6f9-642cfb44e6b4","system_id":"levelo_inurba_marseille","lat":43.27812,"lon":5.40709,"is_reserved":false,"is_disabled":false,"rental_uris":{"android":"levelo://app?vid=97c672d0-c134-4330-b6f9-642cfb44e6b4","ios":"levelo://app?vid=97c672d0-c134-4330-b6f9-642cfb44e6b4"},"vehicle_type_id":"4","last_reported":1735312091,"current_range_meters":38800,"station_id":"ce4bhnh2rcd13ifvqgtg","pricing_plan_id":"cebpf4jnsgd1na2vs0mg"},{"bike_id":"356fd92d-e963-40e6-b40e-58fc72ac9553","system_id":"levelo_inurba_marseille","lat":43.32106,"lon":5.36769,"is_reserved":false,"is_disabled":false,"rental_uris":{"android":"levelo://app?vid=356fd92d-e963-40e6-b40e-58fc72ac9553","ios":"levelo://app?vid=356fd92d-e963-40e6-b40e-58fc72ac9553"},"vehicle_type_id":"4","last_reported":1735312091,"current_range_meters":19600,"station_id":"ce4bhrh2rcd13ifvqhug","pricing_plan_id":"cebpf4jnsgd1na2vs0mg"},{"bike_id":"76420b9a-2c68-4e6c-8a3b-38eb2e2eda97","system_id":"levelo_inurba_marseille","lat":43.2407,"lon":5.37764,"is_reserved":false,"is_disabled":false,"rental_uris":{"android":"levelo://app?vid=76420b9a-2c68-4e6c-8a3b-38eb2e2eda97","ios":"levelo://app?vid=76420b9a-2c68-4e6c-8a3b-38eb2e2eda97"},"vehicle_type_id":"4","last_reported":1735312091,"current_range_meters":32000,"station_id":"ce4bhnp2rcd13ifvqgvg","pricing_plan_id":"cebpf4jnsgd1na2vs0mg"},{"bike_id":"90c942c7-cc9f-4ca0-a4bf-cccb4ac71e6f","system_id":"levelo_inurba_marseille","lat":43.25731,"lon":5.41165,"is_reserved":false,"is_disabled":false,"rental_uris":{"android":"levelo://app?vid=90c942c7-cc9f-4ca0-a4bf-cccb4ac71e6f","ios":"levelo://app?vid=90c942c7-cc9f-4ca0-a4bf-cccb4ac71e6f"},"vehicle_type_id":"4","last_reported":1735312091,"current_range_meters":36800,"station_id":"","pricing_plan_id":"cebpf4jnsgd1na2vs0mg"},{"bike_id":"34f2d239-cc8e-4c90-9cb7-3e5900d1556d","system_id":"levelo_inurba_marseille","lat":43.26805,"lon":5.40272,"is_reserved":false,"is_disabled":false,"rental_uris":{"android":"levelo://app?vid=34f2d239-cc8e-4c90-9cb7-3e5900d1556d","ios":"levelo://app?vid=34f2d239-cc8e-4c90-9cb7-3e5900d1556d"},"vehicle_type_id":"4","last_reported":1735312091,"current_range_meters":30000,"station_id":"ce501612rcd8frsf0b60","pricing_plan_id":"cebpf4jnsgd1na2vs0mg"},{"bike_id":"76762aa8-8af3-49ef-94a6-772b8418197c","system_id":"levelo_inurba_marseille","lat":43.30914,"lon":5.36851,"is_reserved":false,"is_disabled":false,"rental_uris":{"android":"levelo://app?vid=76762aa8-8af3-49ef-94a6-772b8418197c","ios":"levelo://app?vid=76762aa8-8af3-49ef-94a6-772b8418197c"},"vehicle_type_id":"4","last_reported":1735312091,"current_range_meters":32400,"station_id":"ce4bgn92rcd13ifvqbvg","pricing_plan_id":"cebpf4jnsgd1na2vs0mg"},{"bike_id":"58c37885-f36d-4080-8133-b4d8b8de18bf","system_id":"levelo_inurba_marseille","lat":43.302134,"lon":5.394672,"is_reserved":false,"is_disabled":false,"rental_uris":{"android":"levelo://app?vid=58c37885-f36d-4080-8133-b4d8b8de18bf","ios":"levelo://app?vid=58c37885-f36d-4080-8133-b4d8b8de18bf"},"vehicle_type_id":"4","last_reported":1735312091,"current_range_meters":38800,"station_id":"ce4bh0p2rcd13ifvqd70","pricing_plan_id":"cebpf4jnsgd1na2vs0mg"},{"bike_id":"9fad57d8-e11d-4f64-80a7-948d8458d278","system_id":"levelo_inurba_marseille","lat":43.29571,"lon":5.37506,"is_reserved":false,"is_disabled":false,"rental_uris":{"android":"levelo://app?vid=9fad57d8-e11d-4f64-80a7-948d8458d278","ios":"levelo://app?vid=9fad57d8-e11d-4f64-80a7-948d8458d278"},"vehicle_type_id":"4","last_reported":1735312091,"current_range_meters":16800,"station_id":"ce4bgh92rcd13ifvqb50","pricing_plan_id":"cebpf4jnsgd1na2vs0mg"},{"bike_id":"8ccd8f06-9f8e-4a94-8efd-e3fae518e20d","system_id":"levelo_inurba_marseille","lat":43.30556,"lon":5.3651,"is_reserved":false,"is_disabled":false,"rental_uris":{"android":"levelo://app?vid=8ccd8f06-9f8e-4a94-8efd-e3fae518e20d","ios":"levelo://app?vid=8ccd8f06-9f8e-4a94-8efd-e3fae518e20d"},"vehicle_type_id":"4","last_reported":1735312091,"current_range_meters":31200,"station_id":"ce4bgs12rcd13ifvqcag","pricing_plan_id":"cebpf4jnsgd1na2vs0mg"},{"bike_id":"01fed048-1469-43f6-badd-acb5b8823391","system_id":"levelo_inurba_marseille","lat":43.30934,"lon":5.40141,"is_reserved":false,"is_disabled":false,"rental_uris":{"android":"levelo://app?vid=01fed048-1469-43f6-badd-acb5b8823391","ios":"levelo://app?vid=01fed048-1469-43f6-badd-acb5b8823391"},"vehicle_type_id":"4","last_reported":1735312091,"current_range_meters":26000,"station_id":"ce4bgvp2rcd13ifvqct0","pricing_plan_id":"cebpf4jnsgd1na2vs0mg"},{"bike_id":"673ed0fe-3027-4e1f-9efc-2804b0e32190","system_id":"levelo_inurba_marseille","lat":43.2668,"lon":5.38272,"is_reserved":false,"is_disabled":false,"rental_uris":{"android":"levelo://app?vid=673ed0fe-3027-4e1f-9efc-2804b0e32190","ios":"levelo://app?vid=673ed0fe-3027-4e1f-9efc-2804b0e32190"},"vehicle_type_id":"4","last_reported":1735312091,"current_range_meters":18000,"station_id":"ce4bhg92rcd13ifvqf90","pricing_plan_id":"cebpf4jnsgd1na2vs0mg"},{"bike_id":"d21bc744-9c32-46ee-b407-4891190bedce","system_id":"levelo_inurba_marseille","lat":43.27619,"lon":5.36126,"is_reserved":false,"is_disabled":false,"rental_uris":{"android":"levelo://app?vid=d21bc744-9c32-46ee-b407-4891190bedce","ios":"levelo://app?vid=d21bc744-9c32-46ee-b407-4891190bedce"},"vehicle_type_id":"4","last_reported":1735312091,"current_range_meters":16400,"station_id":"ce4bgj92rcd13ifvqbe0","pricing_plan_id":"cebpf4jnsgd1na2vs0mg"},{"bike_id":"e5da7a22-3d35-4225-a91e-7c6df686c633","system_id":"levelo_inurba_marseille","lat":43.28468,"lon":5.38537,"is_reserved":false,"is_disabled":false,"rental_uris":{"android":"levelo://app?vid=e5da7a22-3d35-4225-a91e-7c6df686c633","ios":"levelo://app?vid=e5da7a22-3d35-4225-a91e-7c6df686c633"},"vehicle_type_id":"4","last_reported":1735312091,"current_range_meters":38800,"station_id":"ce4bh8p2rcd13ifvqeb0","pricing_plan_id":"cebpf4jnsgd1na2vs0mg"},{"bike_id":"911e384d-5f9a-468f-bec2-9d9087d71bb2","system_id":"levelo_inurba_marseille","lat":43.29612,"lon":5.37724,"is_reserved":false,"is_disabled":false,"rental_uris":{"android":"levelo://app?vid=911e384d-5f9a-468f-bec2-9d9087d71bb2","ios":"levelo://app?vid=911e384d-5f9a-468f-bec2-9d9087d71bb2"},"vehicle_type_id":"4","last_reported":1735312091,"current_range_meters":20000,"station_id":"ce4bgi92rcd13ifvqb90","pricing_plan_id":"cebpf4jnsgd1na2vs0mg"},{"bike_id":"71ce0a6a-d20c-40be-acdc-bef312b71168","system_id":"levelo_inurba_marseille","lat":43.29311,"lon":5.37455,"is_reserved":false,"is_disabled":false,"rental_uris":{"android":"levelo://app?vid=71ce0a6a-d20c-40be-acdc-bef312b71168","ios":"levelo://app?vid=71ce0a6a-d20c-40be-acdc-bef312b71168"},"vehicle_type_id":"4","last_reported":1735312091,"current_range_meters":28400,"station_id":"ce4bgi12rcd13ifvqb70","pricing_plan_id":"cebpf4jnsgd1na2vs0mg"},{"bike_id":"bfe51a22-dc58-4d57-ac93-06356f443b18","system_id":"levelo_inurba_marseille","lat":43.29764,"lon":5.37091,"is_reserved":false,"is_disabled":false,"rental_uris":{"android":"levelo://app?vid=bfe51a22-dc58-4d57-ac93-06356f443b18","ios":"levelo://app?vid=bfe51a22-dc58-4d57-ac93-06356f443b18"},"vehicle_type_id":"4","last_reported":1735312091,"current_range_meters":32800,"station_id":"ce4bgop2rcd13ifvqc1g","pricing_plan_id":"cebpf4jnsgd1na2vs0mg"},{"bike_id":"cadf8335-6df2-49c1-9678-5228c753266c","system_id":"levelo_inurba_marseille","lat":43.28072,"lon":5.39663,"is_reserved":false,"is_disabled":true,"rental_uris":{"android":"levelo://app?vid=cadf8335-6df2-49c1-9678-5228c753266c","ios":"levelo://app?vid=cadf8335-6df2-49c1-9678-5228c753266c"},"vehicle_type_id":"4","last_reported":1735312091,"current_range_meters":800,"station_id":"ce4bho12rcd13ifvqh2g","pricing_plan_id":"cebpf4jnsgd1na2vs0mg"},{"bike_id":"4f50e70f-1822-430d-a707-46a7be65aab6","system_id":"levelo_inurba_marseille","lat":43.31491,"lon":5.37309,"is_reserved":false,"is_disabled":false,"rental_uris":{"android":"levelo://app?vid=4f50e70f-1822-430d-a707-46a7be65aab6","ios":"levelo://app?vid=4f50e70f-1822-430d-a707-46a7be65aab6"},"vehicle_type_id":"4","last_reported":1735312091,"current_range_meters":38800,"station_id":"ce4bgt12rcd13ifvqcd0","pricing_plan_id":"cebpf4jnsgd1na2vs0mg"},{"bike_id":"7fa60e51-b540-45b0-aa9f-35cfb04d90db","system_id":"levelo_inurba_marseille","lat":43.23142,"lon":5.43721,"is_reserved":false,"is_disabled":false,"rental_uris":{"android":"levelo://app?vid=7fa60e51-b540-45b0-aa9f-35cfb04d90db","ios":"levelo://app?vid=7fa60e51-b540-45b0-aa9f-35cfb04d90db"},"vehicle_type_id":"4","last_reported":1735312091,"current_range_meters":8400,"station_id":"ce4bhmp2rcd13ifvqgog","pricing_plan_id":"cebpf4jnsgd1na2vs0mg"},{"bike_id":"0d356a97-93db-4905-a410-a6d23d3b385c","system_id":"levelo_inurba_marseille","lat":43.28834,"lon":5.35855,"is_reserved":false,"is_disabled":false,"rental_uris":{"android":"levelo://app?vid=0d356a97-93db-4905-a410-a6d23d3b385c","ios":"levelo://app?vid=0d356a97-93db-4905-a410-a6d23d3b385c"},"vehicle_type_id":"4","last_reported":1735312091,"current_range_meters":14400,"station_id":"ce4bhb12rcd13ifvqem0","pricing_plan_id":"cebpf4jnsgd1na2vs0mg"},{"bike_id":"ef1512f2-ecec-4ca5-ae3a-ede1758528e4","system_id":"levelo_inurba_marseille","lat":43.30544,"lon":5.36706,"is_reserved":false,"is_disabled":false,"rental_uris":{"android":"levelo://app?vid=ef1512f2-ecec-4ca5-ae3a-ede1758528e4","ios":"levelo://app?vid=ef1512f2-ecec-4ca5-ae3a-ede1758528e4"},"vehicle_type_id":"4","last_reported":1735312091,"current_range_meters":36400,"station_id":"ce4bgrp2rcd13ifvqc9g","pricing_plan_id":"cebpf4jnsgd1na2vs0mg"},{"bike_id":"3c400fb2-71d9-4c47-b928-39de34f52592","system_id":"levelo_inurba_marseille","lat":43.26556,"lon":5.3902,"is_reserved":false,"is_disabled":false,"rental_uris":{"android":"levelo://app?vid=3c400fb2-71d9-4c47-b928-39de34f52592","ios":"levelo://app?vid=3c400fb2-71d9-4c47-b928-39de34f52592"},"vehicle_type_id":"4","last_reported":1735312091,"current_range_meters":20000,"station_id":"ce4bhe12rcd13ifvqf30","pricing_plan_id":"cebpf4jnsgd1na2vs0mg"},{"bike_id":"2ee1a73a-0ebb-4b47-b30d-6cd2a5bbe97c","system_id":"levelo_inurba_marseille","lat":43.26951,"lon":5.38647,"is_reserved":false,"is_disabled":false,"rental_uris":{"android":"levelo://app?vid=2ee1a73a-0ebb-4b47-b30d-6cd2a5bbe97c","ios":"levelo://app?vid=2ee1a73a-0ebb-4b47-b30d-6cd2a5bbe97c"},"vehicle_type_id":"4","last_reported":1735312091,"current_range_meters":25600,"station_id":"ce4bhh92rcd13ifvqfh0","pricing_plan_id":"cebpf4jnsgd1na2vs0mg"},{"bike_id":"d36bb8df-822e-49e3-adc4-c36f4503a77d","system_id":"levelo_inurba_marseille","lat":43.27488,"lon":5.42447,"is_reserved":false,"is_disabled":false,"rental_uris":{"android":"levelo://app?vid=d36bb8df-822e-49e3-adc4-c36f4503a77d","ios":"levelo://app?vid=d36bb8df-822e-49e3-adc4-c36f4503a77d"},"vehicle_type_id":"4","last_reported":1735312091,"current_range_meters":6000,"station_id":"ce4bhn92rcd13ifvqgrg","pricing_plan_id":"cebpf4jnsgd1na2vs0mg"},{"bike_id":"7890a301-a88f-4909-b599-1892e02f226c","system_id":"levelo_inurba_marseille","lat":43.29515,"lon":5.37505,"is_reserved":false,"is_disabled":false,"rental_uris":{"android":"levelo://app?vid=7890a301-a88f-4909-b599-1892e02f226c","ios":"levelo://app?vid=7890a301-a88f-4909-b599-1892e02f226c"},"vehicle_type_id":"4","last_reported":1735312091,"current_range_meters":30400,"station_id":"ce4bgkp2rcd13ifvqbmg","pricing_plan_id":"cebpf4jnsgd1na2vs0mg"},{"bike_id":"4f5db02c-99f9-460e-a880-3ca7100df048","system_id":"levelo_inurba_marseille","lat":43.27422,"lon":5.39393,"is_reserved":false,"is_disabled":false,"rental_uris":{"android":"levelo://app?vid=4f5db02c-99f9-460e-a880-3ca7100df048","ios":"levelo://app?vid=4f5db02c-99f9-460e-a880-3ca7100df048"},"vehicle_type_id":"4","last_reported":1735312091,"current_range_meters":36800,"station_id":"ce4bhdp2rcd13ifvqf20","pricing_plan_id":"cebpf4jnsgd1na2vs0mg"},{"bike_id":"b9c27fe2-01c6-44b8-ba31-aede469fa064","system_id":"levelo_inurba_marseille","lat":43.29783,"lon":5.37086,"is_reserved":false,"is_disabled":false,"rental_uris":{"android":"levelo://app?vid=b9c27fe2-01c6-44b8-ba31-aede469fa064","ios":"levelo://app?vid=b9c27fe2-01c6-44b8-ba31-aede469fa064"},"vehicle_type_id":"4","last_reported":1735312091,"current_range_meters":24400,"station_id":"","pricing_plan_id":"cebpf4jnsgd1na2vs0mg"},{"bike_id":"d5ddbfd8-c695-45c7-8f75-3f1b7776c13d","system_id":"levelo_inurba_marseille","lat":43.22924,"lon":5.35371,"is_reserved":false,"is_disabled":false,"rental_uris":{"android":"levelo://app?vid=d5ddbfd8-c695-45c7-8f75-3f1b7776c13d","ios":"levelo://app?vid=d5ddbfd8-c695-45c7-8f75-3f1b7776c13d"},"vehicle_type_id":"4","last_reported":1735312091,"current_range_meters":28400,"station_id":"cpo3532slgdg3j2ikp40","pricing_plan_id":"cebpf4jnsgd1na2vs0mg"},{"bike_id":"30e6c0a6-8073-452c-9bff-4470ff1055af","system_id":"levelo_inurba_marseille","lat":43.28425,"lon":5.3499,"is_reserved":false,"is_disabled":false,"rental_uris":{"android":"levelo://app?vid=30e6c0a6-8073-452c-9bff-4470ff1055af","ios":"levelo://app?vid=30e6c0a6-8073-452c-9bff-4470ff1055af"},"vehicle_type_id":"4","last_reported":1735312091,"current_range_meters":21600,"station_id":"ce4bhbh2rcd13ifvqepg","pricing_plan_id":"cebpf4jnsgd1na2vs0mg"},{"bike_id":"5477d212-35e2-4622-b27a-bfe5ff434d03","system_id":"levelo_inurba_marseille","lat":43.337603,"lon":5.374424,"is_reserved":false,"is_disabled":false,"rental_uris":{"android":"levelo://app?vid=5477d212-35e2-4622-b27a-bfe5ff434d03","ios":"levelo://app?vid=5477d212-35e2-4622-b27a-bfe5ff434d03"},"vehicle_type_id":"4","last_reported":1735312091,"current_range_meters":29600,"station_id":"","pricing_plan_id":"cebpf4jnsgd1na2vs0mg"},{"bike_id":"d90dc9fa-0441-442d-92a0-098f205e457c","system_id":"levelo_inurba_marseille","lat":43.28118,"lon":5.3785,"is_reserved":false,"is_disabled":false,"rental_uris":{"android":"levelo://app?vid=d90dc9fa-0441-442d-92a0-098f205e457c","ios":"levelo://app?vid=d90dc9fa-0441-442d-92a0-098f205e457c"},"vehicle_type_id":"4","last_reported":1735312091,"current_range_meters":29600,"station_id":"ce4bha12rcd13ifvqee0","pricing_plan_id":"cebpf4jnsgd1na2vs0mg"},{"bike_id":"b3202def-da0b-4ad3-b2d6-53e83d3a2473","system_id":"levelo_inurba_marseille","lat":43.29711,"lon":5.37695,"is_reserved":false,"is_disabled":false,"rental_uris":{"android":"levelo://app?vid=b3202def-da0b-4ad3-b2d6-53e83d3a2473","ios":"levelo://app?vid=b3202def-da0b-4ad3-b2d6-53e83d3a2473"},"vehicle_type_id":"4","last_reported":1735312091,"current_range_meters":24000,"station_id":"ce4bgkh2rcd13ifvqbl0","pricing_plan_id":"cebpf4jnsgd1na2vs0mg"},{"bike_id":"1786334d-2721-40c5-be60-f94ab6a924f7","system_id":"levelo_inurba_marseille","lat":43.26208,"lon":5.37925,"is_reserved":false,"is_disabled":false,"rental_uris":{"android":"levelo://app?vid=1786334d-2721-40c5-be60-f94ab6a924f7","ios":"levelo://app?vid=1786334d-2721-40c5-be60-f94ab6a924f7"},"vehicle_type_id":"4","last_reported":1735312091,"current_range_meters":38800,"station_id":"ce4bhjp2rcd13ifvqg90","pricing_plan_id":"cebpf4jnsgd1na2vs0mg"},{"bike_id":"e5f82e7d-a5f8-4fe8-bb0b-deff16b79097","system_id":"levelo_inurba_marseille","lat":43.3026,"lon":5.40077,"is_reserved":false,"is_disabled":false,"rental_uris":{"android":"levelo://app?vid=e5f82e7d-a5f8-4fe8-bb0b-deff16b79097","ios":"levelo://app?vid=e5f82e7d-a5f8-4fe8-bb0b-deff16b79097"},"vehicle_type_id":"4","last_reported":1735312091,"current_range_meters":38000,"station_id":"ce4bgvh2rcd13ifvqcs0","pricing_plan_id":"cebpf4jnsgd1na2vs0mg"},{"bike_id":"25d352db-68ac-4e8d-94ad-94f606cff092","system_id":"levelo_inurba_marseille","lat":43.305508,"lon":5.365529,"is_reserved":false,"is_disabled":false,"rental_uris":{"android":"levelo://app?vid=25d352db-68ac-4e8d-94ad-94f606cff092","ios":"levelo://app?vid=25d352db-68ac-4e8d-94ad-94f606cff092"},"vehicle_type_id":"4","last_reported":1735312091,"current_range_meters":39200,"station_id":"ce4bgs12rcd13ifvqcag","pricing_plan_id":"cebpf4jnsgd1na2vs0mg"},{"bike_id":"a32cd1e7-cc87-4292-9d06-455d298daf7c","system_id":"levelo_inurba_marseille","lat":43.3042,"lon":5.39749,"is_reserved":false,"is_disabled":false,"rental_uris":{"android":"levelo://app?vid=a32cd1e7-cc87-4292-9d06-455d298daf7c","ios":"levelo://app?vid=a32cd1e7-cc87-4292-9d06-455d298daf7c"},"vehicle_type_id":"4","last_reported":1735312091,"current_range_meters":38000,"station_id":"ce4bh092rcd13ifvqd20","pricing_plan_id":"cebpf4jnsgd1na2vs0mg"},{"bike_id":"294562ad-8566-45c0-94df-3d7c657064da","system_id":"levelo_inurba_marseille","lat":43.2958,"lon":5.37729,"is_reserved":false,"is_disabled":false,"rental_uris":{"android":"levelo://app?vid=294562ad-8566-45c0-94df-3d7c657064da","ios":"levelo://app?vid=294562ad-8566-45c0-94df-3d7c657064da"},"vehicle_type_id":"4","last_reported":1735312091,"current_range_meters":28000,"station_id":"ce4bgi92rcd13ifvqb90","pricing_plan_id":"cebpf4jnsgd1na2vs0mg"},{"bike_id":"28bd3904-ffcb-4595-8c51-c947161caafc","system_id":"levelo_inurba_marseille","lat":43.296,"lon":5.37734,"is_reserved":false,"is_disabled":false,"rental_uris":{"android":"levelo://app?vid=28bd3904-ffcb-4595-8c51-c947161caafc","ios":"levelo://app?vid=28bd3904-ffcb-4595-8c51-c947161caafc"},"vehicle_type_id":"4","last_reported":1735312091,"current_range_meters":21600,"station_id":"ce4bgi92rcd13ifvqb90","pricing_plan_id":"cebpf4jnsgd1na2vs0mg"},{"bike_id":"58cd1bc5-5d12-43cc-9fa0-d5111cb263ef","system_id":"levelo_inurba_marseille","lat":43.2925,"lon":5.38451,"is_reserved":false,"is_disabled":false,"rental_uris":{"android":"levelo://app?vid=58cd1bc5-5d12-43cc-9fa0-d5111cb263ef","ios":"levelo://app?vid=58cd1bc5-5d12-43cc-9fa0-d5111cb263ef"},"vehicle_type_id":"4","last_reported":1735312091,"current_range_meters":33200,"station_id":"ce4bh692rcd13ifvqea0","pricing_plan_id":"cebpf4jnsgd1na2vs0mg"},{"bike_id":"66a71b38-1b38-41f2-b33a-36bd30d82075","system_id":"levelo_inurba_marseille","lat":43.29675,"lon":5.37294,"is_reserved":false,"is_disabled":false,"rental_uris":{"android":"levelo://app?vid=66a71b38-1b38-41f2-b33a-36bd30d82075","ios":"levelo://app?vid=66a71b38-1b38-41f2-b33a-36bd30d82075"},"vehicle_type_id":"4","last_reported":1735312091,"current_range_meters":27600,"station_id":"ce4bgk12rcd13ifvqbj0","pricing_plan_id":"cebpf4jnsgd1na2vs0mg"},{"bike_id":"bf5b8b1d-3bc4-4713-9f13-8855c7de3918","system_id":"levelo_inurba_marseille","lat":43.28917,"lon":5.38405,"is_reserved":false,"is_disabled":false,"rental_uris":{"android":"levelo://app?vid=bf5b8b1d-3bc4-4713-9f13-8855c7de3918","ios":"levelo://app?vid=bf5b8b1d-3bc4-4713-9f13-8855c7de3918"},"vehicle_type_id":"4","last_reported":1735312091,"current_range_meters":24800,"station_id":"ce4bh612rcd13ifvqe6g","pricing_plan_id":"cebpf4jnsgd1na2vs0mg"},{"bike_id":"867f773c-c4e7-44cd-a343-87fd5462185c","system_id":"levelo_inurba_marseille","lat":43.2927,"lon":5.36842,"is_reserved":false,"is_disabled":false,"rental_uris":{"android":"levelo://app?vid=867f773c-c4e7-44cd-a343-87fd5462185c","ios":"levelo://app?vid=867f773c-c4e7-44cd-a343-87fd5462185c"},"vehicle_type_id":"4","last_reported":1735312091,"current_range_meters":37600,"station_id":"ce4bhbp2rcd13ifvqesg","pricing_plan_id":"cebpf4jnsgd1na2vs0mg"},{"bike_id":"8f2a6914-bba4-4ace-a8cf-6c59b4633c74","system_id":"levelo_inurba_marseille","lat":43.27609,"lon":5.36121,"is_reserved":false,"is_disabled":true,"rental_uris":{"android":"levelo://app?vid=8f2a6914-bba4-4ace-a8cf-6c59b4633c74","ios":"levelo://app?vid=8f2a6914-bba4-4ace-a8cf-6c59b4633c74"},"vehicle_type_id":"4","last_reported":1735312091,"current_range_meters":17600,"station_id":"ce4bgj92rcd13ifvqbe0","pricing_plan_id":"cebpf4jnsgd1na2vs0mg"},{"bike_id":"421c6551-132c-4015-aab8-f2eccc5315e9","system_id":"levelo_inurba_marseille","lat":43.32594,"lon":5.41197,"is_reserved":false,"is_disabled":true,"rental_uris":{"android":"levelo://app?vid=421c6551-132c-4015-aab8-f2eccc5315e9","ios":"levelo://app?vid=421c6551-132c-4015-aab8-f2eccc5315e9"},"vehicle_type_id":"4","last_reported":1735312091,"current_range_meters":0,"station_id":"ce4bhq12rcd13ifvqhig","pricing_plan_id":"cebpf4jnsgd1na2vs0mg"},{"bike_id":"62fbeee0-2418-4e49-84cb-878150dffed7","system_id":"levelo_inurba_marseille","lat":43.29565,"lon":5.37491,"is_reserved":false,"is_disabled":false,"rental_uris":{"android":"levelo://app?vid=62fbeee0-2418-4e49-84cb-878150dffed7","ios":"levelo://app?vid=62fbeee0-2418-4e49-84cb-878150dffed7"},"vehicle_type_id":"4","last_reported":1735312091,"current_range_meters":28000,"station_id":"ce4bgh92rcd13ifvqb50","pricing_plan_id":"cebpf4jnsgd1na2vs0mg"},{"bike_id":"2f6cfac3-212d-4507-9d37-4a050b391a62","system_id":"levelo_inurba_marseille","lat":43.28419,"lon":5.34983,"is_reserved":false,"is_disabled":false,"rental_uris":{"android":"levelo://app?vid=2f6cfac3-212d-4507-9d37-4a050b391a62","ios":"levelo://app?vid=2f6cfac3-212d-4507-9d37-4a050b391a62"},"vehicle_type_id":"4","last_reported":1735312091,"current_range_meters":36400,"station_id":"ce4bhbh2rcd13ifvqepg","pricing_plan_id":"cebpf4jnsgd1na2vs0mg"},{"bike_id":"522d2191-517f-43ee-a1d2-4adc54e3bdc3","system_id":"levelo_inurba_marseille","lat":43.26195,"lon":5.37449,"is_reserved":false,"is_disabled":false,"rental_uris":{"android":"levelo://app?vid=522d2191-517f-43ee-a1d2-4adc54e3bdc3","ios":"levelo://app?vid=522d2191-517f-43ee-a1d2-4adc54e3bdc3"},"vehicle_type_id":"4","last_reported":1735312091,"current_range_meters":29600,"station_id":"ce4bhgp2rcd13ifvqfc0","pricing_plan_id":"cebpf4jnsgd1na2vs0mg"},{"bike_id":"9b033979-22fb-4fbe-862b-12b59af70025","system_id":"levelo_inurba_marseille","lat":43.23054,"lon":5.35494,"is_reserved":false,"is_disabled":false,"rental_uris":{"android":"levelo://app?vid=9b033979-22fb-4fbe-862b-12b59af70025","ios":"levelo://app?vid=9b033979-22fb-4fbe-862b-12b59af70025"},"vehicle_type_id":"4","last_reported":1735312091,"current_range_meters":32800,"station_id":"cpo3342slgdg3j2ifvpg","pricing_plan_id":"cebpf4jnsgd1na2vs0mg"},{"bike_id":"6bd3333d-d223-4bac-afb6-d50e45e01e89","system_id":"levelo_inurba_marseille","lat":43.28388,"lon":5.38624,"is_reserved":false,"is_disabled":false,"rental_uris":{"android":"levelo://app?vid=6bd3333d-d223-4bac-afb6-d50e45e01e89","ios":"levelo://app?vid=6bd3333d-d223-4bac-afb6-d50e45e01e89"},"vehicle_type_id":"4","last_reported":1735312091,"current_range_meters":21600,"station_id":"ce4bh492rcd13ifvqdvg","pricing_plan_id":"cebpf4jnsgd1na2vs0mg"},{"bike_id":"eb24c49b-b178-4683-bdd5-1432c5484316","system_id":"levelo_inurba_marseille","lat":43.2962,"lon":5.37169,"is_reserved":false,"is_disabled":false,"rental_uris":{"android":"levelo://app?vid=eb24c49b-b178-4683-bdd5-1432c5484316","ios":"levelo://app?vid=eb24c49b-b178-4683-bdd5-1432c5484316"},"vehicle_type_id":"4","last_reported":1735312091,"current_range_meters":21600,"station_id":"ce4bgnh2rcd13ifvqc0g","pricing_plan_id":"cebpf4jnsgd1na2vs0mg"},{"bike_id":"f91d41be-51ed-459c-b67e-2e7259fde805","system_id":"levelo_inurba_marseille","lat":43.26935,"lon":5.38896,"is_reserved":false,"is_disabled":false,"rental_uris":{"android":"levelo://app?vid=f91d41be-51ed-459c-b67e-2e7259fde805","ios":"levelo://app?vid=f91d41be-51ed-459c-b67e-2e7259fde805"},"vehicle_type_id":"4","last_reported":1735312091,"current_range_meters":38800,"station_id":"ce4bhhh2rcd13ifvqfl0","pricing_plan_id":"cebpf4jnsgd1na2vs0mg"},{"bike_id":"7ed14772-43fd-4e91-9682-602d4d8bddbc","system_id":"levelo_inurba_marseille","lat":43.24648,"lon":5.38887,"is_reserved":false,"is_disabled":false,"rental_uris":{"android":"levelo://app?vid=7ed14772-43fd-4e91-9682-602d4d8bddbc","ios":"levelo://app?vid=7ed14772-43fd-4e91-9682-602d4d8bddbc"},"vehicle_type_id":"4","last_reported":1735312091,"current_range_meters":38000,"station_id":"ce4bhg12rcd13ifvqf60","pricing_plan_id":"cebpf4jnsgd1na2vs0mg"},{"bike_id":"3fd0ce8b-62e5-482c-86d5-ed88c92ffef8","system_id":"levelo_inurba_marseille","lat":43.27437,"lon":5.39384,"is_reserved":false,"is_disabled":false,"rental_uris":{"android":"levelo://app?vid=3fd0ce8b-62e5-482c-86d5-ed88c92ffef8","ios":"levelo://app?vid=3fd0ce8b-62e5-482c-86d5-ed88c92ffef8"},"vehicle_type_id":"4","last_reported":1735312091,"current_range_meters":16800,"station_id":"ce4bhdp2rcd13ifvqf20","pricing_plan_id":"cebpf4jnsgd1na2vs0mg"},{"bike_id":"c9e5d6c6-5601-4769-be5c-20fef93ca121","system_id":"levelo_inurba_marseille","lat":43.24177,"lon":5.36384,"is_reserved":false,"is_disabled":false,"rental_uris":{"android":"levelo://app?vid=c9e5d6c6-5601-4769-be5c-20fef93ca121","ios":"levelo://app?vid=c9e5d6c6-5601-4769-be5c-20fef93ca121"},"vehicle_type_id":"4","last_reported":1735312091,"current_range_meters":22400,"station_id":"cpo36qri1sfpv3e86is0","pricing_plan_id":"cebpf4jnsgd1na2vs0mg"},{"bike_id":"8ef58229-d1c5-4f72-94a7-7efa09974d82","system_id":"levelo_inurba_marseille","lat":43.253568,"lon":5.402061,"is_reserved":false,"is_disabled":false,"rental_uris":{"android":"levelo://app?vid=8ef58229-d1c5-4f72-94a7-7efa09974d82","ios":"levelo://app?vid=8ef58229-d1c5-4f72-94a7-7efa09974d82"},"vehicle_type_id":"4","last_reported":1735312091,"current_range_meters":38000,"station_id":"ce4bhlh2rcd13ifvqgig","pricing_plan_id":"cebpf4jnsgd1na2vs0mg"},{"bike_id":"548b2d79-54d6-4c1e-abdd-d982c42234dd","system_id":"levelo_inurba_marseille","lat":43.27963,"lon":5.38701,"is_reserved":false,"is_disabled":false,"rental_uris":{"android":"levelo://app?vid=548b2d79-54d6-4c1e-abdd-d982c42234dd","ios":"levelo://app?vid=548b2d79-54d6-4c1e-abdd-d982c42234dd"},"vehicle_type_id":"4","last_reported":1735312091,"current_range_meters":38800,"station_id":"ce4bhg12rcd13ifvqf80","pricing_plan_id":"cebpf4jnsgd1na2vs0mg"},{"bike_id":"8dc0edca-2d83-43db-b2b6-d78e1244e192","system_id":"levelo_inurba_marseille","lat":43.23059,"lon":5.35495,"is_reserved":false,"is_disabled":false,"rental_uris":{"android":"levelo://app?vid=8dc0edca-2d83-43db-b2b6-d78e1244e192","ios":"levelo://app?vid=8dc0edca-2d83-43db-b2b6-d78e1244e192"},"vehicle_type_id":"4","last_reported":1735312091,"current_range_meters":8000,"station_id":"cpo3342slgdg3j2ifvpg","pricing_plan_id":"cebpf4jnsgd1na2vs0mg"},{"bike_id":"9bc5deaa-a3f8-40a6-be0a-3a5e9dbd1025","system_id":"levelo_inurba_marseille","lat":43.29852,"lon":5.36287,"is_reserved":false,"is_disabled":false,"rental_uris":{"android":"levelo://app?vid=9bc5deaa-a3f8-40a6-be0a-3a5e9dbd1025","ios":"levelo://app?vid=9bc5deaa-a3f8-40a6-be0a-3a5e9dbd1025"},"vehicle_type_id":"4","last_reported":1735312091,"current_range_meters":30000,"station_id":"ce4bgpp2rcd13ifvqc3g","pricing_plan_id":"cebpf4jnsgd1na2vs0mg"},{"bike_id":"1bee22fa-12ae-4756-a08b-ec90de66abb1","system_id":"levelo_inurba_marseille","lat":43.29845,"lon":5.36289,"is_reserved":false,"is_disabled":false,"rental_uris":{"android":"levelo://app?vid=1bee22fa-12ae-4756-a08b-ec90de66abb1","ios":"levelo://app?vid=1bee22fa-12ae-4756-a08b-ec90de66abb1"},"vehicle_type_id":"4","last_reported":1735312091,"current_range_meters":33600,"station_id":"ce4bgpp2rcd13ifvqc3g","pricing_plan_id":"cebpf4jnsgd1na2vs0mg"},{"bike_id":"17b0ce1d-a9c7-48f9-9537-ba189fa6e7d8","system_id":"levelo_inurba_marseille","lat":43.262,"lon":5.37929,"is_reserved":false,"is_disabled":false,"rental_uris":{"android":"levelo://app?vid=17b0ce1d-a9c7-48f9-9537-ba189fa6e7d8","ios":"levelo://app?vid=17b0ce1d-a9c7-48f9-9537-ba189fa6e7d8"},"vehicle_type_id":"4","last_reported":1735312091,"current_range_meters":34000,"station_id":"ce4bhjp2rcd13ifvqg90","pricing_plan_id":"cebpf4jnsgd1na2vs0mg"},{"bike_id":"29138ec5-d412-4cc0-9796-96cea38f8b3d","system_id":"levelo_inurba_marseille","lat":43.29613,"lon":5.37716,"is_reserved":false,"is_disabled":false,"rental_uris":{"android":"levelo://app?vid=29138ec5-d412-4cc0-9796-96cea38f8b3d","ios":"levelo://app?vid=29138ec5-d412-4cc0-9796-96cea38f8b3d"},"vehicle_type_id":"4","last_reported":1735312091,"current_range_meters":34000,"station_id":"ce4bgi92rcd13ifvqb90","pricing_plan_id":"cebpf4jnsgd1na2vs0mg"},{"bike_id":"772f8c90-106c-4dd1-81fc-372dfa7d2ea9","system_id":"levelo_inurba_marseille","lat":43.27662,"lon":5.38902,"is_reserved":false,"is_disabled":false,"rental_uris":{"android":"levelo://app?vid=772f8c90-106c-4dd1-81fc-372dfa7d2ea9","ios":"levelo://app?vid=772f8c90-106c-4dd1-81fc-372dfa7d2ea9"},"vehicle_type_id":"4","last_reported":1735312091,"current_range_meters":27600,"station_id":"ce4bhi12rcd13ifvqfo0","pricing_plan_id":"cebpf4jnsgd1na2vs0mg"},{"bike_id":"4125345e-e251-4246-8362-7f93eea4fbfe","system_id":"levelo_inurba_marseille","lat":43.30484,"lon":5.36538,"is_reserved":false,"is_disabled":false,"rental_uris":{"android":"levelo://app?vid=4125345e-e251-4246-8362-7f93eea4fbfe","ios":"levelo://app?vid=4125345e-e251-4246-8362-7f93eea4fbfe"},"vehicle_type_id":"4","last_reported":1735312091,"current_range_meters":32400,"station_id":"ce4bgs12rcd13ifvqcag","pricing_plan_id":"cebpf4jnsgd1na2vs0mg"},{"bike_id":"416ba99e-1bb9-405f-a8e0-6899c73a3d41","system_id":"levelo_inurba_marseille","lat":43.26548,"lon":5.39047,"is_reserved":false,"is_disabled":false,"rental_uris":{"android":"levelo://app?vid=416ba99e-1bb9-405f-a8e0-6899c73a3d41","ios":"levelo://app?vid=416ba99e-1bb9-405f-a8e0-6899c73a3d41"},"vehicle_type_id":"4","last_reported":1735312091,"current_range_meters":38800,"station_id":"ce4bhe12rcd13ifvqf30","pricing_plan_id":"cebpf4jnsgd1na2vs0mg"},{"bike_id":"f7a464c8-709d-45bf-be8d-c62a04466f18","system_id":"levelo_inurba_marseille","lat":43.30543,"lon":5.36556,"is_reserved":false,"is_disabled":false,"rental_uris":{"android":"levelo://app?vid=f7a464c8-709d-45bf-be8d-c62a04466f18","ios":"levelo://app?vid=f7a464c8-709d-45bf-be8d-c62a04466f18"},"vehicle_type_id":"4","last_reported":1735312091,"current_range_meters":32000,"station_id":"ce4bgs12rcd13ifvqcag","pricing_plan_id":"cebpf4jnsgd1na2vs0mg"},{"bike_id":"deb74dd6-caed-4958-9dd1-d5f6f39c849d","system_id":"levelo_inurba_marseille","lat":43.2992,"lon":5.36374,"is_reserved":false,"is_disabled":false,"rental_uris":{"android":"levelo://app?vid=deb74dd6-caed-4958-9dd1-d5f6f39c849d","ios":"levelo://app?vid=deb74dd6-caed-4958-9dd1-d5f6f39c849d"},"vehicle_type_id":"4","last_reported":1735312091,"current_range_meters":30000,"station_id":"","pricing_plan_id":"cebpf4jnsgd1na2vs0mg"},{"bike_id":"ea485d80-6715-4f17-850f-5edcdd16b77e","system_id":"levelo_inurba_marseille","lat":43.29263,"lon":5.38431,"is_reserved":false,"is_disabled":false,"rental_uris":{"android":"levelo://app?vid=ea485d80-6715-4f17-850f-5edcdd16b77e","ios":"levelo://app?vid=ea485d80-6715-4f17-850f-5edcdd16b77e"},"vehicle_type_id":"4","last_reported":1735312091,"current_range_meters":23200,"station_id":"ce4bh692rcd13ifvqea0","pricing_plan_id":"cebpf4jnsgd1na2vs0mg"},{"bike_id":"41becbe0-31ce-4941-828d-b4e44498a200","system_id":"levelo_inurba_marseille","lat":43.303095,"lon":5.369155,"is_reserved":false,"is_disabled":true,"rental_uris":{"android":"levelo://app?vid=41becbe0-31ce-4941-828d-b4e44498a200","ios":"levelo://app?vid=41becbe0-31ce-4941-828d-b4e44498a200"},"vehicle_type_id":"4","last_reported":1735312091,"current_range_meters":38800,"station_id":"ce4bgqh2rcd13ifvqc5g","pricing_plan_id":"cebpf4jnsgd1na2vs0mg"},{"bike_id":"58c5cc98-1350-4d6c-9737-54c706a0c237","system_id":"levelo_inurba_marseille","lat":43.28348,"lon":5.38636,"is_reserved":false,"is_disabled":false,"rental_uris":{"android":"levelo://app?vid=58c5cc98-1350-4d6c-9737-54c706a0c237","ios":"levelo://app?vid=58c5cc98-1350-4d6c-9737-54c706a0c237"},"vehicle_type_id":"4","last_reported":1735312091,"current_range_meters":28800,"station_id":"ce4bh492rcd13ifvqdvg","pricing_plan_id":"cebpf4jnsgd1na2vs0mg"},{"bike_id":"3015b0e3-9e1c-44bb-be1b-43e3357b2143","system_id":"levelo_inurba_marseille","lat":43.31752,"lon":5.39019,"is_reserved":false,"is_disabled":false,"rental_uris":{"android":"levelo://app?vid=3015b0e3-9e1c-44bb-be1b-43e3357b2143","ios":"levelo://app?vid=3015b0e3-9e1c-44bb-be1b-43e3357b2143"},"vehicle_type_id":"4","last_reported":1735312091,"current_range_meters":24800,"station_id":"ce4bhqp2rcd13ifvqhng","pricing_plan_id":"cebpf4jnsgd1na2vs0mg"},{"bike_id":"a1c9af49-1121-45a0-9403-8da49a14b00d","system_id":"levelo_inurba_marseille","lat":43.26948,"lon":5.38651,"is_reserved":false,"is_disabled":false,"rental_uris":{"android":"levelo://app?vid=a1c9af49-1121-45a0-9403-8da49a14b00d","ios":"levelo://app?vid=a1c9af49-1121-45a0-9403-8da49a14b00d"},"vehicle_type_id":"4","last_reported":1735312091,"current_range_meters":19200,"station_id":"ce4bhh92rcd13ifvqfh0","pricing_plan_id":"cebpf4jnsgd1na2vs0mg"},{"bike_id":"366b8a1c-5775-4f3a-8550-c9fceeab4b80","system_id":"levelo_inurba_marseille","lat":43.30212,"lon":5.36615,"is_reserved":false,"is_disabled":false,"rental_uris":{"android":"levelo://app?vid=366b8a1c-5775-4f3a-8550-c9fceeab4b80","ios":"levelo://app?vid=366b8a1c-5775-4f3a-8550-c9fceeab4b80"},"vehicle_type_id":"4","last_reported":1735312091,"current_range_meters":38000,"station_id":"ce4bgrh2rcd13ifvqc8g","pricing_plan_id":"cebpf4jnsgd1na2vs0mg"},{"bike_id":"9ecef0be-a712-41f4-bf94-4a37970aa1ae","system_id":"levelo_inurba_marseille","lat":43.31105,"lon":5.3778,"is_reserved":false,"is_disabled":false,"rental_uris":{"android":"levelo://app?vid=9ecef0be-a712-41f4-bf94-4a37970aa1ae","ios":"levelo://app?vid=9ecef0be-a712-41f4-bf94-4a37970aa1ae"},"vehicle_type_id":"4","last_reported":1735312091,"current_range_meters":34000,"station_id":"ce4bgt92rcd13ifvqcg0","pricing_plan_id":"cebpf4jnsgd1na2vs0mg"},{"bike_id":"dac94ecf-3203-4c89-acc0-21c14e979588","system_id":"levelo_inurba_marseille","lat":43.26699,"lon":5.38257,"is_reserved":false,"is_disabled":false,"rental_uris":{"android":"levelo://app?vid=dac94ecf-3203-4c89-acc0-21c14e979588","ios":"levelo://app?vid=dac94ecf-3203-4c89-acc0-21c14e979588"},"vehicle_type_id":"4","last_reported":1735312091,"current_range_meters":35600,"station_id":"ce4bhg92rcd13ifvqf90","pricing_plan_id":"cebpf4jnsgd1na2vs0mg"},{"bike_id":"f0cafae0-f29d-4301-add9-cbd6aefdfe71","system_id":"levelo_inurba_marseille","lat":43.27066,"lon":5.42279,"is_reserved":false,"is_disabled":false,"rental_uris":{"android":"levelo://app?vid=f0cafae0-f29d-4301-add9-cbd6aefdfe71","ios":"levelo://app?vid=f0cafae0-f29d-4301-add9-cbd6aefdfe71"},"vehicle_type_id":"4","last_reported":1735312091,"current_range_meters":28400,"station_id":"ce4bhk92rcd13ifvqgb0","pricing_plan_id":"cebpf4jnsgd1na2vs0mg"},{"bike_id":"c35792fe-a7db-43e2-acae-2042c400859b","system_id":"levelo_inurba_marseille","lat":43.29948,"lon":5.38526,"is_reserved":false,"is_disabled":false,"rental_uris":{"android":"levelo://app?vid=c35792fe-a7db-43e2-acae-2042c400859b","ios":"levelo://app?vid=c35792fe-a7db-43e2-acae-2042c400859b"},"vehicle_type_id":"4","last_reported":1735312091,"current_range_meters":37600,"station_id":"ce4bgj92rcd13ifvqbd0","pricing_plan_id":"cebpf4jnsgd1na2vs0mg"},{"bike_id":"5b4d3f8e-90d7-4939-9ef9-4e665878e1bd","system_id":"levelo_inurba_marseille","lat":43.29316,"lon":5.37174,"is_reserved":false,"is_disabled":false,"rental_uris":{"android":"levelo://app?vid=5b4d3f8e-90d7-4939-9ef9-4e665878e1bd","ios":"levelo://app?vid=5b4d3f8e-90d7-4939-9ef9-4e665878e1bd"},"vehicle_type_id":"4","last_reported":1735312091,"current_range_meters":26000,"station_id":"ce4bgh92rcd13ifvqb40","pricing_plan_id":"cebpf4jnsgd1na2vs0mg"},{"bike_id":"59526d5c-60df-425d-b350-c52aa56c61a0","system_id":"levelo_inurba_marseille","lat":43.28609,"lon":5.37066,"is_reserved":false,"is_disabled":false,"rental_uris":{"android":"levelo://app?vid=59526d5c-60df-425d-b350-c52aa56c61a0","ios":"levelo://app?vid=59526d5c-60df-425d-b350-c52aa56c61a0"},"vehicle_type_id":"4","last_reported":1735312091,"current_range_meters":38400,"station_id":"ce4bht12rcd13ifvqi60","pricing_plan_id":"cebpf4jnsgd1na2vs0mg"},{"bike_id":"76798b88-1237-46c7-b20e-dd10ece63ec5","system_id":"levelo_inurba_marseille","lat":43.28005,"lon":5.40006,"is_reserved":false,"is_disabled":false,"rental_uris":{"android":"levelo://app?vid=76798b88-1237-46c7-b20e-dd10ece63ec5","ios":"levelo://app?vid=76798b88-1237-46c7-b20e-dd10ece63ec5"},"vehicle_type_id":"4","last_reported":1735312091,"current_range_meters":22800,"station_id":"ce4bho92rcd13ifvqh4g","pricing_plan_id":"cebpf4jnsgd1na2vs0mg"},{"bike_id":"6b579508-5354-439e-a4e0-4261173e8d8b","system_id":"levelo_inurba_marseille","lat":43.29912,"lon":5.37486,"is_reserved":false,"is_disabled":false,"rental_uris":{"android":"levelo://app?vid=6b579508-5354-439e-a4e0-4261173e8d8b","ios":"levelo://app?vid=6b579508-5354-439e-a4e0-4261173e8d8b"},"vehicle_type_id":"4","last_reported":1735312091,"current_range_meters":38800,"station_id":"ce4bgjh2rcd13ifvqbg0","pricing_plan_id":"cebpf4jnsgd1na2vs0mg"},{"bike_id":"195786b3-1583-40c6-9510-b5ecf84d5b41","system_id":"levelo_inurba_marseille","lat":43.28709,"lon":5.37386,"is_reserved":false,"is_disabled":false,"rental_uris":{"android":"levelo://app?vid=195786b3-1583-40c6-9510-b5ecf84d5b41","ios":"levelo://app?vid=195786b3-1583-40c6-9510-b5ecf84d5b41"},"vehicle_type_id":"4","last_reported":1735312091,"current_range_meters":5600,"station_id":"ce4bh3p2rcd13ifvqdq0","pricing_plan_id":"cebpf4jnsgd1na2vs0mg"},{"bike_id":"1975fedc-2fca-473f-9382-e4f3506e8f03","system_id":"levelo_inurba_marseille","lat":43.31667,"lon":5.40427,"is_reserved":false,"is_disabled":false,"rental_uris":{"android":"levelo://app?vid=1975fedc-2fca-473f-9382-e4f3506e8f03","ios":"levelo://app?vid=1975fedc-2fca-473f-9382-e4f3506e8f03"},"vehicle_type_id":"4","last_reported":1735312091,"current_range_meters":24800,"station_id":"ce4bh012rcd13ifvqd00","pricing_plan_id":"cebpf4jnsgd1na2vs0mg"},{"bike_id":"a7b4f0bb-e4ac-4842-9563-d1e8f0e4312d","system_id":"levelo_inurba_marseille","lat":43.29001,"lon":5.35609,"is_reserved":false,"is_disabled":false,"rental_uris":{"android":"levelo://app?vid=a7b4f0bb-e4ac-4842-9563-d1e8f0e4312d","ios":"levelo://app?vid=a7b4f0bb-e4ac-4842-9563-d1e8f0e4312d"},"vehicle_type_id":"4","last_reported":1735312091,"current_range_meters":26800,"station_id":"ce4bhb92rcd13ifvqen0","pricing_plan_id":"cebpf4jnsgd1na2vs0mg"},{"bike_id":"5c4761e9-1ee5-4ea9-9dd2-01ebc88afbe6","system_id":"levelo_inurba_marseille","lat":43.25581,"lon":5.38236,"is_reserved":false,"is_disabled":false,"rental_uris":{"android":"levelo://app?vid=5c4761e9-1ee5-4ea9-9dd2-01ebc88afbe6","ios":"levelo://app?vid=5c4761e9-1ee5-4ea9-9dd2-01ebc88afbe6"},"vehicle_type_id":"4","last_reported":1735312091,"current_range_meters":28800,"station_id":"ce4bhih2rcd13ifvqfs0","pricing_plan_id":"cebpf4jnsgd1na2vs0mg"},{"bike_id":"2f54fd79-f47c-4398-ad16-10e90a592d29","system_id":"levelo_inurba_marseille","lat":43.29615,"lon":5.3716,"is_reserved":false,"is_disabled":false,"rental_uris":{"android":"levelo://app?vid=2f54fd79-f47c-4398-ad16-10e90a592d29","ios":"levelo://app?vid=2f54fd79-f47c-4398-ad16-10e90a592d29"},"vehicle_type_id":"4","last_reported":1735312091,"current_range_meters":27200,"station_id":"ce4bgnh2rcd13ifvqc0g","pricing_plan_id":"cebpf4jnsgd1na2vs0mg"},{"bike_id":"db7e64ab-55a2-4289-b423-61bffd495299","system_id":"levelo_inurba_marseille","lat":43.29358,"lon":5.37846,"is_reserved":false,"is_disabled":false,"rental_uris":{"android":"levelo://app?vid=db7e64ab-55a2-4289-b423-61bffd495299","ios":"levelo://app?vid=db7e64ab-55a2-4289-b423-61bffd495299"},"vehicle_type_id":"4","last_reported":1735312091,"current_range_meters":39200,"station_id":"ce4bgjh2rcd13ifvqbf0","pricing_plan_id":"cebpf4jnsgd1na2vs0mg"},{"bike_id":"f36710c4-423c-4b6b-bcd7-e74864dff2c1","system_id":"levelo_inurba_marseille","lat":43.24389,"lon":5.37061,"is_reserved":false,"is_disabled":false,"rental_uris":{"android":"levelo://app?vid=f36710c4-423c-4b6b-bcd7-e74864dff2c1","ios":"levelo://app?vid=f36710c4-423c-4b6b-bcd7-e74864dff2c1"},"vehicle_type_id":"4","last_reported":1735312091,"current_range_meters":33600,"station_id":"ce4bhhh2rcd13ifvqfk0","pricing_plan_id":"cebpf4jnsgd1na2vs0mg"},{"bike_id":"6362e8bb-3359-4ba9-a4d6-8d308416ab29","system_id":"levelo_inurba_marseille","lat":43.3169,"lon":5.4047,"is_reserved":false,"is_disabled":false,"rental_uris":{"android":"levelo://app?vid=6362e8bb-3359-4ba9-a4d6-8d308416ab29","ios":"levelo://app?vid=6362e8bb-3359-4ba9-a4d6-8d308416ab29"},"vehicle_type_id":"4","last_reported":1735312091,"current_range_meters":38400,"station_id":"ce4bh012rcd13ifvqd00","pricing_plan_id":"cebpf4jnsgd1na2vs0mg"},{"bike_id":"397c2b21-5eeb-4283-962a-98dc25b32ae7","system_id":"levelo_inurba_marseille","lat":43.31355,"lon":5.36722,"is_reserved":false,"is_disabled":false,"rental_uris":{"android":"levelo://app?vid=397c2b21-5eeb-4283-962a-98dc25b32ae7","ios":"levelo://app?vid=397c2b21-5eeb-4283-962a-98dc25b32ae7"},"vehicle_type_id":"4","last_reported":1735312091,"current_range_meters":32400,"station_id":"ce4bgr92rcd13ifvqc6g","pricing_plan_id":"cebpf4jnsgd1na2vs0mg"},{"bike_id":"d6763751-8aeb-4ad0-82c6-a260450ed1f7","system_id":"levelo_inurba_marseille","lat":43.33748,"lon":5.37453,"is_reserved":false,"is_disabled":false,"rental_uris":{"android":"levelo://app?vid=d6763751-8aeb-4ad0-82c6-a260450ed1f7","ios":"levelo://app?vid=d6763751-8aeb-4ad0-82c6-a260450ed1f7"},"vehicle_type_id":"4","last_reported":1735312091,"current_range_meters":35600,"station_id":"","pricing_plan_id":"cebpf4jnsgd1na2vs0mg"},{"bike_id":"16a08213-9e7f-40cd-8a4c-3ac289c239e7","system_id":"levelo_inurba_marseille","lat":43.27992,"lon":5.41674,"is_reserved":false,"is_disabled":false,"rental_uris":{"android":"levelo://app?vid=16a08213-9e7f-40cd-8a4c-3ac289c239e7","ios":"levelo://app?vid=16a08213-9e7f-40cd-8a4c-3ac289c239e7"},"vehicle_type_id":"4","last_reported":1735312091,"current_range_meters":24400,"station_id":"ce4bho12rcd13ifvqh1g","pricing_plan_id":"cebpf4jnsgd1na2vs0mg"},