{"last_updated":1728741995,"ttl":60,"version":"2.2","data":{"bikes":[{"bike_id":"a90cfefd-ccd4-4d2f-906c-f11429f46878","system_id":"levelo_inurba_marseille","lat":43.30364,"lon":5.36472,"is_reserved":false,"is_disabled":false,"rental_uris":{"android":"levelo://app?vid=a90cfefd-ccd4-4d2f-906c-f11429f46878","ios":"levelo://app?vid=a90cfefd-ccd4-4d2f-906c-f11429f46878"},"vehicle_type_id":"4","last_reported":1728741996,"current_range_meters":4400,"station_id":"","pricing_plan_id":"cebpf4jnsgd1na2vs0mg"},{"bike_id":"a88cc3d5-4214-4799-a463-c01d33dbb23e","system_id":"levelo_inurba_marseille","lat":43.24999,"lon":5.38913,"is_reserved":false,"is_disabled":false,"rental_uris":{"android":"levelo://app?vid=a88cc3d5-4214-4799-a463-c01d33dbb23e","ios":"levelo://app?vid=a88cc3d5-4214-4799-a463-c01d33dbb23e"},"vehicle_type_id":"4","last_reported":1728741996,"current_range_meters":22000,"station_id":"ce4bhgp2rcd13ifvqfd0","pricing_plan_id":"cebpf4jnsgd1na2vs0mg"},{"bike_id":"dfc73125-20e9-4b72-9649-d06407fdb3a3","system_id":"levelo_inurba_marseille","lat":43.24649,"lon":5.38903,"is_reserved":false,"is_disabled":false,"rental_uris":{"android":"levelo://app?vid=dfc73125-20e9-4b72-9649-d06407fdb3a3","ios":"levelo://app?vid=dfc73125-20e9-4b72-9649-d06407fdb3a3"},"vehicle_type_id":"4","last_reported":1728741996,"current_range_meters":28800,"station_id":"ce4bhg12rcd13ifvqf60","pricing_plan_id":"cebpf4jnsgd1na2vs0mg"},{"bike_id":"38eda0d1-5ce6-4010-9d58-af0c4b4806fc","system_id":"levelo_inurba_marseille","lat":43.27172,"lon":5.40995,"is_reserved":false,"is_disabled":false,"rental_uris":{"android":"levelo://app?vid=38eda0d1-5ce6-4010-9d58-af0c4b4806fc","ios":"levelo://app?vid=38eda0d1-5ce6-4010-9d58-af0c4b4806fc"},"vehicle_type_id":"4","last_reported":1728741996,"current_range_meters":38800,"station_id":"ce4bhl12rcd13ifvqgf0","pricing_plan_id":"cebpf4jnsgd1na2vs0mg"},{"bike_id":"3144e76e-db49-4d59-a063-0b64bf14dd49","system_id":"levelo_inurba_marseille","lat":43.275594,"lon":5.384116,"is_reserved":false,"is_disabled":false,"rental_uris":{"android":"levelo://app?vid=3144e76e-db49-4d59-a063-0b64bf14dd49","ios":"levelo://app?vid=3144e76e-db49-4d59-a063-0b64bf14dd49"},"vehicle_type_id":"4","last_reported":1728741996,"current_range_meters":8400,"station_id":"ce4bhh92rcd13ifvqfi0","pricing_plan_id":"cebpf4jnsgd1na2vs0mg"},{"bike_id":"69dc2186-5810-4c2f-a741-6ce48c5922fc","system_id":"levelo_inurba_marseille","lat":43.30601,"lon":5.37226,"is_reserved":false,"is_disabled":false,"rental_uris":{"android":"levelo://app?vid=69dc2186-5810-4c2f-a741-6ce48c5922fc","ios":"levelo://app?vid=69dc2186-5810-4c2f-a741-6ce48c5922fc"},"vehicle_type_id":"4","last_reported":1728741996,"current_range_meters":4800,"station_id":"ce4bgqh2rcd13ifvqc4g","pricing_plan_id":"cebpf4jnsgd1na2vs0mg"},{"bike_id":"593c355d-b955-4a97-9ed8-d02901527bce","system_id":"levelo_inurba_marseille","lat":43.27322,"lon":5.39069,"is_reserved":false,"is_disabled":false,"rental_uris":{"android":"levelo://app?vid=593c355d-b955-4a97-9ed8-d02901527bce","ios":"levelo://app?vid=593c355d-b955-4a97-9ed8-d02901527bce"},"vehicle_type_id":"4","last_reported":1728741996,"current_range_meters":16800,"station_id":"ce4bhgp2rcd13ifvqfe0","pricing_plan_id":"cebpf4jnsgd1na2vs0mg"},{"bike_id":"683e3e26-2253-42a1-9371-b110cdd0be8f","system_id":"levelo_inurba_marseille","lat":43.29623,"lon":5.37148,"is_reserved":false,"is_disabled":false,"rental_uris":{"android":"levelo://app?vid=683e3e26-2253-42a1-9371-b110cdd0be8f","ios":"levelo://app?vid=683e3e26-2253-42a1-9371-b110cdd0be8f"},"vehicle_type_id":"4","last_reported":1728741996,"current_range_meters":9600,"station_id":"ce4bgnh2rcd13ifvqc0g","pricing_plan_id":"cebpf4jnsgd1na2vs0mg"},{"bike_id":"61432fa4-e69a-43e1-a752-60da459a1e2e","system_id":"levelo_inurba_marseille","lat":43.33724,"lon":5.3918,"is_reserved":false,"is_disabled":false,"rental_uris":{"android":"levelo://app?vid=61432fa4-e69a-43e1-a752-60da459a1e2e","ios":"levelo://app?vid=61432fa4-e69a-43e1-a752-60da459a1e2e"},"vehicle_type_id":"4","last_reported":1728741996,"current_range_meters":38000,"station_id":"ce4bhr92rcd13ifvqhsg","pricing_plan_id":"cebpf4jnsgd1na2vs0mg"},{"bike_id":"67d94a03-8358-44ba-a692-ca6f32fc5076","system_id":"levelo_inurba_marseille","lat":43.292572,"lon":5.409093,"is_reserved":false,"is_disabled":false,"rental_uris":{"android":"levelo://app?vid=67d94a03-8358-44ba-a692-ca6f32fc5076","ios":"levelo://app?vid=67d94a03-8358-44ba-a692-ca6f32fc5076"},"vehicle_type_id":"4","last_reported":1728741996,"current_range_meters":37600,"station_id":"ce4bh192rcd13ifvqdc0","pricing_plan_id":"cebpf4jnsgd1na2vs0mg"},{"bike_id":"76a7aa55-6b43-4db3-be1d-f34667277aab","system_id":"levelo_inurba_marseille","lat":43.3199,"lon":5.38148,"is_reserved":false,"is_disabled":false,"rental_uris":{"android":"levelo://app?vid=76a7aa55-6b43-4db3-be1d-f34667277aab","ios":"levelo://app?vid=76a7aa55-6b43-4db3-be1d-f34667277aab"},"vehicle_type_id":"4","last_reported":1728741996,"current_range_meters":25200,"station_id":"ce4bhr12rcd13ifvqhpg","pricing_plan_id":"cebpf4jnsgd1na2vs0mg"},{"bike_id":"5478a3d2-c2ee-4a89-aa83-e762ee9240f8","system_id":"levelo_inurba_marseille","lat":43.26944,"lon":5.40244,"is_reserved":false,"is_disabled":false,"rental_uris":{"android":"levelo://app?vid=5478a3d2-c2ee-4a89-aa83-e762ee9240f8","ios":"levelo://app?vid=5478a3d2-c2ee-4a89-aa83-e762ee9240f8"},"vehicle_type_id":"4","last_reported":1728741996,"current_range_meters":32800,"station_id":"cjm6bp8fraef2m0cb0m0","pricing_plan_id":"cebpf4jnsgd1na2vs0mg"},{"bike_id":"af965d61-9088-4807-915b-ea32923e4324","system_id":"levelo_inurba_marseille","lat":43.29727,"lon":5.37682,"is_reserved":false,"is_disabled":false,"rental_uris":{"android":"levelo://app?vid=af965d61-9088-4807-915b-ea32923e4324","ios":"levelo://app?vid=af965d61-9088-4807-915b-ea32923e4324"},"vehicle_type_id":"4","last_reported":1728741996,"current_range_meters":37600,"station_id":"ce4bgkh2rcd13ifvqbl0","pricing_plan_id":"cebpf4jnsgd1na2vs0mg"},{"bike_id":"4949921b-1e1c-4e83-86e3-dbc9a805602c","system_id":"levelo_inurba_marseille","lat":43.23195,"lon":5.35558,"is_reserved":false,"is_disabled":false,"rental_uris":{"android":"levelo://app?vid=4949921b-1e1c-4e83-86e3-dbc9a805602c","ios":"levelo://app?vid=4949921b-1e1c-4e83-86e3-dbc9a805602c"},"vehicle_type_id":"4","last_reported":1728741996,"current_range_meters":18000,"station_id":"ce4bhu92rcd13ifvqi70","pricing_plan_id":"cebpf4jnsgd1na2vs0mg"},{"bike_id":"d522a82d-5638-4ca1-910b-2d42b991ee72","system_id":"levelo_inurba_marseille","lat":43.30138,"lon":5.37424,"is_reserved":false,"is_disabled":false,"rental_uris":{"android":"levelo://app?vid=d522a82d-5638-4ca1-910b-2d42b991ee72","ios":"levelo://app?vid=d522a82d-5638-4ca1-910b-2d42b991ee72"},"vehicle_type_id":"4","last_reported":1728741996,"current_range_meters":38800,"station_id":"ce4bgs92rcd13ifvqcc0","pricing_plan_id":"cebpf4jnsgd1na2vs0mg"},{"bike_id":"c5c33660-077d-4f97-b2f0-40691ac09116","system_id":"levelo_inurba_marseille","lat":43.24392,"lon":5.37058,"is_reserved":false,"is_disabled":false,"rental_uris":{"android":"levelo://app?vid=c5c33660-077d-4f97-b2f0-40691ac09116","ios":"levelo://app?vid=c5c33660-077d-4f97-b2f0-40691ac09116"},"vehicle_type_id":"4","last_reported":1728741996,"current_range_meters":37600,"station_id":"ce4bhhh2rcd13ifvqfk0","pricing_plan_id":"cebpf4jnsgd1na2vs0mg"},{"bike_id":"ac676005-c4e2-41d0-ad09-d8e43b322dca","system_id":"levelo_inurba_marseille","lat":43.29268,"lon":5.3844,"is_reserved":false,"is_disabled":false,"rental_uris":{"android":"levelo://app?vid=ac676005-c4e2-41d0-ad09-d8e43b322dca","ios":"levelo://app?vid=ac676005-c4e2-41d0-ad09-d8e43b322dca"},"vehicle_type_id":"4","last_reported":1728741996,"current_range_meters":9600,"station_id":"ce4bh692rcd13ifvqea0","pricing_plan_id":"cebpf4jnsgd1na2vs0mg"},{"bike_id":"931d1f9c-4cb2-40a2-a856-914a1c55fcf3","system_id":"levelo_inurba_marseille","lat":43.24566,"lon":5.41655,"is_reserved":false,"is_disabled":false,"rental_uris":{"android":"levelo://app?vid=931d1f9c-4cb2-40a2-a856-914a1c55fcf3","ios":"levelo://app?vid=931d1f9c-4cb2-40a2-a856-914a1c55fcf3"},"vehicle_type_id":"4","last_reported":1728741996,"current_range_meters":11200,"station_id":"","pricing_plan_id":"cebpf4jnsgd1na2vs0mg"},{"bike_id":"5a86c784-356a-4dc3-ab27-bbea9ceaf281","system_id":"levelo_inurba_marseille","lat":43.2849,"lon":5.38551,"is_reserved":false,"is_disabled":false,"rental_uris":{"android":"levelo://app?vid=5a86c784-356a-4dc3-ab27-bbea9ceaf281","ios":"levelo://app?vid=5a86c784-356a-4dc3-ab27-bbea9ceaf281"},"vehicle_type_id":"4","last_reported":1728741996,"current_range_meters":10000,"station_id":"ce4bh8p2rcd13ifvqeb0","pricing_plan_id":"cebpf4jnsgd1na2vs0mg"},{"bike_id":"4598a790-27f4-4b79-8b9e-7985de82d359","system_id":"levelo_inurba_marseille","lat":43.33021,"lon":5.39038,"is_reserved":false,"is_disabled":false,"rental_uris":{"android":"levelo://app?vid=4598a790-27f4-4b79-8b9e-7985de82d359","ios":"levelo://app?vid=4598a790-27f4-4b79-8b9e-7985de82d359"},"vehicle_type_id":"4","last_reported":1728741996,"current_range_meters":16000,"station_id":"ce4bhr92rcd13ifvqhrg","pricing_plan_id":"cebpf4jnsgd1na2vs0mg"},{"bike_id":"9a69b489-cdc0-4944-8c69-2d87c7a4945d","system_id":"levelo_inurba_marseille","lat":43.290131,"lon":5.373126,"is_reserved":false,"is_disabled":false,"rental_uris":{"android":"levelo://app?vid=9a69b489-cdc0-4944-8c69-2d87c7a4945d","ios":"levelo://app?vid=9a69b489-cdc0-4944-8c69-2d87c7a4945d"},"vehicle_type_id":"4","last_reported":1728741996,"current_range_meters":25200,"station_id":"ce4bhbp2rcd13ifvqerg","pricing_plan_id":"cebpf4jnsgd1na2vs0mg"},{"bike_id":"6c03e1b4-de58-4fe9-8bd4-63bfebb0cee7","system_id":"levelo_inurba_marseille","lat":43.24179,"lon":5.39738,"is_reserved":false,"is_disabled":false,"rental_uris":{"android":"levelo://app?vid=6c03e1b4-de58-4fe9-8bd4-63bfebb0cee7","ios":"levelo://app?vid=6c03e1b4-de58-4fe9-8bd4-63bfebb0cee7"},"vehicle_type_id":"4","last_reported":1728741996,"current_range_meters":8800,"station_id":"ce4bhn12rcd13ifvqgpg","pricing_plan_id":"cebpf4jnsgd1na2vs0mg"},{"bike_id":"3e60b11f-d675-430d-9979-c4e64a7c6c68","system_id":"levelo_inurba_marseille","lat":43.29619,"lon":5.3716,"is_reserved":false,"is_disabled":false,"rental_uris":{"android":"levelo://app?vid=3e60b11f-d675-430d-9979-c4e64a7c6c68","ios":"levelo://app?vid=3e60b11f-d675-430d-9979-c4e64a7c6c68"},"vehicle_type_id":"4","last_reported":1728741996,"current_range_meters":24800,"station_id":"ce4bgnh2rcd13ifvqc0g","pricing_plan_id":"cebpf4jnsgd1na2vs0mg"},{"bike_id":"e745690f-48a4-44eb-81b3-fa62c4bc7567","system_id":"levelo_inurba_marseille","lat":43.29579,"lon":5.37514,"is_reserved":false,"is_disabled":false,"rental_uris":{"android":"levelo://app?vid=e745690f-48a4-44eb-81b3-fa62c4bc7567","ios":"levelo://app?vid=e745690f-48a4-44eb-81b3-fa62c4bc7567"},"vehicle_type_id":"4","last_reported":1728741996,"current_range_meters":28400,"station_id":"ce4bgh92rcd13ifvqb50","pricing_plan_id":"cebpf4jnsgd1na2vs0mg"},{"bike_id":"f626a4fb-8048-42ac-832d-4f3bd2fcaeec","system_id":"levelo_inurba_marseille","lat":43.27565,"lon":5.38413,"is_reserved":false,"is_disabled":false,"rental_uris":{"android":"levelo://app?vid=f626a4fb-8048-42ac-832d-4f3bd2fcaeec","ios":"levelo://app?vid=f626a4fb-8048-42ac-832d-4f3bd2fcaeec"},"vehicle_type_id":"4","last_reported":1728741996,"current_range_meters":2000,"station_id":"ce4bhh92rcd13ifvqfi0","pricing_plan_id":"cebpf4jnsgd1na2vs0mg"},{"bike_id":"16451e5d-97d1-468f-b8f8-9f1bdd7b01c1","system_id":"levelo_inurba_marseille","lat":43.2985,"lon":5.36285,"is_reserved":false,"is_disabled":false,"rental_uris":{"android":"levelo://app?vid=16451e5d-97d1-468f-b8f8-9f1bdd7b01c1","ios":"levelo://app?vid=16451e5d-97d1-468f-b8f8-9f1bdd7b01c1"},"vehicle_type_id":"4","last_reported":1728741996,"current_range_meters":38800,"station_id":"ce4bgpp2rcd13ifvqc3g","pricing_plan_id":"cebpf4jnsgd1na2vs0mg"},{"bike_id":"856b6f8d-d515-43b8-9b64-c12e06adfe2c","system_id":"levelo_inurba_marseille","lat":43.30459,"lon":5.37902,"is_reserved":false,"is_disabled":false,"rental_uris":{"android":"levelo://app?vid=856b6f8d-d515-43b8-9b64-c12e06adfe2c","ios":"levelo://app?vid=856b6f8d-d515-43b8-9b64-c12e06adfe2c"},"vehicle_type_id":"4","last_reported":1728741996,"current_range_meters":38800,"station_id":"ce4bgup2rcd13ifvqcn0","pricing_plan_id":"cebpf4jnsgd1na2vs0mg"},{"bike_id":"dd6cfad1-89a3-4374-8c56-1d91e357d47f","system_id":"levelo_inurba_marseille","lat":43.27321,"lon":5.39073,"is_reserved":false,"is_disabled":false,"rental_uris":{"android":"levelo://app?vid=dd6cfad1-89a3-4374-8c56-1d91e357d47f","ios":"levelo://app?vid=dd6cfad1-89a3-4374-8c56-1d91e357d47f"},"vehicle_type_id":"4","last_reported":1728741996,"current_range_meters":36400,"station_id":"ce4bhgp2rcd13ifvqfe0","pricing_plan_id":"cebpf4jnsgd1na2vs0mg"},{"bike_id":"6a94511c-019c-4363-b7d6-d070f7b416ae","system_id":"levelo_inurba_marseille","lat":43.31221,"lon":5.36852,"is_reserved":false,"is_disabled":false,"rental_uris":{"android":"levelo://app?vid=6a94511c-019c-4363-b7d6-d070f7b416ae","ios":"levelo://app?vid=6a94511c-019c-4363-b7d6-d070f7b416ae"},"vehicle_type_id":"4","last_reported":1728741996,"current_range_meters":10000,"station_id":"ce4bgl92rcd13ifvqbq0","pricing_plan_id":"cebpf4jnsgd1na2vs0mg"},{"bike_id":"3d56fd43-7f3a-478f-a81b-fba7289193d9","system_id":"levelo_inurba_marseille","lat":43.27981,"lon":5.41674,"is_reserved":false,"is_disabled":false,"rental_uris":{"android":"levelo://app?vid=3d56fd43-7f3a-478f-a81b-fba7289193d9","ios":"levelo://app?vid=3d56fd43-7f3a-478f-a81b-fba7289193d9"},"vehicle_type_id":"4","last_reported":1728741996,"current_range_meters":29600,"station_id":"ce4bho12rcd13ifvqh1g","pricing_plan_id":"cebpf4jnsgd1na2vs0mg"},{"bike_id":"04e8a7e5-910c-4fbf-8629-ede43a0c3bb8","system_id":"levelo_inurba_marseille","lat":43.26782,"lon":5.3942,"is_reserved":false,"is_disabled":false,"rental_uris":{"android":"levelo://app?vid=04e8a7e5-910c-4fbf-8629-ede43a0c3bb8","ios":"levelo://app?vid=04e8a7e5-910c-4fbf-8629-ede43a0c3bb8"},"vehicle_type_id":"4","last_reported":1728741996,"current_range_meters":38000,"station_id":"ce4bhh12rcd13ifvqfg0","pricing_plan_id":"cebpf4jnsgd1na2vs0mg"},{"bike_id":"851d29bb-dfef-4b3b-b9e6-d79f9e5b9fc1","system_id":"levelo_inurba_marseille","lat":43.25583,"lon":5.38228,"is_reserved":false,"is_disabled":false,"rental_uris":{"android":"levelo://app?vid=851d29bb-dfef-4b3b-b9e6-d79f9e5b9fc1","ios":"levelo://app?vid=851d29bb-dfef-4b3b-b9e6-d79f9e5b9fc1"},"vehicle_type_id":"4","last_reported":1728741996,"current_range_meters":38000,"station_id":"ce4bhih2rcd13ifvqfs0","pricing_plan_id":"cebpf4jnsgd1na2vs0mg"},{"bike_id":"35eb4c1c-05f0-4eb0-8f1c-9272d14abf2f","system_id":"levelo_inurba_marseille","lat":43.3054,"lon":5.36525,"is_reserved":false,"is_disabled":false,"rental_uris":{"android":"levelo://app?vid=35eb4c1c-05f0-4eb0-8f1c-9272d14abf2f","ios":"levelo://app?vid=35eb4c1c-05f0-4eb0-8f1c-9272d14abf2f"},"vehicle_type_id":"4","last_reported":1728741996,"current_range_meters":33200,"station_id":"ce4bgs12rcd13ifvqcag","pricing_plan_id":"cebpf4jnsgd1na2vs0mg"},{"bike_id":"dd26c2c0-4031-49f7-afde-18a02cce525c","system_id":"levelo_inurba_marseille","lat":43.24074,"lon":5.37756,"is_reserved":false,"is_disabled":false,"rental_uris":{"android":"levelo://app?vid=dd26c2c0-4031-49f7-afde-18a02cce525c","ios":"levelo://app?vid=dd26c2c0-4031-49f7-afde-18a02cce525c"},"vehicle_type_id":"4","last_reported":1728741996,"current_range_meters":34800,"station_id":"ce4bhnp2rcd13ifvqgvg","pricing_plan_id":"cebpf4jnsgd1na2vs0mg"},{"bike_id":"86851483-6460-4f2a-8d92-b3b47e5c55aa","system_id":"levelo_inurba_marseille","lat":43.23957,"lon":5.36631,"is_reserved":false,"is_disabled":false,"rental_uris":{"android":"levelo://app?vid=86851483-6460-4f2a-8d92-b3b47e5c55aa","ios":"levelo://app?vid=86851483-6460-4f2a-8d92-b3b47e5c55aa"},"vehicle_type_id":"4","last_reported":1728741996,"current_range_meters":38800,"station_id":"ce4bhi12rcd13ifvqfp0","pricing_plan_id":"cebpf4jnsgd1na2vs0mg"},{"bike_id":"900d410e-a263-4441-80a1-af67345a66d2","system_id":"levelo_inurba_marseille","lat":43.2439,"lon":5.37066,"is_reserved":false,"is_disabled":false,"rental_uris":{"android":"levelo://app?vid=900d410e-a263-4441-80a1-af67345a66d2","ios":"levelo://app?vid=900d410e-a263-4441-80a1-af67345a66d2"},"vehicle_type_id":"4","last_reported":1728741996,"current_range_meters":24400,"station_id":"ce4bhhh2rcd13ifvqfk0","pricing_plan_id":"cebpf4jnsgd1na2vs0mg"},{"bike_id":"93cf6e6a-b59b-4d63-9a00-c25bf3ea1f05","system_id":"levelo_inurba_marseille","lat":43.29894,"lon":5.43656,"is_reserved":false,"is_disabled":false,"rental_uris":{"android":"levelo://app?vid=93cf6e6a-b59b-4d63-9a00-c25bf3ea1f05","ios":"levelo://app?vid=93cf6e6a-b59b-4d63-9a00-c25bf3ea1f05"},"vehicle_type_id":"4","last_reported":1728741996,"current_range_meters":39200,"station_id":"ce4bhpp2rcd13ifvqhfg","pricing_plan_id":"cebpf4jnsgd1na2vs0mg"},{"bike_id":"715a27b7-59c5-4d1b-a0dd-06f21d803df4","system_id":"levelo_inurba_marseille","lat":43.26944,"lon":5.38628,"is_reserved":false,"is_disabled":false,"rental_uris":{"android":"levelo://app?vid=715a27b7-59c5-4d1b-a0dd-06f21d803df4","ios":"levelo://app?vid=715a27b7-59c5-4d1b-a0dd-06f21d803df4"},"vehicle_type_id":"4","last_reported":1728741996,"current_range_meters":20000,"station_id":"ce4bhh92rcd13ifvqfh0","pricing_plan_id":"cebpf4jnsgd1na2vs0mg"},{"bike_id":"ee3d77b2-c4c3-417a-8170-d8edb7edeab8","system_id":"levelo_inurba_marseille","lat":43.22936,"lon":5.35375,"is_reserved":false,"is_disabled":false,"rental_uris":{"android":"levelo://app?vid=ee3d77b2-c4c3-417a-8170-d8edb7edeab8","ios":"levelo://app?vid=ee3d77b2-c4c3-417a-8170-d8edb7edeab8"},"vehicle_type_id":"4","last_reported":1728741996,"current_range_meters":12000,"station_id":"cpo3532slgdg3j2ikp40","pricing_plan_id":"cebpf4jnsgd1na2vs0mg"},{"bike_id":"46547545-8bae-494b-a5d0-75a4ee39d473","system_id":"levelo_inurba_marseille","lat":43.30139,"lon":5.37419,"is_reserved":false,"is_disabled":false,"rental_uris":{"android":"levelo://app?vid=46547545-8bae-494b-a5d0-75a4ee39d473","ios":"levelo://app?vid=46547545-8bae-494b-a5d0-75a4ee39d473"},"vehicle_type_id":"4","last_reported":1728741996,"current_range_meters":38800,"station_id":"ce4bgs92rcd13ifvqcc0","pricing_plan_id":"cebpf4jnsgd1na2vs0mg"},{"bike_id":"59337b9f-8c74-4938-b5cf-c56f4c4b2077","system_id":"levelo_inurba_marseille","lat":43.24806,"lon":5.37454,"is_reserved":false,"is_disabled":false,"rental_uris":{"android":"levelo://app?vid=59337b9f-8c74-4938-b5cf-c56f4c4b2077","ios":"levelo://app?vid=59337b9f-8c74-4938-b5cf-c56f4c4b2077"},"vehicle_type_id":"4","last_reported":1728741996,"current_range_meters":22800,"station_id":"ce4bhgh2rcd13ifvqfb0","pricing_plan_id":"cebpf4jnsgd1na2vs0mg"},{"bike_id":"e8d9dfa7-c939-4833-bb03-c989fc416577","system_id":"levelo_inurba_marseille","lat":43.30943,"lon":5.39021,"is_reserved":false,"is_disabled":false,"rental_uris":{"android":"levelo://app?vid=e8d9dfa7-c939-4833-bb03-c989fc416577","ios":"levelo://app?vid=e8d9dfa7-c939-4833-bb03-c989fc416577"},"vehicle_type_id":"4","last_reported":1728741996,"current_range_meters":19200,"station_id":"ce4bgup2rcd13ifvqco0","pricing_plan_id":"cebpf4jnsgd1na2vs0mg"},{"bike_id":"d577444e-776b-4a8e-ae86-d1c834eee2e7","system_id":"levelo_inurba_marseille","lat":43.290716,"lon":5.371519,"is_reserved":false,"is_disabled":false,"rental_uris":{"android":"levelo://app?vid=d577444e-776b-4a8e-ae86-d1c834eee2e7","ios":"levelo://app?vid=d577444e-776b-4a8e-ae86-d1c834eee2e7"},"vehicle_type_id":"4","last_reported":1728741996,"current_range_meters":31200,"station_id":"ce4bgi12rcd13ifvqb70","pricing_plan_id":"cebpf4jnsgd1na2vs0mg"},{"bike_id":"95b8b641-18dd-4303-8c43-ee7113f44341","system_id":"levelo_inurba_marseille","lat":43.30937,"lon":5.40141,"is_reserved":false,"is_disabled":false,"rental_uris":{"android":"levelo://app?vid=95b8b641-18dd-4303-8c43-ee7113f44341","ios":"levelo://app?vid=95b8b641-18dd-4303-8c43-ee7113f44341"},"vehicle_type_id":"4","last_reported":1728741996,"current_range_meters":4400,"station_id":"ce4bgvp2rcd13ifvqct0","pricing_plan_id":"cebpf4jnsgd1na2vs0mg"},{"bike_id":"5d111723-ea4f-4523-bad0-56d1cfb9adac","system_id":"levelo_inurba_marseille","lat":43.30453,"lon":5.36744,"is_reserved":false,"is_disabled":false,"rental_uris":{"android":"levelo://app?vid=5d111723-ea4f-4523-bad0-56d1cfb9adac","ios":"levelo://app?vid=5d111723-ea4f-4523-bad0-56d1cfb9adac"},"vehicle_type_id":"4","last_reported":1728741996,"current_range_meters":16000,"station_id":"ce4bgs12rcd13ifvqcag","pricing_plan_id":"cebpf4jnsgd1na2vs0mg"},{"bike_id":"5d1080d2-a0c7-4bfb-9ae5-b78c18130ee8","system_id":"levelo_inurba_marseille","lat":43.29164,"lon":5.37155,"is_reserved":false,"is_disabled":false,"rental_uris":{"android":"levelo://app?vid=5d1080d2-a0c7-4bfb-9ae5-b78c18130ee8","ios":"levelo://app?vid=5d1080d2-a0c7-4bfb-9ae5-b78c18130ee8"},"vehicle_type_id":"4","last_reported":1728741996,"current_range_meters":38800,"station_id":"ce4bha92rcd13ifvqeh0","pricing_plan_id":"cebpf4jnsgd1na2vs0mg"},{"bike_id":"aed2777a-4f8a-4d24-802a-93026f052e7d","system_id":"levelo_inurba_marseille","lat":43.25578,"lon":5.38229,"is_reserved":false,"is_disabled":false,"rental_uris":{"android":"levelo://app?vid=aed2777a-4f8a-4d24-802a-93026f052e7d","ios":"levelo://app?vid=aed2777a-4f8a-4d24-802a-93026f052e7d"},"vehicle_type_id":"4","last_reported":1728741996,"current_range_meters":28800,"station_id":"ce4bhih2rcd13ifvqfs0","pricing_plan_id":"cebpf4jnsgd1na2vs0mg"},{"bike_id":"5dbc7dcc-9d48-4fd7-8ea7-69f4e7ca2466","system_id":"levelo_inurba_marseille","lat":43.26551,"lon":5.37286,"is_reserved":false,"is_disabled":false,"rental_uris":{"android":"levelo://app?vid=5dbc7dcc-9d48-4fd7-8ea7-69f4e7ca2466","ios":"levelo://app?vid=5dbc7dcc-9d48-4fd7-8ea7-69f4e7ca2466"},"vehicle_type_id":"4","last_reported":1728741996,"current_range_meters":38800,"station_id":"ce4bhg12rcd13ifvqf70","pricing_plan_id":"cebpf4jnsgd1na2vs0mg"},{"bike_id":"149e83d7-9dcc-4ede-9aee-f1b734bfc952","system_id":"levelo_inurba_marseille","lat":43.22933,"lon":5.35374,"is_reserved":false,"is_disabled":false,"rental_uris":{"android":"levelo://app?vid=149e83d7-9dcc-4ede-9aee-f1b734bfc952","ios":"levelo://app?vid=149e83d7-9dcc-4ede-9aee-f1b734bfc952"},"vehicle_type_id":"4","last_reported":1728741996,"current_range_meters":19600,"station_id":"cpo3532slgdg3j2ikp40","pricing_plan_id":"cebpf4jnsgd1na2vs0mg"},{"bike_id":"caac0ae9-97a5-4abe-bfc2-b67d3e720f3d","system_id":"levelo_inurba_marseille","lat":43.2962,"lon":5.3717,"is_reserved":false,"is_disabled":false,"rental_uris":{"android":"levelo://app?vid=caac0ae9-97a5-4abe-bfc2-b67d3e720f3d","ios":"levelo://app?vid=caac0ae9-97a5-4abe-bfc2-b67d3e720f3d"},"vehicle_type_id":"4","last_reported":1728741996,"current_range_meters":28800,"station_id":"ce4bgnh2rcd13ifvqc0g","pricing_plan_id":"cebpf4jnsgd1na2vs0mg"},{"bike_id":"ca12bb5f-447d-4992-9636-965932f6e919","system_id":"levelo_inurba_marseille","lat":43.3014,"lon":5.37414,"is_reserved":false,"is_disabled":false,"rental_uris":{"android":"levelo://app?vid=ca12bb5f-447d-4992-9636-965932f6e919","ios":"levelo://app?vid=ca12bb5f-447d-4992-9636-965932f6e919"},"vehicle_type_id":"4","last_reported":1728741996,"current_range_meters":24800,"station_id":"ce4bgs92rcd13ifvqcc0","pricing_plan_id":"cebpf4jnsgd1na2vs0mg"},{"bike_id":"a751214b-619f-4483-a2f5-200322f27979","system_id":"levelo_inurba_marseille","lat":43.2984,"lon":5.36265,"is_reserved":false,"is_disabled":false,"rental_uris":{"android":"levelo://app?vid=a751214b-619f-4483-a2f5-200322f27979","ios":"levelo://app?vid=a751214b-619f-4483-a2f5-200322f27979"},"vehicle_type_id":"4","last_reported":1728741996,"current_range_meters":18800,"station_id":"ce4bgpp2rcd13ifvqc3g","pricing_plan_id":"cebpf4jnsgd1na2vs0mg"},{"bike_id":"f76f5607-2cdd-4216-a2ae-a41c35f78d7b","system_id":"levelo_inurba_marseille","lat":43.30595,"lon":5.3715,"is_reserved":false,"is_disabled":false,"rental_uris":{"android":"levelo://app?vid=f76f5607-2cdd-4216-a2ae-a41c35f78d7b","ios":"levelo://app?vid=f76f5607-2cdd-4216-a2ae-a41c35f78d7b"},"vehicle_type_id":"4","last_reported":1728741996,"current_range_meters":25200,"station_id":"","pricing_plan_id":"cebpf4jnsgd1na2vs0mg"},{"bike_id":"e939ef95-d9db-4fdc-8657-2f47ad3be459","system_id":"levelo_inurba_marseille","lat":43.29028,"lon":5.38648,"is_reserved":false,"is_disabled":false,"rental_uris":{"android":"levelo://app?vid=e939ef95-d9db-4fdc-8657-2f47ad3be459","ios":"levelo://app?vid=e939ef95-d9db-4fdc-8657-2f47ad3be459"},"vehicle_type_id":"4","last_reported":1728741996,"current_range_meters":19600,"station_id":"ce4bh4p2rcd13ifvqe0g","pricing_plan_id":"cebpf4jnsgd1na2vs0mg"},{"bike_id":"5e2e70bb-50f2-4df4-bca5-6ec65e4e48a1","system_id":"levelo_inurba_marseille","lat":43.29622,"lon":5.37151,"is_reserved":false,"is_disabled":false,"rental_uris":{"android":"levelo://app?vid=5e2e70bb-50f2-4df4-bca5-6ec65e4e48a1","ios":"levelo://app?vid=5e2e70bb-50f2-4df4-bca5-6ec65e4e48a1"},"vehicle_type_id":"4","last_reported":1728741996,"current_range_meters":17600,"station_id":"ce4bgnh2rcd13ifvqc0g","pricing_plan_id":"cebpf4jnsgd1na2vs0mg"},{"bike_id":"6c19f07e-7ba2-4bb1-ad71-bdc3e317c1bd","system_id":"levelo_inurba_marseille","lat":43.289307,"lon":5.371759,"is_reserved":false,"is_disabled":false,"rental_uris":{"android":"levelo://app?vid=6c19f07e-7ba2-4bb1-ad71-bdc3e317c1bd","ios":"levelo://app?vid=6c19f07e-7ba2-4bb1-ad71-bdc3e317c1bd"},"vehicle_type_id":"4","last_reported":1728741996,"current_range_meters":5600,"station_id":"ce4bh3p2rcd13ifvqdq0","pricing_plan_id":"cebpf4jnsgd1na2vs0mg"},{"bike_id":"04ed82f0-84a6-454b-9e28-34d43ffd04b1","system_id":"levelo_inurba_marseille","lat":43.30602,"lon":5.37225,"is_reserved":false,"is_disabled":false,"rental_uris":{"android":"levelo://app?vid=04ed82f0-84a6-454b-9e28-34d43ffd04b1","ios":"levelo://app?vid=04ed82f0-84a6-454b-9e28-34d43ffd04b1"},"vehicle_type_id":"4","last_reported":1728741996,"current_range_meters":11200,"station_id":"ce4bgqh2rcd13ifvqc4g","pricing_plan_id":"cebpf4jnsgd1na2vs0mg"},{"bike_id":"9b999d36-e06c-4b8f-b803-38708b58775a","system_id":"levelo_inurba_marseille","lat":43.2997,"lon":5.37169,"is_reserved":false,"is_disabled":false,"rental_uris":{"android":"levelo://app?vid=9b999d36-e06c-4b8f-b803-38708b58775a","ios":"levelo://app?vid=9b999d36-e06c-4b8f-b803-38708b58775a"},"vehicle_type_id":"4","last_reported":1728741996,"current_range_meters":10000,"station_id":"ce4bgr92rcd13ifvqc7g","pricing_plan_id":"cebpf4jnsgd1na2vs0mg"},{"bike_id":"3a779a4e-7c5b-4fce-ba8d-062d1d4f4ddb","system_id":"levelo_inurba_marseille","lat":43.24547,"lon":5.39521,"is_reserved":false,"is_disabled":false,"rental_uris":{"android":"levelo://app?vid=3a779a4e-7c5b-4fce-ba8d-062d1d4f4ddb","ios":"levelo://app?vid=3a779a4e-7c5b-4fce-ba8d-062d1d4f4ddb"},"vehicle_type_id":"4","last_reported":1728741996,"current_range_meters":14000,"station_id":"ce4bhlp2rcd13ifvqgjg","pricing_plan_id":"cebpf4jnsgd1na2vs0mg"},{"bike_id":"861f052e-5122-418d-a69b-2e0b1e4eb756","system_id":"levelo_inurba_marseille","lat":43.2801,"lon":5.40647,"is_reserved":false,"is_disabled":false,"rental_uris":{"android":"levelo://app?vid=861f052e-5122-418d-a69b-2e0b1e4eb756","ios":"levelo://app?vid=861f052e-5122-418d-a69b-2e0b1e4eb756"},"vehicle_type_id":"4","last_reported":1728741996,"current_range_meters":3600,"station_id":"ce4bhnh2rcd13ifvqgtg","pricing_plan_id":"cebpf4jnsgd1na2vs0mg"},{"bike_id":"e3228483-9985-48d5-af92-ca9a56ca9512","system_id":"levelo_inurba_marseille","lat":43.29228,"lon":5.3607,"is_reserved":false,"is_disabled":false,"rental_uris":{"android":"levelo://app?vid=e3228483-9985-48d5-af92-ca9a56ca9512","ios":"levelo://app?vid=e3228483-9985-48d5-af92-ca9a56ca9512"},"vehicle_type_id":"4","last_reported":1728741996,"current_range_meters":18800,"station_id":"ce4bhbh2rcd13ifvqeqg","pricing_plan_id":"cebpf4jnsgd1na2vs0mg"},{"bike_id":"b3f321a1-0824-4d02-ad39-aff815c06f81","system_id":"levelo_inurba_marseille","lat":43.27839,"lon":5.39202,"is_reserved":false,"is_disabled":false,"rental_uris":{"android":"levelo://app?vid=b3f321a1-0824-4d02-ad39-aff815c06f81","ios":"levelo://app?vid=b3f321a1-0824-4d02-ad39-aff815c06f81"},"vehicle_type_id":"4","last_reported":1728741996,"current_range_meters":16800,"station_id":"ce4bhjp2rcd13ifvqga0","pricing_plan_id":"cebpf4jnsgd1na2vs0mg"},{"bike_id":"5101498e-d82e-4782-b48e-280388d24627","system_id":"levelo_inurba_marseille","lat":43.29301,"lon":5.37182,"is_reserved":false,"is_disabled":false,"rental_uris":{"android":"levelo://app?vid=5101498e-d82e-4782-b48e-280388d24627","ios":"levelo://app?vid=5101498e-d82e-4782-b48e-280388d24627"},"vehicle_type_id":"4","last_reported":1728741996,"current_range_meters":22800,"station_id":"ce4bgh92rcd13ifvqb40","pricing_plan_id":"cebpf4jnsgd1na2vs0mg"},{"bike_id":"21a0bf9a-ea81-46c6-a037-f66b80d386a3","system_id":"levelo_inurba_marseille","lat":43.23056,"lon":5.35496,"is_reserved":false,"is_disabled":false,"rental_uris":{"android":"levelo://app?vid=21a0bf9a-ea81-46c6-a037-f66b80d386a3","ios":"levelo://app?vid=21a0bf9a-ea81-46c6-a037-f66b80d386a3"},"vehicle_type_id":"4","last_reported":1728741996,"current_range_meters":22400,"station_id":"","pricing_plan_id":"cebpf4jnsgd1na2vs0mg"},{"bike_id":"43a88fff-beec-47ab-bdda-a05fe3f480d0","system_id":"levelo_inurba_marseille","lat":43.29914,"lon":5.37483,"is_reserved":false,"is_disabled":false,"rental_uris":{"android":"levelo://app?vid=43a88fff-beec-47ab-bdda-a05fe3f480d0","ios":"levelo://app?vid=43a88fff-beec-47ab-bdda-a05fe3f480d0"},"vehicle_type_id":"4","last_reported":1728741996,"current_range_meters":30000,"station_id":"ce4bgjh2rcd13ifvqbg0","pricing_plan_id":"cebpf4jnsgd1na2vs0mg"},{"bike_id":"ad9508a3-6339-4b15-ad7f-7867f29affe1","system_id":"levelo_inurba_marseille","lat":43.23961,"lon":5.36636,"is_reserved":false,"is_disabled":false,"rental_uris":{"android":"levelo://app?vid=ad9508a3-6339-4b15-ad7f-7867f29affe1","ios":"levelo://app?vid=ad9508a3-6339-4b15-ad7f-7867f29affe1"},"vehicle_type_id":"4","last_reported":1728741996,"current_range_meters":29600,"station_id":"ce4bhi12rcd13ifvqfp0","pricing_plan_id":"cebpf4jnsgd1na2vs0mg"},{"bike_id":"759ce870-3bc5-4a2e-a8c9-bec4e8008e45","system_id":"levelo_inurba_marseille","lat":43.337444,"lon":5.374475,"is_reserved":false,"is_disabled":false,"rental_uris":{"android":"levelo://app?vid=759ce870-3bc5-4a2e-a8c9-bec4e8008e45","ios":"levelo://app?vid=759ce870-3bc5-4a2e-a8c9-bec4e8008e45"},"vehicle_type_id":"4","last_reported":1728741996,"current_range_meters":27600,"station_id":"","pricing_plan_id":"cebpf4jnsgd1na2vs0mg"},{"bike_id":"9662c834-e814-444b-97f5-74cee922c4fd","system_id":"levelo_inurba_marseille","lat":43.23964,"lon":5.3663,"is_reserved":false,"is_disabled":false,"rental_uris":{"android":"levelo://app?vid=9662c834-e814-444b-97f5-74cee922c4fd","ios":"levelo://app?vid=9662c834-e814-444b-97f5-74cee922c4fd"},"vehicle_type_id":"4","last_reported":1728741996,"current_range_meters":38000,"station_id":"ce4bhi12rcd13ifvqfp0","pricing_plan_id":"cebpf4jnsgd1na2vs0mg"},{"bike_id":"7d9eba35-0518-49df-bd84-fb6771a98018","system_id":"levelo_inurba_marseille","lat":43.27055,"lon":5.40256,"is_reserved":false,"is_disabled":false,"rental_uris":{"android":"levelo://app?vid=7d9eba35-0518-49df-bd84-fb6771a98018","ios":"levelo://app?vid=7d9eba35-0518-49df-bd84-fb6771a98018"},"vehicle_type_id":"4","last_reported":1728741996,"current_range_meters":24400,"station_id":"ce4bhk92rcd13ifvqgc0","pricing_plan_id":"cebpf4jnsgd1na2vs0mg"},{"bike_id":"628b70e0-70d2-4a50-bd81-f02589a5a65c","system_id":"levelo_inurba_marseille","lat":43.29215,"lon":5.37163,"is_reserved":false,"is_disabled":false,"rental_uris":{"android":"levelo://app?vid=628b70e0-70d2-4a50-bd81-f02589a5a65c","ios":"levelo://app?vid=628b70e0-70d2-4a50-bd81-f02589a5a65c"},"vehicle_type_id":"4","last_reported":1728741996,"current_range_meters":8400,"station_id":"","pricing_plan_id":"cebpf4jnsgd1na2vs0mg"},{"bike_id":"d7dbc538-e877-4249-8504-80a69ab537e8","system_id":"levelo_inurba_marseille","lat":43.30546,"lon":5.36528,"is_reserved":false,"is_disabled":false,"rental_uris":{"android":"levelo://app?vid=d7dbc538-e877-4249-8504-80a69ab537e8","ios":"levelo://app?vid=d7dbc538-e877-4249-8504-80a69ab537e8"},"vehicle_type_id":"4","last_reported":1728741996,"current_range_meters":27200,"station_id":"ce4bgs12rcd13ifvqcag","pricing_plan_id":"cebpf4jnsgd1na2vs0mg"},{"bike_id":"37260897-2869-4b67-b68b-17af335d61b4","system_id":"levelo_inurba_marseille","lat":43.31717,"lon":5.43709,"is_reserved":false,"is_disabled":false,"rental_uris":{"android":"levelo://app?vid=37260897-2869-4b67-b68b-17af335d61b4","ios":"levelo://app?vid=37260897-2869-4b67-b68b-17af335d61b4"},"vehicle_type_id":"4","last_reported":1728741996,"current_range_meters":24400,"station_id":"ce4bhp92rcd13ifvqhcg","pricing_plan_id":"cebpf4jnsgd1na2vs0mg"},{"bike_id":"f0ffe8c6-16c1-4acd-b780-a306604b9007","system_id":"levelo_inurba_marseille","lat":43.26565,"lon":5.39006,"is_reserved":false,"is_disabled":false,"rental_uris":{"android":"levelo://app?vid=f0ffe8c6-16c1-4acd-b780-a306604b9007","ios":"levelo://app?vid=f0ffe8c6-16c1-4acd-b780-a306604b9007"},"vehicle_type_id":"4","last_reported":1728741996,"current_range_meters":25600,"station_id":"ce4bhe12rcd13ifvqf30","pricing_plan_id":"cebpf4jnsgd1na2vs0mg"},{"bike_id":"d0dfc7e9-38a8-423e-9b51-208163dfaedc","system_id":"levelo_inurba_marseille","lat":43.28461,"lon":5.35888,"is_reserved":false,"is_disabled":false,"rental_uris":{"android":"levelo://app?vid=d0dfc7e9-38a8-423e-9b51-208163dfaedc","ios":"levelo://app?vid=d0dfc7e9-38a8-423e-9b51-208163dfaedc"},"vehicle_type_id":"4","last_reported":1728741996,"current_range_meters":2800,"station_id":"ce4bhah2rcd13ifvqei0","pricing_plan_id":"cebpf4jnsgd1na2vs0mg"},{"bike_id":"3bca4099-9de5-4baa-a533-df669b5c79ec","system_id":"levelo_inurba_marseille","lat":43.304626,"lon":5.380952,"is_reserved":false,"is_disabled":false,"rental_uris":{"android":"levelo://app?vid=3bca4099-9de5-4baa-a533-df669b5c79ec","ios":"levelo://app?vid=3bca4099-9de5-4baa-a533-df669b5c79ec"},"vehicle_type_id":"4","last_reported":1728741996,"current_range_meters":34800,"station_id":"ce4bh0h2rcd13ifvqd40","pricing_plan_id":"cebpf4jnsgd1na2vs0mg"},{"bike_id":"bfb6a087-3510-4704-beda-17206b93c343","system_id":"levelo_inurba_marseille","lat":43.28422,"lon":5.34972,"is_reserved":false,"is_disabled":false,"rental_uris":{"android":"levelo://app?vid=bfb6a087-3510-4704-beda-17206b93c343","ios":"levelo://app?vid=bfb6a087-3510-4704-beda-17206b93c343"},"vehicle_type_id":"4","last_reported":1728741996,"current_range_meters":6800,"station_id":"ce4bhbh2rcd13ifvqepg","pricing_plan_id":"cebpf4jnsgd1na2vs0mg"},{"bike_id":"7f787479-c34a-4828-a352-0469d5fed528","system_id":"levelo_inurba_marseille","lat":43.30161,"lon":5.38082,"is_reserved":false,"is_disabled":false,"rental_uris":{"android":"levelo://app?vid=7f787479-c34a-4828-a352-0469d5fed528","ios":"levelo://app?vid=7f787479-c34a-4828-a352-0469d5fed528"},"vehicle_type_id":"4","last_reported":1728741996,"current_range_meters":19200,"station_id":"ce4bgjp2rcd13ifvqbh0","pricing_plan_id":"cebpf4jnsgd1na2vs0mg"},{"bike_id":"fd301c4f-88d0-470b-8444-02e732c4a052","system_id":"levelo_inurba_marseille","lat":43.249708,"lon":5.381001,"is_reserved":false,"is_disabled":false,"rental_uris":{"android":"levelo://app?vid=fd301c4f-88d0-470b-8444-02e732c4a052","ios":"levelo://app?vid=fd301c4f-88d0-470b-8444-02e732c4a052"},"vehicle_type_id":"4","last_reported":1728741996,"current_range_meters":28000,"station_id":"","pricing_plan_id":"cebpf4jnsgd1na2vs0mg"},{"bike_id":"67f04806-dab4-4bfb-95ef-97906df6f684","system_id":"levelo_inurba_marseille","lat":43.28463,"lon":5.35874,"is_reserved":false,"is_disabled":false,"rental_uris":{"android":"levelo://app?vid=67f04806-dab4-4bfb-95ef-97906df6f684","ios":"levelo://app?vid=67f04806-dab4-4bfb-95ef-97906df6f684"},"vehicle_type_id":"4","last_reported":1728741996,"current_range_meters":18800,"station_id":"ce4bhah2rcd13ifvqei0","pricing_plan_id":"cebpf4jnsgd1na2vs0mg"},{"bike_id":"ff68b789-7173-415f-860f-fb58c1b9d01d","system_id":"levelo_inurba_marseille","lat":43.22928,"lon":5.35375,"is_reserved":false,"is_disabled":false,"rental_uris":{"android":"levelo://app?vid=ff68b789-7173-415f-860f-fb58c1b9d01d","ios":"levelo://app?vid=ff68b789-7173-415f-860f-fb58c1b9d01d"},"vehicle_type_id":"4","last_reported":1728741996,"current_range_meters":26000,"station_id":"cpo3532slgdg3j2ikp40","pricing_plan_id":"cebpf4jnsgd1na2vs0mg"},{"bike_id":"f2ec553b-f583-4634-bf60-a39b93078fc1","system_id":"levelo_inurba_marseille","lat":43.24393,"lon":5.37063,"is_reserved":false,"is_disabled":false,"rental_uris":{"android":"levelo://app?vid=f2ec553b-f583-4634-bf60-a39b93078fc1","ios":"levelo://app?vid=f2ec553b-f583-4634-bf60-a39b93078fc1"},"vehicle_type_id":"4","last_reported":1728741996,"current_range_meters":28000,"station_id":"ce4bhhh2rcd13ifvqfk0","pricing_plan_id":"cebpf4jnsgd1na2vs0mg"},{"bike_id":"93a288ee-6999-4b1b-a231-ac08f6b6b8dc","system_id":"levelo_inurba_marseille","lat":43.29955,"lon":5.41315,"is_reserved":false,"is_disabled":false,"rental_uris":{"android":"levelo://app?vid=93a288ee-6999-4b1b-a231-ac08f6b6b8dc","ios":"levelo://app?vid=93a288ee-6999-4b1b-a231-ac08f6b6b8dc"},"vehicle_type_id":"4","last_reported":1728741996,"current_range_meters":26000,"station_id":"ce4bhp12rcd13ifvqh9g","pricing_plan_id":"cebpf4jnsgd1na2vs0mg"},{"bike_id":"4b60b8b1-de84-4f65-b608-72f92c07047b","system_id":"levelo_inurba_marseille","lat":43.29003,"lon":5.35609,"is_reserved":false,"is_disabled":false,"rental_uris":{"android":"levelo://app?vid=4b60b8b1-de84-4f65-b608-72f92c07047b","ios":"levelo://app?vid=4b60b8b1-de84-4f65-b608-72f92c07047b"},"vehicle_type_id":"4","last_reported":1728741996,"current_range_meters":20400,"station_id":"ce4bhb92rcd13ifvqen0","pricing_plan_id":"cebpf4jnsgd1na2vs0mg"},{"bike_id":"1a90ad3a-447a-4014-8cf5-1bb8f629a10e","system_id":"levelo_inurba_marseille","lat":43.29576,"lon":5.36741,"is_reserved":false,"is_disabled":false,"rental_uris":{"android":"levelo://app?vid=1a90ad3a-447a-4014-8cf5-1bb8f629a10e","ios":"levelo://app?vid=1a90ad3a-447a-4014-8cf5-1bb8f629a10e"},"vehicle_type_id":"4","last_reported":1728741996,"current_range_meters":24800,"station_id":"ce4bgph2rcd13ifvqc2g","pricing_plan_id":"cebpf4jnsgd1na2vs0mg"},{"bike_id":"92c1af36-5649-40f5-84ed-a7b062884571","system_id":"levelo_inurba_marseille","lat":43.23963,"lon":5.36639,"is_reserved":false,"is_disabled":false,"rental_uris":{"android":"levelo://app?vid=92c1af36-5649-40f5-84ed-a7b062884571","ios":"levelo://app?vid=92c1af36-5649-40f5-84ed-a7b062884571"},"vehicle_type_id":"4","last_reported":1728741996,"current_range_meters":34000,"station_id":"ce4bhi12rcd13ifvqfp0","pricing_plan_id":"cebpf4jnsgd1na2vs0mg"},{"bike_id":"eec683d0-e77c-439e-a9af-0db6e918561f","system_id":"levelo_inurba_marseille","lat":43.2603,"lon":5.3754,"is_reserved":false,"is_disabled":false,"rental_uris":{"android":"levelo://app?vid=eec683d0-e77c-439e-a9af-0db6e918561f","ios":"levelo://app?vid=eec683d0-e77c-439e-a9af-0db6e918561f"},"vehicle_type_id":"4","last_reported":1728741996,"current_range_meters":19600,"station_id":"ce4bhgh2rcd13ifvqfa0","pricing_plan_id":"cebpf4jnsgd1na2vs0mg"},{"bike_id":"6cb5b02c-2401-484a-8b7d-b4d2106d6b08","system_id":"levelo_inurba_marseille","lat":43.23192,"lon":5.35542,"is_reserved":false,"is_disabled":false,"rental_uris":{"android":"levelo://app?vid=6cb5b02c-2401-484a-8b7d-b4d2106d6b08","ios":"levelo://app?vid=6cb5b02c-2401-484a-8b7d-b4d2106d6b08"},"vehicle_type_id":"4","last_reported":1728741996,"current_range_meters":31200,"station_id":"ce4bhu92rcd13ifvqi70","pricing_plan_id":"cebpf4jnsgd1na2vs0mg"},{"bike_id":"fce5f06a-9466-438a-832c-999efeccff22","system_id":"levelo_inurba_marseille","lat":43.33028,"lon":5.3903,"is_reserved":false,"is_disabled":false,"rental_uris":{"android":"levelo://app?vid=fce5f06a-9466-438a-832c-999efeccff22","ios":"levelo://app?vid=fce5f06a-9466-438a-832c-999efeccff22"},"vehicle_type_id":"4","last_reported":1728741996,"current_range_meters":28800,"station_id":"ce4bhr92rcd13ifvqhrg","pricing_plan_id":"cebpf4jnsgd1na2vs0mg"},{"bike_id":"1a88c7cf-7e71-4528-9d13-fe86a2a2a955","system_id":"levelo_inurba_marseille","lat":43.3176,"lon":5.39011,"is_reserved":false,"is_disabled":false,"rental_uris":{"android":"levelo://app?vid=1a88c7cf-7e71-4528-9d13-fe86a2a2a955","ios":"levelo://app?vid=1a88c7cf-7e71-4528-9d13-fe86a2a2a955"},"vehicle_type_id":"4","last_reported":1728741996,"current_range_meters":38000,"station_id":"ce4bhqp2rcd13ifvqhng","pricing_plan_id":"cebpf4jnsgd1na2vs0mg"},{"bike_id":"c88cdfb0-4bf9-4a8c-8ce2-b63c2598193b","system_id":"levelo_inurba_marseille","lat":43.29578,"lon":5.3673,"is_reserved":false,"is_disabled":false,"rental_uris":{"android":"levelo://app?vid=c88cdfb0-4bf9-4a8c-8ce2-b63c2598193b","ios":"levelo://app?vid=c88cdfb0-4bf9-4a8c-8ce2-b63c2598193b"},"vehicle_type_id":"4","last_reported":1728741996,"current_range_meters":36800,"station_id":"ce4bgph2rcd13ifvqc2g","pricing_plan_id":"cebpf4jnsgd1na2vs0mg"},{"bike_id":"0340cccb-deb3-477c-afa6-215598313487","system_id":"levelo_inurba_marseille","lat":43.29784,"lon":5.39338,"is_reserved":false,"is_disabled":false,"rental_uris":{"android":"levelo://app?vid=0340cccb-deb3-477c-afa6-215598313487","ios":"levelo://app?vid=0340cccb-deb3-477c-afa6-215598313487"},"vehicle_type_id":"4","last_reported":1728741996,"current_range_meters":12000,"station_id":"chh1huq6cuj3fo74tm60","pricing_plan_id":"cebpf4jnsgd1na2vs0mg"},{"bike_id":"5778e97a-fb67-47c1-8e6f-bcfff512410f","system_id":"levelo_inurba_marseille","lat":43.29706,"lon":5.37696,"is_reserved":false,"is_disabled":false,"rental_uris":{"android":"levelo://app?vid=5778e97a-fb67-47c1-8e6f-bcfff512410f","ios":"levelo://app?vid=5778e97a-fb67-47c1-8e6f-bcfff512410f"},"vehicle_type_id":"4","last_reported":1728741996,"current_range_meters":9200,"station_id":"ce4bgkh2rcd13ifvqbl0","pricing_plan_id":"cebpf4jnsgd1na2vs0mg"},{"bike_id":"4578cbcd-1475-481f-8934-a1a04748ab51","system_id":"levelo_inurba_marseille","lat":43.30598,"lon":5.3722,"is_reserved":false,"is_disabled":false,"rental_uris":{"android":"levelo://app?vid=4578cbcd-1475-481f-8934-a1a04748ab51","ios":"levelo://app?vid=4578cbcd-1475-481f-8934-a1a04748ab51"},"vehicle_type_id":"4","last_reported":1728741996,"current_range_meters":38800,"station_id":"ce4bgqh2rcd13ifvqc4g","pricing_plan_id":"cebpf4jnsgd1na2vs0mg"},{"bike_id":"c082712b-c1c2-4ddb-bcbd-a7cc5b8ccb94","system_id":"levelo_inurba_marseille","lat":43.29843,"lon":5.36273,"is_reserved":false,"is_disabled":false,"rental_uris":{"android":"levelo://app?vid=c082712b-c1c2-4ddb-bcbd-a7cc5b8ccb94","ios":"levelo://app?vid=c082712b-c1c2-4ddb-bcbd-a7cc5b8ccb94"},"vehicle_type_id":"4","last_reported":1728741996,"current_range_meters":4800,"station_id":"ce4bgpp2rcd13ifvqc3g","pricing_plan_id":"cebpf4jnsgd1na2vs0mg"},{"bike_id":"057af1bc-3f81-4246-abf3-ae1321ff7978","system_id":"levelo_inurba_marseille","lat":43.26779,"lon":5.39422,"is_reserved":false,"is_disabled":false,"rental_uris":{"android":"levelo://app?vid=057af1bc-3f81-4246-abf3-ae1321ff7978","ios":"levelo://app?vid=057af1bc-3f81-4246-abf3-ae1321ff7978"},"vehicle_type_id":"4","last_reported":1728741996,"current_range_meters":38800,"station_id":"ce4bhh12rcd13ifvqfg0","pricing_plan_id":"cebpf4jnsgd1na2vs0mg"},{"bike_id":"eac4e8f1-ac84-4048-ad4c-5213afa836f2","system_id":"levelo_inurba_marseille","lat":43.27133,"lon":5.40011,"is_reserved":false,"is_disabled":false,"rental_uris":{"android":"levelo://app?vid=eac4e8f1-ac84-4048-ad4c-5213afa836f2","ios":"levelo://app?vid=eac4e8f1-ac84-4048-ad4c-5213afa836f2"},"vehicle_type_id":"4","last_reported":1728741996,"current_range_meters":24800,"station_id":"","pricing_plan_id":"cebpf4jnsgd1na2vs0mg"},{"bike_id":"3cefb2cd-0e86-429c-b21e-6c0c5fe39dde","system_id":"levelo_inurba_marseille","lat":43.26783,"lon":5.39414,"is_reserved":false,"is_disabled":false,"rental_uris":{"android":"levelo://app?vid=3cefb2cd-0e86-429c-b21e-6c0c5fe39dde","ios":"levelo://app?vid=3cefb2cd-0e86-429c-b21e-6c0c5fe39dde"},"vehicle_type_id":"4","last_reported":1728741996,"current_range_meters":38800,"station_id":"ce4bhh12rcd13ifvqfg0","pricing_plan_id":"cebpf4jnsgd1na2vs0mg"},{"bike_id":"accb871e-a6d6-4416-b0e7-cca548384eeb","system_id":"levelo_inurba_marseille","lat":43.26552,"lon":5.37282,"is_reserved":false,"is_disabled":false,"rental_uris":{"android":"levelo://app?vid=accb871e-a6d6-4416-b0e7-cca548384eeb","ios":"levelo://app?vid=accb871e-a6d6-4416-b0e7-cca548384eeb"},"vehicle_type_id":"4","last_reported":1728741996,"current_range_meters":37600,"station_id":"ce4bhg12rcd13ifvqf70","pricing_plan_id":"cebpf4jnsgd1na2vs0mg"},{"bike_id":"3ffd1e0d-f6a4-47aa-b0ad-27a67d0f52f7","system_id":"levelo_inurba_marseille","lat":43.25001,"lon":5.3892,"is_reserved":false,"is_disabled":false,"rental_uris":{"android":"levelo://app?vid=3ffd1e0d-f6a4-47aa-b0ad-27a67d0f52f7","ios":"levelo://app?vid=3ffd1e0d-f6a4-47aa-b0ad-27a67d0f52f7"},"vehicle_type_id":"4","last_reported":1728741996,"current_range_meters":25200,"station_id":"ce4bhgp2rcd13ifvqfd0","pricing_plan_id":"cebpf4jnsgd1na2vs0mg"},{"bike_id":"c675b22c-c93c-44bd-ada5-be134af7cbc6","system_id":"levelo_inurba_marseille","lat":43.31884,"lon":5.40736,"is_reserved":false,"is_disabled":false,"rental_uris":{"android":"levelo://app?vid=c675b22c-c93c-44bd-ada5-be134af7cbc6","ios":"levelo://app?vid=c675b22c-c93c-44bd-ada5-be134af7cbc6"},"vehicle_type_id":"4","last_reported":1728741996,"current_range_meters":37600,"station_id":"ce4bhq12rcd13ifvqhig","pricing_plan_id":"cebpf4jnsgd1na2vs0mg"},{"bike_id":"ed6f5853-c281-4213-8ebc-213791edfd0a","system_id":"levelo_inurba_marseille","lat":43.24387,"lon":5.37062,"is_reserved":false,"is_disabled":false,"rental_uris":{"android":"levelo://app?vid=ed6f5853-c281-4213-8ebc-213791edfd0a","ios":"levelo://app?vid=ed6f5853-c281-4213-8ebc-213791edfd0a"},"vehicle_type_id":"4","last_reported":1728741996,"current_range_meters":36400,"station_id":"ce4bhhh2rcd13ifvqfk0","pricing_plan_id":"cebpf4jnsgd1na2vs0mg"},{"bike_id":"4c4b0e87-76c6-420d-a7c0-94dd13f6dca7","system_id":"levelo_inurba_marseille","lat":43.24662,"lon":5.38165,"is_reserved":false,"is_disabled":false,"rental_uris":{"android":"levelo://app?vid=4c4b0e87-76c6-420d-a7c0-94dd13f6dca7","ios":"levelo://app?vid=4c4b0e87-76c6-420d-a7c0-94dd13f6dca7"},"vehicle_type_id":"4","last_reported":1728741996,"current_range_meters":4800,"station_id":"ce4bhih2rcd13ifvqfr0","pricing_plan_id":"cebpf4jnsgd1na2vs0mg"},{"bike_id":"47afcdd9-1cf9-4acd-ae7b-3ba0831fe6b7","system_id":"levelo_inurba_marseille","lat":43.25866,"lon":5.39893,"is_reserved":false,"is_disabled":false,"rental_uris":{"android":"levelo://app?vid=47afcdd9-1cf9-4acd-ae7b-3ba0831fe6b7","ios":"levelo://app?vid=47afcdd9-1cf9-4acd-ae7b-3ba0831fe6b7"},"vehicle_type_id":"4","last_reported":1728741996,"current_range_meters":35200,"station_id":"ce4bhl92rcd13ifvqghg","pricing_plan_id":"cebpf4jnsgd1na2vs0mg"},{"bike_id":"2a84831a-b3c8-4444-86e2-4a02ace4caea","system_id":"levelo_inurba_marseille","lat":43.33024,"lon":5.39038,"is_reserved":false,"is_disabled":false,"rental_uris":{"android":"levelo://app?vid=2a84831a-b3c8-4444-86e2-4a02ace4caea","ios":"levelo://app?vid=2a84831a-b3c8-4444-86e2-4a02ace4caea"},"vehicle_type_id":"4","last_reported":1728741996,"current_range_meters":22000,"station_id":"ce4bhr92rcd13ifvqhrg","pricing_plan_id":"cebpf4jnsgd1na2vs0mg"},{"bike_id":"01dcbdb8-26bd-4cf3-b8d6-b1019cbe1ddb","system_id":"levelo_inurba_marseille","lat":43.27809,"lon":5.40704,"is_reserved":false,"is_disabled":false,"rental_uris":{"android":"levelo://app?vid=01dcbdb8-26bd-4cf3-b8d6-b1019cbe1ddb","ios":"levelo://app?vid=01dcbdb8-26bd-4cf3-b8d6-b1019cbe1ddb"},"vehicle_type_id":"4","last_reported":1728741996,"current_range_meters":27600,"station_id":"ce4bhnh2rcd13ifvqgtg","pricing_plan_id":"cebpf4jnsgd1na2vs0mg"},{"bike_id":"ff595384-f953-41ab-a5a8-aaf897cd9a51","system_id":"levelo_inurba_marseille","lat":43.25865,"lon":5.39899,"is_reserved":false,"is_disabled":false,"rental_uris":{"android":"levelo://app?vid=ff595384-f953-41ab-a5a8-aaf897cd9a51","ios":"levelo://app?vid=ff595384-f953-41ab-a5a8-aaf897cd9a51"},"vehicle_type_id":"4","last_reported":1728741996,"current_range_meters":19600,"station_id":"ce4bhl92rcd13ifvqghg","pricing_plan_id":"cebpf4jnsgd1na2vs0mg"},{"bike_id":"7bac7836-a75a-491f-98e0-0ff022602dac","system_id":"levelo_inurba_marseille","lat":43.2962,"lon":5.37171,"is_reserved":false,"is_disabled":false,"rental_uris":{"android":"levelo://app?vid=7bac7836-a75a-491f-98e0-0ff022602dac","ios":"levelo://app?vid=7bac7836-a75a-491f-98e0-0ff022602dac"},"vehicle_type_id":"4","last_reported":1728741996,"current_range_meters":14400,"station_id":"ce4bgnh2rcd13ifvqc0g","pricing_plan_id":"cebpf4jnsgd1na2vs0mg"},{"bike_id":"b933402b-d1ca-49a8-bbf7-fb19281d941c","system_id":"levelo_inurba_marseille","lat":43.23189,"lon":5.35555,"is_reserved":false,"is_disabled":false,"rental_uris":{"android":"levelo://app?vid=b933402b-d1ca-49a8-bbf7-fb19281d941c","ios":"levelo://app?vid=b933402b-d1ca-49a8-bbf7-fb19281d941c"},"vehicle_type_id":"4","last_reported":1728741996,"current_range_meters":20400,"station_id":"ce4bhu92rcd13ifvqi70","pricing_plan_id":"cebpf4jnsgd1na2vs0mg"},{"bike_id":"68a48546-28ec-4218-a008-021a1ba46359","system_id":"levelo_inurba_marseille","lat":43.25585,"lon":5.38222,"is_reserved":false,"is_disabled":false,"rental_uris":{"android":"levelo://app?vid=68a48546-28ec-4218-a008-021a1ba46359","ios":"levelo://app?vid=68a48546-28ec-4218-a008-021a1ba46359"},"vehicle_type_id":"4","last_reported":1728741996,"current_range_meters":37600,"station_id":"ce4bhih2rcd13ifvqfs0","pricing_plan_id":"cebpf4jnsgd1na2vs0mg"},{"bike_id":"179aa7f0-030f-4930-a1e5-b752ea6a4669","system_id":"levelo_inurba_marseille","lat":43.29564,"lon":5.37511,"is_reserved":false,"is_disabled":false,"rental_uris":{"android":"levelo://app?vid=179aa7f0-030f-4930-a1e5-b752ea6a4669","ios":"levelo://app?vid=179aa7f0-030f-4930-a1e5-b752ea6a4669"},"vehicle_type_id":"4","last_reported":1728741996,"current_range_meters":38800,"station_id":"ce4bgh92rcd13ifvqb50","pricing_plan_id":"cebpf4jnsgd1na2vs0mg"},{"bike_id":"f71dd66f-7aaa-4750-846b-506ed087040e","system_id":"levelo_inurba_marseille","lat":43.29967,"lon":5.37167,"is_reserved":false,"is_disabled":false,"rental_uris":{"android":"levelo://app?vid=f71dd66f-7aaa-4750-846b-506ed087040e","ios":"levelo://app?vid=f71dd66f-7aaa-4750-846b-506ed087040e"},"vehicle_type_id":"4","last_reported":1728741996,"current_range_meters":21600,"station_id":"ce4bgr92rcd13ifvqc7g","pricing_plan_id":"cebpf4jnsgd1na2vs0mg"},{"bike_id":"a221c45f-a585-453a-974b-ac071b2564e7","system_id":"levelo_inurba_marseille","lat":43.29581,"lon":5.37519,"is_reserved":false,"is_disabled":false,"rental_uris":{"android":"levelo://app?vid=a221c45f-a585-453a-974b-ac071b2564e7","ios":"levelo://app?vid=a221c45f-a585-453a-974b-ac071b2564e7"},"vehicle_type_id":"4","last_reported":1728741996,"current_range_meters":9200,"station_id":"ce4bgh92rcd13ifvqb50","pricing_plan_id":"cebpf4jnsgd1na2vs0mg"},{"bike_id":"46d4d1d5-ea77-4a20-b35b-b123895855ef","system_id":"levelo_inurba_marseille","lat":43.27566,"lon":5.38413,"is_reserved":false,"is_disabled":false,"rental_uris":{"android":"levelo://app?vid=46d4d1d5-ea77-4a20-b35b-b123895855ef","ios":"levelo://app?vid=46d4d1d5-ea77-4a20-b35b-b123895855ef"},"vehicle_type_id":"4","last_reported":1728741996,"current_range_meters":36800,"station_id":"ce4bhh92rcd13ifvqfi0","pricing_plan_id":"cebpf4jnsgd1na2vs0mg"},{"bike_id":"903780c1-323b-40bd-917b-bc79751550b2","system_id":"levelo_inurba_marseille","lat":43.30356,"lon":5.39684,"is_reserved":false,"is_disabled":false,"rental_uris":{"android":"levelo://app?vid=903780c1-323b-40bd-917b-bc79751550b2","ios":"levelo://app?vid=903780c1-323b-40bd-917b-bc79751550b2"},"vehicle_type_id":"4","last_reported":1728741996,"current_range_meters":32000,"station_id":"ce4bh092rcd13ifvqd20","pricing_plan_id":"cebpf4jnsgd1na2vs0mg"},{"bike_id":"ae37b68d-037c-4658-8dd1-2353244f597d","system_id":"levelo_inurba_marseille","lat":43.29262,"lon":5.3843,"is_reserved":false,"is_disabled":false,"rental_uris":{"android":"levelo://app?vid=ae37b68d-037c-4658-8dd1-2353244f597d","ios":"levelo://app?vid=ae37b68d-037c-4658-8dd1-2353244f597d"},"vehicle_type_id":"4","last_reported":1728741996,"current_range_meters":35600,"station_id":"ce4bh692rcd13ifvqea0","pricing_plan_id":"cebpf4jnsgd1na2vs0mg"},{"bike_id":"e4a3467e-fab8-472a-b7be-5d4d1f9882ff","system_id":"levelo_inurba_marseille","lat":43.31338,"lon":5.36715,"is_reserved":false,"is_disabled":false,"rental_uris":{"android":"levelo://app?vid=e4a3467e-fab8-472a-b7be-5d4d1f9882ff","ios":"levelo://app?vid=e4a3467e-fab8-472a-b7be-5d4d1f9882ff"},"vehicle_type_id":"4","last_reported":1728741996,"current_range_meters":27600,"station_id":"ce4bgr92rcd13ifvqc6g","pricing_plan_id":"cebpf4jnsgd1na2vs0mg"},{"bike_id":"ceed8199-9efa-418d-b457-db8bfef2f846","system_id":"levelo_inurba_marseille","lat":43.2953,"lon":5.38538,"is_reserved":false,"is_disabled":false,"rental_uris":{"android":"levelo://app?vid=ceed8199-9efa-418d-b457-db8bfef2f846","ios":"levelo://app?vid=ceed8199-9efa-418d-b457-db8bfef2f846"},"vehicle_type_id":"4","last_reported":1728741996,"current_range_meters":13600,"station_id":"ce4bgs12rcd13ifvqcag","pricing_plan_id":"cebpf4jnsgd1na2vs0mg"},{"bike_id":"df90eeb3-e9a3-4f4a-b97a-b67f21413e4f","system_id":"levelo_inurba_marseille","lat":43.29726,"lon":5.37687,"is_reserved":false,"is_disabled":false,"rental_uris":{"android":"levelo://app?vid=df90eeb3-e9a3-4f4a-b97a-b67f21413e4f","ios":"levelo://app?vid=df90eeb3-e9a3-4f4a-b97a-b67f21413e4f"},"vehicle_type_id":"4","last_reported":1728741996,"current_range_meters":20000,"station_id":"ce4bgkh2rcd13ifvqbl0","pricing_plan_id":"cebpf4jnsgd1na2vs0mg"},{"bike_id":"484a4c63-4ef1-4433-b27a-9a9ca5ad2f9a","system_id":"levelo_inurba_marseille","lat":43.22929,"lon":5.35378,"is_reserved":false,"is_disabled":false,"rental_uris":{"android":"levelo://app?vid=484a4c63-4ef1-4433-b27a-9a9ca5ad2f9a","ios":"levelo://app?vid=484a4c63-4ef1-4433-b27a-9a9ca5ad2f9a"},"vehicle_type_id":"4","last_reported":1728741996,"current_range_meters":9600,"station_id":"cpo3532slgdg3j2ikp40","pricing_plan_id":"cebpf4jnsgd1na2vs0mg"},{"bike_id":"2de84eeb-01d9-44b9-b32c-6782159af0e9","system_id":"levelo_inurba_marseille","lat":43.23179,"lon":5.39989,"is_reserved":false,"is_disabled":false,"rental_uris":{"android":"levelo://app?vid=2de84eeb-01d9-44b9-b32c-6782159af0e9","ios":"levelo://app?vid=2de84eeb-01d9-44b9-b32c-6782159af0e9"},"vehicle_type_id":"4","last_reported":1728741996,"current_range_meters":18000,"station_id":"ce4bhn12rcd13ifvqgqg","pricing_plan_id":"cebpf4jnsgd1na2vs0mg"},{"bike_id":"7ab4c1c3-2154-4847-931b-d72417194db0","system_id":"levelo_inurba_marseille","lat":43.30187,"lon":5.36607,"is_reserved":false,"is_disabled":false,"rental_uris":{"android":"levelo://app?vid=7ab4c1c3-2154-4847-931b-d72417194db0","ios":"levelo://app?vid=7ab4c1c3-2154-4847-931b-d72417194db0"},"vehicle_type_id":"4","last_reported":1728741996,"current_range_meters":39200,"station_id":"ce4bgrh2rcd13ifvqc8g","pricing_plan_id":"cebpf4jnsgd1na2vs0mg"},{"bike_id":"6eb751a2-15c9-4670-a4e5-b1a4265e0ceb","system_id":"levelo_inurba_marseille","lat":43.29577,"lon":5.36738,"is_reserved":false,"is_disabled":false,"rental_uris":{"android":"levelo://app?vid=6eb751a2-15c9-4670-a4e5-b1a4265e0ceb","ios":"levelo://app?vid=6eb751a2-15c9-4670-a4e5-b1a4265e0ceb"},"vehicle_type_id":"4","last_reported":1728741996,"current_range_meters":19200,"station_id":"ce4bgph2rcd13ifvqc2g","pricing_plan_id":"cebpf4jnsgd1na2vs0mg"},{"bike_id":"e6336660-e5d0-4336-aab6-9e2081b4b551","system_id":"levelo_inurba_marseille","lat":43.337189,"lon":5.391922,"is_reserved":false,"is_disabled":false,"rental_uris":{"android":"levelo://app?vid=e6336660-e5d0-4336-aab6-9e2081b4b551","ios":"levelo://app?vid=e6336660-e5d0-4336-aab6-9e2081b4b551"},"vehicle_type_id":"4","last_reported":1728741996,"current_range_meters":24000,"station_id":"ce4bhr92rcd13ifvqhsg","pricing_plan_id":"cebpf4jnsgd1na2vs0mg"},{"bike_id":"ab47664c-0450-4138-b005-9b8e1b8810bd","system_id":"levelo_inurba_marseille","lat":43.29578,"lon":5.36739,"is_reserved":false,"is_disabled":false,"rental_uris":{"android":"levelo://app?vid=ab47664c-0450-4138-b005-9b8e1b8810bd","ios":"levelo://app?vid=ab47664c-0450-4138-b005-9b8e1b8810bd"},"vehicle_type_id":"4","last_reported":1728741996,"current_range_meters":40000,"station_id":"ce4bgph2rcd13ifvqc2g","pricing_plan_id":"cebpf4jnsgd1na2vs0mg"},{"bike_id":"e778ff30-5703-4b4e-a7b8-85571dcf1640","system_id":"levelo_inurba_marseille","lat":43.29413,"lon":5.38625,"is_reserved":false,"is_disabled":false,"rental_uris":{"android":"levelo://app?vid=e778ff30-5703-4b4e-a7b8-85571dcf1640","ios":"levelo://app?vid=e778ff30-5703-4b4e-a7b8-85571dcf1640"},"vehicle_type_id":"4","last_reported":1728741996,"current_range_meters":33200,"station_id":"ce4bh2h2rcd13ifvqdh0","pricing_plan_id":"cebpf4jnsgd1na2vs0mg"},{"bike_id":"a65ad2e4-b09c-410d-b7a6-b8f4f8438114","system_id":"levelo_inurba_marseille","lat":43.29268,"lon":5.38448,"is_reserved":false,"is_disabled":false,"rental_uris":{"android":"levelo://app?vid=a65ad2e4-b09c-410d-b7a6-b8f4f8438114","ios":"levelo://app?vid=a65ad2e4-b09c-410d-b7a6-b8f4f8438114"},"vehicle_type_id":"4","last_reported":1728741996,"current_range_meters":8800,"station_id":"ce4bh692rcd13ifvqea0","pricing_plan_id":"cebpf4jnsgd1na2vs0mg"},{"bike_id":"55582e1e-1cd8-4e96-933c-025471d1c473","system_id":"levelo_inurba_marseille","lat":43.26959,"lon":5.38942,"is_reserved":false,"is_disabled":false,"rental_uris":{"android":"levelo://app?vid=55582e1e-1cd8-4e96-933c-025471d1c473","ios":"levelo://app?vid=55582e1e-1cd8-4e96-933c-025471d1c473"},"vehicle_type_id":"4","last_reported":1728741996,"current_range_meters":10800,"station_id":"ce4bhhh2rcd13ifvqfl0","pricing_plan_id":"cebpf4jnsgd1na2vs0mg"},{"bike_id":"827f06d8-ce2f-46a5-96e7-1ae5a8b2316d","system_id":"levelo_inurba_marseille","lat":43.27562,"lon":5.38409,"is_reserved":false,"is_disabled":false,"rental_uris":{"android":"levelo://app?vid=827f06d8-ce2f-46a5-96e7-1ae5a8b2316d","ios":"levelo://app?vid=827f06d8-ce2f-46a5-96e7-1ae5a8b2316d"},"vehicle_type_id":"4","last_reported":1728741996,"current_range_meters":30000,"station_id":"ce4bhh92rcd13ifvqfi0","pricing_plan_id":"cebpf4jnsgd1na2vs0mg"},{"bike_id":"5b9f2409-af94-4530-bdcb-ef3b7e257a37","system_id":"levelo_inurba_marseille","lat":43.31994,"lon":5.38143,"is_reserved":false,"is_disabled":false,"rental_uris":{"android":"levelo://app?vid=5b9f2409-af94-4530-bdcb-ef3b7e257a37","ios":"levelo://app?vid=5b9f2409-af94-4530-bdcb-ef3b7e257a37"},"vehicle_type_id":"4","last_reported":1728741996,"current_range_meters":37600,"station_id":"ce4bhr12rcd13ifvqhpg","pricing_plan_id":"cebpf4jnsgd1na2vs0mg"},{"bike_id":"43563e5d-6ca3-4591-96f9-ce848c4cebb8","system_id":"levelo_inurba_marseille","lat":43.30166,"lon":5.37459,"is_reserved":false,"is_disabled":false,"rental_uris":{"android":"levelo://app?vid=43563e5d-6ca3-4591-96f9-ce848c4cebb8","ios":"levelo://app?vid=43563e5d-6ca3-4591-96f9-ce848c4cebb8"},"vehicle_type_id":"4","last_reported":1728741996,"current_range_meters":27600,"station_id":"ce4bgs92rcd13ifvqcc0","pricing_plan_id":"cebpf4jnsgd1na2vs0mg"},{"bike_id":"4642cdd6-1516-4113-a4e3-3b2fe1912255","system_id":"levelo_inurba_marseille","lat":43.29568,"lon":5.37513,"is_reserved":false,"is_disabled":false,"rental_uris":{"android":"levelo://app?vid=4642cdd6-1516-4113-a4e3-3b2fe1912255","ios":"levelo://app?vid=4642cdd6-1516-4113-a4e3-3b2fe1912255"},"vehicle_type_id":"4","last_reported":1728741996,"current_range_meters":38800,"station_id":"ce4bgh92rcd13ifvqb50","pricing_plan_id":"cebpf4jnsgd1na2vs0mg"},{"bike_id":"17f0a58b-fa96-470d-a1b0-89c2a0c2bfbe","system_id":"levelo_inurba_marseille","lat":43.289215,"lon":5.383965,"is_reserved":false,"is_disabled":false,"rental_uris":{"android":"levelo://app?vid=17f0a58b-fa96-470d-a1b0-89c2a0c2bfbe","ios":"levelo://app?vid=17f0a58b-fa96-470d-a1b0-89c2a0c2bfbe"},"vehicle_type_id":"4","last_reported":1728741996,"current_range_meters":22400,"station_id":"ce4bh612rcd13ifvqe6g","pricing_plan_id":"cebpf4jnsgd1na2vs0mg"},{"bike_id":"0bef4de1-aa63-45fa-ab85-ffbe5a4c3af5","system_id":"levelo_inurba_marseille","lat":43.30535,"lon":5.38422,"is_reserved":false,"is_disabled":false,"rental_uris":{"android":"levelo://app?vid=0bef4de1-aa63-45fa-ab85-ffbe5a4c3af5","ios":"levelo://app?vid=0bef4de1-aa63-45fa-ab85-ffbe5a4c3af5"},"vehicle_type_id":"4","last_reported":1728741996,"current_range_meters":24800,"station_id":"ce4bgg92rcd13ifvqb30","pricing_plan_id":"cebpf4jnsgd1na2vs0mg"},{"bike_id":"723eb7e7-2e48-46c9-a7bb-85d1e0b05b57","system_id":"levelo_inurba_marseille","lat":43.29976,"lon":5.38486,"is_reserved":false,"is_disabled":false,"rental_uris":{"android":"levelo://app?vid=723eb7e7-2e48-46c9-a7bb-85d1e0b05b57","ios":"levelo://app?vid=723eb7e7-2e48-46c9-a7bb-85d1e0b05b57"},"vehicle_type_id":"4","last_reported":1728741996,"current_range_meters":19200,"station_id":"ce4bgj92rcd13ifvqbd0","pricing_plan_id":"cebpf4jnsgd1na2vs0mg"},{"bike_id":"0383fd16-e9b8-4410-b536-493a9708d1c6","system_id":"levelo_inurba_marseille","lat":43.33026,"lon":5.39033,"is_reserved":false,"is_disabled":false,"rental_uris":{"android":"levelo://app?vid=0383fd16-e9b8-4410-b536-493a9708d1c6","ios":"levelo://app?vid=0383fd16-e9b8-4410-b536-493a9708d1c6"},"vehicle_type_id":"4","last_reported":1728741996,"current_range_meters":17600,"station_id":"ce4bhr92rcd13ifvqhrg","pricing_plan_id":"cebpf4jnsgd1na2vs0mg"},{"bike_id":"b25409bc-df4d-476a-893e-c6a5838692b2","system_id":"levelo_inurba_marseille","lat":43.23195,"lon":5.35553,"is_reserved":false,"is_disabled":false,"rental_uris":{"android":"levelo://app?vid=b25409bc-df4d-476a-893e-c6a5838692b2","ios":"levelo://app?vid=b25409bc-df4d-476a-893e-c6a5838692b2"},"vehicle_type_id":"4","last_reported":1728741996,"current_range_meters":39200,"station_id":"ce4bhu92rcd13ifvqi70","pricing_plan_id":"cebpf4jnsgd1na2vs0mg"},{"bike_id":"379d6363-9152-4e84-bd42-6ec02dd02b54","system_id":"levelo_inurba_marseille","lat":43.31992,"lon":5.38146,"is_reserved":false,"is_disabled":false,"rental_uris":{"android":"levelo://app?vid=379d6363-9152-4e84-bd42-6ec02dd02b54","ios":"levelo://app?vid=379d6363-9152-4e84-bd42-6ec02dd02b54"},"vehicle_type_id":"4","last_reported":1728741996,"current_range_meters":37600,"station_id":"ce4bhr12rcd13ifvqhpg","pricing_plan_id":"cebpf4jnsgd1na2vs0mg"},{"bike_id":"8fb2b431-bcb9-46ba-80fb-e26e84592fc5","system_id":"levelo_inurba_marseille","lat":43.23188,"lon":5.35543,"is_reserved":false,"is_disabled":false,"rental_uris":{"android":"levelo://app?vid=8fb2b431-bcb9-46ba-80fb-e26e84592fc5","ios":"levelo://app?vid=8fb2b431-bcb9-46ba-80fb-e26e84592fc5"},"vehicle_type_id":"4","last_reported":1728741996,"current_range_meters":31200,"station_id":"ce4bhu92rcd13ifvqi70","pricing_plan_id":"cebpf4jnsgd1na2vs0mg"},{"bike_id":"e3853ef8-1d26-4622-bfd8-a1d8bf66f6a0","system_id":"levelo_inurba_marseille","lat":43.31117,"lon":5.37763,"is_reserved":false,"is_disabled":false,"rental_uris":{"android":"levelo://app?vid=e3853ef8-1d26-4622-bfd8-a1d8bf66f6a0","ios":"levelo://app?vid=e3853ef8-1d26-4622-bfd8-a1d8bf66f6a0"},"vehicle_type_id":"4","last_reported":1728741996,"current_range_meters":17600,"station_id":"ce4bgt92rcd13ifvqcg0","pricing_plan_id":"cebpf4jnsgd1na2vs0mg"},{"bike_id":"e2f25126-29b7-4581-a4fe-9e458716fb1d","system_id":"levelo_inurba_marseille","lat":43.23955,"lon":5.36635,"is_reserved":false,"is_disabled":false,"rental_uris":{"android":"levelo://app?vid=e2f25126-29b7-4581-a4fe-9e458716fb1d","ios":"levelo://app?vid=e2f25126-29b7-4581-a4fe-9e458716fb1d"},"vehicle_type_id":"4","last_reported":1728741996,"current_range_meters":28000,"station_id":"ce4bhi12rcd13ifvqfp0","pricing_plan_id":"cebpf4jnsgd1na2vs0mg"},{"bike_id":"386afdab-5ca5-4bd2-984e-31a0a109f099","system_id":"levelo_inurba_marseille","lat":43.3014,"lon":5.37419,"is_reserved":false,"is_disabled":false,"rental_uris":{"android":"levelo://app?vid=386afdab-5ca5-4bd2-984e-31a0a109f099","ios":"levelo://app?vid=386afdab-5ca5-4bd2-984e-31a0a109f099"},"vehicle_type_id":"4","last_reported":1728741996,"current_range_meters":38800,"station_id":"ce4bgs92rcd13ifvqcc0","pricing_plan_id":"cebpf4jnsgd1na2vs0mg"},{"bike_id":"8dc8b5c8-f938-440d-b2c2-9a921dbd5488","system_id":"levelo_inurba_marseille","lat":43.26933,"lon":5.38911,"is_reserved":false,"is_disabled":false,"rental_uris":{"android":"levelo://app?vid=8dc8b5c8-f938-440d-b2c2-9a921dbd5488","ios":"levelo://app?vid=8dc8b5c8-f938-440d-b2c2-9a921dbd5488"},"vehicle_type_id":"4","last_reported":1728741996,"current_range_meters":38800,"station_id":"ce4bhhh2rcd13ifvqfl0","pricing_plan_id":"cebpf4jnsgd1na2vs0mg"},{"bike_id":"1c06364c-dd5b-4158-981c-4cd1ae259048","system_id":"levelo_inurba_marseille","lat":43.29413,"lon":5.3862,"is_reserved":false,"is_disabled":false,"rental_uris":{"android":"levelo://app?vid=1c06364c-dd5b-4158-981c-4cd1ae259048","ios":"levelo://app?vid=1c06364c-dd5b-4158-981c-4cd1ae259048"},"vehicle_type_id":"4","last_reported":1728741996,"current_range_meters":28800,"station_id":"ce4bh2h2rcd13ifvqdh0","pricing_plan_id":"cebpf4jnsgd1na2vs0mg"},{"bike_id":"d1c7e8a4-b77e-4de5-9348-2775dac74185","system_id":"levelo_inurba_marseille","lat":43.29806,"lon":5.3808,"is_reserved":false,"is_disabled":false,"rental_uris":{"android":"levelo://app?vid=d1c7e8a4-b77e-4de5-9348-2775dac74185","ios":"levelo://app?vid=d1c7e8a4-b77e-4de5-9348-2775dac74185"},"vehicle_type_id":"4","last_reported":1728741996,"current_range_meters":38800,"station_id":"ce4bgip2rcd13ifvqbb0","pricing_plan_id":"cebpf4jnsgd1na2vs0mg"},{"bike_id":"b67d3167-521a-4138-8512-d088f18d688d","system_id":"levelo_inurba_marseille","lat":43.29249,"lon":5.40901,"is_reserved":false,"is_disabled":false,"rental_uris":{"android":"levelo://app?vid=b67d3167-521a-4138-8512-d088f18d688d","ios":"levelo://app?vid=b67d3167-521a-4138-8512-d088f18d688d"},"vehicle_type_id":"4","last_reported":1728741996,"current_range_meters":28800,"station_id":"ce4bh192rcd13ifvqdc0","pricing_plan_id":"cebpf4jnsgd1na2vs0mg"},{"bike_id":"9590dcc6-f3d0-428e-bef0-532f83e76507","system_id":"levelo_inurba_marseille","lat":43.28703,"lon":5.37379,"is_reserved":false,"is_disabled":false,"rental_uris":{"android":"levelo://app?vid=9590dcc6-f3d0-428e-bef0-532f83e76507","ios":"levelo://app?vid=9590dcc6-f3d0-428e-bef0-532f83e76507"},"vehicle_type_id":"4","last_reported":1728741996,"current_range_meters":31200,"station_id":"ce4bh3p2rcd13ifvqdq0","pricing_plan_id":"cebpf4jnsgd1na2vs0mg"},{"bike_id":"a50e685b-3d89-4a09-8e5c-198fe006f41f","system_id":"levelo_inurba_marseille","lat":43.3171,"lon":5.43703,"is_reserved":false,"is_disabled":false,"rental_uris":{"android":"levelo://app?vid=a50e685b-3d89-4a09-8e5c-198fe006f41f","ios":"levelo://app?vid=a50e685b-3d89-4a09-8e5c-198fe006f41f"},"vehicle_type_id":"4","last_reported":1728741996,"current_range_meters":28400,"station_id":"ce4bhp92rcd13ifvqhcg","pricing_plan_id":"cebpf4jnsgd1na2vs0mg"},{"bike_id":"b3b2de45-6e13-4551-8667-b0149c47447a","system_id":"levelo_inurba_marseille","lat":43.23156,"lon":5.437,"is_reserved":false,"is_disabled":false,"rental_uris":{"android":"levelo://app?vid=b3b2de45-6e13-4551-8667-b0149c47447a","ios":"levelo://app?vid=b3b2de45-6e13-4551-8667-b0149c47447a"},"vehicle_type_id":"4","last_reported":1728741996,"current_range_meters":20400,"station_id":"ce4bhmp2rcd13ifvqgog","pricing_plan_id":"cebpf4jnsgd1na2vs0mg"},{"bike_id":"b1990f25-927c-4207-910f-d5bc58d49ea7","system_id":"levelo_inurba_marseille","lat":43.24179,"lon":5.39723,"is_reserved":false,"is_disabled":false,"rental_uris":{"android":"levelo://app?vid=b1990f25-927c-4207-910f-d5bc58d49ea7","ios":"levelo://app?vid=b1990f25-927c-4207-910f-d5bc58d49ea7"},"vehicle_type_id":"4","last_reported":1728741996,"current_range_meters":4800,"station_id":"ce4bhn12rcd13ifvqgpg","pricing_plan_id":"cebpf4jnsgd1na2vs0mg"},{"bike_id":"64d3378c-e0ea-4570-8db3-f47dc1281eb5","system_id":"levelo_inurba_marseille","lat":43.24803,"lon":5.3745,"is_reserved":false,"is_disabled":false,"rental_uris":{"android":"levelo://app?vid=64d3378c-e0ea-4570-8db3-f47dc1281eb5","ios":"levelo://app?vid=64d3378c-e0ea-4570-8db3-f47dc1281eb5"},"vehicle_type_id":"4","last_reported":1728741996,"current_range_meters":10000,"station_id":"ce4bhgh2rcd13ifvqfb0","pricing_plan_id":"cebpf4jnsgd1na2vs0mg"},{"bike_id":"3995ecb7-d449-4ee1-8785-e5517cffed3d","system_id":"levelo_inurba_marseille","lat":43.27569,"lon":5.38409,"is_reserved":false,"is_disabled":false,"rental_uris":{"android":"levelo://app?vid=3995ecb7-d449-4ee1-8785-e5517cffed3d","ios":"levelo://app?vid=3995ecb7-d449-4ee1-8785-e5517cffed3d"},"vehicle_type_id":"4","last_reported":1728741996,"current_range_meters":37600,"station_id":"ce4bhh92rcd13ifvqfi0","pricing_plan_id":"cebpf4jnsgd1na2vs0mg"},{"bike_id":"da6b3d0f-e7c9-42b1-8994-6f3bae518205","system_id":"levelo_inurba_marseille","lat":43.23182,"lon":5.39987,"is_reserved":false,"is_disabled":false,"rental_uris":{"android":"levelo://app?vid=da6b3d0f-e7c9-42b1-8994-6f3bae518205","ios":"levelo://app?vid=da6b3d0f-e7c9-42b1-8994-6f3bae518205"},"vehicle_type_id":"4","last_reported":1728741996,"current_range_meters":26800,"station_id":"ce4bhn12rcd13ifvqgqg","pricing_plan_id":"cebpf4jnsgd1na2vs0mg"},{"bike_id":"4f40da9c-7ac4-47a8-82aa-583ce21e88ef","system_id":"levelo_inurba_marseille","lat":43.296326,"lon":5.377825,"is_reserved":false,"is_disabled":false,"rental_uris":{"android":"levelo://app?vid=4f40da9c-7ac4-47a8-82aa-583ce21e88ef","ios":"levelo://app?vid=4f40da9c-7ac4-47a8-82aa-583ce21e88ef"},"vehicle_type_id":"4","last_reported":1728741996,"current_range_meters":23200,"station_id":"ce4bhjp2rcd13ifvqga0","pricing_plan_id":"cebpf4jnsgd1na2vs0mg"},{"bike_id":"19e0e40e-63be-4804-b3b8-2787230e9bca","system_id":"levelo_inurba_marseille","lat":43.2962,"lon":5.37165,"is_reserved":false,"is_disabled":false,"rental_uris":{"android":"levelo://app?vid=19e0e40e-63be-4804-b3b8-2787230e9bca","ios":"levelo://app?vid=19e0e40e-63be-4804-b3b8-2787230e9bca"},"vehicle_type_id":"4","last_reported":1728741996,"current_range_meters":39200,"station_id":"ce4bgnh2rcd13ifvqc0g","pricing_plan_id":"cebpf4jnsgd1na2vs0mg"},{"bike_id":"a3b990e1-d55b-440c-9480-31946d2d9e8e","system_id":"levelo_inurba_marseille","lat":43.29782,"lon":5.37098,"is_reserved":false,"is_disabled":false,"rental_uris":{"android":"levelo://app?vid=a3b990e1-d55b-440c-9480-31946d2d9e8e","ios":"levelo://app?vid=a3b990e1-d55b-440c-9480-31946d2d9e8e"},"vehicle_type_id":"4","last_reported":1728741996,"current_range_meters":38000,"station_id":"ce4bgop2rcd13ifvqc1g","pricing_plan_id":"cebpf4jnsgd1na2vs0mg"},{"bike_id":"133f35eb-be84-49cf-8db4-2afb09de71e4","system_id":"levelo_inurba_marseille","lat":43.3137,"lon":5.36657,"is_reserved":false,"is_disabled":false,"rental_uris":{"android":"levelo://app?vid=133f35eb-be84-49cf-8db4-2afb09de71e4","ios":"levelo://app?vid=133f35eb-be84-49cf-8db4-2afb09de71e4"},"vehicle_type_id":"4","last_reported":1728741996,"current_range_meters":27600,"station_id":"ce4bgr92rcd13ifvqc6g","pricing_plan_id":"cebpf4jnsgd1na2vs0mg"},{"bike_id":"4f8e4e88-3d7b-4dbb-99a8-76c577f50f2d","system_id":"levelo_inurba_marseille","lat":43.30542,"lon":5.36524,"is_reserved":false,"is_disabled":false,"rental_uris":{"android":"levelo://app?vid=4f8e4e88-3d7b-4dbb-99a8-76c577f50f2d","ios":"levelo://app?vid=4f8e4e88-3d7b-4dbb-99a8-76c577f50f2d"},"vehicle_type_id":"4","last_reported":1728741996,"current_range_meters":31200,"station_id":"ce4bgs12rcd13ifvqcag","pricing_plan_id":"cebpf4jnsgd1na2vs0mg"},{"bike_id":"5c9d00cd-c11a-4f81-8df5-9e89a15074e5","system_id":"levelo_inurba_marseille","lat":43.29299,"lon":5.37464,"is_reserved":false,"is_disabled":false,"rental_uris":{"android":"levelo://app?vid=5c9d00cd-c11a-4f81-8df5-9e89a15074e5","ios":"levelo://app?vid=5c9d00cd-c11a-4f81-8df5-9e89a15074e5"},"vehicle_type_id":"4","last_reported":1728741996,"current_range_meters":16000,"station_id":"ce4bgi12rcd13ifvqb70","pricing_plan_id":"cebpf4jnsgd1na2vs0mg"},{"bike_id":"e303c8b4-ebc1-4647-969b-fb229441cbb0","system_id":"levelo_inurba_marseille","lat":43.29831,"lon":5.36258,"is_reserved":false,"is_disabled":false,"rental_uris":{"android":"levelo://app?vid=e303c8b4-ebc1-4647-969b-fb229441cbb0","ios":"levelo://app?vid=e303c8b4-ebc1-4647-969b-fb229441cbb0"},"vehicle_type_id":"4","last_reported":1728741996,"current_range_meters":10800,"station_id":"ce4bgpp2rcd13ifvqc3g","pricing_plan_id":"cebpf4jnsgd1na2vs0mg"},{"bike_id":"4ef6fcc8-e29f-4f7b-bfb6-492772c7e8d5","system_id":"levelo_inurba_marseille","lat":43.26204,"lon":5.37925,"is_reserved":false,"is_disabled":false,"rental_uris":{"android":"levelo://app?vid=4ef6fcc8-e29f-4f7b-bfb6-492772c7e8d5","ios":"levelo://app?vid=4ef6fcc8-e29f-4f7b-bfb6-492772c7e8d5"},"vehicle_type_id":"4","last_reported":1728741996,"current_range_meters":35600,"station_id":"ce4bhjp2rcd13ifvqg90","pricing_plan_id":"cebpf4jnsgd1na2vs0mg"},{"bike_id":"468f2d29-1c77-484c-bf73-ebad480dfe02","system_id":"levelo_inurba_marseille","lat":43.30304,"lon":5.36881,"is_reserved":false,"is_disabled":false,"rental_uris":{"android":"levelo://app?vid=468f2d29-1c77-484c-bf73-ebad480dfe02","ios":"levelo://app?vid=468f2d29-1c77-484c-bf73-ebad480dfe02"},"vehicle_type_id":"4","last_reported":1728741996,"current_range_meters":9600,"station_id":"ce4bgqh2rcd13ifvqc5g","pricing_plan_id":"cebpf4jnsgd1na2vs0mg"},{"bike_id":"092b0836-7fc6-4398-a8ce-013142346652","system_id":"levelo_inurba_marseille","lat":43.29549,"lon":5.42283,"is_reserved":false,"is_disabled":false,"rental_uris":{"android":"levelo://app?vid=092b0836-7fc6-4398-a8ce-013142346652","ios":"levelo://app?vid=092b0836-7fc6-4398-a8ce-013142346652"},"vehicle_type_id":"4","last_reported":1728741996,"current_range_meters":16800,"station_id":"ce4bhph2rcd13ifvqhdg","pricing_plan_id":"cebpf4jnsgd1na2vs0mg"},{"bike_id":"0678d85e-be63-47ec-a8fa-682520a8063f","system_id":"levelo_inurba_marseille","lat":43.28718,"lon":5.36081,"is_reserved":false,"is_disabled":false,"rental_uris":{"android":"levelo://app?vid=0678d85e-be63-47ec-a8fa-682520a8063f","ios":"levelo://app?vid=0678d85e-be63-47ec-a8fa-682520a8063f"},"vehicle_type_id":"4","last_reported":1728741996,"current_range_meters":32000,"station_id":"cki0cbj6b192h4jlfktg","pricing_plan_id":"cebpf4jnsgd1na2vs0mg"},{"bike_id":"27837613-0fd9-4340-b96d-7342fadd0b36","system_id":"levelo_inurba_marseille","lat":43.27569,"lon":5.38416,"is_reserved":false,"is_disabled":false,"rental_uris":{"android":"levelo://app?vid=27837613-0fd9-4340-b96d-7342fadd0b36","ios":"levelo://app?vid=27837613-0fd9-4340-b96d-7342fadd0b36"},"vehicle_type_id":"4","last_reported":1728741996,"current_range_meters":32800,"station_id":"ce4bhh92rcd13ifvqfi0","pricing_plan_id":"cebpf4jnsgd1na2vs0mg"},{"bike_id":"5215c02b-9ef4-43e3-a63b-5be648682d97","system_id":"levelo_inurba_marseille","lat":43.29259,"lon":5.36842,"is_reserved":false,"is_disabled":false,"rental_uris":{"android":"levelo://app?vid=5215c02b-9ef4-43e3-a63b-5be648682d97","ios":"levelo://app?vid=5215c02b-9ef4-43e3-a63b-5be648682d97"},"vehicle_type_id":"4","last_reported":1728741996,"current_range_meters":4800,"station_id":"ce4bhbp2rcd13ifvqesg","pricing_plan_id":"cebpf4jnsgd1na2vs0mg"},{"bike_id":"6d9b905a-4715-4ad3-a082-161d5fcc64b2","system_id":"levelo_inurba_marseille","lat":43.30316,"lon":5.36897,"is_reserved":false,"is_disabled":false,"rental_uris":{"android":"levelo://app?vid=6d9b905a-4715-4ad3-a082-161d5fcc64b2","ios":"levelo://app?vid=6d9b905a-4715-4ad3-a082-161d5fcc64b2"},"vehicle_type_id":"4","last_reported":1728741996,"current_range_meters":38400,"station_id":"ce4bgqh2rcd13ifvqc5g","pricing_plan_id":"cebpf4jnsgd1na2vs0mg"},{"bike_id":"31c13226-ec80-4e51-90e0-ac0613ed2291","system_id":"levelo_inurba_marseille","lat":43.23188,"lon":5.35547,"is_reserved":false,"is_disabled":false,"rental_uris":{"android":"levelo://app?vid=31c13226-ec80-4e51-90e0-ac0613ed2291","ios":"levelo://app?vid=31c13226-ec80-4e51-90e0-ac0613ed2291"},"vehicle_type_id":"4","last_reported":1728741996,"current_range_meters":32800,"station_id":"ce4bhi12rcd13ifvqfp0","pricing_plan_id":"cebpf4jnsgd1na2vs0mg"},{"bike_id":"e88be19a-5769-42da-bfde-bd91c7a1e6d3","system_id":"levelo_inurba_marseille","lat":43.30462,"lon":5.37905,"is_reserved":false,"is_disabled":false,"rental_uris":{"android":"levelo://app?vid=e88be19a-5769-42da-bfde-bd91c7a1e6d3","ios":"levelo://app?vid=e88be19a-5769-42da-bfde-bd91c7a1e6d3"},"vehicle_type_id":"4","last_reported":1728741996,"current_range_meters":28400,"station_id":"ce4bgup2rcd13ifvqcn0","pricing_plan_id":"cebpf4jnsgd1na2vs0mg"},{"bike_id":"ba683a66-bc5f-42b6-85bb-0f00dad8b260","system_id":"levelo_inurba_marseille","lat":43.2693,"lon":5.38911,"is_reserved":false,"is_disabled":false,"rental_uris":{"android":"levelo://app?vid=ba683a66-bc5f-42b6-85bb-0f00dad8b260","ios":"levelo://app?vid=ba683a66-bc5f-42b6-85bb-0f00dad8b260"},"vehicle_type_id":"4","last_reported":1728741996,"current_range_meters":38800,"station_id":"ce4bhhh2rcd13ifvqfl0","pricing_plan_id":"cebpf4jnsgd1na2vs0mg"},{"bike_id":"1db455cd-57ef-4a47-a30a-353a9feeb44b","system_id":"levelo_inurba_marseille","lat":43.2549,"lon":5.37646,"is_reserved":false,"is_disabled":false,"rental_uris":{"android":"levelo://app?vid=1db455cd-57ef-4a47-a30a-353a9feeb44b","ios":"levelo://app?vid=1db455cd-57ef-4a47-a30a-353a9feeb44b"},"vehicle_type_id":"4","last_reported":1728741996,"current_range_meters":37600,"station_id":"ce4bhh12rcd13ifvqff0","pricing_plan_id":"cebpf4jnsgd1na2vs0mg"},{"bike_id":"c12cb0d6-db93-4418-b913-57eec8fad5ea","system_id":"levelo_inurba_marseille","lat":43.27944,"lon":5.41044,"is_reserved":false,"is_disabled":false,"rental_uris":{"android":"levelo://app?vid=c12cb0d6-db93-4418-b913-57eec8fad5ea","ios":"levelo://app?vid=c12cb0d6-db93-4418-b913-57eec8fad5ea"},"vehicle_type_id":"4","last_reported":1728741996,"current_range_meters":21600,"station_id":"ce4bhnp2rcd13ifvqh0g","pricing_plan_id":"cebpf4jnsgd1na2vs0mg"},{"bike_id":"70ce3182-d903-4b25-88d2-18289d61bc4d","system_id":"levelo_inurba_marseille","lat":43.24659,"lon":5.38162,"is_reserved":false,"is_disabled":false,"rental_uris":{"android":"levelo://app?vid=70ce3182-d903-4b25-88d2-18289d61bc4d","ios":"levelo://app?vid=70ce3182-d903-4b25-88d2-18289d61bc4d"},"vehicle_type_id":"4","last_reported":1728741996,"current_range_meters":24000,"station_id":"ce4bhih2rcd13ifvqfr0","pricing_plan_id":"cebpf4jnsgd1na2vs0mg"},{"bike_id":"aad69708-28ac-43e6-945e-619f5a7c6bfd","system_id":"levelo_inurba_marseille","lat":43.33781,"lon":5.37443,"is_reserved":false,"is_disabled":false,"rental_uris":{"android":"levelo://app?vid=aad69708-28ac-43e6-945e-619f5a7c6bfd","ios":"levelo://app?vid=aad69708-28ac-43e6-945e-619f5a7c6bfd"},"vehicle_type_id":"4","last_reported":1728741996,"current_range_meters":38000,"station_id":"","pricing_plan_id":"cebpf4jnsgd1na2vs0mg"},{"bike_id":"b4ea5b17-4601-44b4-a399-085d3d40a78a","system_id":"levelo_inurba_marseille","lat":43.29963,"lon":5.38482,"is_reserved":false,"is_disabled":false,"rental_uris":{"android":"levelo://app?vid=b4ea5b17-4601-44b4-a399-085d3d40a78a","ios":"levelo://app?vid=b4ea5b17-4601-44b4-a399-085d3d40a78a"},"vehicle_type_id":"4","last_reported":1728741996,"current_range_meters":12800,"station_id":"ce4bgj92rcd13ifvqbd0","pricing_plan_id":"cebpf4jnsgd1na2vs0mg"},{"bike_id":"d86cc907-c6ce-4044-b204-270be9656b02","system_id":"levelo_inurba_marseille","lat":43.2893,"lon":5.36631,"is_reserved":false,"is_disabled":false,"rental_uris":{"android":"levelo://app?vid=d86cc907-c6ce-4044-b204-270be9656b02","ios":"levelo://app?vid=d86cc907-c6ce-4044-b204-270be9656b02"},"vehicle_type_id":"4","last_reported":1728741996,"current_range_meters":37600,"station_id":"ce4bhap2rcd13ifvqek0","pricing_plan_id":"cebpf4jnsgd1na2vs0mg"},{"bike_id":"51db7613-d741-4eee-9ab2-4b355384e9cc","system_id":"levelo_inurba_marseille","lat":43.287109,"lon":5.379277,"is_reserved":false,"is_disabled":false,"rental_uris":{"android":"levelo://app?vid=51db7613-d741-4eee-9ab2-4b355384e9cc","ios":"levelo://app?vid=51db7613-d741-4eee-9ab2-4b355384e9cc"},"vehicle_type_id":"4","last_reported":1728741996,"current_range_meters":20800,"station_id":"ce4bh9p2rcd13ifvqec0","pricing_plan_id":"cebpf4jnsgd1na2vs0mg"},{"bike_id":"65e3f0e4-9564-464e-af9b-959f97352d44","system_id":"levelo_inurba_marseille","lat":43.29056,"lon":5.37157,"is_reserved":false,"is_disabled":false,"rental_uris":{"android":"levelo://app?vid=65e3f0e4-9564-464e-af9b-959f97352d44","ios":"levelo://app?vid=65e3f0e4-9564-464e-af9b-959f97352d44"},"vehicle_type_id":"4","last_reported":1728741996,"current_range_meters":38800,"station_id":"ce4bh5p2rcd13ifvqe4g","pricing_plan_id":"cebpf4jnsgd1na2vs0mg"},{"bike_id":"6f4cb497-ec9b-4820-8959-59669c6a3e9a","system_id":"levelo_inurba_marseille","lat":43.29791,"lon":5.38096,"is_reserved":false,"is_disabled":false,"rental_uris":{"android":"levelo://app?vid=6f4cb497-ec9b-4820-8959-59669c6a3e9a","ios":"levelo://app?vid=6f4cb497-ec9b-4820-8959-59669c6a3e9a"},"vehicle_type_id":"4","last_reported":1728741996,"current_range_meters":6000,"station_id":"ce4bgip2rcd13ifvqbb0","pricing_plan_id":"cebpf4jnsgd1na2vs0mg"},{"bike_id":"6fba96d3-44e8-4f4a-9824-8a64fcac8d43","system_id":"levelo_inurba_marseille","lat":43.27827,"lon":5.39199,"is_reserved":false,"is_disabled":false,"rental_uris":{"android":"levelo://app?vid=6fba96d3-44e8-4f4a-9824-8a64fcac8d43","ios":"levelo://app?vid=6fba96d3-44e8-4f4a-9824-8a64fcac8d43"},"vehicle_type_id":"4","last_reported":1728741996,"current_range_meters":24000,"station_id":"ce4bhjp2rcd13ifvqga0","pricing_plan_id":"cebpf4jnsgd1na2vs0mg"},{"bike_id":"1bc5bcc3-d76a-4705-800c-1c1cbf723c76","system_id":"levelo_inurba_marseille","lat":43.30464,"lon":5.37911,"is_reserved":false,"is_disabled":false,"rental_uris":{"android":"levelo://app?vid=1bc5bcc3-d76a-4705-800c-1c1cbf723c76","ios":"levelo://app?vid=1bc5bcc3-d76a-4705-800c-1c1cbf723c76"},"vehicle_type_id":"4","last_reported":1728741996,"current_range_meters":24400,"station_id":"ce4bgup2rcd13ifvqcn0","pricing_plan_id":"cebpf4jnsgd1na2vs0mg"},{"bike_id":"8509fa5d-c6d9-4cb2-b4b1-4f2065b2666e","system_id":"levelo_inurba_marseille","lat":43.28339,"lon":5.41044,"is_reserved":false,"is_disabled":false,"rental_uris":{"android":"levelo://app?vid=8509fa5d-c6d9-4cb2-b4b1-4f2065b2666e","ios":"levelo://app?vid=8509fa5d-c6d9-4cb2-b4b1-4f2065b2666e"},"vehicle_type_id":"4","last_reported":1728741996,"current_range_meters":4400,"station_id":"","pricing_plan_id":"cebpf4jnsgd1na2vs0mg"},{"bike_id":"c81fe518-cf00-4b26-a3a2-c118bd055894","system_id":"levelo_inurba_marseille","lat":43.24387,"lon":5.37056,"is_reserved":false,"is_disabled":false,"rental_uris":{"android":"levelo://app?vid=c81fe518-cf00-4b26-a3a2-c118bd055894","ios":"levelo://app?vid=c81fe518-cf00-4b26-a3a2-c118bd055894"},"vehicle_type_id":"4","last_reported":1728741996,"current_range_meters":22800,"station_id":"ce4bhhh2rcd13ifvqfk0","pricing_plan_id":"cebpf4jnsgd1na2vs0mg"},{"bike_id":"c2156c9b-de5c-402c-bbbf-eb110ef4c880","system_id":"levelo_inurba_marseille","lat":43.25581,"lon":5.38231,"is_reserved":false,"is_disabled":false,"rental_uris":{"android":"levelo://app?vid=c2156c9b-de5c-402c-bbbf-eb110ef4c880","ios":"levelo://app?vid=c2156c9b-de5c-402c-bbbf-eb110ef4c880"},"vehicle_type_id":"4","last_reported":1728741996,"current_range_meters":8000,"station_id":"ce4bhih2rcd13ifvqfs0","pricing_plan_id":"cebpf4jnsgd1na2vs0mg"},{"bike_id":"e075c0a3-4437-4850-a2ce-3dadd21e2288","system_id":"levelo_inurba_marseille","lat":43.24394,"lon":5.37058,"is_reserved":false,"is_disabled":false,"rental_uris":{"android":"levelo://app?vid=e075c0a3-4437-4850-a2ce-3dadd21e2288","ios":"levelo://app?vid=e075c0a3-4437-4850-a2ce-3dadd21e2288"},"vehicle_type_id":"4","last_reported":1728741996,"current_range_meters":27600,"station_id":"ce4bhhh2rcd13ifvqfk0","pricing_plan_id":"cebpf4jnsgd1na2vs0mg"},{"bike_id":"895d853d-31c2-4754-a7e6-d25da7504b6a","system_id":"levelo_inurba_marseille","lat":43.24183,"lon":5.39734,"is_reserved":false,"is_disabled":false,"rental_uris":{"android":"levelo://app?vid=895d853d-31c2-4754-a7e6-d25da7504b6a","ios":"levelo://app?vid=895d853d-31c2-4754-a7e6-d25da7504b6a"},"vehicle_type_id":"4","last_reported":1728741996,"current_range_meters":32800,"station_id":"ce4bhn12rcd13ifvqgpg","pricing_plan_id":"cebpf4jnsgd1na2vs0mg"},{"bike_id":"27311a75-ebb6-43d6-9fb5-f3ba72a10e0e","system_id":"levelo_inurba_marseille","lat":43.29899,"lon":5.43656,"is_reserved":false,"is_disabled":false,"rental_uris":{"android":"levelo://app?vid=27311a75-ebb6-43d6-9fb5-f3ba72a10e0e","ios":"levelo://app?vid=27311a75-ebb6-43d6-9fb5-f3ba72a10e0e"},"vehicle_type_id":"4","last_reported":1728741996,"current_range_meters":24000,"station_id":"ce4bhpp2rcd13ifvqhfg","pricing_plan_id":"cebpf4jnsgd1na2vs0mg"},{"bike_id":"b29682ae-43fd-42b4-8107-c5fd793cd8b8","system_id":"levelo_inurba_marseille","lat":43.29723,"lon":5.37707,"is_reserved":false,"is_disabled":false,"rental_uris":{"android":"levelo://app?vid=b29682ae-43fd-42b4-8107-c5fd793cd8b8","ios":"levelo://app?vid=b29682ae-43fd-42b4-8107-c5fd793cd8b8"},"vehicle_type_id":"4","last_reported":1728741996,"current_range_meters":38800,"station_id":"ce4bgkh2rcd13ifvqbl0","pricing_plan_id":"cebpf4jnsgd1na2vs0mg"},{"bike_id":"07cfd4fd-4c9f-4a22-98d2-86f13933e51d","system_id":"levelo_inurba_marseille","lat":43.29547,"lon":5.42283,"is_reserved":false,"is_disabled":false,"rental_uris":{"android":"levelo://app?vid=07cfd4fd-4c9f-4a22-98d2-86f13933e51d","ios":"levelo://app?vid=07cfd4fd-4c9f-4a22-98d2-86f13933e51d"},"vehicle_type_id":"4","last_reported":1728741996,"current_range_meters":14400,"station_id":"ce4bhph2rcd13ifvqhdg","pricing_plan_id":"cebpf4jnsgd1na2vs0mg"},{"bike_id":"3041ad6b-3573-4384-9709-e1e192abea4f","system_id":"levelo_inurba_marseille","lat":43.27998,"lon":5.40016,"is_reserved":false,"is_disabled":false,"rental_uris":{"android":"levelo://app?vid=3041ad6b-3573-4384-9709-e1e192abea4f","ios":"levelo://app?vid=3041ad6b-3573-4384-9709-e1e192abea4f"},"vehicle_type_id":"4","last_reported":1728741996,"current_range_meters":38000,"station_id":"ce4bho92rcd13ifvqh4g","pricing_plan_id":"cebpf4jnsgd1na2vs0mg"},{"bike_id":"9c1417f7-388e-4cc1-a93c-cf23d566d54a","system_id":"levelo_inurba_marseille","lat":43.30543,"lon":5.3655,"is_reserved":false,"is_disabled":false,"rental_uris":{"android":"levelo://app?vid=9c1417f7-388e-4cc1-a93c-cf23d566d54a","ios":"levelo://app?vid=9c1417f7-388e-4cc1-a93c-cf23d566d54a"},"vehicle_type_id":"4","last_reported":1728741996,"current_range_meters":19600,"station_id":"ce4bgs12rcd13ifvqcag","pricing_plan_id":"cebpf4jnsgd1na2vs0mg"},{"bike_id":"54baefa9-fbb4-4f0d-b372-424f5a9c938d","system_id":"levelo_inurba_marseille","lat":43.32475,"lon":5.36561,"is_reserved":false,"is_disabled":false,"rental_uris":{"android":"levelo://app?vid=54baefa9-fbb4-4f0d-b372-424f5a9c938d","ios":"levelo://app?vid=54baefa9-fbb4-4f0d-b372-424f5a9c938d"},"vehicle_type_id":"4","last_reported":1728741996,"current_range_meters":38400,"station_id":"ce4bhs12rcd13ifvqhvg","pricing_plan_id":"cebpf4jnsgd1na2vs0mg"},{"bike_id":"e614ba88-fb2a-4e03-98b2-37016fad89ef","system_id":"levelo_inurba_marseille","lat":43.30134,"lon":5.39863,"is_reserved":false,"is_disabled":false,"rental_uris":{"android":"levelo://app?vid=e614ba88-fb2a-4e03-98b2-37016fad89ef","ios":"levelo://app?vid=e614ba88-fb2a-4e03-98b2-37016fad89ef"},"vehicle_type_id":"4","last_reported":1728741996,"current_range_meters":28800,"station_id":"ce4bh0h2rcd13ifvqd40","pricing_plan_id":"cebpf4jnsgd1na2vs0mg"},{"bike_id":"fec43d94-0e55-4c13-9d75-2ac170efdf75","system_id":"levelo_inurba_marseille","lat":43.27672,"lon":5.38867,"is_reserved":false,"is_disabled":false,"rental_uris":{"android":"levelo://app?vid=fec43d94-0e55-4c13-9d75-2ac170efdf75","ios":"levelo://app?vid=fec43d94-0e55-4c13-9d75-2ac170efdf75"},"vehicle_type_id":"4","last_reported":1728741996,"current_range_meters":31200,"station_id":"ce4bhi12rcd13ifvqfo0","pricing_plan_id":"cebpf4jnsgd1na2vs0mg"},{"bike_id":"84f238c4-dc22-4456-8b63-f96c1ae0dffd","system_id":"levelo_inurba_marseille","lat":43.29191,"lon":5.35798,"is_reserved":false,"is_disabled":false,"rental_uris":{"android":"levelo://app?vid=84f238c4-dc22-4456-8b63-f96c1ae0dffd","ios":"levelo://app?vid=84f238c4-dc22-4456-8b63-f96c1ae0dffd"},"vehicle_type_id":"4","last_reported":1728741996,"current_range_meters":8800,"station_id":"ce4bhb12rcd13ifvqel0","pricing_plan_id":"cebpf4jnsgd1na2vs0mg"},{"bike_id":"a174c585-c322-46e0-acd3-7da7768d5771","system_id":"levelo_inurba_marseille","lat":43.29553,"lon":5.42289,"is_reserved":false,"is_disabled":false,"rental_uris":{"android":"levelo://app?vid=a174c585-c322-46e0-acd3-7da7768d5771","ios":"levelo://app?vid=a174c585-c322-46e0-acd3-7da7768d5771"},"vehicle_type_id":"4","last_reported":1728741996,"current_range_meters":30800,"station_id":"ce4bhph2rcd13ifvqhdg","pricing_plan_id":"cebpf4jnsgd1na2vs0mg"},{"bike_id":"596a3c28-051e-4ed8-abc1-4251f4e9fe00","system_id":"levelo_inurba_marseille","lat":43.25813,"lon":5.39425,"is_reserved":false,"is_disabled":false,"rental_uris":{"android":"levelo://app?vid=596a3c28-051e-4ed8-abc1-4251f4e9fe00","ios":"levelo://app?vid=596a3c28-051e-4ed8-abc1-4251f4e9fe00"},"vehicle_type_id":"4","last_reported":1728741996,"current_range_meters":22000,"station_id":"ce4bhip2rcd13ifvqft0","pricing_plan_id":"cebpf4jnsgd1na2vs0mg"},{"bike_id":"770e1cfb-b5fb-48c3-9ad0-13b120bd5130","system_id":"levelo_inurba_marseille","lat":43.29712,"lon":5.36618,"is_reserved":false,"is_disabled":false,"rental_uris":{"android":"levelo://app?vid=770e1cfb-b5fb-48c3-9ad0-13b120bd5130","ios":"levelo://app?vid=770e1cfb-b5fb-48c3-9ad0-13b120bd5130"},"vehicle_type_id":"4","last_reported":1728741996,"current_range_meters":3600,"station_id":"ce4bgn12rcd13ifvqbt0","pricing_plan_id":"cebpf4jnsgd1na2vs0mg"},{"bike_id":"f0aa32d8-4ddd-496a-9571-e8bae9de7c44","system_id":"levelo_inurba_marseille","lat":43.27158,"lon":5.38605,"is_reserved":false,"is_disabled":false,"rental_uris":{"android":"levelo://app?vid=f0aa32d8-4ddd-496a-9571-e8bae9de7c44","ios":"levelo://app?vid=f0aa32d8-4ddd-496a-9571-e8bae9de7c44"},"vehicle_type_id":"4","last_reported":1728741996,"current_range_meters":14800,"station_id":"","pricing_plan_id":"cebpf4jnsgd1na2vs0mg"},{"bike_id":"3b2e55c3-662a-40b8-9774-1a39486344eb","system_id":"levelo_inurba_marseille","lat":43.32535,"lon":5.41448,"is_reserved":false,"is_disabled":false,"rental_uris":{"android":"levelo://app?vid=3b2e55c3-662a-40b8-9774-1a39486344eb","ios":"levelo://app?vid=3b2e55c3-662a-40b8-9774-1a39486344eb"},"vehicle_type_id":"4","last_reported":1728741996,"current_range_meters":5600,"station_id":"ce4bhq12rcd13ifvqhhg","pricing_plan_id":"cebpf4jnsgd1na2vs0mg"},{"bike_id":"b3e94b24-1214-405c-99b6-b1183398e44e","system_id":"levelo_inurba_marseille","lat":43.30618,"lon":5.37294,"is_reserved":false,"is_disabled":false,"rental_uris":{"android":"levelo://app?vid=b3e94b24-1214-405c-99b6-b1183398e44e","ios":"levelo://app?vid=b3e94b24-1214-405c-99b6-b1183398e44e"},"vehicle_type_id":"4","last_reported":1728741996,"current_range_meters":6800,"station_id":"ce4bgqh2rcd13ifvqc4g","pricing_plan_id":"cebpf4jnsgd1na2vs0mg"},{"bike_id":"079b9329-f296-4908-818e-fc5812e84375","system_id":"levelo_inurba_marseille","lat":43.24393,"lon":5.37067,"is_reserved":false,"is_disabled":false,"rental_uris":{"android":"levelo://app?vid=079b9329-f296-4908-818e-fc5812e84375","ios":"levelo://app?vid=079b9329-f296-4908-818e-fc5812e84375"},"vehicle_type_id":"4","last_reported":1728741996,"current_range_meters":32000,"station_id":"ce4bhhh2rcd13ifvqfk0","pricing_plan_id":"cebpf4jnsgd1na2vs0mg"},{"bike_id":"72fa6445-d318-4eab-b98f-eb6a89d5c773","system_id":"levelo_inurba_marseille","lat":43.31707,"lon":5.43701,"is_reserved":false,"is_disabled":false,"rental_uris":{"android":"levelo://app?vid=72fa6445-d318-4eab-b98f-eb6a89d5c773","ios":"levelo://app?vid=72fa6445-d318-4eab-b98f-eb6a89d5c773"},"vehicle_type_id":"4","last_reported":1728741996,"current_range_meters":9200,"station_id":"ce4bhp92rcd13ifvqhcg","pricing_plan_id":"cebpf4jnsgd1na2vs0mg"},{"bike_id":"238e03cb-2d0f-490f-b701-2b47aa7b8da9","system_id":"levelo_inurba_marseille","lat":43.29608,"lon":5.37711,"is_reserved":false,"is_disabled":false,"rental_uris":{"android":"levelo://app?vid=238e03cb-2d0f-490f-b701-2b47aa7b8da9","ios":"levelo://app?vid=238e03cb-2d0f-490f-b701-2b47aa7b8da9"},"vehicle_type_id":"4","last_reported":1728741996,"current_range_meters":37600,"station_id":"ce4bgi92rcd13ifvqb90","pricing_plan_id":"cebpf4jnsgd1na2vs0mg"},{"bike_id":"8f205b18-ef65-4880-b2a1-41351b00a2e7","system_id":"levelo_inurba_marseille","lat":43.31718,"lon":5.4239,"is_reserved":false,"is_disabled":false,"rental_uris":{"android":"levelo://app?vid=8f205b18-ef65-4880-b2a1-41351b00a2e7","ios":"levelo://app?vid=8f205b18-ef65-4880-b2a1-41351b00a2e7"},"vehicle_type_id":"4","last_reported":1728741996,"current_range_meters":16800,"station_id":"ce4bhp92rcd13ifvqhbg","pricing_plan_id":"cebpf4jnsgd1na2vs0mg"},{"bike_id":"f8d023de-be2b-4cde-a045-42d21fdf53e2","system_id":"levelo_inurba_marseille","lat":43.25,"lon":5.38918,"is_reserved":false,"is_disabled":false,"rental_uris":{"android":"levelo://app?vid=f8d023de-be2b-4cde-a045-42d21fdf53e2","ios":"levelo://app?vid=f8d023de-be2b-4cde-a045-42d21fdf53e2"},"vehicle_type_id":"4","last_reported":1728741996,"current_range_meters":38400,"station_id":"ce4bhgp2rcd13ifvqfd0","pricing_plan_id":"cebpf4jnsgd1na2vs0mg"},{"bike_id":"cffb7616-3f85-4964-9858-6b294930f7d9","system_id":"levelo_inurba_marseille","lat":43.29785,"lon":5.37094,"is_reserved":false,"is_disabled":false,"rental_uris":{"android":"levelo://app?vid=cffb7616-3f85-4964-9858-6b294930f7d9","ios":"levelo://app?vid=cffb7616-3f85-4964-9858-6b294930f7d9"},"vehicle_type_id":"4","last_reported":1728741996,"current_range_meters":9600,"station_id":"ce4bgop2rcd13ifvqc1g","pricing_plan_id":"cebpf4jnsgd1na2vs0mg"},{"bike_id":"863551da-2418-4241-98f4-2258700e8cff","system_id":"levelo_inurba_marseille","lat":43.29619,"lon":5.37725,"is_reserved":false,"is_disabled":false,"rental_uris":{"android":"levelo://app?vid=863551da-2418-4241-98f4-2258700e8cff","ios":"levelo://app?vid=863551da-2418-4241-98f4-2258700e8cff"},"vehicle_type_id":"4","last_reported":1728741996,"current_range_meters":25600,"station_id":"ce4bgi92rcd13ifvqb90","pricing_plan_id":"cebpf4jnsgd1na2vs0mg"},{"bike_id":"edc59b59-9d24-45c6-b26f-5477928f41a5","system_id":"levelo_inurba_marseille","lat":43.26567,"lon":5.3899,"is_reserved":false,"is_disabled":false,"rental_uris":{"android":"levelo://app?vid=edc59b59-9d24-45c6-b26f-5477928f41a5","ios":"levelo://app?vid=edc59b59-9d24-45c6-b26f-5477928f41a5"},"vehicle_type_id":"4","last_reported":1728741996,"current_range_meters":8400,"station_id":"ce4bhe12rcd13ifvqf30","pricing_plan_id":"cebpf4jnsgd1na2vs0mg"},{"bike_id":"ef2bc3a1-f294-44d0-b718-13ceefb82523","system_id":"levelo_inurba_marseille","lat":43.26554,"lon":5.37279,"is_reserved":false,"is_disabled":false,"rental_uris":{"android":"levelo://app?vid=ef2bc3a1-f294-44d0-b718-13ceefb82523","ios":"levelo://app?vid=ef2bc3a1-f294-44d0-b718-13ceefb82523"},"vehicle_type_id":"4","last_reported":1728741996,"current_range_meters":24000,"station_id":"ce4bhg12rcd13ifvqf70","pricing_plan_id":"cebpf4jnsgd1na2vs0mg"},{"bike_id":"9ce05b24-104d-4bae-b43f-bd0d984c19aa","system_id":"levelo_inurba_marseille","lat":43.31184,"lon":5.38709,"is_reserved":false,"is_disabled":false,"rental_uris":{"android":"levelo://app?vid=9ce05b24-104d-4bae-b43f-bd0d984c19aa","ios":"levelo://app?vid=9ce05b24-104d-4bae-b43f-bd0d984c19aa"},"vehicle_type_id":"4","last_reported":1728741996,"current_range_meters":21600,"station_id":"ce4bgv12rcd13ifvqcp0","pricing_plan_id":"cebpf4jnsgd1na2vs0mg"},{"bike_id":"5c2530d9-9305-4874-8716-b9550426c37a","system_id":"levelo_inurba_marseille","lat":43.30538,"lon":5.36697,"is_reserved":false,"is_disabled":false,"rental_uris":{"android":"levelo://app?vid=5c2530d9-9305-4874-8716-b9550426c37a","ios":"levelo://app?vid=5c2530d9-9305-4874-8716-b9550426c37a"},"vehicle_type_id":"4","last_reported":1728741996,"current_range_meters":36000,"station_id":"ce4bgrp2rcd13ifvqc9g","pricing_plan_id":"cebpf4jnsgd1na2vs0mg"},{"bike_id":"67feb8e4-5061-4d63-991f-0f410ed0dc5e","system_id":"levelo_inurba_marseille","lat":43.26202,"lon":5.37929,"is_reserved":false,"is_disabled":false,"rental_uris":{"android":"levelo://app?vid=67feb8e4-5061-4d63-991f-0f410ed0dc5e","ios":"levelo://app?vid=67feb8e4-5061-4d63-991f-0f410ed0dc5e"},"vehicle_type_id":"4","last_reported":1728741996,"current_range_meters":38800,"station_id":"ce4bhjp2rcd13ifvqg90","pricing_plan_id":"cebpf4jnsgd1na2vs0mg"},{"bike_id":"e5e184b5-4857-4b5a-ae9f-5ad5627b63ea","system_id":"levelo_inurba_marseille","lat":43.24386,"lon":5.37063,"is_reserved":false,"is_disabled":false,"rental_uris":{"android":"levelo://app?vid=e5e184b5-4857-4b5a-ae9f-5ad5627b63ea","ios":"levelo://app?vid=e5e184b5-4857-4b5a-ae9f-5ad5627b63ea"},"vehicle_type_id":"4","last_reported":1728741996,"current_range_meters":28400,"station_id":"ce4bhhh2rcd13ifvqfk0","pricing_plan_id":"cebpf4jnsgd1na2vs0mg"},{"bike_id":"c233d666-a4b6-49bc-9f3d-e6d6b6719760","system_id":"levelo_inurba_marseille","lat":43.30597,"lon":5.37223,"is_reserved":false,"is_disabled":false,"rental_uris":{"android":"levelo://app?vid=c233d666-a4b6-49bc-9f3d-e6d6b6719760","ios":"levelo://app?vid=c233d666-a4b6-49bc-9f3d-e6d6b6719760"},"vehicle_type_id":"4","last_reported":1728741996,"current_range_meters":33600,"station_id":"ce4bgqh2rcd13ifvqc4g","pricing_plan_id":"cebpf4jnsgd1na2vs0mg"},{"bike_id":"4117f8cf-4d1e-4742-8d47-90f8d12a7db1","system_id":"levelo_inurba_marseille","lat":43.262024,"lon":5.379301,"is_reserved":false,"is_disabled":false,"rental_uris":{"android":"levelo://app?vid=4117f8cf-4d1e-4742-8d47-90f8d12a7db1","ios":"levelo://app?vid=4117f8cf-4d1e-4742-8d47-90f8d12a7db1"},"vehicle_type_id":"4","last_reported":1728741996,"current_range_meters":38000,"station_id":"ce4bhjp2rcd13ifvqg90","pricing_plan_id":"cebpf4jnsgd1na2vs0mg"},{"bike_id":"f3fec881-afa3-45f2-9da6-3f790f20f316","system_id":"levelo_inurba_marseille","lat":43.24659,"lon":5.38163,"is_reserved":false,"is_disabled":false,"rental_uris":{"android":"levelo://app?vid=f3fec881-afa3-45f2-9da6-3f790f20f316","ios":"levelo://app?vid=f3fec881-afa3-45f2-9da6-3f790f20f316"},"vehicle_type_id":"4","last_reported":1728741996,"current_range_meters":28800,"station_id":"ce4bhih2rcd13ifvqfr0","pricing_plan_id":"cebpf4jnsgd1na2vs0mg"},{"bike_id":"16c34894-4044-4d09-bfd3-59a7c6787283","system_id":"levelo_inurba_marseille","lat":43.31046,"lon":5.4009,"is_reserved":false,"is_disabled":false,"rental_uris":{"android":"levelo://app?vid=16c34894-4044-4d09-bfd3-59a7c6787283","ios":"levelo://app?vid=16c34894-4044-4d09-bfd3-59a7c6787283"},"vehicle_type_id":"4","last_reported":1728741996,"current_range_meters":37600,"station_id":"","pricing_plan_id":"cebpf4jnsgd1na2vs0mg"},{"bike_id":"b0fa9d87-acdc-4506-9f0b-a3db8e0fe5cf","system_id":"levelo_inurba_marseille","lat":43.23152,"lon":5.43703,"is_reserved":false,"is_disabled":false,"rental_uris":{"android":"levelo://app?vid=b0fa9d87-acdc-4506-9f0b-a3db8e0fe5cf","ios":"levelo://app?vid=b0fa9d87-acdc-4506-9f0b-a3db8e0fe5cf"},"vehicle_type_id":"4","last_reported":1728741996,"current_range_meters":12000,"station_id":"ce4bhmp2rcd13ifvqgog","pricing_plan_id":"cebpf4jnsgd1na2vs0mg"},{"bike_id":"575acf0f-3a8a-4b24-a282-46519f3fe0a8","system_id":"levelo_inurba_marseille","lat":43.29783,"lon":5.37098,"is_reserved":false,"is_disabled":false,"rental_uris":{"android":"levelo://app?vid=575acf0f-3a8a-4b24-a282-46519f3fe0a8","ios":"levelo://app?vid=575acf0f-3a8a-4b24-a282-46519f3fe0a8"},"vehicle_type_id":"4","last_reported":1728741996,"current_range_meters":38800,"station_id":"ce4bgop2rcd13ifvqc1g","pricing_plan_id":"cebpf4jnsgd1na2vs0mg"},