{"last_updated":1770399168,"ttl":60,"version":"2.2","data":{"bikes":[{"bike_id":"7ad5b625-433d-40d1-85a2-020d0fac3afe","system_id":"levelo_inurba_marseille","lat":43.29947,"lon":5.37886,"is_reserved":false,"is_disabled":false,"rental_uris":{"android":"levelo://app?vid=7ad5b625-433d-40d1-85a2-020d0fac3afe","ios":"levelo://app?vid=7ad5b625-433d-40d1-85a2-020d0fac3afe"},"vehicle_type_id":"4","last_reported":1770399169,"current_range_meters":2800,"station_id":"","pricing_plan_id":"cebpf4jnsgd1na2vs0mg"},{"bike_id":"d72ec66a-db3f-41c7-8ed5-45387a7e4906","system_id":"levelo_inurba_marseille","lat":43.3172,"lon":5.42399,"is_reserved":false,"is_disabled":false,"rental_uris":{"android":"levelo://app?vid=d72ec66a-db3f-41c7-8ed5-45387a7e4906","ios":"levelo://app?vid=d72ec66a-db3f-41c7-8ed5-45387a7e4906"},"vehicle_type_id":"4","last_reported":1770399169,"current_range_meters":2800,"station_id":"ce4bhp92rcd13ifvqhbg","pricing_plan_id":"cebpf4jnsgd1na2vs0mg"},{"bike_id":"0b30e430-94c3-44d8-b441-17a2bdf4320b","system_id":"levelo_inurba_marseille","lat":43.28474,"lon":5.3854,"is_reserved":false,"is_disabled":false,"rental_uris":{"android":"levelo://app?vid=0b30e430-94c3-44d8-b441-17a2bdf4320b","ios":"levelo://app?vid=0b30e430-94c3-44d8-b441-17a2bdf4320b"},"vehicle_type_id":"4","last_reported":1770399169,"current_range_meters":2800,"station_id":"ce4bh8p2rcd13ifvqeb0","pricing_plan_id":"cebpf4jnsgd1na2vs0mg"},{"bike_id":"57706bfd-3fba-4e6f-acf6-f609f27e190e","system_id":"levelo_inurba_marseille","lat":43.27942,"lon":5.41046,"is_reserved":false,"is_disabled":false,"rental_uris":{"android":"levelo://app?vid=57706bfd-3fba-4e6f-acf6-f609f27e190e","ios":"levelo://app?vid=57706bfd-3fba-4e6f-acf6-f609f27e190e"},"vehicle_type_id":"4","last_reported":1770399169,"current_range_meters":2800,"station_id":"ce4bhnp2rcd13ifvqh0g","pricing_plan_id":"cebpf4jnsgd1na2vs0mg"},{"bike_id":"3fe9d7b3-7610-4763-865c-7440b55b0ef0","system_id":"levelo_inurba_marseille","lat":43.26711,"lon":5.38261,"is_reserved":false,"is_disabled":false,"rental_uris":{"android":"levelo://app?vid=3fe9d7b3-7610-4763-865c-7440b55b0ef0","ios":"levelo://app?vid=3fe9d7b3-7610-4763-865c-7440b55b0ef0"},"vehicle_type_id":"4","last_reported":1770399169,"current_range_meters":2800,"station_id":"ce4bhg92rcd13ifvqf90","pricing_plan_id":"cebpf4jnsgd1na2vs0mg"},{"bike_id":"da76f900-b17d-4248-b9ba-2a8067b473bd","system_id":"levelo_inurba_marseille","lat":43.31716,"lon":5.42399,"is_reserved":false,"is_disabled":false,"rental_uris":{"android":"levelo://app?vid=da76f900-b17d-4248-b9ba-2a8067b473bd","ios":"levelo://app?vid=da76f900-b17d-4248-b9ba-2a8067b473bd"},"vehicle_type_id":"4","last_reported":1770399169,"current_range_meters":2800,"station_id":"ce4bhp92rcd13ifvqhbg","pricing_plan_id":"cebpf4jnsgd1na2vs0mg"},{"bike_id":"e88b591c-3998-4dd7-9fc9-570d17612deb","system_id":"levelo_inurba_marseille","lat":43.27364,"lon":5.36252,"is_reserved":false,"is_disabled":false,"rental_uris":{"android":"levelo://app?vid=e88b591c-3998-4dd7-9fc9-570d17612deb","ios":"levelo://app?vid=e88b591c-3998-4dd7-9fc9-570d17612deb"},"vehicle_type_id":"4","last_reported":1770399169,"current_range_meters":2800,"station_id":"ce4bhbh2rcd13ifvqeo0","pricing_plan_id":"cebpf4jnsgd1na2vs0mg"},{"bike_id":"fe7740d0-81f1-4791-be0a-792bec9f62d3","system_id":"levelo_inurba_marseille","lat":43.249473,"lon":5.404868,"is_reserved":false,"is_disabled":false,"rental_uris":{"android":"levelo://app?vid=fe7740d0-81f1-4791-be0a-792bec9f62d3","ios":"levelo://app?vid=fe7740d0-81f1-4791-be0a-792bec9f62d3"},"vehicle_type_id":"4","last_reported":1770399169,"current_range_meters":2800,"station_id":"st_d2ngiaodas8pm72gd1h0","pricing_plan_id":"cebpf4jnsgd1na2vs0mg"},{"bike_id":"db654e84-65b3-415b-9bb1-e2d8a1c01288","system_id":"levelo_inurba_marseille","lat":43.295713,"lon":5.399894,"is_reserved":false,"is_disabled":false,"rental_uris":{"android":"levelo://app?vid=db654e84-65b3-415b-9bb1-e2d8a1c01288","ios":"levelo://app?vid=db654e84-65b3-415b-9bb1-e2d8a1c01288"},"vehicle_type_id":"4","last_reported":1770399169,"current_range_meters":2800,"station_id":"ce4bh312rcd13ifvqdj0","pricing_plan_id":"cebpf4jnsgd1na2vs0mg"},{"bike_id":"9ec7b25b-436f-4996-bd2a-566d9567adf4","system_id":"levelo_inurba_marseille","lat":43.28453,"lon":5.3855,"is_reserved":false,"is_disabled":false,"rental_uris":{"android":"levelo://app?vid=9ec7b25b-436f-4996-bd2a-566d9567adf4","ios":"levelo://app?vid=9ec7b25b-436f-4996-bd2a-566d9567adf4"},"vehicle_type_id":"4","last_reported":1770399169,"current_range_meters":2800,"station_id":"ce4bh8p2rcd13ifvqeb0","pricing_plan_id":"cebpf4jnsgd1na2vs0mg"},{"bike_id":"35f5f9d7-5de3-4630-bcc5-050371cdd07b","system_id":"levelo_inurba_marseille","lat":43.31072,"lon":5.38352,"is_reserved":false,"is_disabled":false,"rental_uris":{"android":"levelo://app?vid=35f5f9d7-5de3-4630-bcc5-050371cdd07b","ios":"levelo://app?vid=35f5f9d7-5de3-4630-bcc5-050371cdd07b"},"vehicle_type_id":"4","last_reported":1770399169,"current_range_meters":2800,"station_id":"ce4bgv92rcd13ifvqcr0","pricing_plan_id":"cebpf4jnsgd1na2vs0mg"},{"bike_id":"faf77dd5-9fb8-45f4-82e6-f2a3a94e33e5","system_id":"levelo_inurba_marseille","lat":43.269385,"lon":5.389146,"is_reserved":false,"is_disabled":false,"rental_uris":{"android":"levelo://app?vid=faf77dd5-9fb8-45f4-82e6-f2a3a94e33e5","ios":"levelo://app?vid=faf77dd5-9fb8-45f4-82e6-f2a3a94e33e5"},"vehicle_type_id":"4","last_reported":1770399169,"current_range_meters":3200,"station_id":"ce4bhhh2rcd13ifvqfl0","pricing_plan_id":"cebpf4jnsgd1na2vs0mg"},{"bike_id":"49bc0ac4-ec4c-46b4-bcba-c5b87d948aa1","system_id":"levelo_inurba_marseille","lat":43.23986,"lon":5.36597,"is_reserved":false,"is_disabled":false,"rental_uris":{"android":"levelo://app?vid=49bc0ac4-ec4c-46b4-bcba-c5b87d948aa1","ios":"levelo://app?vid=49bc0ac4-ec4c-46b4-bcba-c5b87d948aa1"},"vehicle_type_id":"4","last_reported":1770399169,"current_range_meters":3200,"station_id":"ce4bhi12rcd13ifvqfp0","pricing_plan_id":"cebpf4jnsgd1na2vs0mg"},{"bike_id":"eb264a6f-fb86-4f71-bbfc-c936851bac7a","system_id":"levelo_inurba_marseille","lat":43.28669,"lon":5.36349,"is_reserved":false,"is_disabled":false,"rental_uris":{"android":"levelo://app?vid=eb264a6f-fb86-4f71-bbfc-c936851bac7a","ios":"levelo://app?vid=eb264a6f-fb86-4f71-bbfc-c936851bac7a"},"vehicle_type_id":"4","last_reported":1770399169,"current_range_meters":3200,"station_id":"ce4bhah2rcd13ifvqej0","pricing_plan_id":"cebpf4jnsgd1na2vs0mg"},{"bike_id":"c64f1078-b496-4d63-b230-fc8b7996f1c0","system_id":"levelo_inurba_marseille","lat":43.26548,"lon":5.3729,"is_reserved":false,"is_disabled":false,"rental_uris":{"android":"levelo://app?vid=c64f1078-b496-4d63-b230-fc8b7996f1c0","ios":"levelo://app?vid=c64f1078-b496-4d63-b230-fc8b7996f1c0"},"vehicle_type_id":"4","last_reported":1770399169,"current_range_meters":3200,"station_id":"ce4bhg12rcd13ifvqf70","pricing_plan_id":"cebpf4jnsgd1na2vs0mg"},{"bike_id":"be401e8a-3a8d-41b9-a60e-30b645f25f8b","system_id":"levelo_inurba_marseille","lat":43.29027,"lon":5.3997,"is_reserved":false,"is_disabled":false,"rental_uris":{"android":"levelo://app?vid=be401e8a-3a8d-41b9-a60e-30b645f25f8b","ios":"levelo://app?vid=be401e8a-3a8d-41b9-a60e-30b645f25f8b"},"vehicle_type_id":"4","last_reported":1770399169,"current_range_meters":3200,"station_id":"ce4bh392rcd13ifvqdm0","pricing_plan_id":"cebpf4jnsgd1na2vs0mg"},{"bike_id":"99a5343e-f0ca-4e41-8966-1494841fa15c","system_id":"levelo_inurba_marseille","lat":43.29039,"lon":5.38212,"is_reserved":false,"is_disabled":false,"rental_uris":{"android":"levelo://app?vid=99a5343e-f0ca-4e41-8966-1494841fa15c","ios":"levelo://app?vid=99a5343e-f0ca-4e41-8966-1494841fa15c"},"vehicle_type_id":"4","last_reported":1770399169,"current_range_meters":3200,"station_id":"ce4bh512rcd13ifvqe2g","pricing_plan_id":"cebpf4jnsgd1na2vs0mg"},{"bike_id":"e82b4782-3dd2-401e-bab5-6db1b58e268a","system_id":"levelo_inurba_marseille","lat":43.28407,"lon":5.37512,"is_reserved":false,"is_disabled":false,"rental_uris":{"android":"levelo://app?vid=e82b4782-3dd2-401e-bab5-6db1b58e268a","ios":"levelo://app?vid=e82b4782-3dd2-401e-bab5-6db1b58e268a"},"vehicle_type_id":"4","last_reported":1770399169,"current_range_meters":3200,"station_id":"ce4bh412rcd13ifvqds0","pricing_plan_id":"cebpf4jnsgd1na2vs0mg"},{"bike_id":"2b021501-ff11-4d62-a3af-e76c29ecd67c","system_id":"levelo_inurba_marseille","lat":43.29789,"lon":5.40399,"is_reserved":false,"is_disabled":false,"rental_uris":{"android":"levelo://app?vid=2b021501-ff11-4d62-a3af-e76c29ecd67c","ios":"levelo://app?vid=2b021501-ff11-4d62-a3af-e76c29ecd67c"},"vehicle_type_id":"4","last_reported":1770399169,"current_range_meters":3200,"station_id":"ce4bh112rcd13ifvqd90","pricing_plan_id":"cebpf4jnsgd1na2vs0mg"},{"bike_id":"f81b6c21-0a09-4ca5-9d34-642210d7c0f7","system_id":"levelo_inurba_marseille","lat":43.28082,"lon":5.39669,"is_reserved":false,"is_disabled":false,"rental_uris":{"android":"levelo://app?vid=f81b6c21-0a09-4ca5-9d34-642210d7c0f7","ios":"levelo://app?vid=f81b6c21-0a09-4ca5-9d34-642210d7c0f7"},"vehicle_type_id":"4","last_reported":1770399169,"current_range_meters":3200,"station_id":"ce4bho12rcd13ifvqh2g","pricing_plan_id":"cebpf4jnsgd1na2vs0mg"},{"bike_id":"2d0f8c41-31b1-402c-bf19-2941f046c32a","system_id":"levelo_inurba_marseille","lat":43.23171,"lon":5.43669,"is_reserved":false,"is_disabled":false,"rental_uris":{"android":"levelo://app?vid=2d0f8c41-31b1-402c-bf19-2941f046c32a","ios":"levelo://app?vid=2d0f8c41-31b1-402c-bf19-2941f046c32a"},"vehicle_type_id":"4","last_reported":1770399169,"current_range_meters":3200,"station_id":"ce4bhmp2rcd13ifvqgog","pricing_plan_id":"cebpf4jnsgd1na2vs0mg"},{"bike_id":"1b31ace6-f9bb-4b2d-aa85-205697a20e95","system_id":"levelo_inurba_marseille","lat":43.30143,"lon":5.39876,"is_reserved":false,"is_disabled":false,"rental_uris":{"android":"levelo://app?vid=1b31ace6-f9bb-4b2d-aa85-205697a20e95","ios":"levelo://app?vid=1b31ace6-f9bb-4b2d-aa85-205697a20e95"},"vehicle_type_id":"4","last_reported":1770399169,"current_range_meters":3200,"station_id":"ce4bh0h2rcd13ifvqd40","pricing_plan_id":"cebpf4jnsgd1na2vs0mg"},{"bike_id":"ee7be91a-0e05-4dbe-be3b-41abede6759c","system_id":"levelo_inurba_marseille","lat":43.2706,"lon":5.40266,"is_reserved":false,"is_disabled":false,"rental_uris":{"android":"levelo://app?vid=ee7be91a-0e05-4dbe-be3b-41abede6759c","ios":"levelo://app?vid=ee7be91a-0e05-4dbe-be3b-41abede6759c"},"vehicle_type_id":"4","last_reported":1770399169,"current_range_meters":3200,"station_id":"ce4bhk92rcd13ifvqgc0","pricing_plan_id":"cebpf4jnsgd1na2vs0mg"},{"bike_id":"f19552e5-b8be-4ac0-bab3-b1e24771cb0c","system_id":"levelo_inurba_marseille","lat":43.32119,"lon":5.36765,"is_reserved":false,"is_disabled":false,"rental_uris":{"android":"levelo://app?vid=f19552e5-b8be-4ac0-bab3-b1e24771cb0c","ios":"levelo://app?vid=f19552e5-b8be-4ac0-bab3-b1e24771cb0c"},"vehicle_type_id":"4","last_reported":1770399169,"current_range_meters":3200,"station_id":"ce4bhrh2rcd13ifvqhug","pricing_plan_id":"cebpf4jnsgd1na2vs0mg"},{"bike_id":"fa53e09a-7a74-4920-8b12-4bc39d0e634a","system_id":"levelo_inurba_marseille","lat":43.286729,"lon":5.386802,"is_reserved":false,"is_disabled":false,"rental_uris":{"android":"levelo://app?vid=fa53e09a-7a74-4920-8b12-4bc39d0e634a","ios":"levelo://app?vid=fa53e09a-7a74-4920-8b12-4bc39d0e634a"},"vehicle_type_id":"4","last_reported":1770399169,"current_range_meters":3200,"station_id":"ce4bh492rcd13ifvqdug","pricing_plan_id":"cebpf4jnsgd1na2vs0mg"},{"bike_id":"3de555bb-b7dd-417c-809e-774354d6bb8d","system_id":"levelo_inurba_marseille","lat":43.28029,"lon":5.36955,"is_reserved":false,"is_disabled":false,"rental_uris":{"android":"levelo://app?vid=3de555bb-b7dd-417c-809e-774354d6bb8d","ios":"levelo://app?vid=3de555bb-b7dd-417c-809e-774354d6bb8d"},"vehicle_type_id":"4","last_reported":1770399169,"current_range_meters":3200,"station_id":"ce4bha12rcd13ifvqef0","pricing_plan_id":"cebpf4jnsgd1na2vs0mg"},{"bike_id":"c4b1b1b1-f103-4db1-8c97-1b96eb2c884d","system_id":"levelo_inurba_marseille","lat":43.28935,"lon":5.36631,"is_reserved":false,"is_disabled":false,"rental_uris":{"android":"levelo://app?vid=c4b1b1b1-f103-4db1-8c97-1b96eb2c884d","ios":"levelo://app?vid=c4b1b1b1-f103-4db1-8c97-1b96eb2c884d"},"vehicle_type_id":"4","last_reported":1770399169,"current_range_meters":3600,"station_id":"ce4bhap2rcd13ifvqek0","pricing_plan_id":"cebpf4jnsgd1na2vs0mg"},{"bike_id":"e1ae38e0-9f14-4406-91cc-1b4515ca2de5","system_id":"levelo_inurba_marseille","lat":43.30892,"lon":5.39643,"is_reserved":false,"is_disabled":false,"rental_uris":{"android":"levelo://app?vid=e1ae38e0-9f14-4406-91cc-1b4515ca2de5","ios":"levelo://app?vid=e1ae38e0-9f14-4406-91cc-1b4515ca2de5"},"vehicle_type_id":"4","last_reported":1770399169,"current_range_meters":3600,"station_id":"ce4bh012rcd13ifvqcv0","pricing_plan_id":"cebpf4jnsgd1na2vs0mg"},{"bike_id":"d4c9becc-e0fa-4093-9101-e21413f62674","system_id":"levelo_inurba_marseille","lat":43.28477,"lon":5.38418,"is_reserved":false,"is_disabled":false,"rental_uris":{"android":"levelo://app?vid=d4c9becc-e0fa-4093-9101-e21413f62674","ios":"levelo://app?vid=d4c9becc-e0fa-4093-9101-e21413f62674"},"vehicle_type_id":"4","last_reported":1770399169,"current_range_meters":3600,"station_id":"ce4bh512rcd13ifvqe3g","pricing_plan_id":"cebpf4jnsgd1na2vs0mg"},{"bike_id":"a6977f2a-cd72-455e-be1c-672172e04f38","system_id":"levelo_inurba_marseille","lat":43.246585,"lon":5.38165,"is_reserved":false,"is_disabled":false,"rental_uris":{"android":"levelo://app?vid=a6977f2a-cd72-455e-be1c-672172e04f38","ios":"levelo://app?vid=a6977f2a-cd72-455e-be1c-672172e04f38"},"vehicle_type_id":"4","last_reported":1770399169,"current_range_meters":3600,"station_id":"ce4bhih2rcd13ifvqfr0","pricing_plan_id":"cebpf4jnsgd1na2vs0mg"},{"bike_id":"425b450e-330d-4dc8-8545-e9b4f9c72e89","system_id":"levelo_inurba_marseille","lat":43.28611,"lon":5.35102,"is_reserved":false,"is_disabled":false,"rental_uris":{"android":"levelo://app?vid=425b450e-330d-4dc8-8545-e9b4f9c72e89","ios":"levelo://app?vid=425b450e-330d-4dc8-8545-e9b4f9c72e89"},"vehicle_type_id":"4","last_reported":1770399169,"current_range_meters":3600,"station_id":"ce4bhch2rcd13ifvqeug","pricing_plan_id":"cebpf4jnsgd1na2vs0mg"},{"bike_id":"3b5364ee-bb51-463a-bdaf-2cdff4206eea","system_id":"levelo_inurba_marseille","lat":43.28276,"lon":5.3508,"is_reserved":false,"is_disabled":false,"rental_uris":{"android":"levelo://app?vid=3b5364ee-bb51-463a-bdaf-2cdff4206eea","ios":"levelo://app?vid=3b5364ee-bb51-463a-bdaf-2cdff4206eea"},"vehicle_type_id":"4","last_reported":1770399169,"current_range_meters":3600,"station_id":"ce4bhbp2rcd13ifvqerg","pricing_plan_id":"cebpf4jnsgd1na2vs0mg"},{"bike_id":"caa863b4-2acd-4c49-8f52-745a43206e63","system_id":"levelo_inurba_marseille","lat":43.31327,"lon":5.3969,"is_reserved":false,"is_disabled":false,"rental_uris":{"android":"levelo://app?vid=caa863b4-2acd-4c49-8f52-745a43206e63","ios":"levelo://app?vid=caa863b4-2acd-4c49-8f52-745a43206e63"},"vehicle_type_id":"4","last_reported":1770399169,"current_range_meters":3600,"station_id":"ce4bgvp2rcd13ifvqcu0","pricing_plan_id":"cebpf4jnsgd1na2vs0mg"},{"bike_id":"fe6ba0a1-c7e1-4f5a-b841-8b0830d068ed","system_id":"levelo_inurba_marseille","lat":43.29033,"lon":5.35916,"is_reserved":false,"is_disabled":false,"rental_uris":{"android":"levelo://app?vid=fe6ba0a1-c7e1-4f5a-b841-8b0830d068ed","ios":"levelo://app?vid=fe6ba0a1-c7e1-4f5a-b841-8b0830d068ed"},"vehicle_type_id":"4","last_reported":1770399169,"current_range_meters":3600,"station_id":"ce4bha92rcd13ifvqeg0","pricing_plan_id":"cebpf4jnsgd1na2vs0mg"},{"bike_id":"fee0750a-8d27-43e0-94f7-17675fd554cc","system_id":"levelo_inurba_marseille","lat":43.23197,"lon":5.35548,"is_reserved":false,"is_disabled":false,"rental_uris":{"android":"levelo://app?vid=fee0750a-8d27-43e0-94f7-17675fd554cc","ios":"levelo://app?vid=fee0750a-8d27-43e0-94f7-17675fd554cc"},"vehicle_type_id":"4","last_reported":1770399169,"current_range_meters":3600,"station_id":"ce4bhu92rcd13ifvqi70","pricing_plan_id":"cebpf4jnsgd1na2vs0mg"},{"bike_id":"77481404-1bc5-4028-abe8-80a5b09acff6","system_id":"levelo_inurba_marseille","lat":43.30903,"lon":5.36833,"is_reserved":false,"is_disabled":false,"rental_uris":{"android":"levelo://app?vid=77481404-1bc5-4028-abe8-80a5b09acff6","ios":"levelo://app?vid=77481404-1bc5-4028-abe8-80a5b09acff6"},"vehicle_type_id":"4","last_reported":1770399169,"current_range_meters":4000,"station_id":"ce4bgn92rcd13ifvqbvg","pricing_plan_id":"cebpf4jnsgd1na2vs0mg"},{"bike_id":"5309610c-bf76-4542-a232-389bbf17cbff","system_id":"levelo_inurba_marseille","lat":43.335382,"lon":5.374671,"is_reserved":false,"is_disabled":false,"rental_uris":{"android":"levelo://app?vid=5309610c-bf76-4542-a232-389bbf17cbff","ios":"levelo://app?vid=5309610c-bf76-4542-a232-389bbf17cbff"},"vehicle_type_id":"4","last_reported":1770399169,"current_range_meters":4000,"station_id":"st_d46tts09ee8s73dlu43g","pricing_plan_id":"cebpf4jnsgd1na2vs0mg"},{"bike_id":"bf716aa5-5db6-4f44-aa24-9167a51e58ca","system_id":"levelo_inurba_marseille","lat":43.31711,"lon":5.42409,"is_reserved":false,"is_disabled":false,"rental_uris":{"android":"levelo://app?vid=bf716aa5-5db6-4f44-aa24-9167a51e58ca","ios":"levelo://app?vid=bf716aa5-5db6-4f44-aa24-9167a51e58ca"},"vehicle_type_id":"4","last_reported":1770399169,"current_range_meters":4000,"station_id":"ce4bhp92rcd13ifvqhbg","pricing_plan_id":"cebpf4jnsgd1na2vs0mg"},{"bike_id":"4d93e986-1a87-4171-86c4-87c17f6bfe66","system_id":"levelo_inurba_marseille","lat":43.28034,"lon":5.36944,"is_reserved":false,"is_disabled":false,"rental_uris":{"android":"levelo://app?vid=4d93e986-1a87-4171-86c4-87c17f6bfe66","ios":"levelo://app?vid=4d93e986-1a87-4171-86c4-87c17f6bfe66"},"vehicle_type_id":"4","last_reported":1770399169,"current_range_meters":4000,"station_id":"ce4bha12rcd13ifvqef0","pricing_plan_id":"cebpf4jnsgd1na2vs0mg"},{"bike_id":"f69cc029-bbb9-4b64-a98c-7044a350dd65","system_id":"levelo_inurba_marseille","lat":43.255756,"lon":5.38226,"is_reserved":false,"is_disabled":false,"rental_uris":{"android":"levelo://app?vid=f69cc029-bbb9-4b64-a98c-7044a350dd65","ios":"levelo://app?vid=f69cc029-bbb9-4b64-a98c-7044a350dd65"},"vehicle_type_id":"4","last_reported":1770399169,"current_range_meters":4000,"station_id":"ce4bhih2rcd13ifvqfs0","pricing_plan_id":"cebpf4jnsgd1na2vs0mg"},{"bike_id":"7a9437dc-9620-4e4d-ac55-f97780f81760","system_id":"levelo_inurba_marseille","lat":43.24808,"lon":5.37461,"is_reserved":false,"is_disabled":false,"rental_uris":{"android":"levelo://app?vid=7a9437dc-9620-4e4d-ac55-f97780f81760","ios":"levelo://app?vid=7a9437dc-9620-4e4d-ac55-f97780f81760"},"vehicle_type_id":"4","last_reported":1770399169,"current_range_meters":4000,"station_id":"ce4bhgh2rcd13ifvqfb0","pricing_plan_id":"cebpf4jnsgd1na2vs0mg"},{"bike_id":"ae0eb4a0-49ee-4a02-b7ab-da66be7d9573","system_id":"levelo_inurba_marseille","lat":43.26228,"lon":5.40448,"is_reserved":false,"is_disabled":false,"rental_uris":{"android":"levelo://app?vid=ae0eb4a0-49ee-4a02-b7ab-da66be7d9573","ios":"levelo://app?vid=ae0eb4a0-49ee-4a02-b7ab-da66be7d9573"},"vehicle_type_id":"4","last_reported":1770399169,"current_range_meters":4000,"station_id":"ce4bhmh2rcd13ifvqgmg","pricing_plan_id":"cebpf4jnsgd1na2vs0mg"},{"bike_id":"c57801d2-2bdd-4aad-940d-26c86ea08fea","system_id":"levelo_inurba_marseille","lat":43.300485,"lon":5.380824,"is_reserved":false,"is_disabled":false,"rental_uris":{"android":"levelo://app?vid=c57801d2-2bdd-4aad-940d-26c86ea08fea","ios":"levelo://app?vid=c57801d2-2bdd-4aad-940d-26c86ea08fea"},"vehicle_type_id":"4","last_reported":1770399169,"current_range_meters":4000,"station_id":"ce4bh692rcd13ifvqea0","pricing_plan_id":"cebpf4jnsgd1na2vs0mg"},{"bike_id":"4dc9edd5-147e-472f-93ee-1db8db677b6c","system_id":"levelo_inurba_marseille","lat":43.295697,"lon":5.39966,"is_reserved":false,"is_disabled":false,"rental_uris":{"android":"levelo://app?vid=4dc9edd5-147e-472f-93ee-1db8db677b6c","ios":"levelo://app?vid=4dc9edd5-147e-472f-93ee-1db8db677b6c"},"vehicle_type_id":"4","last_reported":1770399169,"current_range_meters":4000,"station_id":"ce4bh312rcd13ifvqdj0","pricing_plan_id":"cebpf4jnsgd1na2vs0mg"},{"bike_id":"d561ca02-1988-40de-9fa3-df2293c3339f","system_id":"levelo_inurba_marseille","lat":43.30425,"lon":5.39751,"is_reserved":false,"is_disabled":false,"rental_uris":{"android":"levelo://app?vid=d561ca02-1988-40de-9fa3-df2293c3339f","ios":"levelo://app?vid=d561ca02-1988-40de-9fa3-df2293c3339f"},"vehicle_type_id":"4","last_reported":1770399169,"current_range_meters":4000,"station_id":"ce4bh092rcd13ifvqd20","pricing_plan_id":"cebpf4jnsgd1na2vs0mg"},{"bike_id":"f92e5a89-94b0-4676-a9c1-20d6826d26e4","system_id":"levelo_inurba_marseille","lat":43.3105,"lon":5.37165,"is_reserved":false,"is_disabled":false,"rental_uris":{"android":"levelo://app?vid=f92e5a89-94b0-4676-a9c1-20d6826d26e4","ios":"levelo://app?vid=f92e5a89-94b0-4676-a9c1-20d6826d26e4"},"vehicle_type_id":"4","last_reported":1770399169,"current_range_meters":4000,"station_id":"st_d4kl2rp97mjs73e7tdfg","pricing_plan_id":"cebpf4jnsgd1na2vs0mg"},{"bike_id":"ad937e68-f13f-4c97-a441-e806038536ad","system_id":"levelo_inurba_marseille","lat":43.3094,"lon":5.40151,"is_reserved":false,"is_disabled":false,"rental_uris":{"android":"levelo://app?vid=ad937e68-f13f-4c97-a441-e806038536ad","ios":"levelo://app?vid=ad937e68-f13f-4c97-a441-e806038536ad"},"vehicle_type_id":"4","last_reported":1770399169,"current_range_meters":4000,"station_id":"ce4bgvp2rcd13ifvqct0","pricing_plan_id":"cebpf4jnsgd1na2vs0mg"},{"bike_id":"bda578e7-7a98-428e-9df1-2d14392057e2","system_id":"levelo_inurba_marseille","lat":43.297925,"lon":5.393273,"is_reserved":false,"is_disabled":false,"rental_uris":{"android":"levelo://app?vid=bda578e7-7a98-428e-9df1-2d14392057e2","ios":"levelo://app?vid=bda578e7-7a98-428e-9df1-2d14392057e2"},"vehicle_type_id":"4","last_reported":1770399169,"current_range_meters":4000,"station_id":"chh1huq6cuj3fo74tm60","pricing_plan_id":"cebpf4jnsgd1na2vs0mg"},{"bike_id":"f3c75b66-31d2-4419-8dbb-104e7bec736f","system_id":"levelo_inurba_marseille","lat":43.30142,"lon":5.38073,"is_reserved":false,"is_disabled":false,"rental_uris":{"android":"levelo://app?vid=f3c75b66-31d2-4419-8dbb-104e7bec736f","ios":"levelo://app?vid=f3c75b66-31d2-4419-8dbb-104e7bec736f"},"vehicle_type_id":"4","last_reported":1770399169,"current_range_meters":4000,"station_id":"ce4bgjp2rcd13ifvqbh0","pricing_plan_id":"cebpf4jnsgd1na2vs0mg"},{"bike_id":"f283bc31-6cbf-46ab-9b6c-0d0be4b1209a","system_id":"levelo_inurba_marseille","lat":43.29092,"lon":5.38129,"is_reserved":false,"is_disabled":false,"rental_uris":{"android":"levelo://app?vid=f283bc31-6cbf-46ab-9b6c-0d0be4b1209a","ios":"levelo://app?vid=f283bc31-6cbf-46ab-9b6c-0d0be4b1209a"},"vehicle_type_id":"4","last_reported":1770399169,"current_range_meters":4400,"station_id":"ce4bh512rcd13ifvqe2g","pricing_plan_id":"cebpf4jnsgd1na2vs0mg"},{"bike_id":"0f89d917-71ef-437b-ba7e-068f36a3eb29","system_id":"levelo_inurba_marseille","lat":43.26553,"lon":5.37285,"is_reserved":false,"is_disabled":false,"rental_uris":{"android":"levelo://app?vid=0f89d917-71ef-437b-ba7e-068f36a3eb29","ios":"levelo://app?vid=0f89d917-71ef-437b-ba7e-068f36a3eb29"},"vehicle_type_id":"4","last_reported":1770399169,"current_range_meters":4400,"station_id":"ce4bhg12rcd13ifvqf70","pricing_plan_id":"cebpf4jnsgd1na2vs0mg"},{"bike_id":"709f9ade-4be9-43e0-b5ac-9ff0d55da4f0","system_id":"levelo_inurba_marseille","lat":43.28085,"lon":5.37887,"is_reserved":false,"is_disabled":false,"rental_uris":{"android":"levelo://app?vid=709f9ade-4be9-43e0-b5ac-9ff0d55da4f0","ios":"levelo://app?vid=709f9ade-4be9-43e0-b5ac-9ff0d55da4f0"},"vehicle_type_id":"4","last_reported":1770399169,"current_range_meters":4400,"station_id":"","pricing_plan_id":"cebpf4jnsgd1na2vs0mg"},{"bike_id":"6c706595-1835-4ddf-8d94-5e35d4a0f5cb","system_id":"levelo_inurba_marseille","lat":43.31196,"lon":5.36827,"is_reserved":false,"is_disabled":false,"rental_uris":{"android":"levelo://app?vid=6c706595-1835-4ddf-8d94-5e35d4a0f5cb","ios":"levelo://app?vid=6c706595-1835-4ddf-8d94-5e35d4a0f5cb"},"vehicle_type_id":"4","last_reported":1770399169,"current_range_meters":4400,"station_id":"ce4bgl92rcd13ifvqbq0","pricing_plan_id":"cebpf4jnsgd1na2vs0mg"},{"bike_id":"ed0b7b07-9c38-4fb9-bc30-93ba90939795","system_id":"levelo_inurba_marseille","lat":43.33163,"lon":5.37691,"is_reserved":false,"is_disabled":false,"rental_uris":{"android":"levelo://app?vid=ed0b7b07-9c38-4fb9-bc30-93ba90939795","ios":"levelo://app?vid=ed0b7b07-9c38-4fb9-bc30-93ba90939795"},"vehicle_type_id":"4","last_reported":1770399169,"current_range_meters":4400,"station_id":"st_d46cu089ee8s73dldbu0","pricing_plan_id":"cebpf4jnsgd1na2vs0mg"},{"bike_id":"c79d63d7-0dac-478e-9523-659b3a13c6c7","system_id":"levelo_inurba_marseille","lat":43.25719,"lon":5.41104,"is_reserved":false,"is_disabled":false,"rental_uris":{"android":"levelo://app?vid=c79d63d7-0dac-478e-9523-659b3a13c6c7","ios":"levelo://app?vid=c79d63d7-0dac-478e-9523-659b3a13c6c7"},"vehicle_type_id":"4","last_reported":1770399169,"current_range_meters":4400,"station_id":"ce4bhkp2rcd13ifvqgd0","pricing_plan_id":"cebpf4jnsgd1na2vs0mg"},{"bike_id":"0ff7d1fc-c942-4e04-bb24-6b30b880d197","system_id":"levelo_inurba_marseille","lat":43.31532,"lon":5.3684,"is_reserved":false,"is_disabled":false,"rental_uris":{"android":"levelo://app?vid=0ff7d1fc-c942-4e04-bb24-6b30b880d197","ios":"levelo://app?vid=0ff7d1fc-c942-4e04-bb24-6b30b880d197"},"vehicle_type_id":"4","last_reported":1770399169,"current_range_meters":4400,"station_id":"","pricing_plan_id":"cebpf4jnsgd1na2vs0mg"},{"bike_id":"2e5a8503-b83c-469f-81b9-fa6e60aa11fe","system_id":"levelo_inurba_marseille","lat":43.286618,"lon":5.386722,"is_reserved":false,"is_disabled":false,"rental_uris":{"android":"levelo://app?vid=2e5a8503-b83c-469f-81b9-fa6e60aa11fe","ios":"levelo://app?vid=2e5a8503-b83c-469f-81b9-fa6e60aa11fe"},"vehicle_type_id":"4","last_reported":1770399169,"current_range_meters":4400,"station_id":"ce4bh492rcd13ifvqdug","pricing_plan_id":"cebpf4jnsgd1na2vs0mg"},{"bike_id":"4cb8922e-4cdf-46d1-8a1d-27e69136b780","system_id":"levelo_inurba_marseille","lat":43.28402,"lon":5.37517,"is_reserved":false,"is_disabled":false,"rental_uris":{"android":"levelo://app?vid=4cb8922e-4cdf-46d1-8a1d-27e69136b780","ios":"levelo://app?vid=4cb8922e-4cdf-46d1-8a1d-27e69136b780"},"vehicle_type_id":"4","last_reported":1770399169,"current_range_meters":4400,"station_id":"ce4bh412rcd13ifvqds0","pricing_plan_id":"cebpf4jnsgd1na2vs0mg"},{"bike_id":"ca5d3b8c-7f24-4944-bd8a-e404316c5303","system_id":"levelo_inurba_marseille","lat":43.25016,"lon":5.38925,"is_reserved":false,"is_disabled":false,"rental_uris":{"android":"levelo://app?vid=ca5d3b8c-7f24-4944-bd8a-e404316c5303","ios":"levelo://app?vid=ca5d3b8c-7f24-4944-bd8a-e404316c5303"},"vehicle_type_id":"4","last_reported":1770399169,"current_range_meters":4400,"station_id":"ce4bhgp2rcd13ifvqfd0","pricing_plan_id":"cebpf4jnsgd1na2vs0mg"},{"bike_id":"5c553f9c-fd85-46cd-b3d7-a48feccd8924","system_id":"levelo_inurba_marseille","lat":43.24647,"lon":5.38883,"is_reserved":false,"is_disabled":false,"rental_uris":{"android":"levelo://app?vid=5c553f9c-fd85-46cd-b3d7-a48feccd8924","ios":"levelo://app?vid=5c553f9c-fd85-46cd-b3d7-a48feccd8924"},"vehicle_type_id":"4","last_reported":1770399169,"current_range_meters":4400,"station_id":"ce4bhg12rcd13ifvqf60","pricing_plan_id":"cebpf4jnsgd1na2vs0mg"},{"bike_id":"1abacc8d-ea8a-4090-8ec4-d42b7caba667","system_id":"levelo_inurba_marseille","lat":43.28225,"lon":5.39065,"is_reserved":false,"is_disabled":false,"rental_uris":{"android":"levelo://app?vid=1abacc8d-ea8a-4090-8ec4-d42b7caba667","ios":"levelo://app?vid=1abacc8d-ea8a-4090-8ec4-d42b7caba667"},"vehicle_type_id":"4","last_reported":1770399169,"current_range_meters":4400,"station_id":"ce4bhn92rcd13ifvqgsg","pricing_plan_id":"cebpf4jnsgd1na2vs0mg"},{"bike_id":"0f67fffb-141c-4930-b1bc-024f78e93ae8","system_id":"levelo_inurba_marseille","lat":43.311713,"lon":5.387208,"is_reserved":false,"is_disabled":false,"rental_uris":{"android":"levelo://app?vid=0f67fffb-141c-4930-b1bc-024f78e93ae8","ios":"levelo://app?vid=0f67fffb-141c-4930-b1bc-024f78e93ae8"},"vehicle_type_id":"4","last_reported":1770399169,"current_range_meters":4800,"station_id":"ce4bgv12rcd13ifvqcp0","pricing_plan_id":"cebpf4jnsgd1na2vs0mg"},{"bike_id":"c0bcc2b4-0c21-4712-82e8-d7d1de58590b","system_id":"levelo_inurba_marseille","lat":43.263773,"lon":5.410688,"is_reserved":false,"is_disabled":true,"rental_uris":{"android":"levelo://app?vid=c0bcc2b4-0c21-4712-82e8-d7d1de58590b","ios":"levelo://app?vid=c0bcc2b4-0c21-4712-82e8-d7d1de58590b"},"vehicle_type_id":"4","last_reported":1770399169,"current_range_meters":4800,"station_id":"","pricing_plan_id":"cebpf4jnsgd1na2vs0mg"},{"bike_id":"7ce3271c-9e28-4d5e-b3b1-77311e5df5d7","system_id":"levelo_inurba_marseille","lat":43.31488,"lon":5.38089,"is_reserved":false,"is_disabled":false,"rental_uris":{"android":"levelo://app?vid=7ce3271c-9e28-4d5e-b3b1-77311e5df5d7","ios":"levelo://app?vid=7ce3271c-9e28-4d5e-b3b1-77311e5df5d7"},"vehicle_type_id":"4","last_reported":1770399169,"current_range_meters":4800,"station_id":"","pricing_plan_id":"cebpf4jnsgd1na2vs0mg"},{"bike_id":"55fd70f6-c2cd-43a2-910e-67f6f2c14e68","system_id":"levelo_inurba_marseille","lat":43.28397,"lon":5.37522,"is_reserved":false,"is_disabled":false,"rental_uris":{"android":"levelo://app?vid=55fd70f6-c2cd-43a2-910e-67f6f2c14e68","ios":"levelo://app?vid=55fd70f6-c2cd-43a2-910e-67f6f2c14e68"},"vehicle_type_id":"4","last_reported":1770399169,"current_range_meters":4800,"station_id":"ce4bh412rcd13ifvqds0","pricing_plan_id":"cebpf4jnsgd1na2vs0mg"},{"bike_id":"ac551100-dc22-4913-9a52-4829a5f95f35","system_id":"levelo_inurba_marseille","lat":43.286157,"lon":5.398699,"is_reserved":false,"is_disabled":true,"rental_uris":{"android":"levelo://app?vid=ac551100-dc22-4913-9a52-4829a5f95f35","ios":"levelo://app?vid=ac551100-dc22-4913-9a52-4829a5f95f35"},"vehicle_type_id":"4","last_reported":1770399169,"current_range_meters":4800,"station_id":"st_d4a7ka997mjs738ck50g","pricing_plan_id":"cebpf4jnsgd1na2vs0mg"},{"bike_id":"89968a63-47c7-4220-88c4-2ac7b9fc925c","system_id":"levelo_inurba_marseille","lat":43.30537,"lon":5.36541,"is_reserved":false,"is_disabled":false,"rental_uris":{"android":"levelo://app?vid=89968a63-47c7-4220-88c4-2ac7b9fc925c","ios":"levelo://app?vid=89968a63-47c7-4220-88c4-2ac7b9fc925c"},"vehicle_type_id":"4","last_reported":1770399169,"current_range_meters":4800,"station_id":"ce4bgs12rcd13ifvqcag","pricing_plan_id":"cebpf4jnsgd1na2vs0mg"},{"bike_id":"0c761b47-f97e-46a4-baf9-3e10a77fa599","system_id":"levelo_inurba_marseille","lat":43.22539,"lon":5.34835,"is_reserved":false,"is_disabled":false,"rental_uris":{"android":"levelo://app?vid=0c761b47-f97e-46a4-baf9-3e10a77fa599","ios":"levelo://app?vid=0c761b47-f97e-46a4-baf9-3e10a77fa599"},"vehicle_type_id":"4","last_reported":1770399169,"current_range_meters":4800,"station_id":"st_cvj5dfep6f1abm77gieg","pricing_plan_id":"cebpf4jnsgd1na2vs0mg"},{"bike_id":"db930761-e40a-407a-bb05-57a7914165db","system_id":"levelo_inurba_marseille","lat":43.2581,"lon":5.39439,"is_reserved":false,"is_disabled":false,"rental_uris":{"android":"levelo://app?vid=db930761-e40a-407a-bb05-57a7914165db","ios":"levelo://app?vid=db930761-e40a-407a-bb05-57a7914165db"},"vehicle_type_id":"4","last_reported":1770399169,"current_range_meters":4800,"station_id":"ce4bhip2rcd13ifvqft0","pricing_plan_id":"cebpf4jnsgd1na2vs0mg"},{"bike_id":"d95bf827-39a1-47b7-90da-59cceb664740","system_id":"levelo_inurba_marseille","lat":43.29957,"lon":5.36418,"is_reserved":false,"is_disabled":false,"rental_uris":{"android":"levelo://app?vid=d95bf827-39a1-47b7-90da-59cceb664740","ios":"levelo://app?vid=d95bf827-39a1-47b7-90da-59cceb664740"},"vehicle_type_id":"4","last_reported":1770399169,"current_range_meters":4800,"station_id":"","pricing_plan_id":"cebpf4jnsgd1na2vs0mg"},{"bike_id":"e5dffa85-4073-4840-a2ab-2c2588754c44","system_id":"levelo_inurba_marseille","lat":43.29898,"lon":5.38129,"is_reserved":false,"is_disabled":false,"rental_uris":{"android":"levelo://app?vid=e5dffa85-4073-4840-a2ab-2c2588754c44","ios":"levelo://app?vid=e5dffa85-4073-4840-a2ab-2c2588754c44"},"vehicle_type_id":"4","last_reported":1770399169,"current_range_meters":4800,"station_id":"ce4bgj12rcd13ifvqbc0","pricing_plan_id":"cebpf4jnsgd1na2vs0mg"},{"bike_id":"fbab9589-eea8-4832-bb1f-41096b1f1609","system_id":"levelo_inurba_marseille","lat":43.28622,"lon":5.37024,"is_reserved":false,"is_disabled":false,"rental_uris":{"android":"levelo://app?vid=fbab9589-eea8-4832-bb1f-41096b1f1609","ios":"levelo://app?vid=fbab9589-eea8-4832-bb1f-41096b1f1609"},"vehicle_type_id":"4","last_reported":1770399169,"current_range_meters":4800,"station_id":"ce4bht12rcd13ifvqi60","pricing_plan_id":"cebpf4jnsgd1na2vs0mg"},{"bike_id":"6e841bf6-5397-4553-8cf2-e04c1ae59db0","system_id":"levelo_inurba_marseille","lat":43.28999,"lon":5.35609,"is_reserved":false,"is_disabled":true,"rental_uris":{"android":"levelo://app?vid=6e841bf6-5397-4553-8cf2-e04c1ae59db0","ios":"levelo://app?vid=6e841bf6-5397-4553-8cf2-e04c1ae59db0"},"vehicle_type_id":"4","last_reported":1770399169,"current_range_meters":5600,"station_id":"ce4bhb92rcd13ifvqen0","pricing_plan_id":"cebpf4jnsgd1na2vs0mg"},{"bike_id":"2f69afc2-51d1-4223-b73c-f3e5d3ce5ca4","system_id":"levelo_inurba_marseille","lat":43.29598,"lon":5.38611,"is_reserved":false,"is_disabled":false,"rental_uris":{"android":"levelo://app?vid=2f69afc2-51d1-4223-b73c-f3e5d3ce5ca4","ios":"levelo://app?vid=2f69afc2-51d1-4223-b73c-f3e5d3ce5ca4"},"vehicle_type_id":"4","last_reported":1770399169,"current_range_meters":5600,"station_id":"","pricing_plan_id":"cebpf4jnsgd1na2vs0mg"},{"bike_id":"94b44417-a21a-4d69-bb88-2cb88dfc3dca","system_id":"levelo_inurba_marseille","lat":43.301235,"lon":5.431185,"is_reserved":false,"is_disabled":false,"rental_uris":{"android":"levelo://app?vid=94b44417-a21a-4d69-bb88-2cb88dfc3dca","ios":"levelo://app?vid=94b44417-a21a-4d69-bb88-2cb88dfc3dca"},"vehicle_type_id":"4","last_reported":1770399169,"current_range_meters":5600,"station_id":"st_d3js3co5814s73ftftug","pricing_plan_id":"cebpf4jnsgd1na2vs0mg"},{"bike_id":"836b9f6b-e1f4-48be-af59-ade7e3f5ab00","system_id":"levelo_inurba_marseille","lat":43.30431,"lon":5.38884,"is_reserved":false,"is_disabled":false,"rental_uris":{"android":"levelo://app?vid=836b9f6b-e1f4-48be-af59-ade7e3f5ab00","ios":"levelo://app?vid=836b9f6b-e1f4-48be-af59-ade7e3f5ab00"},"vehicle_type_id":"4","last_reported":1770399169,"current_range_meters":5600,"station_id":"ce4bgk12rcd13ifvqbi0","pricing_plan_id":"cebpf4jnsgd1na2vs0mg"},{"bike_id":"f1bff026-bd99-4af5-9efa-17efa0f261ab","system_id":"levelo_inurba_marseille","lat":43.30516,"lon":5.36517,"is_reserved":false,"is_disabled":false,"rental_uris":{"android":"levelo://app?vid=f1bff026-bd99-4af5-9efa-17efa0f261ab","ios":"levelo://app?vid=f1bff026-bd99-4af5-9efa-17efa0f261ab"},"vehicle_type_id":"4","last_reported":1770399169,"current_range_meters":5600,"station_id":"","pricing_plan_id":"cebpf4jnsgd1na2vs0mg"},{"bike_id":"14a0bfe2-9ad8-41a2-8100-306572082be4","system_id":"levelo_inurba_marseille","lat":43.2465,"lon":5.38883,"is_reserved":false,"is_disabled":false,"rental_uris":{"android":"levelo://app?vid=14a0bfe2-9ad8-41a2-8100-306572082be4","ios":"levelo://app?vid=14a0bfe2-9ad8-41a2-8100-306572082be4"},"vehicle_type_id":"4","last_reported":1770399169,"current_range_meters":5600,"station_id":"ce4bhg12rcd13ifvqf60","pricing_plan_id":"cebpf4jnsgd1na2vs0mg"},{"bike_id":"0c0204e9-2e2c-4854-9498-c261c0135345","system_id":"levelo_inurba_marseille","lat":43.23771,"lon":5.36638,"is_reserved":false,"is_disabled":false,"rental_uris":{"android":"levelo://app?vid=0c0204e9-2e2c-4854-9498-c261c0135345","ios":"levelo://app?vid=0c0204e9-2e2c-4854-9498-c261c0135345"},"vehicle_type_id":"4","last_reported":1770399169,"current_range_meters":5600,"station_id":"st_d3nk18o9ro0c73en2l3g","pricing_plan_id":"cebpf4jnsgd1na2vs0mg"},{"bike_id":"806e8d9d-748a-48e4-b06d-5508bf4bfc3d","system_id":"levelo_inurba_marseille","lat":43.313446,"lon":5.384879,"is_reserved":false,"is_disabled":false,"rental_uris":{"android":"levelo://app?vid=806e8d9d-748a-48e4-b06d-5508bf4bfc3d","ios":"levelo://app?vid=806e8d9d-748a-48e4-b06d-5508bf4bfc3d"},"vehicle_type_id":"4","last_reported":1770399169,"current_range_meters":5600,"station_id":"ce4bgt92rcd13ifvqcf0","pricing_plan_id":"cebpf4jnsgd1na2vs0mg"},{"bike_id":"27e4c9b8-e5d4-4ade-a4ea-cd1aca4f5620","system_id":"levelo_inurba_marseille","lat":43.294841,"lon":5.389016,"is_reserved":false,"is_disabled":false,"rental_uris":{"android":"levelo://app?vid=27e4c9b8-e5d4-4ade-a4ea-cd1aca4f5620","ios":"levelo://app?vid=27e4c9b8-e5d4-4ade-a4ea-cd1aca4f5620"},"vehicle_type_id":"4","last_reported":1770399169,"current_range_meters":5600,"station_id":"ce4bh3p2rcd13ifvqdp0","pricing_plan_id":"cebpf4jnsgd1na2vs0mg"},{"bike_id":"19979223-3ee6-42ac-9a0c-9e73d969392b","system_id":"levelo_inurba_marseille","lat":43.29815,"lon":5.3809,"is_reserved":false,"is_disabled":false,"rental_uris":{"android":"levelo://app?vid=19979223-3ee6-42ac-9a0c-9e73d969392b","ios":"levelo://app?vid=19979223-3ee6-42ac-9a0c-9e73d969392b"},"vehicle_type_id":"4","last_reported":1770399169,"current_range_meters":5600,"station_id":"ce4bgip2rcd13ifvqbb0","pricing_plan_id":"cebpf4jnsgd1na2vs0mg"},{"bike_id":"eb1aee22-66f7-40e1-8d42-129f37193ad0","system_id":"levelo_inurba_marseille","lat":43.29236,"lon":5.39913,"is_reserved":false,"is_disabled":false,"rental_uris":{"android":"levelo://app?vid=eb1aee22-66f7-40e1-8d42-129f37193ad0","ios":"levelo://app?vid=eb1aee22-66f7-40e1-8d42-129f37193ad0"},"vehicle_type_id":"4","last_reported":1770399169,"current_range_meters":5600,"station_id":"","pricing_plan_id":"cebpf4jnsgd1na2vs0mg"},{"bike_id":"5805fd52-4ab4-4af2-9efb-fcf27076f853","system_id":"levelo_inurba_marseille","lat":43.28569,"lon":5.395,"is_reserved":false,"is_disabled":false,"rental_uris":{"android":"levelo://app?vid=5805fd52-4ab4-4af2-9efb-fcf27076f853","ios":"levelo://app?vid=5805fd52-4ab4-4af2-9efb-fcf27076f853"},"vehicle_type_id":"4","last_reported":1770399169,"current_range_meters":5600,"station_id":"ce4bh292rcd13ifvqdg0","pricing_plan_id":"cebpf4jnsgd1na2vs0mg"},{"bike_id":"f962822c-06bc-4486-a477-eaae1a981a6b","system_id":"levelo_inurba_marseille","lat":43.27535,"lon":5.38447,"is_reserved":false,"is_disabled":false,"rental_uris":{"android":"levelo://app?vid=f962822c-06bc-4486-a477-eaae1a981a6b","ios":"levelo://app?vid=f962822c-06bc-4486-a477-eaae1a981a6b"},"vehicle_type_id":"4","last_reported":1770399169,"current_range_meters":5600,"station_id":"ce4bhh92rcd13ifvqfi0","pricing_plan_id":"cebpf4jnsgd1na2vs0mg"},{"bike_id":"3e8f969f-f505-4cac-b453-01240a0ec1b8","system_id":"levelo_inurba_marseille","lat":43.32987,"lon":5.39026,"is_reserved":false,"is_disabled":false,"rental_uris":{"android":"levelo://app?vid=3e8f969f-f505-4cac-b453-01240a0ec1b8","ios":"levelo://app?vid=3e8f969f-f505-4cac-b453-01240a0ec1b8"},"vehicle_type_id":"4","last_reported":1770399169,"current_range_meters":6000,"station_id":"ce4bhr92rcd13ifvqhrg","pricing_plan_id":"cebpf4jnsgd1na2vs0mg"},{"bike_id":"86ef6d29-a1ae-4ad3-85ee-72ede19038e6","system_id":"levelo_inurba_marseille","lat":43.32122,"lon":5.36778,"is_reserved":false,"is_disabled":false,"rental_uris":{"android":"levelo://app?vid=86ef6d29-a1ae-4ad3-85ee-72ede19038e6","ios":"levelo://app?vid=86ef6d29-a1ae-4ad3-85ee-72ede19038e6"},"vehicle_type_id":"4","last_reported":1770399169,"current_range_meters":6000,"station_id":"ce4bhrh2rcd13ifvqhug","pricing_plan_id":"cebpf4jnsgd1na2vs0mg"},{"bike_id":"ef79007e-ef6d-4e7f-a3ae-3ed5ead69e87","system_id":"levelo_inurba_marseille","lat":43.23186,"lon":5.35545,"is_reserved":false,"is_disabled":false,"rental_uris":{"android":"levelo://app?vid=ef79007e-ef6d-4e7f-a3ae-3ed5ead69e87","ios":"levelo://app?vid=ef79007e-ef6d-4e7f-a3ae-3ed5ead69e87"},"vehicle_type_id":"4","last_reported":1770399169,"current_range_meters":6000,"station_id":"ce4bhu92rcd13ifvqi70","pricing_plan_id":"cebpf4jnsgd1na2vs0mg"},{"bike_id":"46a198ef-d02c-4cbc-b6e6-dab0053c8f1f","system_id":"levelo_inurba_marseille","lat":43.2495,"lon":5.40483,"is_reserved":false,"is_disabled":false,"rental_uris":{"android":"levelo://app?vid=46a198ef-d02c-4cbc-b6e6-dab0053c8f1f","ios":"levelo://app?vid=46a198ef-d02c-4cbc-b6e6-dab0053c8f1f"},"vehicle_type_id":"4","last_reported":1770399169,"current_range_meters":6000,"station_id":"st_d2ngiaodas8pm72gd1h0","pricing_plan_id":"cebpf4jnsgd1na2vs0mg"},{"bike_id":"215e22b8-c666-4850-a512-848bfa19675b","system_id":"levelo_inurba_marseille","lat":43.29225,"lon":5.36055,"is_reserved":false,"is_disabled":false,"rental_uris":{"android":"levelo://app?vid=215e22b8-c666-4850-a512-848bfa19675b","ios":"levelo://app?vid=215e22b8-c666-4850-a512-848bfa19675b"},"vehicle_type_id":"4","last_reported":1770399169,"current_range_meters":6000,"station_id":"ce4bhbh2rcd13ifvqeqg","pricing_plan_id":"cebpf4jnsgd1na2vs0mg"},{"bike_id":"49708cc9-8ac4-485c-9a89-ea53039adda1","system_id":"levelo_inurba_marseille","lat":43.25131,"lon":5.4031,"is_reserved":false,"is_disabled":false,"rental_uris":{"android":"levelo://app?vid=49708cc9-8ac4-485c-9a89-ea53039adda1","ios":"levelo://app?vid=49708cc9-8ac4-485c-9a89-ea53039adda1"},"vehicle_type_id":"4","last_reported":1770399169,"current_range_meters":6000,"station_id":"ce4bhlh2rcd13ifvqgig","pricing_plan_id":"cebpf4jnsgd1na2vs0mg"},{"bike_id":"0b40126e-ca97-4ca6-9e9f-4fb1c22f7841","system_id":"levelo_inurba_marseille","lat":43.28925,"lon":5.3639,"is_reserved":false,"is_disabled":false,"rental_uris":{"android":"levelo://app?vid=0b40126e-ca97-4ca6-9e9f-4fb1c22f7841","ios":"levelo://app?vid=0b40126e-ca97-4ca6-9e9f-4fb1c22f7841"},"vehicle_type_id":"4","last_reported":1770399169,"current_range_meters":6000,"station_id":"ce4bhc92rcd13ifvqetg","pricing_plan_id":"cebpf4jnsgd1na2vs0mg"},{"bike_id":"7f2cf31b-bee8-4ec3-bf91-98a412e4dab9","system_id":"levelo_inurba_marseille","lat":43.21746,"lon":5.34606,"is_reserved":false,"is_disabled":true,"rental_uris":{"android":"levelo://app?vid=7f2cf31b-bee8-4ec3-bf91-98a412e4dab9","ios":"levelo://app?vid=7f2cf31b-bee8-4ec3-bf91-98a412e4dab9"},"vehicle_type_id":"4","last_reported":1770399169,"current_range_meters":6000,"station_id":"st_cvj6r9ubvosntc0bgbag","pricing_plan_id":"cebpf4jnsgd1na2vs0mg"},{"bike_id":"90e59ac1-cd46-446b-b3a8-2b22481380d2","system_id":"levelo_inurba_marseille","lat":43.30887,"lon":5.37193,"is_reserved":false,"is_disabled":false,"rental_uris":{"android":"levelo://app?vid=90e59ac1-cd46-446b-b3a8-2b22481380d2","ios":"levelo://app?vid=90e59ac1-cd46-446b-b3a8-2b22481380d2"},"vehicle_type_id":"4","last_reported":1770399169,"current_range_meters":6000,"station_id":"ce4bguh2rcd13ifvqckg","pricing_plan_id":"cebpf4jnsgd1na2vs0mg"},{"bike_id":"63b5e7ff-784a-44cb-b53d-dd43a84f5930","system_id":"levelo_inurba_marseille","lat":43.241618,"lon":5.364012,"is_reserved":false,"is_disabled":false,"rental_uris":{"android":"levelo://app?vid=63b5e7ff-784a-44cb-b53d-dd43a84f5930","ios":"levelo://app?vid=63b5e7ff-784a-44cb-b53d-dd43a84f5930"},"vehicle_type_id":"4","last_reported":1770399169,"current_range_meters":6000,"station_id":"cpo36qri1sfpv3e86is0","pricing_plan_id":"cebpf4jnsgd1na2vs0mg"},{"bike_id":"6962b396-3c76-4bde-b1bf-dcab9b3fa0df","system_id":"levelo_inurba_marseille","lat":43.301444,"lon":5.398759,"is_reserved":false,"is_disabled":false,"rental_uris":{"android":"levelo://app?vid=6962b396-3c76-4bde-b1bf-dcab9b3fa0df","ios":"levelo://app?vid=6962b396-3c76-4bde-b1bf-dcab9b3fa0df"},"vehicle_type_id":"4","last_reported":1770399169,"current_range_meters":6000,"station_id":"ce4bh0h2rcd13ifvqd40","pricing_plan_id":"cebpf4jnsgd1na2vs0mg"},{"bike_id":"8bfda268-9090-497f-a486-12ea6e745a02","system_id":"levelo_inurba_marseille","lat":43.2637,"lon":5.41081,"is_reserved":false,"is_disabled":false,"rental_uris":{"android":"levelo://app?vid=8bfda268-9090-497f-a486-12ea6e745a02","ios":"levelo://app?vid=8bfda268-9090-497f-a486-12ea6e745a02"},"vehicle_type_id":"4","last_reported":1770399169,"current_range_meters":6000,"station_id":"st_d4e5ca6na9uc73bfl5fg","pricing_plan_id":"cebpf4jnsgd1na2vs0mg"},{"bike_id":"b0cec839-9044-416d-92eb-61b8dee05fdc","system_id":"levelo_inurba_marseille","lat":43.280417,"lon":5.369367,"is_reserved":false,"is_disabled":false,"rental_uris":{"android":"levelo://app?vid=b0cec839-9044-416d-92eb-61b8dee05fdc","ios":"levelo://app?vid=b0cec839-9044-416d-92eb-61b8dee05fdc"},"vehicle_type_id":"4","last_reported":1770399169,"current_range_meters":6000,"station_id":"ce4bha12rcd13ifvqef0","pricing_plan_id":"cebpf4jnsgd1na2vs0mg"},{"bike_id":"0388f24a-b566-45b1-a38a-12fb5d338f89","system_id":"levelo_inurba_marseille","lat":43.31652,"lon":5.37647,"is_reserved":false,"is_disabled":false,"rental_uris":{"android":"levelo://app?vid=0388f24a-b566-45b1-a38a-12fb5d338f89","ios":"levelo://app?vid=0388f24a-b566-45b1-a38a-12fb5d338f89"},"vehicle_type_id":"4","last_reported":1770399169,"current_range_meters":6000,"station_id":"","pricing_plan_id":"cebpf4jnsgd1na2vs0mg"},{"bike_id":"711c2daf-3fb1-422b-aa3c-f34a01f9ab2a","system_id":"levelo_inurba_marseille","lat":43.23152,"lon":5.43717,"is_reserved":false,"is_disabled":false,"rental_uris":{"android":"levelo://app?vid=711c2daf-3fb1-422b-aa3c-f34a01f9ab2a","ios":"levelo://app?vid=711c2daf-3fb1-422b-aa3c-f34a01f9ab2a"},"vehicle_type_id":"4","last_reported":1770399169,"current_range_meters":6000,"station_id":"ce4bhmp2rcd13ifvqgog","pricing_plan_id":"cebpf4jnsgd1na2vs0mg"},{"bike_id":"d7f24fe2-7c2c-4dfb-a686-c3d82e92db35","system_id":"levelo_inurba_marseille","lat":43.2953,"lon":5.38544,"is_reserved":false,"is_disabled":false,"rental_uris":{"android":"levelo://app?vid=d7f24fe2-7c2c-4dfb-a686-c3d82e92db35","ios":"levelo://app?vid=d7f24fe2-7c2c-4dfb-a686-c3d82e92db35"},"vehicle_type_id":"4","last_reported":1770399169,"current_range_meters":6000,"station_id":"ce4bgih2rcd13ifvqba0","pricing_plan_id":"cebpf4jnsgd1na2vs0mg"},{"bike_id":"1ebde8b3-9431-4d65-b3fa-4783e647cb65","system_id":"levelo_inurba_marseille","lat":43.29895,"lon":5.38136,"is_reserved":false,"is_disabled":false,"rental_uris":{"android":"levelo://app?vid=1ebde8b3-9431-4d65-b3fa-4783e647cb65","ios":"levelo://app?vid=1ebde8b3-9431-4d65-b3fa-4783e647cb65"},"vehicle_type_id":"4","last_reported":1770399169,"current_range_meters":6000,"station_id":"ce4bgj12rcd13ifvqbc0","pricing_plan_id":"cebpf4jnsgd1na2vs0mg"},{"bike_id":"03e76324-b83d-490c-907e-9b4874bc94dc","system_id":"levelo_inurba_marseille","lat":43.29957,"lon":5.38499,"is_reserved":false,"is_disabled":false,"rental_uris":{"android":"levelo://app?vid=03e76324-b83d-490c-907e-9b4874bc94dc","ios":"levelo://app?vid=03e76324-b83d-490c-907e-9b4874bc94dc"},"vehicle_type_id":"4","last_reported":1770399169,"current_range_meters":6000,"station_id":"ce4bgj92rcd13ifvqbd0","pricing_plan_id":"cebpf4jnsgd1na2vs0mg"},{"bike_id":"375e9bcb-b945-4768-82d3-b05471dcf5fd","system_id":"levelo_inurba_marseille","lat":43.28909,"lon":5.46032,"is_reserved":false,"is_disabled":false,"rental_uris":{"android":"levelo://app?vid=375e9bcb-b945-4768-82d3-b05471dcf5fd","ios":"levelo://app?vid=375e9bcb-b945-4768-82d3-b05471dcf5fd"},"vehicle_type_id":"4","last_reported":1770399169,"current_range_meters":6400,"station_id":"","pricing_plan_id":"cebpf4jnsgd1na2vs0mg"},{"bike_id":"5638c18f-ee6c-4ee5-b21a-789fc9850573","system_id":"levelo_inurba_marseille","lat":43.31271,"lon":5.40183,"is_reserved":false,"is_disabled":false,"rental_uris":{"android":"levelo://app?vid=5638c18f-ee6c-4ee5-b21a-789fc9850573","ios":"levelo://app?vid=5638c18f-ee6c-4ee5-b21a-789fc9850573"},"vehicle_type_id":"4","last_reported":1770399169,"current_range_meters":6400,"station_id":"ce4bh092rcd13ifvqd30","pricing_plan_id":"cebpf4jnsgd1na2vs0mg"},{"bike_id":"d1637f9c-b515-44be-9270-b91684a11fd5","system_id":"levelo_inurba_marseille","lat":43.23381,"lon":5.41229,"is_reserved":false,"is_disabled":false,"rental_uris":{"android":"levelo://app?vid=d1637f9c-b515-44be-9270-b91684a11fd5","ios":"levelo://app?vid=d1637f9c-b515-44be-9270-b91684a11fd5"},"vehicle_type_id":"4","last_reported":1770399169,"current_range_meters":6400,"station_id":"","pricing_plan_id":"cebpf4jnsgd1na2vs0mg"},{"bike_id":"19576ce9-aff2-4102-944a-86159b52e9fe","system_id":"levelo_inurba_marseille","lat":43.336,"lon":5.41031,"is_reserved":false,"is_disabled":false,"rental_uris":{"android":"levelo://app?vid=19576ce9-aff2-4102-944a-86159b52e9fe","ios":"levelo://app?vid=19576ce9-aff2-4102-944a-86159b52e9fe"},"vehicle_type_id":"4","last_reported":1770399169,"current_range_meters":6400,"station_id":"ce4bhqh2rcd13ifvqhmg","pricing_plan_id":"cebpf4jnsgd1na2vs0mg"},{"bike_id":"733f0ff5-75ca-4c77-bbb2-e43b4255c9f8","system_id":"levelo_inurba_marseille","lat":43.29259,"lon":5.38427,"is_reserved":false,"is_disabled":false,"rental_uris":{"android":"levelo://app?vid=733f0ff5-75ca-4c77-bbb2-e43b4255c9f8","ios":"levelo://app?vid=733f0ff5-75ca-4c77-bbb2-e43b4255c9f8"},"vehicle_type_id":"4","last_reported":1770399169,"current_range_meters":6400,"station_id":"ce4bh692rcd13ifvqea0","pricing_plan_id":"cebpf4jnsgd1na2vs0mg"},{"bike_id":"ea394ce4-561e-40c3-b5d8-13958e8a40d6","system_id":"levelo_inurba_marseille","lat":43.23188,"lon":5.35552,"is_reserved":false,"is_disabled":false,"rental_uris":{"android":"levelo://app?vid=ea394ce4-561e-40c3-b5d8-13958e8a40d6","ios":"levelo://app?vid=ea394ce4-561e-40c3-b5d8-13958e8a40d6"},"vehicle_type_id":"4","last_reported":1770399169,"current_range_meters":6400,"station_id":"ce4bhu92rcd13ifvqi70","pricing_plan_id":"cebpf4jnsgd1na2vs0mg"},{"bike_id":"8a8b8e72-9951-490e-8aaa-3c1625d2978c","system_id":"levelo_inurba_marseille","lat":43.28409,"lon":5.34994,"is_reserved":false,"is_disabled":false,"rental_uris":{"android":"levelo://app?vid=8a8b8e72-9951-490e-8aaa-3c1625d2978c","ios":"levelo://app?vid=8a8b8e72-9951-490e-8aaa-3c1625d2978c"},"vehicle_type_id":"4","last_reported":1770399169,"current_range_meters":6400,"station_id":"ce4bhbh2rcd13ifvqepg","pricing_plan_id":"cebpf4jnsgd1na2vs0mg"},{"bike_id":"661e5608-6549-4720-a5e8-0e1eeb33e31d","system_id":"levelo_inurba_marseille","lat":43.27935,"lon":5.41035,"is_reserved":false,"is_disabled":false,"rental_uris":{"android":"levelo://app?vid=661e5608-6549-4720-a5e8-0e1eeb33e31d","ios":"levelo://app?vid=661e5608-6549-4720-a5e8-0e1eeb33e31d"},"vehicle_type_id":"4","last_reported":1770399169,"current_range_meters":6400,"station_id":"ce4bhnp2rcd13ifvqh0g","pricing_plan_id":"cebpf4jnsgd1na2vs0mg"},{"bike_id":"882a74b9-1270-44ce-825d-673656be8fd8","system_id":"levelo_inurba_marseille","lat":43.30777,"lon":5.37643,"is_reserved":false,"is_disabled":false,"rental_uris":{"android":"levelo://app?vid=882a74b9-1270-44ce-825d-673656be8fd8","ios":"levelo://app?vid=882a74b9-1270-44ce-825d-673656be8fd8"},"vehicle_type_id":"4","last_reported":1770399169,"current_range_meters":6400,"station_id":"ce4bgv92rcd13ifvqcq0","pricing_plan_id":"cebpf4jnsgd1na2vs0mg"},{"bike_id":"7ac831d0-c233-423c-a19f-b6dd1aae8bbf","system_id":"levelo_inurba_marseille","lat":43.27361,"lon":5.36249,"is_reserved":false,"is_disabled":false,"rental_uris":{"android":"levelo://app?vid=7ac831d0-c233-423c-a19f-b6dd1aae8bbf","ios":"levelo://app?vid=7ac831d0-c233-423c-a19f-b6dd1aae8bbf"},"vehicle_type_id":"4","last_reported":1770399169,"current_range_meters":6400,"station_id":"ce4bhbh2rcd13ifvqeo0","pricing_plan_id":"cebpf4jnsgd1na2vs0mg"},{"bike_id":"36af6b9c-3b6f-432b-8541-51b5e2f4a92f","system_id":"levelo_inurba_marseille","lat":43.25006,"lon":5.38916,"is_reserved":false,"is_disabled":false,"rental_uris":{"android":"levelo://app?vid=36af6b9c-3b6f-432b-8541-51b5e2f4a92f","ios":"levelo://app?vid=36af6b9c-3b6f-432b-8541-51b5e2f4a92f"},"vehicle_type_id":"4","last_reported":1770399169,"current_range_meters":6400,"station_id":"ce4bhgp2rcd13ifvqfd0","pricing_plan_id":"cebpf4jnsgd1na2vs0mg"},{"bike_id":"3b986d99-7b42-471f-993a-11fde28f3c51","system_id":"levelo_inurba_marseille","lat":43.22555,"lon":5.41662,"is_reserved":false,"is_disabled":false,"rental_uris":{"android":"levelo://app?vid=3b986d99-7b42-471f-993a-11fde28f3c51","ios":"levelo://app?vid=3b986d99-7b42-471f-993a-11fde28f3c51"},"vehicle_type_id":"4","last_reported":1770399169,"current_range_meters":6400,"station_id":"st_d2o4gvlbi1j2169b742g","pricing_plan_id":"cebpf4jnsgd1na2vs0mg"},{"bike_id":"e04d7957-2695-4c2a-bb1b-5e0e64401da0","system_id":"levelo_inurba_marseille","lat":43.29305,"lon":5.37461,"is_reserved":false,"is_disabled":false,"rental_uris":{"android":"levelo://app?vid=e04d7957-2695-4c2a-bb1b-5e0e64401da0","ios":"levelo://app?vid=e04d7957-2695-4c2a-bb1b-5e0e64401da0"},"vehicle_type_id":"4","last_reported":1770399169,"current_range_meters":6400,"station_id":"ce4bgi12rcd13ifvqb70","pricing_plan_id":"cebpf4jnsgd1na2vs0mg"},{"bike_id":"4414f68c-15bd-4034-82cc-48499da01837","system_id":"levelo_inurba_marseille","lat":43.29959,"lon":5.38492,"is_reserved":false,"is_disabled":false,"rental_uris":{"android":"levelo://app?vid=4414f68c-15bd-4034-82cc-48499da01837","ios":"levelo://app?vid=4414f68c-15bd-4034-82cc-48499da01837"},"vehicle_type_id":"4","last_reported":1770399169,"current_range_meters":6400,"station_id":"ce4bgj92rcd13ifvqbd0","pricing_plan_id":"cebpf4jnsgd1na2vs0mg"},{"bike_id":"4811412c-4ed3-41ea-ac99-e10be1d4edc4","system_id":"levelo_inurba_marseille","lat":43.298714,"lon":5.397289,"is_reserved":false,"is_disabled":false,"rental_uris":{"android":"levelo://app?vid=4811412c-4ed3-41ea-ac99-e10be1d4edc4","ios":"levelo://app?vid=4811412c-4ed3-41ea-ac99-e10be1d4edc4"},"vehicle_type_id":"4","last_reported":1770399169,"current_range_meters":6400,"station_id":"ce4bh0h2rcd13ifvqd50","pricing_plan_id":"cebpf4jnsgd1na2vs0mg"},{"bike_id":"2b358923-c030-4481-a0eb-830aa62ff249","system_id":"levelo_inurba_marseille","lat":43.27367,"lon":5.36239,"is_reserved":false,"is_disabled":false,"rental_uris":{"android":"levelo://app?vid=2b358923-c030-4481-a0eb-830aa62ff249","ios":"levelo://app?vid=2b358923-c030-4481-a0eb-830aa62ff249"},"vehicle_type_id":"4","last_reported":1770399169,"current_range_meters":6400,"station_id":"ce4bhbh2rcd13ifvqeo0","pricing_plan_id":"cebpf4jnsgd1na2vs0mg"},{"bike_id":"6ea399dc-5917-4833-9a9c-0c6527aa49fe","system_id":"levelo_inurba_marseille","lat":43.28267,"lon":5.35059,"is_reserved":false,"is_disabled":false,"rental_uris":{"android":"levelo://app?vid=6ea399dc-5917-4833-9a9c-0c6527aa49fe","ios":"levelo://app?vid=6ea399dc-5917-4833-9a9c-0c6527aa49fe"},"vehicle_type_id":"4","last_reported":1770399169,"current_range_meters":6400,"station_id":"ce4bhbp2rcd13ifvqerg","pricing_plan_id":"cebpf4jnsgd1na2vs0mg"},{"bike_id":"29568cb5-48e1-4afd-96a8-69d8393592fe","system_id":"levelo_inurba_marseille","lat":43.28478,"lon":5.48398,"is_reserved":false,"is_disabled":false,"rental_uris":{"android":"levelo://app?vid=29568cb5-48e1-4afd-96a8-69d8393592fe","ios":"levelo://app?vid=29568cb5-48e1-4afd-96a8-69d8393592fe"},"vehicle_type_id":"4","last_reported":1770399169,"current_range_meters":6400,"station_id":"st_d3svhcjqgbts73a3dn0g","pricing_plan_id":"cebpf4jnsgd1na2vs0mg"},{"bike_id":"f2251f8f-476c-490a-a2da-0d724c30184f","system_id":"levelo_inurba_marseille","lat":43.31277,"lon":5.36825,"is_reserved":false,"is_disabled":false,"rental_uris":{"android":"levelo://app?vid=f2251f8f-476c-490a-a2da-0d724c30184f","ios":"levelo://app?vid=f2251f8f-476c-490a-a2da-0d724c30184f"},"vehicle_type_id":"4","last_reported":1770399169,"current_range_meters":6800,"station_id":"","pricing_plan_id":"cebpf4jnsgd1na2vs0mg"},{"bike_id":"791b7410-ea60-460b-a646-5b42e4c3b905","system_id":"levelo_inurba_marseille","lat":43.29248,"lon":5.37619,"is_reserved":false,"is_disabled":false,"rental_uris":{"android":"levelo://app?vid=791b7410-ea60-460b-a646-5b42e4c3b905","ios":"levelo://app?vid=791b7410-ea60-460b-a646-5b42e4c3b905"},"vehicle_type_id":"4","last_reported":1770399169,"current_range_meters":6800,"station_id":"ce4bgi12rcd13ifvqb80","pricing_plan_id":"cebpf4jnsgd1na2vs0mg"},{"bike_id":"57fb5003-3732-497e-a981-25fa4148c7ba","system_id":"levelo_inurba_marseille","lat":43.29626,"lon":5.40594,"is_reserved":false,"is_disabled":false,"rental_uris":{"android":"levelo://app?vid=57fb5003-3732-497e-a981-25fa4148c7ba","ios":"levelo://app?vid=57fb5003-3732-497e-a981-25fa4148c7ba"},"vehicle_type_id":"4","last_reported":1770399169,"current_range_meters":6800,"station_id":"ce4bh0h2rcd13ifvqd60","pricing_plan_id":"cebpf4jnsgd1na2vs0mg"},{"bike_id":"90cd76a0-f0c8-4656-96c3-d2c3284c85e6","system_id":"levelo_inurba_marseille","lat":43.2827,"lon":5.35058,"is_reserved":false,"is_disabled":false,"rental_uris":{"android":"levelo://app?vid=90cd76a0-f0c8-4656-96c3-d2c3284c85e6","ios":"levelo://app?vid=90cd76a0-f0c8-4656-96c3-d2c3284c85e6"},"vehicle_type_id":"4","last_reported":1770399169,"current_range_meters":6800,"station_id":"ce4bhbp2rcd13ifvqerg","pricing_plan_id":"cebpf4jnsgd1na2vs0mg"},{"bike_id":"88de999f-78fd-498c-86b8-c0b83e9a1087","system_id":"levelo_inurba_marseille","lat":43.25939,"lon":5.40896,"is_reserved":false,"is_disabled":false,"rental_uris":{"android":"levelo://app?vid=88de999f-78fd-498c-86b8-c0b83e9a1087","ios":"levelo://app?vid=88de999f-78fd-498c-86b8-c0b83e9a1087"},"vehicle_type_id":"4","last_reported":1770399169,"current_range_meters":6800,"station_id":"ce4bhm92rcd13ifvqglg","pricing_plan_id":"cebpf4jnsgd1na2vs0mg"},{"bike_id":"7cea2c3d-f89d-429a-854b-a433703f582e","system_id":"levelo_inurba_marseille","lat":43.30152,"lon":5.39849,"is_reserved":false,"is_disabled":false,"rental_uris":{"android":"levelo://app?vid=7cea2c3d-f89d-429a-854b-a433703f582e","ios":"levelo://app?vid=7cea2c3d-f89d-429a-854b-a433703f582e"},"vehicle_type_id":"4","last_reported":1770399169,"current_range_meters":6800,"station_id":"ce4bh0h2rcd13ifvqd40","pricing_plan_id":"cebpf4jnsgd1na2vs0mg"},{"bike_id":"17e35f94-3fec-45dd-96a9-f18976bedc1b","system_id":"levelo_inurba_marseille","lat":43.27927,"lon":5.41044,"is_reserved":false,"is_disabled":false,"rental_uris":{"android":"levelo://app?vid=17e35f94-3fec-45dd-96a9-f18976bedc1b","ios":"levelo://app?vid=17e35f94-3fec-45dd-96a9-f18976bedc1b"},"vehicle_type_id":"4","last_reported":1770399169,"current_range_meters":6800,"station_id":"ce4bhnp2rcd13ifvqh0g","pricing_plan_id":"cebpf4jnsgd1na2vs0mg"},{"bike_id":"5e6362de-3c10-4294-8676-bad7a131752d","system_id":"levelo_inurba_marseille","lat":43.27369,"lon":5.36249,"is_reserved":false,"is_disabled":false,"rental_uris":{"android":"levelo://app?vid=5e6362de-3c10-4294-8676-bad7a131752d","ios":"levelo://app?vid=5e6362de-3c10-4294-8676-bad7a131752d"},"vehicle_type_id":"4","last_reported":1770399169,"current_range_meters":6800,"station_id":"ce4bhbh2rcd13ifvqeo0","pricing_plan_id":"cebpf4jnsgd1na2vs0mg"},{"bike_id":"68eedbd7-8787-4d5f-8c5a-55292bb86e24","system_id":"levelo_inurba_marseille","lat":43.295442,"lon":5.375041,"is_reserved":false,"is_disabled":false,"rental_uris":{"android":"levelo://app?vid=68eedbd7-8787-4d5f-8c5a-55292bb86e24","ios":"levelo://app?vid=68eedbd7-8787-4d5f-8c5a-55292bb86e24"},"vehicle_type_id":"4","last_reported":1770399169,"current_range_meters":6800,"station_id":"ce4bgkp2rcd13ifvqbmg","pricing_plan_id":"cebpf4jnsgd1na2vs0mg"},{"bike_id":"15250344-db40-4db8-b0c9-19733389e808","system_id":"levelo_inurba_marseille","lat":43.27377,"lon":5.36267,"is_reserved":false,"is_disabled":false,"rental_uris":{"android":"levelo://app?vid=15250344-db40-4db8-b0c9-19733389e808","ios":"levelo://app?vid=15250344-db40-4db8-b0c9-19733389e808"},"vehicle_type_id":"4","last_reported":1770399169,"current_range_meters":6800,"station_id":"ce4bhbh2rcd13ifvqeo0","pricing_plan_id":"cebpf4jnsgd1na2vs0mg"},{"bike_id":"5a57e260-484e-43f2-a3c2-cab0c9ae4312","system_id":"levelo_inurba_marseille","lat":43.29306,"lon":5.37459,"is_reserved":false,"is_disabled":false,"rental_uris":{"android":"levelo://app?vid=5a57e260-484e-43f2-a3c2-cab0c9ae4312","ios":"levelo://app?vid=5a57e260-484e-43f2-a3c2-cab0c9ae4312"},"vehicle_type_id":"4","last_reported":1770399169,"current_range_meters":6800,"station_id":"ce4bgi12rcd13ifvqb70","pricing_plan_id":"cebpf4jnsgd1na2vs0mg"},{"bike_id":"e92c52a2-6b35-4ea9-9829-1eb9501c85fc","system_id":"levelo_inurba_marseille","lat":43.311637,"lon":5.393597,"is_reserved":false,"is_disabled":false,"rental_uris":{"android":"levelo://app?vid=e92c52a2-6b35-4ea9-9829-1eb9501c85fc","ios":"levelo://app?vid=e92c52a2-6b35-4ea9-9829-1eb9501c85fc"},"vehicle_type_id":"4","last_reported":1770399169,"current_range_meters":6800,"station_id":"","pricing_plan_id":"cebpf4jnsgd1na2vs0mg"},{"bike_id":"7913ecf5-95cc-46db-ad1a-05494005e5b1","system_id":"levelo_inurba_marseille","lat":43.25665,"lon":5.41839,"is_reserved":false,"is_disabled":false,"rental_uris":{"android":"levelo://app?vid=7913ecf5-95cc-46db-ad1a-05494005e5b1","ios":"levelo://app?vid=7913ecf5-95cc-46db-ad1a-05494005e5b1"},"vehicle_type_id":"4","last_reported":1770399169,"current_range_meters":6800,"station_id":"","pricing_plan_id":"cebpf4jnsgd1na2vs0mg"},{"bike_id":"7fe289d7-a40a-48e6-b71a-ee8c544f0123","system_id":"levelo_inurba_marseille","lat":43.26202,"lon":5.37923,"is_reserved":false,"is_disabled":false,"rental_uris":{"android":"levelo://app?vid=7fe289d7-a40a-48e6-b71a-ee8c544f0123","ios":"levelo://app?vid=7fe289d7-a40a-48e6-b71a-ee8c544f0123"},"vehicle_type_id":"4","last_reported":1770399169,"current_range_meters":6800,"station_id":"ce4bhjp2rcd13ifvqg90","pricing_plan_id":"cebpf4jnsgd1na2vs0mg"},{"bike_id":"edf4525d-4f48-4c29-ad7b-d8962495a114","system_id":"levelo_inurba_marseille","lat":43.299233,"lon":5.365533,"is_reserved":false,"is_disabled":false,"rental_uris":{"android":"levelo://app?vid=edf4525d-4f48-4c29-ad7b-d8962495a114","ios":"levelo://app?vid=edf4525d-4f48-4c29-ad7b-d8962495a114"},"vehicle_type_id":"4","last_reported":1770399169,"current_range_meters":6800,"station_id":"ce4bgm92rcd13ifvqbr0","pricing_plan_id":"cebpf4jnsgd1na2vs0mg"},{"bike_id":"31187af9-c44b-44b9-86e6-81ceb0eb435c","system_id":"levelo_inurba_marseille","lat":43.27068,"lon":5.42279,"is_reserved":false,"is_disabled":false,"rental_uris":{"android":"levelo://app?vid=31187af9-c44b-44b9-86e6-81ceb0eb435c","ios":"levelo://app?vid=31187af9-c44b-44b9-86e6-81ceb0eb435c"},"vehicle_type_id":"4","last_reported":1770399169,"current_range_meters":6800,"station_id":"ce4bhk92rcd13ifvqgb0","pricing_plan_id":"cebpf4jnsgd1na2vs0mg"},{"bike_id":"540f98d7-bfce-4d88-bf3f-9c9e87734725","system_id":"levelo_inurba_marseille","lat":43.30119,"lon":5.39873,"is_reserved":false,"is_disabled":false,"rental_uris":{"android":"levelo://app?vid=540f98d7-bfce-4d88-bf3f-9c9e87734725","ios":"levelo://app?vid=540f98d7-bfce-4d88-bf3f-9c9e87734725"},"vehicle_type_id":"4","last_reported":1770399169,"current_range_meters":6800,"station_id":"ce4bh0h2rcd13ifvqd40","pricing_plan_id":"cebpf4jnsgd1na2vs0mg"},{"bike_id":"5dea93d7-2b00-4423-81b5-9e768d42cacb","system_id":"levelo_inurba_marseille","lat":43.29019,"lon":5.38643,"is_reserved":false,"is_disabled":true,"rental_uris":{"android":"levelo://app?vid=5dea93d7-2b00-4423-81b5-9e768d42cacb","ios":"levelo://app?vid=5dea93d7-2b00-4423-81b5-9e768d42cacb"},"vehicle_type_id":"4","last_reported":1770399169,"current_range_meters":7200,"station_id":"ce4bh4p2rcd13ifvqe0g","pricing_plan_id":"cebpf4jnsgd1na2vs0mg"},{"bike_id":"1dd6f4de-6a4a-4fa1-b038-a756a6cbac96","system_id":"levelo_inurba_marseille","lat":43.23191,"lon":5.35553,"is_reserved":false,"is_disabled":false,"rental_uris":{"android":"levelo://app?vid=1dd6f4de-6a4a-4fa1-b038-a756a6cbac96","ios":"levelo://app?vid=1dd6f4de-6a4a-4fa1-b038-a756a6cbac96"},"vehicle_type_id":"4","last_reported":1770399169,"current_range_meters":7200,"station_id":"ce4bhu92rcd13ifvqi70","pricing_plan_id":"cebpf4jnsgd1na2vs0mg"},{"bike_id":"e45a3e64-fb43-430a-9969-02c1f4053ad7","system_id":"levelo_inurba_marseille","lat":43.26934,"lon":5.38924,"is_reserved":false,"is_disabled":false,"rental_uris":{"android":"levelo://app?vid=e45a3e64-fb43-430a-9969-02c1f4053ad7","ios":"levelo://app?vid=e45a3e64-fb43-430a-9969-02c1f4053ad7"},"vehicle_type_id":"4","last_reported":1770399169,"current_range_meters":7200,"station_id":"ce4bhhh2rcd13ifvqfl0","pricing_plan_id":"cebpf4jnsgd1na2vs0mg"},{"bike_id":"50933176-9f68-4413-896e-65d657325201","system_id":"levelo_inurba_marseille","lat":43.31328,"lon":5.36749,"is_reserved":false,"is_disabled":false,"rental_uris":{"android":"levelo://app?vid=50933176-9f68-4413-896e-65d657325201","ios":"levelo://app?vid=50933176-9f68-4413-896e-65d657325201"},"vehicle_type_id":"4","last_reported":1770399169,"current_range_meters":7200,"station_id":"ce4bgr92rcd13ifvqc6g","pricing_plan_id":"cebpf4jnsgd1na2vs0mg"},{"bike_id":"4022598c-6605-421d-929f-d80b4ad79dcf","system_id":"levelo_inurba_marseille","lat":43.24664,"lon":5.38151,"is_reserved":false,"is_disabled":false,"rental_uris":{"android":"levelo://app?vid=4022598c-6605-421d-929f-d80b4ad79dcf","ios":"levelo://app?vid=4022598c-6605-421d-929f-d80b4ad79dcf"},"vehicle_type_id":"4","last_reported":1770399169,"current_range_meters":7200,"station_id":"ce4bhih2rcd13ifvqfr0","pricing_plan_id":"cebpf4jnsgd1na2vs0mg"},{"bike_id":"58d16e10-99ba-424c-8d7d-f247b1c47cde","system_id":"levelo_inurba_marseille","lat":43.289703,"lon":5.383693,"is_reserved":false,"is_disabled":false,"rental_uris":{"android":"levelo://app?vid=58d16e10-99ba-424c-8d7d-f247b1c47cde","ios":"levelo://app?vid=58d16e10-99ba-424c-8d7d-f247b1c47cde"},"vehicle_type_id":"4","last_reported":1770399169,"current_range_meters":7200,"station_id":"","pricing_plan_id":"cebpf4jnsgd1na2vs0mg"},{"bike_id":"9d3c928b-755a-4771-920f-258d81613755","system_id":"levelo_inurba_marseille","lat":43.24066,"lon":5.37748,"is_reserved":false,"is_disabled":false,"rental_uris":{"android":"levelo://app?vid=9d3c928b-755a-4771-920f-258d81613755","ios":"levelo://app?vid=9d3c928b-755a-4771-920f-258d81613755"},"vehicle_type_id":"4","last_reported":1770399169,"current_range_meters":7200,"station_id":"ce4bhnp2rcd13ifvqgvg","pricing_plan_id":"cebpf4jnsgd1na2vs0mg"},{"bike_id":"142a21c2-9a29-466a-92f6-5ab3ecc5b60d","system_id":"levelo_inurba_marseille","lat":43.23786,"lon":5.36628,"is_reserved":false,"is_disabled":false,"rental_uris":{"android":"levelo://app?vid=142a21c2-9a29-466a-92f6-5ab3ecc5b60d","ios":"levelo://app?vid=142a21c2-9a29-466a-92f6-5ab3ecc5b60d"},"vehicle_type_id":"4","last_reported":1770399169,"current_range_meters":7200,"station_id":"st_d3nk18o9ro0c73en2l3g","pricing_plan_id":"cebpf4jnsgd1na2vs0mg"},{"bike_id":"80921967-0205-4b63-9ad3-3f330568f044","system_id":"levelo_inurba_marseille","lat":43.28673,"lon":5.38672,"is_reserved":false,"is_disabled":false,"rental_uris":{"android":"levelo://app?vid=80921967-0205-4b63-9ad3-3f330568f044","ios":"levelo://app?vid=80921967-0205-4b63-9ad3-3f330568f044"},"vehicle_type_id":"4","last_reported":1770399169,"current_range_meters":7200,"station_id":"ce4bh492rcd13ifvqdug","pricing_plan_id":"cebpf4jnsgd1na2vs0mg"},{"bike_id":"34ce4070-8bf1-4f6c-90db-46999ff058d6","system_id":"levelo_inurba_marseille","lat":43.29273,"lon":5.38446,"is_reserved":false,"is_disabled":false,"rental_uris":{"android":"levelo://app?vid=34ce4070-8bf1-4f6c-90db-46999ff058d6","ios":"levelo://app?vid=34ce4070-8bf1-4f6c-90db-46999ff058d6"},"vehicle_type_id":"4","last_reported":1770399169,"current_range_meters":7200,"station_id":"ce4bh692rcd13ifvqea0","pricing_plan_id":"cebpf4jnsgd1na2vs0mg"},{"bike_id":"f0d45e46-9d23-4329-92a4-e4ddc618e990","system_id":"levelo_inurba_marseille","lat":43.22925,"lon":5.35371,"is_reserved":false,"is_disabled":false,"rental_uris":{"android":"levelo://app?vid=f0d45e46-9d23-4329-92a4-e4ddc618e990","ios":"levelo://app?vid=f0d45e46-9d23-4329-92a4-e4ddc618e990"},"vehicle_type_id":"4","last_reported":1770399169,"current_range_meters":7200,"station_id":"cpo3532slgdg3j2ikp40","pricing_plan_id":"cebpf4jnsgd1na2vs0mg"},{"bike_id":"c6782d87-e485-4a2c-b62b-9a52105fb0ef","system_id":"levelo_inurba_marseille","lat":43.25038,"lon":5.38889,"is_reserved":false,"is_disabled":false,"rental_uris":{"android":"levelo://app?vid=c6782d87-e485-4a2c-b62b-9a52105fb0ef","ios":"levelo://app?vid=c6782d87-e485-4a2c-b62b-9a52105fb0ef"},"vehicle_type_id":"4","last_reported":1770399169,"current_range_meters":7200,"station_id":"ce4bhgp2rcd13ifvqfd0","pricing_plan_id":"cebpf4jnsgd1na2vs0mg"},{"bike_id":"31cec2b8-c454-4415-870c-bd2f8b7a85a6","system_id":"levelo_inurba_marseille","lat":46.509268,"lon":6.665495,"is_reserved":false,"is_disabled":false,"rental_uris":{"android":"levelo://app?vid=31cec2b8-c454-4415-870c-bd2f8b7a85a6","ios":"levelo://app?vid=31cec2b8-c454-4415-870c-bd2f8b7a85a6"},"vehicle_type_id":"4","last_reported":1770399169,"current_range_meters":7200,"station_id":"","pricing_plan_id":"cebpf4jnsgd1na2vs0mg"},{"bike_id":"bd830301-856a-4947-bbd9-0c9aae46f8c5","system_id":"levelo_inurba_marseille","lat":43.28857,"lon":5.42517,"is_reserved":false,"is_disabled":false,"rental_uris":{"android":"levelo://app?vid=bd830301-856a-4947-bbd9-0c9aae46f8c5","ios":"levelo://app?vid=bd830301-856a-4947-bbd9-0c9aae46f8c5"},"vehicle_type_id":"4","last_reported":1770399169,"current_range_meters":7200,"station_id":"st_d3b462108ojc7389ooeg","pricing_plan_id":"cebpf4jnsgd1na2vs0mg"},{"bike_id":"4f7d41e3-f9d8-470b-99d3-80dafc768b1e","system_id":"levelo_inurba_marseille","lat":43.29013,"lon":5.35637,"is_reserved":false,"is_disabled":false,"rental_uris":{"android":"levelo://app?vid=4f7d41e3-f9d8-470b-99d3-80dafc768b1e","ios":"levelo://app?vid=4f7d41e3-f9d8-470b-99d3-80dafc768b1e"},"vehicle_type_id":"4","last_reported":1770399169,"current_range_meters":7200,"station_id":"ce4bhb92rcd13ifvqen0","pricing_plan_id":"cebpf4jnsgd1na2vs0mg"},{"bike_id":"28038112-793b-4a40-88c6-af51aa30dc6d","system_id":"levelo_inurba_marseille","lat":43.23189,"lon":5.35536,"is_reserved":false,"is_disabled":false,"rental_uris":{"android":"levelo://app?vid=28038112-793b-4a40-88c6-af51aa30dc6d","ios":"levelo://app?vid=28038112-793b-4a40-88c6-af51aa30dc6d"},"vehicle_type_id":"4","last_reported":1770399169,"current_range_meters":7200,"station_id":"ce4bhu92rcd13ifvqi70","pricing_plan_id":"cebpf4jnsgd1na2vs0mg"},{"bike_id":"6e571971-3326-4570-8a55-c4296f537532","system_id":"levelo_inurba_marseille","lat":43.29368,"lon":5.37853,"is_reserved":false,"is_disabled":false,"rental_uris":{"android":"levelo://app?vid=6e571971-3326-4570-8a55-c4296f537532","ios":"levelo://app?vid=6e571971-3326-4570-8a55-c4296f537532"},"vehicle_type_id":"4","last_reported":1770399169,"current_range_meters":7200,"station_id":"ce4bgjh2rcd13ifvqbf0","pricing_plan_id":"cebpf4jnsgd1na2vs0mg"},{"bike_id":"6809d87e-7242-4772-8526-bd1f9e441f49","system_id":"levelo_inurba_marseille","lat":43.337257,"lon":5.391749,"is_reserved":false,"is_disabled":false,"rental_uris":{"android":"levelo://app?vid=6809d87e-7242-4772-8526-bd1f9e441f49","ios":"levelo://app?vid=6809d87e-7242-4772-8526-bd1f9e441f49"},"vehicle_type_id":"4","last_reported":1770399169,"current_range_meters":7200,"station_id":"ce4bhr92rcd13ifvqhsg","pricing_plan_id":"cebpf4jnsgd1na2vs0mg"},{"bike_id":"3b0243a7-d2ce-4bc6-9d86-9216cc3b3554","system_id":"levelo_inurba_marseille","lat":43.24809,"lon":5.37451,"is_reserved":false,"is_disabled":false,"rental_uris":{"android":"levelo://app?vid=3b0243a7-d2ce-4bc6-9d86-9216cc3b3554","ios":"levelo://app?vid=3b0243a7-d2ce-4bc6-9d86-9216cc3b3554"},"vehicle_type_id":"4","last_reported":1770399169,"current_range_meters":7200,"station_id":"ce4bhgh2rcd13ifvqfb0","pricing_plan_id":"cebpf4jnsgd1na2vs0mg"},{"bike_id":"5b51c4ea-ebad-4648-a4a1-56b9e8ab1de9","system_id":"levelo_inurba_marseille","lat":43.28509,"lon":5.48408,"is_reserved":false,"is_disabled":false,"rental_uris":{"android":"levelo://app?vid=5b51c4ea-ebad-4648-a4a1-56b9e8ab1de9","ios":"levelo://app?vid=5b51c4ea-ebad-4648-a4a1-56b9e8ab1de9"},"vehicle_type_id":"4","last_reported":1770399169,"current_range_meters":7200,"station_id":"st_d3svhcjqgbts73a3dn0g","pricing_plan_id":"cebpf4jnsgd1na2vs0mg"},{"bike_id":"736f2375-0758-4fe7-a612-661d1c666e06","system_id":"levelo_inurba_marseille","lat":43.2861,"lon":5.37061,"is_reserved":false,"is_disabled":false,"rental_uris":{"android":"levelo://app?vid=736f2375-0758-4fe7-a612-661d1c666e06","ios":"levelo://app?vid=736f2375-0758-4fe7-a612-661d1c666e06"},"vehicle_type_id":"4","last_reported":1770399169,"current_range_meters":7200,"station_id":"ce4bht12rcd13ifvqi60","pricing_plan_id":"cebpf4jnsgd1na2vs0mg"},{"bike_id":"5f182a32-85ec-4eca-8ee7-ebbed161cae2","system_id":"levelo_inurba_marseille","lat":43.26192,"lon":5.37444,"is_reserved":false,"is_disabled":false,"rental_uris":{"android":"levelo://app?vid=5f182a32-85ec-4eca-8ee7-ebbed161cae2","ios":"levelo://app?vid=5f182a32-85ec-4eca-8ee7-ebbed161cae2"},"vehicle_type_id":"4","last_reported":1770399169,"current_range_meters":7200,"station_id":"ce4bhgp2rcd13ifvqfc0","pricing_plan_id":"cebpf4jnsgd1na2vs0mg"},{"bike_id":"793ed787-e384-4b1e-826e-9edbf8864918","system_id":"levelo_inurba_marseille","lat":43.25715,"lon":5.4112,"is_reserved":false,"is_disabled":false,"rental_uris":{"android":"levelo://app?vid=793ed787-e384-4b1e-826e-9edbf8864918","ios":"levelo://app?vid=793ed787-e384-4b1e-826e-9edbf8864918"},"vehicle_type_id":"4","last_reported":1770399169,"current_range_meters":7200,"station_id":"ce4bhkp2rcd13ifvqgd0","pricing_plan_id":"cebpf4jnsgd1na2vs0mg"},{"bike_id":"9dc6fc10-7695-45e8-8adf-b7e4925405a1","system_id":"levelo_inurba_marseille","lat":43.28451,"lon":5.38545,"is_reserved":false,"is_disabled":false,"rental_uris":{"android":"levelo://app?vid=9dc6fc10-7695-45e8-8adf-b7e4925405a1","ios":"levelo://app?vid=9dc6fc10-7695-45e8-8adf-b7e4925405a1"},"vehicle_type_id":"4","last_reported":1770399169,"current_range_meters":7200,"station_id":"ce4bh8p2rcd13ifvqeb0","pricing_plan_id":"cebpf4jnsgd1na2vs0mg"},{"bike_id":"968a1130-5ab4-497c-b27f-cb61b0d6cd96","system_id":"levelo_inurba_marseille","lat":43.30241,"lon":5.37731,"is_reserved":false,"is_disabled":false,"rental_uris":{"android":"levelo://app?vid=968a1130-5ab4-497c-b27f-cb61b0d6cd96","ios":"levelo://app?vid=968a1130-5ab4-497c-b27f-cb61b0d6cd96"},"vehicle_type_id":"4","last_reported":1770399169,"current_range_meters":7200,"station_id":"ce4bguh2rcd13ifvqcj0","pricing_plan_id":"cebpf4jnsgd1na2vs0mg"},{"bike_id":"123dc218-4a47-43cd-8d97-26195e21eefc","system_id":"levelo_inurba_marseille","lat":43.30246,"lon":5.40074,"is_reserved":false,"is_disabled":false,"rental_uris":{"android":"levelo://app?vid=123dc218-4a47-43cd-8d97-26195e21eefc","ios":"levelo://app?vid=123dc218-4a47-43cd-8d97-26195e21eefc"},"vehicle_type_id":"4","last_reported":1770399169,"current_range_meters":8000,"station_id":"ce4bgvh2rcd13ifvqcs0","pricing_plan_id":"cebpf4jnsgd1na2vs0mg"},{"bike_id":"379685d2-9e90-4f9b-bb24-a80a4545550e","system_id":"levelo_inurba_marseille","lat":43.298153,"lon":5.440688,"is_reserved":false,"is_disabled":false,"rental_uris":{"android":"levelo://app?vid=379685d2-9e90-4f9b-bb24-a80a4545550e","ios":"levelo://app?vid=379685d2-9e90-4f9b-bb24-a80a4545550e"},"vehicle_type_id":"4","last_reported":1770399169,"current_range_meters":8000,"station_id":"st_d3jp68qikq2c7381ktn0","pricing_plan_id":"cebpf4jnsgd1na2vs0mg"},{"bike_id":"6c826141-83c8-450c-bb51-8b69baba0bf3","system_id":"levelo_inurba_marseille","lat":43.26675,"lon":5.40776,"is_reserved":false,"is_disabled":false,"rental_uris":{"android":"levelo://app?vid=6c826141-83c8-450c-bb51-8b69baba0bf3","ios":"levelo://app?vid=6c826141-83c8-450c-bb51-8b69baba0bf3"},"vehicle_type_id":"4","last_reported":1770399169,"current_range_meters":8000,"station_id":"","pricing_plan_id":"cebpf4jnsgd1na2vs0mg"},{"bike_id":"5514686a-b854-4db2-9779-3506b95972b1","system_id":"levelo_inurba_marseille","lat":43.23093,"lon":5.43694,"is_reserved":false,"is_disabled":false,"rental_uris":{"android":"levelo://app?vid=5514686a-b854-4db2-9779-3506b95972b1","ios":"levelo://app?vid=5514686a-b854-4db2-9779-3506b95972b1"},"vehicle_type_id":"4","last_reported":1770399169,"current_range_meters":8000,"station_id":"","pricing_plan_id":"cebpf4jnsgd1na2vs0mg"},{"bike_id":"e36d57dd-e399-496c-b7b7-30c470193bc7","system_id":"levelo_inurba_marseille","lat":43.26681,"lon":5.3827,"is_reserved":false,"is_disabled":false,"rental_uris":{"android":"levelo://app?vid=e36d57dd-e399-496c-b7b7-30c470193bc7","ios":"levelo://app?vid=e36d57dd-e399-496c-b7b7-30c470193bc7"},"vehicle_type_id":"4","last_reported":1770399169,"current_range_meters":8000,"station_id":"ce4bhg92rcd13ifvqf90","pricing_plan_id":"cebpf4jnsgd1na2vs0mg"},{"bike_id":"66d4f07c-f956-4ddd-856d-10dc3144e894","system_id":"levelo_inurba_marseille","lat":43.30526,"lon":5.36721,"is_reserved":false,"is_disabled":false,"rental_uris":{"android":"levelo://app?vid=66d4f07c-f956-4ddd-856d-10dc3144e894","ios":"levelo://app?vid=66d4f07c-f956-4ddd-856d-10dc3144e894"},"vehicle_type_id":"4","last_reported":1770399169,"current_range_meters":8000,"station_id":"ce4bgrp2rcd13ifvqc9g","pricing_plan_id":"cebpf4jnsgd1na2vs0mg"},{"bike_id":"06067d50-621a-4156-a9c6-d1c238246e1f","system_id":"levelo_inurba_marseille","lat":43.2953,"lon":5.38553,"is_reserved":false,"is_disabled":false,"rental_uris":{"android":"levelo://app?vid=06067d50-621a-4156-a9c6-d1c238246e1f","ios":"levelo://app?vid=06067d50-621a-4156-a9c6-d1c238246e1f"},"vehicle_type_id":"4","last_reported":1770399169,"current_range_meters":8000,"station_id":"ce4bgih2rcd13ifvqba0","pricing_plan_id":"cebpf4jnsgd1na2vs0mg"},{"bike_id":"98b89a63-b3c9-4748-8f93-0ccb5ab9560d","system_id":"levelo_inurba_marseille","lat":43.265432,"lon":5.372976,"is_reserved":false,"is_disabled":false,"rental_uris":{"android":"levelo://app?vid=98b89a63-b3c9-4748-8f93-0ccb5ab9560d","ios":"levelo://app?vid=98b89a63-b3c9-4748-8f93-0ccb5ab9560d"},"vehicle_type_id":"4","last_reported":1770399169,"current_range_meters":8000,"station_id":"ce4bhg12rcd13ifvqf70","pricing_plan_id":"cebpf4jnsgd1na2vs0mg"},{"bike_id":"dd437957-0aff-4547-95a7-4714be39c933","system_id":"levelo_inurba_marseille","lat":43.28814,"lon":5.38927,"is_reserved":false,"is_disabled":false,"rental_uris":{"android":"levelo://app?vid=dd437957-0aff-4547-95a7-4714be39c933","ios":"levelo://app?vid=dd437957-0aff-4547-95a7-4714be39c933"},"vehicle_type_id":"4","last_reported":1770399169,"current_range_meters":8000,"station_id":"ce4bho92rcd13ifvqh4g","pricing_plan_id":"cebpf4jnsgd1na2vs0mg"},{"bike_id":"4fa48ffa-eb76-4ee1-8653-9d1f1a78ebdc","system_id":"levelo_inurba_marseille","lat":43.30933,"lon":5.4014,"is_reserved":false,"is_disabled":false,"rental_uris":{"android":"levelo://app?vid=4fa48ffa-eb76-4ee1-8653-9d1f1a78ebdc","ios":"levelo://app?vid=4fa48ffa-eb76-4ee1-8653-9d1f1a78ebdc"},"vehicle_type_id":"4","last_reported":1770399169,"current_range_meters":8000,"station_id":"ce4bgvp2rcd13ifvqct0","pricing_plan_id":"cebpf4jnsgd1na2vs0mg"},{"bike_id":"f5da9401-db7e-426f-9a0f-2330a30b8658","system_id":"levelo_inurba_marseille","lat":43.243897,"lon":5.370773,"is_reserved":false,"is_disabled":true,"rental_uris":{"android":"levelo://app?vid=f5da9401-db7e-426f-9a0f-2330a30b8658","ios":"levelo://app?vid=f5da9401-db7e-426f-9a0f-2330a30b8658"},"vehicle_type_id":"4","last_reported":1770399169,"current_range_meters":8000,"station_id":"ce4bhhh2rcd13ifvqfk0","pricing_plan_id":"cebpf4jnsgd1na2vs0mg"},{"bike_id":"728b8739-abf6-4ecd-b814-bff7af063d91","system_id":"levelo_inurba_marseille","lat":43.30114,"lon":5.39078,"is_reserved":false,"is_disabled":false,"rental_uris":{"android":"levelo://app?vid=728b8739-abf6-4ecd-b814-bff7af063d91","ios":"levelo://app?vid=728b8739-abf6-4ecd-b814-bff7af063d91"},"vehicle_type_id":"4","last_reported":1770399169,"current_range_meters":8000,"station_id":"ce4bh192rcd13ifvqdb0","pricing_plan_id":"cebpf4jnsgd1na2vs0mg"},{"bike_id":"4573242e-b265-4331-b57e-964b4ba015f2","system_id":"levelo_inurba_marseille","lat":43.26211,"lon":5.37445,"is_reserved":false,"is_disabled":false,"rental_uris":{"android":"levelo://app?vid=4573242e-b265-4331-b57e-964b4ba015f2","ios":"levelo://app?vid=4573242e-b265-4331-b57e-964b4ba015f2"},"vehicle_type_id":"4","last_reported":1770399169,"current_range_meters":8000,"station_id":"ce4bhgp2rcd13ifvqfc0","pricing_plan_id":"cebpf4jnsgd1na2vs0mg"},{"bike_id":"b53a7d14-2e51-421a-988d-b8ea59b98909","system_id":"levelo_inurba_marseille","lat":43.273593,"lon":5.362272,"is_reserved":false,"is_disabled":false,"rental_uris":{"android":"levelo://app?vid=b53a7d14-2e51-421a-988d-b8ea59b98909","ios":"levelo://app?vid=b53a7d14-2e51-421a-988d-b8ea59b98909"},"vehicle_type_id":"4","last_reported":1770399169,"current_range_meters":8000,"station_id":"ce4bhbh2rcd13ifvqeo0","pricing_plan_id":"cebpf4jnsgd1na2vs0mg"},{"bike_id":"b7fc64ee-0a1a-4639-af60-46d03219d45f","system_id":"levelo_inurba_marseille","lat":43.23196,"lon":5.35553,"is_reserved":false,"is_disabled":false,"rental_uris":{"android":"levelo://app?vid=b7fc64ee-0a1a-4639-af60-46d03219d45f","ios":"levelo://app?vid=b7fc64ee-0a1a-4639-af60-46d03219d45f"},"vehicle_type_id":"4","last_reported":1770399169,"current_range_meters":8000,"station_id":"ce4bhu92rcd13ifvqi70","pricing_plan_id":"cebpf4jnsgd1na2vs0mg"},{"bike_id":"88e08699-5487-44b2-af39-249133d81916","system_id":"levelo_inurba_marseille","lat":43.2582,"lon":5.39435,"is_reserved":false,"is_disabled":false,"rental_uris":{"android":"levelo://app?vid=88e08699-5487-44b2-af39-249133d81916","ios":"levelo://app?vid=88e08699-5487-44b2-af39-249133d81916"},"vehicle_type_id":"4","last_reported":1770399169,"current_range_meters":8000,"station_id":"ce4bhip2rcd13ifvqft0","pricing_plan_id":"cebpf4jnsgd1na2vs0mg"},{"bike_id":"60ca853d-c339-47db-9e29-6229ff2c1b26","system_id":"levelo_inurba_marseille","lat":43.256758,"lon":5.410484,"is_reserved":false,"is_disabled":false,"rental_uris":{"android":"levelo://app?vid=60ca853d-c339-47db-9e29-6229ff2c1b26","ios":"levelo://app?vid=60ca853d-c339-47db-9e29-6229ff2c1b26"},"vehicle_type_id":"4","last_reported":1770399169,"current_range_meters":8000,"station_id":"ce4bhkp2rcd13ifvqgd0","pricing_plan_id":"cebpf4jnsgd1na2vs0mg"},{"bike_id":"9c9bd7ff-ed0c-45e6-a81c-06266557dbe0","system_id":"levelo_inurba_marseille","lat":43.30131,"lon":5.38786,"is_reserved":false,"is_disabled":false,"rental_uris":{"android":"levelo://app?vid=9c9bd7ff-ed0c-45e6-a81c-06266557dbe0","ios":"levelo://app?vid=9c9bd7ff-ed0c-45e6-a81c-06266557dbe0"},"vehicle_type_id":"4","last_reported":1770399169,"current_range_meters":8000,"station_id":"ce4bghh2rcd13ifvqb60","pricing_plan_id":"cebpf4jnsgd1na2vs0mg"},{"bike_id":"66ac484a-7a0c-4d64-bcea-4a863811aeba","system_id":"levelo_inurba_marseille","lat":43.29905,"lon":5.43652,"is_reserved":false,"is_disabled":true,"rental_uris":{"android":"levelo://app?vid=66ac484a-7a0c-4d64-bcea-4a863811aeba","ios":"levelo://app?vid=66ac484a-7a0c-4d64-bcea-4a863811aeba"},"vehicle_type_id":"4","last_reported":1770399169,"current_range_meters":8000,"station_id":"ce4bhpp2rcd13ifvqhfg","pricing_plan_id":"cebpf4jnsgd1na2vs0mg"},{"bike_id":"efbe792f-1198-41b4-852b-4a2323f0ee78","system_id":"levelo_inurba_marseille","lat":43.25005,"lon":5.38944,"is_reserved":false,"is_disabled":false,"rental_uris":{"android":"levelo://app?vid=efbe792f-1198-41b4-852b-4a2323f0ee78","ios":"levelo://app?vid=efbe792f-1198-41b4-852b-4a2323f0ee78"},"vehicle_type_id":"4","last_reported":1770399169,"current_range_meters":8000,"station_id":"ce4bhgp2rcd13ifvqfd0","pricing_plan_id":"cebpf4jnsgd1na2vs0mg"},{"bike_id":"b76c3383-61a4-4d64-be99-c122e4826803","system_id":"levelo_inurba_marseille","lat":43.24548,"lon":5.39534,"is_reserved":false,"is_disabled":false,"rental_uris":{"android":"levelo://app?vid=b76c3383-61a4-4d64-be99-c122e4826803","ios":"levelo://app?vid=b76c3383-61a4-4d64-be99-c122e4826803"},"vehicle_type_id":"4","last_reported":1770399169,"current_range_meters":8400,"station_id":"ce4bhlp2rcd13ifvqgjg","pricing_plan_id":"cebpf4jnsgd1na2vs0mg"},{"bike_id":"071937d3-6d39-428f-88a6-e135b0e61119","system_id":"levelo_inurba_marseille","lat":43.31047,"lon":5.37194,"is_reserved":false,"is_disabled":false,"rental_uris":{"android":"levelo://app?vid=071937d3-6d39-428f-88a6-e135b0e61119","ios":"levelo://app?vid=071937d3-6d39-428f-88a6-e135b0e61119"},"vehicle_type_id":"4","last_reported":1770399169,"current_range_meters":8400,"station_id":"st_d4kl2rp97mjs73e7tdfg","pricing_plan_id":"cebpf4jnsgd1na2vs0mg"},{"bike_id":"5e9d7b89-ee8f-42bc-87df-a5a05a1d1db8","system_id":"levelo_inurba_marseille","lat":43.24259,"lon":5.39667,"is_reserved":false,"is_disabled":false,"rental_uris":{"android":"levelo://app?vid=5e9d7b89-ee8f-42bc-87df-a5a05a1d1db8","ios":"levelo://app?vid=5e9d7b89-ee8f-42bc-87df-a5a05a1d1db8"},"vehicle_type_id":"4","last_reported":1770399169,"current_range_meters":8400,"station_id":"","pricing_plan_id":"cebpf4jnsgd1na2vs0mg"},{"bike_id":"d1c18459-8912-48b2-9ab2-628926a6221e","system_id":"levelo_inurba_marseille","lat":43.297917,"lon":5.393446,"is_reserved":false,"is_disabled":false,"rental_uris":{"android":"levelo://app?vid=d1c18459-8912-48b2-9ab2-628926a6221e","ios":"levelo://app?vid=d1c18459-8912-48b2-9ab2-628926a6221e"},"vehicle_type_id":"4","last_reported":1770399169,"current_range_meters":8400,"station_id":"chh1huq6cuj3fo74tm60","pricing_plan_id":"cebpf4jnsgd1na2vs0mg"},{"bike_id":"0e8426bc-bfb2-4d5a-833c-8d0870f5bdff","system_id":"levelo_inurba_marseille","lat":43.324906,"lon":5.382854,"is_reserved":false,"is_disabled":false,"rental_uris":{"android":"levelo://app?vid=0e8426bc-bfb2-4d5a-833c-8d0870f5bdff","ios":"levelo://app?vid=0e8426bc-bfb2-4d5a-833c-8d0870f5bdff"},"vehicle_type_id":"4","last_reported":1770399169,"current_range_meters":8400,"station_id":"st_d4asgbiv49dc73anf9m0","pricing_plan_id":"cebpf4jnsgd1na2vs0mg"},{"bike_id":"c6e25874-c646-4223-9fb1-4a2c71cb2059","system_id":"levelo_inurba_marseille","lat":43.31225,"lon":5.3682,"is_reserved":false,"is_disabled":false,"rental_uris":{"android":"levelo://app?vid=c6e25874-c646-4223-9fb1-4a2c71cb2059","ios":"levelo://app?vid=c6e25874-c646-4223-9fb1-4a2c71cb2059"},"vehicle_type_id":"4","last_reported":1770399169,"current_range_meters":8400,"station_id":"ce4bgl92rcd13ifvqbq0","pricing_plan_id":"cebpf4jnsgd1na2vs0mg"},{"bike_id":"ed893eda-4c58-48b4-bf63-60333d7ae950","system_id":"levelo_inurba_marseille","lat":43.25078,"lon":5.39507,"is_reserved":false,"is_disabled":false,"rental_uris":{"android":"levelo://app?vid=ed893eda-4c58-48b4-bf63-60333d7ae950","ios":"levelo://app?vid=ed893eda-4c58-48b4-bf63-60333d7ae950"},"vehicle_type_id":"4","last_reported":1770399169,"current_range_meters":8400,"station_id":"ce4bhm12rcd13ifvqgkg","pricing_plan_id":"cebpf4jnsgd1na2vs0mg"},{"bike_id":"34b0e592-5a12-495a-a81b-b7a9e8350c09","system_id":"levelo_inurba_marseille","lat":43.284148,"lon":5.349948,"is_reserved":false,"is_disabled":false,"rental_uris":{"android":"levelo://app?vid=34b0e592-5a12-495a-a81b-b7a9e8350c09","ios":"levelo://app?vid=34b0e592-5a12-495a-a81b-b7a9e8350c09"},"vehicle_type_id":"4","last_reported":1770399169,"current_range_meters":8400,"station_id":"ce4bhbh2rcd13ifvqepg","pricing_plan_id":"cebpf4jnsgd1na2vs0mg"},{"bike_id":"675ec433-caf3-4517-83f9-75769cd57605","system_id":"levelo_inurba_marseille","lat":43.321011,"lon":5.367771,"is_reserved":false,"is_disabled":false,"rental_uris":{"android":"levelo://app?vid=675ec433-caf3-4517-83f9-75769cd57605","ios":"levelo://app?vid=675ec433-caf3-4517-83f9-75769cd57605"},"vehicle_type_id":"4","last_reported":1770399169,"current_range_meters":8400,"station_id":"ce4bhrh2rcd13ifvqhug","pricing_plan_id":"cebpf4jnsgd1na2vs0mg"},{"bike_id":"245249d5-368b-405e-963d-422763a9662b","system_id":"levelo_inurba_marseille","lat":43.25105,"lon":5.40345,"is_reserved":false,"is_disabled":false,"rental_uris":{"android":"levelo://app?vid=245249d5-368b-405e-963d-422763a9662b","ios":"levelo://app?vid=245249d5-368b-405e-963d-422763a9662b"},"vehicle_type_id":"4","last_reported":1770399169,"current_range_meters":8400,"station_id":"ce4bhlh2rcd13ifvqgig","pricing_plan_id":"cebpf4jnsgd1na2vs0mg"},{"bike_id":"adfdce83-5160-451d-875c-3c98397c50af","system_id":"levelo_inurba_marseille","lat":43.28474,"lon":5.39078,"is_reserved":false,"is_disabled":false,"rental_uris":{"android":"levelo://app?vid=adfdce83-5160-451d-875c-3c98397c50af","ios":"levelo://app?vid=adfdce83-5160-451d-875c-3c98397c50af"},"vehicle_type_id":"4","last_reported":1770399169,"current_range_meters":8400,"station_id":"","pricing_plan_id":"cebpf4jnsgd1na2vs0mg"},{"bike_id":"731447a5-bd31-4208-aa2f-c0645944403a","system_id":"levelo_inurba_marseille","lat":43.24599,"lon":5.43161,"is_reserved":false,"is_disabled":false,"rental_uris":{"android":"levelo://app?vid=731447a5-bd31-4208-aa2f-c0645944403a","ios":"levelo://app?vid=731447a5-bd31-4208-aa2f-c0645944403a"},"vehicle_type_id":"4","last_reported":1770399169,"current_range_meters":8400,"station_id":"st_d2m6c4gdas8pm72e190g","pricing_plan_id":"cebpf4jnsgd1na2vs0mg"},{"bike_id":"593a6190-0aaf-4cba-9c2a-c9ddd272720d","system_id":"levelo_inurba_marseille","lat":43.29094,"lon":5.38125,"is_reserved":false,"is_disabled":false,"rental_uris":{"android":"levelo://app?vid=593a6190-0aaf-4cba-9c2a-c9ddd272720d","ios":"levelo://app?vid=593a6190-0aaf-4cba-9c2a-c9ddd272720d"},"vehicle_type_id":"4","last_reported":1770399169,"current_range_meters":8400,"station_id":"ce4bh512rcd13ifvqe2g","pricing_plan_id":"cebpf4jnsgd1na2vs0mg"},{"bike_id":"651a1f03-9041-47f3-9a0b-971a8399b544","system_id":"levelo_inurba_marseille","lat":43.31188,"lon":5.38706,"is_reserved":false,"is_disabled":true,"rental_uris":{"android":"levelo://app?vid=651a1f03-9041-47f3-9a0b-971a8399b544","ios":"levelo://app?vid=651a1f03-9041-47f3-9a0b-971a8399b544"},"vehicle_type_id":"4","last_reported":1770399169,"current_range_meters":8400,"station_id":"ce4bgv12rcd13ifvqcp0","pricing_plan_id":"cebpf4jnsgd1na2vs0mg"},{"bike_id":"65f030ae-5966-4ac9-84f9-d08a6b62ebfd","system_id":"levelo_inurba_marseille","lat":43.262306,"lon":5.404479,"is_reserved":false,"is_disabled":false,"rental_uris":{"android":"levelo://app?vid=65f030ae-5966-4ac9-84f9-d08a6b62ebfd","ios":"levelo://app?vid=65f030ae-5966-4ac9-84f9-d08a6b62ebfd"},"vehicle_type_id":"4","last_reported":1770399169,"current_range_meters":8400,"station_id":"ce4bhmh2rcd13ifvqgmg","pricing_plan_id":"cebpf4jnsgd1na2vs0mg"},{"bike_id":"0c612691-dc2e-4b8c-a828-2dec429e0473","system_id":"levelo_inurba_marseille","lat":43.229202,"lon":5.353648,"is_reserved":false,"is_disabled":false,"rental_uris":{"android":"levelo://app?vid=0c612691-dc2e-4b8c-a828-2dec429e0473","ios":"levelo://app?vid=0c612691-dc2e-4b8c-a828-2dec429e0473"},"vehicle_type_id":"4","last_reported":1770399169,"current_range_meters":8400,"station_id":"cpo3532slgdg3j2ikp40","pricing_plan_id":"cebpf4jnsgd1na2vs0mg"},{"bike_id":"9663c816-7897-4c4c-8342-1bb33eba992c","system_id":"levelo_inurba_marseille","lat":43.3031,"lon":5.39209,"is_reserved":false,"is_disabled":false,"rental_uris":{"android":"levelo://app?vid=9663c816-7897-4c4c-8342-1bb33eba992c","ios":"levelo://app?vid=9663c816-7897-4c4c-8342-1bb33eba992c"},"vehicle_type_id":"4","last_reported":1770399169,"current_range_meters":8400,"station_id":"ce4bgkh2rcd13ifvqbk0","pricing_plan_id":"cebpf4jnsgd1na2vs0mg"},{"bike_id":"25cba7e8-de80-4ded-bc90-466ea0916823","system_id":"levelo_inurba_marseille","lat":43.30547,"lon":5.3673,"is_reserved":false,"is_disabled":false,"rental_uris":{"android":"levelo://app?vid=25cba7e8-de80-4ded-bc90-466ea0916823","ios":"levelo://app?vid=25cba7e8-de80-4ded-bc90-466ea0916823"},"vehicle_type_id":"4","last_reported":1770399169,"current_range_meters":8400,"station_id":"ce4bgrp2rcd13ifvqc9g","pricing_plan_id":"cebpf4jnsgd1na2vs0mg"},{"bike_id":"c65ee838-9f7d-4c27-9ebf-55f173988146","system_id":"levelo_inurba_marseille","lat":43.248093,"lon":5.374585,"is_reserved":false,"is_disabled":false,"rental_uris":{"android":"levelo://app?vid=c65ee838-9f7d-4c27-9ebf-55f173988146","ios":"levelo://app?vid=c65ee838-9f7d-4c27-9ebf-55f173988146"},"vehicle_type_id":"4","last_reported":1770399169,"current_range_meters":8400,"station_id":"ce4bhgh2rcd13ifvqfb0","pricing_plan_id":"cebpf4jnsgd1na2vs0mg"},{"bike_id":"3e71a5a2-7c2f-46e9-aeca-bd8c011ccc73","system_id":"levelo_inurba_marseille","lat":43.2794,"lon":5.41045,"is_reserved":false,"is_disabled":false,"rental_uris":{"android":"levelo://app?vid=3e71a5a2-7c2f-46e9-aeca-bd8c011ccc73","ios":"levelo://app?vid=3e71a5a2-7c2f-46e9-aeca-bd8c011ccc73"},"vehicle_type_id":"4","last_reported":1770399169,"current_range_meters":8400,"station_id":"ce4bhnp2rcd13ifvqh0g","pricing_plan_id":"cebpf4jnsgd1na2vs0mg"},{"bike_id":"46914982-ca62-4f37-97de-0a895e65ba8f","system_id":"levelo_inurba_marseille","lat":43.28426,"lon":5.39191,"is_reserved":false,"is_disabled":false,"rental_uris":{"android":"levelo://app?vid=46914982-ca62-4f37-97de-0a895e65ba8f","ios":"levelo://app?vid=46914982-ca62-4f37-97de-0a895e65ba8f"},"vehicle_type_id":"4","last_reported":1770399169,"current_range_meters":8400,"station_id":"ce4bhoh2rcd13ifvqh5g","pricing_plan_id":"cebpf4jnsgd1na2vs0mg"},{"bike_id":"90e746c4-3c68-4b0d-b714-80cbcf9e7ffe","system_id":"levelo_inurba_marseille","lat":43.25585,"lon":5.38217,"is_reserved":false,"is_disabled":false,"rental_uris":{"android":"levelo://app?vid=90e746c4-3c68-4b0d-b714-80cbcf9e7ffe","ios":"levelo://app?vid=90e746c4-3c68-4b0d-b714-80cbcf9e7ffe"},"vehicle_type_id":"4","last_reported":1770399169,"current_range_meters":8400,"station_id":"ce4bhih2rcd13ifvqfs0","pricing_plan_id":"cebpf4jnsgd1na2vs0mg"},{"bike_id":"29554745-e0e5-4276-b587-71d331cae345","system_id":"levelo_inurba_marseille","lat":43.29527,"lon":5.39035,"is_reserved":false,"is_disabled":true,"rental_uris":{"android":"levelo://app?vid=29554745-e0e5-4276-b587-71d331cae345","ios":"levelo://app?vid=29554745-e0e5-4276-b587-71d331cae345"},"vehicle_type_id":"4","last_reported":1770399169,"current_range_meters":8400,"station_id":"ce4bh3p2rcd13ifvqdp0","pricing_plan_id":"cebpf4jnsgd1na2vs0mg"},{"bike_id":"7befcc89-3108-4572-9e8f-65d86e7b4069","system_id":"levelo_inurba_marseille","lat":43.33024,"lon":5.39038,"is_reserved":false,"is_disabled":false,"rental_uris":{"android":"levelo://app?vid=7befcc89-3108-4572-9e8f-65d86e7b4069","ios":"levelo://app?vid=7befcc89-3108-4572-9e8f-65d86e7b4069"},"vehicle_type_id":"4","last_reported":1770399169,"current_range_meters":8400,"station_id":"ce4bhr92rcd13ifvqhrg","pricing_plan_id":"cebpf4jnsgd1na2vs0mg"},{"bike_id":"f06f4293-6bda-483f-936c-96eb449eed8b","system_id":"levelo_inurba_marseille","lat":43.25815,"lon":5.3941,"is_reserved":false,"is_disabled":false,"rental_uris":{"android":"levelo://app?vid=f06f4293-6bda-483f-936c-96eb449eed8b","ios":"levelo://app?vid=f06f4293-6bda-483f-936c-96eb449eed8b"},"vehicle_type_id":"4","last_reported":1770399169,"current_range_meters":8400,"station_id":"ce4bhip2rcd13ifvqft0","pricing_plan_id":"cebpf4jnsgd1na2vs0mg"},{"bike_id":"9884fbf9-5e75-4404-9321-fbbc973e0d42","system_id":"levelo_inurba_marseille","lat":43.299046,"lon":5.38141,"is_reserved":false,"is_disabled":false,"rental_uris":{"android":"levelo://app?vid=9884fbf9-5e75-4404-9321-fbbc973e0d42","ios":"levelo://app?vid=9884fbf9-5e75-4404-9321-fbbc973e0d42"},"vehicle_type_id":"4","last_reported":1770399169,"current_range_meters":8400,"station_id":"ce4bgj12rcd13ifvqbc0","pricing_plan_id":"cebpf4jnsgd1na2vs0mg"},{"bike_id":"346787f4-b208-43b3-a13c-6d535139ef57","system_id":"levelo_inurba_marseille","lat":43.29895,"lon":5.43675,"is_reserved":false,"is_disabled":false,"rental_uris":{"android":"levelo://app?vid=346787f4-b208-43b3-a13c-6d535139ef57","ios":"levelo://app?vid=346787f4-b208-43b3-a13c-6d535139ef57"},"vehicle_type_id":"4","last_reported":1770399169,"current_range_meters":8800,"station_id":"ce4bhpp2rcd13ifvqhfg","pricing_plan_id":"cebpf4jnsgd1na2vs0mg"},{"bike_id":"15a3e00a-e415-4bc9-8ff7-ed96b5a8614d","system_id":"levelo_inurba_marseille","lat":43.30204,"lon":5.38262,"is_reserved":false,"is_disabled":false,"rental_uris":{"android":"levelo://app?vid=15a3e00a-e415-4bc9-8ff7-ed96b5a8614d","ios":"levelo://app?vid=15a3e00a-e415-4bc9-8ff7-ed96b5a8614d"},"vehicle_type_id":"4","last_reported":1770399169,"current_range_meters":8800,"station_id":"","pricing_plan_id":"cebpf4jnsgd1na2vs0mg"},{"bike_id":"e230ad40-1858-482f-9fc2-5744834e038e","system_id":"levelo_inurba_marseille","lat":43.29843,"lon":5.36276,"is_reserved":false,"is_disabled":false,"rental_uris":{"android":"levelo://app?vid=e230ad40-1858-482f-9fc2-5744834e038e","ios":"levelo://app?vid=e230ad40-1858-482f-9fc2-5744834e038e"},"vehicle_type_id":"4","last_reported":1770399169,"current_range_meters":8800,"station_id":"ce4bgpp2rcd13ifvqc3g","pricing_plan_id":"cebpf4jnsgd1na2vs0mg"},{"bike_id":"1d0ef12e-4bb8-4d8d-9509-0260b1aa5347","system_id":"levelo_inurba_marseille","lat":43.24391,"lon":5.37062,"is_reserved":false,"is_disabled":false,"rental_uris":{"android":"levelo://app?vid=1d0ef12e-4bb8-4d8d-9509-0260b1aa5347","ios":"levelo://app?vid=1d0ef12e-4bb8-4d8d-9509-0260b1aa5347"},"vehicle_type_id":"4","last_reported":1770399169,"current_range_meters":8800,"station_id":"ce4bhhh2rcd13ifvqfk0","pricing_plan_id":"cebpf4jnsgd1na2vs0mg"},{"bike_id":"152aab5a-1f0e-441e-b1f1-9112c01f295e","system_id":"levelo_inurba_marseille","lat":43.29005,"lon":5.35615,"is_reserved":false,"is_disabled":false,"rental_uris":{"android":"levelo://app?vid=152aab5a-1f0e-441e-b1f1-9112c01f295e","ios":"levelo://app?vid=152aab5a-1f0e-441e-b1f1-9112c01f295e"},"vehicle_type_id":"4","last_reported":1770399169,"current_range_meters":8800,"station_id":"ce4bhb92rcd13ifvqen0","pricing_plan_id":"cebpf4jnsgd1na2vs0mg"},{"bike_id":"9d9ada7e-8bfb-4948-82e1-5314689a8b39","system_id":"levelo_inurba_marseille","lat":43.33528,"lon":5.37468,"is_reserved":false,"is_disabled":false,"rental_uris":{"android":"levelo://app?vid=9d9ada7e-8bfb-4948-82e1-5314689a8b39","ios":"levelo://app?vid=9d9ada7e-8bfb-4948-82e1-5314689a8b39"},"vehicle_type_id":"4","last_reported":1770399169,"current_range_meters":8800,"station_id":"st_d46tts09ee8s73dlu43g","pricing_plan_id":"cebpf4jnsgd1na2vs0mg"},{"bike_id":"11d4fc98-b1e1-4ce2-a0d6-e5f916889f2b","system_id":"levelo_inurba_marseille","lat":43.28461,"lon":5.35879,"is_reserved":false,"is_disabled":false,"rental_uris":{"android":"levelo://app?vid=11d4fc98-b1e1-4ce2-a0d6-e5f916889f2b","ios":"levelo://app?vid=11d4fc98-b1e1-4ce2-a0d6-e5f916889f2b"},"vehicle_type_id":"4","last_reported":1770399169,"current_range_meters":8800,"station_id":"ce4bhah2rcd13ifvqei0","pricing_plan_id":"cebpf4jnsgd1na2vs0mg"},{"bike_id":"a5faf7a6-7f2f-419a-b628-e8f939b70083","system_id":"levelo_inurba_marseille","lat":43.28518,"lon":5.44093,"is_reserved":false,"is_disabled":false,"rental_uris":{"android":"levelo://app?vid=a5faf7a6-7f2f-419a-b628-e8f939b70083","ios":"levelo://app?vid=a5faf7a6-7f2f-419a-b628-e8f939b70083"},"vehicle_type_id":"4","last_reported":1770399169,"current_range_meters":8800,"station_id":"st_d3j3df2ikq2c7380ej80","pricing_plan_id":"cebpf4jnsgd1na2vs0mg"},{"bike_id":"b0c3d441-fa9a-4312-858a-e0f5eaf46fd5","system_id":"levelo_inurba_marseille","lat":43.32117,"lon":5.36757,"is_reserved":false,"is_disabled":false,"rental_uris":{"android":"levelo://app?vid=b0c3d441-fa9a-4312-858a-e0f5eaf46fd5","ios":"levelo://app?vid=b0c3d441-fa9a-4312-858a-e0f5eaf46fd5"},"vehicle_type_id":"4","last_reported":1770399169,"current_range_meters":8800,"station_id":"ce4bhrh2rcd13ifvqhug","pricing_plan_id":"cebpf4jnsgd1na2vs0mg"},{"bike_id":"695a138c-9117-4798-9030-e462ffee3fe5","system_id":"levelo_inurba_marseille","lat":43.24803,"lon":5.3746,"is_reserved":false,"is_disabled":false,"rental_uris":{"android":"levelo://app?vid=695a138c-9117-4798-9030-e462ffee3fe5","ios":"levelo://app?vid=695a138c-9117-4798-9030-e462ffee3fe5"},"vehicle_type_id":"4","last_reported":1770399169,"current_range_meters":8800,"station_id":"ce4bhgh2rcd13ifvqfb0","pricing_plan_id":"cebpf4jnsgd1na2vs0mg"},{"bike_id":"0d61ea5c-743f-4950-91ef-4779ae39f41b","system_id":"levelo_inurba_marseille","lat":43.30518,"lon":5.36724,"is_reserved":false,"is_disabled":false,"rental_uris":{"android":"levelo://app?vid=0d61ea5c-743f-4950-91ef-4779ae39f41b","ios":"levelo://app?vid=0d61ea5c-743f-4950-91ef-4779ae39f41b"},