{"last_updated":1730887801,"ttl":60,"version":"2.2","data":{"bikes":[{"bike_id":"58d3d45f-91d1-4a27-b47e-a8bbb9db727b","system_id":"levelo_inurba_marseille","lat":43.29978,"lon":5.38489,"is_reserved":false,"is_disabled":false,"rental_uris":{"android":"levelo://app?vid=58d3d45f-91d1-4a27-b47e-a8bbb9db727b","ios":"levelo://app?vid=58d3d45f-91d1-4a27-b47e-a8bbb9db727b"},"vehicle_type_id":"4","last_reported":1730887801,"current_range_meters":30400,"station_id":"ce4bgj92rcd13ifvqbd0","pricing_plan_id":"cebpf4jnsgd1na2vs0mg"},{"bike_id":"7ae96026-45f8-4be1-a705-40a234940d94","system_id":"levelo_inurba_marseille","lat":43.280009,"lon":5.400071,"is_reserved":false,"is_disabled":false,"rental_uris":{"android":"levelo://app?vid=7ae96026-45f8-4be1-a705-40a234940d94","ios":"levelo://app?vid=7ae96026-45f8-4be1-a705-40a234940d94"},"vehicle_type_id":"4","last_reported":1730887801,"current_range_meters":34000,"station_id":"ce4bho92rcd13ifvqh4g","pricing_plan_id":"cebpf4jnsgd1na2vs0mg"},{"bike_id":"2c6d37af-5ea3-4ddf-be47-a75a1bd77530","system_id":"levelo_inurba_marseille","lat":43.32544,"lon":5.41452,"is_reserved":false,"is_disabled":false,"rental_uris":{"android":"levelo://app?vid=2c6d37af-5ea3-4ddf-be47-a75a1bd77530","ios":"levelo://app?vid=2c6d37af-5ea3-4ddf-be47-a75a1bd77530"},"vehicle_type_id":"4","last_reported":1730887801,"current_range_meters":33600,"station_id":"ce4bhq12rcd13ifvqhhg","pricing_plan_id":"cebpf4jnsgd1na2vs0mg"},{"bike_id":"d024ca49-630e-4344-9dc4-2694c875c1b5","system_id":"levelo_inurba_marseille","lat":43.31084,"lon":5.42432,"is_reserved":false,"is_disabled":false,"rental_uris":{"android":"levelo://app?vid=d024ca49-630e-4344-9dc4-2694c875c1b5","ios":"levelo://app?vid=d024ca49-630e-4344-9dc4-2694c875c1b5"},"vehicle_type_id":"4","last_reported":1730887801,"current_range_meters":10000,"station_id":"ce4bhp92rcd13ifvqhag","pricing_plan_id":"cebpf4jnsgd1na2vs0mg"},{"bike_id":"e983a3a2-b468-48ef-a374-a54128068ac7","system_id":"levelo_inurba_marseille","lat":43.33029,"lon":5.39036,"is_reserved":false,"is_disabled":false,"rental_uris":{"android":"levelo://app?vid=e983a3a2-b468-48ef-a374-a54128068ac7","ios":"levelo://app?vid=e983a3a2-b468-48ef-a374-a54128068ac7"},"vehicle_type_id":"4","last_reported":1730887801,"current_range_meters":26000,"station_id":"ce4bhr92rcd13ifvqhrg","pricing_plan_id":"cebpf4jnsgd1na2vs0mg"},{"bike_id":"b516a426-badf-48c3-a01a-e6ec2a99a3d2","system_id":"levelo_inurba_marseille","lat":43.27561,"lon":5.38413,"is_reserved":false,"is_disabled":false,"rental_uris":{"android":"levelo://app?vid=b516a426-badf-48c3-a01a-e6ec2a99a3d2","ios":"levelo://app?vid=b516a426-badf-48c3-a01a-e6ec2a99a3d2"},"vehicle_type_id":"4","last_reported":1730887801,"current_range_meters":38800,"station_id":"ce4bhh92rcd13ifvqfi0","pricing_plan_id":"cebpf4jnsgd1na2vs0mg"},{"bike_id":"bc869811-1aad-4ece-b858-9965c373b037","system_id":"levelo_inurba_marseille","lat":43.23157,"lon":5.43698,"is_reserved":false,"is_disabled":false,"rental_uris":{"android":"levelo://app?vid=bc869811-1aad-4ece-b858-9965c373b037","ios":"levelo://app?vid=bc869811-1aad-4ece-b858-9965c373b037"},"vehicle_type_id":"4","last_reported":1730887801,"current_range_meters":37600,"station_id":"ce4bhmp2rcd13ifvqgog","pricing_plan_id":"cebpf4jnsgd1na2vs0mg"},{"bike_id":"6ec4e730-c54a-4330-8601-6a8d69259da3","system_id":"levelo_inurba_marseille","lat":43.24072,"lon":5.37758,"is_reserved":false,"is_disabled":false,"rental_uris":{"android":"levelo://app?vid=6ec4e730-c54a-4330-8601-6a8d69259da3","ios":"levelo://app?vid=6ec4e730-c54a-4330-8601-6a8d69259da3"},"vehicle_type_id":"4","last_reported":1730887801,"current_range_meters":13600,"station_id":"ce4bhnp2rcd13ifvqgvg","pricing_plan_id":"cebpf4jnsgd1na2vs0mg"},{"bike_id":"803e5e3a-3dab-431a-ab1b-30ccc9ea4965","system_id":"levelo_inurba_marseille","lat":43.27501,"lon":5.42465,"is_reserved":false,"is_disabled":false,"rental_uris":{"android":"levelo://app?vid=803e5e3a-3dab-431a-ab1b-30ccc9ea4965","ios":"levelo://app?vid=803e5e3a-3dab-431a-ab1b-30ccc9ea4965"},"vehicle_type_id":"4","last_reported":1730887801,"current_range_meters":38800,"station_id":"ce4bhn92rcd13ifvqgrg","pricing_plan_id":"cebpf4jnsgd1na2vs0mg"},{"bike_id":"eee6a210-68ad-4c56-881c-8e3a55c4368c","system_id":"levelo_inurba_marseille","lat":43.30596,"lon":5.39361,"is_reserved":false,"is_disabled":false,"rental_uris":{"android":"levelo://app?vid=eee6a210-68ad-4c56-881c-8e3a55c4368c","ios":"levelo://app?vid=eee6a210-68ad-4c56-881c-8e3a55c4368c"},"vehicle_type_id":"4","last_reported":1730887801,"current_range_meters":32400,"station_id":"ce4bh0p2rcd13ifvqd80","pricing_plan_id":"cebpf4jnsgd1na2vs0mg"},{"bike_id":"f852993b-13b0-4bbf-bc13-e24a0b02622c","system_id":"levelo_inurba_marseille","lat":43.26195,"lon":5.37445,"is_reserved":false,"is_disabled":false,"rental_uris":{"android":"levelo://app?vid=f852993b-13b0-4bbf-bc13-e24a0b02622c","ios":"levelo://app?vid=f852993b-13b0-4bbf-bc13-e24a0b02622c"},"vehicle_type_id":"4","last_reported":1730887801,"current_range_meters":32000,"station_id":"ce4bhgp2rcd13ifvqfc0","pricing_plan_id":"cebpf4jnsgd1na2vs0mg"},{"bike_id":"6f24135f-ffef-4131-8fbb-c2a781cf1a6b","system_id":"levelo_inurba_marseille","lat":43.26549,"lon":5.37285,"is_reserved":false,"is_disabled":false,"rental_uris":{"android":"levelo://app?vid=6f24135f-ffef-4131-8fbb-c2a781cf1a6b","ios":"levelo://app?vid=6f24135f-ffef-4131-8fbb-c2a781cf1a6b"},"vehicle_type_id":"4","last_reported":1730887801,"current_range_meters":37600,"station_id":"ce4bhg12rcd13ifvqf70","pricing_plan_id":"cebpf4jnsgd1na2vs0mg"},{"bike_id":"aaf896be-23fc-4cde-b212-d643c208e7c1","system_id":"levelo_inurba_marseille","lat":43.3042,"lon":5.41292,"is_reserved":false,"is_disabled":false,"rental_uris":{"android":"levelo://app?vid=aaf896be-23fc-4cde-b212-d643c208e7c1","ios":"levelo://app?vid=aaf896be-23fc-4cde-b212-d643c208e7c1"},"vehicle_type_id":"4","last_reported":1730887801,"current_range_meters":38000,"station_id":"ce4bhop2rcd13ifvqh8g","pricing_plan_id":"cebpf4jnsgd1na2vs0mg"},{"bike_id":"ee568b50-afdd-4d58-8ccb-365cca32f8ef","system_id":"levelo_inurba_marseille","lat":43.28362,"lon":5.38612,"is_reserved":false,"is_disabled":false,"rental_uris":{"android":"levelo://app?vid=ee568b50-afdd-4d58-8ccb-365cca32f8ef","ios":"levelo://app?vid=ee568b50-afdd-4d58-8ccb-365cca32f8ef"},"vehicle_type_id":"4","last_reported":1730887801,"current_range_meters":38800,"station_id":"ce4bh492rcd13ifvqdvg","pricing_plan_id":"cebpf4jnsgd1na2vs0mg"},{"bike_id":"9c6e2c30-6d75-4d4b-a699-ed2b15c692ca","system_id":"levelo_inurba_marseille","lat":43.30157,"lon":5.38084,"is_reserved":false,"is_disabled":false,"rental_uris":{"android":"levelo://app?vid=9c6e2c30-6d75-4d4b-a699-ed2b15c692ca","ios":"levelo://app?vid=9c6e2c30-6d75-4d4b-a699-ed2b15c692ca"},"vehicle_type_id":"4","last_reported":1730887801,"current_range_meters":27600,"station_id":"ce4bgjp2rcd13ifvqbh0","pricing_plan_id":"cebpf4jnsgd1na2vs0mg"},{"bike_id":"53e4a266-9666-4231-847d-f773fcfaddcb","system_id":"levelo_inurba_marseille","lat":43.30815,"lon":5.38166,"is_reserved":false,"is_disabled":false,"rental_uris":{"android":"levelo://app?vid=53e4a266-9666-4231-847d-f773fcfaddcb","ios":"levelo://app?vid=53e4a266-9666-4231-847d-f773fcfaddcb"},"vehicle_type_id":"4","last_reported":1730887801,"current_range_meters":37600,"station_id":"ce4bgt12rcd13ifvqce0","pricing_plan_id":"cebpf4jnsgd1na2vs0mg"},{"bike_id":"87e70852-b10c-42b4-b24b-6df1e0b92e8a","system_id":"levelo_inurba_marseille","lat":43.29308,"lon":5.37168,"is_reserved":false,"is_disabled":false,"rental_uris":{"android":"levelo://app?vid=87e70852-b10c-42b4-b24b-6df1e0b92e8a","ios":"levelo://app?vid=87e70852-b10c-42b4-b24b-6df1e0b92e8a"},"vehicle_type_id":"4","last_reported":1730887801,"current_range_meters":38800,"station_id":"ce4bgh92rcd13ifvqb40","pricing_plan_id":"cebpf4jnsgd1na2vs0mg"},{"bike_id":"70c444c7-7bb1-4608-b126-9e87f526f4b3","system_id":"levelo_inurba_marseille","lat":43.30781,"lon":5.37654,"is_reserved":false,"is_disabled":false,"rental_uris":{"android":"levelo://app?vid=70c444c7-7bb1-4608-b126-9e87f526f4b3","ios":"levelo://app?vid=70c444c7-7bb1-4608-b126-9e87f526f4b3"},"vehicle_type_id":"4","last_reported":1730887801,"current_range_meters":38800,"station_id":"ce4bgv92rcd13ifvqcq0","pricing_plan_id":"cebpf4jnsgd1na2vs0mg"},{"bike_id":"85f503ad-daf5-438f-8a7b-f9ece8793a06","system_id":"levelo_inurba_marseille","lat":43.30459,"lon":5.37908,"is_reserved":false,"is_disabled":false,"rental_uris":{"android":"levelo://app?vid=85f503ad-daf5-438f-8a7b-f9ece8793a06","ios":"levelo://app?vid=85f503ad-daf5-438f-8a7b-f9ece8793a06"},"vehicle_type_id":"4","last_reported":1730887801,"current_range_meters":27200,"station_id":"ce4bgup2rcd13ifvqcn0","pricing_plan_id":"cebpf4jnsgd1na2vs0mg"},{"bike_id":"a619eecf-15e5-4731-b5bc-3067b68b952d","system_id":"levelo_inurba_marseille","lat":43.29006,"lon":5.35615,"is_reserved":false,"is_disabled":false,"rental_uris":{"android":"levelo://app?vid=a619eecf-15e5-4731-b5bc-3067b68b952d","ios":"levelo://app?vid=a619eecf-15e5-4731-b5bc-3067b68b952d"},"vehicle_type_id":"4","last_reported":1730887801,"current_range_meters":26800,"station_id":"ce4bhb92rcd13ifvqen0","pricing_plan_id":"cebpf4jnsgd1na2vs0mg"},{"bike_id":"6f599842-e836-493e-a1a5-8c3de731283e","system_id":"levelo_inurba_marseille","lat":43.33613,"lon":5.41032,"is_reserved":false,"is_disabled":false,"rental_uris":{"android":"levelo://app?vid=6f599842-e836-493e-a1a5-8c3de731283e","ios":"levelo://app?vid=6f599842-e836-493e-a1a5-8c3de731283e"},"vehicle_type_id":"4","last_reported":1730887801,"current_range_meters":38000,"station_id":"ce4bhqh2rcd13ifvqhmg","pricing_plan_id":"cebpf4jnsgd1na2vs0mg"},{"bike_id":"b8d9b873-53c4-4592-85ca-ed6f5a7e6300","system_id":"levelo_inurba_marseille","lat":43.29633,"lon":5.40602,"is_reserved":false,"is_disabled":false,"rental_uris":{"android":"levelo://app?vid=b8d9b873-53c4-4592-85ca-ed6f5a7e6300","ios":"levelo://app?vid=b8d9b873-53c4-4592-85ca-ed6f5a7e6300"},"vehicle_type_id":"4","last_reported":1730887801,"current_range_meters":21600,"station_id":"ce4bh0h2rcd13ifvqd60","pricing_plan_id":"cebpf4jnsgd1na2vs0mg"},{"bike_id":"c3164add-6c50-4254-9aa2-3f9a96194cf7","system_id":"levelo_inurba_marseille","lat":43.30538,"lon":5.3655,"is_reserved":false,"is_disabled":false,"rental_uris":{"android":"levelo://app?vid=c3164add-6c50-4254-9aa2-3f9a96194cf7","ios":"levelo://app?vid=c3164add-6c50-4254-9aa2-3f9a96194cf7"},"vehicle_type_id":"4","last_reported":1730887801,"current_range_meters":9600,"station_id":"ce4bgs12rcd13ifvqcag","pricing_plan_id":"cebpf4jnsgd1na2vs0mg"},{"bike_id":"464e1bdb-dbdc-4b9e-a9e9-e601b7206a5d","system_id":"levelo_inurba_marseille","lat":43.28471,"lon":5.38408,"is_reserved":false,"is_disabled":false,"rental_uris":{"android":"levelo://app?vid=464e1bdb-dbdc-4b9e-a9e9-e601b7206a5d","ios":"levelo://app?vid=464e1bdb-dbdc-4b9e-a9e9-e601b7206a5d"},"vehicle_type_id":"4","last_reported":1730887801,"current_range_meters":38800,"station_id":"ce4bh512rcd13ifvqe3g","pricing_plan_id":"cebpf4jnsgd1na2vs0mg"},{"bike_id":"ed8585e2-952d-4e33-b210-4be9e843f0dd","system_id":"levelo_inurba_marseille","lat":43.30261,"lon":5.37737,"is_reserved":false,"is_disabled":false,"rental_uris":{"android":"levelo://app?vid=ed8585e2-952d-4e33-b210-4be9e843f0dd","ios":"levelo://app?vid=ed8585e2-952d-4e33-b210-4be9e843f0dd"},"vehicle_type_id":"4","last_reported":1730887801,"current_range_meters":27200,"station_id":"ce4bguh2rcd13ifvqcj0","pricing_plan_id":"cebpf4jnsgd1na2vs0mg"},{"bike_id":"35cf71f5-f37e-4bbb-b151-04fa72375f7a","system_id":"levelo_inurba_marseille","lat":43.23151,"lon":5.43717,"is_reserved":false,"is_disabled":false,"rental_uris":{"android":"levelo://app?vid=35cf71f5-f37e-4bbb-b151-04fa72375f7a","ios":"levelo://app?vid=35cf71f5-f37e-4bbb-b151-04fa72375f7a"},"vehicle_type_id":"4","last_reported":1730887801,"current_range_meters":37600,"station_id":"ce4bhmp2rcd13ifvqgog","pricing_plan_id":"cebpf4jnsgd1na2vs0mg"},{"bike_id":"4147bbfb-4b14-4aca-b782-8ec6c0473609","system_id":"levelo_inurba_marseille","lat":43.23599,"lon":5.40333,"is_reserved":false,"is_disabled":false,"rental_uris":{"android":"levelo://app?vid=4147bbfb-4b14-4aca-b782-8ec6c0473609","ios":"levelo://app?vid=4147bbfb-4b14-4aca-b782-8ec6c0473609"},"vehicle_type_id":"4","last_reported":1730887801,"current_range_meters":2800,"station_id":"","pricing_plan_id":"cebpf4jnsgd1na2vs0mg"},{"bike_id":"5c958c05-0b36-4b44-b755-410a66f37e37","system_id":"levelo_inurba_marseille","lat":43.30314,"lon":5.36886,"is_reserved":false,"is_disabled":false,"rental_uris":{"android":"levelo://app?vid=5c958c05-0b36-4b44-b755-410a66f37e37","ios":"levelo://app?vid=5c958c05-0b36-4b44-b755-410a66f37e37"},"vehicle_type_id":"4","last_reported":1730887801,"current_range_meters":38800,"station_id":"ce4bgqh2rcd13ifvqc5g","pricing_plan_id":"cebpf4jnsgd1na2vs0mg"},{"bike_id":"3cd9eddc-782f-4705-8c79-c48a35475edf","system_id":"levelo_inurba_marseille","lat":43.27205,"lon":5.39175,"is_reserved":false,"is_disabled":false,"rental_uris":{"android":"levelo://app?vid=3cd9eddc-782f-4705-8c79-c48a35475edf","ios":"levelo://app?vid=3cd9eddc-782f-4705-8c79-c48a35475edf"},"vehicle_type_id":"4","last_reported":1730887801,"current_range_meters":20000,"station_id":"ce4bhhp2rcd13ifvqfm0","pricing_plan_id":"cebpf4jnsgd1na2vs0mg"},{"bike_id":"996f1d08-a65c-47e3-91ce-12af9d2d79ad","system_id":"levelo_inurba_marseille","lat":43.26933,"lon":5.3891,"is_reserved":false,"is_disabled":false,"rental_uris":{"android":"levelo://app?vid=996f1d08-a65c-47e3-91ce-12af9d2d79ad","ios":"levelo://app?vid=996f1d08-a65c-47e3-91ce-12af9d2d79ad"},"vehicle_type_id":"4","last_reported":1730887801,"current_range_meters":38800,"station_id":"ce4bhhh2rcd13ifvqfl0","pricing_plan_id":"cebpf4jnsgd1na2vs0mg"},{"bike_id":"1d92fc5d-32ed-4984-a298-1d9f484253dc","system_id":"levelo_inurba_marseille","lat":43.33753,"lon":5.37451,"is_reserved":false,"is_disabled":false,"rental_uris":{"android":"levelo://app?vid=1d92fc5d-32ed-4984-a298-1d9f484253dc","ios":"levelo://app?vid=1d92fc5d-32ed-4984-a298-1d9f484253dc"},"vehicle_type_id":"4","last_reported":1730887801,"current_range_meters":38800,"station_id":"","pricing_plan_id":"cebpf4jnsgd1na2vs0mg"},{"bike_id":"ba77ec3c-7f8c-401e-8066-2df3fb20a76b","system_id":"levelo_inurba_marseille","lat":43.27808,"lon":5.40714,"is_reserved":false,"is_disabled":false,"rental_uris":{"android":"levelo://app?vid=ba77ec3c-7f8c-401e-8066-2df3fb20a76b","ios":"levelo://app?vid=ba77ec3c-7f8c-401e-8066-2df3fb20a76b"},"vehicle_type_id":"4","last_reported":1730887801,"current_range_meters":36400,"station_id":"ce4bhnh2rcd13ifvqgtg","pricing_plan_id":"cebpf4jnsgd1na2vs0mg"},{"bike_id":"c1b28568-9d30-4c7c-b124-553df13071a8","system_id":"levelo_inurba_marseille","lat":43.29787,"lon":5.38114,"is_reserved":false,"is_disabled":false,"rental_uris":{"android":"levelo://app?vid=c1b28568-9d30-4c7c-b124-553df13071a8","ios":"levelo://app?vid=c1b28568-9d30-4c7c-b124-553df13071a8"},"vehicle_type_id":"4","last_reported":1730887801,"current_range_meters":38800,"station_id":"ce4bgip2rcd13ifvqbb0","pricing_plan_id":"cebpf4jnsgd1na2vs0mg"},{"bike_id":"8e8d1a34-b7f3-4be5-ba1c-089af120bba2","system_id":"levelo_inurba_marseille","lat":43.2835,"lon":5.38645,"is_reserved":false,"is_disabled":false,"rental_uris":{"android":"levelo://app?vid=8e8d1a34-b7f3-4be5-ba1c-089af120bba2","ios":"levelo://app?vid=8e8d1a34-b7f3-4be5-ba1c-089af120bba2"},"vehicle_type_id":"4","last_reported":1730887801,"current_range_meters":18000,"station_id":"ce4bh492rcd13ifvqdvg","pricing_plan_id":"cebpf4jnsgd1na2vs0mg"},{"bike_id":"694b5faf-6062-4eca-ae9a-2b0a0220025a","system_id":"levelo_inurba_marseille","lat":43.29573,"lon":5.36739,"is_reserved":false,"is_disabled":false,"rental_uris":{"android":"levelo://app?vid=694b5faf-6062-4eca-ae9a-2b0a0220025a","ios":"levelo://app?vid=694b5faf-6062-4eca-ae9a-2b0a0220025a"},"vehicle_type_id":"4","last_reported":1730887801,"current_range_meters":17600,"station_id":"ce4bgph2rcd13ifvqc2g","pricing_plan_id":"cebpf4jnsgd1na2vs0mg"},{"bike_id":"02c15229-f915-43a3-a1be-6961a915ac0e","system_id":"levelo_inurba_marseille","lat":43.3094,"lon":5.39045,"is_reserved":false,"is_disabled":false,"rental_uris":{"android":"levelo://app?vid=02c15229-f915-43a3-a1be-6961a915ac0e","ios":"levelo://app?vid=02c15229-f915-43a3-a1be-6961a915ac0e"},"vehicle_type_id":"4","last_reported":1730887801,"current_range_meters":33200,"station_id":"ce4bgup2rcd13ifvqco0","pricing_plan_id":"cebpf4jnsgd1na2vs0mg"},{"bike_id":"094b2a52-abe0-47c2-968a-f4cd277f2d85","system_id":"levelo_inurba_marseille","lat":43.29269,"lon":5.36842,"is_reserved":false,"is_disabled":false,"rental_uris":{"android":"levelo://app?vid=094b2a52-abe0-47c2-968a-f4cd277f2d85","ios":"levelo://app?vid=094b2a52-abe0-47c2-968a-f4cd277f2d85"},"vehicle_type_id":"4","last_reported":1730887801,"current_range_meters":22800,"station_id":"ce4bhbp2rcd13ifvqesg","pricing_plan_id":"cebpf4jnsgd1na2vs0mg"},{"bike_id":"7c803cee-d7d0-4fa2-9838-30c1fb501ce1","system_id":"levelo_inurba_marseille","lat":43.28455,"lon":5.35883,"is_reserved":false,"is_disabled":false,"rental_uris":{"android":"levelo://app?vid=7c803cee-d7d0-4fa2-9838-30c1fb501ce1","ios":"levelo://app?vid=7c803cee-d7d0-4fa2-9838-30c1fb501ce1"},"vehicle_type_id":"4","last_reported":1730887801,"current_range_meters":23200,"station_id":"ce4bhah2rcd13ifvqei0","pricing_plan_id":"cebpf4jnsgd1na2vs0mg"},{"bike_id":"96b6c566-d2a6-4c57-acf7-e1e62783be68","system_id":"levelo_inurba_marseille","lat":43.303128,"lon":5.368992,"is_reserved":false,"is_disabled":false,"rental_uris":{"android":"levelo://app?vid=96b6c566-d2a6-4c57-acf7-e1e62783be68","ios":"levelo://app?vid=96b6c566-d2a6-4c57-acf7-e1e62783be68"},"vehicle_type_id":"4","last_reported":1730887801,"current_range_meters":38800,"station_id":"ce4bgqh2rcd13ifvqc5g","pricing_plan_id":"cebpf4jnsgd1na2vs0mg"},{"bike_id":"692f31da-ed64-4e18-b7cc-350f01a2fb79","system_id":"levelo_inurba_marseille","lat":43.29897,"lon":5.43663,"is_reserved":false,"is_disabled":false,"rental_uris":{"android":"levelo://app?vid=692f31da-ed64-4e18-b7cc-350f01a2fb79","ios":"levelo://app?vid=692f31da-ed64-4e18-b7cc-350f01a2fb79"},"vehicle_type_id":"4","last_reported":1730887801,"current_range_meters":19600,"station_id":"ce4bhpp2rcd13ifvqhfg","pricing_plan_id":"cebpf4jnsgd1na2vs0mg"},{"bike_id":"77631e33-ac49-4608-841c-1889d1254d24","system_id":"levelo_inurba_marseille","lat":43.289551,"lon":5.36502,"is_reserved":false,"is_disabled":false,"rental_uris":{"android":"levelo://app?vid=77631e33-ac49-4608-841c-1889d1254d24","ios":"levelo://app?vid=77631e33-ac49-4608-841c-1889d1254d24"},"vehicle_type_id":"4","last_reported":1730887801,"current_range_meters":36400,"station_id":"ce4bgkp2rcd13ifvqbmg","pricing_plan_id":"cebpf4jnsgd1na2vs0mg"},{"bike_id":"8c5b125d-c230-4147-a876-d95fb25a451f","system_id":"levelo_inurba_marseille","lat":43.30601,"lon":5.39355,"is_reserved":false,"is_disabled":false,"rental_uris":{"android":"levelo://app?vid=8c5b125d-c230-4147-a876-d95fb25a451f","ios":"levelo://app?vid=8c5b125d-c230-4147-a876-d95fb25a451f"},"vehicle_type_id":"4","last_reported":1730887801,"current_range_meters":27200,"station_id":"ce4bh0p2rcd13ifvqd80","pricing_plan_id":"cebpf4jnsgd1na2vs0mg"},{"bike_id":"cee811de-d4e8-455f-88e8-6a2c711d77d4","system_id":"levelo_inurba_marseille","lat":43.27207,"lon":5.39186,"is_reserved":false,"is_disabled":false,"rental_uris":{"android":"levelo://app?vid=cee811de-d4e8-455f-88e8-6a2c711d77d4","ios":"levelo://app?vid=cee811de-d4e8-455f-88e8-6a2c711d77d4"},"vehicle_type_id":"4","last_reported":1730887801,"current_range_meters":8000,"station_id":"ce4bhhp2rcd13ifvqfm0","pricing_plan_id":"cebpf4jnsgd1na2vs0mg"},{"bike_id":"587e2033-43ab-44e0-a4f4-b4fc67d83408","system_id":"levelo_inurba_marseille","lat":43.3054,"lon":5.36702,"is_reserved":false,"is_disabled":false,"rental_uris":{"android":"levelo://app?vid=587e2033-43ab-44e0-a4f4-b4fc67d83408","ios":"levelo://app?vid=587e2033-43ab-44e0-a4f4-b4fc67d83408"},"vehicle_type_id":"4","last_reported":1730887801,"current_range_meters":38800,"station_id":"ce4bgrp2rcd13ifvqc9g","pricing_plan_id":"cebpf4jnsgd1na2vs0mg"},{"bike_id":"db79fab9-0b0c-4318-a49c-e060e76372e2","system_id":"levelo_inurba_marseille","lat":43.30142,"lon":5.39859,"is_reserved":false,"is_disabled":false,"rental_uris":{"android":"levelo://app?vid=db79fab9-0b0c-4318-a49c-e060e76372e2","ios":"levelo://app?vid=db79fab9-0b0c-4318-a49c-e060e76372e2"},"vehicle_type_id":"4","last_reported":1730887801,"current_range_meters":37600,"station_id":"ce4bh0h2rcd13ifvqd40","pricing_plan_id":"cebpf4jnsgd1na2vs0mg"},{"bike_id":"6dc0d708-ba43-4827-b0c9-1e7153c06124","system_id":"levelo_inurba_marseille","lat":43.28921,"lon":5.38382,"is_reserved":false,"is_disabled":false,"rental_uris":{"android":"levelo://app?vid=6dc0d708-ba43-4827-b0c9-1e7153c06124","ios":"levelo://app?vid=6dc0d708-ba43-4827-b0c9-1e7153c06124"},"vehicle_type_id":"4","last_reported":1730887801,"current_range_meters":30800,"station_id":"ce4bh612rcd13ifvqe6g","pricing_plan_id":"cebpf4jnsgd1na2vs0mg"},{"bike_id":"ad92d505-e54c-4fbd-9b19-09a8a7fd07da","system_id":"levelo_inurba_marseille","lat":43.31339,"lon":5.36709,"is_reserved":false,"is_disabled":false,"rental_uris":{"android":"levelo://app?vid=ad92d505-e54c-4fbd-9b19-09a8a7fd07da","ios":"levelo://app?vid=ad92d505-e54c-4fbd-9b19-09a8a7fd07da"},"vehicle_type_id":"4","last_reported":1730887801,"current_range_meters":38800,"station_id":"ce4bgr92rcd13ifvqc6g","pricing_plan_id":"cebpf4jnsgd1na2vs0mg"},{"bike_id":"11b2246c-1331-47c9-b126-aba10fb26667","system_id":"levelo_inurba_marseille","lat":43.23151,"lon":5.43708,"is_reserved":false,"is_disabled":false,"rental_uris":{"android":"levelo://app?vid=11b2246c-1331-47c9-b126-aba10fb26667","ios":"levelo://app?vid=11b2246c-1331-47c9-b126-aba10fb26667"},"vehicle_type_id":"4","last_reported":1730887801,"current_range_meters":16000,"station_id":"ce4bhmp2rcd13ifvqgog","pricing_plan_id":"cebpf4jnsgd1na2vs0mg"},{"bike_id":"5ec63660-b0e3-4854-9f74-b40767d18344","system_id":"levelo_inurba_marseille","lat":43.29932,"lon":5.36539,"is_reserved":false,"is_disabled":false,"rental_uris":{"android":"levelo://app?vid=5ec63660-b0e3-4854-9f74-b40767d18344","ios":"levelo://app?vid=5ec63660-b0e3-4854-9f74-b40767d18344"},"vehicle_type_id":"4","last_reported":1730887801,"current_range_meters":37600,"station_id":"ce4bgm92rcd13ifvqbr0","pricing_plan_id":"cebpf4jnsgd1na2vs0mg"},{"bike_id":"7ebb4f90-e15b-40da-9607-89258c961df3","system_id":"levelo_inurba_marseille","lat":43.29914,"lon":5.37464,"is_reserved":false,"is_disabled":false,"rental_uris":{"android":"levelo://app?vid=7ebb4f90-e15b-40da-9607-89258c961df3","ios":"levelo://app?vid=7ebb4f90-e15b-40da-9607-89258c961df3"},"vehicle_type_id":"4","last_reported":1730887801,"current_range_meters":33200,"station_id":"ce4bgjh2rcd13ifvqbg0","pricing_plan_id":"cebpf4jnsgd1na2vs0mg"},{"bike_id":"01fbb6eb-c984-45b7-911c-5833d741b017","system_id":"levelo_inurba_marseille","lat":43.27937,"lon":5.41047,"is_reserved":false,"is_disabled":false,"rental_uris":{"android":"levelo://app?vid=01fbb6eb-c984-45b7-911c-5833d741b017","ios":"levelo://app?vid=01fbb6eb-c984-45b7-911c-5833d741b017"},"vehicle_type_id":"4","last_reported":1730887801,"current_range_meters":9200,"station_id":"ce4bhnp2rcd13ifvqh0g","pricing_plan_id":"cebpf4jnsgd1na2vs0mg"},{"bike_id":"714edfac-0281-44eb-8ca4-5223c9977f04","system_id":"levelo_inurba_marseille","lat":43.23195,"lon":5.35546,"is_reserved":false,"is_disabled":false,"rental_uris":{"android":"levelo://app?vid=714edfac-0281-44eb-8ca4-5223c9977f04","ios":"levelo://app?vid=714edfac-0281-44eb-8ca4-5223c9977f04"},"vehicle_type_id":"4","last_reported":1730887801,"current_range_meters":35200,"station_id":"ce4bhu92rcd13ifvqi70","pricing_plan_id":"cebpf4jnsgd1na2vs0mg"},{"bike_id":"504a2677-e7f9-490d-8752-2a9c4e557185","system_id":"levelo_inurba_marseille","lat":43.27181,"lon":5.40999,"is_reserved":false,"is_disabled":false,"rental_uris":{"android":"levelo://app?vid=504a2677-e7f9-490d-8752-2a9c4e557185","ios":"levelo://app?vid=504a2677-e7f9-490d-8752-2a9c4e557185"},"vehicle_type_id":"4","last_reported":1730887801,"current_range_meters":30400,"station_id":"ce4bhl12rcd13ifvqgf0","pricing_plan_id":"cebpf4jnsgd1na2vs0mg"},{"bike_id":"c4b3f95c-19ce-41e7-bb2a-9483ff7ff452","system_id":"levelo_inurba_marseille","lat":43.30594,"lon":5.39354,"is_reserved":false,"is_disabled":false,"rental_uris":{"android":"levelo://app?vid=c4b3f95c-19ce-41e7-bb2a-9483ff7ff452","ios":"levelo://app?vid=c4b3f95c-19ce-41e7-bb2a-9483ff7ff452"},"vehicle_type_id":"4","last_reported":1730887801,"current_range_meters":25600,"station_id":"ce4bh0p2rcd13ifvqd80","pricing_plan_id":"cebpf4jnsgd1na2vs0mg"},{"bike_id":"59c1a355-094c-4c66-95ef-62fcfe2a35e1","system_id":"levelo_inurba_marseille","lat":43.29527,"lon":5.37502,"is_reserved":false,"is_disabled":false,"rental_uris":{"android":"levelo://app?vid=59c1a355-094c-4c66-95ef-62fcfe2a35e1","ios":"levelo://app?vid=59c1a355-094c-4c66-95ef-62fcfe2a35e1"},"vehicle_type_id":"4","last_reported":1730887801,"current_range_meters":37600,"station_id":"ce4bgkp2rcd13ifvqbmg","pricing_plan_id":"cebpf4jnsgd1na2vs0mg"},{"bike_id":"899809c8-f3c7-49ad-a7a7-52ddb5c2503f","system_id":"levelo_inurba_marseille","lat":43.23145,"lon":5.43716,"is_reserved":false,"is_disabled":false,"rental_uris":{"android":"levelo://app?vid=899809c8-f3c7-49ad-a7a7-52ddb5c2503f","ios":"levelo://app?vid=899809c8-f3c7-49ad-a7a7-52ddb5c2503f"},"vehicle_type_id":"4","last_reported":1730887801,"current_range_meters":29600,"station_id":"ce4bhmp2rcd13ifvqgog","pricing_plan_id":"cebpf4jnsgd1na2vs0mg"},{"bike_id":"ebffee7c-cae5-47c5-9bdb-6d314ad8c91e","system_id":"levelo_inurba_marseille","lat":43.33026,"lon":5.39041,"is_reserved":false,"is_disabled":false,"rental_uris":{"android":"levelo://app?vid=ebffee7c-cae5-47c5-9bdb-6d314ad8c91e","ios":"levelo://app?vid=ebffee7c-cae5-47c5-9bdb-6d314ad8c91e"},"vehicle_type_id":"4","last_reported":1730887801,"current_range_meters":36800,"station_id":"ce4bhr92rcd13ifvqhrg","pricing_plan_id":"cebpf4jnsgd1na2vs0mg"},{"bike_id":"515813cc-41f8-4bca-a4af-e5cb686a2815","system_id":"levelo_inurba_marseille","lat":43.24084,"lon":5.3775,"is_reserved":false,"is_disabled":false,"rental_uris":{"android":"levelo://app?vid=515813cc-41f8-4bca-a4af-e5cb686a2815","ios":"levelo://app?vid=515813cc-41f8-4bca-a4af-e5cb686a2815"},"vehicle_type_id":"4","last_reported":1730887801,"current_range_meters":30400,"station_id":"ce4bhnp2rcd13ifvqgvg","pricing_plan_id":"cebpf4jnsgd1na2vs0mg"},{"bike_id":"b0dca977-f0ed-40db-b0e7-249207743a3d","system_id":"levelo_inurba_marseille","lat":43.24078,"lon":5.37751,"is_reserved":false,"is_disabled":false,"rental_uris":{"android":"levelo://app?vid=b0dca977-f0ed-40db-b0e7-249207743a3d","ios":"levelo://app?vid=b0dca977-f0ed-40db-b0e7-249207743a3d"},"vehicle_type_id":"4","last_reported":1730887801,"current_range_meters":8000,"station_id":"ce4bhnp2rcd13ifvqgvg","pricing_plan_id":"cebpf4jnsgd1na2vs0mg"},{"bike_id":"42163e3e-5009-401f-a1ce-f09eb7e2a510","system_id":"levelo_inurba_marseille","lat":43.31328,"lon":5.397,"is_reserved":false,"is_disabled":false,"rental_uris":{"android":"levelo://app?vid=42163e3e-5009-401f-a1ce-f09eb7e2a510","ios":"levelo://app?vid=42163e3e-5009-401f-a1ce-f09eb7e2a510"},"vehicle_type_id":"4","last_reported":1730887801,"current_range_meters":38800,"station_id":"ce4bgvp2rcd13ifvqcu0","pricing_plan_id":"cebpf4jnsgd1na2vs0mg"},{"bike_id":"01602f26-99d5-4713-8831-c5313453dcba","system_id":"levelo_inurba_marseille","lat":43.24076,"lon":5.37746,"is_reserved":false,"is_disabled":false,"rental_uris":{"android":"levelo://app?vid=01602f26-99d5-4713-8831-c5313453dcba","ios":"levelo://app?vid=01602f26-99d5-4713-8831-c5313453dcba"},"vehicle_type_id":"4","last_reported":1730887801,"current_range_meters":37600,"station_id":"ce4bhnp2rcd13ifvqgvg","pricing_plan_id":"cebpf4jnsgd1na2vs0mg"},{"bike_id":"a9b55777-f1e2-44bb-bd36-ea38a2f4482b","system_id":"levelo_inurba_marseille","lat":43.29978,"lon":5.38492,"is_reserved":false,"is_disabled":false,"rental_uris":{"android":"levelo://app?vid=a9b55777-f1e2-44bb-bd36-ea38a2f4482b","ios":"levelo://app?vid=a9b55777-f1e2-44bb-bd36-ea38a2f4482b"},"vehicle_type_id":"4","last_reported":1730887801,"current_range_meters":35200,"station_id":"ce4bgj92rcd13ifvqbd0","pricing_plan_id":"cebpf4jnsgd1na2vs0mg"},{"bike_id":"b8f97a5d-99ba-4fea-9090-dfd3ecf278c7","system_id":"levelo_inurba_marseille","lat":43.30878,"lon":5.39622,"is_reserved":false,"is_disabled":false,"rental_uris":{"android":"levelo://app?vid=b8f97a5d-99ba-4fea-9090-dfd3ecf278c7","ios":"levelo://app?vid=b8f97a5d-99ba-4fea-9090-dfd3ecf278c7"},"vehicle_type_id":"4","last_reported":1730887801,"current_range_meters":38400,"station_id":"ce4bh012rcd13ifvqcv0","pricing_plan_id":"cebpf4jnsgd1na2vs0mg"},{"bike_id":"679768bc-ebe5-47e4-8e67-960726d0f63f","system_id":"levelo_inurba_marseille","lat":43.30875,"lon":5.3962,"is_reserved":false,"is_disabled":false,"rental_uris":{"android":"levelo://app?vid=679768bc-ebe5-47e4-8e67-960726d0f63f","ios":"levelo://app?vid=679768bc-ebe5-47e4-8e67-960726d0f63f"},"vehicle_type_id":"4","last_reported":1730887801,"current_range_meters":38800,"station_id":"ce4bh012rcd13ifvqcv0","pricing_plan_id":"cebpf4jnsgd1na2vs0mg"},{"bike_id":"1eedadeb-df8a-4bf4-b21e-f728c49b14fe","system_id":"levelo_inurba_marseille","lat":43.29932,"lon":5.3655,"is_reserved":false,"is_disabled":false,"rental_uris":{"android":"levelo://app?vid=1eedadeb-df8a-4bf4-b21e-f728c49b14fe","ios":"levelo://app?vid=1eedadeb-df8a-4bf4-b21e-f728c49b14fe"},"vehicle_type_id":"4","last_reported":1730887801,"current_range_meters":26000,"station_id":"ce4bgm92rcd13ifvqbr0","pricing_plan_id":"cebpf4jnsgd1na2vs0mg"},{"bike_id":"3f4b2fe9-92d0-4c51-99b2-3568b1500db4","system_id":"levelo_inurba_marseille","lat":43.25935,"lon":5.40895,"is_reserved":false,"is_disabled":false,"rental_uris":{"android":"levelo://app?vid=3f4b2fe9-92d0-4c51-99b2-3568b1500db4","ios":"levelo://app?vid=3f4b2fe9-92d0-4c51-99b2-3568b1500db4"},"vehicle_type_id":"4","last_reported":1730887801,"current_range_meters":34800,"station_id":"ce4bhm92rcd13ifvqglg","pricing_plan_id":"cebpf4jnsgd1na2vs0mg"},{"bike_id":"58dbcfe7-8396-4727-bcd9-e808db0688de","system_id":"levelo_inurba_marseille","lat":43.29625,"lon":5.37171,"is_reserved":false,"is_disabled":false,"rental_uris":{"android":"levelo://app?vid=58dbcfe7-8396-4727-bcd9-e808db0688de","ios":"levelo://app?vid=58dbcfe7-8396-4727-bcd9-e808db0688de"},"vehicle_type_id":"4","last_reported":1730887801,"current_range_meters":36400,"station_id":"ce4bgnh2rcd13ifvqc0g","pricing_plan_id":"cebpf4jnsgd1na2vs0mg"},{"bike_id":"5fde73d2-0a67-4f49-9e45-9db14b3519cc","system_id":"levelo_inurba_marseille","lat":43.24076,"lon":5.37753,"is_reserved":false,"is_disabled":false,"rental_uris":{"android":"levelo://app?vid=5fde73d2-0a67-4f49-9e45-9db14b3519cc","ios":"levelo://app?vid=5fde73d2-0a67-4f49-9e45-9db14b3519cc"},"vehicle_type_id":"4","last_reported":1730887801,"current_range_meters":28400,"station_id":"ce4bhnp2rcd13ifvqgvg","pricing_plan_id":"cebpf4jnsgd1na2vs0mg"},{"bike_id":"2be58595-1ee4-4e97-90d2-c6d933b5e1c7","system_id":"levelo_inurba_marseille","lat":43.29902,"lon":5.43678,"is_reserved":false,"is_disabled":false,"rental_uris":{"android":"levelo://app?vid=2be58595-1ee4-4e97-90d2-c6d933b5e1c7","ios":"levelo://app?vid=2be58595-1ee4-4e97-90d2-c6d933b5e1c7"},"vehicle_type_id":"4","last_reported":1730887801,"current_range_meters":20800,"station_id":"ce4bhpp2rcd13ifvqhfg","pricing_plan_id":"cebpf4jnsgd1na2vs0mg"},{"bike_id":"0ab2d0fb-4558-435e-8a7a-e5e54e69a749","system_id":"levelo_inurba_marseille","lat":43.30419,"lon":5.4128,"is_reserved":false,"is_disabled":false,"rental_uris":{"android":"levelo://app?vid=0ab2d0fb-4558-435e-8a7a-e5e54e69a749","ios":"levelo://app?vid=0ab2d0fb-4558-435e-8a7a-e5e54e69a749"},"vehicle_type_id":"4","last_reported":1730887801,"current_range_meters":30000,"station_id":"ce4bhop2rcd13ifvqh8g","pricing_plan_id":"cebpf4jnsgd1na2vs0mg"},{"bike_id":"8538f8b2-793a-4062-bc70-4f7261f7bf96","system_id":"levelo_inurba_marseille","lat":43.271175,"lon":5.388887,"is_reserved":false,"is_disabled":false,"rental_uris":{"android":"levelo://app?vid=8538f8b2-793a-4062-bc70-4f7261f7bf96","ios":"levelo://app?vid=8538f8b2-793a-4062-bc70-4f7261f7bf96"},"vehicle_type_id":"4","last_reported":1730887801,"current_range_meters":27600,"station_id":"ce4bhh12rcd13ifvqfg0","pricing_plan_id":"cebpf4jnsgd1na2vs0mg"},{"bike_id":"2675b414-6165-4354-b61f-2c02775fbd58","system_id":"levelo_inurba_marseille","lat":43.28933,"lon":5.36626,"is_reserved":false,"is_disabled":false,"rental_uris":{"android":"levelo://app?vid=2675b414-6165-4354-b61f-2c02775fbd58","ios":"levelo://app?vid=2675b414-6165-4354-b61f-2c02775fbd58"},"vehicle_type_id":"4","last_reported":1730887801,"current_range_meters":38000,"station_id":"ce4bhap2rcd13ifvqek0","pricing_plan_id":"cebpf4jnsgd1na2vs0mg"},{"bike_id":"cc9d94b0-5673-43e5-ade1-073c59830731","system_id":"levelo_inurba_marseille","lat":43.29224,"lon":5.36055,"is_reserved":false,"is_disabled":false,"rental_uris":{"android":"levelo://app?vid=cc9d94b0-5673-43e5-ade1-073c59830731","ios":"levelo://app?vid=cc9d94b0-5673-43e5-ade1-073c59830731"},"vehicle_type_id":"4","last_reported":1730887801,"current_range_meters":33600,"station_id":"ce4bhbh2rcd13ifvqeqg","pricing_plan_id":"cebpf4jnsgd1na2vs0mg"},{"bike_id":"0c2f9901-d43c-4713-b110-6a72bd48011b","system_id":"levelo_inurba_marseille","lat":43.23963,"lon":5.36633,"is_reserved":false,"is_disabled":false,"rental_uris":{"android":"levelo://app?vid=0c2f9901-d43c-4713-b110-6a72bd48011b","ios":"levelo://app?vid=0c2f9901-d43c-4713-b110-6a72bd48011b"},"vehicle_type_id":"4","last_reported":1730887801,"current_range_meters":38400,"station_id":"ce4bhi12rcd13ifvqfp0","pricing_plan_id":"cebpf4jnsgd1na2vs0mg"},{"bike_id":"eb195007-0813-4b76-8c17-aed1e90396b6","system_id":"levelo_inurba_marseille","lat":43.29028,"lon":5.37564,"is_reserved":false,"is_disabled":false,"rental_uris":{"android":"levelo://app?vid=eb195007-0813-4b76-8c17-aed1e90396b6","ios":"levelo://app?vid=eb195007-0813-4b76-8c17-aed1e90396b6"},"vehicle_type_id":"4","last_reported":1730887801,"current_range_meters":38400,"station_id":"ce4bh692rcd13ifvqe90","pricing_plan_id":"cebpf4jnsgd1na2vs0mg"},{"bike_id":"af40c465-3c25-4b8b-95c5-982f2fde9235","system_id":"levelo_inurba_marseille","lat":43.27815,"lon":5.40716,"is_reserved":false,"is_disabled":false,"rental_uris":{"android":"levelo://app?vid=af40c465-3c25-4b8b-95c5-982f2fde9235","ios":"levelo://app?vid=af40c465-3c25-4b8b-95c5-982f2fde9235"},"vehicle_type_id":"4","last_reported":1730887801,"current_range_meters":18800,"station_id":"ce4bhnh2rcd13ifvqgtg","pricing_plan_id":"cebpf4jnsgd1na2vs0mg"},{"bike_id":"1dafc3c8-1077-44b3-aea7-a66bf4d6f2cd","system_id":"levelo_inurba_marseille","lat":43.30947,"lon":5.39048,"is_reserved":false,"is_disabled":false,"rental_uris":{"android":"levelo://app?vid=1dafc3c8-1077-44b3-aea7-a66bf4d6f2cd","ios":"levelo://app?vid=1dafc3c8-1077-44b3-aea7-a66bf4d6f2cd"},"vehicle_type_id":"4","last_reported":1730887801,"current_range_meters":9600,"station_id":"ce4bgup2rcd13ifvqco0","pricing_plan_id":"cebpf4jnsgd1na2vs0mg"},{"bike_id":"f348c9f4-9a66-4443-89e4-59eadd84ea52","system_id":"levelo_inurba_marseille","lat":43.31532,"lon":5.37237,"is_reserved":false,"is_disabled":false,"rental_uris":{"android":"levelo://app?vid=f348c9f4-9a66-4443-89e4-59eadd84ea52","ios":"levelo://app?vid=f348c9f4-9a66-4443-89e4-59eadd84ea52"},"vehicle_type_id":"4","last_reported":1730887801,"current_range_meters":8400,"station_id":"","pricing_plan_id":"cebpf4jnsgd1na2vs0mg"},{"bike_id":"411f36a1-cd9c-4457-8868-0572c9ab2863","system_id":"levelo_inurba_marseille","lat":43.29806,"lon":5.38103,"is_reserved":false,"is_disabled":false,"rental_uris":{"android":"levelo://app?vid=411f36a1-cd9c-4457-8868-0572c9ab2863","ios":"levelo://app?vid=411f36a1-cd9c-4457-8868-0572c9ab2863"},"vehicle_type_id":"4","last_reported":1730887801,"current_range_meters":33600,"station_id":"ce4bgip2rcd13ifvqbb0","pricing_plan_id":"cebpf4jnsgd1na2vs0mg"},{"bike_id":"cb4447bc-2cb7-46b3-aa86-abc4ccde4149","system_id":"levelo_inurba_marseille","lat":43.24078,"lon":5.37745,"is_reserved":false,"is_disabled":false,"rental_uris":{"android":"levelo://app?vid=cb4447bc-2cb7-46b3-aa86-abc4ccde4149","ios":"levelo://app?vid=cb4447bc-2cb7-46b3-aa86-abc4ccde4149"},"vehicle_type_id":"4","last_reported":1730887801,"current_range_meters":26000,"station_id":"ce4bhnp2rcd13ifvqgvg","pricing_plan_id":"cebpf4jnsgd1na2vs0mg"},{"bike_id":"da96c2be-ffe8-410e-b05f-bd4285b4e703","system_id":"levelo_inurba_marseille","lat":43.23148,"lon":5.43714,"is_reserved":false,"is_disabled":false,"rental_uris":{"android":"levelo://app?vid=da96c2be-ffe8-410e-b05f-bd4285b4e703","ios":"levelo://app?vid=da96c2be-ffe8-410e-b05f-bd4285b4e703"},"vehicle_type_id":"4","last_reported":1730887801,"current_range_meters":20800,"station_id":"ce4bhmp2rcd13ifvqgog","pricing_plan_id":"cebpf4jnsgd1na2vs0mg"},{"bike_id":"07b32d1e-1dd4-4029-b11e-bddc1e81d2f6","system_id":"levelo_inurba_marseille","lat":43.304255,"lon":5.388773,"is_reserved":false,"is_disabled":false,"rental_uris":{"android":"levelo://app?vid=07b32d1e-1dd4-4029-b11e-bddc1e81d2f6","ios":"levelo://app?vid=07b32d1e-1dd4-4029-b11e-bddc1e81d2f6"},"vehicle_type_id":"4","last_reported":1730887801,"current_range_meters":36400,"station_id":"ce4bgk12rcd13ifvqbi0","pricing_plan_id":"cebpf4jnsgd1na2vs0mg"},{"bike_id":"41d1f86c-47c8-47d8-9882-96d09b861f50","system_id":"levelo_inurba_marseille","lat":43.31363,"lon":5.38486,"is_reserved":false,"is_disabled":false,"rental_uris":{"android":"levelo://app?vid=41d1f86c-47c8-47d8-9882-96d09b861f50","ios":"levelo://app?vid=41d1f86c-47c8-47d8-9882-96d09b861f50"},"vehicle_type_id":"4","last_reported":1730887801,"current_range_meters":37600,"station_id":"ce4bgt92rcd13ifvqcf0","pricing_plan_id":"cebpf4jnsgd1na2vs0mg"},{"bike_id":"d1980623-f2e9-488f-ad4c-96f1b4b18325","system_id":"levelo_inurba_marseille","lat":43.26214,"lon":5.37442,"is_reserved":false,"is_disabled":false,"rental_uris":{"android":"levelo://app?vid=d1980623-f2e9-488f-ad4c-96f1b4b18325","ios":"levelo://app?vid=d1980623-f2e9-488f-ad4c-96f1b4b18325"},"vehicle_type_id":"4","last_reported":1730887801,"current_range_meters":36000,"station_id":"ce4bhgp2rcd13ifvqfc0","pricing_plan_id":"cebpf4jnsgd1na2vs0mg"},{"bike_id":"9a9a9628-1137-4ccb-944f-6c30884c7222","system_id":"levelo_inurba_marseille","lat":43.30594,"lon":5.39361,"is_reserved":false,"is_disabled":false,"rental_uris":{"android":"levelo://app?vid=9a9a9628-1137-4ccb-944f-6c30884c7222","ios":"levelo://app?vid=9a9a9628-1137-4ccb-944f-6c30884c7222"},"vehicle_type_id":"4","last_reported":1730887801,"current_range_meters":24400,"station_id":"ce4bh0p2rcd13ifvqd80","pricing_plan_id":"cebpf4jnsgd1na2vs0mg"},{"bike_id":"bdf7072d-2f87-4467-967e-aa0dffabec7e","system_id":"levelo_inurba_marseille","lat":43.30276,"lon":5.37704,"is_reserved":false,"is_disabled":false,"rental_uris":{"android":"levelo://app?vid=bdf7072d-2f87-4467-967e-aa0dffabec7e","ios":"levelo://app?vid=bdf7072d-2f87-4467-967e-aa0dffabec7e"},"vehicle_type_id":"4","last_reported":1730887801,"current_range_meters":14800,"station_id":"ce4bguh2rcd13ifvqcj0","pricing_plan_id":"cebpf4jnsgd1na2vs0mg"},{"bike_id":"ce2fb28c-ad6a-4ba1-baf0-cc04e75bf748","system_id":"levelo_inurba_marseille","lat":43.29223,"lon":5.36048,"is_reserved":false,"is_disabled":false,"rental_uris":{"android":"levelo://app?vid=ce2fb28c-ad6a-4ba1-baf0-cc04e75bf748","ios":"levelo://app?vid=ce2fb28c-ad6a-4ba1-baf0-cc04e75bf748"},"vehicle_type_id":"4","last_reported":1730887801,"current_range_meters":34800,"station_id":"ce4bhbh2rcd13ifvqeqg","pricing_plan_id":"cebpf4jnsgd1na2vs0mg"},{"bike_id":"f8097ea0-0db7-43f4-99f3-8a879a368103","system_id":"levelo_inurba_marseille","lat":43.24083,"lon":5.37753,"is_reserved":false,"is_disabled":false,"rental_uris":{"android":"levelo://app?vid=f8097ea0-0db7-43f4-99f3-8a879a368103","ios":"levelo://app?vid=f8097ea0-0db7-43f4-99f3-8a879a368103"},"vehicle_type_id":"4","last_reported":1730887801,"current_range_meters":32000,"station_id":"ce4bhnp2rcd13ifvqgvg","pricing_plan_id":"cebpf4jnsgd1na2vs0mg"},{"bike_id":"649c31a5-4b4f-4771-b5b4-111bc88e3046","system_id":"levelo_inurba_marseille","lat":43.29794,"lon":5.40407,"is_reserved":false,"is_disabled":false,"rental_uris":{"android":"levelo://app?vid=649c31a5-4b4f-4771-b5b4-111bc88e3046","ios":"levelo://app?vid=649c31a5-4b4f-4771-b5b4-111bc88e3046"},"vehicle_type_id":"4","last_reported":1730887801,"current_range_meters":38000,"station_id":"ce4bh112rcd13ifvqd90","pricing_plan_id":"cebpf4jnsgd1na2vs0mg"},{"bike_id":"c18e3377-4dcd-4010-86ae-a2cf9f144b20","system_id":"levelo_inurba_marseille","lat":43.26556,"lon":5.37288,"is_reserved":false,"is_disabled":false,"rental_uris":{"android":"levelo://app?vid=c18e3377-4dcd-4010-86ae-a2cf9f144b20","ios":"levelo://app?vid=c18e3377-4dcd-4010-86ae-a2cf9f144b20"},"vehicle_type_id":"4","last_reported":1730887801,"current_range_meters":34800,"station_id":"ce4bhg12rcd13ifvqf70","pricing_plan_id":"cebpf4jnsgd1na2vs0mg"},{"bike_id":"531ccbbc-67cd-4a5c-be6e-a2a6bd3b6c0e","system_id":"levelo_inurba_marseille","lat":43.28468,"lon":5.38402,"is_reserved":false,"is_disabled":false,"rental_uris":{"android":"levelo://app?vid=531ccbbc-67cd-4a5c-be6e-a2a6bd3b6c0e","ios":"levelo://app?vid=531ccbbc-67cd-4a5c-be6e-a2a6bd3b6c0e"},"vehicle_type_id":"4","last_reported":1730887801,"current_range_meters":35200,"station_id":"ce4bh512rcd13ifvqe3g","pricing_plan_id":"cebpf4jnsgd1na2vs0mg"},{"bike_id":"340ee037-c5f9-4ff6-a16b-0e0f3098fa79","system_id":"levelo_inurba_marseille","lat":43.31456,"lon":5.37375,"is_reserved":false,"is_disabled":false,"rental_uris":{"android":"levelo://app?vid=340ee037-c5f9-4ff6-a16b-0e0f3098fa79","ios":"levelo://app?vid=340ee037-c5f9-4ff6-a16b-0e0f3098fa79"},"vehicle_type_id":"4","last_reported":1730887801,"current_range_meters":24800,"station_id":"","pricing_plan_id":"cebpf4jnsgd1na2vs0mg"},{"bike_id":"8f43fe37-2b63-4a02-98dd-daf0496db2f7","system_id":"levelo_inurba_marseille","lat":43.30153,"lon":5.38082,"is_reserved":false,"is_disabled":false,"rental_uris":{"android":"levelo://app?vid=8f43fe37-2b63-4a02-98dd-daf0496db2f7","ios":"levelo://app?vid=8f43fe37-2b63-4a02-98dd-daf0496db2f7"},"vehicle_type_id":"4","last_reported":1730887801,"current_range_meters":38800,"station_id":"ce4bgjp2rcd13ifvqbh0","pricing_plan_id":"cebpf4jnsgd1na2vs0mg"},{"bike_id":"3dcf2084-d2c1-4451-a57c-61086d241ea9","system_id":"levelo_inurba_marseille","lat":43.28356,"lon":5.3862,"is_reserved":false,"is_disabled":false,"rental_uris":{"android":"levelo://app?vid=3dcf2084-d2c1-4451-a57c-61086d241ea9","ios":"levelo://app?vid=3dcf2084-d2c1-4451-a57c-61086d241ea9"},"vehicle_type_id":"4","last_reported":1730887801,"current_range_meters":36800,"station_id":"ce4bh492rcd13ifvqdvg","pricing_plan_id":"cebpf4jnsgd1na2vs0mg"},{"bike_id":"cde33d01-4fdf-4588-9993-50576e545d63","system_id":"levelo_inurba_marseille","lat":43.29897,"lon":5.43658,"is_reserved":false,"is_disabled":false,"rental_uris":{"android":"levelo://app?vid=cde33d01-4fdf-4588-9993-50576e545d63","ios":"levelo://app?vid=cde33d01-4fdf-4588-9993-50576e545d63"},"vehicle_type_id":"4","last_reported":1730887801,"current_range_meters":38400,"station_id":"ce4bhpp2rcd13ifvqhfg","pricing_plan_id":"cebpf4jnsgd1na2vs0mg"},{"bike_id":"4843f2c5-daa2-4a50-a0e1-201b9893080b","system_id":"levelo_inurba_marseille","lat":43.24076,"lon":5.37758,"is_reserved":false,"is_disabled":false,"rental_uris":{"android":"levelo://app?vid=4843f2c5-daa2-4a50-a0e1-201b9893080b","ios":"levelo://app?vid=4843f2c5-daa2-4a50-a0e1-201b9893080b"},"vehicle_type_id":"4","last_reported":1730887801,"current_range_meters":35600,"station_id":"ce4bhnp2rcd13ifvqgvg","pricing_plan_id":"cebpf4jnsgd1na2vs0mg"},{"bike_id":"cbffd756-db38-4f79-944d-61b8d25e48ec","system_id":"levelo_inurba_marseille","lat":43.27492,"lon":5.42454,"is_reserved":false,"is_disabled":false,"rental_uris":{"android":"levelo://app?vid=cbffd756-db38-4f79-944d-61b8d25e48ec","ios":"levelo://app?vid=cbffd756-db38-4f79-944d-61b8d25e48ec"},"vehicle_type_id":"4","last_reported":1730887801,"current_range_meters":35600,"station_id":"ce4bhn92rcd13ifvqgrg","pricing_plan_id":"cebpf4jnsgd1na2vs0mg"},{"bike_id":"28e4885d-9200-4e60-96af-eaca8769468c","system_id":"levelo_inurba_marseille","lat":43.31273,"lon":5.40164,"is_reserved":false,"is_disabled":false,"rental_uris":{"android":"levelo://app?vid=28e4885d-9200-4e60-96af-eaca8769468c","ios":"levelo://app?vid=28e4885d-9200-4e60-96af-eaca8769468c"},"vehicle_type_id":"4","last_reported":1730887801,"current_range_meters":31200,"station_id":"ce4bh092rcd13ifvqd30","pricing_plan_id":"cebpf4jnsgd1na2vs0mg"},{"bike_id":"9d9dc117-b422-4432-b305-2ee17862cef6","system_id":"levelo_inurba_marseille","lat":43.31212,"lon":5.36879,"is_reserved":false,"is_disabled":false,"rental_uris":{"android":"levelo://app?vid=9d9dc117-b422-4432-b305-2ee17862cef6","ios":"levelo://app?vid=9d9dc117-b422-4432-b305-2ee17862cef6"},"vehicle_type_id":"4","last_reported":1730887801,"current_range_meters":30000,"station_id":"ce4bgl92rcd13ifvqbq0","pricing_plan_id":"cebpf4jnsgd1na2vs0mg"},{"bike_id":"b6610bdf-8909-491b-82af-22d5ec18a8c3","system_id":"levelo_inurba_marseille","lat":43.30959,"lon":5.39043,"is_reserved":false,"is_disabled":false,"rental_uris":{"android":"levelo://app?vid=b6610bdf-8909-491b-82af-22d5ec18a8c3","ios":"levelo://app?vid=b6610bdf-8909-491b-82af-22d5ec18a8c3"},"vehicle_type_id":"4","last_reported":1730887801,"current_range_meters":11200,"station_id":"ce4bgup2rcd13ifvqco0","pricing_plan_id":"cebpf4jnsgd1na2vs0mg"},{"bike_id":"2ae3e76c-8e86-4cd2-8ef2-a10e00da5882","system_id":"levelo_inurba_marseille","lat":43.28346,"lon":5.38105,"is_reserved":false,"is_disabled":false,"rental_uris":{"android":"levelo://app?vid=2ae3e76c-8e86-4cd2-8ef2-a10e00da5882","ios":"levelo://app?vid=2ae3e76c-8e86-4cd2-8ef2-a10e00da5882"},"vehicle_type_id":"4","last_reported":1730887801,"current_range_meters":35600,"station_id":"ce4bh412rcd13ifvqdr0","pricing_plan_id":"cebpf4jnsgd1na2vs0mg"},{"bike_id":"f33a9ea1-2002-4491-a7fc-b550eb5b4427","system_id":"levelo_inurba_marseille","lat":43.29582,"lon":5.36735,"is_reserved":false,"is_disabled":false,"rental_uris":{"android":"levelo://app?vid=f33a9ea1-2002-4491-a7fc-b550eb5b4427","ios":"levelo://app?vid=f33a9ea1-2002-4491-a7fc-b550eb5b4427"},"vehicle_type_id":"4","last_reported":1730887801,"current_range_meters":38800,"station_id":"ce4bgph2rcd13ifvqc2g","pricing_plan_id":"cebpf4jnsgd1na2vs0mg"},{"bike_id":"e35725cf-5a1b-4446-8cfb-896a16aa4651","system_id":"levelo_inurba_marseille","lat":43.2558,"lon":5.38228,"is_reserved":false,"is_disabled":false,"rental_uris":{"android":"levelo://app?vid=e35725cf-5a1b-4446-8cfb-896a16aa4651","ios":"levelo://app?vid=e35725cf-5a1b-4446-8cfb-896a16aa4651"},"vehicle_type_id":"4","last_reported":1730887801,"current_range_meters":38800,"station_id":"ce4bhih2rcd13ifvqfs0","pricing_plan_id":"cebpf4jnsgd1na2vs0mg"},{"bike_id":"d16cab71-1b92-49e8-a3a2-6d2953acc597","system_id":"levelo_inurba_marseille","lat":43.29194,"lon":5.39314,"is_reserved":false,"is_disabled":false,"rental_uris":{"android":"levelo://app?vid=d16cab71-1b92-49e8-a3a2-6d2953acc597","ios":"levelo://app?vid=d16cab71-1b92-49e8-a3a2-6d2953acc597"},"vehicle_type_id":"4","last_reported":1730887801,"current_range_meters":38400,"station_id":"ce4bh192rcd13ifvqdd0","pricing_plan_id":"cebpf4jnsgd1na2vs0mg"},{"bike_id":"5174ae6b-73b7-4eb9-b82e-9c61c1f78ce8","system_id":"levelo_inurba_marseille","lat":43.31224,"lon":5.406514,"is_reserved":false,"is_disabled":false,"rental_uris":{"android":"levelo://app?vid=5174ae6b-73b7-4eb9-b82e-9c61c1f78ce8","ios":"levelo://app?vid=5174ae6b-73b7-4eb9-b82e-9c61c1f78ce8"},"vehicle_type_id":"4","last_reported":1730887801,"current_range_meters":24000,"station_id":"","pricing_plan_id":"cebpf4jnsgd1na2vs0mg"},{"bike_id":"83417607-4a2c-4474-80bf-75e190ee9db8","system_id":"levelo_inurba_marseille","lat":43.30929,"lon":5.40139,"is_reserved":false,"is_disabled":false,"rental_uris":{"android":"levelo://app?vid=83417607-4a2c-4474-80bf-75e190ee9db8","ios":"levelo://app?vid=83417607-4a2c-4474-80bf-75e190ee9db8"},"vehicle_type_id":"4","last_reported":1730887801,"current_range_meters":36800,"station_id":"ce4bgvp2rcd13ifvqct0","pricing_plan_id":"cebpf4jnsgd1na2vs0mg"},{"bike_id":"4ace67f8-5364-45aa-9ada-44a1030a0a85","system_id":"levelo_inurba_marseille","lat":43.28981,"lon":5.38693,"is_reserved":false,"is_disabled":false,"rental_uris":{"android":"levelo://app?vid=4ace67f8-5364-45aa-9ada-44a1030a0a85","ios":"levelo://app?vid=4ace67f8-5364-45aa-9ada-44a1030a0a85"},"vehicle_type_id":"4","last_reported":1730887801,"current_range_meters":32800,"station_id":"","pricing_plan_id":"cebpf4jnsgd1na2vs0mg"},{"bike_id":"422ebff4-a7d6-43ff-b472-171b28ea5ae1","system_id":"levelo_inurba_marseille","lat":43.27679,"lon":5.38895,"is_reserved":false,"is_disabled":false,"rental_uris":{"android":"levelo://app?vid=422ebff4-a7d6-43ff-b472-171b28ea5ae1","ios":"levelo://app?vid=422ebff4-a7d6-43ff-b472-171b28ea5ae1"},"vehicle_type_id":"4","last_reported":1730887801,"current_range_meters":17200,"station_id":"ce4bhi12rcd13ifvqfo0","pricing_plan_id":"cebpf4jnsgd1na2vs0mg"},{"bike_id":"dea323ac-5b80-43e7-a88e-a81ff66e67db","system_id":"levelo_inurba_marseille","lat":43.28931,"lon":5.3639,"is_reserved":false,"is_disabled":false,"rental_uris":{"android":"levelo://app?vid=dea323ac-5b80-43e7-a88e-a81ff66e67db","ios":"levelo://app?vid=dea323ac-5b80-43e7-a88e-a81ff66e67db"},"vehicle_type_id":"4","last_reported":1730887801,"current_range_meters":30800,"station_id":"ce4bhc92rcd13ifvqetg","pricing_plan_id":"cebpf4jnsgd1na2vs0mg"},{"bike_id":"ff404c7f-7bb7-463d-8520-cba3fe0d0b9a","system_id":"levelo_inurba_marseille","lat":43.30774,"lon":5.37655,"is_reserved":false,"is_disabled":false,"rental_uris":{"android":"levelo://app?vid=ff404c7f-7bb7-463d-8520-cba3fe0d0b9a","ios":"levelo://app?vid=ff404c7f-7bb7-463d-8520-cba3fe0d0b9a"},"vehicle_type_id":"4","last_reported":1730887801,"current_range_meters":38800,"station_id":"ce4bgv92rcd13ifvqcq0","pricing_plan_id":"cebpf4jnsgd1na2vs0mg"},{"bike_id":"09ae89aa-d8fd-468f-94dc-9a05a884115a","system_id":"levelo_inurba_marseille","lat":43.24073,"lon":5.37767,"is_reserved":false,"is_disabled":false,"rental_uris":{"android":"levelo://app?vid=09ae89aa-d8fd-468f-94dc-9a05a884115a","ios":"levelo://app?vid=09ae89aa-d8fd-468f-94dc-9a05a884115a"},"vehicle_type_id":"4","last_reported":1730887801,"current_range_meters":38800,"station_id":"ce4bhnp2rcd13ifvqgvg","pricing_plan_id":"cebpf4jnsgd1na2vs0mg"},{"bike_id":"b723420b-bd2d-4a96-bc3e-b9bd38c780ea","system_id":"levelo_inurba_marseille","lat":43.337444,"lon":5.374475,"is_reserved":false,"is_disabled":false,"rental_uris":{"android":"levelo://app?vid=b723420b-bd2d-4a96-bc3e-b9bd38c780ea","ios":"levelo://app?vid=b723420b-bd2d-4a96-bc3e-b9bd38c780ea"},"vehicle_type_id":"4","last_reported":1730887801,"current_range_meters":36000,"station_id":"cjm6bp8fraef2m0cb0m0","pricing_plan_id":"cebpf4jnsgd1na2vs0mg"},{"bike_id":"bff19b85-fa9d-4d2e-a404-1b3282f15d63","system_id":"levelo_inurba_marseille","lat":43.337444,"lon":5.374475,"is_reserved":false,"is_disabled":false,"rental_uris":{"android":"levelo://app?vid=bff19b85-fa9d-4d2e-a404-1b3282f15d63","ios":"levelo://app?vid=bff19b85-fa9d-4d2e-a404-1b3282f15d63"},"vehicle_type_id":"4","last_reported":1730887801,"current_range_meters":37600,"station_id":"ce4bho92rcd13ifvqh4g","pricing_plan_id":"cebpf4jnsgd1na2vs0mg"},{"bike_id":"7b0b4c92-ee8a-4290-ae08-0e69846196d2","system_id":"levelo_inurba_marseille","lat":43.281,"lon":5.37845,"is_reserved":false,"is_disabled":false,"rental_uris":{"android":"levelo://app?vid=7b0b4c92-ee8a-4290-ae08-0e69846196d2","ios":"levelo://app?vid=7b0b4c92-ee8a-4290-ae08-0e69846196d2"},"vehicle_type_id":"4","last_reported":1730887801,"current_range_meters":33600,"station_id":"ce4bha12rcd13ifvqee0","pricing_plan_id":"cebpf4jnsgd1na2vs0mg"},{"bike_id":"bbd4f1c3-6c49-491f-a534-d139b293df35","system_id":"levelo_inurba_marseille","lat":43.31682,"lon":5.40472,"is_reserved":false,"is_disabled":false,"rental_uris":{"android":"levelo://app?vid=bbd4f1c3-6c49-491f-a534-d139b293df35","ios":"levelo://app?vid=bbd4f1c3-6c49-491f-a534-d139b293df35"},"vehicle_type_id":"4","last_reported":1730887801,"current_range_meters":38800,"station_id":"ce4bh012rcd13ifvqd00","pricing_plan_id":"cebpf4jnsgd1na2vs0mg"},{"bike_id":"b44b0b48-9a85-405c-b983-dc9cb4802105","system_id":"levelo_inurba_marseille","lat":43.28562,"lon":5.3951,"is_reserved":false,"is_disabled":false,"rental_uris":{"android":"levelo://app?vid=b44b0b48-9a85-405c-b983-dc9cb4802105","ios":"levelo://app?vid=b44b0b48-9a85-405c-b983-dc9cb4802105"},"vehicle_type_id":"4","last_reported":1730887801,"current_range_meters":38400,"station_id":"ce4bh292rcd13ifvqdg0","pricing_plan_id":"cebpf4jnsgd1na2vs0mg"},{"bike_id":"ebcf6733-e41e-4f70-b758-d56fe1de23df","system_id":"levelo_inurba_marseille","lat":43.30542,"lon":5.36531,"is_reserved":false,"is_disabled":false,"rental_uris":{"android":"levelo://app?vid=ebcf6733-e41e-4f70-b758-d56fe1de23df","ios":"levelo://app?vid=ebcf6733-e41e-4f70-b758-d56fe1de23df"},"vehicle_type_id":"4","last_reported":1730887801,"current_range_meters":33600,"station_id":"ce4bgs12rcd13ifvqcag","pricing_plan_id":"cebpf4jnsgd1na2vs0mg"},{"bike_id":"af718280-b086-4319-bbe7-652eee922bd5","system_id":"levelo_inurba_marseille","lat":43.2927,"lon":5.36845,"is_reserved":false,"is_disabled":false,"rental_uris":{"android":"levelo://app?vid=af718280-b086-4319-bbe7-652eee922bd5","ios":"levelo://app?vid=af718280-b086-4319-bbe7-652eee922bd5"},"vehicle_type_id":"4","last_reported":1730887801,"current_range_meters":19600,"station_id":"ce4bhbp2rcd13ifvqesg","pricing_plan_id":"cebpf4jnsgd1na2vs0mg"},{"bike_id":"6a500ba3-8013-4951-b8e5-bad17ad52566","system_id":"levelo_inurba_marseille","lat":43.23959,"lon":5.36635,"is_reserved":false,"is_disabled":false,"rental_uris":{"android":"levelo://app?vid=6a500ba3-8013-4951-b8e5-bad17ad52566","ios":"levelo://app?vid=6a500ba3-8013-4951-b8e5-bad17ad52566"},"vehicle_type_id":"4","last_reported":1730887801,"current_range_meters":38000,"station_id":"ce4bhi12rcd13ifvqfp0","pricing_plan_id":"cebpf4jnsgd1na2vs0mg"},{"bike_id":"6fae6e5f-9d0e-4534-92ef-65be97ca1377","system_id":"levelo_inurba_marseille","lat":43.31492,"lon":5.37299,"is_reserved":false,"is_disabled":false,"rental_uris":{"android":"levelo://app?vid=6fae6e5f-9d0e-4534-92ef-65be97ca1377","ios":"levelo://app?vid=6fae6e5f-9d0e-4534-92ef-65be97ca1377"},"vehicle_type_id":"4","last_reported":1730887801,"current_range_meters":22800,"station_id":"ce4bgt12rcd13ifvqcd0","pricing_plan_id":"cebpf4jnsgd1na2vs0mg"},{"bike_id":"56b49be5-b797-49bb-b140-1be2d4f27e3e","system_id":"levelo_inurba_marseille","lat":43.30602,"lon":5.39352,"is_reserved":false,"is_disabled":false,"rental_uris":{"android":"levelo://app?vid=56b49be5-b797-49bb-b140-1be2d4f27e3e","ios":"levelo://app?vid=56b49be5-b797-49bb-b140-1be2d4f27e3e"},"vehicle_type_id":"4","last_reported":1730887801,"current_range_meters":34000,"station_id":"ce4bh0p2rcd13ifvqd80","pricing_plan_id":"cebpf4jnsgd1na2vs0mg"},{"bike_id":"73910958-3faa-4552-9d1c-9554c009cdb0","system_id":"levelo_inurba_marseille","lat":43.29292,"lon":5.37441,"is_reserved":false,"is_disabled":false,"rental_uris":{"android":"levelo://app?vid=73910958-3faa-4552-9d1c-9554c009cdb0","ios":"levelo://app?vid=73910958-3faa-4552-9d1c-9554c009cdb0"},"vehicle_type_id":"4","last_reported":1730887801,"current_range_meters":38800,"station_id":"ce4bgi12rcd13ifvqb70","pricing_plan_id":"cebpf4jnsgd1na2vs0mg"},{"bike_id":"437037e9-de2d-4c1f-b6d8-074d1c9b96f5","system_id":"levelo_inurba_marseille","lat":43.30811,"lon":5.38143,"is_reserved":false,"is_disabled":false,"rental_uris":{"android":"levelo://app?vid=437037e9-de2d-4c1f-b6d8-074d1c9b96f5","ios":"levelo://app?vid=437037e9-de2d-4c1f-b6d8-074d1c9b96f5"},"vehicle_type_id":"4","last_reported":1730887801,"current_range_meters":9200,"station_id":"ce4bgt12rcd13ifvqce0","pricing_plan_id":"cebpf4jnsgd1na2vs0mg"},{"bike_id":"1410fdd7-8caf-4a2b-825b-7d27f9af1fec","system_id":"levelo_inurba_marseille","lat":43.31238,"lon":5.36863,"is_reserved":false,"is_disabled":false,"rental_uris":{"android":"levelo://app?vid=1410fdd7-8caf-4a2b-825b-7d27f9af1fec","ios":"levelo://app?vid=1410fdd7-8caf-4a2b-825b-7d27f9af1fec"},"vehicle_type_id":"4","last_reported":1730887801,"current_range_meters":38000,"station_id":"ce4bgl92rcd13ifvqbq0","pricing_plan_id":"cebpf4jnsgd1na2vs0mg"},{"bike_id":"98da998b-07ae-4df2-ad7e-5602f6a4b3d8","system_id":"levelo_inurba_marseille","lat":43.30904,"lon":5.36843,"is_reserved":false,"is_disabled":false,"rental_uris":{"android":"levelo://app?vid=98da998b-07ae-4df2-ad7e-5602f6a4b3d8","ios":"levelo://app?vid=98da998b-07ae-4df2-ad7e-5602f6a4b3d8"},"vehicle_type_id":"4","last_reported":1730887801,"current_range_meters":37600,"station_id":"ce4bgn92rcd13ifvqbvg","pricing_plan_id":"cebpf4jnsgd1na2vs0mg"},{"bike_id":"d73db297-2d87-4472-af57-0c7031444f7d","system_id":"levelo_inurba_marseille","lat":43.30594,"lon":5.39353,"is_reserved":false,"is_disabled":false,"rental_uris":{"android":"levelo://app?vid=d73db297-2d87-4472-af57-0c7031444f7d","ios":"levelo://app?vid=d73db297-2d87-4472-af57-0c7031444f7d"},"vehicle_type_id":"4","last_reported":1730887801,"current_range_meters":36400,"station_id":"ce4bh0p2rcd13ifvqd80","pricing_plan_id":"cebpf4jnsgd1na2vs0mg"},{"bike_id":"b43851ef-1c07-42cf-aee4-301658fbdbd3","system_id":"levelo_inurba_marseille","lat":43.25,"lon":5.3894,"is_reserved":false,"is_disabled":false,"rental_uris":{"android":"levelo://app?vid=b43851ef-1c07-42cf-aee4-301658fbdbd3","ios":"levelo://app?vid=b43851ef-1c07-42cf-aee4-301658fbdbd3"},"vehicle_type_id":"4","last_reported":1730887801,"current_range_meters":26000,"station_id":"ce4bhgp2rcd13ifvqfd0","pricing_plan_id":"cebpf4jnsgd1na2vs0mg"},{"bike_id":"8ba9bdd7-2fbb-4057-9790-39e8b8c10d48","system_id":"levelo_inurba_marseille","lat":43.284,"lon":5.37911,"is_reserved":false,"is_disabled":false,"rental_uris":{"android":"levelo://app?vid=8ba9bdd7-2fbb-4057-9790-39e8b8c10d48","ios":"levelo://app?vid=8ba9bdd7-2fbb-4057-9790-39e8b8c10d48"},"vehicle_type_id":"4","last_reported":1730887801,"current_range_meters":16400,"station_id":"","pricing_plan_id":"cebpf4jnsgd1na2vs0mg"},{"bike_id":"bb10a7e5-28ee-4ce5-959a-fb4e69a519f8","system_id":"levelo_inurba_marseille","lat":43.28151,"lon":5.42643,"is_reserved":false,"is_disabled":false,"rental_uris":{"android":"levelo://app?vid=bb10a7e5-28ee-4ce5-959a-fb4e69a519f8","ios":"levelo://app?vid=bb10a7e5-28ee-4ce5-959a-fb4e69a519f8"},"vehicle_type_id":"4","last_reported":1730887801,"current_range_meters":38800,"station_id":"ce4bhnh2rcd13ifvqgug","pricing_plan_id":"cebpf4jnsgd1na2vs0mg"},{"bike_id":"2787fadf-896a-40f9-8795-f2535a51f4b6","system_id":"levelo_inurba_marseille","lat":43.3016,"lon":5.38085,"is_reserved":false,"is_disabled":false,"rental_uris":{"android":"levelo://app?vid=2787fadf-896a-40f9-8795-f2535a51f4b6","ios":"levelo://app?vid=2787fadf-896a-40f9-8795-f2535a51f4b6"},"vehicle_type_id":"4","last_reported":1730887801,"current_range_meters":28400,"station_id":"ce4bgjp2rcd13ifvqbh0","pricing_plan_id":"cebpf4jnsgd1na2vs0mg"},{"bike_id":"2c4af81a-61a4-4b7d-9737-a21161e3b7d5","system_id":"levelo_inurba_marseille","lat":43.30548,"lon":5.3653,"is_reserved":false,"is_disabled":false,"rental_uris":{"android":"levelo://app?vid=2c4af81a-61a4-4b7d-9737-a21161e3b7d5","ios":"levelo://app?vid=2c4af81a-61a4-4b7d-9737-a21161e3b7d5"},"vehicle_type_id":"4","last_reported":1730887801,"current_range_meters":32400,"station_id":"ce4bgs12rcd13ifvqcag","pricing_plan_id":"cebpf4jnsgd1na2vs0mg"},{"bike_id":"0e9afae3-b99d-4f9e-b645-f5dd000bfb81","system_id":"levelo_inurba_marseille","lat":43.30937,"lon":5.39035,"is_reserved":false,"is_disabled":false,"rental_uris":{"android":"levelo://app?vid=0e9afae3-b99d-4f9e-b645-f5dd000bfb81","ios":"levelo://app?vid=0e9afae3-b99d-4f9e-b645-f5dd000bfb81"},"vehicle_type_id":"4","last_reported":1730887801,"current_range_meters":16000,"station_id":"ce4bgup2rcd13ifvqco0","pricing_plan_id":"cebpf4jnsgd1na2vs0mg"},{"bike_id":"b8d968c2-430e-4297-9b22-19cd8c0f916d","system_id":"levelo_inurba_marseille","lat":43.23153,"lon":5.43699,"is_reserved":false,"is_disabled":false,"rental_uris":{"android":"levelo://app?vid=b8d968c2-430e-4297-9b22-19cd8c0f916d","ios":"levelo://app?vid=b8d968c2-430e-4297-9b22-19cd8c0f916d"},"vehicle_type_id":"4","last_reported":1730887801,"current_range_meters":38000,"station_id":"ce4bhmp2rcd13ifvqgog","pricing_plan_id":"cebpf4jnsgd1na2vs0mg"},{"bike_id":"9beb4fe6-2147-4ae5-a364-7fa2f07aae41","system_id":"levelo_inurba_marseille","lat":43.29277,"lon":5.40124,"is_reserved":false,"is_disabled":false,"rental_uris":{"android":"levelo://app?vid=9beb4fe6-2147-4ae5-a364-7fa2f07aae41","ios":"levelo://app?vid=9beb4fe6-2147-4ae5-a364-7fa2f07aae41"},"vehicle_type_id":"4","last_reported":1730887801,"current_range_meters":38800,"station_id":"ce4bh312rcd13ifvqdk0","pricing_plan_id":"cebpf4jnsgd1na2vs0mg"},{"bike_id":"13ed2874-639f-4107-a5aa-29bce14bc633","system_id":"levelo_inurba_marseille","lat":43.29277,"lon":5.36846,"is_reserved":false,"is_disabled":false,"rental_uris":{"android":"levelo://app?vid=13ed2874-639f-4107-a5aa-29bce14bc633","ios":"levelo://app?vid=13ed2874-639f-4107-a5aa-29bce14bc633"},"vehicle_type_id":"4","last_reported":1730887801,"current_range_meters":25600,"station_id":"ce4bhbp2rcd13ifvqesg","pricing_plan_id":"cebpf4jnsgd1na2vs0mg"},{"bike_id":"f2560b82-cf64-4610-bf6e-f802ad9f72bf","system_id":"levelo_inurba_marseille","lat":43.33746,"lon":5.37448,"is_reserved":false,"is_disabled":false,"rental_uris":{"android":"levelo://app?vid=f2560b82-cf64-4610-bf6e-f802ad9f72bf","ios":"levelo://app?vid=f2560b82-cf64-4610-bf6e-f802ad9f72bf"},"vehicle_type_id":"4","last_reported":1730887801,"current_range_meters":32400,"station_id":"","pricing_plan_id":"cebpf4jnsgd1na2vs0mg"},{"bike_id":"79081f43-3cf1-4924-8c5b-46fba5f65f32","system_id":"levelo_inurba_marseille","lat":43.32341,"lon":5.40617,"is_reserved":false,"is_disabled":false,"rental_uris":{"android":"levelo://app?vid=79081f43-3cf1-4924-8c5b-46fba5f65f32","ios":"levelo://app?vid=79081f43-3cf1-4924-8c5b-46fba5f65f32"},"vehicle_type_id":"4","last_reported":1730887801,"current_range_meters":38000,"station_id":"ce4bhq92rcd13ifvqhjg","pricing_plan_id":"cebpf4jnsgd1na2vs0mg"},{"bike_id":"597b74d7-5fba-452b-a0b9-168e38ee85ca","system_id":"levelo_inurba_marseille","lat":43.30201,"lon":5.3806,"is_reserved":false,"is_disabled":false,"rental_uris":{"android":"levelo://app?vid=597b74d7-5fba-452b-a0b9-168e38ee85ca","ios":"levelo://app?vid=597b74d7-5fba-452b-a0b9-168e38ee85ca"},"vehicle_type_id":"4","last_reported":1730887801,"current_range_meters":20400,"station_id":"ce4bgjp2rcd13ifvqbh0","pricing_plan_id":"cebpf4jnsgd1na2vs0mg"},{"bike_id":"a6fe0494-3be4-434f-873b-90260f77d111","system_id":"levelo_inurba_marseille","lat":43.269318,"lon":5.392923,"is_reserved":false,"is_disabled":false,"rental_uris":{"android":"levelo://app?vid=a6fe0494-3be4-434f-873b-90260f77d111","ios":"levelo://app?vid=a6fe0494-3be4-434f-873b-90260f77d111"},"vehicle_type_id":"4","last_reported":1730887801,"current_range_meters":33200,"station_id":"ce4bhh12rcd13ifvqfg0","pricing_plan_id":"cebpf4jnsgd1na2vs0mg"},{"bike_id":"16aa4cc9-14b5-4787-b816-23c17a46d160","system_id":"levelo_inurba_marseille","lat":43.3042,"lon":5.41283,"is_reserved":false,"is_disabled":false,"rental_uris":{"android":"levelo://app?vid=16aa4cc9-14b5-4787-b816-23c17a46d160","ios":"levelo://app?vid=16aa4cc9-14b5-4787-b816-23c17a46d160"},"vehicle_type_id":"4","last_reported":1730887801,"current_range_meters":6400,"station_id":"ce4bhop2rcd13ifvqh8g","pricing_plan_id":"cebpf4jnsgd1na2vs0mg"},{"bike_id":"1f768fd0-94df-4eb2-b3a6-4bfbcfe21fa5","system_id":"levelo_inurba_marseille","lat":43.33608,"lon":5.41031,"is_reserved":false,"is_disabled":false,"rental_uris":{"android":"levelo://app?vid=1f768fd0-94df-4eb2-b3a6-4bfbcfe21fa5","ios":"levelo://app?vid=1f768fd0-94df-4eb2-b3a6-4bfbcfe21fa5"},"vehicle_type_id":"4","last_reported":1730887801,"current_range_meters":28000,"station_id":"ce4bhqh2rcd13ifvqhmg","pricing_plan_id":"cebpf4jnsgd1na2vs0mg"},{"bike_id":"a42ecc90-5ef6-4c1d-bd04-5bc5ecf8a4d2","system_id":"levelo_inurba_marseille","lat":43.30538,"lon":5.36705,"is_reserved":false,"is_disabled":false,"rental_uris":{"android":"levelo://app?vid=a42ecc90-5ef6-4c1d-bd04-5bc5ecf8a4d2","ios":"levelo://app?vid=a42ecc90-5ef6-4c1d-bd04-5bc5ecf8a4d2"},"vehicle_type_id":"4","last_reported":1730887801,"current_range_meters":38800,"station_id":"ce4bgrp2rcd13ifvqc9g","pricing_plan_id":"cebpf4jnsgd1na2vs0mg"},{"bike_id":"77f0f942-cc19-4114-9693-f96851c5cf8b","system_id":"levelo_inurba_marseille","lat":43.31066,"lon":5.38343,"is_reserved":false,"is_disabled":false,"rental_uris":{"android":"levelo://app?vid=77f0f942-cc19-4114-9693-f96851c5cf8b","ios":"levelo://app?vid=77f0f942-cc19-4114-9693-f96851c5cf8b"},"vehicle_type_id":"4","last_reported":1730887801,"current_range_meters":10000,"station_id":"ce4bgv92rcd13ifvqcr0","pricing_plan_id":"cebpf4jnsgd1na2vs0mg"},{"bike_id":"a1c09965-0b6b-4127-bac6-dcc8aed821da","system_id":"levelo_inurba_marseille","lat":43.24077,"lon":5.37752,"is_reserved":false,"is_disabled":false,"rental_uris":{"android":"levelo://app?vid=a1c09965-0b6b-4127-bac6-dcc8aed821da","ios":"levelo://app?vid=a1c09965-0b6b-4127-bac6-dcc8aed821da"},"vehicle_type_id":"4","last_reported":1730887801,"current_range_meters":33200,"station_id":"ce4bhnp2rcd13ifvqgvg","pricing_plan_id":"cebpf4jnsgd1na2vs0mg"},{"bike_id":"3249afd4-6825-4a97-ac62-b58b88ddcba3","system_id":"levelo_inurba_marseille","lat":43.27966,"lon":5.38727,"is_reserved":false,"is_disabled":false,"rental_uris":{"android":"levelo://app?vid=3249afd4-6825-4a97-ac62-b58b88ddcba3","ios":"levelo://app?vid=3249afd4-6825-4a97-ac62-b58b88ddcba3"},"vehicle_type_id":"4","last_reported":1730887801,"current_range_meters":37600,"station_id":"ce4bhg12rcd13ifvqf80","pricing_plan_id":"cebpf4jnsgd1na2vs0mg"},{"bike_id":"3fef0275-39c0-4f94-ae7f-88662db53436","system_id":"levelo_inurba_marseille","lat":43.28467,"lon":5.38402,"is_reserved":false,"is_disabled":false,"rental_uris":{"android":"levelo://app?vid=3fef0275-39c0-4f94-ae7f-88662db53436","ios":"levelo://app?vid=3fef0275-39c0-4f94-ae7f-88662db53436"},"vehicle_type_id":"4","last_reported":1730887801,"current_range_meters":38800,"station_id":"ce4bh512rcd13ifvqe3g","pricing_plan_id":"cebpf4jnsgd1na2vs0mg"},{"bike_id":"d60f1df8-1a0f-42a0-a398-a8c0c879e11d","system_id":"levelo_inurba_marseille","lat":43.2951,"lon":5.39401,"is_reserved":false,"is_disabled":false,"rental_uris":{"android":"levelo://app?vid=d60f1df8-1a0f-42a0-a398-a8c0c879e11d","ios":"levelo://app?vid=d60f1df8-1a0f-42a0-a398-a8c0c879e11d"},"vehicle_type_id":"4","last_reported":1730887801,"current_range_meters":38400,"station_id":"ce4bh292rcd13ifvqdf0","pricing_plan_id":"cebpf4jnsgd1na2vs0mg"},{"bike_id":"753f4c78-4df7-4ca5-b561-7ed7a8eca1d9","system_id":"levelo_inurba_marseille","lat":43.24073,"lon":5.37765,"is_reserved":false,"is_disabled":false,"rental_uris":{"android":"levelo://app?vid=753f4c78-4df7-4ca5-b561-7ed7a8eca1d9","ios":"levelo://app?vid=753f4c78-4df7-4ca5-b561-7ed7a8eca1d9"},"vehicle_type_id":"4","last_reported":1730887801,"current_range_meters":38000,"station_id":"ce4bhnp2rcd13ifvqgvg","pricing_plan_id":"cebpf4jnsgd1na2vs0mg"},{"bike_id":"dd6ccf1b-b3e3-4247-b9d9-eec0d314cc51","system_id":"levelo_inurba_marseille","lat":43.26942,"lon":5.40243,"is_reserved":false,"is_disabled":false,"rental_uris":{"android":"levelo://app?vid=dd6ccf1b-b3e3-4247-b9d9-eec0d314cc51","ios":"levelo://app?vid=dd6ccf1b-b3e3-4247-b9d9-eec0d314cc51"},"vehicle_type_id":"4","last_reported":1730887801,"current_range_meters":28000,"station_id":"cjm6bp8fraef2m0cb0m0","pricing_plan_id":"cebpf4jnsgd1na2vs0mg"},{"bike_id":"6a1ff42f-e89f-495d-8c70-9d353ff7b464","system_id":"levelo_inurba_marseille","lat":43.30358,"lon":5.41884,"is_reserved":false,"is_disabled":false,"rental_uris":{"android":"levelo://app?vid=6a1ff42f-e89f-495d-8c70-9d353ff7b464","ios":"levelo://app?vid=6a1ff42f-e89f-495d-8c70-9d353ff7b464"},"vehicle_type_id":"4","last_reported":1730887801,"current_range_meters":38800,"station_id":"ce4bhop2rcd13ifvqh7g","pricing_plan_id":"cebpf4jnsgd1na2vs0mg"},{"bike_id":"6fe4bc2e-51f4-4940-a67c-15377a8954c3","system_id":"levelo_inurba_marseille","lat":43.29904,"lon":5.4367,"is_reserved":false,"is_disabled":false,"rental_uris":{"android":"levelo://app?vid=6fe4bc2e-51f4-4940-a67c-15377a8954c3","ios":"levelo://app?vid=6fe4bc2e-51f4-4940-a67c-15377a8954c3"},"vehicle_type_id":"4","last_reported":1730887801,"current_range_meters":38000,"station_id":"ce4bhpp2rcd13ifvqhfg","pricing_plan_id":"cebpf4jnsgd1na2vs0mg"},{"bike_id":"0072c09f-84dc-4387-89a5-d8c408b867ad","system_id":"levelo_inurba_marseille","lat":43.30133,"lon":5.39859,"is_reserved":false,"is_disabled":false,"rental_uris":{"android":"levelo://app?vid=0072c09f-84dc-4387-89a5-d8c408b867ad","ios":"levelo://app?vid=0072c09f-84dc-4387-89a5-d8c408b867ad"},"vehicle_type_id":"4","last_reported":1730887801,"current_range_meters":38800,"station_id":"ce4bh0h2rcd13ifvqd40","pricing_plan_id":"cebpf4jnsgd1na2vs0mg"},{"bike_id":"d2f2ec05-1dc2-4606-83a7-80e188dd125b","system_id":"levelo_inurba_marseille","lat":43.27671,"lon":5.389,"is_reserved":false,"is_disabled":false,"rental_uris":{"android":"levelo://app?vid=d2f2ec05-1dc2-4606-83a7-80e188dd125b","ios":"levelo://app?vid=d2f2ec05-1dc2-4606-83a7-80e188dd125b"},"vehicle_type_id":"4","last_reported":1730887801,"current_range_meters":30400,"station_id":"ce4bhi12rcd13ifvqfo0","pricing_plan_id":"cebpf4jnsgd1na2vs0mg"},{"bike_id":"88b98dba-2073-4983-9539-ecdaff941dda","system_id":"levelo_inurba_marseille","lat":43.3054,"lon":5.36541,"is_reserved":false,"is_disabled":false,"rental_uris":{"android":"levelo://app?vid=88b98dba-2073-4983-9539-ecdaff941dda","ios":"levelo://app?vid=88b98dba-2073-4983-9539-ecdaff941dda"},"vehicle_type_id":"4","last_reported":1730887801,"current_range_meters":30000,"station_id":"ce4bgs12rcd13ifvqcag","pricing_plan_id":"cebpf4jnsgd1na2vs0mg"},{"bike_id":"629128e4-65d9-4142-998e-61ed5502b899","system_id":"levelo_inurba_marseille","lat":43.2815,"lon":5.42638,"is_reserved":false,"is_disabled":false,"rental_uris":{"android":"levelo://app?vid=629128e4-65d9-4142-998e-61ed5502b899","ios":"levelo://app?vid=629128e4-65d9-4142-998e-61ed5502b899"},"vehicle_type_id":"4","last_reported":1730887801,"current_range_meters":34800,"station_id":"ce4bhnh2rcd13ifvqgug","pricing_plan_id":"cebpf4jnsgd1na2vs0mg"},{"bike_id":"35b06bc8-da46-4ba5-8c07-e31dde1f57ed","system_id":"levelo_inurba_marseille","lat":43.30314,"lon":5.4044,"is_reserved":false,"is_disabled":false,"rental_uris":{"android":"levelo://app?vid=35b06bc8-da46-4ba5-8c07-e31dde1f57ed","ios":"levelo://app?vid=35b06bc8-da46-4ba5-8c07-e31dde1f57ed"},"vehicle_type_id":"4","last_reported":1730887801,"current_range_meters":33200,"station_id":"ce4bh012rcd13ifvqd10","pricing_plan_id":"cebpf4jnsgd1na2vs0mg"},{"bike_id":"aacbc7e0-a952-4ade-b58b-8cb77188e8e5","system_id":"levelo_inurba_marseille","lat":43.29277,"lon":5.4012,"is_reserved":false,"is_disabled":false,"rental_uris":{"android":"levelo://app?vid=aacbc7e0-a952-4ade-b58b-8cb77188e8e5","ios":"levelo://app?vid=aacbc7e0-a952-4ade-b58b-8cb77188e8e5"},"vehicle_type_id":"4","last_reported":1730887801,"current_range_meters":36800,"station_id":"ce4bh312rcd13ifvqdk0","pricing_plan_id":"cebpf4jnsgd1na2vs0mg"},{"bike_id":"c7367667-89df-47fe-81c7-f08f2b8feb92","system_id":"levelo_inurba_marseille","lat":43.30416,"lon":5.41283,"is_reserved":false,"is_disabled":false,"rental_uris":{"android":"levelo://app?vid=c7367667-89df-47fe-81c7-f08f2b8feb92","ios":"levelo://app?vid=c7367667-89df-47fe-81c7-f08f2b8feb92"},"vehicle_type_id":"4","last_reported":1730887801,"current_range_meters":38400,"station_id":"ce4bhop2rcd13ifvqh8g","pricing_plan_id":"cebpf4jnsgd1na2vs0mg"},{"bike_id":"dcadec12-5513-4113-b931-5e34a2ff37f4","system_id":"levelo_inurba_marseille","lat":43.27488,"lon":5.42466,"is_reserved":false,"is_disabled":false,"rental_uris":{"android":"levelo://app?vid=dcadec12-5513-4113-b931-5e34a2ff37f4","ios":"levelo://app?vid=dcadec12-5513-4113-b931-5e34a2ff37f4"},"vehicle_type_id":"4","last_reported":1730887801,"current_range_meters":27200,"station_id":"ce4bhn92rcd13ifvqgrg","pricing_plan_id":"cebpf4jnsgd1na2vs0mg"},{"bike_id":"c2261806-bccf-46b1-ab12-8f659c8ea2c5","system_id":"levelo_inurba_marseille","lat":43.28714,"lon":5.37936,"is_reserved":false,"is_disabled":false,"rental_uris":{"android":"levelo://app?vid=c2261806-bccf-46b1-ab12-8f659c8ea2c5","ios":"levelo://app?vid=c2261806-bccf-46b1-ab12-8f659c8ea2c5"},"vehicle_type_id":"4","last_reported":1730887801,"current_range_meters":2800,"station_id":"ce4bh9p2rcd13ifvqec0","pricing_plan_id":"cebpf4jnsgd1na2vs0mg"},{"bike_id":"d016b93e-5594-41e4-bde2-25ccecc90321","system_id":"levelo_inurba_marseille","lat":43.27813,"lon":5.40703,"is_reserved":false,"is_disabled":false,"rental_uris":{"android":"levelo://app?vid=d016b93e-5594-41e4-bde2-25ccecc90321","ios":"levelo://app?vid=d016b93e-5594-41e4-bde2-25ccecc90321"},"vehicle_type_id":"4","last_reported":1730887801,"current_range_meters":36800,"station_id":"ce4bhnh2rcd13ifvqgtg","pricing_plan_id":"cebpf4jnsgd1na2vs0mg"},{"bike_id":"1f611a08-abe9-4f91-a7bd-5bbe4c291e90","system_id":"levelo_inurba_marseille","lat":43.31333,"lon":5.36717,"is_reserved":false,"is_disabled":false,"rental_uris":{"android":"levelo://app?vid=1f611a08-abe9-4f91-a7bd-5bbe4c291e90","ios":"levelo://app?vid=1f611a08-abe9-4f91-a7bd-5bbe4c291e90"},"vehicle_type_id":"4","last_reported":1730887801,"current_range_meters":28400,"station_id":"ce4bgr92rcd13ifvqc6g","pricing_plan_id":"cebpf4jnsgd1na2vs0mg"},{"bike_id":"ef65c891-f7da-4796-bc0f-1118289dbc8f","system_id":"levelo_inurba_marseille","lat":43.30133,"lon":5.39868,"is_reserved":false,"is_disabled":false,"rental_uris":{"android":"levelo://app?vid=ef65c891-f7da-4796-bc0f-1118289dbc8f","ios":"levelo://app?vid=ef65c891-f7da-4796-bc0f-1118289dbc8f"},"vehicle_type_id":"4","last_reported":1730887801,"current_range_meters":20000,"station_id":"ce4bh0h2rcd13ifvqd40","pricing_plan_id":"cebpf4jnsgd1na2vs0mg"},{"bike_id":"9ccd241e-086b-4320-b305-5d44314bc388","system_id":"levelo_inurba_marseille","lat":43.24546,"lon":5.39523,"is_reserved":false,"is_disabled":false,"rental_uris":{"android":"levelo://app?vid=9ccd241e-086b-4320-b305-5d44314bc388","ios":"levelo://app?vid=9ccd241e-086b-4320-b305-5d44314bc388"},"vehicle_type_id":"4","last_reported":1730887801,"current_range_meters":29600,"station_id":"ce4bhlp2rcd13ifvqgjg","pricing_plan_id":"cebpf4jnsgd1na2vs0mg"},{"bike_id":"48901b5c-0f44-4ec8-8cdc-912a05779ffd","system_id":"levelo_inurba_marseille","lat":43.30599,"lon":5.39359,"is_reserved":false,"is_disabled":false,"rental_uris":{"android":"levelo://app?vid=48901b5c-0f44-4ec8-8cdc-912a05779ffd","ios":"levelo://app?vid=48901b5c-0f44-4ec8-8cdc-912a05779ffd"},"vehicle_type_id":"4","last_reported":1730887801,"current_range_meters":30000,"station_id":"ce4bh0p2rcd13ifvqd80","pricing_plan_id":"cebpf4jnsgd1na2vs0mg"},{"bike_id":"5707eaba-9f0d-4dd7-ba06-252a054ebc91","system_id":"levelo_inurba_marseille","lat":43.28463,"lon":5.38412,"is_reserved":false,"is_disabled":false,"rental_uris":{"android":"levelo://app?vid=5707eaba-9f0d-4dd7-ba06-252a054ebc91","ios":"levelo://app?vid=5707eaba-9f0d-4dd7-ba06-252a054ebc91"},"vehicle_type_id":"4","last_reported":1730887801,"current_range_meters":36800,"station_id":"ce4bh512rcd13ifvqe3g","pricing_plan_id":"cebpf4jnsgd1na2vs0mg"},{"bike_id":"dacb3127-cf48-43ba-ac28-e87e8fb962d2","system_id":"levelo_inurba_marseille","lat":43.24072,"lon":5.37756,"is_reserved":false,"is_disabled":false,"rental_uris":{"android":"levelo://app?vid=dacb3127-cf48-43ba-ac28-e87e8fb962d2","ios":"levelo://app?vid=dacb3127-cf48-43ba-ac28-e87e8fb962d2"},"vehicle_type_id":"4","last_reported":1730887801,"current_range_meters":8000,"station_id":"ce4bhnp2rcd13ifvqgvg","pricing_plan_id":"cebpf4jnsgd1na2vs0mg"},{"bike_id":"7e7a13b8-0a56-439b-9fd8-db07d130efc9","system_id":"levelo_inurba_marseille","lat":43.25088,"lon":5.39519,"is_reserved":false,"is_disabled":false,"rental_uris":{"android":"levelo://app?vid=7e7a13b8-0a56-439b-9fd8-db07d130efc9","ios":"levelo://app?vid=7e7a13b8-0a56-439b-9fd8-db07d130efc9"},"vehicle_type_id":"4","last_reported":1730887801,"current_range_meters":22800,"station_id":"ce4bhm12rcd13ifvqgkg","pricing_plan_id":"cebpf4jnsgd1na2vs0mg"},{"bike_id":"83c477a4-4eb7-416a-a5f1-380f0fe5c742","system_id":"levelo_inurba_marseille","lat":43.30324,"lon":5.40438,"is_reserved":false,"is_disabled":false,"rental_uris":{"android":"levelo://app?vid=83c477a4-4eb7-416a-a5f1-380f0fe5c742","ios":"levelo://app?vid=83c477a4-4eb7-416a-a5f1-380f0fe5c742"},"vehicle_type_id":"4","last_reported":1730887801,"current_range_meters":18800,"station_id":"ce4bh012rcd13ifvqd10","pricing_plan_id":"cebpf4jnsgd1na2vs0mg"},{"bike_id":"a98c4e4f-9217-4cbd-ad2d-c176a4698d4a","system_id":"levelo_inurba_marseille","lat":43.30531,"lon":5.36698,"is_reserved":false,"is_disabled":false,"rental_uris":{"android":"levelo://app?vid=a98c4e4f-9217-4cbd-ad2d-c176a4698d4a","ios":"levelo://app?vid=a98c4e4f-9217-4cbd-ad2d-c176a4698d4a"},"vehicle_type_id":"4","last_reported":1730887801,"current_range_meters":34800,"station_id":"ce4bgrp2rcd13ifvqc9g","pricing_plan_id":"cebpf4jnsgd1na2vs0mg"},{"bike_id":"afce958e-c83c-4b70-a2e0-54c65d8b1ce1","system_id":"levelo_inurba_marseille","lat":43.31492,"lon":5.37304,"is_reserved":false,"is_disabled":false,"rental_uris":{"android":"levelo://app?vid=afce958e-c83c-4b70-a2e0-54c65d8b1ce1","ios":"levelo://app?vid=afce958e-c83c-4b70-a2e0-54c65d8b1ce1"},"vehicle_type_id":"4","last_reported":1730887801,"current_range_meters":29600,"station_id":"ce4bgt12rcd13ifvqcd0","pricing_plan_id":"cebpf4jnsgd1na2vs0mg"},{"bike_id":"e3d501b9-90bc-452a-b88f-9503a8d05948","system_id":"levelo_inurba_marseille","lat":43.30916,"lon":5.36847,"is_reserved":false,"is_disabled":false,"rental_uris":{"android":"levelo://app?vid=e3d501b9-90bc-452a-b88f-9503a8d05948","ios":"levelo://app?vid=e3d501b9-90bc-452a-b88f-9503a8d05948"},"vehicle_type_id":"4","last_reported":1730887801,"current_range_meters":3200,"station_id":"ce4bgn92rcd13ifvqbvg","pricing_plan_id":"cebpf4jnsgd1na2vs0mg"},{"bike_id":"4ba708c0-8ced-418c-bdca-7748a87a5ef6","system_id":"levelo_inurba_marseille","lat":43.29042,"lon":5.39977,"is_reserved":false,"is_disabled":false,"rental_uris":{"android":"levelo://app?vid=4ba708c0-8ced-418c-bdca-7748a87a5ef6","ios":"levelo://app?vid=4ba708c0-8ced-418c-bdca-7748a87a5ef6"},"vehicle_type_id":"4","last_reported":1730887801,"current_range_meters":36000,"station_id":"ce4bh392rcd13ifvqdm0","pricing_plan_id":"cebpf4jnsgd1na2vs0mg"},{"bike_id":"0a3c1a6b-eadc-4e53-adb5-ce60bbc39060","system_id":"levelo_inurba_marseille","lat":43.33023,"lon":5.3903,"is_reserved":false,"is_disabled":false,"rental_uris":{"android":"levelo://app?vid=0a3c1a6b-eadc-4e53-adb5-ce60bbc39060","ios":"levelo://app?vid=0a3c1a6b-eadc-4e53-adb5-ce60bbc39060"},"vehicle_type_id":"4","last_reported":1730887801,"current_range_meters":37600,"station_id":"ce4bhr92rcd13ifvqhrg","pricing_plan_id":"cebpf4jnsgd1na2vs0mg"},{"bike_id":"9f3b6265-125c-4f8e-b982-8c5009df44db","system_id":"levelo_inurba_marseille","lat":43.284696,"lon":5.384179,"is_reserved":false,"is_disabled":false,"rental_uris":{"android":"levelo://app?vid=9f3b6265-125c-4f8e-b982-8c5009df44db","ios":"levelo://app?vid=9f3b6265-125c-4f8e-b982-8c5009df44db"},"vehicle_type_id":"4","last_reported":1730887801,"current_range_meters":39200,"station_id":"ce4bh512rcd13ifvqe3g","pricing_plan_id":"cebpf4jnsgd1na2vs0mg"},{"bike_id":"c2c93739-ff49-408f-9874-4a8fe44cfdbc","system_id":"levelo_inurba_marseille","lat":43.27809,"lon":5.40705,"is_reserved":false,"is_disabled":false,"rental_uris":{"android":"levelo://app?vid=c2c93739-ff49-408f-9874-4a8fe44cfdbc","ios":"levelo://app?vid=c2c93739-ff49-408f-9874-4a8fe44cfdbc"},"vehicle_type_id":"4","last_reported":1730887801,"current_range_meters":38000,"station_id":"ce4bhnh2rcd13ifvqgtg","pricing_plan_id":"cebpf4jnsgd1na2vs0mg"},{"bike_id":"ac3085be-2aba-453a-b37c-d1057ee9d66b","system_id":"levelo_inurba_marseille","lat":43.31272,"lon":5.40162,"is_reserved":false,"is_disabled":false,"rental_uris":{"android":"levelo://app?vid=ac3085be-2aba-453a-b37c-d1057ee9d66b","ios":"levelo://app?vid=ac3085be-2aba-453a-b37c-d1057ee9d66b"},"vehicle_type_id":"4","last_reported":1730887801,"current_range_meters":7200,"station_id":"ce4bh092rcd13ifvqd30","pricing_plan_id":"cebpf4jnsgd1na2vs0mg"},{"bike_id":"e93e0053-66db-421a-bae8-11e5128f4911","system_id":"levelo_inurba_marseille","lat":43.28097,"lon":5.37838,"is_reserved":false,"is_disabled":false,"rental_uris":{"android":"levelo://app?vid=e93e0053-66db-421a-bae8-11e5128f4911","ios":"levelo://app?vid=e93e0053-66db-421a-bae8-11e5128f4911"},"vehicle_type_id":"4","last_reported":1730887801,"current_range_meters":28800,"station_id":"ce4bha12rcd13ifvqee0","pricing_plan_id":"cebpf4jnsgd1na2vs0mg"},{"bike_id":"39c48483-e821-43f0-8272-7808715d90cc","system_id":"levelo_inurba_marseille","lat":43.27996,"lon":5.41668,"is_reserved":false,"is_disabled":false,"rental_uris":{"android":"levelo://app?vid=39c48483-e821-43f0-8272-7808715d90cc","ios":"levelo://app?vid=39c48483-e821-43f0-8272-7808715d90cc"},"vehicle_type_id":"4","last_reported":1730887801,"current_range_meters":20400,"station_id":"ce4bho12rcd13ifvqh1g","pricing_plan_id":"cebpf4jnsgd1na2vs0mg"},{"bike_id":"82f5c55c-8fe7-4521-a75c-179bf85b9ff8","system_id":"levelo_inurba_marseille","lat":43.32656,"lon":5.40992,"is_reserved":false,"is_disabled":false,"rental_uris":{"android":"levelo://app?vid=82f5c55c-8fe7-4521-a75c-179bf85b9ff8","ios":"levelo://app?vid=82f5c55c-8fe7-4521-a75c-179bf85b9ff8"},"vehicle_type_id":"4","last_reported":1730887801,"current_range_meters":38800,"station_id":"ce4bhpp2rcd13ifvqhgg","pricing_plan_id":"cebpf4jnsgd1na2vs0mg"},{"bike_id":"c732680b-4c26-422b-9676-bea78283e55c","system_id":"levelo_inurba_marseille","lat":43.29788,"lon":5.38092,"is_reserved":false,"is_disabled":false,"rental_uris":{"android":"levelo://app?vid=c732680b-4c26-422b-9676-bea78283e55c","ios":"levelo://app?vid=c732680b-4c26-422b-9676-bea78283e55c"},"vehicle_type_id":"4","last_reported":1730887801,"current_range_meters":35200,"station_id":"ce4bgip2rcd13ifvqbb0","pricing_plan_id":"cebpf4jnsgd1na2vs0mg"},{"bike_id":"818f01a2-70c1-4282-8f3e-a5df75b74421","system_id":"levelo_inurba_marseille","lat":43.23149,"lon":5.43706,"is_reserved":false,"is_disabled":false,"rental_uris":{"android":"levelo://app?vid=818f01a2-70c1-4282-8f3e-a5df75b74421","ios":"levelo://app?vid=818f01a2-70c1-4282-8f3e-a5df75b74421"},"vehicle_type_id":"4","last_reported":1730887801,"current_range_meters":36000,"station_id":"ce4bhmp2rcd13ifvqgog","pricing_plan_id":"cebpf4jnsgd1na2vs0mg"},{"bike_id":"65fc5769-d693-4d47-b081-3a1d2d9e3401","system_id":"levelo_inurba_marseille","lat":43.2963,"lon":5.406,"is_reserved":false,"is_disabled":false,"rental_uris":{"android":"levelo://app?vid=65fc5769-d693-4d47-b081-3a1d2d9e3401","ios":"levelo://app?vid=65fc5769-d693-4d47-b081-3a1d2d9e3401"},"vehicle_type_id":"4","last_reported":1730887801,"current_range_meters":38400,"station_id":"ce4bh0h2rcd13ifvqd60","pricing_plan_id":"cebpf4jnsgd1na2vs0mg"},{"bike_id":"b7fbb8d8-1f6e-4ac9-8d83-0336401fffb9","system_id":"levelo_inurba_marseille","lat":43.31361,"lon":5.38493,"is_reserved":false,"is_disabled":false,"rental_uris":{"android":"levelo://app?vid=b7fbb8d8-1f6e-4ac9-8d83-0336401fffb9","ios":"levelo://app?vid=b7fbb8d8-1f6e-4ac9-8d83-0336401fffb9"},"vehicle_type_id":"4","last_reported":1730887801,"current_range_meters":30800,"station_id":"ce4bgt92rcd13ifvqcf0","pricing_plan_id":"cebpf4jnsgd1na2vs0mg"},{"bike_id":"333b0aae-276c-4843-ac1a-6be197ab7b09","system_id":"levelo_inurba_marseille","lat":43.28344,"lon":5.38112,"is_reserved":false,"is_disabled":false,"rental_uris":{"android":"levelo://app?vid=333b0aae-276c-4843-ac1a-6be197ab7b09","ios":"levelo://app?vid=333b0aae-276c-4843-ac1a-6be197ab7b09"},"vehicle_type_id":"4","last_reported":1730887801,"current_range_meters":38400,"station_id":"ce4bh412rcd13ifvqdr0","pricing_plan_id":"cebpf4jnsgd1na2vs0mg"},{"bike_id":"aff4cc40-c923-4034-be9c-e88ce8ea159c","system_id":"levelo_inurba_marseille","lat":43.30914,"lon":5.36852,"is_reserved":false,"is_disabled":false,"rental_uris":{"android":"levelo://app?vid=aff4cc40-c923-4034-be9c-e88ce8ea159c","ios":"levelo://app?vid=aff4cc40-c923-4034-be9c-e88ce8ea159c"},"vehicle_type_id":"4","last_reported":1730887801,"current_range_meters":38800,"station_id":"ce4bgn92rcd13ifvqbvg","pricing_plan_id":"cebpf4jnsgd1na2vs0mg"},{"bike_id":"9d3d6aac-ae92-4938-b44d-7a31517f4a57","system_id":"levelo_inurba_marseille","lat":43.29792,"lon":5.38085,"is_reserved":false,"is_disabled":false,"rental_uris":{"android":"levelo://app?vid=9d3d6aac-ae92-4938-b44d-7a31517f4a57","ios":"levelo://app?vid=9d3d6aac-ae92-4938-b44d-7a31517f4a57"},"vehicle_type_id":"4","last_reported":1730887801,"current_range_meters":38800,"station_id":"ce4bgip2rcd13ifvqbb0","pricing_plan_id":"cebpf4jnsgd1na2vs0mg"},{"bike_id":"fccdd5c7-a874-478b-935d-e736cee50dc3","system_id":"levelo_inurba_marseille","lat":43.31334,"lon":5.39691,"is_reserved":false,"is_disabled":false,"rental_uris":{"android":"levelo://app?vid=fccdd5c7-a874-478b-935d-e736cee50dc3","ios":"levelo://app?vid=fccdd5c7-a874-478b-935d-e736cee50dc3"},"vehicle_type_id":"4","last_reported":1730887801,"current_range_meters":28000,"station_id":"ce4bgvp2rcd13ifvqcu0","pricing_plan_id":"cebpf4jnsgd1na2vs0mg"},{"bike_id":"ecb92602-9aa2-40a0-8917-6a5ab616b471","system_id":"levelo_inurba_marseille","lat":43.30182,"lon":5.3661,"is_reserved":false,"is_disabled":false,"rental_uris":{"android":"levelo://app?vid=ecb92602-9aa2-40a0-8917-6a5ab616b471","ios":"levelo://app?vid=ecb92602-9aa2-40a0-8917-6a5ab616b471"},"vehicle_type_id":"4","last_reported":1730887801,"current_range_meters":37600,"station_id":"ce4bgrh2rcd13ifvqc8g","pricing_plan_id":"cebpf4jnsgd1na2vs0mg"},{"bike_id":"83675056-f7fe-445c-8154-3884f1a3657c","system_id":"levelo_inurba_marseille","lat":43.24074,"lon":5.37758,"is_reserved":false,"is_disabled":false,"rental_uris":{"android":"levelo://app?vid=83675056-f7fe-445c-8154-3884f1a3657c","ios":"levelo://app?vid=83675056-f7fe-445c-8154-3884f1a3657c"},"vehicle_type_id":"4","last_reported":1730887801,"current_range_meters":30400,"station_id":"ce4bhnp2rcd13ifvqgvg","pricing_plan_id":"cebpf4jnsgd1na2vs0mg"},{"bike_id":"7ec33456-0bd4-4d07-b515-6b25194b23ba","system_id":"levelo_inurba_marseille","lat":43.30431,"lon":5.38882,"is_reserved":false,"is_disabled":false,"rental_uris":{"android":"levelo://app?vid=7ec33456-0bd4-4d07-b515-6b25194b23ba","ios":"levelo://app?vid=7ec33456-0bd4-4d07-b515-6b25194b23ba"},"vehicle_type_id":"4","last_reported":1730887801,"current_range_meters":37600,"station_id":"ce4bgk12rcd13ifvqbi0","pricing_plan_id":"cebpf4jnsgd1na2vs0mg"},{"bike_id":"9b585a70-9d27-4824-8533-eb5ff0dea8fc","system_id":"levelo_inurba_marseille","lat":43.29975,"lon":5.38494,"is_reserved":false,"is_disabled":false,"rental_uris":{"android":"levelo://app?vid=9b585a70-9d27-4824-8533-eb5ff0dea8fc","ios":"levelo://app?vid=9b585a70-9d27-4824-8533-eb5ff0dea8fc"},"vehicle_type_id":"4","last_reported":1730887801,"current_range_meters":36000,"station_id":"ce4bgj92rcd13ifvqbd0","pricing_plan_id":"cebpf4jnsgd1na2vs0mg"},{"bike_id":"ba438a12-6b93-4bc5-9bfa-22ed481fc3a1","system_id":"levelo_inurba_marseille","lat":43.28347,"lon":5.38094,"is_reserved":false,"is_disabled":false,"rental_uris":{"android":"levelo://app?vid=ba438a12-6b93-4bc5-9bfa-22ed481fc3a1","ios":"levelo://app?vid=ba438a12-6b93-4bc5-9bfa-22ed481fc3a1"},"vehicle_type_id":"4","last_reported":1730887801,"current_range_meters":36400,"station_id":"ce4bh412rcd13ifvqdr0","pricing_plan_id":"cebpf4jnsgd1na2vs0mg"},{"bike_id":"18b52c44-0bf9-421f-8b68-0bcf9af9aea5","system_id":"levelo_inurba_marseille","lat":43.2835,"lon":5.38107,"is_reserved":false,"is_disabled":false,"rental_uris":{"android":"levelo://app?vid=18b52c44-0bf9-421f-8b68-0bcf9af9aea5","ios":"levelo://app?vid=18b52c44-0bf9-421f-8b68-0bcf9af9aea5"},"vehicle_type_id":"4","last_reported":1730887801,"current_range_meters":32800,"station_id":"ce4bh412rcd13ifvqdr0","pricing_plan_id":"cebpf4jnsgd1na2vs0mg"},{"bike_id":"9048ebe6-0239-470a-af7d-c5634530ba1b","system_id":"levelo_inurba_marseille","lat":43.33025,"lon":5.39029,"is_reserved":false,"is_disabled":false,"rental_uris":{"android":"levelo://app?vid=9048ebe6-0239-470a-af7d-c5634530ba1b","ios":"levelo://app?vid=9048ebe6-0239-470a-af7d-c5634530ba1b"},"vehicle_type_id":"4","last_reported":1730887801,"current_range_meters":20800,"station_id":"ce4bhr92rcd13ifvqhrg","pricing_plan_id":"cebpf4jnsgd1na2vs0mg"},{"bike_id":"7e81ea33-7e2f-43d9-80f3-d5c98ea0b9f6","system_id":"levelo_inurba_marseille","lat":43.30883,"lon":5.39649,"is_reserved":false,"is_disabled":false,"rental_uris":{"android":"levelo://app?vid=7e81ea33-7e2f-43d9-80f3-d5c98ea0b9f6","ios":"levelo://app?vid=7e81ea33-7e2f-43d9-80f3-d5c98ea0b9f6"},"vehicle_type_id":"4","last_reported":1730887801,"current_range_meters":30800,"station_id":"ce4bh012rcd13ifvqcv0","pricing_plan_id":"cebpf4jnsgd1na2vs0mg"},{"bike_id":"ce1990ac-3390-413c-9a93-5d1336a43aa1","system_id":"levelo_inurba_marseille","lat":43.27379,"lon":5.36249,"is_reserved":false,"is_disabled":false,"rental_uris":{"android":"levelo://app?vid=ce1990ac-3390-413c-9a93-5d1336a43aa1","ios":"levelo://app?vid=ce1990ac-3390-413c-9a93-5d1336a43aa1"},"vehicle_type_id":"4","last_reported":1730887801,"current_range_meters":36800,"station_id":"ce4bhbh2rcd13ifvqeo0","pricing_plan_id":"cebpf4jnsgd1na2vs0mg"},{"bike_id":"74695514-743b-4a43-8a3c-3ee8c9a28175","system_id":"levelo_inurba_marseille","lat":43.23196,"lon":5.35554,"is_reserved":false,"is_disabled":false,"rental_uris":{"android":"levelo://app?vid=74695514-743b-4a43-8a3c-3ee8c9a28175","ios":"levelo://app?vid=74695514-743b-4a43-8a3c-3ee8c9a28175"},"vehicle_type_id":"4","last_reported":1730887801,"current_range_meters":38800,"station_id":"ce4bhu92rcd13ifvqi70","pricing_plan_id":"cebpf4jnsgd1na2vs0mg"},{"bike_id":"3f3041da-8424-4cc3-a139-fd8a99ad9a6c","system_id":"levelo_inurba_marseille","lat":43.33614,"lon":5.41035,"is_reserved":false,"is_disabled":false,"rental_uris":{"android":"levelo://app?vid=3f3041da-8424-4cc3-a139-fd8a99ad9a6c","ios":"levelo://app?vid=3f3041da-8424-4cc3-a139-fd8a99ad9a6c"},"vehicle_type_id":"4","last_reported":1730887801,"current_range_meters":13600,"station_id":"ce4bhqh2rcd13ifvqhmg","pricing_plan_id":"cebpf4jnsgd1na2vs0mg"},{"bike_id":"21ada0ba-3690-4b1c-9dd6-116e87f878cc","system_id":"levelo_inurba_marseille","lat":43.29693,"lon":5.39165,"is_reserved":false,"is_disabled":false,"rental_uris":{"android":"levelo://app?vid=21ada0ba-3690-4b1c-9dd6-116e87f878cc","ios":"levelo://app?vid=21ada0ba-3690-4b1c-9dd6-116e87f878cc"},"vehicle_type_id":"4","last_reported":1730887801,"current_range_meters":30400,"station_id":"","pricing_plan_id":"cebpf4jnsgd1na2vs0mg"},{"bike_id":"cb87361d-d664-4f06-9d00-79de4d552fc1","system_id":"levelo_inurba_marseille","lat":43.2407,"lon":5.37754,"is_reserved":false,"is_disabled":false,"rental_uris":{"android":"levelo://app?vid=cb87361d-d664-4f06-9d00-79de4d552fc1","ios":"levelo://app?vid=cb87361d-d664-4f06-9d00-79de4d552fc1"},"vehicle_type_id":"4","last_reported":1730887801,"current_range_meters":37600,"station_id":"ce4bhnp2rcd13ifvqgvg","pricing_plan_id":"cebpf4jnsgd1na2vs0mg"},{"bike_id":"a5e35101-38e2-445c-a820-4ae76e0bb71f","system_id":"levelo_inurba_marseille","lat":43.2835,"lon":5.38099,"is_reserved":false,"is_disabled":false,"rental_uris":{"android":"levelo://app?vid=a5e35101-38e2-445c-a820-4ae76e0bb71f","ios":"levelo://app?vid=a5e35101-38e2-445c-a820-4ae76e0bb71f"},"vehicle_type_id":"4","last_reported":1730887801,"current_range_meters":38800,"station_id":"ce4bh412rcd13ifvqdr0","pricing_plan_id":"cebpf4jnsgd1na2vs0mg"},{"bike_id":"5a21dff0-5257-44a0-8628-b52b6f2dcfaa","system_id":"levelo_inurba_marseille","lat":43.30801,"lon":5.38142,"is_reserved":false,"is_disabled":false,"rental_uris":{"android":"levelo://app?vid=5a21dff0-5257-44a0-8628-b52b6f2dcfaa","ios":"levelo://app?vid=5a21dff0-5257-44a0-8628-b52b6f2dcfaa"},"vehicle_type_id":"4","last_reported":1730887801,"current_range_meters":16800,"station_id":"ce4bgt12rcd13ifvqce0","pricing_plan_id":"cebpf4jnsgd1na2vs0mg"},{"bike_id":"f9a8c473-50f6-461e-98fa-f58e5ab7fcbc","system_id":"levelo_inurba_marseille","lat":43.30907,"lon":5.3685,"is_reserved":false,"is_disabled":false,"rental_uris":{"android":"levelo://app?vid=f9a8c473-50f6-461e-98fa-f58e5ab7fcbc","ios":"levelo://app?vid=f9a8c473-50f6-461e-98fa-f58e5ab7fcbc"},"vehicle_type_id":"4","last_reported":1730887801,"current_range_meters":37600,"station_id":"ce4bgn92rcd13ifvqbvg","pricing_plan_id":"cebpf4jnsgd1na2vs0mg"},{"bike_id":"b35cf98f-ea48-4ff0-a3fc-897a6b501646","system_id":"levelo_inurba_marseille","lat":43.28351,"lon":5.38113,"is_reserved":false,"is_disabled":false,"rental_uris":{"android":"levelo://app?vid=b35cf98f-ea48-4ff0-a3fc-897a6b501646","ios":"levelo://app?vid=b35cf98f-ea48-4ff0-a3fc-897a6b501646"},"vehicle_type_id":"4","last_reported":1730887801,"current_range_meters":27200,"station_id":"ce4bh412rcd13ifvqdr0","pricing_plan_id":"cebpf4jnsgd1na2vs0mg"},{"bike_id":"891b63ae-eb77-4dae-85e1-2c16ae2137b9","system_id":"levelo_inurba_marseille","lat":43.31275,"lon":5.40165,"is_reserved":false,"is_disabled":false,"rental_uris":{"android":"levelo://app?vid=891b63ae-eb77-4dae-85e1-2c16ae2137b9","ios":"levelo://app?vid=891b63ae-eb77-4dae-85e1-2c16ae2137b9"},"vehicle_type_id":"4","last_reported":1730887801,"current_range_meters":31200,"station_id":"ce4bh092rcd13ifvqd30","pricing_plan_id":"cebpf4jnsgd1na2vs0mg"},{"bike_id":"9c07c115-8458-42eb-a90e-dec43e520f3f","system_id":"levelo_inurba_marseille","lat":43.26028,"lon":5.37559,"is_reserved":false,"is_disabled":false,"rental_uris":{"android":"levelo://app?vid=9c07c115-8458-42eb-a90e-dec43e520f3f","ios":"levelo://app?vid=9c07c115-8458-42eb-a90e-dec43e520f3f"},"vehicle_type_id":"4","last_reported":1730887801,"current_range_meters":38000,"station_id":"ce4bhgh2rcd13ifvqfa0","pricing_plan_id":"cebpf4jnsgd1na2vs0mg"},{"bike_id":"ac03a311-6f6f-4c90-a81a-5b451856dd6f","system_id":"levelo_inurba_marseille","lat":43.27186,"lon":5.40996,"is_reserved":false,"is_disabled":false,"rental_uris":{"android":"levelo://app?vid=ac03a311-6f6f-4c90-a81a-5b451856dd6f","ios":"levelo://app?vid=ac03a311-6f6f-4c90-a81a-5b451856dd6f"},"vehicle_type_id":"4","last_reported":1730887801,"current_range_meters":29600,"station_id":"ce4bhl12rcd13ifvqgf0","pricing_plan_id":"cebpf4jnsgd1na2vs0mg"},{"bike_id":"e7874ce2-f692-46c5-87b4-56890b100158","system_id":"levelo_inurba_marseille","lat":43.23066,"lon":5.3549,"is_reserved":false,"is_disabled":false,"rental_uris":{"android":"levelo://app?vid=e7874ce2-f692-46c5-87b4-56890b100158","ios":"levelo://app?vid=e7874ce2-f692-46c5-87b4-56890b100158"},"vehicle_type_id":"4","last_reported":1730887801,"current_range_meters":37600,"station_id":"cpo3342slgdg3j2ifvpg","pricing_plan_id":"cebpf4jnsgd1na2vs0mg"},{"bike_id":"4f5dd26a-53d2-41d9-9750-359fa2101d6a","system_id":"levelo_inurba_marseille","lat":43.2408,"lon":5.37746,"is_reserved":false,"is_disabled":false,"rental_uris":{"android":"levelo://app?vid=4f5dd26a-53d2-41d9-9750-359fa2101d6a","ios":"levelo://app?vid=4f5dd26a-53d2-41d9-9750-359fa2101d6a"},"vehicle_type_id":"4","last_reported":1730887801,"current_range_meters":25200,"station_id":"ce4bhnp2rcd13ifvqgvg","pricing_plan_id":"cebpf4jnsgd1na2vs0mg"},{"bike_id":"5762ed2d-019a-4513-8343-3f40a713eb9c","system_id":"levelo_inurba_marseille","lat":43.3169,"lon":5.40475,"is_reserved":false,"is_disabled":false,"rental_uris":{"android":"levelo://app?vid=5762ed2d-019a-4513-8343-3f40a713eb9c","ios":"levelo://app?vid=5762ed2d-019a-4513-8343-3f40a713eb9c"},"vehicle_type_id":"4","last_reported":1730887801,"current_range_meters":38800,"station_id":"ce4bh012rcd13ifvqd00","pricing_plan_id":"cebpf4jnsgd1na2vs0mg"},{"bike_id":"b19bc3e4-8d0b-4d44-8d1b-f2a0e72dd29b","system_id":"levelo_inurba_marseille","lat":43.31258,"lon":5.40172,"is_reserved":false,"is_disabled":false,"rental_uris":{"android":"levelo://app?vid=b19bc3e4-8d0b-4d44-8d1b-f2a0e72dd29b","ios":"levelo://app?vid=b19bc3e4-8d0b-4d44-8d1b-f2a0e72dd29b"},"vehicle_type_id":"4","last_reported":1730887801,"current_range_meters":22400,"station_id":"ce4bh092rcd13ifvqd30","pricing_plan_id":"cebpf4jnsgd1na2vs0mg"},{"bike_id":"66c86b3c-9169-469d-a2db-a1c38c38f50d","system_id":"levelo_inurba_marseille","lat":43.3016,"lon":5.38088,"is_reserved":false,"is_disabled":false,"rental_uris":{"android":"levelo://app?vid=66c86b3c-9169-469d-a2db-a1c38c38f50d","ios":"levelo://app?vid=66c86b3c-9169-469d-a2db-a1c38c38f50d"},"vehicle_type_id":"4","last_reported":1730887801,"current_range_meters":36400,"station_id":"ce4bgjp2rcd13ifvqbh0","pricing_plan_id":"cebpf4jnsgd1na2vs0mg"},{"bike_id":"25c8d424-2137-4b69-b3a8-15d57b9d4491","system_id":"levelo_inurba_marseille","lat":43.26939,"lon":5.40247,"is_reserved":false,"is_disabled":false,"rental_uris":{"android":"levelo://app?vid=25c8d424-2137-4b69-b3a8-15d57b9d4491","ios":"levelo://app?vid=25c8d424-2137-4b69-b3a8-15d57b9d4491"},"vehicle_type_id":"4","last_reported":1730887801,"current_range_meters":8400,"station_id":"cjm6bp8fraef2m0cb0m0","pricing_plan_id":"cebpf4jnsgd1na2vs0mg"},{"bike_id":"a935467c-f937-4910-b377-e87462128c84","system_id":"levelo_inurba_marseille","lat":43.32492,"lon":5.36553,"is_reserved":false,"is_disabled":false,"rental_uris":{"android":"levelo://app?vid=a935467c-f937-4910-b377-e87462128c84","ios":"levelo://app?vid=a935467c-f937-4910-b377-e87462128c84"},"vehicle_type_id":"4","last_reported":1730887801,"current_range_meters":26000,"station_id":"ce4bhs12rcd13ifvqhvg","pricing_plan_id":"cebpf4jnsgd1na2vs0mg"},{"bike_id":"c256c9e2-5037-4aee-b3a9-6811007b8c24","system_id":"levelo_inurba_marseille","lat":43.28843,"lon":5.39318,"is_reserved":false,"is_disabled":false,"rental_uris":{"android":"levelo://app?vid=c256c9e2-5037-4aee-b3a9-6811007b8c24","ios":"levelo://app?vid=c256c9e2-5037-4aee-b3a9-6811007b8c24"},"vehicle_type_id":"4","last_reported":1730887801,"current_range_meters":30400,"station_id":"ce4bh2p2rcd13ifvqdi0","pricing_plan_id":"cebpf4jnsgd1na2vs0mg"},{"bike_id":"5e374225-de3c-423e-abe4-d9ab4e18c8c7","system_id":"levelo_inurba_marseille","lat":43.2903,"lon":5.39978,"is_reserved":false,"is_disabled":false,"rental_uris":{"android":"levelo://app?vid=5e374225-de3c-423e-abe4-d9ab4e18c8c7","ios":"levelo://app?vid=5e374225-de3c-423e-abe4-d9ab4e18c8c7"},"vehicle_type_id":"4","last_reported":1730887801,"current_range_meters":38800,"station_id":"ce4bh392rcd13ifvqdm0","pricing_plan_id":"cebpf4jnsgd1na2vs0mg"},{"bike_id":"1fe60698-d01d-473a-b216-0b248a2ba54e","system_id":"levelo_inurba_marseille","lat":43.29859,"lon":5.39737,"is_reserved":false,"is_disabled":false,"rental_uris":{"android":"levelo://app?vid=1fe60698-d01d-473a-b216-0b248a2ba54e","ios":"levelo://app?vid=1fe60698-d01d-473a-b216-0b248a2ba54e"},"vehicle_type_id":"4","last_reported":1730887801,"current_range_meters":13600,"station_id":"ce4bh0h2rcd13ifvqd50","pricing_plan_id":"cebpf4jnsgd1na2vs0mg"},{"bike_id":"037c04ea-e920-40e1-8994-b519bfbe138f","system_id":"levelo_inurba_marseille","lat":43.2655,"lon":5.37288,"is_reserved":false,"is_disabled":false,"rental_uris":{"android":"levelo://app?vid=037c04ea-e920-40e1-8994-b519bfbe138f","ios":"levelo://app?vid=037c04ea-e920-40e1-8994-b519bfbe138f"},"vehicle_type_id":"4","last_reported":1730887801,"current_range_meters":8800,"station_id":"ce4bhg12rcd13ifvqf70","pricing_plan_id":"cebpf4jnsgd1na2vs0mg"},