{"last_updated":1761699340,"ttl":60,"version":"2.2","data":{"bikes":[{"bike_id":"c48dc094-4c25-4b99-9aa9-ff1b8c1db8dc","system_id":"levelo_inurba_marseille","lat":43.22523,"lon":5.3481,"is_reserved":false,"is_disabled":false,"rental_uris":{"android":"levelo://app?vid=c48dc094-4c25-4b99-9aa9-ff1b8c1db8dc","ios":"levelo://app?vid=c48dc094-4c25-4b99-9aa9-ff1b8c1db8dc"},"vehicle_type_id":"4","last_reported":1761699340,"current_range_meters":2800,"station_id":"st_cvj5dfep6f1abm77gieg","pricing_plan_id":"cebpf4jnsgd1na2vs0mg"},{"bike_id":"196493b5-4a9b-4dd8-88c7-0310c41f1d45","system_id":"levelo_inurba_marseille","lat":43.29196,"lon":5.393203,"is_reserved":false,"is_disabled":false,"rental_uris":{"android":"levelo://app?vid=196493b5-4a9b-4dd8-88c7-0310c41f1d45","ios":"levelo://app?vid=196493b5-4a9b-4dd8-88c7-0310c41f1d45"},"vehicle_type_id":"4","last_reported":1761699340,"current_range_meters":3200,"station_id":"ce4bh192rcd13ifvqdd0","pricing_plan_id":"cebpf4jnsgd1na2vs0mg"},{"bike_id":"aba6b563-5093-4f2c-abdc-45b501f05388","system_id":"levelo_inurba_marseille","lat":43.27083,"lon":5.38292,"is_reserved":false,"is_disabled":true,"rental_uris":{"android":"levelo://app?vid=aba6b563-5093-4f2c-abdc-45b501f05388","ios":"levelo://app?vid=aba6b563-5093-4f2c-abdc-45b501f05388"},"vehicle_type_id":"4","last_reported":1761699340,"current_range_meters":4000,"station_id":"st_d3n2fo6cfp8s73cte1j0","pricing_plan_id":"cebpf4jnsgd1na2vs0mg"},{"bike_id":"dd683dde-9691-4181-8b24-245fd05eae11","system_id":"levelo_inurba_marseille","lat":43.286084,"lon":5.370651,"is_reserved":false,"is_disabled":false,"rental_uris":{"android":"levelo://app?vid=dd683dde-9691-4181-8b24-245fd05eae11","ios":"levelo://app?vid=dd683dde-9691-4181-8b24-245fd05eae11"},"vehicle_type_id":"4","last_reported":1761699340,"current_range_meters":4400,"station_id":"ce4bht12rcd13ifvqi60","pricing_plan_id":"cebpf4jnsgd1na2vs0mg"},{"bike_id":"3f7c552a-2a9b-4bf8-95bd-507570380f71","system_id":"levelo_inurba_marseille","lat":43.28696,"lon":5.37937,"is_reserved":false,"is_disabled":false,"rental_uris":{"android":"levelo://app?vid=3f7c552a-2a9b-4bf8-95bd-507570380f71","ios":"levelo://app?vid=3f7c552a-2a9b-4bf8-95bd-507570380f71"},"vehicle_type_id":"4","last_reported":1761699340,"current_range_meters":4400,"station_id":"","pricing_plan_id":"cebpf4jnsgd1na2vs0mg"},{"bike_id":"b5448b30-152d-44df-b35f-727ecc2cf419","system_id":"levelo_inurba_marseille","lat":43.25327,"lon":5.42164,"is_reserved":false,"is_disabled":false,"rental_uris":{"android":"levelo://app?vid=b5448b30-152d-44df-b35f-727ecc2cf419","ios":"levelo://app?vid=b5448b30-152d-44df-b35f-727ecc2cf419"},"vehicle_type_id":"4","last_reported":1761699340,"current_range_meters":4400,"station_id":"st_d2m65c5bi1j21697t3ng","pricing_plan_id":"cebpf4jnsgd1na2vs0mg"},{"bike_id":"76bab7c3-bfc6-410c-b71c-b504ab4f3e12","system_id":"levelo_inurba_marseille","lat":43.26543,"lon":5.37993,"is_reserved":false,"is_disabled":false,"rental_uris":{"android":"levelo://app?vid=76bab7c3-bfc6-410c-b71c-b504ab4f3e12","ios":"levelo://app?vid=76bab7c3-bfc6-410c-b71c-b504ab4f3e12"},"vehicle_type_id":"4","last_reported":1761699340,"current_range_meters":5600,"station_id":"","pricing_plan_id":"cebpf4jnsgd1na2vs0mg"},{"bike_id":"4053e572-fdb8-4eb6-a497-5ba9a7592ff2","system_id":"levelo_inurba_marseille","lat":43.29761,"lon":5.42772,"is_reserved":false,"is_disabled":false,"rental_uris":{"android":"levelo://app?vid=4053e572-fdb8-4eb6-a497-5ba9a7592ff2","ios":"levelo://app?vid=4053e572-fdb8-4eb6-a497-5ba9a7592ff2"},"vehicle_type_id":"4","last_reported":1761699340,"current_range_meters":6000,"station_id":"st_d3md5207bmas73dh9klg","pricing_plan_id":"cebpf4jnsgd1na2vs0mg"},{"bike_id":"174f0929-3efc-43ed-b568-f665ef5213af","system_id":"levelo_inurba_marseille","lat":43.30322,"lon":5.40453,"is_reserved":false,"is_disabled":false,"rental_uris":{"android":"levelo://app?vid=174f0929-3efc-43ed-b568-f665ef5213af","ios":"levelo://app?vid=174f0929-3efc-43ed-b568-f665ef5213af"},"vehicle_type_id":"4","last_reported":1761699340,"current_range_meters":6000,"station_id":"ce4bh012rcd13ifvqd10","pricing_plan_id":"cebpf4jnsgd1na2vs0mg"},{"bike_id":"aa5c1afc-feac-4ddb-ad79-cf993c47f2dc","system_id":"levelo_inurba_marseille","lat":43.28406,"lon":5.37529,"is_reserved":false,"is_disabled":false,"rental_uris":{"android":"levelo://app?vid=aa5c1afc-feac-4ddb-ad79-cf993c47f2dc","ios":"levelo://app?vid=aa5c1afc-feac-4ddb-ad79-cf993c47f2dc"},"vehicle_type_id":"4","last_reported":1761699340,"current_range_meters":6000,"station_id":"ce4bh412rcd13ifvqds0","pricing_plan_id":"cebpf4jnsgd1na2vs0mg"},{"bike_id":"fd09dbe7-0bec-431b-9705-875a0c7a7829","system_id":"levelo_inurba_marseille","lat":43.23047,"lon":5.3549,"is_reserved":false,"is_disabled":true,"rental_uris":{"android":"levelo://app?vid=fd09dbe7-0bec-431b-9705-875a0c7a7829","ios":"levelo://app?vid=fd09dbe7-0bec-431b-9705-875a0c7a7829"},"vehicle_type_id":"4","last_reported":1761699340,"current_range_meters":6400,"station_id":"cpo3342slgdg3j2ifvpg","pricing_plan_id":"cebpf4jnsgd1na2vs0mg"},{"bike_id":"0696ebf5-d825-4831-81f9-0d14d23a6f3d","system_id":"levelo_inurba_marseille","lat":43.2971,"lon":5.36614,"is_reserved":false,"is_disabled":false,"rental_uris":{"android":"levelo://app?vid=0696ebf5-d825-4831-81f9-0d14d23a6f3d","ios":"levelo://app?vid=0696ebf5-d825-4831-81f9-0d14d23a6f3d"},"vehicle_type_id":"4","last_reported":1761699340,"current_range_meters":6400,"station_id":"ce4bgn12rcd13ifvqbt0","pricing_plan_id":"cebpf4jnsgd1na2vs0mg"},{"bike_id":"ecf682c9-b328-42d4-bf93-c673977dea5c","system_id":"levelo_inurba_marseille","lat":43.29163,"lon":5.3714,"is_reserved":false,"is_disabled":true,"rental_uris":{"android":"levelo://app?vid=ecf682c9-b328-42d4-bf93-c673977dea5c","ios":"levelo://app?vid=ecf682c9-b328-42d4-bf93-c673977dea5c"},"vehicle_type_id":"4","last_reported":1761699340,"current_range_meters":6400,"station_id":"ce4bha92rcd13ifvqeh0","pricing_plan_id":"cebpf4jnsgd1na2vs0mg"},{"bike_id":"eea3c3c3-734f-4fd3-8061-ed84cfe47b38","system_id":"levelo_inurba_marseille","lat":43.32566,"lon":5.39125,"is_reserved":false,"is_disabled":false,"rental_uris":{"android":"levelo://app?vid=eea3c3c3-734f-4fd3-8061-ed84cfe47b38","ios":"levelo://app?vid=eea3c3c3-734f-4fd3-8061-ed84cfe47b38"},"vehicle_type_id":"4","last_reported":1761699340,"current_range_meters":6800,"station_id":"","pricing_plan_id":"cebpf4jnsgd1na2vs0mg"},{"bike_id":"8f96ca70-bef6-4af1-bc4b-113c98fdf5a0","system_id":"levelo_inurba_marseille","lat":43.27189,"lon":5.40989,"is_reserved":false,"is_disabled":false,"rental_uris":{"android":"levelo://app?vid=8f96ca70-bef6-4af1-bc4b-113c98fdf5a0","ios":"levelo://app?vid=8f96ca70-bef6-4af1-bc4b-113c98fdf5a0"},"vehicle_type_id":"4","last_reported":1761699340,"current_range_meters":7200,"station_id":"ce4bhl12rcd13ifvqgf0","pricing_plan_id":"cebpf4jnsgd1na2vs0mg"},{"bike_id":"7280d07b-7915-4045-8621-d34091f9f825","system_id":"levelo_inurba_marseille","lat":43.26502,"lon":5.39539,"is_reserved":false,"is_disabled":false,"rental_uris":{"android":"levelo://app?vid=7280d07b-7915-4045-8621-d34091f9f825","ios":"levelo://app?vid=7280d07b-7915-4045-8621-d34091f9f825"},"vehicle_type_id":"4","last_reported":1761699340,"current_range_meters":7200,"station_id":"ce4bhi12rcd13ifvqfq0","pricing_plan_id":"cebpf4jnsgd1na2vs0mg"},{"bike_id":"a58fc224-2878-4767-92d7-dfc7da4ca7ad","system_id":"levelo_inurba_marseille","lat":43.25,"lon":5.37636,"is_reserved":false,"is_disabled":false,"rental_uris":{"android":"levelo://app?vid=a58fc224-2878-4767-92d7-dfc7da4ca7ad","ios":"levelo://app?vid=a58fc224-2878-4767-92d7-dfc7da4ca7ad"},"vehicle_type_id":"4","last_reported":1761699340,"current_range_meters":7200,"station_id":"","pricing_plan_id":"cebpf4jnsgd1na2vs0mg"},{"bike_id":"07f188eb-bdce-4512-b54b-1516d85c5e09","system_id":"levelo_inurba_marseille","lat":43.243856,"lon":5.370497,"is_reserved":false,"is_disabled":false,"rental_uris":{"android":"levelo://app?vid=07f188eb-bdce-4512-b54b-1516d85c5e09","ios":"levelo://app?vid=07f188eb-bdce-4512-b54b-1516d85c5e09"},"vehicle_type_id":"4","last_reported":1761699340,"current_range_meters":7200,"station_id":"ce4bhhh2rcd13ifvqfk0","pricing_plan_id":"cebpf4jnsgd1na2vs0mg"},{"bike_id":"208a1fa9-c371-4a9e-bc97-d54ccd03a0b4","system_id":"levelo_inurba_marseille","lat":43.33785,"lon":5.37465,"is_reserved":false,"is_disabled":false,"rental_uris":{"android":"levelo://app?vid=208a1fa9-c371-4a9e-bc97-d54ccd03a0b4","ios":"levelo://app?vid=208a1fa9-c371-4a9e-bc97-d54ccd03a0b4"},"vehicle_type_id":"4","last_reported":1761699340,"current_range_meters":8000,"station_id":"","pricing_plan_id":"cebpf4jnsgd1na2vs0mg"},{"bike_id":"f2cfca52-bd97-4b84-8272-940d6ef94f46","system_id":"levelo_inurba_marseille","lat":43.28416,"lon":5.34992,"is_reserved":false,"is_disabled":false,"rental_uris":{"android":"levelo://app?vid=f2cfca52-bd97-4b84-8272-940d6ef94f46","ios":"levelo://app?vid=f2cfca52-bd97-4b84-8272-940d6ef94f46"},"vehicle_type_id":"4","last_reported":1761699340,"current_range_meters":8000,"station_id":"ce4bhbh2rcd13ifvqepg","pricing_plan_id":"cebpf4jnsgd1na2vs0mg"},{"bike_id":"1880ebb9-7edb-463e-976b-226e958b9ebe","system_id":"levelo_inurba_marseille","lat":43.31097,"lon":5.37487,"is_reserved":false,"is_disabled":false,"rental_uris":{"android":"levelo://app?vid=1880ebb9-7edb-463e-976b-226e958b9ebe","ios":"levelo://app?vid=1880ebb9-7edb-463e-976b-226e958b9ebe"},"vehicle_type_id":"4","last_reported":1761699340,"current_range_meters":8400,"station_id":"ce4bgt12rcd13ifvqce0","pricing_plan_id":"cebpf4jnsgd1na2vs0mg"},{"bike_id":"ff3ce436-1785-418e-8081-70fae0b4c310","system_id":"levelo_inurba_marseille","lat":43.2706,"lon":5.42264,"is_reserved":false,"is_disabled":false,"rental_uris":{"android":"levelo://app?vid=ff3ce436-1785-418e-8081-70fae0b4c310","ios":"levelo://app?vid=ff3ce436-1785-418e-8081-70fae0b4c310"},"vehicle_type_id":"4","last_reported":1761699340,"current_range_meters":8400,"station_id":"ce4bhk92rcd13ifvqgb0","pricing_plan_id":"cebpf4jnsgd1na2vs0mg"},{"bike_id":"f9484733-c07f-4293-8628-46871c65b913","system_id":"levelo_inurba_marseille","lat":43.25456,"lon":5.38104,"is_reserved":false,"is_disabled":false,"rental_uris":{"android":"levelo://app?vid=f9484733-c07f-4293-8628-46871c65b913","ios":"levelo://app?vid=f9484733-c07f-4293-8628-46871c65b913"},"vehicle_type_id":"4","last_reported":1761699340,"current_range_meters":8400,"station_id":"","pricing_plan_id":"cebpf4jnsgd1na2vs0mg"},{"bike_id":"3b82aff6-7cb9-43aa-944c-0f02fe4ef9fa","system_id":"levelo_inurba_marseille","lat":43.27896,"lon":5.3871,"is_reserved":false,"is_disabled":true,"rental_uris":{"android":"levelo://app?vid=3b82aff6-7cb9-43aa-944c-0f02fe4ef9fa","ios":"levelo://app?vid=3b82aff6-7cb9-43aa-944c-0f02fe4ef9fa"},"vehicle_type_id":"4","last_reported":1761699340,"current_range_meters":8400,"station_id":"","pricing_plan_id":"cebpf4jnsgd1na2vs0mg"},{"bike_id":"3e42f0f0-3181-45e7-a6a2-bde41c463aeb","system_id":"levelo_inurba_marseille","lat":43.30947,"lon":5.40144,"is_reserved":false,"is_disabled":false,"rental_uris":{"android":"levelo://app?vid=3e42f0f0-3181-45e7-a6a2-bde41c463aeb","ios":"levelo://app?vid=3e42f0f0-3181-45e7-a6a2-bde41c463aeb"},"vehicle_type_id":"4","last_reported":1761699340,"current_range_meters":8400,"station_id":"ce4bgvp2rcd13ifvqct0","pricing_plan_id":"cebpf4jnsgd1na2vs0mg"},{"bike_id":"a66f0200-c128-4852-8a2d-3c5cd71a379d","system_id":"levelo_inurba_marseille","lat":43.29281,"lon":5.40117,"is_reserved":false,"is_disabled":false,"rental_uris":{"android":"levelo://app?vid=a66f0200-c128-4852-8a2d-3c5cd71a379d","ios":"levelo://app?vid=a66f0200-c128-4852-8a2d-3c5cd71a379d"},"vehicle_type_id":"4","last_reported":1761699340,"current_range_meters":8800,"station_id":"ce4bh312rcd13ifvqdk0","pricing_plan_id":"cebpf4jnsgd1na2vs0mg"},{"bike_id":"dbcbcef0-4b5f-446e-9d2e-80d991993c2b","system_id":"levelo_inurba_marseille","lat":43.29553,"lon":5.40232,"is_reserved":false,"is_disabled":false,"rental_uris":{"android":"levelo://app?vid=dbcbcef0-4b5f-446e-9d2e-80d991993c2b","ios":"levelo://app?vid=dbcbcef0-4b5f-446e-9d2e-80d991993c2b"},"vehicle_type_id":"4","last_reported":1761699340,"current_range_meters":9200,"station_id":"","pricing_plan_id":"cebpf4jnsgd1na2vs0mg"},{"bike_id":"011ffc47-cab5-4e69-83ea-75158b7053d8","system_id":"levelo_inurba_marseille","lat":43.25581,"lon":5.38233,"is_reserved":false,"is_disabled":true,"rental_uris":{"android":"levelo://app?vid=011ffc47-cab5-4e69-83ea-75158b7053d8","ios":"levelo://app?vid=011ffc47-cab5-4e69-83ea-75158b7053d8"},"vehicle_type_id":"4","last_reported":1761699340,"current_range_meters":9200,"station_id":"ce4bhih2rcd13ifvqfs0","pricing_plan_id":"cebpf4jnsgd1na2vs0mg"},{"bike_id":"0da36f85-c9c3-4754-921b-9ff4fd26bd67","system_id":"levelo_inurba_marseille","lat":43.30337,"lon":5.39178,"is_reserved":false,"is_disabled":false,"rental_uris":{"android":"levelo://app?vid=0da36f85-c9c3-4754-921b-9ff4fd26bd67","ios":"levelo://app?vid=0da36f85-c9c3-4754-921b-9ff4fd26bd67"},"vehicle_type_id":"4","last_reported":1761699340,"current_range_meters":9200,"station_id":"ce4bgkh2rcd13ifvqbk0","pricing_plan_id":"cebpf4jnsgd1na2vs0mg"},{"bike_id":"eecef57d-1115-4654-92c3-e7ae1ae01ee6","system_id":"levelo_inurba_marseille","lat":43.27836,"lon":5.392,"is_reserved":false,"is_disabled":false,"rental_uris":{"android":"levelo://app?vid=eecef57d-1115-4654-92c3-e7ae1ae01ee6","ios":"levelo://app?vid=eecef57d-1115-4654-92c3-e7ae1ae01ee6"},"vehicle_type_id":"4","last_reported":1761699340,"current_range_meters":9600,"station_id":"ce4bhjp2rcd13ifvqga0","pricing_plan_id":"cebpf4jnsgd1na2vs0mg"},{"bike_id":"0706bd2c-a666-4666-8663-f4a6c5a6d055","system_id":"levelo_inurba_marseille","lat":43.2884,"lon":5.39241,"is_reserved":false,"is_disabled":false,"rental_uris":{"android":"levelo://app?vid=0706bd2c-a666-4666-8663-f4a6c5a6d055","ios":"levelo://app?vid=0706bd2c-a666-4666-8663-f4a6c5a6d055"},"vehicle_type_id":"4","last_reported":1761699340,"current_range_meters":9600,"station_id":"","pricing_plan_id":"cebpf4jnsgd1na2vs0mg"},{"bike_id":"872eb665-bdbb-4461-8b90-79087dafae89","system_id":"levelo_inurba_marseille","lat":43.26226,"lon":5.40449,"is_reserved":false,"is_disabled":false,"rental_uris":{"android":"levelo://app?vid=872eb665-bdbb-4461-8b90-79087dafae89","ios":"levelo://app?vid=872eb665-bdbb-4461-8b90-79087dafae89"},"vehicle_type_id":"4","last_reported":1761699340,"current_range_meters":9600,"station_id":"ce4bhmh2rcd13ifvqgmg","pricing_plan_id":"cebpf4jnsgd1na2vs0mg"},{"bike_id":"895851fd-9f94-4c26-bb54-5536d0e4a089","system_id":"levelo_inurba_marseille","lat":43.281,"lon":5.37827,"is_reserved":false,"is_disabled":false,"rental_uris":{"android":"levelo://app?vid=895851fd-9f94-4c26-bb54-5536d0e4a089","ios":"levelo://app?vid=895851fd-9f94-4c26-bb54-5536d0e4a089"},"vehicle_type_id":"4","last_reported":1761699340,"current_range_meters":9600,"station_id":"ce4bha12rcd13ifvqee0","pricing_plan_id":"cebpf4jnsgd1na2vs0mg"},{"bike_id":"3c4c68fb-85cd-4e39-ae27-71627ca05934","system_id":"levelo_inurba_marseille","lat":43.30425,"lon":5.39744,"is_reserved":false,"is_disabled":false,"rental_uris":{"android":"levelo://app?vid=3c4c68fb-85cd-4e39-ae27-71627ca05934","ios":"levelo://app?vid=3c4c68fb-85cd-4e39-ae27-71627ca05934"},"vehicle_type_id":"4","last_reported":1761699340,"current_range_meters":10000,"station_id":"ce4bh092rcd13ifvqd20","pricing_plan_id":"cebpf4jnsgd1na2vs0mg"},{"bike_id":"d81fe572-b0fb-4539-9e7a-4dbfc87474ff","system_id":"levelo_inurba_marseille","lat":43.28717,"lon":5.36085,"is_reserved":false,"is_disabled":false,"rental_uris":{"android":"levelo://app?vid=d81fe572-b0fb-4539-9e7a-4dbfc87474ff","ios":"levelo://app?vid=d81fe572-b0fb-4539-9e7a-4dbfc87474ff"},"vehicle_type_id":"4","last_reported":1761699340,"current_range_meters":10000,"station_id":"cki0cbj6b192h4jlfktg","pricing_plan_id":"cebpf4jnsgd1na2vs0mg"},{"bike_id":"dccef0b1-edb3-49b5-866c-43e10e5763cc","system_id":"levelo_inurba_marseille","lat":43.2882,"lon":5.43841,"is_reserved":false,"is_disabled":false,"rental_uris":{"android":"levelo://app?vid=dccef0b1-edb3-49b5-866c-43e10e5763cc","ios":"levelo://app?vid=dccef0b1-edb3-49b5-866c-43e10e5763cc"},"vehicle_type_id":"4","last_reported":1761699340,"current_range_meters":10000,"station_id":"","pricing_plan_id":"cebpf4jnsgd1na2vs0mg"},{"bike_id":"6abb9e09-33f3-43f3-9417-8cc0cf0144f6","system_id":"levelo_inurba_marseille","lat":43.29924,"lon":5.37451,"is_reserved":false,"is_disabled":true,"rental_uris":{"android":"levelo://app?vid=6abb9e09-33f3-43f3-9417-8cc0cf0144f6","ios":"levelo://app?vid=6abb9e09-33f3-43f3-9417-8cc0cf0144f6"},"vehicle_type_id":"4","last_reported":1761699340,"current_range_meters":10000,"station_id":"ce4bgjh2rcd13ifvqbg0","pricing_plan_id":"cebpf4jnsgd1na2vs0mg"},{"bike_id":"b31ed6ae-3d76-45d7-8116-a1a8a172f8d5","system_id":"levelo_inurba_marseille","lat":43.31491,"lon":5.37307,"is_reserved":false,"is_disabled":false,"rental_uris":{"android":"levelo://app?vid=b31ed6ae-3d76-45d7-8116-a1a8a172f8d5","ios":"levelo://app?vid=b31ed6ae-3d76-45d7-8116-a1a8a172f8d5"},"vehicle_type_id":"4","last_reported":1761699340,"current_range_meters":10000,"station_id":"ce4bgt12rcd13ifvqcd0","pricing_plan_id":"cebpf4jnsgd1na2vs0mg"},{"bike_id":"e531de68-38da-4941-a63d-d9c15e7e8533","system_id":"levelo_inurba_marseille","lat":43.30771,"lon":5.37642,"is_reserved":false,"is_disabled":false,"rental_uris":{"android":"levelo://app?vid=e531de68-38da-4941-a63d-d9c15e7e8533","ios":"levelo://app?vid=e531de68-38da-4941-a63d-d9c15e7e8533"},"vehicle_type_id":"4","last_reported":1761699340,"current_range_meters":10000,"station_id":"ce4bgv92rcd13ifvqcq0","pricing_plan_id":"cebpf4jnsgd1na2vs0mg"},{"bike_id":"897d1025-cdde-48ec-9b73-6418bafdbbc5","system_id":"levelo_inurba_marseille","lat":43.28074,"lon":5.34756,"is_reserved":false,"is_disabled":false,"rental_uris":{"android":"levelo://app?vid=897d1025-cdde-48ec-9b73-6418bafdbbc5","ios":"levelo://app?vid=897d1025-cdde-48ec-9b73-6418bafdbbc5"},"vehicle_type_id":"4","last_reported":1761699340,"current_range_meters":10000,"station_id":"","pricing_plan_id":"cebpf4jnsgd1na2vs0mg"},{"bike_id":"32a863b6-26b8-457c-992a-f0253dd4c910","system_id":"levelo_inurba_marseille","lat":43.28481,"lon":5.48395,"is_reserved":false,"is_disabled":false,"rental_uris":{"android":"levelo://app?vid=32a863b6-26b8-457c-992a-f0253dd4c910","ios":"levelo://app?vid=32a863b6-26b8-457c-992a-f0253dd4c910"},"vehicle_type_id":"4","last_reported":1761699340,"current_range_meters":10000,"station_id":"st_d3svhcjqgbts73a3dn0g","pricing_plan_id":"cebpf4jnsgd1na2vs0mg"},{"bike_id":"b6940c94-3786-4bdc-8c34-2e7e808ec0cd","system_id":"levelo_inurba_marseille","lat":43.28214,"lon":5.39043,"is_reserved":false,"is_disabled":false,"rental_uris":{"android":"levelo://app?vid=b6940c94-3786-4bdc-8c34-2e7e808ec0cd","ios":"levelo://app?vid=b6940c94-3786-4bdc-8c34-2e7e808ec0cd"},"vehicle_type_id":"4","last_reported":1761699340,"current_range_meters":10800,"station_id":"ce4bhn92rcd13ifvqgsg","pricing_plan_id":"cebpf4jnsgd1na2vs0mg"},{"bike_id":"b33dd93e-a353-4859-98de-f9819b9f0404","system_id":"levelo_inurba_marseille","lat":43.25078,"lon":5.39512,"is_reserved":false,"is_disabled":false,"rental_uris":{"android":"levelo://app?vid=b33dd93e-a353-4859-98de-f9819b9f0404","ios":"levelo://app?vid=b33dd93e-a353-4859-98de-f9819b9f0404"},"vehicle_type_id":"4","last_reported":1761699340,"current_range_meters":10800,"station_id":"ce4bhm12rcd13ifvqgkg","pricing_plan_id":"cebpf4jnsgd1na2vs0mg"},{"bike_id":"ae02210f-3a75-423b-b85c-34cdf2f682b3","system_id":"levelo_inurba_marseille","lat":43.284238,"lon":5.375167,"is_reserved":false,"is_disabled":false,"rental_uris":{"android":"levelo://app?vid=ae02210f-3a75-423b-b85c-34cdf2f682b3","ios":"levelo://app?vid=ae02210f-3a75-423b-b85c-34cdf2f682b3"},"vehicle_type_id":"4","last_reported":1761699340,"current_range_meters":10800,"station_id":"ce4bh412rcd13ifvqds0","pricing_plan_id":"cebpf4jnsgd1na2vs0mg"},{"bike_id":"2dadb0b7-125c-4cad-a51f-e306e38949dd","system_id":"levelo_inurba_marseille","lat":43.25341,"lon":5.4217,"is_reserved":false,"is_disabled":false,"rental_uris":{"android":"levelo://app?vid=2dadb0b7-125c-4cad-a51f-e306e38949dd","ios":"levelo://app?vid=2dadb0b7-125c-4cad-a51f-e306e38949dd"},"vehicle_type_id":"4","last_reported":1761699340,"current_range_meters":10800,"station_id":"st_d2m65c5bi1j21697t3ng","pricing_plan_id":"cebpf4jnsgd1na2vs0mg"},{"bike_id":"05348a72-033c-4422-aaa9-58cc959b0648","system_id":"levelo_inurba_marseille","lat":43.24133,"lon":5.37707,"is_reserved":false,"is_disabled":false,"rental_uris":{"android":"levelo://app?vid=05348a72-033c-4422-aaa9-58cc959b0648","ios":"levelo://app?vid=05348a72-033c-4422-aaa9-58cc959b0648"},"vehicle_type_id":"4","last_reported":1761699340,"current_range_meters":10800,"station_id":"ce4bhnp2rcd13ifvqgvg","pricing_plan_id":"cebpf4jnsgd1na2vs0mg"},{"bike_id":"e68f19ec-6316-4a47-919b-a01164633315","system_id":"levelo_inurba_marseille","lat":43.25096,"lon":5.39524,"is_reserved":false,"is_disabled":true,"rental_uris":{"android":"levelo://app?vid=e68f19ec-6316-4a47-919b-a01164633315","ios":"levelo://app?vid=e68f19ec-6316-4a47-919b-a01164633315"},"vehicle_type_id":"4","last_reported":1761699340,"current_range_meters":10800,"station_id":"ce4bhm12rcd13ifvqgkg","pricing_plan_id":"cebpf4jnsgd1na2vs0mg"},{"bike_id":"d5ca831f-8041-403e-ada8-7b4196c3d5be","system_id":"levelo_inurba_marseille","lat":43.293714,"lon":5.379385,"is_reserved":false,"is_disabled":false,"rental_uris":{"android":"levelo://app?vid=d5ca831f-8041-403e-ada8-7b4196c3d5be","ios":"levelo://app?vid=d5ca831f-8041-403e-ada8-7b4196c3d5be"},"vehicle_type_id":"4","last_reported":1761699340,"current_range_meters":10800,"station_id":"","pricing_plan_id":"cebpf4jnsgd1na2vs0mg"},{"bike_id":"13e2c97f-09dd-4126-9b7a-0eb2e83aba46","system_id":"levelo_inurba_marseille","lat":43.2895,"lon":5.36398,"is_reserved":false,"is_disabled":false,"rental_uris":{"android":"levelo://app?vid=13e2c97f-09dd-4126-9b7a-0eb2e83aba46","ios":"levelo://app?vid=13e2c97f-09dd-4126-9b7a-0eb2e83aba46"},"vehicle_type_id":"4","last_reported":1761699340,"current_range_meters":10800,"station_id":"ce4bhc92rcd13ifvqetg","pricing_plan_id":"cebpf4jnsgd1na2vs0mg"},{"bike_id":"e45087bf-7172-401b-99e0-3a0a7e8c21bf","system_id":"levelo_inurba_marseille","lat":43.28417,"lon":5.34987,"is_reserved":false,"is_disabled":false,"rental_uris":{"android":"levelo://app?vid=e45087bf-7172-401b-99e0-3a0a7e8c21bf","ios":"levelo://app?vid=e45087bf-7172-401b-99e0-3a0a7e8c21bf"},"vehicle_type_id":"4","last_reported":1761699340,"current_range_meters":11200,"station_id":"ce4bhbh2rcd13ifvqepg","pricing_plan_id":"cebpf4jnsgd1na2vs0mg"},{"bike_id":"d2ce14a1-e9f5-407b-a0c3-2e69d0a16a79","system_id":"levelo_inurba_marseille","lat":43.28219,"lon":5.39077,"is_reserved":false,"is_disabled":true,"rental_uris":{"android":"levelo://app?vid=d2ce14a1-e9f5-407b-a0c3-2e69d0a16a79","ios":"levelo://app?vid=d2ce14a1-e9f5-407b-a0c3-2e69d0a16a79"},"vehicle_type_id":"4","last_reported":1761699340,"current_range_meters":11200,"station_id":"ce4bhn92rcd13ifvqgsg","pricing_plan_id":"cebpf4jnsgd1na2vs0mg"},{"bike_id":"17ed224b-9fac-4dcb-97d7-d39708298032","system_id":"levelo_inurba_marseille","lat":43.28856,"lon":5.35853,"is_reserved":false,"is_disabled":false,"rental_uris":{"android":"levelo://app?vid=17ed224b-9fac-4dcb-97d7-d39708298032","ios":"levelo://app?vid=17ed224b-9fac-4dcb-97d7-d39708298032"},"vehicle_type_id":"4","last_reported":1761699340,"current_range_meters":11200,"station_id":"ce4bhb12rcd13ifvqem0","pricing_plan_id":"cebpf4jnsgd1na2vs0mg"},{"bike_id":"8a725d88-50bd-4351-84ea-d232021839e3","system_id":"levelo_inurba_marseille","lat":43.25558,"lon":5.39393,"is_reserved":false,"is_disabled":false,"rental_uris":{"android":"levelo://app?vid=8a725d88-50bd-4351-84ea-d232021839e3","ios":"levelo://app?vid=8a725d88-50bd-4351-84ea-d232021839e3"},"vehicle_type_id":"4","last_reported":1761699340,"current_range_meters":11200,"station_id":"","pricing_plan_id":"cebpf4jnsgd1na2vs0mg"},{"bike_id":"1975be38-f301-42ba-a022-50bba37a3dac","system_id":"levelo_inurba_marseille","lat":43.28398,"lon":5.37515,"is_reserved":false,"is_disabled":false,"rental_uris":{"android":"levelo://app?vid=1975be38-f301-42ba-a022-50bba37a3dac","ios":"levelo://app?vid=1975be38-f301-42ba-a022-50bba37a3dac"},"vehicle_type_id":"4","last_reported":1761699340,"current_range_meters":11200,"station_id":"ce4bh412rcd13ifvqds0","pricing_plan_id":"cebpf4jnsgd1na2vs0mg"},{"bike_id":"3ae65f0b-2239-4eef-94d2-4c10c327bb85","system_id":"levelo_inurba_marseille","lat":43.27914,"lon":5.39578,"is_reserved":false,"is_disabled":false,"rental_uris":{"android":"levelo://app?vid=3ae65f0b-2239-4eef-94d2-4c10c327bb85","ios":"levelo://app?vid=3ae65f0b-2239-4eef-94d2-4c10c327bb85"},"vehicle_type_id":"4","last_reported":1761699340,"current_range_meters":11600,"station_id":"ce4bhf92rcd13ifvqf40","pricing_plan_id":"cebpf4jnsgd1na2vs0mg"},{"bike_id":"dced2bcc-e95f-44ce-b7d8-7bb47def612a","system_id":"levelo_inurba_marseille","lat":43.23064,"lon":5.35494,"is_reserved":false,"is_disabled":false,"rental_uris":{"android":"levelo://app?vid=dced2bcc-e95f-44ce-b7d8-7bb47def612a","ios":"levelo://app?vid=dced2bcc-e95f-44ce-b7d8-7bb47def612a"},"vehicle_type_id":"4","last_reported":1761699340,"current_range_meters":11600,"station_id":"cpo3342slgdg3j2ifvpg","pricing_plan_id":"cebpf4jnsgd1na2vs0mg"},{"bike_id":"09f3f1dd-94b1-4be4-9fb0-1498a4011c94","system_id":"levelo_inurba_marseille","lat":43.28409,"lon":5.37551,"is_reserved":false,"is_disabled":false,"rental_uris":{"android":"levelo://app?vid=09f3f1dd-94b1-4be4-9fb0-1498a4011c94","ios":"levelo://app?vid=09f3f1dd-94b1-4be4-9fb0-1498a4011c94"},"vehicle_type_id":"4","last_reported":1761699340,"current_range_meters":11600,"station_id":"ce4bh412rcd13ifvqds0","pricing_plan_id":"cebpf4jnsgd1na2vs0mg"},{"bike_id":"f1b32764-5ab9-4e8e-a35a-116f87feb363","system_id":"levelo_inurba_marseille","lat":43.303193,"lon":5.404397,"is_reserved":false,"is_disabled":false,"rental_uris":{"android":"levelo://app?vid=f1b32764-5ab9-4e8e-a35a-116f87feb363","ios":"levelo://app?vid=f1b32764-5ab9-4e8e-a35a-116f87feb363"},"vehicle_type_id":"4","last_reported":1761699340,"current_range_meters":11600,"station_id":"ce4bh012rcd13ifvqd10","pricing_plan_id":"cebpf4jnsgd1na2vs0mg"},{"bike_id":"720466cc-999a-4d77-9e26-053a3dffc8ba","system_id":"levelo_inurba_marseille","lat":43.3235,"lon":5.38876,"is_reserved":false,"is_disabled":false,"rental_uris":{"android":"levelo://app?vid=720466cc-999a-4d77-9e26-053a3dffc8ba","ios":"levelo://app?vid=720466cc-999a-4d77-9e26-053a3dffc8ba"},"vehicle_type_id":"4","last_reported":1761699340,"current_range_meters":11600,"station_id":"ce4bhqp2rcd13ifvqhog","pricing_plan_id":"cebpf4jnsgd1na2vs0mg"},{"bike_id":"456ea219-5670-48a5-ab3b-8a80dfa6db42","system_id":"levelo_inurba_marseille","lat":43.28614,"lon":5.35105,"is_reserved":false,"is_disabled":false,"rental_uris":{"android":"levelo://app?vid=456ea219-5670-48a5-ab3b-8a80dfa6db42","ios":"levelo://app?vid=456ea219-5670-48a5-ab3b-8a80dfa6db42"},"vehicle_type_id":"4","last_reported":1761699340,"current_range_meters":11600,"station_id":"ce4bhch2rcd13ifvqeug","pricing_plan_id":"cebpf4jnsgd1na2vs0mg"},{"bike_id":"aa0e7e4b-f890-4f53-a40a-615d9f77115a","system_id":"levelo_inurba_marseille","lat":43.32116,"lon":5.36803,"is_reserved":false,"is_disabled":false,"rental_uris":{"android":"levelo://app?vid=aa0e7e4b-f890-4f53-a40a-615d9f77115a","ios":"levelo://app?vid=aa0e7e4b-f890-4f53-a40a-615d9f77115a"},"vehicle_type_id":"4","last_reported":1761699340,"current_range_meters":12000,"station_id":"ce4bhrh2rcd13ifvqhug","pricing_plan_id":"cebpf4jnsgd1na2vs0mg"},{"bike_id":"eea91071-a585-455f-a824-596ec59b39cb","system_id":"levelo_inurba_marseille","lat":43.25337,"lon":5.42174,"is_reserved":false,"is_disabled":false,"rental_uris":{"android":"levelo://app?vid=eea91071-a585-455f-a824-596ec59b39cb","ios":"levelo://app?vid=eea91071-a585-455f-a824-596ec59b39cb"},"vehicle_type_id":"4","last_reported":1761699340,"current_range_meters":12000,"station_id":"st_d2m65c5bi1j21697t3ng","pricing_plan_id":"cebpf4jnsgd1na2vs0mg"},{"bike_id":"f202aef9-db9c-4b5f-b19b-62f40b9a9dba","system_id":"levelo_inurba_marseille","lat":43.24071,"lon":5.37744,"is_reserved":false,"is_disabled":false,"rental_uris":{"android":"levelo://app?vid=f202aef9-db9c-4b5f-b19b-62f40b9a9dba","ios":"levelo://app?vid=f202aef9-db9c-4b5f-b19b-62f40b9a9dba"},"vehicle_type_id":"4","last_reported":1761699340,"current_range_meters":12000,"station_id":"ce4bhnp2rcd13ifvqgvg","pricing_plan_id":"cebpf4jnsgd1na2vs0mg"},{"bike_id":"f60a7700-bc4c-43e4-b702-06a1910564ff","system_id":"levelo_inurba_marseille","lat":43.29979,"lon":5.37176,"is_reserved":false,"is_disabled":false,"rental_uris":{"android":"levelo://app?vid=f60a7700-bc4c-43e4-b702-06a1910564ff","ios":"levelo://app?vid=f60a7700-bc4c-43e4-b702-06a1910564ff"},"vehicle_type_id":"4","last_reported":1761699340,"current_range_meters":12000,"station_id":"ce4bgr92rcd13ifvqc7g","pricing_plan_id":"cebpf4jnsgd1na2vs0mg"},{"bike_id":"49ed0d39-51fe-4cd4-8527-50556baa8749","system_id":"levelo_inurba_marseille","lat":43.22531,"lon":5.348321,"is_reserved":false,"is_disabled":false,"rental_uris":{"android":"levelo://app?vid=49ed0d39-51fe-4cd4-8527-50556baa8749","ios":"levelo://app?vid=49ed0d39-51fe-4cd4-8527-50556baa8749"},"vehicle_type_id":"4","last_reported":1761699340,"current_range_meters":12000,"station_id":"","pricing_plan_id":"cebpf4jnsgd1na2vs0mg"},{"bike_id":"e362f4ba-3ff5-409c-847f-dbee0482ec04","system_id":"levelo_inurba_marseille","lat":43.29978,"lon":5.37196,"is_reserved":false,"is_disabled":true,"rental_uris":{"android":"levelo://app?vid=e362f4ba-3ff5-409c-847f-dbee0482ec04","ios":"levelo://app?vid=e362f4ba-3ff5-409c-847f-dbee0482ec04"},"vehicle_type_id":"4","last_reported":1761699340,"current_range_meters":12000,"station_id":"ce4bgr92rcd13ifvqc7g","pricing_plan_id":"cebpf4jnsgd1na2vs0mg"},{"bike_id":"ce00e885-a781-4efe-acd7-bb2e5665d1e7","system_id":"levelo_inurba_marseille","lat":43.284,"lon":5.37523,"is_reserved":false,"is_disabled":false,"rental_uris":{"android":"levelo://app?vid=ce00e885-a781-4efe-acd7-bb2e5665d1e7","ios":"levelo://app?vid=ce00e885-a781-4efe-acd7-bb2e5665d1e7"},"vehicle_type_id":"4","last_reported":1761699340,"current_range_meters":12400,"station_id":"ce4bh412rcd13ifvqds0","pricing_plan_id":"cebpf4jnsgd1na2vs0mg"},{"bike_id":"73fecdac-6940-4a9c-a46d-ed7ede6c3c2c","system_id":"levelo_inurba_marseille","lat":43.27372,"lon":5.36268,"is_reserved":false,"is_disabled":false,"rental_uris":{"android":"levelo://app?vid=73fecdac-6940-4a9c-a46d-ed7ede6c3c2c","ios":"levelo://app?vid=73fecdac-6940-4a9c-a46d-ed7ede6c3c2c"},"vehicle_type_id":"4","last_reported":1761699340,"current_range_meters":12400,"station_id":"ce4bhbh2rcd13ifvqeo0","pricing_plan_id":"cebpf4jnsgd1na2vs0mg"},{"bike_id":"afa055a5-88e6-4d87-a9f4-2fc9a20f3a43","system_id":"levelo_inurba_marseille","lat":43.28615,"lon":5.35108,"is_reserved":false,"is_disabled":false,"rental_uris":{"android":"levelo://app?vid=afa055a5-88e6-4d87-a9f4-2fc9a20f3a43","ios":"levelo://app?vid=afa055a5-88e6-4d87-a9f4-2fc9a20f3a43"},"vehicle_type_id":"4","last_reported":1761699340,"current_range_meters":12400,"station_id":"ce4bhch2rcd13ifvqeug","pricing_plan_id":"cebpf4jnsgd1na2vs0mg"},{"bike_id":"32d7653e-b033-4183-b4c0-f44169bb9067","system_id":"levelo_inurba_marseille","lat":43.32741,"lon":5.39246,"is_reserved":false,"is_disabled":false,"rental_uris":{"android":"levelo://app?vid=32d7653e-b033-4183-b4c0-f44169bb9067","ios":"levelo://app?vid=32d7653e-b033-4183-b4c0-f44169bb9067"},"vehicle_type_id":"4","last_reported":1761699340,"current_range_meters":12400,"station_id":"","pricing_plan_id":"cebpf4jnsgd1na2vs0mg"},{"bike_id":"fba1ca92-07b4-4313-9c9c-871e825bbe8b","system_id":"levelo_inurba_marseille","lat":43.3026,"lon":5.40068,"is_reserved":false,"is_disabled":false,"rental_uris":{"android":"levelo://app?vid=fba1ca92-07b4-4313-9c9c-871e825bbe8b","ios":"levelo://app?vid=fba1ca92-07b4-4313-9c9c-871e825bbe8b"},"vehicle_type_id":"4","last_reported":1761699340,"current_range_meters":12400,"station_id":"ce4bgvh2rcd13ifvqcs0","pricing_plan_id":"cebpf4jnsgd1na2vs0mg"},{"bike_id":"94e6b0aa-f8c9-477e-8091-c3a189e0f238","system_id":"levelo_inurba_marseille","lat":43.29666,"lon":5.38119,"is_reserved":false,"is_disabled":false,"rental_uris":{"android":"levelo://app?vid=94e6b0aa-f8c9-477e-8091-c3a189e0f238","ios":"levelo://app?vid=94e6b0aa-f8c9-477e-8091-c3a189e0f238"},"vehicle_type_id":"4","last_reported":1761699340,"current_range_meters":12800,"station_id":"","pricing_plan_id":"cebpf4jnsgd1na2vs0mg"},{"bike_id":"2be3bf9b-39f4-4c37-8c01-9e9bcabe1c53","system_id":"levelo_inurba_marseille","lat":43.33741,"lon":5.37444,"is_reserved":false,"is_disabled":false,"rental_uris":{"android":"levelo://app?vid=2be3bf9b-39f4-4c37-8c01-9e9bcabe1c53","ios":"levelo://app?vid=2be3bf9b-39f4-4c37-8c01-9e9bcabe1c53"},"vehicle_type_id":"4","last_reported":1761699340,"current_range_meters":12800,"station_id":"","pricing_plan_id":"cebpf4jnsgd1na2vs0mg"},{"bike_id":"4bb3e8b4-6e48-4173-b7cd-2b6fbb2cb110","system_id":"levelo_inurba_marseille","lat":43.24077,"lon":5.37756,"is_reserved":false,"is_disabled":false,"rental_uris":{"android":"levelo://app?vid=4bb3e8b4-6e48-4173-b7cd-2b6fbb2cb110","ios":"levelo://app?vid=4bb3e8b4-6e48-4173-b7cd-2b6fbb2cb110"},"vehicle_type_id":"4","last_reported":1761699340,"current_range_meters":12800,"station_id":"ce4bhnp2rcd13ifvqgvg","pricing_plan_id":"cebpf4jnsgd1na2vs0mg"},{"bike_id":"ad2b616b-8c0a-4505-ab09-e32dff603bda","system_id":"levelo_inurba_marseille","lat":43.31726,"lon":5.42396,"is_reserved":false,"is_disabled":false,"rental_uris":{"android":"levelo://app?vid=ad2b616b-8c0a-4505-ab09-e32dff603bda","ios":"levelo://app?vid=ad2b616b-8c0a-4505-ab09-e32dff603bda"},"vehicle_type_id":"4","last_reported":1761699340,"current_range_meters":12800,"station_id":"ce4bhp92rcd13ifvqhbg","pricing_plan_id":"cebpf4jnsgd1na2vs0mg"},{"bike_id":"ae8ebe94-fc0f-4409-8f77-39eb5c613a67","system_id":"levelo_inurba_marseille","lat":43.337444,"lon":5.374475,"is_reserved":false,"is_disabled":false,"rental_uris":{"android":"levelo://app?vid=ae8ebe94-fc0f-4409-8f77-39eb5c613a67","ios":"levelo://app?vid=ae8ebe94-fc0f-4409-8f77-39eb5c613a67"},"vehicle_type_id":"4","last_reported":1761699340,"current_range_meters":13600,"station_id":"","pricing_plan_id":"cebpf4jnsgd1na2vs0mg"},{"bike_id":"f5797326-3c99-49ed-b5ea-113d3e51334b","system_id":"levelo_inurba_marseille","lat":43.30874,"lon":5.39646,"is_reserved":false,"is_disabled":false,"rental_uris":{"android":"levelo://app?vid=f5797326-3c99-49ed-b5ea-113d3e51334b","ios":"levelo://app?vid=f5797326-3c99-49ed-b5ea-113d3e51334b"},"vehicle_type_id":"4","last_reported":1761699340,"current_range_meters":13600,"station_id":"ce4bh012rcd13ifvqcv0","pricing_plan_id":"cebpf4jnsgd1na2vs0mg"},{"bike_id":"813b0e57-2c36-42ec-aee0-add73db61124","system_id":"levelo_inurba_marseille","lat":43.30869,"lon":5.39654,"is_reserved":false,"is_disabled":false,"rental_uris":{"android":"levelo://app?vid=813b0e57-2c36-42ec-aee0-add73db61124","ios":"levelo://app?vid=813b0e57-2c36-42ec-aee0-add73db61124"},"vehicle_type_id":"4","last_reported":1761699340,"current_range_meters":13600,"station_id":"ce4bh012rcd13ifvqcv0","pricing_plan_id":"cebpf4jnsgd1na2vs0mg"},{"bike_id":"65a4bf0b-a957-4ac2-9c71-1b1f4c5610cb","system_id":"levelo_inurba_marseille","lat":43.27991,"lon":5.41654,"is_reserved":false,"is_disabled":false,"rental_uris":{"android":"levelo://app?vid=65a4bf0b-a957-4ac2-9c71-1b1f4c5610cb","ios":"levelo://app?vid=65a4bf0b-a957-4ac2-9c71-1b1f4c5610cb"},"vehicle_type_id":"4","last_reported":1761699340,"current_range_meters":13600,"station_id":"ce4bho12rcd13ifvqh1g","pricing_plan_id":"cebpf4jnsgd1na2vs0mg"},{"bike_id":"9c97335d-e5a0-4807-8718-cc9e9bd0f749","system_id":"levelo_inurba_marseille","lat":43.25064,"lon":5.39547,"is_reserved":false,"is_disabled":false,"rental_uris":{"android":"levelo://app?vid=9c97335d-e5a0-4807-8718-cc9e9bd0f749","ios":"levelo://app?vid=9c97335d-e5a0-4807-8718-cc9e9bd0f749"},"vehicle_type_id":"4","last_reported":1761699340,"current_range_meters":13600,"station_id":"ce4bhm12rcd13ifvqgkg","pricing_plan_id":"cebpf4jnsgd1na2vs0mg"},{"bike_id":"0461d431-3fcf-4af1-88fa-dbb3a8ad29a0","system_id":"levelo_inurba_marseille","lat":43.286129,"lon":5.351054,"is_reserved":false,"is_disabled":false,"rental_uris":{"android":"levelo://app?vid=0461d431-3fcf-4af1-88fa-dbb3a8ad29a0","ios":"levelo://app?vid=0461d431-3fcf-4af1-88fa-dbb3a8ad29a0"},"vehicle_type_id":"4","last_reported":1761699340,"current_range_meters":13600,"station_id":"ce4bhch2rcd13ifvqeug","pricing_plan_id":"cebpf4jnsgd1na2vs0mg"},{"bike_id":"a2c44ae7-52cc-4b80-a772-211a26fa85b1","system_id":"levelo_inurba_marseille","lat":43.30205,"lon":5.36648,"is_reserved":false,"is_disabled":true,"rental_uris":{"android":"levelo://app?vid=a2c44ae7-52cc-4b80-a772-211a26fa85b1","ios":"levelo://app?vid=a2c44ae7-52cc-4b80-a772-211a26fa85b1"},"vehicle_type_id":"4","last_reported":1761699340,"current_range_meters":14000,"station_id":"ce4bgrh2rcd13ifvqc8g","pricing_plan_id":"cebpf4jnsgd1na2vs0mg"},{"bike_id":"82c3d2c8-f0bf-446e-b125-018f07998329","system_id":"levelo_inurba_marseille","lat":43.32758,"lon":5.40093,"is_reserved":false,"is_disabled":false,"rental_uris":{"android":"levelo://app?vid=82c3d2c8-f0bf-446e-b125-018f07998329","ios":"levelo://app?vid=82c3d2c8-f0bf-446e-b125-018f07998329"},"vehicle_type_id":"4","last_reported":1761699340,"current_range_meters":14000,"station_id":"","pricing_plan_id":"cebpf4jnsgd1na2vs0mg"},{"bike_id":"798a6099-226a-447c-bc36-82e620e156b7","system_id":"levelo_inurba_marseille","lat":43.28863,"lon":5.35832,"is_reserved":false,"is_disabled":false,"rental_uris":{"android":"levelo://app?vid=798a6099-226a-447c-bc36-82e620e156b7","ios":"levelo://app?vid=798a6099-226a-447c-bc36-82e620e156b7"},"vehicle_type_id":"4","last_reported":1761699340,"current_range_meters":14000,"station_id":"ce4bhb12rcd13ifvqem0","pricing_plan_id":"cebpf4jnsgd1na2vs0mg"},{"bike_id":"0fe0fa9d-3849-42e0-9d91-2a44bca39c06","system_id":"levelo_inurba_marseille","lat":43.30883,"lon":5.39631,"is_reserved":false,"is_disabled":false,"rental_uris":{"android":"levelo://app?vid=0fe0fa9d-3849-42e0-9d91-2a44bca39c06","ios":"levelo://app?vid=0fe0fa9d-3849-42e0-9d91-2a44bca39c06"},"vehicle_type_id":"4","last_reported":1761699340,"current_range_meters":14400,"station_id":"ce4bh012rcd13ifvqcv0","pricing_plan_id":"cebpf4jnsgd1na2vs0mg"},{"bike_id":"cefcc05b-5b04-4de3-a03a-e33a7e0b205b","system_id":"levelo_inurba_marseille","lat":43.265507,"lon":5.372864,"is_reserved":false,"is_disabled":false,"rental_uris":{"android":"levelo://app?vid=cefcc05b-5b04-4de3-a03a-e33a7e0b205b","ios":"levelo://app?vid=cefcc05b-5b04-4de3-a03a-e33a7e0b205b"},"vehicle_type_id":"4","last_reported":1761699340,"current_range_meters":14400,"station_id":"","pricing_plan_id":"cebpf4jnsgd1na2vs0mg"},{"bike_id":"02dd205b-e97c-4104-9683-066d2523fd3f","system_id":"levelo_inurba_marseille","lat":43.23063,"lon":5.35485,"is_reserved":false,"is_disabled":false,"rental_uris":{"android":"levelo://app?vid=02dd205b-e97c-4104-9683-066d2523fd3f","ios":"levelo://app?vid=02dd205b-e97c-4104-9683-066d2523fd3f"},"vehicle_type_id":"4","last_reported":1761699340,"current_range_meters":14400,"station_id":"cpo3342slgdg3j2ifvpg","pricing_plan_id":"cebpf4jnsgd1na2vs0mg"},{"bike_id":"d24a2c68-94c2-4577-88eb-bd161c9ebb38","system_id":"levelo_inurba_marseille","lat":43.225311,"lon":5.348358,"is_reserved":false,"is_disabled":false,"rental_uris":{"android":"levelo://app?vid=d24a2c68-94c2-4577-88eb-bd161c9ebb38","ios":"levelo://app?vid=d24a2c68-94c2-4577-88eb-bd161c9ebb38"},"vehicle_type_id":"4","last_reported":1761699340,"current_range_meters":14800,"station_id":"","pricing_plan_id":"cebpf4jnsgd1na2vs0mg"},{"bike_id":"93ee39ab-a2b5-4ffa-a898-c3e3f66b5472","system_id":"levelo_inurba_marseille","lat":43.3025,"lon":5.40063,"is_reserved":false,"is_disabled":false,"rental_uris":{"android":"levelo://app?vid=93ee39ab-a2b5-4ffa-a898-c3e3f66b5472","ios":"levelo://app?vid=93ee39ab-a2b5-4ffa-a898-c3e3f66b5472"},"vehicle_type_id":"4","last_reported":1761699340,"current_range_meters":14800,"station_id":"ce4bgvh2rcd13ifvqcs0","pricing_plan_id":"cebpf4jnsgd1na2vs0mg"},{"bike_id":"1c39ca45-45e0-4674-9290-6314a987d622","system_id":"levelo_inurba_marseille","lat":43.30804,"lon":5.3818,"is_reserved":false,"is_disabled":false,"rental_uris":{"android":"levelo://app?vid=1c39ca45-45e0-4674-9290-6314a987d622","ios":"levelo://app?vid=1c39ca45-45e0-4674-9290-6314a987d622"},"vehicle_type_id":"4","last_reported":1761699340,"current_range_meters":15200,"station_id":"ce4bgt12rcd13ifvqce0","pricing_plan_id":"cebpf4jnsgd1na2vs0mg"},{"bike_id":"920f62b1-026a-4d7c-bea0-bc8529efef3b","system_id":"levelo_inurba_marseille","lat":43.28266,"lon":5.35072,"is_reserved":false,"is_disabled":false,"rental_uris":{"android":"levelo://app?vid=920f62b1-026a-4d7c-bea0-bc8529efef3b","ios":"levelo://app?vid=920f62b1-026a-4d7c-bea0-bc8529efef3b"},"vehicle_type_id":"4","last_reported":1761699340,"current_range_meters":15200,"station_id":"ce4bhbp2rcd13ifvqerg","pricing_plan_id":"cebpf4jnsgd1na2vs0mg"},{"bike_id":"d0690c13-9a20-4e67-8db5-0c03b6402e8a","system_id":"levelo_inurba_marseille","lat":43.31498,"lon":5.37305,"is_reserved":false,"is_disabled":false,"rental_uris":{"android":"levelo://app?vid=d0690c13-9a20-4e67-8db5-0c03b6402e8a","ios":"levelo://app?vid=d0690c13-9a20-4e67-8db5-0c03b6402e8a"},"vehicle_type_id":"4","last_reported":1761699340,"current_range_meters":15200,"station_id":"ce4bgt12rcd13ifvqcd0","pricing_plan_id":"cebpf4jnsgd1na2vs0mg"},{"bike_id":"546a1567-ca89-4a1a-b362-e25669b6ffb0","system_id":"levelo_inurba_marseille","lat":43.27194,"lon":5.40974,"is_reserved":false,"is_disabled":false,"rental_uris":{"android":"levelo://app?vid=546a1567-ca89-4a1a-b362-e25669b6ffb0","ios":"levelo://app?vid=546a1567-ca89-4a1a-b362-e25669b6ffb0"},"vehicle_type_id":"4","last_reported":1761699340,"current_range_meters":15200,"station_id":"ce4bhl12rcd13ifvqgf0","pricing_plan_id":"cebpf4jnsgd1na2vs0mg"},{"bike_id":"fc8dce04-fa9b-4511-9944-96d30aadef1b","system_id":"levelo_inurba_marseille","lat":43.30338,"lon":5.40436,"is_reserved":false,"is_disabled":false,"rental_uris":{"android":"levelo://app?vid=fc8dce04-fa9b-4511-9944-96d30aadef1b","ios":"levelo://app?vid=fc8dce04-fa9b-4511-9944-96d30aadef1b"},"vehicle_type_id":"4","last_reported":1761699340,"current_range_meters":15200,"station_id":"ce4bh012rcd13ifvqd10","pricing_plan_id":"cebpf4jnsgd1na2vs0mg"},{"bike_id":"2c80b54e-bbc1-4de7-afdf-9b0246ad8a4c","system_id":"levelo_inurba_marseille","lat":43.24812,"lon":5.37453,"is_reserved":false,"is_disabled":false,"rental_uris":{"android":"levelo://app?vid=2c80b54e-bbc1-4de7-afdf-9b0246ad8a4c","ios":"levelo://app?vid=2c80b54e-bbc1-4de7-afdf-9b0246ad8a4c"},"vehicle_type_id":"4","last_reported":1761699340,"current_range_meters":16000,"station_id":"ce4bhgh2rcd13ifvqfb0","pricing_plan_id":"cebpf4jnsgd1na2vs0mg"},{"bike_id":"3647a140-bc93-465d-8d47-e974143959e0","system_id":"levelo_inurba_marseille","lat":43.28714,"lon":5.3609,"is_reserved":false,"is_disabled":false,"rental_uris":{"android":"levelo://app?vid=3647a140-bc93-465d-8d47-e974143959e0","ios":"levelo://app?vid=3647a140-bc93-465d-8d47-e974143959e0"},"vehicle_type_id":"4","last_reported":1761699340,"current_range_meters":16000,"station_id":"cki0cbj6b192h4jlfktg","pricing_plan_id":"cebpf4jnsgd1na2vs0mg"},{"bike_id":"bb9370ef-3590-41dd-8c39-3a78062a4405","system_id":"levelo_inurba_marseille","lat":43.2656,"lon":5.37278,"is_reserved":false,"is_disabled":false,"rental_uris":{"android":"levelo://app?vid=bb9370ef-3590-41dd-8c39-3a78062a4405","ios":"levelo://app?vid=bb9370ef-3590-41dd-8c39-3a78062a4405"},"vehicle_type_id":"4","last_reported":1761699340,"current_range_meters":16000,"station_id":"ce4bhg12rcd13ifvqf70","pricing_plan_id":"cebpf4jnsgd1na2vs0mg"},{"bike_id":"d3ab1928-98af-4dd7-b21d-a67c16787d2a","system_id":"levelo_inurba_marseille","lat":43.31732,"lon":5.40405,"is_reserved":false,"is_disabled":false,"rental_uris":{"android":"levelo://app?vid=d3ab1928-98af-4dd7-b21d-a67c16787d2a","ios":"levelo://app?vid=d3ab1928-98af-4dd7-b21d-a67c16787d2a"},"vehicle_type_id":"4","last_reported":1761699340,"current_range_meters":16000,"station_id":"","pricing_plan_id":"cebpf4jnsgd1na2vs0mg"},{"bike_id":"6828e858-378a-4971-8510-eff63c493e9d","system_id":"levelo_inurba_marseille","lat":43.28714,"lon":5.36078,"is_reserved":false,"is_disabled":false,"rental_uris":{"android":"levelo://app?vid=6828e858-378a-4971-8510-eff63c493e9d","ios":"levelo://app?vid=6828e858-378a-4971-8510-eff63c493e9d"},"vehicle_type_id":"4","last_reported":1761699340,"current_range_meters":16000,"station_id":"cki0cbj6b192h4jlfktg","pricing_plan_id":"cebpf4jnsgd1na2vs0mg"},{"bike_id":"46d8cd22-361f-4c91-9e38-bf998ae888d1","system_id":"levelo_inurba_marseille","lat":43.31722,"lon":5.40435,"is_reserved":false,"is_disabled":false,"rental_uris":{"android":"levelo://app?vid=46d8cd22-361f-4c91-9e38-bf998ae888d1","ios":"levelo://app?vid=46d8cd22-361f-4c91-9e38-bf998ae888d1"},"vehicle_type_id":"4","last_reported":1761699340,"current_range_meters":16000,"station_id":"ce4bh012rcd13ifvqd00","pricing_plan_id":"cebpf4jnsgd1na2vs0mg"},{"bike_id":"29d4cc9f-bc36-402e-9dce-cece4b5fc105","system_id":"levelo_inurba_marseille","lat":43.31278,"lon":5.40168,"is_reserved":false,"is_disabled":false,"rental_uris":{"android":"levelo://app?vid=29d4cc9f-bc36-402e-9dce-cece4b5fc105","ios":"levelo://app?vid=29d4cc9f-bc36-402e-9dce-cece4b5fc105"},"vehicle_type_id":"4","last_reported":1761699340,"current_range_meters":16000,"station_id":"ce4bh092rcd13ifvqd30","pricing_plan_id":"cebpf4jnsgd1na2vs0mg"},{"bike_id":"132a9f41-e808-4f56-ae02-265cc585a431","system_id":"levelo_inurba_marseille","lat":43.285665,"lon":5.395045,"is_reserved":false,"is_disabled":false,"rental_uris":{"android":"levelo://app?vid=132a9f41-e808-4f56-ae02-265cc585a431","ios":"levelo://app?vid=132a9f41-e808-4f56-ae02-265cc585a431"},"vehicle_type_id":"4","last_reported":1761699340,"current_range_meters":16400,"station_id":"ce4bh292rcd13ifvqdg0","pricing_plan_id":"cebpf4jnsgd1na2vs0mg"},{"bike_id":"1c868779-eff1-4321-b0fa-e73de017ad7a","system_id":"levelo_inurba_marseille","lat":43.31528,"lon":5.37244,"is_reserved":false,"is_disabled":false,"rental_uris":{"android":"levelo://app?vid=1c868779-eff1-4321-b0fa-e73de017ad7a","ios":"levelo://app?vid=1c868779-eff1-4321-b0fa-e73de017ad7a"},"vehicle_type_id":"4","last_reported":1761699340,"current_range_meters":16400,"station_id":"","pricing_plan_id":"cebpf4jnsgd1na2vs0mg"},{"bike_id":"e62bc63f-1623-48ba-bdc2-ffa136c40c90","system_id":"levelo_inurba_marseille","lat":43.28084,"lon":5.3566,"is_reserved":false,"is_disabled":false,"rental_uris":{"android":"levelo://app?vid=e62bc63f-1623-48ba-bdc2-ffa136c40c90","ios":"levelo://app?vid=e62bc63f-1623-48ba-bdc2-ffa136c40c90"},"vehicle_type_id":"4","last_reported":1761699340,"current_range_meters":16800,"station_id":"","pricing_plan_id":"cebpf4jnsgd1na2vs0mg"},{"bike_id":"fef7c7e6-8059-41aa-ae57-31b07bd2b2eb","system_id":"levelo_inurba_marseille","lat":43.225311,"lon":5.348374,"is_reserved":false,"is_disabled":false,"rental_uris":{"android":"levelo://app?vid=fef7c7e6-8059-41aa-ae57-31b07bd2b2eb","ios":"levelo://app?vid=fef7c7e6-8059-41aa-ae57-31b07bd2b2eb"},"vehicle_type_id":"4","last_reported":1761699340,"current_range_meters":16800,"station_id":"","pricing_plan_id":"cebpf4jnsgd1na2vs0mg"},{"bike_id":"cea8bc87-e339-4d62-ba15-9fe517b671b9","system_id":"levelo_inurba_marseille","lat":43.26575,"lon":5.38996,"is_reserved":false,"is_disabled":false,"rental_uris":{"android":"levelo://app?vid=cea8bc87-e339-4d62-ba15-9fe517b671b9","ios":"levelo://app?vid=cea8bc87-e339-4d62-ba15-9fe517b671b9"},"vehicle_type_id":"4","last_reported":1761699340,"current_range_meters":16800,"station_id":"ce4bhe12rcd13ifvqf30","pricing_plan_id":"cebpf4jnsgd1na2vs0mg"},{"bike_id":"3f5acd70-2356-4446-93c1-f1c4e7509dbe","system_id":"levelo_inurba_marseille","lat":43.31488,"lon":5.37313,"is_reserved":false,"is_disabled":false,"rental_uris":{"android":"levelo://app?vid=3f5acd70-2356-4446-93c1-f1c4e7509dbe","ios":"levelo://app?vid=3f5acd70-2356-4446-93c1-f1c4e7509dbe"},"vehicle_type_id":"4","last_reported":1761699340,"current_range_meters":16800,"station_id":"ce4bgt12rcd13ifvqcd0","pricing_plan_id":"cebpf4jnsgd1na2vs0mg"},{"bike_id":"51c86afd-1731-4357-b0d3-0aaa51113f1c","system_id":"levelo_inurba_marseille","lat":43.28471,"lon":5.35869,"is_reserved":false,"is_disabled":false,"rental_uris":{"android":"levelo://app?vid=51c86afd-1731-4357-b0d3-0aaa51113f1c","ios":"levelo://app?vid=51c86afd-1731-4357-b0d3-0aaa51113f1c"},"vehicle_type_id":"4","last_reported":1761699340,"current_range_meters":16800,"station_id":"ce4bhah2rcd13ifvqei0","pricing_plan_id":"cebpf4jnsgd1na2vs0mg"},{"bike_id":"14c6cedd-2559-445e-b389-644995a90b39","system_id":"levelo_inurba_marseille","lat":43.31022,"lon":5.42763,"is_reserved":false,"is_disabled":false,"rental_uris":{"android":"levelo://app?vid=14c6cedd-2559-445e-b389-644995a90b39","ios":"levelo://app?vid=14c6cedd-2559-445e-b389-644995a90b39"},"vehicle_type_id":"4","last_reported":1761699340,"current_range_meters":16800,"station_id":"","pricing_plan_id":"cebpf4jnsgd1na2vs0mg"},{"bike_id":"70871168-18dd-4754-ad19-d28c37ce9f69","system_id":"levelo_inurba_marseille","lat":43.30805,"lon":5.38147,"is_reserved":false,"is_disabled":true,"rental_uris":{"android":"levelo://app?vid=70871168-18dd-4754-ad19-d28c37ce9f69","ios":"levelo://app?vid=70871168-18dd-4754-ad19-d28c37ce9f69"},"vehicle_type_id":"4","last_reported":1761699340,"current_range_meters":16800,"station_id":"ce4bgt12rcd13ifvqce0","pricing_plan_id":"cebpf4jnsgd1na2vs0mg"},{"bike_id":"34cfbbfb-7fcd-4e0b-a511-b666cf091d8e","system_id":"levelo_inurba_marseille","lat":43.250826,"lon":5.39502,"is_reserved":false,"is_disabled":true,"rental_uris":{"android":"levelo://app?vid=34cfbbfb-7fcd-4e0b-a511-b666cf091d8e","ios":"levelo://app?vid=34cfbbfb-7fcd-4e0b-a511-b666cf091d8e"},"vehicle_type_id":"4","last_reported":1761699340,"current_range_meters":16800,"station_id":"ce4bhm12rcd13ifvqgkg","pricing_plan_id":"cebpf4jnsgd1na2vs0mg"},{"bike_id":"4f82c38d-7bc3-4478-9a23-3dab85ab3f3c","system_id":"levelo_inurba_marseille","lat":43.303769,"lon":5.424892,"is_reserved":false,"is_disabled":false,"rental_uris":{"android":"levelo://app?vid=4f82c38d-7bc3-4478-9a23-3dab85ab3f3c","ios":"levelo://app?vid=4f82c38d-7bc3-4478-9a23-3dab85ab3f3c"},"vehicle_type_id":"4","last_reported":1761699340,"current_range_meters":16800,"station_id":"ce4bhoh2rcd13ifvqh6g","pricing_plan_id":"cebpf4jnsgd1na2vs0mg"},{"bike_id":"7fb0d27d-ec45-4de8-9c9e-90046ec376fa","system_id":"levelo_inurba_marseille","lat":43.24169,"lon":5.36384,"is_reserved":false,"is_disabled":false,"rental_uris":{"android":"levelo://app?vid=7fb0d27d-ec45-4de8-9c9e-90046ec376fa","ios":"levelo://app?vid=7fb0d27d-ec45-4de8-9c9e-90046ec376fa"},"vehicle_type_id":"4","last_reported":1761699340,"current_range_meters":16800,"station_id":"cpo36qri1sfpv3e86is0","pricing_plan_id":"cebpf4jnsgd1na2vs0mg"},{"bike_id":"faee4aed-34d1-4e59-9f3e-bc2337688920","system_id":"levelo_inurba_marseille","lat":43.31714,"lon":5.43701,"is_reserved":false,"is_disabled":true,"rental_uris":{"android":"levelo://app?vid=faee4aed-34d1-4e59-9f3e-bc2337688920","ios":"levelo://app?vid=faee4aed-34d1-4e59-9f3e-bc2337688920"},"vehicle_type_id":"4","last_reported":1761699340,"current_range_meters":16800,"station_id":"ce4bhp92rcd13ifvqhcg","pricing_plan_id":"cebpf4jnsgd1na2vs0mg"},{"bike_id":"f6adb9c1-4a78-4322-baec-aa5f6f5d93b6","system_id":"levelo_inurba_marseille","lat":43.225321,"lon":5.348302,"is_reserved":false,"is_disabled":false,"rental_uris":{"android":"levelo://app?vid=f6adb9c1-4a78-4322-baec-aa5f6f5d93b6","ios":"levelo://app?vid=f6adb9c1-4a78-4322-baec-aa5f6f5d93b6"},"vehicle_type_id":"4","last_reported":1761699340,"current_range_meters":16800,"station_id":"","pricing_plan_id":"cebpf4jnsgd1na2vs0mg"},{"bike_id":"d340ce0c-a59e-46d4-8780-fe806ed042f0","system_id":"levelo_inurba_marseille","lat":43.2841,"lon":5.3751,"is_reserved":false,"is_disabled":false,"rental_uris":{"android":"levelo://app?vid=d340ce0c-a59e-46d4-8780-fe806ed042f0","ios":"levelo://app?vid=d340ce0c-a59e-46d4-8780-fe806ed042f0"},"vehicle_type_id":"4","last_reported":1761699340,"current_range_meters":17200,"station_id":"ce4bh412rcd13ifvqds0","pricing_plan_id":"cebpf4jnsgd1na2vs0mg"},{"bike_id":"e3260d53-1f31-4048-a6b1-57d9b1375877","system_id":"levelo_inurba_marseille","lat":43.285282,"lon":5.440996,"is_reserved":false,"is_disabled":false,"rental_uris":{"android":"levelo://app?vid=e3260d53-1f31-4048-a6b1-57d9b1375877","ios":"levelo://app?vid=e3260d53-1f31-4048-a6b1-57d9b1375877"},"vehicle_type_id":"4","last_reported":1761699340,"current_range_meters":17200,"station_id":"st_d3j3df2ikq2c7380ej80","pricing_plan_id":"cebpf4jnsgd1na2vs0mg"},{"bike_id":"3d00cf23-a66b-47a1-8eb3-f05af16b09a1","system_id":"levelo_inurba_marseille","lat":43.24405,"lon":5.37069,"is_reserved":false,"is_disabled":false,"rental_uris":{"android":"levelo://app?vid=3d00cf23-a66b-47a1-8eb3-f05af16b09a1","ios":"levelo://app?vid=3d00cf23-a66b-47a1-8eb3-f05af16b09a1"},"vehicle_type_id":"4","last_reported":1761699340,"current_range_meters":17200,"station_id":"ce4bhhh2rcd13ifvqfk0","pricing_plan_id":"cebpf4jnsgd1na2vs0mg"},{"bike_id":"1a34b5a4-3c1e-479b-b6f5-76f97d5c5c52","system_id":"levelo_inurba_marseille","lat":43.2853,"lon":5.44098,"is_reserved":false,"is_disabled":false,"rental_uris":{"android":"levelo://app?vid=1a34b5a4-3c1e-479b-b6f5-76f97d5c5c52","ios":"levelo://app?vid=1a34b5a4-3c1e-479b-b6f5-76f97d5c5c52"},"vehicle_type_id":"4","last_reported":1761699340,"current_range_meters":17200,"station_id":"st_d3j3df2ikq2c7380ej80","pricing_plan_id":"cebpf4jnsgd1na2vs0mg"},{"bike_id":"7dd33c2c-7ff9-431e-b18d-edcb0ea51bd0","system_id":"levelo_inurba_marseille","lat":43.30638,"lon":5.40092,"is_reserved":false,"is_disabled":false,"rental_uris":{"android":"levelo://app?vid=7dd33c2c-7ff9-431e-b18d-edcb0ea51bd0","ios":"levelo://app?vid=7dd33c2c-7ff9-431e-b18d-edcb0ea51bd0"},"vehicle_type_id":"4","last_reported":1761699340,"current_range_meters":17200,"station_id":"","pricing_plan_id":"cebpf4jnsgd1na2vs0mg"},{"bike_id":"3be6387f-9356-4d22-96e9-26a716368262","system_id":"levelo_inurba_marseille","lat":43.296429,"lon":5.406165,"is_reserved":false,"is_disabled":true,"rental_uris":{"android":"levelo://app?vid=3be6387f-9356-4d22-96e9-26a716368262","ios":"levelo://app?vid=3be6387f-9356-4d22-96e9-26a716368262"},"vehicle_type_id":"4","last_reported":1761699340,"current_range_meters":17200,"station_id":"ce4bh0h2rcd13ifvqd60","pricing_plan_id":"cebpf4jnsgd1na2vs0mg"},{"bike_id":"0fa22cff-de67-418a-a148-3c23d41c278e","system_id":"levelo_inurba_marseille","lat":43.30897,"lon":5.39657,"is_reserved":false,"is_disabled":false,"rental_uris":{"android":"levelo://app?vid=0fa22cff-de67-418a-a148-3c23d41c278e","ios":"levelo://app?vid=0fa22cff-de67-418a-a148-3c23d41c278e"},"vehicle_type_id":"4","last_reported":1761699340,"current_range_meters":17200,"station_id":"ce4bh012rcd13ifvqcv0","pricing_plan_id":"cebpf4jnsgd1na2vs0mg"},{"bike_id":"1f1e1455-9138-4367-9342-42f2dcda9c2b","system_id":"levelo_inurba_marseille","lat":43.3036,"lon":5.42494,"is_reserved":false,"is_disabled":false,"rental_uris":{"android":"levelo://app?vid=1f1e1455-9138-4367-9342-42f2dcda9c2b","ios":"levelo://app?vid=1f1e1455-9138-4367-9342-42f2dcda9c2b"},"vehicle_type_id":"4","last_reported":1761699340,"current_range_meters":17600,"station_id":"ce4bhoh2rcd13ifvqh6g","pricing_plan_id":"cebpf4jnsgd1na2vs0mg"},{"bike_id":"75dc66b3-0d26-400d-85b7-e985f64e2136","system_id":"levelo_inurba_marseille","lat":43.29041,"lon":5.43647,"is_reserved":false,"is_disabled":false,"rental_uris":{"android":"levelo://app?vid=75dc66b3-0d26-400d-85b7-e985f64e2136","ios":"levelo://app?vid=75dc66b3-0d26-400d-85b7-e985f64e2136"},"vehicle_type_id":"4","last_reported":1761699340,"current_range_meters":17600,"station_id":"","pricing_plan_id":"cebpf4jnsgd1na2vs0mg"},{"bike_id":"2213c54a-976a-43be-8f2d-e12b8795e211","system_id":"levelo_inurba_marseille","lat":43.30892,"lon":5.39647,"is_reserved":false,"is_disabled":false,"rental_uris":{"android":"levelo://app?vid=2213c54a-976a-43be-8f2d-e12b8795e211","ios":"levelo://app?vid=2213c54a-976a-43be-8f2d-e12b8795e211"},"vehicle_type_id":"4","last_reported":1761699340,"current_range_meters":17600,"station_id":"ce4bh012rcd13ifvqcv0","pricing_plan_id":"cebpf4jnsgd1na2vs0mg"},{"bike_id":"d48bd189-c047-44cc-be96-8b66af3488e6","system_id":"levelo_inurba_marseille","lat":43.28149,"lon":5.42646,"is_reserved":false,"is_disabled":false,"rental_uris":{"android":"levelo://app?vid=d48bd189-c047-44cc-be96-8b66af3488e6","ios":"levelo://app?vid=d48bd189-c047-44cc-be96-8b66af3488e6"},"vehicle_type_id":"4","last_reported":1761699340,"current_range_meters":17600,"station_id":"ce4bhnh2rcd13ifvqgug","pricing_plan_id":"cebpf4jnsgd1na2vs0mg"},{"bike_id":"e59421dc-4f12-402b-91de-7cafb966238c","system_id":"levelo_inurba_marseille","lat":43.29633,"lon":5.40584,"is_reserved":false,"is_disabled":false,"rental_uris":{"android":"levelo://app?vid=e59421dc-4f12-402b-91de-7cafb966238c","ios":"levelo://app?vid=e59421dc-4f12-402b-91de-7cafb966238c"},"vehicle_type_id":"4","last_reported":1761699340,"current_range_meters":17600,"station_id":"ce4bh0h2rcd13ifvqd60","pricing_plan_id":"cebpf4jnsgd1na2vs0mg"},{"bike_id":"cb198da0-0e7c-48ae-a1c5-8f167fa907d9","system_id":"levelo_inurba_marseille","lat":43.31104,"lon":5.37744,"is_reserved":false,"is_disabled":false,"rental_uris":{"android":"levelo://app?vid=cb198da0-0e7c-48ae-a1c5-8f167fa907d9","ios":"levelo://app?vid=cb198da0-0e7c-48ae-a1c5-8f167fa907d9"},"vehicle_type_id":"4","last_reported":1761699340,"current_range_meters":17600,"station_id":"ce4bgt92rcd13ifvqcg0","pricing_plan_id":"cebpf4jnsgd1na2vs0mg"},{"bike_id":"7adb349b-d58b-4a64-a4d5-44b06f616a91","system_id":"levelo_inurba_marseille","lat":43.31741,"lon":5.40415,"is_reserved":false,"is_disabled":false,"rental_uris":{"android":"levelo://app?vid=7adb349b-d58b-4a64-a4d5-44b06f616a91","ios":"levelo://app?vid=7adb349b-d58b-4a64-a4d5-44b06f616a91"},"vehicle_type_id":"4","last_reported":1761699340,"current_range_meters":17600,"station_id":"","pricing_plan_id":"cebpf4jnsgd1na2vs0mg"},{"bike_id":"5ae39c5d-5e24-440b-8fa6-9d63bbfbae68","system_id":"levelo_inurba_marseille","lat":43.29436,"lon":5.38748,"is_reserved":false,"is_disabled":false,"rental_uris":{"android":"levelo://app?vid=5ae39c5d-5e24-440b-8fa6-9d63bbfbae68","ios":"levelo://app?vid=5ae39c5d-5e24-440b-8fa6-9d63bbfbae68"},"vehicle_type_id":"4","last_reported":1761699340,"current_range_meters":17600,"station_id":"","pricing_plan_id":"cebpf4jnsgd1na2vs0mg"},{"bike_id":"ec66bba6-4075-4856-88c1-d8c49e2c0bff","system_id":"levelo_inurba_marseille","lat":43.26231,"lon":5.40459,"is_reserved":false,"is_disabled":false,"rental_uris":{"android":"levelo://app?vid=ec66bba6-4075-4856-88c1-d8c49e2c0bff","ios":"levelo://app?vid=ec66bba6-4075-4856-88c1-d8c49e2c0bff"},"vehicle_type_id":"4","last_reported":1761699340,"current_range_meters":18000,"station_id":"ce4bhmh2rcd13ifvqgmg","pricing_plan_id":"cebpf4jnsgd1na2vs0mg"},{"bike_id":"ec07cf22-8a7a-4e36-91fe-187ba5c42839","system_id":"levelo_inurba_marseille","lat":43.2873,"lon":5.36074,"is_reserved":false,"is_disabled":false,"rental_uris":{"android":"levelo://app?vid=ec07cf22-8a7a-4e36-91fe-187ba5c42839","ios":"levelo://app?vid=ec07cf22-8a7a-4e36-91fe-187ba5c42839"},"vehicle_type_id":"4","last_reported":1761699340,"current_range_meters":18000,"station_id":"cki0cbj6b192h4jlfktg","pricing_plan_id":"cebpf4jnsgd1na2vs0mg"},{"bike_id":"1fc2cd5c-5cb6-42ed-b0f5-ddf1cc748404","system_id":"levelo_inurba_marseille","lat":43.29889,"lon":5.38917,"is_reserved":false,"is_disabled":false,"rental_uris":{"android":"levelo://app?vid=1fc2cd5c-5cb6-42ed-b0f5-ddf1cc748404","ios":"levelo://app?vid=1fc2cd5c-5cb6-42ed-b0f5-ddf1cc748404"},"vehicle_type_id":"4","last_reported":1761699340,"current_range_meters":18000,"station_id":"ce4bh392rcd13ifvqdl0","pricing_plan_id":"cebpf4jnsgd1na2vs0mg"},{"bike_id":"66f35c71-7548-4c33-9bb7-97e77983d5f2","system_id":"levelo_inurba_marseille","lat":43.30241,"lon":5.40088,"is_reserved":false,"is_disabled":true,"rental_uris":{"android":"levelo://app?vid=66f35c71-7548-4c33-9bb7-97e77983d5f2","ios":"levelo://app?vid=66f35c71-7548-4c33-9bb7-97e77983d5f2"},"vehicle_type_id":"4","last_reported":1761699340,"current_range_meters":18000,"station_id":"ce4bgvh2rcd13ifvqcs0","pricing_plan_id":"cebpf4jnsgd1na2vs0mg"},{"bike_id":"043d62f2-664f-4e4e-bee0-592fa5e58c70","system_id":"levelo_inurba_marseille","lat":43.30879,"lon":5.40186,"is_reserved":false,"is_disabled":false,"rental_uris":{"android":"levelo://app?vid=043d62f2-664f-4e4e-bee0-592fa5e58c70","ios":"levelo://app?vid=043d62f2-664f-4e4e-bee0-592fa5e58c70"},"vehicle_type_id":"4","last_reported":1761699340,"current_range_meters":18000,"station_id":"ce4bgvp2rcd13ifvqct0","pricing_plan_id":"cebpf4jnsgd1na2vs0mg"},{"bike_id":"5d059a3d-1986-46bd-9e67-5267d63535d3","system_id":"levelo_inurba_marseille","lat":43.313621,"lon":5.38489,"is_reserved":false,"is_disabled":false,"rental_uris":{"android":"levelo://app?vid=5d059a3d-1986-46bd-9e67-5267d63535d3","ios":"levelo://app?vid=5d059a3d-1986-46bd-9e67-5267d63535d3"},"vehicle_type_id":"4","last_reported":1761699340,"current_range_meters":18000,"station_id":"","pricing_plan_id":"cebpf4jnsgd1na2vs0mg"},{"bike_id":"d1713b4f-1460-4ead-8017-7a47303defc4","system_id":"levelo_inurba_marseille","lat":43.241601,"lon":5.396959,"is_reserved":false,"is_disabled":false,"rental_uris":{"android":"levelo://app?vid=d1713b4f-1460-4ead-8017-7a47303defc4","ios":"levelo://app?vid=d1713b4f-1460-4ead-8017-7a47303defc4"},"vehicle_type_id":"4","last_reported":1761699340,"current_range_meters":18000,"station_id":"ce4bhn12rcd13ifvqgpg","pricing_plan_id":"cebpf4jnsgd1na2vs0mg"},{"bike_id":"a889273d-bcc7-4055-aa42-4c0b25e800a5","system_id":"levelo_inurba_marseille","lat":43.30888,"lon":5.39627,"is_reserved":false,"is_disabled":false,"rental_uris":{"android":"levelo://app?vid=a889273d-bcc7-4055-aa42-4c0b25e800a5","ios":"levelo://app?vid=a889273d-bcc7-4055-aa42-4c0b25e800a5"},"vehicle_type_id":"4","last_reported":1761699340,"current_range_meters":18000,"station_id":"ce4bh012rcd13ifvqcv0","pricing_plan_id":"cebpf4jnsgd1na2vs0mg"},{"bike_id":"6dda1231-7c1b-4de0-a673-d7f76d5f11c2","system_id":"levelo_inurba_marseille","lat":43.30526,"lon":5.3843,"is_reserved":false,"is_disabled":false,"rental_uris":{"android":"levelo://app?vid=6dda1231-7c1b-4de0-a673-d7f76d5f11c2","ios":"levelo://app?vid=6dda1231-7c1b-4de0-a673-d7f76d5f11c2"},"vehicle_type_id":"4","last_reported":1761699340,"current_range_meters":18800,"station_id":"ce4bgg92rcd13ifvqb30","pricing_plan_id":"cebpf4jnsgd1na2vs0mg"},{"bike_id":"58026c4e-5f35-4e96-a278-76d7a510e533","system_id":"levelo_inurba_marseille","lat":43.29784,"lon":5.37104,"is_reserved":false,"is_disabled":false,"rental_uris":{"android":"levelo://app?vid=58026c4e-5f35-4e96-a278-76d7a510e533","ios":"levelo://app?vid=58026c4e-5f35-4e96-a278-76d7a510e533"},"vehicle_type_id":"4","last_reported":1761699340,"current_range_meters":18800,"station_id":"ce4bgop2rcd13ifvqc1g","pricing_plan_id":"cebpf4jnsgd1na2vs0mg"},{"bike_id":"6a34e6d0-792e-4bee-9428-37d85ef8871d","system_id":"levelo_inurba_marseille","lat":43.24816,"lon":5.37449,"is_reserved":false,"is_disabled":false,"rental_uris":{"android":"levelo://app?vid=6a34e6d0-792e-4bee-9428-37d85ef8871d","ios":"levelo://app?vid=6a34e6d0-792e-4bee-9428-37d85ef8871d"},"vehicle_type_id":"4","last_reported":1761699340,"current_range_meters":18800,"station_id":"ce4bhgh2rcd13ifvqfb0","pricing_plan_id":"cebpf4jnsgd1na2vs0mg"},{"bike_id":"88d5770e-c923-4058-937f-6fe5d60fc0d8","system_id":"levelo_inurba_marseille","lat":43.285634,"lon":5.39498,"is_reserved":false,"is_disabled":false,"rental_uris":{"android":"levelo://app?vid=88d5770e-c923-4058-937f-6fe5d60fc0d8","ios":"levelo://app?vid=88d5770e-c923-4058-937f-6fe5d60fc0d8"},"vehicle_type_id":"4","last_reported":1761699340,"current_range_meters":18800,"station_id":"ce4bh292rcd13ifvqdg0","pricing_plan_id":"cebpf4jnsgd1na2vs0mg"},{"bike_id":"556c95c4-e39d-4a50-b32b-6e1b11658636","system_id":"levelo_inurba_marseille","lat":43.24197,"lon":5.36372,"is_reserved":false,"is_disabled":false,"rental_uris":{"android":"levelo://app?vid=556c95c4-e39d-4a50-b32b-6e1b11658636","ios":"levelo://app?vid=556c95c4-e39d-4a50-b32b-6e1b11658636"},"vehicle_type_id":"4","last_reported":1761699340,"current_range_meters":18800,"station_id":"cpo36qri1sfpv3e86is0","pricing_plan_id":"cebpf4jnsgd1na2vs0mg"},{"bike_id":"4735dc9b-efdb-40d5-82ff-c13389eb3794","system_id":"levelo_inurba_marseille","lat":43.276022,"lon":5.422747,"is_reserved":false,"is_disabled":false,"rental_uris":{"android":"levelo://app?vid=4735dc9b-efdb-40d5-82ff-c13389eb3794","ios":"levelo://app?vid=4735dc9b-efdb-40d5-82ff-c13389eb3794"},"vehicle_type_id":"4","last_reported":1761699340,"current_range_meters":18800,"station_id":"ce4bhn92rcd13ifvqgrg","pricing_plan_id":"cebpf4jnsgd1na2vs0mg"},{"bike_id":"d9a6a1f6-ad3e-4d83-b3dd-5f0ef903b947","system_id":"levelo_inurba_marseille","lat":43.230866,"lon":5.354803,"is_reserved":false,"is_disabled":false,"rental_uris":{"android":"levelo://app?vid=d9a6a1f6-ad3e-4d83-b3dd-5f0ef903b947","ios":"levelo://app?vid=d9a6a1f6-ad3e-4d83-b3dd-5f0ef903b947"},"vehicle_type_id":"4","last_reported":1761699340,"current_range_meters":19200,"station_id":"","pricing_plan_id":"cebpf4jnsgd1na2vs0mg"},{"bike_id":"760b7e4a-a8c4-4135-b9cf-63172e4a5ee6","system_id":"levelo_inurba_marseille","lat":43.279464,"lon":5.410502,"is_reserved":false,"is_disabled":false,"rental_uris":{"android":"levelo://app?vid=760b7e4a-a8c4-4135-b9cf-63172e4a5ee6","ios":"levelo://app?vid=760b7e4a-a8c4-4135-b9cf-63172e4a5ee6"},"vehicle_type_id":"4","last_reported":1761699340,"current_range_meters":19200,"station_id":"ce4bhnp2rcd13ifvqh0g","pricing_plan_id":"cebpf4jnsgd1na2vs0mg"},{"bike_id":"76aace91-61d0-4fb5-84bc-fded435c3777","system_id":"levelo_inurba_marseille","lat":43.300475,"lon":5.386501,"is_reserved":false,"is_disabled":false,"rental_uris":{"android":"levelo://app?vid=76aace91-61d0-4fb5-84bc-fded435c3777","ios":"levelo://app?vid=76aace91-61d0-4fb5-84bc-fded435c3777"},"vehicle_type_id":"4","last_reported":1761699340,"current_range_meters":19200,"station_id":"","pricing_plan_id":"cebpf4jnsgd1na2vs0mg"},{"bike_id":"0320dc14-5222-40a3-b833-18c5819cb98a","system_id":"levelo_inurba_marseille","lat":43.28406,"lon":5.37525,"is_reserved":false,"is_disabled":false,"rental_uris":{"android":"levelo://app?vid=0320dc14-5222-40a3-b833-18c5819cb98a","ios":"levelo://app?vid=0320dc14-5222-40a3-b833-18c5819cb98a"},"vehicle_type_id":"4","last_reported":1761699340,"current_range_meters":19200,"station_id":"ce4bh412rcd13ifvqds0","pricing_plan_id":"cebpf4jnsgd1na2vs0mg"},{"bike_id":"098afed7-626b-4d05-94aa-be79f50ea4c0","system_id":"levelo_inurba_marseille","lat":43.29061,"lon":5.3996,"is_reserved":false,"is_disabled":false,"rental_uris":{"android":"levelo://app?vid=098afed7-626b-4d05-94aa-be79f50ea4c0","ios":"levelo://app?vid=098afed7-626b-4d05-94aa-be79f50ea4c0"},"vehicle_type_id":"4","last_reported":1761699340,"current_range_meters":19600,"station_id":"ce4bh392rcd13ifvqdm0","pricing_plan_id":"cebpf4jnsgd1na2vs0mg"},{"bike_id":"2e71e28f-9664-4350-bc05-536897292751","system_id":"levelo_inurba_marseille","lat":43.26242,"lon":5.40437,"is_reserved":false,"is_disabled":false,"rental_uris":{"android":"levelo://app?vid=2e71e28f-9664-4350-bc05-536897292751","ios":"levelo://app?vid=2e71e28f-9664-4350-bc05-536897292751"},"vehicle_type_id":"4","last_reported":1761699340,"current_range_meters":19600,"station_id":"ce4bhmh2rcd13ifvqgmg","pricing_plan_id":"cebpf4jnsgd1na2vs0mg"},{"bike_id":"5bf996c0-533a-43f0-90e7-e795ff8ed648","system_id":"levelo_inurba_marseille","lat":43.28356,"lon":5.38106,"is_reserved":false,"is_disabled":false,"rental_uris":{"android":"levelo://app?vid=5bf996c0-533a-43f0-90e7-e795ff8ed648","ios":"levelo://app?vid=5bf996c0-533a-43f0-90e7-e795ff8ed648"},"vehicle_type_id":"4","last_reported":1761699340,"current_range_meters":19600,"station_id":"ce4bh412rcd13ifvqdr0","pricing_plan_id":"cebpf4jnsgd1na2vs0mg"},{"bike_id":"9d19aa12-f7d8-4182-8cd0-6d800ec08c05","system_id":"levelo_inurba_marseille","lat":43.276166,"lon":5.360981,"is_reserved":false,"is_disabled":true,"rental_uris":{"android":"levelo://app?vid=9d19aa12-f7d8-4182-8cd0-6d800ec08c05","ios":"levelo://app?vid=9d19aa12-f7d8-4182-8cd0-6d800ec08c05"},"vehicle_type_id":"4","last_reported":1761699340,"current_range_meters":19600,"station_id":"ce4bgj92rcd13ifvqbe0","pricing_plan_id":"cebpf4jnsgd1na2vs0mg"},{"bike_id":"d53aae24-4936-4f96-b8fd-e2293f1d61b1","system_id":"levelo_inurba_marseille","lat":43.29967,"lon":5.38488,"is_reserved":false,"is_disabled":true,"rental_uris":{"android":"levelo://app?vid=d53aae24-4936-4f96-b8fd-e2293f1d61b1","ios":"levelo://app?vid=d53aae24-4936-4f96-b8fd-e2293f1d61b1"},"vehicle_type_id":"4","last_reported":1761699340,"current_range_meters":19600,"station_id":"ce4bgj92rcd13ifvqbd0","pricing_plan_id":"cebpf4jnsgd1na2vs0mg"},{"bike_id":"50ee479d-7c98-44f5-8b70-9959004edfda","system_id":"levelo_inurba_marseille","lat":43.30183,"lon":5.36619,"is_reserved":false,"is_disabled":false,"rental_uris":{"android":"levelo://app?vid=50ee479d-7c98-44f5-8b70-9959004edfda","ios":"levelo://app?vid=50ee479d-7c98-44f5-8b70-9959004edfda"},"vehicle_type_id":"4","last_reported":1761699340,"current_range_meters":19600,"station_id":"ce4bgrh2rcd13ifvqc8g","pricing_plan_id":"cebpf4jnsgd1na2vs0mg"},{"bike_id":"dfd6d678-9f72-4936-ab5f-fe7d0e920deb","system_id":"levelo_inurba_marseille","lat":43.30942,"lon":5.40147,"is_reserved":false,"is_disabled":false,"rental_uris":{"android":"levelo://app?vid=dfd6d678-9f72-4936-ab5f-fe7d0e920deb","ios":"levelo://app?vid=dfd6d678-9f72-4936-ab5f-fe7d0e920deb"},"vehicle_type_id":"4","last_reported":1761699340,"current_range_meters":20000,"station_id":"ce4bgvp2rcd13ifvqct0","pricing_plan_id":"cebpf4jnsgd1na2vs0mg"},{"bike_id":"f796a07f-26a3-4fab-a2a7-6b9992df4068","system_id":"levelo_inurba_marseille","lat":43.29192,"lon":5.40258,"is_reserved":false,"is_disabled":false,"rental_uris":{"android":"levelo://app?vid=f796a07f-26a3-4fab-a2a7-6b9992df4068","ios":"levelo://app?vid=f796a07f-26a3-4fab-a2a7-6b9992df4068"},"vehicle_type_id":"4","last_reported":1761699340,"current_range_meters":20000,"station_id":"","pricing_plan_id":"cebpf4jnsgd1na2vs0mg"},{"bike_id":"a0257cb7-6e09-4e57-9074-9166ca511388","system_id":"levelo_inurba_marseille","lat":43.22565,"lon":5.41628,"is_reserved":false,"is_disabled":false,"rental_uris":{"android":"levelo://app?vid=a0257cb7-6e09-4e57-9074-9166ca511388","ios":"levelo://app?vid=a0257cb7-6e09-4e57-9074-9166ca511388"},"vehicle_type_id":"4","last_reported":1761699340,"current_range_meters":20000,"station_id":"st_d2o4gvlbi1j2169b742g","pricing_plan_id":"cebpf4jnsgd1na2vs0mg"},{"bike_id":"37b9a414-ff49-459d-a699-5e4384e67c87","system_id":"levelo_inurba_marseille","lat":43.29609,"lon":5.36742,"is_reserved":false,"is_disabled":false,"rental_uris":{"android":"levelo://app?vid=37b9a414-ff49-459d-a699-5e4384e67c87","ios":"levelo://app?vid=37b9a414-ff49-459d-a699-5e4384e67c87"},"vehicle_type_id":"4","last_reported":1761699340,"current_range_meters":20000,"station_id":"ce4bgph2rcd13ifvqc2g","pricing_plan_id":"cebpf4jnsgd1na2vs0mg"},{"bike_id":"246db82d-093e-415c-a38e-2fbbb7e139be","system_id":"levelo_inurba_marseille","lat":43.275,"lon":5.42455,"is_reserved":false,"is_disabled":false,"rental_uris":{"android":"levelo://app?vid=246db82d-093e-415c-a38e-2fbbb7e139be","ios":"levelo://app?vid=246db82d-093e-415c-a38e-2fbbb7e139be"},"vehicle_type_id":"4","last_reported":1761699340,"current_range_meters":20000,"station_id":"ce4bhn92rcd13ifvqgrg","pricing_plan_id":"cebpf4jnsgd1na2vs0mg"},{"bike_id":"75d57c7d-1a1a-4807-b716-f0c1fc5a0d1a","system_id":"levelo_inurba_marseille","lat":43.30589,"lon":5.37205,"is_reserved":false,"is_disabled":false,"rental_uris":{"android":"levelo://app?vid=75d57c7d-1a1a-4807-b716-f0c1fc5a0d1a","ios":"levelo://app?vid=75d57c7d-1a1a-4807-b716-f0c1fc5a0d1a"},"vehicle_type_id":"4","last_reported":1761699340,"current_range_meters":20000,"station_id":"ce4bgqh2rcd13ifvqc4g","pricing_plan_id":"cebpf4jnsgd1na2vs0mg"},{"bike_id":"5866982f-82d7-4873-be4e-2079188220fc","system_id":"levelo_inurba_marseille","lat":43.24171,"lon":5.39717,"is_reserved":false,"is_disabled":false,"rental_uris":{"android":"levelo://app?vid=5866982f-82d7-4873-be4e-2079188220fc","ios":"levelo://app?vid=5866982f-82d7-4873-be4e-2079188220fc"},"vehicle_type_id":"4","last_reported":1761699340,"current_range_meters":20000,"station_id":"ce4bhn12rcd13ifvqgpg","pricing_plan_id":"cebpf4jnsgd1na2vs0mg"},{"bike_id":"7b82456d-c11b-40dc-a988-52f7a38cbcbe","system_id":"levelo_inurba_marseille","lat":43.27926,"lon":5.39579,"is_reserved":false,"is_disabled":false,"rental_uris":{"android":"levelo://app?vid=7b82456d-c11b-40dc-a988-52f7a38cbcbe","ios":"levelo://app?vid=7b82456d-c11b-40dc-a988-52f7a38cbcbe"},"vehicle_type_id":"4","last_reported":1761699340,"current_range_meters":20400,"station_id":"ce4bhf92rcd13ifvqf40","pricing_plan_id":"cebpf4jnsgd1na2vs0mg"},{"bike_id":"58e5d3a5-2659-4cba-9640-35e98cfd4b2c","system_id":"levelo_inurba_marseille","lat":43.29537,"lon":5.37511,"is_reserved":false,"is_disabled":true,"rental_uris":{"android":"levelo://app?vid=58e5d3a5-2659-4cba-9640-35e98cfd4b2c","ios":"levelo://app?vid=58e5d3a5-2659-4cba-9640-35e98cfd4b2c"},"vehicle_type_id":"4","last_reported":1761699340,"current_range_meters":20400,"station_id":"ce4bgkp2rcd13ifvqbmg","pricing_plan_id":"cebpf4jnsgd1na2vs0mg"},{"bike_id":"40f2b625-7d0c-4fb2-9832-dc645b0606ef","system_id":"levelo_inurba_marseille","lat":43.33761,"lon":5.37401,"is_reserved":false,"is_disabled":false,"rental_uris":{"android":"levelo://app?vid=40f2b625-7d0c-4fb2-9832-dc645b0606ef","ios":"levelo://app?vid=40f2b625-7d0c-4fb2-9832-dc645b0606ef"},"vehicle_type_id":"4","last_reported":1761699340,"current_range_meters":20400,"station_id":"","pricing_plan_id":"cebpf4jnsgd1na2vs0mg"},{"bike_id":"5504ec66-0c82-4e82-9837-259bae8ec552","system_id":"levelo_inurba_marseille","lat":43.2841,"lon":5.34987,"is_reserved":false,"is_disabled":false,"rental_uris":{"android":"levelo://app?vid=5504ec66-0c82-4e82-9837-259bae8ec552","ios":"levelo://app?vid=5504ec66-0c82-4e82-9837-259bae8ec552"},"vehicle_type_id":"4","last_reported":1761699340,"current_range_meters":20400,"station_id":"ce4bhbh2rcd13ifvqepg","pricing_plan_id":"cebpf4jnsgd1na2vs0mg"},{"bike_id":"0a6aa291-214a-4b4f-a644-79b5f03ccda7","system_id":"levelo_inurba_marseille","lat":43.291992,"lon":5.393308,"is_reserved":false,"is_disabled":false,"rental_uris":{"android":"levelo://app?vid=0a6aa291-214a-4b4f-a644-79b5f03ccda7","ios":"levelo://app?vid=0a6aa291-214a-4b4f-a644-79b5f03ccda7"},"vehicle_type_id":"4","last_reported":1761699340,"current_range_meters":20400,"station_id":"ce4bh192rcd13ifvqdd0","pricing_plan_id":"cebpf4jnsgd1na2vs0mg"},{"bike_id":"6a7144ef-7aa3-4281-bc24-6d65cf64fc32","system_id":"levelo_inurba_marseille","lat":43.301714,"lon":5.371859,"is_reserved":false,"is_disabled":false,"rental_uris":{"android":"levelo://app?vid=6a7144ef-7aa3-4281-bc24-6d65cf64fc32","ios":"levelo://app?vid=6a7144ef-7aa3-4281-bc24-6d65cf64fc32"},"vehicle_type_id":"4","last_reported":1761699340,"current_range_meters":20400,"station_id":"","pricing_plan_id":"cebpf4jnsgd1na2vs0mg"},{"bike_id":"f0ec41fd-03ca-4d4c-9a71-3c2b6d63f2f6","system_id":"levelo_inurba_marseille","lat":43.28413,"lon":5.37524,"is_reserved":false,"is_disabled":false,"rental_uris":{"android":"levelo://app?vid=f0ec41fd-03ca-4d4c-9a71-3c2b6d63f2f6","ios":"levelo://app?vid=f0ec41fd-03ca-4d4c-9a71-3c2b6d63f2f6"},"vehicle_type_id":"4","last_reported":1761699340,"current_range_meters":20400,"station_id":"ce4bh412rcd13ifvqds0","pricing_plan_id":"cebpf4jnsgd1na2vs0mg"},{"bike_id":"9d245cdd-57af-40c9-8fae-42d63cad83d4","system_id":"levelo_inurba_marseille","lat":43.30882,"lon":5.3962,"is_reserved":false,"is_disabled":false,"rental_uris":{"android":"levelo://app?vid=9d245cdd-57af-40c9-8fae-42d63cad83d4","ios":"levelo://app?vid=9d245cdd-57af-40c9-8fae-42d63cad83d4"},"vehicle_type_id":"4","last_reported":1761699340,"current_range_meters":20800,"station_id":"ce4bh012rcd13ifvqcv0","pricing_plan_id":"cebpf4jnsgd1na2vs0mg"},{"bike_id":"09023141-5384-4196-8739-9fa74b283512","system_id":"levelo_inurba_marseille","lat":43.26507,"lon":5.39544,"is_reserved":false,"is_disabled":false,"rental_uris":{"android":"levelo://app?vid=09023141-5384-4196-8739-9fa74b283512","ios":"levelo://app?vid=09023141-5384-4196-8739-9fa74b283512"},"vehicle_type_id":"4","last_reported":1761699340,"current_range_meters":20800,"station_id":"ce4bhi12rcd13ifvqfq0","pricing_plan_id":"cebpf4jnsgd1na2vs0mg"},{"bike_id":"765e33c5-b992-4dc4-8c54-0384c53e260f","system_id":"levelo_inurba_marseille","lat":43.24166,"lon":5.36408,"is_reserved":false,"is_disabled":true,"rental_uris":{"android":"levelo://app?vid=765e33c5-b992-4dc4-8c54-0384c53e260f","ios":"levelo://app?vid=765e33c5-b992-4dc4-8c54-0384c53e260f"},"vehicle_type_id":"4","last_reported":1761699340,"current_range_meters":20800,"station_id":"cpo36qri1sfpv3e86is0","pricing_plan_id":"cebpf4jnsgd1na2vs0mg"},{"bike_id":"449d68fe-e44d-478e-956e-c4715d97f07f","system_id":"levelo_inurba_marseille","lat":43.30931,"lon":5.39168,"is_reserved":false,"is_disabled":false,"rental_uris":{"android":"levelo://app?vid=449d68fe-e44d-478e-956e-c4715d97f07f","ios":"levelo://app?vid=449d68fe-e44d-478e-956e-c4715d97f07f"},"vehicle_type_id":"4","last_reported":1761699340,"current_range_meters":20800,"station_id":"","pricing_plan_id":"cebpf4jnsgd1na2vs0mg"},{"bike_id":"5d6dab70-76c7-420b-ad97-bb518b3696b2","system_id":"levelo_inurba_marseille","lat":43.30355,"lon":5.36499,"is_reserved":false,"is_disabled":false,"rental_uris":{"android":"levelo://app?vid=5d6dab70-76c7-420b-ad97-bb518b3696b2","ios":"levelo://app?vid=5d6dab70-76c7-420b-ad97-bb518b3696b2"},"vehicle_type_id":"4","last_reported":1761699340,"current_range_meters":20800,"station_id":"","pricing_plan_id":"cebpf4jnsgd1na2vs0mg"},{"bike_id":"5b620425-6862-46cb-a74c-d3eec48203d7","system_id":"levelo_inurba_marseille","lat":43.29553,"lon":5.42292,"is_reserved":false,"is_disabled":false,"rental_uris":{"android":"levelo://app?vid=5b620425-6862-46cb-a74c-d3eec48203d7","ios":"levelo://app?vid=5b620425-6862-46cb-a74c-d3eec48203d7"},"vehicle_type_id":"4","last_reported":1761699340,"current_range_meters":20800,"station_id":"ce4bhph2rcd13ifvqhdg","pricing_plan_id":"cebpf4jnsgd1na2vs0mg"},{"bike_id":"456266f3-48d8-4fb8-ac5d-d08598ad41f1","system_id":"levelo_inurba_marseille","lat":43.2558,"lon":5.38236,"is_reserved":false,"is_disabled":false,"rental_uris":{"android":"levelo://app?vid=456266f3-48d8-4fb8-ac5d-d08598ad41f1","ios":"levelo://app?vid=456266f3-48d8-4fb8-ac5d-d08598ad41f1"},"vehicle_type_id":"4","last_reported":1761699340,"current_range_meters":20800,"station_id":"ce4bhih2rcd13ifvqfs0","pricing_plan_id":"cebpf4jnsgd1na2vs0mg"},{"bike_id":"1e9ab2b8-a0e1-4419-85d4-936336420057","system_id":"levelo_inurba_marseille","lat":43.32086,"lon":5.43406,"is_reserved":false,"is_disabled":false,"rental_uris":{"android":"levelo://app?vid=1e9ab2b8-a0e1-4419-85d4-936336420057","ios":"levelo://app?vid=1e9ab2b8-a0e1-4419-85d4-936336420057"},"vehicle_type_id":"4","last_reported":1761699340,"current_range_meters":20800,"station_id":"","pricing_plan_id":"cebpf4jnsgd1na2vs0mg"},{"bike_id":"dead3ee9-28a0-4654-afdf-43074901507c","system_id":"levelo_inurba_marseille","lat":43.30309,"lon":5.40442,"is_reserved":false,"is_disabled":false,"rental_uris":{"android":"levelo://app?vid=dead3ee9-28a0-4654-afdf-43074901507c","ios":"levelo://app?vid=dead3ee9-28a0-4654-afdf-43074901507c"},"vehicle_type_id":"4","last_reported":1761699340,"current_range_meters":20800,"station_id":"ce4bh012rcd13ifvqd10","pricing_plan_id":"cebpf4jnsgd1na2vs0mg"},{"bike_id":"02022cdf-e65a-45f6-b63c-ce62efd90628","system_id":"levelo_inurba_marseille","lat":43.30495,"lon":5.36958,"is_reserved":false,"is_disabled":false,"rental_uris":{"android":"levelo://app?vid=02022cdf-e65a-45f6-b63c-ce62efd90628","ios":"levelo://app?vid=02022cdf-e65a-45f6-b63c-ce62efd90628"},"vehicle_type_id":"4","last_reported":1761699340,"current_range_meters":20800,"station_id":"","pricing_plan_id":"cebpf4jnsgd1na2vs0mg"},{"bike_id":"afcbd88d-ae01-4f58-ab2c-71abb3c65ecc","system_id":"levelo_inurba_marseille","lat":43.3132,"lon":5.39698,"is_reserved":false,"is_disabled":false,"rental_uris":{"android":"levelo://app?vid=afcbd88d-ae01-4f58-ab2c-71abb3c65ecc","ios":"levelo://app?vid=afcbd88d-ae01-4f58-ab2c-71abb3c65ecc"},"vehicle_type_id":"4","last_reported":1761699340,"current_range_meters":21600,"station_id":"ce4bgvp2rcd13ifvqcu0","pricing_plan_id":"cebpf4jnsgd1na2vs0mg"},{"bike_id":"9d40a700-0d92-4efa-9902-11e2f8d9e543","system_id":"levelo_inurba_marseille","lat":43.30411,"lon":5.41281,"is_reserved":false,"is_disabled":false,"rental_uris":{"android":"levelo://app?vid=9d40a700-0d92-4efa-9902-11e2f8d9e543","ios":"levelo://app?vid=9d40a700-0d92-4efa-9902-11e2f8d9e543"},"vehicle_type_id":"4","last_reported":1761699340,"current_range_meters":21600,"station_id":"ce4bhop2rcd13ifvqh8g","pricing_plan_id":"cebpf4jnsgd1na2vs0mg"},{"bike_id":"a18dbf48-2c4d-4fa4-a4c5-c9871d73c9a0","system_id":"levelo_inurba_marseille","lat":43.301994,"lon":5.383462,"is_reserved":false,"is_disabled":false,"rental_uris":{"android":"levelo://app?vid=a18dbf48-2c4d-4fa4-a4c5-c9871d73c9a0","ios":"levelo://app?vid=a18dbf48-2c4d-4fa4-a4c5-c9871d73c9a0"},"vehicle_type_id":"4","last_reported":1761699340,"current_range_meters":21600,"station_id":"ce4bgup2rcd13ifvqcn0","pricing_plan_id":"cebpf4jnsgd1na2vs0mg"},{"bike_id":"15e2c5dd-bae1-46fb-906a-d29fa37d6e53","system_id":"levelo_inurba_marseille","lat":43.31332,"lon":5.37263,"is_reserved":false,"is_disabled":false,"rental_uris":{"android":"levelo://app?vid=15e2c5dd-bae1-46fb-906a-d29fa37d6e53","ios":"levelo://app?vid=15e2c5dd-bae1-46fb-906a-d29fa37d6e53"},"vehicle_type_id":"4","last_reported":1761699340,"current_range_meters":21600,"station_id":"","pricing_plan_id":"cebpf4jnsgd1na2vs0mg"},{"bike_id":"a80deccf-a0f1-4a56-8e1a-6c2b2d32f79d","system_id":"levelo_inurba_marseille","lat":43.23151,"lon":5.43714,"is_reserved":false,"is_disabled":false,"rental_uris":{"android":"levelo://app?vid=a80deccf-a0f1-4a56-8e1a-6c2b2d32f79d","ios":"levelo://app?vid=a80deccf-a0f1-4a56-8e1a-6c2b2d32f79d"},"vehicle_type_id":"4","last_reported":1761699340,"current_range_meters":21600,"station_id":"ce4bhmp2rcd13ifvqgog","pricing_plan_id":"cebpf4jnsgd1na2vs0mg"},{"bike_id":"3252b369-e4a3-4c0b-94db-c4612699ab97","system_id":"levelo_inurba_marseille","lat":43.31276,"lon":5.40159,"is_reserved":false,"is_disabled":false,"rental_uris":{"android":"levelo://app?vid=3252b369-e4a3-4c0b-94db-c4612699ab97","ios":"levelo://app?vid=3252b369-e4a3-4c0b-94db-c4612699ab97"},"vehicle_type_id":"4","last_reported":1761699340,"current_range_meters":22000,"station_id":"ce4bh092rcd13ifvqd30","pricing_plan_id":"cebpf4jnsgd1na2vs0mg"},{"bike_id":"f80a0055-c873-4e76-98bc-f952a6f624c9","system_id":"levelo_inurba_marseille","lat":43.27937,"lon":5.41048,"is_reserved":false,"is_disabled":false,"rental_uris":{"android":"levelo://app?vid=f80a0055-c873-4e76-98bc-f952a6f624c9","ios":"levelo://app?vid=f80a0055-c873-4e76-98bc-f952a6f624c9"},"vehicle_type_id":"4","last_reported":1761699340,"current_range_meters":22000,"station_id":"ce4bhnp2rcd13ifvqh0g","pricing_plan_id":"cebpf4jnsgd1na2vs0mg"},{"bike_id":"9a597d49-3ffe-4f5a-ae05-a9c4ea5e15fe","system_id":"levelo_inurba_marseille","lat":43.2908,"lon":5.37123,"is_reserved":false,"is_disabled":true,"rental_uris":{"android":"levelo://app?vid=9a597d49-3ffe-4f5a-ae05-a9c4ea5e15fe","ios":"levelo://app?vid=9a597d49-3ffe-4f5a-ae05-a9c4ea5e15fe"},"vehicle_type_id":"4","last_reported":1761699340,"current_range_meters":22000,"station_id":"ce4bh5p2rcd13ifvqe4g","pricing_plan_id":"cebpf4jnsgd1na2vs0mg"},{"bike_id":"7075a5bf-e685-49f2-a7bd-0a906f3c97d3","system_id":"levelo_inurba_marseille","lat":43.24373,"lon":5.37053,"is_reserved":false,"is_disabled":false,"rental_uris":{"android":"levelo://app?vid=7075a5bf-e685-49f2-a7bd-0a906f3c97d3","ios":"levelo://app?vid=7075a5bf-e685-49f2-a7bd-0a906f3c97d3"},"vehicle_type_id":"4","last_reported":1761699340,"current_range_meters":22000,"station_id":"ce4bhhh2rcd13ifvqfk0","pricing_plan_id":"cebpf4jnsgd1na2vs0mg"},{"bike_id":"36daebf1-915b-499b-946d-56898c5674ae","system_id":"levelo_inurba_marseille","lat":43.27058,"lon":5.4228,"is_reserved":false,"is_disabled":false,"rental_uris":{"android":"levelo://app?vid=36daebf1-915b-499b-946d-56898c5674ae","ios":"levelo://app?vid=36daebf1-915b-499b-946d-56898c5674ae"},"vehicle_type_id":"4","last_reported":1761699340,"current_range_meters":22000,"station_id":"ce4bhk92rcd13ifvqgb0","pricing_plan_id":"cebpf4jnsgd1na2vs0mg"},{"bike_id":"72fb4fe8-29f0-47ec-a970-0be6b8af1ad5","system_id":"levelo_inurba_marseille","lat":43.29181,"lon":5.35789,"is_reserved":false,"is_disabled":false,"rental_uris":{"android":"levelo://app?vid=72fb4fe8-29f0-47ec-a970-0be6b8af1ad5","ios":"levelo://app?vid=72fb4fe8-29f0-47ec-a970-0be6b8af1ad5"},"vehicle_type_id":"4","last_reported":1761699340,"current_range_meters":22000,"station_id":"ce4bhb12rcd13ifvqel0","pricing_plan_id":"cebpf4jnsgd1na2vs0mg"},{"bike_id":"36fad58c-5986-4ae7-acc3-cce44f51e068","system_id":"levelo_inurba_marseille","lat":43.28979,"lon":5.37844,"is_reserved":false,"is_disabled":true,"rental_uris":{"android":"levelo://app?vid=36fad58c-5986-4ae7-acc3-cce44f51e068","ios":"levelo://app?vid=36fad58c-5986-4ae7-acc3-cce44f51e068"},"vehicle_type_id":"4","last_reported":1761699340,"current_range_meters":22000,"station_id":"ce4bh9p2rcd13ifvqed0","pricing_plan_id":"cebpf4jnsgd1na2vs0mg"},{"bike_id":"9b93b5e1-c939-4745-bf85-2d21945442dc","system_id":"levelo_inurba_marseille","lat":43.29988,"lon":5.36383,"is_reserved":false,"is_disabled":false,"rental_uris":{"android":"levelo://app?vid=9b93b5e1-c939-4745-bf85-2d21945442dc","ios":"levelo://app?vid=9b93b5e1-c939-4745-bf85-2d21945442dc"},"vehicle_type_id":"4","last_reported":1761699340,"current_range_meters":22400,"station_id":"","pricing_plan_id":"cebpf4jnsgd1na2vs0mg"},{"bike_id":"d2f30ff1-239b-45f9-a8b7-676e761bd2a3","system_id":"levelo_inurba_marseille","lat":43.32041,"lon":5.41562,"is_reserved":false,"is_disabled":false,"rental_uris":{"android":"levelo://app?vid=d2f30ff1-239b-45f9-a8b7-676e761bd2a3","ios":"levelo://app?vid=d2f30ff1-239b-45f9-a8b7-676e761bd2a3"},"vehicle_type_id":"4","last_reported":1761699340,"current_range_meters":22400,"station_id":"ce4bhq92rcd13ifvqhkg","pricing_plan_id":"cebpf4jnsgd1na2vs0mg"},{"bike_id":"354d79d8-b33e-4744-934c-51af9fd87ed8","system_id":"levelo_inurba_marseille","lat":43.28089,"lon":5.39664,"is_reserved":false,"is_disabled":false,"rental_uris":{"android":"levelo://app?vid=354d79d8-b33e-4744-934c-51af9fd87ed8","ios":"levelo://app?vid=354d79d8-b33e-4744-934c-51af9fd87ed8"},"vehicle_type_id":"4","last_reported":1761699340,"current_range_meters":22400,"station_id":"ce4bho12rcd13ifvqh2g","pricing_plan_id":"cebpf4jnsgd1na2vs0mg"},{"bike_id":"0fd10a7b-a597-4dc1-bac2-8bb1ff657150","system_id":"levelo_inurba_marseille","lat":43.31759,"lon":5.39013,"is_reserved":false,"is_disabled":false,"rental_uris":{"android":"levelo://app?vid=0fd10a7b-a597-4dc1-bac2-8bb1ff657150","ios":"levelo://app?vid=0fd10a7b-a597-4dc1-bac2-8bb1ff657150"},"vehicle_type_id":"4","last_reported":1761699340,"current_range_meters":22400,"station_id":"ce4bhqp2rcd13ifvqhng","pricing_plan_id":"cebpf4jnsgd1na2vs0mg"},{"bike_id":"75433283-dfdc-4800-a03f-735690d8a0b6","system_id":"levelo_inurba_marseille","lat":43.29697,"lon":5.37931,"is_reserved":false,"is_disabled":false,"rental_uris":{"android":"levelo://app?vid=75433283-dfdc-4800-a03f-735690d8a0b6","ios":"levelo://app?vid=75433283-dfdc-4800-a03f-735690d8a0b6"},"vehicle_type_id":"4","last_reported":1761699340,"current_range_meters":22400,"station_id":"ce4bgv12rcd13ifvqcp0","pricing_plan_id":"cebpf4jnsgd1na2vs0mg"},{"bike_id":"b0f45747-c9c8-4cd0-b924-ff1f0b337f15","system_id":"levelo_inurba_marseille","lat":43.313223,"lon":5.396952,"is_reserved":false,"is_disabled":false,"rental_uris":{"android":"levelo://app?vid=b0f45747-c9c8-4cd0-b924-ff1f0b337f15","ios":"levelo://app?vid=b0f45747-c9c8-4cd0-b924-ff1f0b337f15"},"vehicle_type_id":"4","last_reported":1761699340,"current_range_meters":22400,"station_id":"ce4bgvp2rcd13ifvqcu0","pricing_plan_id":"cebpf4jnsgd1na2vs0mg"},{"bike_id":"50bf2a39-1081-4a90-bb17-adb260140cc9","system_id":"levelo_inurba_marseille","lat":43.31537,"lon":5.38034,"is_reserved":false,"is_disabled":false,"rental_uris":{"android":"levelo://app?vid=50bf2a39-1081-4a90-bb17-adb260140cc9","ios":"levelo://app?vid=50bf2a39-1081-4a90-bb17-adb260140cc9"},"vehicle_type_id":"4","last_reported":1761699340,"current_range_meters":22400,"station_id":"ce4bhsp2rcd13ifvqi50","pricing_plan_id":"cebpf4jnsgd1na2vs0mg"},{"bike_id":"7b1a4a19-70aa-4654-af87-9754542a00eb","system_id":"levelo_inurba_marseille","lat":43.29538,"lon":5.3902,"is_reserved":false,"is_disabled":true,"rental_uris":{"android":"levelo://app?vid=7b1a4a19-70aa-4654-af87-9754542a00eb","ios":"levelo://app?vid=7b1a4a19-70aa-4654-af87-9754542a00eb"},"vehicle_type_id":"4","last_reported":1761699340,"current_range_meters":22400,"station_id":"ce4bh3p2rcd13ifvqdp0","pricing_plan_id":"cebpf4jnsgd1na2vs0mg"},{"bike_id":"2a5e1df6-abaa-43d8-a326-8fc6517b2c52","system_id":"levelo_inurba_marseille","lat":43.22565,"lon":5.41617,"is_reserved":false,"is_disabled":false,"rental_uris":{"android":"levelo://app?vid=2a5e1df6-abaa-43d8-a326-8fc6517b2c52","ios":"levelo://app?vid=2a5e1df6-abaa-43d8-a326-8fc6517b2c52"},"vehicle_type_id":"4","last_reported":1761699340,"current_range_meters":22400,"station_id":"st_d2o4gvlbi1j2169b742g","pricing_plan_id":"cebpf4jnsgd1na2vs0mg"},{"bike_id":"8ff7698c-7e5c-4194-9f4c-b674091b39a8","system_id":"levelo_inurba_marseille","lat":43.27949,"lon":5.4039,"is_reserved":false,"is_disabled":false,"rental_uris":{"android":"levelo://app?vid=8ff7698c-7e5c-4194-9f4c-b674091b39a8","ios":"levelo://app?vid=8ff7698c-7e5c-4194-9f4c-b674091b39a8"},"vehicle_type_id":"4","last_reported":1761699340,"current_range_meters":22400,"station_id":"","pricing_plan_id":"cebpf4jnsgd1na2vs0mg"},{"bike_id":"3c9877a9-bf7c-4aed-9210-31aaee07a89f","system_id":"levelo_inurba_marseille","lat":43.27989,"lon":5.41658,"is_reserved":false,"is_disabled":false,"rental_uris":{"android":"levelo://app?vid=3c9877a9-bf7c-4aed-9210-31aaee07a89f","ios":"levelo://app?vid=3c9877a9-bf7c-4aed-9210-31aaee07a89f"},"vehicle_type_id":"4","last_reported":1761699340,"current_range_meters":22400,"station_id":"ce4bho12rcd13ifvqh1g","pricing_plan_id":"cebpf4jnsgd1na2vs0mg"},{"bike_id":"11d8f5a6-bd98-4b08-ab85-fc435b2c62c0","system_id":"levelo_inurba_marseille","lat":43.315603,"lon":5.4232,"is_reserved":false,"is_disabled":false,"rental_uris":{"android":"levelo://app?vid=11d8f5a6-bd98-4b08-ab85-fc435b2c62c0","ios":"levelo://app?vid=11d8f5a6-bd98-4b08-ab85-fc435b2c62c0"},"vehicle_type_id":"4","last_reported":1761699340,"current_range_meters":22400,"station_id":"ce4bhp92rcd13ifvqhbg","pricing_plan_id":"cebpf4jnsgd1na2vs0mg"},{"bike_id":"6074d01a-a92d-49f6-a295-093688773547","system_id":"levelo_inurba_marseille","lat":43.29758,"lon":5.42759,"is_reserved":false,"is_disabled":false,"rental_uris":{"android":"levelo://app?vid=6074d01a-a92d-49f6-a295-093688773547","ios":"levelo://app?vid=6074d01a-a92d-49f6-a295-093688773547"},"vehicle_type_id":"4","last_reported":1761699340,"current_range_meters":22400,"station_id":"st_d3md5207bmas73dh9klg","pricing_plan_id":"cebpf4jnsgd1na2vs0mg"},{"bike_id":"6e727f51-e1be-4a14-a275-04bd16a55958","system_id":"levelo_inurba_marseille","lat":43.286137,"lon":5.350981,"is_reserved":false,"is_disabled":true,"rental_uris":{"android":"levelo://app?vid=6e727f51-e1be-4a14-a275-04bd16a55958","ios":"levelo://app?vid=6e727f51-e1be-4a14-a275-04bd16a55958"},"vehicle_type_id":"4","last_reported":1761699340,"current_range_meters":22400,"station_id":"ce4bhch2rcd13ifvqeug","pricing_plan_id":"cebpf4jnsgd1na2vs0mg"},{"bike_id":"5d243fa9-0e26-4d5a-b961-57ffb549fdad","system_id":"levelo_inurba_marseille","lat":43.31268,"lon":5.40171,"is_reserved":false,"is_disabled":false,"rental_uris":{"android":"levelo://app?vid=5d243fa9-0e26-4d5a-b961-57ffb549fdad","ios":"levelo://app?vid=5d243fa9-0e26-4d5a-b961-57ffb549fdad"},"vehicle_type_id":"4","last_reported":1761699340,"current_range_meters":22400,"station_id":"ce4bh092rcd13ifvqd30","pricing_plan_id":"cebpf4jnsgd1na2vs0mg"},{"bike_id":"7eb41e00-2ba5-474f-bad2-8430af09c89b","system_id":"levelo_inurba_marseille","lat":43.269318,"lon":5.402716,"is_reserved":false,"is_disabled":false,"rental_uris":{"android":"levelo://app?vid=7eb41e00-2ba5-474f-bad2-8430af09c89b","ios":"levelo://app?vid=7eb41e00-2ba5-474f-bad2-8430af09c89b"},"vehicle_type_id":"4","last_reported":1761699340,"current_range_meters":22400,"station_id":"cjm6bp8fraef2m0cb0m0","pricing_plan_id":"cebpf4jnsgd1na2vs0mg"},{"bike_id":"23c6aa4f-3423-433a-a3c4-ea0b6b00066b","system_id":"levelo_inurba_marseille","lat":43.27944,"lon":5.41032,"is_reserved":false,"is_disabled":false,"rental_uris":{"android":"levelo://app?vid=23c6aa4f-3423-433a-a3c4-ea0b6b00066b","ios":"levelo://app?vid=23c6aa4f-3423-433a-a3c4-ea0b6b00066b"},"vehicle_type_id":"4","last_reported":1761699340,"current_range_meters":22800,"station_id":"ce4bhnp2rcd13ifvqh0g","pricing_plan_id":"cebpf4jnsgd1na2vs0mg"},{"bike_id":"f3f4fd84-e4b0-4a93-bebd-d783c748268d","system_id":"levelo_inurba_marseille","lat":43.27823,"lon":5.35477,"is_reserved":false,"is_disabled":false,"rental_uris":{"android":"levelo://app?vid=f3f4fd84-e4b0-4a93-bebd-d783c748268d","ios":"levelo://app?vid=f3f4fd84-e4b0-4a93-bebd-d783c748268d"},"vehicle_type_id":"4","last_reported":1761699340,"current_range_meters":22800,"station_id":"","pricing_plan_id":"cebpf4jnsgd1na2vs0mg"},{"bike_id":"735746f2-8831-4016-8fde-5ca6dc77cf37","system_id":"levelo_inurba_marseille","lat":43.24549,"lon":5.39518,"is_reserved":false,"is_disabled":false,"rental_uris":{"android":"levelo://app?vid=735746f2-8831-4016-8fde-5ca6dc77cf37","ios":"levelo://app?vid=735746f2-8831-4016-8fde-5ca6dc77cf37"},"vehicle_type_id":"4","last_reported":1761699340,"current_range_meters":22800,"station_id":"ce4bhlp2rcd13ifvqgjg","pricing_plan_id":"cebpf4jnsgd1na2vs0mg"},{"bike_id":"48724abd-044c-4749-a7c3-b915eb7d1835","system_id":"levelo_inurba_marseille","lat":43.24171,"lon":5.36395,"is_reserved":false,"is_disabled":false,"rental_uris":{"android":"levelo://app?vid=48724abd-044c-4749-a7c3-b915eb7d1835","ios":"levelo://app?vid=48724abd-044c-4749-a7c3-b915eb7d1835"},"vehicle_type_id":"4","last_reported":1761699340,"current_range_meters":22800,"station_id":"cpo36qri1sfpv3e86is0","pricing_plan_id":"cebpf4jnsgd1na2vs0mg"},{"bike_id":"0cee1e75-5fc8-42cb-b173-1ba5a3284870","system_id":"levelo_inurba_marseille","lat":43.282048,"lon":5.351051,"is_reserved":false,"is_disabled":false,"rental_uris":{"android":"levelo://app?vid=0cee1e75-5fc8-42cb-b173-1ba5a3284870","ios":"levelo://app?vid=0cee1e75-5fc8-42cb-b173-1ba5a3284870"},"vehicle_type_id":"4","last_reported":1761699340,"current_range_meters":22800,"station_id":"ce4bhbp2rcd13ifvqerg","pricing_plan_id":"cebpf4jnsgd1na2vs0mg"},{"bike_id":"eb5ed237-061d-4ce2-93aa-d97e58a27432","system_id":"levelo_inurba_marseille","lat":43.24158,"lon":5.36394,"is_reserved":false,"is_disabled":false,"rental_uris":{"android":"levelo://app?vid=eb5ed237-061d-4ce2-93aa-d97e58a27432","ios":"levelo://app?vid=eb5ed237-061d-4ce2-93aa-d97e58a27432"},"vehicle_type_id":"4","last_reported":1761699340,"current_range_meters":22800,"station_id":"cpo36qri1sfpv3e86is0","pricing_plan_id":"cebpf4jnsgd1na2vs0mg"},{"bike_id":"0f6b7fbe-71c4-44fb-a1df-6afd6f64446c","system_id":"levelo_inurba_marseille","lat":43.2988,"lon":5.38074,"is_reserved":false,"is_disabled":true,"rental_uris":{"android":"levelo://app?vid=0f6b7fbe-71c4-44fb-a1df-6afd6f64446c","ios":"levelo://app?vid=0f6b7fbe-71c4-44fb-a1df-6afd6f64446c"},"vehicle_type_id":"4","last_reported":1761699340,"current_range_meters":22800,"station_id":"","pricing_plan_id":"cebpf4jnsgd1na2vs0mg"},{"bike_id":"c1219d33-b2f7-4216-930a-843be9dc20a8","system_id":"levelo_inurba_marseille","lat":43.33767,"lon":5.37466,"is_reserved":false,"is_disabled":false,"rental_uris":{"android":"levelo://app?vid=c1219d33-b2f7-4216-930a-843be9dc20a8","ios":"levelo://app?vid=c1219d33-b2f7-4216-930a-843be9dc20a8"},"vehicle_type_id":"4","last_reported":1761699340,"current_range_meters":22800,"station_id":"","pricing_plan_id":"cebpf4jnsgd1na2vs0mg"},{"bike_id":"4fda6b3a-f91b-4eed-8dc1-f1bac69d7295","system_id":"levelo_inurba_marseille","lat":43.31552,"lon":5.37445,"is_reserved":false,"is_disabled":true,"rental_uris":{"android":"levelo://app?vid=4fda6b3a-f91b-4eed-8dc1-f1bac69d7295","ios":"levelo://app?vid=4fda6b3a-f91b-4eed-8dc1-f1bac69d7295"},"vehicle_type_id":"4","last_reported":1761699340,"current_range_meters":22800,"station_id":"","pricing_plan_id":"cebpf4jnsgd1na2vs0mg"},{"bike_id":"f89d499f-6923-4f68-a6f6-9bd7973b36a4","system_id":"levelo_inurba_marseille","lat":43.30107,"lon":5.38753,"is_reserved":false,"is_disabled":false,"rental_uris":{"android":"levelo://app?vid=f89d499f-6923-4f68-a6f6-9bd7973b36a4","ios":"levelo://app?vid=f89d499f-6923-4f68-a6f6-9bd7973b36a4"},"vehicle_type_id":"4","last_reported":1761699340,"current_range_meters":23200,"station_id":"","pricing_plan_id":"cebpf4jnsgd1na2vs0mg"},{"bike_id":"e99768b9-8515-4539-9351-248e29f0a75a","system_id":"levelo_inurba_marseille","lat":43.2695,"lon":5.38618,"is_reserved":false,"is_disabled":false,"rental_uris":{"android":"levelo://app?vid=e99768b9-8515-4539-9351-248e29f0a75a","ios":"levelo://app?vid=e99768b9-8515-4539-9351-248e29f0a75a"},"vehicle_type_id":"4","last_reported":1761699340,"current_range_meters":23200,"station_id":"ce4bhh92rcd13ifvqfh0","pricing_plan_id":"cebpf4jnsgd1na2vs0mg"},{"bike_id":"3e015a0c-489b-4c11-be52-20f33a65c819","system_id":"levelo_inurba_marseille","lat":43.33031,"lon":5.39242,"is_reserved":false,"is_disabled":false,"rental_uris":{"android":"levelo://app?vid=3e015a0c-489b-4c11-be52-20f33a65c819","ios":"levelo://app?vid=3e015a0c-489b-4c11-be52-20f33a65c819"},"vehicle_type_id":"4","last_reported":1761699340,"current_range_meters":23200,"station_id":"","pricing_plan_id":"cebpf4jnsgd1na2vs0mg"},{"bike_id":"9cddcb69-bdd0-4367-b7d2-dfc7341fe31f","system_id":"levelo_inurba_marseille","lat":43.30241,"lon":5.40048,"is_reserved":false,"is_disabled":false,"rental_uris":{"android":"levelo://app?vid=9cddcb69-bdd0-4367-b7d2-dfc7341fe31f","ios":"levelo://app?vid=9cddcb69-bdd0-4367-b7d2-dfc7341fe31f"},"vehicle_type_id":"4","last_reported":1761699340,"current_range_meters":23200,"station_id":"ce4bgvh2rcd13ifvqcs0","pricing_plan_id":"cebpf4jnsgd1na2vs0mg"},{"bike_id":"3ccbad45-41c7-4b92-bea1-b635a899572f","system_id":"levelo_inurba_marseille","lat":43.31514,"lon":5.37282,"is_reserved":false,"is_disabled":false,"rental_uris":{"android":"levelo://app?vid=3ccbad45-41c7-4b92-bea1-b635a899572f","ios":"levelo://app?vid=3ccbad45-41c7-4b92-bea1-b635a899572f"},"vehicle_type_id":"4","last_reported":1761699340,"current_range_meters":23200,"station_id":"ce4bgt12rcd13ifvqcd0","pricing_plan_id":"cebpf4jnsgd1na2vs0mg"},{"bike_id":"f907fbe3-e0ff-4d7b-8844-5301dede0944","system_id":"levelo_inurba_marseille","lat":43.27369,"lon":5.36255,"is_reserved":false,"is_disabled":false,"rental_uris":{"android":"levelo://app?vid=f907fbe3-e0ff-4d7b-8844-5301dede0944","ios":"levelo://app?vid=f907fbe3-e0ff-4d7b-8844-5301dede0944"},