{"last_updated":1708031167,"ttl":30,"version":"2.2","data":{"bikes":[{"bike_id":"57cc7846-7a3e-4761-a4fb-e541da702903","system_id":"levelo_inurba_marseille","lat":43.31341,"lon":5.367098,"is_reserved":false,"is_disabled":false,"rental_uris":{"android":"levelo://app?vid=57cc7846-7a3e-4761-a4fb-e541da702903","ios":"levelo://app?vid=57cc7846-7a3e-4761-a4fb-e541da702903"},"vehicle_type_id":"4","last_reported":1708031167,"current_range_meters":0,"station_id":"ce4bgr92rcd13ifvqc6g","pricing_plan_id":"cebpf4jnsgd1na2vs0mg"},{"bike_id":"d5c03cdd-883d-4f8c-8575-21ce8120f581","system_id":"levelo_inurba_marseille","lat":43.312239,"lon":5.368562,"is_reserved":false,"is_disabled":false,"rental_uris":{"android":"levelo://app?vid=d5c03cdd-883d-4f8c-8575-21ce8120f581","ios":"levelo://app?vid=d5c03cdd-883d-4f8c-8575-21ce8120f581"},"vehicle_type_id":"4","last_reported":1708031167,"current_range_meters":22400,"station_id":"ce4bgl92rcd13ifvqbq0","pricing_plan_id":"cebpf4jnsgd1na2vs0mg"},{"bike_id":"44259d77-093b-4e71-b1ad-5db35f1a229e","system_id":"levelo_inurba_marseille","lat":43.312239,"lon":5.368562,"is_reserved":false,"is_disabled":false,"rental_uris":{"android":"levelo://app?vid=44259d77-093b-4e71-b1ad-5db35f1a229e","ios":"levelo://app?vid=44259d77-093b-4e71-b1ad-5db35f1a229e"},"vehicle_type_id":"4","last_reported":1708031167,"current_range_meters":18800,"station_id":"ce4bgl92rcd13ifvqbq0","pricing_plan_id":"cebpf4jnsgd1na2vs0mg"},{"bike_id":"0a0d079e-1b79-4b46-bc11-1a544e06d2f6","system_id":"levelo_inurba_marseille","lat":43.312239,"lon":5.368562,"is_reserved":false,"is_disabled":false,"rental_uris":{"android":"levelo://app?vid=0a0d079e-1b79-4b46-bc11-1a544e06d2f6","ios":"levelo://app?vid=0a0d079e-1b79-4b46-bc11-1a544e06d2f6"},"vehicle_type_id":"4","last_reported":1708031167,"current_range_meters":6400,"station_id":"ce4bgl92rcd13ifvqbq0","pricing_plan_id":"cebpf4jnsgd1na2vs0mg"},{"bike_id":"8199fbf9-efd7-450b-8b9f-7b75b5c46634","system_id":"levelo_inurba_marseille","lat":43.312239,"lon":5.368562,"is_reserved":false,"is_disabled":false,"rental_uris":{"android":"levelo://app?vid=8199fbf9-efd7-450b-8b9f-7b75b5c46634","ios":"levelo://app?vid=8199fbf9-efd7-450b-8b9f-7b75b5c46634"},"vehicle_type_id":"4","last_reported":1708031167,"current_range_meters":3600,"station_id":"ce4bgl92rcd13ifvqbq0","pricing_plan_id":"cebpf4jnsgd1na2vs0mg"},{"bike_id":"1e4d0e10-e730-4255-9f98-887873e86383","system_id":"levelo_inurba_marseille","lat":43.312239,"lon":5.368562,"is_reserved":false,"is_disabled":false,"rental_uris":{"android":"levelo://app?vid=1e4d0e10-e730-4255-9f98-887873e86383","ios":"levelo://app?vid=1e4d0e10-e730-4255-9f98-887873e86383"},"vehicle_type_id":"4","last_reported":1708031167,"current_range_meters":10800,"station_id":"ce4bgl92rcd13ifvqbq0","pricing_plan_id":"cebpf4jnsgd1na2vs0mg"},{"bike_id":"1886e30f-e37f-4776-b1e7-da3bb096356c","system_id":"levelo_inurba_marseille","lat":43.312239,"lon":5.368562,"is_reserved":false,"is_disabled":false,"rental_uris":{"android":"levelo://app?vid=1886e30f-e37f-4776-b1e7-da3bb096356c","ios":"levelo://app?vid=1886e30f-e37f-4776-b1e7-da3bb096356c"},"vehicle_type_id":"4","last_reported":1708031167,"current_range_meters":18800,"station_id":"ce4bgl92rcd13ifvqbq0","pricing_plan_id":"cebpf4jnsgd1na2vs0mg"},{"bike_id":"95355a38-f98e-4ff6-8573-3b42e3d08577","system_id":"levelo_inurba_marseille","lat":43.309076,"lon":5.368465,"is_reserved":false,"is_disabled":false,"rental_uris":{"android":"levelo://app?vid=95355a38-f98e-4ff6-8573-3b42e3d08577","ios":"levelo://app?vid=95355a38-f98e-4ff6-8573-3b42e3d08577"},"vehicle_type_id":"4","last_reported":1708031167,"current_range_meters":5200,"station_id":"ce4bgn92rcd13ifvqbvg","pricing_plan_id":"cebpf4jnsgd1na2vs0mg"},{"bike_id":"ac61ae1c-8286-480b-9406-3210b1ad42ee","system_id":"levelo_inurba_marseille","lat":43.309076,"lon":5.368465,"is_reserved":false,"is_disabled":false,"rental_uris":{"android":"levelo://app?vid=ac61ae1c-8286-480b-9406-3210b1ad42ee","ios":"levelo://app?vid=ac61ae1c-8286-480b-9406-3210b1ad42ee"},"vehicle_type_id":"4","last_reported":1708031167,"current_range_meters":23600,"station_id":"ce4bgn92rcd13ifvqbvg","pricing_plan_id":"cebpf4jnsgd1na2vs0mg"},{"bike_id":"056c460b-295d-4a3a-a3be-668fba7080ae","system_id":"levelo_inurba_marseille","lat":43.314811,"lon":5.373103,"is_reserved":false,"is_disabled":false,"rental_uris":{"android":"levelo://app?vid=056c460b-295d-4a3a-a3be-668fba7080ae","ios":"levelo://app?vid=056c460b-295d-4a3a-a3be-668fba7080ae"},"vehicle_type_id":"4","last_reported":1708031167,"current_range_meters":0,"station_id":"ce4bgt12rcd13ifvqcd0","pricing_plan_id":"cebpf4jnsgd1na2vs0mg"},{"bike_id":"a8a1d0b2-b12c-4566-b692-d15c8f451e69","system_id":"levelo_inurba_marseille","lat":43.314811,"lon":5.373103,"is_reserved":false,"is_disabled":false,"rental_uris":{"android":"levelo://app?vid=a8a1d0b2-b12c-4566-b692-d15c8f451e69","ios":"levelo://app?vid=a8a1d0b2-b12c-4566-b692-d15c8f451e69"},"vehicle_type_id":"4","last_reported":1708031167,"current_range_meters":31200,"station_id":"ce4bgt12rcd13ifvqcd0","pricing_plan_id":"cebpf4jnsgd1na2vs0mg"},{"bike_id":"078e4154-6da7-41cd-90a0-86a7e8e5286e","system_id":"levelo_inurba_marseille","lat":43.314811,"lon":5.373104,"is_reserved":false,"is_disabled":false,"rental_uris":{"android":"levelo://app?vid=078e4154-6da7-41cd-90a0-86a7e8e5286e","ios":"levelo://app?vid=078e4154-6da7-41cd-90a0-86a7e8e5286e"},"vehicle_type_id":"4","last_reported":1708031167,"current_range_meters":7200,"station_id":"ce4bgt12rcd13ifvqcd0","pricing_plan_id":"cebpf4jnsgd1na2vs0mg"},{"bike_id":"6e437c36-95b8-4063-b1d3-44c07fd5c5c1","system_id":"levelo_inurba_marseille","lat":43.31492,"lon":5.37309,"is_reserved":false,"is_disabled":false,"rental_uris":{"android":"levelo://app?vid=6e437c36-95b8-4063-b1d3-44c07fd5c5c1","ios":"levelo://app?vid=6e437c36-95b8-4063-b1d3-44c07fd5c5c1"},"vehicle_type_id":"4","last_reported":1708031167,"current_range_meters":3600,"station_id":"ce4bgt12rcd13ifvqcd0","pricing_plan_id":"cebpf4jnsgd1na2vs0mg"},{"bike_id":"29e67b27-522d-4e52-87a1-b03cff41b2d6","system_id":"levelo_inurba_marseille","lat":43.309039,"lon":5.371797,"is_reserved":false,"is_disabled":false,"rental_uris":{"android":"levelo://app?vid=29e67b27-522d-4e52-87a1-b03cff41b2d6","ios":"levelo://app?vid=29e67b27-522d-4e52-87a1-b03cff41b2d6"},"vehicle_type_id":"4","last_reported":1708031167,"current_range_meters":24800,"station_id":"ce4bguh2rcd13ifvqckg","pricing_plan_id":"cebpf4jnsgd1na2vs0mg"},{"bike_id":"21e15505-a9de-4cba-bd55-1e6358586d87","system_id":"levelo_inurba_marseille","lat":43.305666,"lon":5.367494,"is_reserved":false,"is_disabled":false,"rental_uris":{"android":"levelo://app?vid=21e15505-a9de-4cba-bd55-1e6358586d87","ios":"levelo://app?vid=21e15505-a9de-4cba-bd55-1e6358586d87"},"vehicle_type_id":"4","last_reported":1708031167,"current_range_meters":20800,"station_id":"ce4bgrp2rcd13ifvqc9g","pricing_plan_id":"cebpf4jnsgd1na2vs0mg"},{"bike_id":"fbdd1f54-e355-43b0-9af0-0aac72a83e3c","system_id":"levelo_inurba_marseille","lat":43.305368,"lon":5.367343,"is_reserved":false,"is_disabled":false,"rental_uris":{"android":"levelo://app?vid=fbdd1f54-e355-43b0-9af0-0aac72a83e3c","ios":"levelo://app?vid=fbdd1f54-e355-43b0-9af0-0aac72a83e3c"},"vehicle_type_id":"4","last_reported":1708031167,"current_range_meters":16800,"station_id":"ce4bgrp2rcd13ifvqc9g","pricing_plan_id":"cebpf4jnsgd1na2vs0mg"},{"bike_id":"361ccd03-c684-4747-b5fb-0df8f3d56423","system_id":"levelo_inurba_marseille","lat":43.305989,"lon":5.37225,"is_reserved":false,"is_disabled":false,"rental_uris":{"android":"levelo://app?vid=361ccd03-c684-4747-b5fb-0df8f3d56423","ios":"levelo://app?vid=361ccd03-c684-4747-b5fb-0df8f3d56423"},"vehicle_type_id":"4","last_reported":1708031167,"current_range_meters":29600,"station_id":"ce4bgqh2rcd13ifvqc4g","pricing_plan_id":"cebpf4jnsgd1na2vs0mg"},{"bike_id":"326f744e-f7bb-4e92-b44e-2c98bd92b232","system_id":"levelo_inurba_marseille","lat":43.311131,"lon":5.377651,"is_reserved":false,"is_disabled":false,"rental_uris":{"android":"levelo://app?vid=326f744e-f7bb-4e92-b44e-2c98bd92b232","ios":"levelo://app?vid=326f744e-f7bb-4e92-b44e-2c98bd92b232"},"vehicle_type_id":"4","last_reported":1708031167,"current_range_meters":3600,"station_id":"ce4bgt92rcd13ifvqcg0","pricing_plan_id":"cebpf4jnsgd1na2vs0mg"},{"bike_id":"d9f1f1c6-f12f-4449-b80b-22ce85b88511","system_id":"levelo_inurba_marseille","lat":43.31121,"lon":5.37762,"is_reserved":false,"is_disabled":false,"rental_uris":{"android":"levelo://app?vid=d9f1f1c6-f12f-4449-b80b-22ce85b88511","ios":"levelo://app?vid=d9f1f1c6-f12f-4449-b80b-22ce85b88511"},"vehicle_type_id":"4","last_reported":1708031167,"current_range_meters":9600,"station_id":"ce4bgt92rcd13ifvqcg0","pricing_plan_id":"cebpf4jnsgd1na2vs0mg"},{"bike_id":"df7164c7-d670-4d02-a01a-881f90bd45db","system_id":"levelo_inurba_marseille","lat":43.311131,"lon":5.377651,"is_reserved":false,"is_disabled":false,"rental_uris":{"android":"levelo://app?vid=df7164c7-d670-4d02-a01a-881f90bd45db","ios":"levelo://app?vid=df7164c7-d670-4d02-a01a-881f90bd45db"},"vehicle_type_id":"4","last_reported":1708031167,"current_range_meters":10800,"station_id":"ce4bgt92rcd13ifvqcg0","pricing_plan_id":"cebpf4jnsgd1na2vs0mg"},{"bike_id":"cd893a2f-3bb5-413b-812a-17af98c59678","system_id":"levelo_inurba_marseille","lat":43.311131,"lon":5.377651,"is_reserved":false,"is_disabled":false,"rental_uris":{"android":"levelo://app?vid=cd893a2f-3bb5-413b-812a-17af98c59678","ios":"levelo://app?vid=cd893a2f-3bb5-413b-812a-17af98c59678"},"vehicle_type_id":"4","last_reported":1708031167,"current_range_meters":27200,"station_id":"ce4bgt92rcd13ifvqcg0","pricing_plan_id":"cebpf4jnsgd1na2vs0mg"},{"bike_id":"7cf6c0ff-bce6-47f1-b6fe-5ab1236b74db","system_id":"levelo_inurba_marseille","lat":43.311145,"lon":5.377744,"is_reserved":false,"is_disabled":false,"rental_uris":{"android":"levelo://app?vid=7cf6c0ff-bce6-47f1-b6fe-5ab1236b74db","ios":"levelo://app?vid=7cf6c0ff-bce6-47f1-b6fe-5ab1236b74db"},"vehicle_type_id":"4","last_reported":1708031167,"current_range_meters":0,"station_id":"ce4bgt92rcd13ifvqcg0","pricing_plan_id":"cebpf4jnsgd1na2vs0mg"},{"bike_id":"434ffdf5-bc84-4eff-add8-997207241255","system_id":"levelo_inurba_marseille","lat":43.311131,"lon":5.377651,"is_reserved":false,"is_disabled":false,"rental_uris":{"android":"levelo://app?vid=434ffdf5-bc84-4eff-add8-997207241255","ios":"levelo://app?vid=434ffdf5-bc84-4eff-add8-997207241255"},"vehicle_type_id":"4","last_reported":1708031167,"current_range_meters":10000,"station_id":"ce4bgt92rcd13ifvqcg0","pricing_plan_id":"cebpf4jnsgd1na2vs0mg"},{"bike_id":"52a3977f-b948-4427-8189-406f5207363e","system_id":"levelo_inurba_marseille","lat":43.30788,"lon":5.37648,"is_reserved":false,"is_disabled":false,"rental_uris":{"android":"levelo://app?vid=52a3977f-b948-4427-8189-406f5207363e","ios":"levelo://app?vid=52a3977f-b948-4427-8189-406f5207363e"},"vehicle_type_id":"4","last_reported":1708031167,"current_range_meters":4000,"station_id":"ce4bgv92rcd13ifvqcq0","pricing_plan_id":"cebpf4jnsgd1na2vs0mg"},{"bike_id":"8a8fcb00-336d-4096-a685-d52e4602f461","system_id":"levelo_inurba_marseille","lat":43.30787,"lon":5.3765,"is_reserved":false,"is_disabled":false,"rental_uris":{"android":"levelo://app?vid=8a8fcb00-336d-4096-a685-d52e4602f461","ios":"levelo://app?vid=8a8fcb00-336d-4096-a685-d52e4602f461"},"vehicle_type_id":"4","last_reported":1708031167,"current_range_meters":30000,"station_id":"","pricing_plan_id":"cebpf4jnsgd1na2vs0mg"},{"bike_id":"2fca39f8-6a10-42b9-80c8-ff25bebc9e9e","system_id":"levelo_inurba_marseille","lat":43.307945,"lon":5.376487,"is_reserved":false,"is_disabled":false,"rental_uris":{"android":"levelo://app?vid=2fca39f8-6a10-42b9-80c8-ff25bebc9e9e","ios":"levelo://app?vid=2fca39f8-6a10-42b9-80c8-ff25bebc9e9e"},"vehicle_type_id":"4","last_reported":1708031167,"current_range_meters":29600,"station_id":"ce4bgv92rcd13ifvqcq0","pricing_plan_id":"cebpf4jnsgd1na2vs0mg"},{"bike_id":"e408a855-f723-408c-b006-f3e7b332a7ec","system_id":"levelo_inurba_marseille","lat":43.3078,"lon":5.37653,"is_reserved":false,"is_disabled":false,"rental_uris":{"android":"levelo://app?vid=e408a855-f723-408c-b006-f3e7b332a7ec","ios":"levelo://app?vid=e408a855-f723-408c-b006-f3e7b332a7ec"},"vehicle_type_id":"4","last_reported":1708031167,"current_range_meters":4800,"station_id":"ce4bgv92rcd13ifvqcq0","pricing_plan_id":"cebpf4jnsgd1na2vs0mg"},{"bike_id":"b67306fa-d95b-4754-b4be-c4de1138c990","system_id":"levelo_inurba_marseille","lat":43.31091,"lon":5.37844,"is_reserved":false,"is_disabled":false,"rental_uris":{"android":"levelo://app?vid=b67306fa-d95b-4754-b4be-c4de1138c990","ios":"levelo://app?vid=b67306fa-d95b-4754-b4be-c4de1138c990"},"vehicle_type_id":"4","last_reported":1708031167,"current_range_meters":14400,"station_id":"","pricing_plan_id":"cebpf4jnsgd1na2vs0mg"},{"bike_id":"675e8e6e-3c5a-402c-a789-48ab73907593","system_id":"levelo_inurba_marseille","lat":43.307756,"lon":5.376524,"is_reserved":false,"is_disabled":false,"rental_uris":{"android":"levelo://app?vid=675e8e6e-3c5a-402c-a789-48ab73907593","ios":"levelo://app?vid=675e8e6e-3c5a-402c-a789-48ab73907593"},"vehicle_type_id":"4","last_reported":1708031167,"current_range_meters":14400,"station_id":"ce4bgv92rcd13ifvqcq0","pricing_plan_id":"cebpf4jnsgd1na2vs0mg"},{"bike_id":"32026692-5527-40f2-a535-e55bf2d47370","system_id":"levelo_inurba_marseille","lat":43.317075,"lon":5.377367,"is_reserved":false,"is_disabled":false,"rental_uris":{"android":"levelo://app?vid=32026692-5527-40f2-a535-e55bf2d47370","ios":"levelo://app?vid=32026692-5527-40f2-a535-e55bf2d47370"},"vehicle_type_id":"4","last_reported":1708031167,"current_range_meters":8400,"station_id":"ce4bgth2rcd13ifvqch0","pricing_plan_id":"cebpf4jnsgd1na2vs0mg"},{"bike_id":"8c2d62e3-3ad7-4140-9a67-65fa03190e2f","system_id":"levelo_inurba_marseille","lat":43.317075,"lon":5.377367,"is_reserved":false,"is_disabled":false,"rental_uris":{"android":"levelo://app?vid=8c2d62e3-3ad7-4140-9a67-65fa03190e2f","ios":"levelo://app?vid=8c2d62e3-3ad7-4140-9a67-65fa03190e2f"},"vehicle_type_id":"4","last_reported":1708031167,"current_range_meters":22800,"station_id":"ce4bgth2rcd13ifvqch0","pricing_plan_id":"cebpf4jnsgd1na2vs0mg"},{"bike_id":"aa533a6f-0dc9-4d7d-8582-0387547a46a5","system_id":"levelo_inurba_marseille","lat":43.317075,"lon":5.377367,"is_reserved":false,"is_disabled":false,"rental_uris":{"android":"levelo://app?vid=aa533a6f-0dc9-4d7d-8582-0387547a46a5","ios":"levelo://app?vid=aa533a6f-0dc9-4d7d-8582-0387547a46a5"},"vehicle_type_id":"4","last_reported":1708031167,"current_range_meters":4400,"station_id":"ce4bgth2rcd13ifvqch0","pricing_plan_id":"cebpf4jnsgd1na2vs0mg"},{"bike_id":"e8396d9b-01ad-42aa-ae6a-25e7361077f6","system_id":"levelo_inurba_marseille","lat":43.317075,"lon":5.377367,"is_reserved":false,"is_disabled":false,"rental_uris":{"android":"levelo://app?vid=e8396d9b-01ad-42aa-ae6a-25e7361077f6","ios":"levelo://app?vid=e8396d9b-01ad-42aa-ae6a-25e7361077f6"},"vehicle_type_id":"4","last_reported":1708031167,"current_range_meters":31200,"station_id":"ce4bgth2rcd13ifvqch0","pricing_plan_id":"cebpf4jnsgd1na2vs0mg"},{"bike_id":"e0ab11de-fc9c-4d4b-971a-3b2ba2a23340","system_id":"levelo_inurba_marseille","lat":43.317075,"lon":5.377367,"is_reserved":false,"is_disabled":false,"rental_uris":{"android":"levelo://app?vid=e0ab11de-fc9c-4d4b-971a-3b2ba2a23340","ios":"levelo://app?vid=e0ab11de-fc9c-4d4b-971a-3b2ba2a23340"},"vehicle_type_id":"4","last_reported":1708031167,"current_range_meters":31600,"station_id":"ce4bgth2rcd13ifvqch0","pricing_plan_id":"cebpf4jnsgd1na2vs0mg"},{"bike_id":"6f39090b-b91e-4eaa-81f6-ef24a66149be","system_id":"levelo_inurba_marseille","lat":43.317075,"lon":5.377367,"is_reserved":false,"is_disabled":false,"rental_uris":{"android":"levelo://app?vid=6f39090b-b91e-4eaa-81f6-ef24a66149be","ios":"levelo://app?vid=6f39090b-b91e-4eaa-81f6-ef24a66149be"},"vehicle_type_id":"4","last_reported":1708031167,"current_range_meters":22400,"station_id":"ce4bgth2rcd13ifvqch0","pricing_plan_id":"cebpf4jnsgd1na2vs0mg"},{"bike_id":"3002bf0f-4dbc-4dc6-a704-22bf46deaa9a","system_id":"levelo_inurba_marseille","lat":43.30314,"lon":5.36894,"is_reserved":false,"is_disabled":false,"rental_uris":{"android":"levelo://app?vid=3002bf0f-4dbc-4dc6-a704-22bf46deaa9a","ios":"levelo://app?vid=3002bf0f-4dbc-4dc6-a704-22bf46deaa9a"},"vehicle_type_id":"4","last_reported":1708031167,"current_range_meters":25600,"station_id":"ce4bgqh2rcd13ifvqc5g","pricing_plan_id":"cebpf4jnsgd1na2vs0mg"},{"bike_id":"1568d1b3-a251-4d7a-ad91-bbb8789e6e65","system_id":"levelo_inurba_marseille","lat":43.303046,"lon":5.368981,"is_reserved":false,"is_disabled":false,"rental_uris":{"android":"levelo://app?vid=1568d1b3-a251-4d7a-ad91-bbb8789e6e65","ios":"levelo://app?vid=1568d1b3-a251-4d7a-ad91-bbb8789e6e65"},"vehicle_type_id":"4","last_reported":1708031167,"current_range_meters":0,"station_id":"ce4bgqh2rcd13ifvqc5g","pricing_plan_id":"cebpf4jnsgd1na2vs0mg"},{"bike_id":"e48eafa2-25f1-4367-910a-9c1c68d594ca","system_id":"levelo_inurba_marseille","lat":43.315293,"lon":5.380349,"is_reserved":false,"is_disabled":false,"rental_uris":{"android":"levelo://app?vid=e48eafa2-25f1-4367-910a-9c1c68d594ca","ios":"levelo://app?vid=e48eafa2-25f1-4367-910a-9c1c68d594ca"},"vehicle_type_id":"4","last_reported":1708031167,"current_range_meters":28400,"station_id":"ce4bhsp2rcd13ifvqi50","pricing_plan_id":"cebpf4jnsgd1na2vs0mg"},{"bike_id":"fab85cb8-17a5-46ee-a726-d0504fc2647c","system_id":"levelo_inurba_marseille","lat":43.315293,"lon":5.380349,"is_reserved":false,"is_disabled":false,"rental_uris":{"android":"levelo://app?vid=fab85cb8-17a5-46ee-a726-d0504fc2647c","ios":"levelo://app?vid=fab85cb8-17a5-46ee-a726-d0504fc2647c"},"vehicle_type_id":"4","last_reported":1708031167,"current_range_meters":11600,"station_id":"ce4bhsp2rcd13ifvqi50","pricing_plan_id":"cebpf4jnsgd1na2vs0mg"},{"bike_id":"2460bb75-16c1-4f11-808c-9c0fc729d203","system_id":"levelo_inurba_marseille","lat":43.315293,"lon":5.380349,"is_reserved":false,"is_disabled":false,"rental_uris":{"android":"levelo://app?vid=2460bb75-16c1-4f11-808c-9c0fc729d203","ios":"levelo://app?vid=2460bb75-16c1-4f11-808c-9c0fc729d203"},"vehicle_type_id":"4","last_reported":1708031167,"current_range_meters":13600,"station_id":"ce4bhsp2rcd13ifvqi50","pricing_plan_id":"cebpf4jnsgd1na2vs0mg"},{"bike_id":"ea33762c-2b42-4a71-a6f1-a970fd87f843","system_id":"levelo_inurba_marseille","lat":43.308012,"lon":5.381511,"is_reserved":false,"is_disabled":false,"rental_uris":{"android":"levelo://app?vid=ea33762c-2b42-4a71-a6f1-a970fd87f843","ios":"levelo://app?vid=ea33762c-2b42-4a71-a6f1-a970fd87f843"},"vehicle_type_id":"4","last_reported":1708031167,"current_range_meters":7600,"station_id":"ce4bgt12rcd13ifvqce0","pricing_plan_id":"cebpf4jnsgd1na2vs0mg"},{"bike_id":"fe1c10b7-d333-4dc6-a1a1-d3a03c42a73d","system_id":"levelo_inurba_marseille","lat":43.301939,"lon":5.366286,"is_reserved":false,"is_disabled":false,"rental_uris":{"android":"levelo://app?vid=fe1c10b7-d333-4dc6-a1a1-d3a03c42a73d","ios":"levelo://app?vid=fe1c10b7-d333-4dc6-a1a1-d3a03c42a73d"},"vehicle_type_id":"4","last_reported":1708031167,"current_range_meters":14400,"station_id":"ce4bgrh2rcd13ifvqc8g","pricing_plan_id":"cebpf4jnsgd1na2vs0mg"},{"bike_id":"3bae3dab-cd23-477a-b620-83cccc8f7249","system_id":"levelo_inurba_marseille","lat":43.308012,"lon":5.381511,"is_reserved":false,"is_disabled":false,"rental_uris":{"android":"levelo://app?vid=3bae3dab-cd23-477a-b620-83cccc8f7249","ios":"levelo://app?vid=3bae3dab-cd23-477a-b620-83cccc8f7249"},"vehicle_type_id":"4","last_reported":1708031167,"current_range_meters":23600,"station_id":"ce4bgt12rcd13ifvqce0","pricing_plan_id":"cebpf4jnsgd1na2vs0mg"},{"bike_id":"ae15e681-aa9b-4217-ba60-6b0c1a4f5118","system_id":"levelo_inurba_marseille","lat":43.308012,"lon":5.381511,"is_reserved":false,"is_disabled":false,"rental_uris":{"android":"levelo://app?vid=ae15e681-aa9b-4217-ba60-6b0c1a4f5118","ios":"levelo://app?vid=ae15e681-aa9b-4217-ba60-6b0c1a4f5118"},"vehicle_type_id":"4","last_reported":1708031167,"current_range_meters":21600,"station_id":"ce4bgt12rcd13ifvqce0","pricing_plan_id":"cebpf4jnsgd1na2vs0mg"},{"bike_id":"70ce027d-d613-4495-ae6e-9516a77be22f","system_id":"levelo_inurba_marseille","lat":43.308012,"lon":5.381511,"is_reserved":false,"is_disabled":false,"rental_uris":{"android":"levelo://app?vid=70ce027d-d613-4495-ae6e-9516a77be22f","ios":"levelo://app?vid=70ce027d-d613-4495-ae6e-9516a77be22f"},"vehicle_type_id":"4","last_reported":1708031167,"current_range_meters":27200,"station_id":"ce4bgt12rcd13ifvqce0","pricing_plan_id":"cebpf4jnsgd1na2vs0mg"},{"bike_id":"d5fce783-e7ca-4c36-8158-18733bc92be9","system_id":"levelo_inurba_marseille","lat":43.304606,"lon":5.379026,"is_reserved":false,"is_disabled":false,"rental_uris":{"android":"levelo://app?vid=d5fce783-e7ca-4c36-8158-18733bc92be9","ios":"levelo://app?vid=d5fce783-e7ca-4c36-8158-18733bc92be9"},"vehicle_type_id":"4","last_reported":1708031167,"current_range_meters":28000,"station_id":"ce4bgup2rcd13ifvqcn0","pricing_plan_id":"cebpf4jnsgd1na2vs0mg"},{"bike_id":"74040d89-d5b2-4f31-8c52-790dda89ed07","system_id":"levelo_inurba_marseille","lat":43.324771,"lon":5.36557,"is_reserved":false,"is_disabled":false,"rental_uris":{"android":"levelo://app?vid=74040d89-d5b2-4f31-8c52-790dda89ed07","ios":"levelo://app?vid=74040d89-d5b2-4f31-8c52-790dda89ed07"},"vehicle_type_id":"4","last_reported":1708031167,"current_range_meters":12400,"station_id":"ce4bhs12rcd13ifvqhvg","pricing_plan_id":"cebpf4jnsgd1na2vs0mg"},{"bike_id":"5ed0a109-9ca7-4876-adad-41d58d377d1a","system_id":"levelo_inurba_marseille","lat":43.324771,"lon":5.36557,"is_reserved":false,"is_disabled":false,"rental_uris":{"android":"levelo://app?vid=5ed0a109-9ca7-4876-adad-41d58d377d1a","ios":"levelo://app?vid=5ed0a109-9ca7-4876-adad-41d58d377d1a"},"vehicle_type_id":"4","last_reported":1708031167,"current_range_meters":4400,"station_id":"ce4bhs12rcd13ifvqhvg","pricing_plan_id":"cebpf4jnsgd1na2vs0mg"},{"bike_id":"67079a29-f28c-4d70-8856-b0af88c8d642","system_id":"levelo_inurba_marseille","lat":43.324771,"lon":5.36557,"is_reserved":false,"is_disabled":false,"rental_uris":{"android":"levelo://app?vid=67079a29-f28c-4d70-8856-b0af88c8d642","ios":"levelo://app?vid=67079a29-f28c-4d70-8856-b0af88c8d642"},"vehicle_type_id":"4","last_reported":1708031167,"current_range_meters":24000,"station_id":"ce4bhs12rcd13ifvqhvg","pricing_plan_id":"cebpf4jnsgd1na2vs0mg"},{"bike_id":"7eac1002-a816-4569-b798-3a3a62c5a4d3","system_id":"levelo_inurba_marseille","lat":43.324771,"lon":5.36557,"is_reserved":false,"is_disabled":false,"rental_uris":{"android":"levelo://app?vid=7eac1002-a816-4569-b798-3a3a62c5a4d3","ios":"levelo://app?vid=7eac1002-a816-4569-b798-3a3a62c5a4d3"},"vehicle_type_id":"4","last_reported":1708031167,"current_range_meters":7200,"station_id":"ce4bhs12rcd13ifvqhvg","pricing_plan_id":"cebpf4jnsgd1na2vs0mg"},{"bike_id":"eb331c1c-770d-4ab0-8716-5793c3e19a18","system_id":"levelo_inurba_marseille","lat":43.324771,"lon":5.36557,"is_reserved":false,"is_disabled":false,"rental_uris":{"android":"levelo://app?vid=eb331c1c-770d-4ab0-8716-5793c3e19a18","ios":"levelo://app?vid=eb331c1c-770d-4ab0-8716-5793c3e19a18"},"vehicle_type_id":"4","last_reported":1708031167,"current_range_meters":10800,"station_id":"ce4bhs12rcd13ifvqhvg","pricing_plan_id":"cebpf4jnsgd1na2vs0mg"},{"bike_id":"38716a6a-d578-4748-ad61-d6ef7efd9f5c","system_id":"levelo_inurba_marseille","lat":43.31071,"lon":5.38349,"is_reserved":false,"is_disabled":false,"rental_uris":{"android":"levelo://app?vid=38716a6a-d578-4748-ad61-d6ef7efd9f5c","ios":"levelo://app?vid=38716a6a-d578-4748-ad61-d6ef7efd9f5c"},"vehicle_type_id":"4","last_reported":1708031167,"current_range_meters":17600,"station_id":"ce4bgv92rcd13ifvqcr0","pricing_plan_id":"cebpf4jnsgd1na2vs0mg"},{"bike_id":"8cc61c4a-5302-4b6c-a32c-54803363c1d2","system_id":"levelo_inurba_marseille","lat":43.310713,"lon":5.383493,"is_reserved":false,"is_disabled":false,"rental_uris":{"android":"levelo://app?vid=8cc61c4a-5302-4b6c-a32c-54803363c1d2","ios":"levelo://app?vid=8cc61c4a-5302-4b6c-a32c-54803363c1d2"},"vehicle_type_id":"4","last_reported":1708031167,"current_range_meters":30000,"station_id":"ce4bgv92rcd13ifvqcr0","pricing_plan_id":"cebpf4jnsgd1na2vs0mg"},{"bike_id":"9a29bd98-7765-4199-8212-1ef4fe8ca9fe","system_id":"levelo_inurba_marseille","lat":43.31069,"lon":5.38349,"is_reserved":false,"is_disabled":false,"rental_uris":{"android":"levelo://app?vid=9a29bd98-7765-4199-8212-1ef4fe8ca9fe","ios":"levelo://app?vid=9a29bd98-7765-4199-8212-1ef4fe8ca9fe"},"vehicle_type_id":"4","last_reported":1708031167,"current_range_meters":1600,"station_id":"ce4bgv92rcd13ifvqcr0","pricing_plan_id":"cebpf4jnsgd1na2vs0mg"},{"bike_id":"da4fadf5-3e37-4933-b2d3-0de431b1409d","system_id":"levelo_inurba_marseille","lat":43.310768,"lon":5.383517,"is_reserved":false,"is_disabled":false,"rental_uris":{"android":"levelo://app?vid=da4fadf5-3e37-4933-b2d3-0de431b1409d","ios":"levelo://app?vid=da4fadf5-3e37-4933-b2d3-0de431b1409d"},"vehicle_type_id":"4","last_reported":1708031167,"current_range_meters":0,"station_id":"ce4bgv92rcd13ifvqcr0","pricing_plan_id":"cebpf4jnsgd1na2vs0mg"},{"bike_id":"95b61e15-0903-409d-b8d3-dbad50f8c96a","system_id":"levelo_inurba_marseille","lat":43.31065,"lon":5.38349,"is_reserved":false,"is_disabled":false,"rental_uris":{"android":"levelo://app?vid=95b61e15-0903-409d-b8d3-dbad50f8c96a","ios":"levelo://app?vid=95b61e15-0903-409d-b8d3-dbad50f8c96a"},"vehicle_type_id":"4","last_reported":1708031167,"current_range_meters":22000,"station_id":"ce4bgv92rcd13ifvqcr0","pricing_plan_id":"cebpf4jnsgd1na2vs0mg"},{"bike_id":"c4a33b3a-50c1-4e50-8d7e-e5f5ec04e441","system_id":"levelo_inurba_marseille","lat":43.310804,"lon":5.38359,"is_reserved":false,"is_disabled":false,"rental_uris":{"android":"levelo://app?vid=c4a33b3a-50c1-4e50-8d7e-e5f5ec04e441","ios":"levelo://app?vid=c4a33b3a-50c1-4e50-8d7e-e5f5ec04e441"},"vehicle_type_id":"4","last_reported":1708031167,"current_range_meters":3600,"station_id":"ce4bgv92rcd13ifvqcr0","pricing_plan_id":"cebpf4jnsgd1na2vs0mg"},{"bike_id":"2d834dbd-16b5-4e7f-8b94-a3c26253ebd1","system_id":"levelo_inurba_marseille","lat":43.310804,"lon":5.38359,"is_reserved":false,"is_disabled":false,"rental_uris":{"android":"levelo://app?vid=2d834dbd-16b5-4e7f-8b94-a3c26253ebd1","ios":"levelo://app?vid=2d834dbd-16b5-4e7f-8b94-a3c26253ebd1"},"vehicle_type_id":"4","last_reported":1708031167,"current_range_meters":6400,"station_id":"ce4bgv92rcd13ifvqcr0","pricing_plan_id":"cebpf4jnsgd1na2vs0mg"},{"bike_id":"94ccd055-ac62-4dce-b15d-a257bbe9b731","system_id":"levelo_inurba_marseille","lat":43.310804,"lon":5.38359,"is_reserved":false,"is_disabled":false,"rental_uris":{"android":"levelo://app?vid=94ccd055-ac62-4dce-b15d-a257bbe9b731","ios":"levelo://app?vid=94ccd055-ac62-4dce-b15d-a257bbe9b731"},"vehicle_type_id":"4","last_reported":1708031167,"current_range_meters":2800,"station_id":"ce4bgv92rcd13ifvqcr0","pricing_plan_id":"cebpf4jnsgd1na2vs0mg"},{"bike_id":"3ba45bb5-5c20-4d90-aa8a-70a65b3bc284","system_id":"levelo_inurba_marseille","lat":43.302784,"lon":5.377158,"is_reserved":false,"is_disabled":false,"rental_uris":{"android":"levelo://app?vid=3ba45bb5-5c20-4d90-aa8a-70a65b3bc284","ios":"levelo://app?vid=3ba45bb5-5c20-4d90-aa8a-70a65b3bc284"},"vehicle_type_id":"4","last_reported":1708031167,"current_range_meters":17600,"station_id":"ce4bguh2rcd13ifvqcj0","pricing_plan_id":"cebpf4jnsgd1na2vs0mg"},{"bike_id":"0e53949d-06ed-45b7-8a87-fdca71c413b2","system_id":"levelo_inurba_marseille","lat":43.302784,"lon":5.377158,"is_reserved":false,"is_disabled":false,"rental_uris":{"android":"levelo://app?vid=0e53949d-06ed-45b7-8a87-fdca71c413b2","ios":"levelo://app?vid=0e53949d-06ed-45b7-8a87-fdca71c413b2"},"vehicle_type_id":"4","last_reported":1708031167,"current_range_meters":16400,"station_id":"ce4bguh2rcd13ifvqcj0","pricing_plan_id":"cebpf4jnsgd1na2vs0mg"},{"bike_id":"86d438c2-740b-4c96-8dfb-0664e1104c1b","system_id":"levelo_inurba_marseille","lat":43.302675,"lon":5.37688,"is_reserved":false,"is_disabled":false,"rental_uris":{"android":"levelo://app?vid=86d438c2-740b-4c96-8dfb-0664e1104c1b","ios":"levelo://app?vid=86d438c2-740b-4c96-8dfb-0664e1104c1b"},"vehicle_type_id":"4","last_reported":1708031167,"current_range_meters":0,"station_id":"ce4bguh2rcd13ifvqcj0","pricing_plan_id":"cebpf4jnsgd1na2vs0mg"},{"bike_id":"f186f4b6-efaa-44c9-84d0-ec81ff47edd7","system_id":"levelo_inurba_marseille","lat":43.309477,"lon":5.383957,"is_reserved":false,"is_disabled":false,"rental_uris":{"android":"levelo://app?vid=f186f4b6-efaa-44c9-84d0-ec81ff47edd7","ios":"levelo://app?vid=f186f4b6-efaa-44c9-84d0-ec81ff47edd7"},"vehicle_type_id":"4","last_reported":1708031167,"current_range_meters":16000,"station_id":"ce4bgh92rcd13ifvqb40","pricing_plan_id":"cebpf4jnsgd1na2vs0mg"},{"bike_id":"470fde00-3503-4c79-922c-c4e020e38520","system_id":"levelo_inurba_marseille","lat":43.319935,"lon":5.381699,"is_reserved":false,"is_disabled":false,"rental_uris":{"android":"levelo://app?vid=470fde00-3503-4c79-922c-c4e020e38520","ios":"levelo://app?vid=470fde00-3503-4c79-922c-c4e020e38520"},"vehicle_type_id":"4","last_reported":1708031167,"current_range_meters":31200,"station_id":"ce4bhr12rcd13ifvqhpg","pricing_plan_id":"cebpf4jnsgd1na2vs0mg"},{"bike_id":"1524caed-e036-4a1d-90f3-0fb3698ebab1","system_id":"levelo_inurba_marseille","lat":43.319935,"lon":5.381699,"is_reserved":false,"is_disabled":false,"rental_uris":{"android":"levelo://app?vid=1524caed-e036-4a1d-90f3-0fb3698ebab1","ios":"levelo://app?vid=1524caed-e036-4a1d-90f3-0fb3698ebab1"},"vehicle_type_id":"4","last_reported":1708031167,"current_range_meters":2800,"station_id":"ce4bhr12rcd13ifvqhpg","pricing_plan_id":"cebpf4jnsgd1na2vs0mg"},{"bike_id":"c4f3a2cc-5e97-4f44-8d5e-f1dc56798a09","system_id":"levelo_inurba_marseille","lat":43.319935,"lon":5.381699,"is_reserved":false,"is_disabled":false,"rental_uris":{"android":"levelo://app?vid=c4f3a2cc-5e97-4f44-8d5e-f1dc56798a09","ios":"levelo://app?vid=c4f3a2cc-5e97-4f44-8d5e-f1dc56798a09"},"vehicle_type_id":"4","last_reported":1708031167,"current_range_meters":3600,"station_id":"ce4bhr12rcd13ifvqhpg","pricing_plan_id":"cebpf4jnsgd1na2vs0mg"},{"bike_id":"401c17bb-22c6-40b7-8f6d-a63d489fd73f","system_id":"levelo_inurba_marseille","lat":43.319935,"lon":5.381699,"is_reserved":false,"is_disabled":false,"rental_uris":{"android":"levelo://app?vid=401c17bb-22c6-40b7-8f6d-a63d489fd73f","ios":"levelo://app?vid=401c17bb-22c6-40b7-8f6d-a63d489fd73f"},"vehicle_type_id":"4","last_reported":1708031167,"current_range_meters":10000,"station_id":"ce4bhr12rcd13ifvqhpg","pricing_plan_id":"cebpf4jnsgd1na2vs0mg"},{"bike_id":"8995b982-5aa1-4d59-843b-5bd529df75df","system_id":"levelo_inurba_marseille","lat":43.3136,"lon":5.38497,"is_reserved":false,"is_disabled":false,"rental_uris":{"android":"levelo://app?vid=8995b982-5aa1-4d59-843b-5bd529df75df","ios":"levelo://app?vid=8995b982-5aa1-4d59-843b-5bd529df75df"},"vehicle_type_id":"4","last_reported":1708031167,"current_range_meters":0,"station_id":"ce4bgt92rcd13ifvqcf0","pricing_plan_id":"cebpf4jnsgd1na2vs0mg"},{"bike_id":"71964fe6-f924-49f1-935d-1672e572fc62","system_id":"levelo_inurba_marseille","lat":43.299724,"lon":5.371829,"is_reserved":false,"is_disabled":false,"rental_uris":{"android":"levelo://app?vid=71964fe6-f924-49f1-935d-1672e572fc62","ios":"levelo://app?vid=71964fe6-f924-49f1-935d-1672e572fc62"},"vehicle_type_id":"4","last_reported":1708031167,"current_range_meters":15200,"station_id":"ce4bgr92rcd13ifvqc7g","pricing_plan_id":"cebpf4jnsgd1na2vs0mg"},{"bike_id":"79854c7c-0ab7-402b-920f-8ad582be0e43","system_id":"levelo_inurba_marseille","lat":43.29956,"lon":5.37401,"is_reserved":false,"is_disabled":false,"rental_uris":{"android":"levelo://app?vid=79854c7c-0ab7-402b-920f-8ad582be0e43","ios":"levelo://app?vid=79854c7c-0ab7-402b-920f-8ad582be0e43"},"vehicle_type_id":"4","last_reported":1708031167,"current_range_meters":28400,"station_id":"","pricing_plan_id":"cebpf4jnsgd1na2vs0mg"},{"bike_id":"1fc07a73-17e0-4d89-aa87-10ead001b92e","system_id":"levelo_inurba_marseille","lat":43.305364,"lon":5.384119,"is_reserved":false,"is_disabled":false,"rental_uris":{"android":"levelo://app?vid=1fc07a73-17e0-4d89-aa87-10ead001b92e","ios":"levelo://app?vid=1fc07a73-17e0-4d89-aa87-10ead001b92e"},"vehicle_type_id":"4","last_reported":1708031167,"current_range_meters":14800,"station_id":"ce4bgg92rcd13ifvqb30","pricing_plan_id":"cebpf4jnsgd1na2vs0mg"},{"bike_id":"94f61cf9-ebca-47e5-a284-a233fe291851","system_id":"levelo_inurba_marseille","lat":43.31183,"lon":5.38706,"is_reserved":false,"is_disabled":false,"rental_uris":{"android":"levelo://app?vid=94f61cf9-ebca-47e5-a284-a233fe291851","ios":"levelo://app?vid=94f61cf9-ebca-47e5-a284-a233fe291851"},"vehicle_type_id":"4","last_reported":1708031167,"current_range_meters":4000,"station_id":"ce4bgv12rcd13ifvqcp0","pricing_plan_id":"cebpf4jnsgd1na2vs0mg"},{"bike_id":"84099005-26cc-4b18-8c77-554ec1663816","system_id":"levelo_inurba_marseille","lat":43.299165,"lon":5.374624,"is_reserved":false,"is_disabled":false,"rental_uris":{"android":"levelo://app?vid=84099005-26cc-4b18-8c77-554ec1663816","ios":"levelo://app?vid=84099005-26cc-4b18-8c77-554ec1663816"},"vehicle_type_id":"4","last_reported":1708031167,"current_range_meters":28800,"station_id":"ce4bgjh2rcd13ifvqbg0","pricing_plan_id":"cebpf4jnsgd1na2vs0mg"},{"bike_id":"bff6f5ec-b77a-4973-b39f-9eff9cedcdde","system_id":"levelo_inurba_marseille","lat":43.311722,"lon":5.387247,"is_reserved":false,"is_disabled":false,"rental_uris":{"android":"levelo://app?vid=bff6f5ec-b77a-4973-b39f-9eff9cedcdde","ios":"levelo://app?vid=bff6f5ec-b77a-4973-b39f-9eff9cedcdde"},"vehicle_type_id":"4","last_reported":1708031167,"current_range_meters":29200,"station_id":"ce4bgv12rcd13ifvqcp0","pricing_plan_id":"cebpf4jnsgd1na2vs0mg"},{"bike_id":"b353ccdd-d8a9-4d93-96df-74745f7b3cbc","system_id":"levelo_inurba_marseille","lat":43.311722,"lon":5.387247,"is_reserved":false,"is_disabled":false,"rental_uris":{"android":"levelo://app?vid=b353ccdd-d8a9-4d93-96df-74745f7b3cbc","ios":"levelo://app?vid=b353ccdd-d8a9-4d93-96df-74745f7b3cbc"},"vehicle_type_id":"4","last_reported":1708031167,"current_range_meters":16000,"station_id":"ce4bgv12rcd13ifvqcp0","pricing_plan_id":"cebpf4jnsgd1na2vs0mg"},{"bike_id":"15147537-dfa1-40a7-81fd-ded7a3c33a48","system_id":"levelo_inurba_marseille","lat":43.2991,"lon":5.37454,"is_reserved":false,"is_disabled":false,"rental_uris":{"android":"levelo://app?vid=15147537-dfa1-40a7-81fd-ded7a3c33a48","ios":"levelo://app?vid=15147537-dfa1-40a7-81fd-ded7a3c33a48"},"vehicle_type_id":"4","last_reported":1708031167,"current_range_meters":31200,"station_id":"ce4bgjh2rcd13ifvqbg0","pricing_plan_id":"cebpf4jnsgd1na2vs0mg"},{"bike_id":"2abddd79-63fa-4db9-a4e3-66d79e15ffa8","system_id":"levelo_inurba_marseille","lat":43.311722,"lon":5.387247,"is_reserved":false,"is_disabled":false,"rental_uris":{"android":"levelo://app?vid=2abddd79-63fa-4db9-a4e3-66d79e15ffa8","ios":"levelo://app?vid=2abddd79-63fa-4db9-a4e3-66d79e15ffa8"},"vehicle_type_id":"4","last_reported":1708031167,"current_range_meters":7200,"station_id":"ce4bgv12rcd13ifvqcp0","pricing_plan_id":"cebpf4jnsgd1na2vs0mg"},{"bike_id":"82451379-de24-44d0-a8b7-0ae7945ed8e0","system_id":"levelo_inurba_marseille","lat":43.297774,"lon":5.370875,"is_reserved":false,"is_disabled":false,"rental_uris":{"android":"levelo://app?vid=82451379-de24-44d0-a8b7-0ae7945ed8e0","ios":"levelo://app?vid=82451379-de24-44d0-a8b7-0ae7945ed8e0"},"vehicle_type_id":"4","last_reported":1708031167,"current_range_meters":19600,"station_id":"ce4bgop2rcd13ifvqc1g","pricing_plan_id":"cebpf4jnsgd1na2vs0mg"},{"bike_id":"6e94baaa-80b1-45da-a11e-9341bbea2ec8","system_id":"levelo_inurba_marseille","lat":43.297774,"lon":5.370875,"is_reserved":false,"is_disabled":false,"rental_uris":{"android":"levelo://app?vid=6e94baaa-80b1-45da-a11e-9341bbea2ec8","ios":"levelo://app?vid=6e94baaa-80b1-45da-a11e-9341bbea2ec8"},"vehicle_type_id":"4","last_reported":1708031167,"current_range_meters":8800,"station_id":"ce4bgop2rcd13ifvqc1g","pricing_plan_id":"cebpf4jnsgd1na2vs0mg"},{"bike_id":"5b12ad66-370d-411f-8a89-1045f139e107","system_id":"levelo_inurba_marseille","lat":43.322872,"lon":5.382756,"is_reserved":false,"is_disabled":false,"rental_uris":{"android":"levelo://app?vid=5b12ad66-370d-411f-8a89-1045f139e107","ios":"levelo://app?vid=5b12ad66-370d-411f-8a89-1045f139e107"},"vehicle_type_id":"4","last_reported":1708031167,"current_range_meters":15600,"station_id":"ce4bhr12rcd13ifvqhqg","pricing_plan_id":"cebpf4jnsgd1na2vs0mg"},{"bike_id":"22c16722-1529-4a30-9310-dd98d232cf88","system_id":"levelo_inurba_marseille","lat":43.297794,"lon":5.370888,"is_reserved":false,"is_disabled":false,"rental_uris":{"android":"levelo://app?vid=22c16722-1529-4a30-9310-dd98d232cf88","ios":"levelo://app?vid=22c16722-1529-4a30-9310-dd98d232cf88"},"vehicle_type_id":"4","last_reported":1708031167,"current_range_meters":31200,"station_id":"ce4bgop2rcd13ifvqc1g","pricing_plan_id":"cebpf4jnsgd1na2vs0mg"},{"bike_id":"e674677d-7bc1-48fa-80fb-1e56b1f01f35","system_id":"levelo_inurba_marseille","lat":43.322872,"lon":5.382756,"is_reserved":false,"is_disabled":false,"rental_uris":{"android":"levelo://app?vid=e674677d-7bc1-48fa-80fb-1e56b1f01f35","ios":"levelo://app?vid=e674677d-7bc1-48fa-80fb-1e56b1f01f35"},"vehicle_type_id":"4","last_reported":1708031167,"current_range_meters":22800,"station_id":"ce4bhr12rcd13ifvqhqg","pricing_plan_id":"cebpf4jnsgd1na2vs0mg"},{"bike_id":"c3544a8b-3b2b-43d9-8c06-a1e4cd30f44c","system_id":"levelo_inurba_marseille","lat":43.300003,"lon":5.378597,"is_reserved":false,"is_disabled":false,"rental_uris":{"android":"levelo://app?vid=c3544a8b-3b2b-43d9-8c06-a1e4cd30f44c","ios":"levelo://app?vid=c3544a8b-3b2b-43d9-8c06-a1e4cd30f44c"},"vehicle_type_id":"4","last_reported":1708031167,"current_range_meters":800,"station_id":"","pricing_plan_id":"cebpf4jnsgd1na2vs0mg"},{"bike_id":"8f6edb34-5a88-45b3-b210-ae7579b9b87b","system_id":"levelo_inurba_marseille","lat":43.322872,"lon":5.382756,"is_reserved":false,"is_disabled":false,"rental_uris":{"android":"levelo://app?vid=8f6edb34-5a88-45b3-b210-ae7579b9b87b","ios":"levelo://app?vid=8f6edb34-5a88-45b3-b210-ae7579b9b87b"},"vehicle_type_id":"4","last_reported":1708031167,"current_range_meters":15600,"station_id":"ce4bhr12rcd13ifvqhqg","pricing_plan_id":"cebpf4jnsgd1na2vs0mg"},{"bike_id":"466a0b3c-d73b-4507-b8b6-683f9244ed96","system_id":"levelo_inurba_marseille","lat":43.322872,"lon":5.382756,"is_reserved":false,"is_disabled":false,"rental_uris":{"android":"levelo://app?vid=466a0b3c-d73b-4507-b8b6-683f9244ed96","ios":"levelo://app?vid=466a0b3c-d73b-4507-b8b6-683f9244ed96"},"vehicle_type_id":"4","last_reported":1708031167,"current_range_meters":30000,"station_id":"ce4bhr12rcd13ifvqhqg","pricing_plan_id":"cebpf4jnsgd1na2vs0mg"},{"bike_id":"aed9e4ad-9c1a-4a51-8095-58a12f0b44f4","system_id":"levelo_inurba_marseille","lat":43.322872,"lon":5.382756,"is_reserved":false,"is_disabled":false,"rental_uris":{"android":"levelo://app?vid=aed9e4ad-9c1a-4a51-8095-58a12f0b44f4","ios":"levelo://app?vid=aed9e4ad-9c1a-4a51-8095-58a12f0b44f4"},"vehicle_type_id":"4","last_reported":1708031167,"current_range_meters":30800,"station_id":"ce4bhr12rcd13ifvqhqg","pricing_plan_id":"cebpf4jnsgd1na2vs0mg"},{"bike_id":"cce45d5b-b827-4599-8137-34ad81fdf112","system_id":"levelo_inurba_marseille","lat":43.322872,"lon":5.382756,"is_reserved":false,"is_disabled":false,"rental_uris":{"android":"levelo://app?vid=cce45d5b-b827-4599-8137-34ad81fdf112","ios":"levelo://app?vid=cce45d5b-b827-4599-8137-34ad81fdf112"},"vehicle_type_id":"4","last_reported":1708031167,"current_range_meters":5600,"station_id":"ce4bhr12rcd13ifvqhqg","pricing_plan_id":"cebpf4jnsgd1na2vs0mg"},{"bike_id":"f4b6c96f-f863-415f-916a-aff3ff7977d0","system_id":"levelo_inurba_marseille","lat":43.322872,"lon":5.382756,"is_reserved":false,"is_disabled":false,"rental_uris":{"android":"levelo://app?vid=f4b6c96f-f863-415f-916a-aff3ff7977d0","ios":"levelo://app?vid=f4b6c96f-f863-415f-916a-aff3ff7977d0"},"vehicle_type_id":"4","last_reported":1708031167,"current_range_meters":31200,"station_id":"ce4bhr12rcd13ifvqhqg","pricing_plan_id":"cebpf4jnsgd1na2vs0mg"},{"bike_id":"e7ddac79-3e05-4879-8044-19bc4cd52fa1","system_id":"levelo_inurba_marseille","lat":43.322872,"lon":5.382756,"is_reserved":false,"is_disabled":false,"rental_uris":{"android":"levelo://app?vid=e7ddac79-3e05-4879-8044-19bc4cd52fa1","ios":"levelo://app?vid=e7ddac79-3e05-4879-8044-19bc4cd52fa1"},"vehicle_type_id":"4","last_reported":1708031167,"current_range_meters":5200,"station_id":"ce4bhr12rcd13ifvqhqg","pricing_plan_id":"cebpf4jnsgd1na2vs0mg"},{"bike_id":"d059372d-713e-4306-a0dc-ef5b2b5ad059","system_id":"levelo_inurba_marseille","lat":43.32823,"lon":5.36682,"is_reserved":false,"is_disabled":false,"rental_uris":{"android":"levelo://app?vid=d059372d-713e-4306-a0dc-ef5b2b5ad059","ios":"levelo://app?vid=d059372d-713e-4306-a0dc-ef5b2b5ad059"},"vehicle_type_id":"4","last_reported":1708031167,"current_range_meters":0,"station_id":"ce4bhs92rcd13ifvqi0g","pricing_plan_id":"cebpf4jnsgd1na2vs0mg"},{"bike_id":"093ca88f-caa4-4c82-8a56-ee36ac23f48c","system_id":"levelo_inurba_marseille","lat":43.297163,"lon":5.365866,"is_reserved":false,"is_disabled":false,"rental_uris":{"android":"levelo://app?vid=093ca88f-caa4-4c82-8a56-ee36ac23f48c","ios":"levelo://app?vid=093ca88f-caa4-4c82-8a56-ee36ac23f48c"},"vehicle_type_id":"4","last_reported":1708031167,"current_range_meters":10000,"station_id":"ce4bgn12rcd13ifvqbt0","pricing_plan_id":"cebpf4jnsgd1na2vs0mg"},{"bike_id":"24cbb04a-c763-4b6c-91c7-7ce4ce9a6969","system_id":"levelo_inurba_marseille","lat":43.328252,"lon":5.366824,"is_reserved":false,"is_disabled":false,"rental_uris":{"android":"levelo://app?vid=24cbb04a-c763-4b6c-91c7-7ce4ce9a6969","ios":"levelo://app?vid=24cbb04a-c763-4b6c-91c7-7ce4ce9a6969"},"vehicle_type_id":"4","last_reported":1708031167,"current_range_meters":12000,"station_id":"ce4bhs92rcd13ifvqi0g","pricing_plan_id":"cebpf4jnsgd1na2vs0mg"},{"bike_id":"e4cc1337-7654-41c0-8296-b1f3b25edb39","system_id":"levelo_inurba_marseille","lat":43.32826,"lon":5.36681,"is_reserved":false,"is_disabled":false,"rental_uris":{"android":"levelo://app?vid=e4cc1337-7654-41c0-8296-b1f3b25edb39","ios":"levelo://app?vid=e4cc1337-7654-41c0-8296-b1f3b25edb39"},"vehicle_type_id":"4","last_reported":1708031167,"current_range_meters":12000,"station_id":"ce4bhs92rcd13ifvqi0g","pricing_plan_id":"cebpf4jnsgd1na2vs0mg"},{"bike_id":"ec21c626-faeb-41e5-9192-4d2bef3ee4d3","system_id":"levelo_inurba_marseille","lat":43.32826,"lon":5.36681,"is_reserved":false,"is_disabled":false,"rental_uris":{"android":"levelo://app?vid=ec21c626-faeb-41e5-9192-4d2bef3ee4d3","ios":"levelo://app?vid=ec21c626-faeb-41e5-9192-4d2bef3ee4d3"},"vehicle_type_id":"4","last_reported":1708031167,"current_range_meters":4400,"station_id":"ce4bhs92rcd13ifvqi0g","pricing_plan_id":"cebpf4jnsgd1na2vs0mg"},{"bike_id":"f6eee7ea-321a-42ae-8023-940f7f07676f","system_id":"levelo_inurba_marseille","lat":43.328371,"lon":5.366912,"is_reserved":false,"is_disabled":false,"rental_uris":{"android":"levelo://app?vid=f6eee7ea-321a-42ae-8023-940f7f07676f","ios":"levelo://app?vid=f6eee7ea-321a-42ae-8023-940f7f07676f"},"vehicle_type_id":"4","last_reported":1708031167,"current_range_meters":4800,"station_id":"ce4bhs92rcd13ifvqi0g","pricing_plan_id":"cebpf4jnsgd1na2vs0mg"},{"bike_id":"b354d40e-f748-45df-b8a4-085ee0f39b31","system_id":"levelo_inurba_marseille","lat":43.32827,"lon":5.36682,"is_reserved":false,"is_disabled":false,"rental_uris":{"android":"levelo://app?vid=b354d40e-f748-45df-b8a4-085ee0f39b31","ios":"levelo://app?vid=b354d40e-f748-45df-b8a4-085ee0f39b31"},"vehicle_type_id":"4","last_reported":1708031167,"current_range_meters":19600,"station_id":"ce4bhs92rcd13ifvqi0g","pricing_plan_id":"cebpf4jnsgd1na2vs0mg"},{"bike_id":"7a4dca57-f04c-4571-b308-319f5253d6f2","system_id":"levelo_inurba_marseille","lat":43.32828,"lon":5.36692,"is_reserved":false,"is_disabled":false,"rental_uris":{"android":"levelo://app?vid=7a4dca57-f04c-4571-b308-319f5253d6f2","ios":"levelo://app?vid=7a4dca57-f04c-4571-b308-319f5253d6f2"},"vehicle_type_id":"4","last_reported":1708031167,"current_range_meters":16000,"station_id":"ce4bhs92rcd13ifvqi0g","pricing_plan_id":"cebpf4jnsgd1na2vs0mg"},{"bike_id":"c579bad3-e2d0-4712-a783-f41c065e4e3f","system_id":"levelo_inurba_marseille","lat":43.328279,"lon":5.366713,"is_reserved":false,"is_disabled":false,"rental_uris":{"android":"levelo://app?vid=c579bad3-e2d0-4712-a783-f41c065e4e3f","ios":"levelo://app?vid=c579bad3-e2d0-4712-a783-f41c065e4e3f"},"vehicle_type_id":"4","last_reported":1708031167,"current_range_meters":4800,"station_id":"ce4bhs92rcd13ifvqi0g","pricing_plan_id":"cebpf4jnsgd1na2vs0mg"},{"bike_id":"4a0314a3-53ac-4faf-a81a-365240b15a43","system_id":"levelo_inurba_marseille","lat":43.32828,"lon":5.36682,"is_reserved":false,"is_disabled":false,"rental_uris":{"android":"levelo://app?vid=4a0314a3-53ac-4faf-a81a-365240b15a43","ios":"levelo://app?vid=4a0314a3-53ac-4faf-a81a-365240b15a43"},"vehicle_type_id":"4","last_reported":1708031167,"current_range_meters":25600,"station_id":"ce4bhs92rcd13ifvqi0g","pricing_plan_id":"cebpf4jnsgd1na2vs0mg"},{"bike_id":"57f57f96-aa15-40ae-a761-f5242a8c30b7","system_id":"levelo_inurba_marseille","lat":43.32828,"lon":5.366817,"is_reserved":false,"is_disabled":false,"rental_uris":{"android":"levelo://app?vid=57f57f96-aa15-40ae-a761-f5242a8c30b7","ios":"levelo://app?vid=57f57f96-aa15-40ae-a761-f5242a8c30b7"},"vehicle_type_id":"4","last_reported":1708031167,"current_range_meters":10400,"station_id":"ce4bhs92rcd13ifvqi0g","pricing_plan_id":"cebpf4jnsgd1na2vs0mg"},{"bike_id":"ecc597d3-f2ea-41b5-b374-bc2279e4f21f","system_id":"levelo_inurba_marseille","lat":43.32828,"lon":5.3668,"is_reserved":false,"is_disabled":false,"rental_uris":{"android":"levelo://app?vid=ecc597d3-f2ea-41b5-b374-bc2279e4f21f","ios":"levelo://app?vid=ecc597d3-f2ea-41b5-b374-bc2279e4f21f"},"vehicle_type_id":"4","last_reported":1708031167,"current_range_meters":6000,"station_id":"ce4bhs92rcd13ifvqi0g","pricing_plan_id":"cebpf4jnsgd1na2vs0mg"},{"bike_id":"e53477e0-6f81-44d0-bf92-8c0c4ae8ef5b","system_id":"levelo_inurba_marseille","lat":43.328289,"lon":5.366769,"is_reserved":false,"is_disabled":false,"rental_uris":{"android":"levelo://app?vid=e53477e0-6f81-44d0-bf92-8c0c4ae8ef5b","ios":"levelo://app?vid=e53477e0-6f81-44d0-bf92-8c0c4ae8ef5b"},"vehicle_type_id":"4","last_reported":1708031167,"current_range_meters":12800,"station_id":"ce4bhs92rcd13ifvqi0g","pricing_plan_id":"cebpf4jnsgd1na2vs0mg"},{"bike_id":"cba05e70-e0bd-44a4-939c-447adab5adfd","system_id":"levelo_inurba_marseille","lat":43.32829,"lon":5.36679,"is_reserved":false,"is_disabled":false,"rental_uris":{"android":"levelo://app?vid=cba05e70-e0bd-44a4-939c-447adab5adfd","ios":"levelo://app?vid=cba05e70-e0bd-44a4-939c-447adab5adfd"},"vehicle_type_id":"4","last_reported":1708031167,"current_range_meters":4400,"station_id":"ce4bhs92rcd13ifvqi0g","pricing_plan_id":"cebpf4jnsgd1na2vs0mg"},{"bike_id":"7c47e388-9433-4092-857a-2e1a28e7faaa","system_id":"levelo_inurba_marseille","lat":43.3283,"lon":5.36676,"is_reserved":false,"is_disabled":false,"rental_uris":{"android":"levelo://app?vid=7c47e388-9433-4092-857a-2e1a28e7faaa","ios":"levelo://app?vid=7c47e388-9433-4092-857a-2e1a28e7faaa"},"vehicle_type_id":"4","last_reported":1708031167,"current_range_meters":22400,"station_id":"ce4bhs92rcd13ifvqi0g","pricing_plan_id":"cebpf4jnsgd1na2vs0mg"},{"bike_id":"c9b88aad-86c2-4a51-9436-08e8586a0048","system_id":"levelo_inurba_marseille","lat":43.328305,"lon":5.366818,"is_reserved":false,"is_disabled":false,"rental_uris":{"android":"levelo://app?vid=c9b88aad-86c2-4a51-9436-08e8586a0048","ios":"levelo://app?vid=c9b88aad-86c2-4a51-9436-08e8586a0048"},"vehicle_type_id":"4","last_reported":1708031167,"current_range_meters":14400,"station_id":"ce4bhs92rcd13ifvqi0g","pricing_plan_id":"cebpf4jnsgd1na2vs0mg"},{"bike_id":"f6fd5bcb-70c3-4075-907f-89cd05fc7584","system_id":"levelo_inurba_marseille","lat":43.32832,"lon":5.36688,"is_reserved":false,"is_disabled":false,"rental_uris":{"android":"levelo://app?vid=f6fd5bcb-70c3-4075-907f-89cd05fc7584","ios":"levelo://app?vid=f6fd5bcb-70c3-4075-907f-89cd05fc7584"},"vehicle_type_id":"4","last_reported":1708031167,"current_range_meters":0,"station_id":"ce4bhs92rcd13ifvqi0g","pricing_plan_id":"cebpf4jnsgd1na2vs0mg"},{"bike_id":"3b0f291b-fca2-474d-b73b-4f4a07c317d1","system_id":"levelo_inurba_marseille","lat":43.297163,"lon":5.365866,"is_reserved":false,"is_disabled":false,"rental_uris":{"android":"levelo://app?vid=3b0f291b-fca2-474d-b73b-4f4a07c317d1","ios":"levelo://app?vid=3b0f291b-fca2-474d-b73b-4f4a07c317d1"},"vehicle_type_id":"4","last_reported":1708031167,"current_range_meters":18000,"station_id":"ce4bgn12rcd13ifvqbt0","pricing_plan_id":"cebpf4jnsgd1na2vs0mg"},{"bike_id":"00c486e2-5b6f-4240-9c00-f34f4cd392e2","system_id":"levelo_inurba_marseille","lat":43.32833,"lon":5.36682,"is_reserved":false,"is_disabled":false,"rental_uris":{"android":"levelo://app?vid=00c486e2-5b6f-4240-9c00-f34f4cd392e2","ios":"levelo://app?vid=00c486e2-5b6f-4240-9c00-f34f4cd392e2"},"vehicle_type_id":"4","last_reported":1708031167,"current_range_meters":12000,"station_id":"ce4bhs92rcd13ifvqi0g","pricing_plan_id":"cebpf4jnsgd1na2vs0mg"},{"bike_id":"a64515cf-2289-49fd-81bc-e416dac9c496","system_id":"levelo_inurba_marseille","lat":43.297163,"lon":5.365866,"is_reserved":false,"is_disabled":false,"rental_uris":{"android":"levelo://app?vid=a64515cf-2289-49fd-81bc-e416dac9c496","ios":"levelo://app?vid=a64515cf-2289-49fd-81bc-e416dac9c496"},"vehicle_type_id":"4","last_reported":1708031167,"current_range_meters":8000,"station_id":"ce4bgn12rcd13ifvqbt0","pricing_plan_id":"cebpf4jnsgd1na2vs0mg"},{"bike_id":"78be67a2-342c-453a-88c1-566ae1ae49d2","system_id":"levelo_inurba_marseille","lat":43.29715,"lon":5.36608,"is_reserved":false,"is_disabled":false,"rental_uris":{"android":"levelo://app?vid=78be67a2-342c-453a-88c1-566ae1ae49d2","ios":"levelo://app?vid=78be67a2-342c-453a-88c1-566ae1ae49d2"},"vehicle_type_id":"4","last_reported":1708031167,"current_range_meters":4800,"station_id":"ce4bgn12rcd13ifvqbt0","pricing_plan_id":"cebpf4jnsgd1na2vs0mg"},{"bike_id":"01ef1e87-7b88-4771-aca4-bf0407485e75","system_id":"levelo_inurba_marseille","lat":43.297163,"lon":5.365866,"is_reserved":false,"is_disabled":false,"rental_uris":{"android":"levelo://app?vid=01ef1e87-7b88-4771-aca4-bf0407485e75","ios":"levelo://app?vid=01ef1e87-7b88-4771-aca4-bf0407485e75"},"vehicle_type_id":"4","last_reported":1708031167,"current_range_meters":26400,"station_id":"ce4bgn12rcd13ifvqbt0","pricing_plan_id":"cebpf4jnsgd1na2vs0mg"},{"bike_id":"8d4d4aba-3495-4235-ada7-809a0bcb5c57","system_id":"levelo_inurba_marseille","lat":43.328348,"lon":5.366794,"is_reserved":false,"is_disabled":false,"rental_uris":{"android":"levelo://app?vid=8d4d4aba-3495-4235-ada7-809a0bcb5c57","ios":"levelo://app?vid=8d4d4aba-3495-4235-ada7-809a0bcb5c57"},"vehicle_type_id":"4","last_reported":1708031167,"current_range_meters":18000,"station_id":"ce4bhs92rcd13ifvqi0g","pricing_plan_id":"cebpf4jnsgd1na2vs0mg"},{"bike_id":"e66e6e00-2e1c-4f2f-88fb-71279cdf6fac","system_id":"levelo_inurba_marseille","lat":43.297163,"lon":5.365866,"is_reserved":false,"is_disabled":false,"rental_uris":{"android":"levelo://app?vid=e66e6e00-2e1c-4f2f-88fb-71279cdf6fac","ios":"levelo://app?vid=e66e6e00-2e1c-4f2f-88fb-71279cdf6fac"},"vehicle_type_id":"4","last_reported":1708031167,"current_range_meters":7600,"station_id":"ce4bgn12rcd13ifvqbt0","pricing_plan_id":"cebpf4jnsgd1na2vs0mg"},{"bike_id":"20747a73-3ec2-4ec7-9c3a-f0ad85525260","system_id":"levelo_inurba_marseille","lat":43.32835,"lon":5.36687,"is_reserved":false,"is_disabled":false,"rental_uris":{"android":"levelo://app?vid=20747a73-3ec2-4ec7-9c3a-f0ad85525260","ios":"levelo://app?vid=20747a73-3ec2-4ec7-9c3a-f0ad85525260"},"vehicle_type_id":"4","last_reported":1708031167,"current_range_meters":0,"station_id":"ce4bhs92rcd13ifvqi0g","pricing_plan_id":"cebpf4jnsgd1na2vs0mg"},{"bike_id":"0cb9e94c-d4c3-46d6-b162-b2515c7bc520","system_id":"levelo_inurba_marseille","lat":43.297163,"lon":5.365866,"is_reserved":false,"is_disabled":false,"rental_uris":{"android":"levelo://app?vid=0cb9e94c-d4c3-46d6-b162-b2515c7bc520","ios":"levelo://app?vid=0cb9e94c-d4c3-46d6-b162-b2515c7bc520"},"vehicle_type_id":"4","last_reported":1708031167,"current_range_meters":6000,"station_id":"ce4bgn12rcd13ifvqbt0","pricing_plan_id":"cebpf4jnsgd1na2vs0mg"},{"bike_id":"6683842f-a6f1-429e-8ef0-9530f8f45a09","system_id":"levelo_inurba_marseille","lat":43.297163,"lon":5.365866,"is_reserved":false,"is_disabled":false,"rental_uris":{"android":"levelo://app?vid=6683842f-a6f1-429e-8ef0-9530f8f45a09","ios":"levelo://app?vid=6683842f-a6f1-429e-8ef0-9530f8f45a09"},"vehicle_type_id":"4","last_reported":1708031167,"current_range_meters":22400,"station_id":"ce4bgn12rcd13ifvqbt0","pricing_plan_id":"cebpf4jnsgd1na2vs0mg"},{"bike_id":"4920f479-56d9-49c4-8947-c7fb11047f6a","system_id":"levelo_inurba_marseille","lat":43.297163,"lon":5.365866,"is_reserved":false,"is_disabled":false,"rental_uris":{"android":"levelo://app?vid=4920f479-56d9-49c4-8947-c7fb11047f6a","ios":"levelo://app?vid=4920f479-56d9-49c4-8947-c7fb11047f6a"},"vehicle_type_id":"4","last_reported":1708031167,"current_range_meters":18800,"station_id":"ce4bgn12rcd13ifvqbt0","pricing_plan_id":"cebpf4jnsgd1na2vs0mg"},{"bike_id":"ab142448-ffed-49e3-bc9a-32006e08dccc","system_id":"levelo_inurba_marseille","lat":43.297101,"lon":5.366001,"is_reserved":false,"is_disabled":false,"rental_uris":{"android":"levelo://app?vid=ab142448-ffed-49e3-bc9a-32006e08dccc","ios":"levelo://app?vid=ab142448-ffed-49e3-bc9a-32006e08dccc"},"vehicle_type_id":"4","last_reported":1708031167,"current_range_meters":12400,"station_id":"ce4bgn12rcd13ifvqbt0","pricing_plan_id":"cebpf4jnsgd1na2vs0mg"},{"bike_id":"9d7784e4-fdd2-4fa1-ba7c-236cc8eb1c32","system_id":"levelo_inurba_marseille","lat":43.297097,"lon":5.366033,"is_reserved":false,"is_disabled":false,"rental_uris":{"android":"levelo://app?vid=9d7784e4-fdd2-4fa1-ba7c-236cc8eb1c32","ios":"levelo://app?vid=9d7784e4-fdd2-4fa1-ba7c-236cc8eb1c32"},"vehicle_type_id":"4","last_reported":1708031167,"current_range_meters":0,"station_id":"ce4bgn12rcd13ifvqbt0","pricing_plan_id":"cebpf4jnsgd1na2vs0mg"},{"bike_id":"3c0f9a70-15f2-4f79-b594-88e1bbdc99fd","system_id":"levelo_inurba_marseille","lat":43.297163,"lon":5.365866,"is_reserved":false,"is_disabled":false,"rental_uris":{"android":"levelo://app?vid=3c0f9a70-15f2-4f79-b594-88e1bbdc99fd","ios":"levelo://app?vid=3c0f9a70-15f2-4f79-b594-88e1bbdc99fd"},"vehicle_type_id":"4","last_reported":1708031167,"current_range_meters":400,"station_id":"ce4bgn12rcd13ifvqbt0","pricing_plan_id":"cebpf4jnsgd1na2vs0mg"},{"bike_id":"88a6f283-ebdc-4116-9bbe-c490469db988","system_id":"levelo_inurba_marseille","lat":43.297163,"lon":5.365866,"is_reserved":false,"is_disabled":false,"rental_uris":{"android":"levelo://app?vid=88a6f283-ebdc-4116-9bbe-c490469db988","ios":"levelo://app?vid=88a6f283-ebdc-4116-9bbe-c490469db988"},"vehicle_type_id":"4","last_reported":1708031167,"current_range_meters":22800,"station_id":"ce4bgn12rcd13ifvqbt0","pricing_plan_id":"cebpf4jnsgd1na2vs0mg"},{"bike_id":"cc4ce816-decb-4e5e-8ea3-540d91db8d62","system_id":"levelo_inurba_marseille","lat":43.297163,"lon":5.365866,"is_reserved":false,"is_disabled":false,"rental_uris":{"android":"levelo://app?vid=cc4ce816-decb-4e5e-8ea3-540d91db8d62","ios":"levelo://app?vid=cc4ce816-decb-4e5e-8ea3-540d91db8d62"},"vehicle_type_id":"4","last_reported":1708031167,"current_range_meters":26000,"station_id":"ce4bgn12rcd13ifvqbt0","pricing_plan_id":"cebpf4jnsgd1na2vs0mg"},{"bike_id":"f2e813e7-7efd-4e91-96be-80e63cc38025","system_id":"levelo_inurba_marseille","lat":43.2968,"lon":5.37291,"is_reserved":false,"is_disabled":false,"rental_uris":{"android":"levelo://app?vid=f2e813e7-7efd-4e91-96be-80e63cc38025","ios":"levelo://app?vid=f2e813e7-7efd-4e91-96be-80e63cc38025"},"vehicle_type_id":"4","last_reported":1708031167,"current_range_meters":31200,"station_id":"ce4bgk12rcd13ifvqbj0","pricing_plan_id":"cebpf4jnsgd1na2vs0mg"},{"bike_id":"f0c70a5f-b0c3-4df4-9f2f-b2d519a459b6","system_id":"levelo_inurba_marseille","lat":43.309601,"lon":5.390291,"is_reserved":false,"is_disabled":false,"rental_uris":{"android":"levelo://app?vid=f0c70a5f-b0c3-4df4-9f2f-b2d519a459b6","ios":"levelo://app?vid=f0c70a5f-b0c3-4df4-9f2f-b2d519a459b6"},"vehicle_type_id":"4","last_reported":1708031167,"current_range_meters":0,"station_id":"ce4bgup2rcd13ifvqco0","pricing_plan_id":"cebpf4jnsgd1na2vs0mg"},{"bike_id":"cc87312f-2a43-4164-a267-fee32347c1a5","system_id":"levelo_inurba_marseille","lat":43.309589,"lon":5.390258,"is_reserved":false,"is_disabled":false,"rental_uris":{"android":"levelo://app?vid=cc87312f-2a43-4164-a267-fee32347c1a5","ios":"levelo://app?vid=cc87312f-2a43-4164-a267-fee32347c1a5"},"vehicle_type_id":"4","last_reported":1708031167,"current_range_meters":25600,"station_id":"ce4bgup2rcd13ifvqco0","pricing_plan_id":"cebpf4jnsgd1na2vs0mg"},{"bike_id":"9184a226-5cba-4718-95b0-193a8c6a76d8","system_id":"levelo_inurba_marseille","lat":43.309589,"lon":5.390258,"is_reserved":false,"is_disabled":false,"rental_uris":{"android":"levelo://app?vid=9184a226-5cba-4718-95b0-193a8c6a76d8","ios":"levelo://app?vid=9184a226-5cba-4718-95b0-193a8c6a76d8"},"vehicle_type_id":"4","last_reported":1708031167,"current_range_meters":11200,"station_id":"ce4bgup2rcd13ifvqco0","pricing_plan_id":"cebpf4jnsgd1na2vs0mg"},{"bike_id":"5615b1b1-8ed0-4dab-be0f-5a22c7f9240d","system_id":"levelo_inurba_marseille","lat":43.317463,"lon":5.390125,"is_reserved":false,"is_disabled":false,"rental_uris":{"android":"levelo://app?vid=5615b1b1-8ed0-4dab-be0f-5a22c7f9240d","ios":"levelo://app?vid=5615b1b1-8ed0-4dab-be0f-5a22c7f9240d"},"vehicle_type_id":"4","last_reported":1708031167,"current_range_meters":0,"station_id":"ce4bhqp2rcd13ifvqhng","pricing_plan_id":"cebpf4jnsgd1na2vs0mg"},{"bike_id":"04a263cc-f7fb-40e2-9889-8225f7c983b8","system_id":"levelo_inurba_marseille","lat":43.31757,"lon":5.3901,"is_reserved":false,"is_disabled":false,"rental_uris":{"android":"levelo://app?vid=04a263cc-f7fb-40e2-9889-8225f7c983b8","ios":"levelo://app?vid=04a263cc-f7fb-40e2-9889-8225f7c983b8"},"vehicle_type_id":"4","last_reported":1708031167,"current_range_meters":400,"station_id":"ce4bhqp2rcd13ifvqhng","pricing_plan_id":"cebpf4jnsgd1na2vs0mg"},{"bike_id":"b3dcb9ba-bf07-48c1-aada-2fbdb761a352","system_id":"levelo_inurba_marseille","lat":43.317557,"lon":5.390173,"is_reserved":false,"is_disabled":false,"rental_uris":{"android":"levelo://app?vid=b3dcb9ba-bf07-48c1-aada-2fbdb761a352","ios":"levelo://app?vid=b3dcb9ba-bf07-48c1-aada-2fbdb761a352"},"vehicle_type_id":"4","last_reported":1708031167,"current_range_meters":31200,"station_id":"ce4bhqp2rcd13ifvqhng","pricing_plan_id":"cebpf4jnsgd1na2vs0mg"},{"bike_id":"12fde8e2-7aff-44e5-b0cb-316b4dfe9ecf","system_id":"levelo_inurba_marseille","lat":43.317557,"lon":5.390173,"is_reserved":false,"is_disabled":false,"rental_uris":{"android":"levelo://app?vid=12fde8e2-7aff-44e5-b0cb-316b4dfe9ecf","ios":"levelo://app?vid=12fde8e2-7aff-44e5-b0cb-316b4dfe9ecf"},"vehicle_type_id":"4","last_reported":1708031167,"current_range_meters":28400,"station_id":"ce4bhqp2rcd13ifvqhng","pricing_plan_id":"cebpf4jnsgd1na2vs0mg"},{"bike_id":"4d1fc426-76ca-4e7f-b775-e8d4d4862683","system_id":"levelo_inurba_marseille","lat":43.317557,"lon":5.390173,"is_reserved":false,"is_disabled":false,"rental_uris":{"android":"levelo://app?vid=4d1fc426-76ca-4e7f-b775-e8d4d4862683","ios":"levelo://app?vid=4d1fc426-76ca-4e7f-b775-e8d4d4862683"},"vehicle_type_id":"4","last_reported":1708031167,"current_range_meters":31200,"station_id":"ce4bhqp2rcd13ifvqhng","pricing_plan_id":"cebpf4jnsgd1na2vs0mg"},{"bike_id":"cece8118-751e-4704-b260-95811fc140db","system_id":"levelo_inurba_marseille","lat":43.317557,"lon":5.390173,"is_reserved":false,"is_disabled":false,"rental_uris":{"android":"levelo://app?vid=cece8118-751e-4704-b260-95811fc140db","ios":"levelo://app?vid=cece8118-751e-4704-b260-95811fc140db"},"vehicle_type_id":"4","last_reported":1708031167,"current_range_meters":30800,"station_id":"ce4bhqp2rcd13ifvqhng","pricing_plan_id":"cebpf4jnsgd1na2vs0mg"},{"bike_id":"0d568f49-9e25-417a-91e9-babe78949eca","system_id":"levelo_inurba_marseille","lat":43.317557,"lon":5.390173,"is_reserved":false,"is_disabled":false,"rental_uris":{"android":"levelo://app?vid=0d568f49-9e25-417a-91e9-babe78949eca","ios":"levelo://app?vid=0d568f49-9e25-417a-91e9-babe78949eca"},"vehicle_type_id":"4","last_reported":1708031167,"current_range_meters":31200,"station_id":"ce4bhqp2rcd13ifvqhng","pricing_plan_id":"cebpf4jnsgd1na2vs0mg"},{"bike_id":"b38bbca5-1482-40ad-8405-56dac9cba366","system_id":"levelo_inurba_marseille","lat":43.317557,"lon":5.390173,"is_reserved":false,"is_disabled":false,"rental_uris":{"android":"levelo://app?vid=b38bbca5-1482-40ad-8405-56dac9cba366","ios":"levelo://app?vid=b38bbca5-1482-40ad-8405-56dac9cba366"},"vehicle_type_id":"4","last_reported":1708031167,"current_range_meters":27200,"station_id":"ce4bhqp2rcd13ifvqhng","pricing_plan_id":"cebpf4jnsgd1na2vs0mg"},{"bike_id":"27aaf622-ad2c-42b5-9690-9fff0a27e24d","system_id":"levelo_inurba_marseille","lat":43.317557,"lon":5.390173,"is_reserved":false,"is_disabled":false,"rental_uris":{"android":"levelo://app?vid=27aaf622-ad2c-42b5-9690-9fff0a27e24d","ios":"levelo://app?vid=27aaf622-ad2c-42b5-9690-9fff0a27e24d"},"vehicle_type_id":"4","last_reported":1708031167,"current_range_meters":29200,"station_id":"ce4bhqp2rcd13ifvqhng","pricing_plan_id":"cebpf4jnsgd1na2vs0mg"},{"bike_id":"0c579ed9-d995-4715-ba91-9d1d048dcd1d","system_id":"levelo_inurba_marseille","lat":43.304274,"lon":5.388873,"is_reserved":false,"is_disabled":false,"rental_uris":{"android":"levelo://app?vid=0c579ed9-d995-4715-ba91-9d1d048dcd1d","ios":"levelo://app?vid=0c579ed9-d995-4715-ba91-9d1d048dcd1d"},"vehicle_type_id":"4","last_reported":1708031167,"current_range_meters":12400,"station_id":"ce4bgk12rcd13ifvqbi0","pricing_plan_id":"cebpf4jnsgd1na2vs0mg"},{"bike_id":"523af342-5027-4a62-a51b-ab3e8a538701","system_id":"levelo_inurba_marseille","lat":43.304278,"lon":5.388868,"is_reserved":false,"is_disabled":false,"rental_uris":{"android":"levelo://app?vid=523af342-5027-4a62-a51b-ab3e8a538701","ios":"levelo://app?vid=523af342-5027-4a62-a51b-ab3e8a538701"},"vehicle_type_id":"4","last_reported":1708031167,"current_range_meters":31200,"station_id":"ce4bgk12rcd13ifvqbi0","pricing_plan_id":"cebpf4jnsgd1na2vs0mg"},{"bike_id":"28ffc58b-7052-4a54-ac9e-3e5616701908","system_id":"levelo_inurba_marseille","lat":43.298037,"lon":5.381066,"is_reserved":false,"is_disabled":false,"rental_uris":{"android":"levelo://app?vid=28ffc58b-7052-4a54-ac9e-3e5616701908","ios":"levelo://app?vid=28ffc58b-7052-4a54-ac9e-3e5616701908"},"vehicle_type_id":"4","last_reported":1708031167,"current_range_meters":26800,"station_id":"ce4bgip2rcd13ifvqbb0","pricing_plan_id":"cebpf4jnsgd1na2vs0mg"},{"bike_id":"649d0103-8b16-4e59-a312-377cf528357b","system_id":"levelo_inurba_marseille","lat":43.304336,"lon":5.388834,"is_reserved":false,"is_disabled":false,"rental_uris":{"android":"levelo://app?vid=649d0103-8b16-4e59-a312-377cf528357b","ios":"levelo://app?vid=649d0103-8b16-4e59-a312-377cf528357b"},"vehicle_type_id":"4","last_reported":1708031167,"current_range_meters":29200,"station_id":"ce4bgk12rcd13ifvqbi0","pricing_plan_id":"cebpf4jnsgd1na2vs0mg"},{"bike_id":"327c0d1a-833b-4af0-8883-f4f7ddec1b04","system_id":"levelo_inurba_marseille","lat":43.30438,"lon":5.38887,"is_reserved":false,"is_disabled":false,"rental_uris":{"android":"levelo://app?vid=327c0d1a-833b-4af0-8883-f4f7ddec1b04","ios":"levelo://app?vid=327c0d1a-833b-4af0-8883-f4f7ddec1b04"},"vehicle_type_id":"4","last_reported":1708031167,"current_range_meters":8000,"station_id":"ce4bgk12rcd13ifvqbi0","pricing_plan_id":"cebpf4jnsgd1na2vs0mg"},{"bike_id":"b39332f6-457c-4d2d-88db-91d045536ebc","system_id":"levelo_inurba_marseille","lat":43.29629,"lon":5.37723,"is_reserved":false,"is_disabled":false,"rental_uris":{"android":"levelo://app?vid=b39332f6-457c-4d2d-88db-91d045536ebc","ios":"levelo://app?vid=b39332f6-457c-4d2d-88db-91d045536ebc"},"vehicle_type_id":"4","last_reported":1708031167,"current_range_meters":2800,"station_id":"ce4bgi92rcd13ifvqb90","pricing_plan_id":"cebpf4jnsgd1na2vs0mg"},{"bike_id":"e79815f4-fe6a-4e66-b5d0-a6d69cf00d73","system_id":"levelo_inurba_marseille","lat":43.296263,"lon":5.377094,"is_reserved":false,"is_disabled":false,"rental_uris":{"android":"levelo://app?vid=e79815f4-fe6a-4e66-b5d0-a6d69cf00d73","ios":"levelo://app?vid=e79815f4-fe6a-4e66-b5d0-a6d69cf00d73"},"vehicle_type_id":"4","last_reported":1708031167,"current_range_meters":28000,"station_id":"ce4bgi92rcd13ifvqb90","pricing_plan_id":"cebpf4jnsgd1na2vs0mg"},{"bike_id":"eee34d6f-a0e0-4f38-99ee-04b2f40c82b7","system_id":"levelo_inurba_marseille","lat":43.295748,"lon":5.37522,"is_reserved":false,"is_disabled":false,"rental_uris":{"android":"levelo://app?vid=eee34d6f-a0e0-4f38-99ee-04b2f40c82b7","ios":"levelo://app?vid=eee34d6f-a0e0-4f38-99ee-04b2f40c82b7"},"vehicle_type_id":"4","last_reported":1708031167,"current_range_meters":28000,"station_id":"ce4bgh92rcd13ifvqb50","pricing_plan_id":"cebpf4jnsgd1na2vs0mg"},{"bike_id":"4b18c696-d889-448e-b772-309a626f3efc","system_id":"levelo_inurba_marseille","lat":43.299707,"lon":5.384859,"is_reserved":false,"is_disabled":false,"rental_uris":{"android":"levelo://app?vid=4b18c696-d889-448e-b772-309a626f3efc","ios":"levelo://app?vid=4b18c696-d889-448e-b772-309a626f3efc"},"vehicle_type_id":"4","last_reported":1708031167,"current_range_meters":0,"station_id":"ce4bgj92rcd13ifvqbd0","pricing_plan_id":"cebpf4jnsgd1na2vs0mg"},{"bike_id":"fce51aad-df8d-4463-ad09-dde8abae12f7","system_id":"levelo_inurba_marseille","lat":43.299717,"lon":5.384845,"is_reserved":false,"is_disabled":false,"rental_uris":{"android":"levelo://app?vid=fce51aad-df8d-4463-ad09-dde8abae12f7","ios":"levelo://app?vid=fce51aad-df8d-4463-ad09-dde8abae12f7"},"vehicle_type_id":"4","last_reported":1708031167,"current_range_meters":400,"station_id":"ce4bgj92rcd13ifvqbd0","pricing_plan_id":"cebpf4jnsgd1na2vs0mg"},{"bike_id":"7198b7cf-38ab-4f13-9427-7412f5ba137d","system_id":"levelo_inurba_marseille","lat":43.295279,"lon":5.375048,"is_reserved":false,"is_disabled":false,"rental_uris":{"android":"levelo://app?vid=7198b7cf-38ab-4f13-9427-7412f5ba137d","ios":"levelo://app?vid=7198b7cf-38ab-4f13-9427-7412f5ba137d"},"vehicle_type_id":"4","last_reported":1708031167,"current_range_meters":21200,"station_id":"ce4bgkp2rcd13ifvqbmg","pricing_plan_id":"cebpf4jnsgd1na2vs0mg"},{"bike_id":"db5a62d4-f9ba-40ff-9ae3-5d05cc8e7704","system_id":"levelo_inurba_marseille","lat":43.32367,"lon":5.388836,"is_reserved":false,"is_disabled":false,"rental_uris":{"android":"levelo://app?vid=db5a62d4-f9ba-40ff-9ae3-5d05cc8e7704","ios":"levelo://app?vid=db5a62d4-f9ba-40ff-9ae3-5d05cc8e7704"},"vehicle_type_id":"4","last_reported":1708031167,"current_range_meters":7200,"station_id":"ce4bhqp2rcd13ifvqhog","pricing_plan_id":"cebpf4jnsgd1na2vs0mg"},{"bike_id":"28152d88-f1e7-4013-9b8c-cad9c3cb847e","system_id":"levelo_inurba_marseille","lat":43.32367,"lon":5.388836,"is_reserved":false,"is_disabled":false,"rental_uris":{"android":"levelo://app?vid=28152d88-f1e7-4013-9b8c-cad9c3cb847e","ios":"levelo://app?vid=28152d88-f1e7-4013-9b8c-cad9c3cb847e"},"vehicle_type_id":"4","last_reported":1708031167,"current_range_meters":15600,"station_id":"ce4bhqp2rcd13ifvqhog","pricing_plan_id":"cebpf4jnsgd1na2vs0mg"},{"bike_id":"9a785585-c85b-4fa3-85aa-80d29ca57d9f","system_id":"levelo_inurba_marseille","lat":43.32367,"lon":5.388836,"is_reserved":false,"is_disabled":false,"rental_uris":{"android":"levelo://app?vid=9a785585-c85b-4fa3-85aa-80d29ca57d9f","ios":"levelo://app?vid=9a785585-c85b-4fa3-85aa-80d29ca57d9f"},"vehicle_type_id":"4","last_reported":1708031167,"current_range_meters":7600,"station_id":"ce4bhqp2rcd13ifvqhog","pricing_plan_id":"cebpf4jnsgd1na2vs0mg"},{"bike_id":"b990bd33-11fa-4194-a071-8e5a2381ab47","system_id":"levelo_inurba_marseille","lat":43.32367,"lon":5.388836,"is_reserved":false,"is_disabled":false,"rental_uris":{"android":"levelo://app?vid=b990bd33-11fa-4194-a071-8e5a2381ab47","ios":"levelo://app?vid=b990bd33-11fa-4194-a071-8e5a2381ab47"},"vehicle_type_id":"4","last_reported":1708031167,"current_range_meters":6000,"station_id":"ce4bhqp2rcd13ifvqhog","pricing_plan_id":"cebpf4jnsgd1na2vs0mg"},{"bike_id":"41305819-44f5-40af-827b-218028eee8ba","system_id":"levelo_inurba_marseille","lat":43.32367,"lon":5.388836,"is_reserved":false,"is_disabled":false,"rental_uris":{"android":"levelo://app?vid=41305819-44f5-40af-827b-218028eee8ba","ios":"levelo://app?vid=41305819-44f5-40af-827b-218028eee8ba"},"vehicle_type_id":"4","last_reported":1708031167,"current_range_meters":0,"station_id":"ce4bhqp2rcd13ifvqhog","pricing_plan_id":"cebpf4jnsgd1na2vs0mg"},{"bike_id":"a8c7fcf6-2476-48b4-a2a7-391dc6d39d14","system_id":"levelo_inurba_marseille","lat":43.32367,"lon":5.388836,"is_reserved":false,"is_disabled":false,"rental_uris":{"android":"levelo://app?vid=a8c7fcf6-2476-48b4-a2a7-391dc6d39d14","ios":"levelo://app?vid=a8c7fcf6-2476-48b4-a2a7-391dc6d39d14"},"vehicle_type_id":"4","last_reported":1708031167,"current_range_meters":0,"station_id":"ce4bhqp2rcd13ifvqhog","pricing_plan_id":"cebpf4jnsgd1na2vs0mg"},{"bike_id":"7b8ae2a5-fea4-420f-9e1d-5f67a20c6887","system_id":"levelo_inurba_marseille","lat":43.32367,"lon":5.388836,"is_reserved":false,"is_disabled":false,"rental_uris":{"android":"levelo://app?vid=7b8ae2a5-fea4-420f-9e1d-5f67a20c6887","ios":"levelo://app?vid=7b8ae2a5-fea4-420f-9e1d-5f67a20c6887"},"vehicle_type_id":"4","last_reported":1708031167,"current_range_meters":19600,"station_id":"ce4bhqp2rcd13ifvqhog","pricing_plan_id":"cebpf4jnsgd1na2vs0mg"},{"bike_id":"db2bc009-1b6b-43a5-9572-4ba46f979c16","system_id":"levelo_inurba_marseille","lat":43.32367,"lon":5.388836,"is_reserved":false,"is_disabled":false,"rental_uris":{"android":"levelo://app?vid=db2bc009-1b6b-43a5-9572-4ba46f979c16","ios":"levelo://app?vid=db2bc009-1b6b-43a5-9572-4ba46f979c16"},"vehicle_type_id":"4","last_reported":1708031167,"current_range_meters":18400,"station_id":"ce4bhqp2rcd13ifvqhog","pricing_plan_id":"cebpf4jnsgd1na2vs0mg"},{"bike_id":"f5b0e9d5-9d2a-4c56-b9bd-0e8eaad66c29","system_id":"levelo_inurba_marseille","lat":43.29602,"lon":5.381084,"is_reserved":false,"is_disabled":false,"rental_uris":{"android":"levelo://app?vid=f5b0e9d5-9d2a-4c56-b9bd-0e8eaad66c29","ios":"levelo://app?vid=f5b0e9d5-9d2a-4c56-b9bd-0e8eaad66c29"},"vehicle_type_id":"4","last_reported":1708031167,"current_range_meters":2400,"station_id":"ce4bgl12rcd13ifvqbo0","pricing_plan_id":"cebpf4jnsgd1na2vs0mg"},{"bike_id":"1f161b07-631e-4445-8d1e-378b5d9587d0","system_id":"levelo_inurba_marseille","lat":43.29312,"lon":5.3717,"is_reserved":false,"is_disabled":false,"rental_uris":{"android":"levelo://app?vid=1f161b07-631e-4445-8d1e-378b5d9587d0","ios":"levelo://app?vid=1f161b07-631e-4445-8d1e-378b5d9587d0"},"vehicle_type_id":"4","last_reported":1708031167,"current_range_meters":24400,"station_id":"ce4bgh92rcd13ifvqb40","pricing_plan_id":"cebpf4jnsgd1na2vs0mg"},{"bike_id":"24dbd017-e002-4304-ba52-a44060b64f07","system_id":"levelo_inurba_marseille","lat":43.293106,"lon":5.371612,"is_reserved":false,"is_disabled":false,"rental_uris":{"android":"levelo://app?vid=24dbd017-e002-4304-ba52-a44060b64f07","ios":"levelo://app?vid=24dbd017-e002-4304-ba52-a44060b64f07"},"vehicle_type_id":"4","last_reported":1708031167,"current_range_meters":0,"station_id":"ce4bgh92rcd13ifvqb40","pricing_plan_id":"cebpf4jnsgd1na2vs0mg"},{"bike_id":"b4fa3c0e-141e-41a7-b877-00d127c89d11","system_id":"levelo_inurba_marseille","lat":43.293249,"lon":5.371578,"is_reserved":false,"is_disabled":false,"rental_uris":{"android":"levelo://app?vid=b4fa3c0e-141e-41a7-b877-00d127c89d11","ios":"levelo://app?vid=b4fa3c0e-141e-41a7-b877-00d127c89d11"},"vehicle_type_id":"4","last_reported":1708031167,"current_range_meters":5200,"station_id":"ce4bgh92rcd13ifvqb40","pricing_plan_id":"cebpf4jnsgd1na2vs0mg"},{"bike_id":"088091d0-8fa6-4246-9a0c-ef11f30a237b","system_id":"levelo_inurba_marseille","lat":43.29299,"lon":5.3717,"is_reserved":false,"is_disabled":false,"rental_uris":{"android":"levelo://app?vid=088091d0-8fa6-4246-9a0c-ef11f30a237b","ios":"levelo://app?vid=088091d0-8fa6-4246-9a0c-ef11f30a237b"},"vehicle_type_id":"4","last_reported":1708031167,"current_range_meters":0,"station_id":"ce4bgh92rcd13ifvqb40","pricing_plan_id":"cebpf4jnsgd1na2vs0mg"},{"bike_id":"c75de4dc-3371-4312-bc39-1b5789663a34","system_id":"levelo_inurba_marseille","lat":43.292749,"lon":5.368402,"is_reserved":false,"is_disabled":false,"rental_uris":{"android":"levelo://app?vid=c75de4dc-3371-4312-bc39-1b5789663a34","ios":"levelo://app?vid=c75de4dc-3371-4312-bc39-1b5789663a34"},"vehicle_type_id":"4","last_reported":1708031167,"current_range_meters":0,"station_id":"ce4bhbp2rcd13ifvqesg","pricing_plan_id":"cebpf4jnsgd1na2vs0mg"},{"bike_id":"8f795d00-eb66-4272-baa0-530010bec413","system_id":"levelo_inurba_marseille","lat":43.29267,"lon":5.36849,"is_reserved":false,"is_disabled":false,"rental_uris":{"android":"levelo://app?vid=8f795d00-eb66-4272-baa0-530010bec413","ios":"levelo://app?vid=8f795d00-eb66-4272-baa0-530010bec413"},"vehicle_type_id":"4","last_reported":1708031167,"current_range_meters":0,"station_id":"ce4bhbp2rcd13ifvqesg","pricing_plan_id":"cebpf4jnsgd1na2vs0mg"},{"bike_id":"58bbb622-d131-4c91-af06-c765f6c409c9","system_id":"levelo_inurba_marseille","lat":43.30305,"lon":5.39202,"is_reserved":false,"is_disabled":false,"rental_uris":{"android":"levelo://app?vid=58bbb622-d131-4c91-af06-c765f6c409c9","ios":"levelo://app?vid=58bbb622-d131-4c91-af06-c765f6c409c9"},"vehicle_type_id":"4","last_reported":1708031167,"current_range_meters":15200,"station_id":"ce4bgkh2rcd13ifvqbk0","pricing_plan_id":"cebpf4jnsgd1na2vs0mg"},{"bike_id":"0b2c9bde-e1d9-4637-85ad-82e704b8600b","system_id":"levelo_inurba_marseille","lat":43.303002,"lon":5.392142,"is_reserved":false,"is_disabled":false,"rental_uris":{"android":"levelo://app?vid=0b2c9bde-e1d9-4637-85ad-82e704b8600b","ios":"levelo://app?vid=0b2c9bde-e1d9-4637-85ad-82e704b8600b"},"vehicle_type_id":"4","last_reported":1708031167,"current_range_meters":28000,"station_id":"ce4bgkh2rcd13ifvqbk0","pricing_plan_id":"cebpf4jnsgd1na2vs0mg"},{"bike_id":"63bd05ce-5952-493b-ac58-0c0fed69f87e","system_id":"levelo_inurba_marseille","lat":43.303002,"lon":5.392142,"is_reserved":false,"is_disabled":false,"rental_uris":{"android":"levelo://app?vid=63bd05ce-5952-493b-ac58-0c0fed69f87e","ios":"levelo://app?vid=63bd05ce-5952-493b-ac58-0c0fed69f87e"},"vehicle_type_id":"4","last_reported":1708031167,"current_range_meters":18800,"station_id":"ce4bgkh2rcd13ifvqbk0","pricing_plan_id":"cebpf4jnsgd1na2vs0mg"},{"bike_id":"70babb4c-618c-4d31-a698-e01f793dc092","system_id":"levelo_inurba_marseille","lat":43.30303,"lon":5.39207,"is_reserved":false,"is_disabled":false,"rental_uris":{"android":"levelo://app?vid=70babb4c-618c-4d31-a698-e01f793dc092","ios":"levelo://app?vid=70babb4c-618c-4d31-a698-e01f793dc092"},"vehicle_type_id":"4","last_reported":1708031167,"current_range_meters":29200,"station_id":"ce4bgkh2rcd13ifvqbk0","pricing_plan_id":"cebpf4jnsgd1na2vs0mg"},{"bike_id":"70a29a34-b86a-448f-9a23-7d10f1fd66d0","system_id":"levelo_inurba_marseille","lat":43.303002,"lon":5.392142,"is_reserved":false,"is_disabled":false,"rental_uris":{"android":"levelo://app?vid=70a29a34-b86a-448f-9a23-7d10f1fd66d0","ios":"levelo://app?vid=70a29a34-b86a-448f-9a23-7d10f1fd66d0"},"vehicle_type_id":"4","last_reported":1708031167,"current_range_meters":0,"station_id":"ce4bgkh2rcd13ifvqbk0","pricing_plan_id":"cebpf4jnsgd1na2vs0mg"},{"bike_id":"fbb00886-cfa3-4aa4-a38d-2c75f73ad24c","system_id":"levelo_inurba_marseille","lat":43.302992,"lon":5.392136,"is_reserved":false,"is_disabled":false,"rental_uris":{"android":"levelo://app?vid=fbb00886-cfa3-4aa4-a38d-2c75f73ad24c","ios":"levelo://app?vid=fbb00886-cfa3-4aa4-a38d-2c75f73ad24c"},"vehicle_type_id":"4","last_reported":1708031167,"current_range_meters":12800,"station_id":"ce4bgkh2rcd13ifvqbk0","pricing_plan_id":"cebpf4jnsgd1na2vs0mg"},{"bike_id":"bbe5a2a3-a018-41da-8203-fd1546b0cb39","system_id":"levelo_inurba_marseille","lat":43.302992,"lon":5.392136,"is_reserved":false,"is_disabled":false,"rental_uris":{"android":"levelo://app?vid=bbe5a2a3-a018-41da-8203-fd1546b0cb39","ios":"levelo://app?vid=bbe5a2a3-a018-41da-8203-fd1546b0cb39"},"vehicle_type_id":"4","last_reported":1708031167,"current_range_meters":11200,"station_id":"ce4bgkh2rcd13ifvqbk0","pricing_plan_id":"cebpf4jnsgd1na2vs0mg"},{"bike_id":"814a0711-385d-44f7-a692-d81527f73fe8","system_id":"levelo_inurba_marseille","lat":43.302992,"lon":5.392136,"is_reserved":false,"is_disabled":false,"rental_uris":{"android":"levelo://app?vid=814a0711-385d-44f7-a692-d81527f73fe8","ios":"levelo://app?vid=814a0711-385d-44f7-a692-d81527f73fe8"},"vehicle_type_id":"4","last_reported":1708031167,"current_range_meters":28000,"station_id":"ce4bgkh2rcd13ifvqbk0","pricing_plan_id":"cebpf4jnsgd1na2vs0mg"},{"bike_id":"b465271c-1d0e-461b-b83e-21b519b08b73","system_id":"levelo_inurba_marseille","lat":43.309589,"lon":5.390258,"is_reserved":false,"is_disabled":false,"rental_uris":{"android":"levelo://app?vid=b465271c-1d0e-461b-b83e-21b519b08b73","ios":"levelo://app?vid=b465271c-1d0e-461b-b83e-21b519b08b73"},"vehicle_type_id":"4","last_reported":1708031167,"current_range_meters":9200,"station_id":"ce4bgup2rcd13ifvqco0","pricing_plan_id":"cebpf4jnsgd1na2vs0mg"},{"bike_id":"9f124bc7-ce32-4ef5-82c3-f022bc299b78","system_id":"levelo_inurba_marseille","lat":43.303002,"lon":5.392142,"is_reserved":false,"is_disabled":false,"rental_uris":{"android":"levelo://app?vid=9f124bc7-ce32-4ef5-82c3-f022bc299b78","ios":"levelo://app?vid=9f124bc7-ce32-4ef5-82c3-f022bc299b78"},"vehicle_type_id":"4","last_reported":1708031167,"current_range_meters":25600,"station_id":"ce4bgkh2rcd13ifvqbk0","pricing_plan_id":"cebpf4jnsgd1na2vs0mg"},{"bike_id":"60d5f52c-fa21-46ff-aa88-400003faf6dd","system_id":"levelo_inurba_marseille","lat":43.30085,"lon":5.390856,"is_reserved":false,"is_disabled":false,"rental_uris":{"android":"levelo://app?vid=60d5f52c-fa21-46ff-aa88-400003faf6dd","ios":"levelo://app?vid=60d5f52c-fa21-46ff-aa88-400003faf6dd"},"vehicle_type_id":"4","last_reported":1708031167,"current_range_meters":20800,"station_id":"ce4bh192rcd13ifvqdb0","pricing_plan_id":"cebpf4jnsgd1na2vs0mg"},{"bike_id":"e2e52467-2f48-476f-9e7f-c84b5976d602","system_id":"levelo_inurba_marseille","lat":43.300852,"lon":5.390859,"is_reserved":false,"is_disabled":false,"rental_uris":{"android":"levelo://app?vid=e2e52467-2f48-476f-9e7f-c84b5976d602","ios":"levelo://app?vid=e2e52467-2f48-476f-9e7f-c84b5976d602"},"vehicle_type_id":"4","last_reported":1708031167,"current_range_meters":27200,"station_id":"ce4bh192rcd13ifvqdb0","pricing_plan_id":"cebpf4jnsgd1na2vs0mg"},{"bike_id":"f0cdb7f7-8c78-4dd3-b158-7c98e67aee7b","system_id":"levelo_inurba_marseille","lat":43.300852,"lon":5.390859,"is_reserved":false,"is_disabled":false,"rental_uris":{"android":"levelo://app?vid=f0cdb7f7-8c78-4dd3-b158-7c98e67aee7b","ios":"levelo://app?vid=f0cdb7f7-8c78-4dd3-b158-7c98e67aee7b"},"vehicle_type_id":"4","last_reported":1708031167,"current_range_meters":2000,"station_id":"ce4bh192rcd13ifvqdb0","pricing_plan_id":"cebpf4jnsgd1na2vs0mg"},{"bike_id":"1cf62bcb-34d9-4c38-9870-ca22924b8df7","system_id":"levelo_inurba_marseille","lat":43.300881,"lon":5.390735,"is_reserved":false,"is_disabled":false,"rental_uris":{"android":"levelo://app?vid=1cf62bcb-34d9-4c38-9870-ca22924b8df7","ios":"levelo://app?vid=1cf62bcb-34d9-4c38-9870-ca22924b8df7"},"vehicle_type_id":"4","last_reported":1708031167,"current_range_meters":11600,"station_id":"","pricing_plan_id":"cebpf4jnsgd1na2vs0mg"},{"bike_id":"ea2dcd2b-03e8-44d3-a2d4-1cbc0417fb38","system_id":"levelo_inurba_marseille","lat":43.299105,"lon":5.389005,"is_reserved":false,"is_disabled":false,"rental_uris":{"android":"levelo://app?vid=ea2dcd2b-03e8-44d3-a2d4-1cbc0417fb38","ios":"levelo://app?vid=ea2dcd2b-03e8-44d3-a2d4-1cbc0417fb38"},"vehicle_type_id":"4","last_reported":1708031167,"current_range_meters":9200,"station_id":"","pricing_plan_id":"cebpf4jnsgd1na2vs0mg"},{"bike_id":"236576a4-dad6-4c50-b8da-14e56bdbc875","system_id":"levelo_inurba_marseille","lat":43.30085,"lon":5.390856,"is_reserved":false,"is_disabled":false,"rental_uris":{"android":"levelo://app?vid=236576a4-dad6-4c50-b8da-14e56bdbc875","ios":"levelo://app?vid=236576a4-dad6-4c50-b8da-14e56bdbc875"},"vehicle_type_id":"4","last_reported":1708031167,"current_range_meters":16400,"station_id":"ce4bh192rcd13ifvqdb0","pricing_plan_id":"cebpf4jnsgd1na2vs0mg"},{"bike_id":"324c65f0-a136-47cc-b723-d44356312e60","system_id":"levelo_inurba_marseille","lat":43.298764,"lon":5.388973,"is_reserved":false,"is_disabled":false,"rental_uris":{"android":"levelo://app?vid=324c65f0-a136-47cc-b723-d44356312e60","ios":"levelo://app?vid=324c65f0-a136-47cc-b723-d44356312e60"},"vehicle_type_id":"4","last_reported":1708031167,"current_range_meters":11200,"station_id":"ce4bh392rcd13ifvqdl0","pricing_plan_id":"cebpf4jnsgd1na2vs0mg"},{"bike_id":"dd034eef-5166-492c-8eab-7791dc328442","system_id":"levelo_inurba_marseille","lat":43.291675,"lon":5.371583,"is_reserved":false,"is_disabled":false,"rental_uris":{"android":"levelo://app?vid=dd034eef-5166-492c-8eab-7791dc328442","ios":"levelo://app?vid=dd034eef-5166-492c-8eab-7791dc328442"},"vehicle_type_id":"4","last_reported":1708031167,"current_range_meters":5200,"station_id":"ce4bha92rcd13ifvqeh0","pricing_plan_id":"cebpf4jnsgd1na2vs0mg"},{"bike_id":"6af65c66-3bc2-4954-ae22-e5a752fa6490","system_id":"levelo_inurba_marseille","lat":43.298764,"lon":5.388973,"is_reserved":false,"is_disabled":false,"rental_uris":{"android":"levelo://app?vid=6af65c66-3bc2-4954-ae22-e5a752fa6490","ios":"levelo://app?vid=6af65c66-3bc2-4954-ae22-e5a752fa6490"},"vehicle_type_id":"4","last_reported":1708031167,"current_range_meters":16000,"station_id":"ce4bh392rcd13ifvqdl0","pricing_plan_id":"cebpf4jnsgd1na2vs0mg"},{"bike_id":"c46f81d0-c5af-43aa-a51c-b36abf4ffeb3","system_id":"levelo_inurba_marseille","lat":43.291675,"lon":5.371583,"is_reserved":false,"is_disabled":false,"rental_uris":{"android":"levelo://app?vid=c46f81d0-c5af-43aa-a51c-b36abf4ffeb3","ios":"levelo://app?vid=c46f81d0-c5af-43aa-a51c-b36abf4ffeb3"},"vehicle_type_id":"4","last_reported":1708031167,"current_range_meters":24800,"station_id":"ce4bha92rcd13ifvqeh0","pricing_plan_id":"cebpf4jnsgd1na2vs0mg"},{"bike_id":"f618a93e-2e65-4cb3-ad02-29aac37bbe03","system_id":"levelo_inurba_marseille","lat":43.298764,"lon":5.388973,"is_reserved":false,"is_disabled":false,"rental_uris":{"android":"levelo://app?vid=f618a93e-2e65-4cb3-ad02-29aac37bbe03","ios":"levelo://app?vid=f618a93e-2e65-4cb3-ad02-29aac37bbe03"},"vehicle_type_id":"4","last_reported":1708031167,"current_range_meters":25200,"station_id":"ce4bh392rcd13ifvqdl0","pricing_plan_id":"cebpf4jnsgd1na2vs0mg"},{"bike_id":"7d06ee52-1822-429f-8ba7-0c52b7a1525d","system_id":"levelo_inurba_marseille","lat":43.309038,"lon":5.396546,"is_reserved":false,"is_disabled":false,"rental_uris":{"android":"levelo://app?vid=7d06ee52-1822-429f-8ba7-0c52b7a1525d","ios":"levelo://app?vid=7d06ee52-1822-429f-8ba7-0c52b7a1525d"},"vehicle_type_id":"4","last_reported":1708031167,"current_range_meters":31200,"station_id":"ce4bh012rcd13ifvqcv0","pricing_plan_id":"cebpf4jnsgd1na2vs0mg"},{"bike_id":"f4423796-ae47-4166-883b-f60cf33c6836","system_id":"levelo_inurba_marseille","lat":43.29193,"lon":5.35808,"is_reserved":false,"is_disabled":false,"rental_uris":{"android":"levelo://app?vid=f4423796-ae47-4166-883b-f60cf33c6836","ios":"levelo://app?vid=f4423796-ae47-4166-883b-f60cf33c6836"},"vehicle_type_id":"4","last_reported":1708031167,"current_range_meters":6000,"station_id":"ce4bhb12rcd13ifvqel0","pricing_plan_id":"cebpf4jnsgd1na2vs0mg"},{"bike_id":"335315e2-db4c-40db-858f-d69afeaf1210","system_id":"levelo_inurba_marseille","lat":43.313291,"lon":5.396838,"is_reserved":false,"is_disabled":false,"rental_uris":{"android":"levelo://app?vid=335315e2-db4c-40db-858f-d69afeaf1210","ios":"levelo://app?vid=335315e2-db4c-40db-858f-d69afeaf1210"},"vehicle_type_id":"4","last_reported":1708031167,"current_range_meters":17200,"station_id":"ce4bgvp2rcd13ifvqcu0","pricing_plan_id":"cebpf4jnsgd1na2vs0mg"},{"bike_id":"843b637f-e1f4-4300-8028-63a66c17e13a","system_id":"levelo_inurba_marseille","lat":43.313291,"lon":5.396838,"is_reserved":false,"is_disabled":false,"rental_uris":{"android":"levelo://app?vid=843b637f-e1f4-4300-8028-63a66c17e13a","ios":"levelo://app?vid=843b637f-e1f4-4300-8028-63a66c17e13a"},"vehicle_type_id":"4","last_reported":1708031167,"current_range_meters":27200,"station_id":"ce4bgvp2rcd13ifvqcu0","pricing_plan_id":"cebpf4jnsgd1na2vs0mg"},{"bike_id":"ac5d0d15-675d-4752-9cc0-085be4de0d26","system_id":"levelo_inurba_marseille","lat":43.313291,"lon":5.396838,"is_reserved":false,"is_disabled":false,"rental_uris":{"android":"levelo://app?vid=ac5d0d15-675d-4752-9cc0-085be4de0d26","ios":"levelo://app?vid=ac5d0d15-675d-4752-9cc0-085be4de0d26"},"vehicle_type_id":"4","last_reported":1708031167,"current_range_meters":0,"station_id":"ce4bgvp2rcd13ifvqcu0","pricing_plan_id":"cebpf4jnsgd1na2vs0mg"},{"bike_id":"2824e9e2-51de-4b11-a0f5-4c8be6cd090b","system_id":"levelo_inurba_marseille","lat":43.309047,"lon":5.396551,"is_reserved":false,"is_disabled":false,"rental_uris":{"android":"levelo://app?vid=2824e9e2-51de-4b11-a0f5-4c8be6cd090b","ios":"levelo://app?vid=2824e9e2-51de-4b11-a0f5-4c8be6cd090b"},"vehicle_type_id":"4","last_reported":1708031167,"current_range_meters":14800,"station_id":"ce4bh012rcd13ifvqcv0","pricing_plan_id":"cebpf4jnsgd1na2vs0mg"},{"bike_id":"fbf2a8c9-1fd4-4431-b1fb-c70ebec01e64","system_id":"levelo_inurba_marseille","lat":43.313291,"lon":5.396838,"is_reserved":false,"is_disabled":false,"rental_uris":{"android":"levelo://app?vid=fbf2a8c9-1fd4-4431-b1fb-c70ebec01e64","ios":"levelo://app?vid=fbf2a8c9-1fd4-4431-b1fb-c70ebec01e64"},"vehicle_type_id":"4","last_reported":1708031167,"current_range_meters":28400,"station_id":"ce4bgvp2rcd13ifvqcu0","pricing_plan_id":"cebpf4jnsgd1na2vs0mg"},{"bike_id":"ca31d44c-4daf-4dd8-b752-9988b012f9eb","system_id":"levelo_inurba_marseille","lat":43.29542,"lon":5.38542,"is_reserved":false,"is_disabled":false,"rental_uris":{"android":"levelo://app?vid=ca31d44c-4daf-4dd8-b752-9988b012f9eb","ios":"levelo://app?vid=ca31d44c-4daf-4dd8-b752-9988b012f9eb"},"vehicle_type_id":"4","last_reported":1708031167,"current_range_meters":1200,"station_id":"ce4bgih2rcd13ifvqba0","pricing_plan_id":"cebpf4jnsgd1na2vs0mg"},{"bike_id":"cae49dba-fd69-4b74-97e9-f44ae00e5146","system_id":"levelo_inurba_marseille","lat":43.309038,"lon":5.396546,"is_reserved":false,"is_disabled":false,"rental_uris":{"android":"levelo://app?vid=cae49dba-fd69-4b74-97e9-f44ae00e5146","ios":"levelo://app?vid=cae49dba-fd69-4b74-97e9-f44ae00e5146"},"vehicle_type_id":"4","last_reported":1708031167,"current_range_meters":28000,"station_id":"ce4bh012rcd13ifvqcv0","pricing_plan_id":"cebpf4jnsgd1na2vs0mg"},{"bike_id":"ed210a90-18f9-4b5d-96e7-595466f60c77","system_id":"levelo_inurba_marseille","lat":43.29536,"lon":5.38537,"is_reserved":false,"is_disabled":false,"rental_uris":{"android":"levelo://app?vid=ed210a90-18f9-4b5d-96e7-595466f60c77","ios":"levelo://app?vid=ed210a90-18f9-4b5d-96e7-595466f60c77"},"vehicle_type_id":"4","last_reported":1708031167,"current_range_meters":6400,"station_id":"ce4bgih2rcd13ifvqba0","pricing_plan_id":"cebpf4jnsgd1na2vs0mg"},{"bike_id":"93c6d843-76dd-4947-987d-24a1d11a498e","system_id":"levelo_inurba_marseille","lat":43.29537,"lon":5.3854,"is_reserved":false,"is_disabled":false,"rental_uris":{"android":"levelo://app?vid=93c6d843-76dd-4947-987d-24a1d11a498e","ios":"levelo://app?vid=93c6d843-76dd-4947-987d-24a1d11a498e"},"vehicle_type_id":"4","last_reported":1708031167,"current_range_meters":4400,"station_id":"ce4bgih2rcd13ifvqba0","pricing_plan_id":"cebpf4jnsgd1na2vs0mg"},{"bike_id":"c771ee5a-8747-4ba0-a44e-d88dbad9241b","system_id":"levelo_inurba_marseille","lat":43.29535,"lon":5.38537,"is_reserved":false,"is_disabled":false,"rental_uris":{"android":"levelo://app?vid=c771ee5a-8747-4ba0-a44e-d88dbad9241b","ios":"levelo://app?vid=c771ee5a-8747-4ba0-a44e-d88dbad9241b"},"vehicle_type_id":"4","last_reported":1708031167,"current_range_meters":400,"station_id":"ce4bgih2rcd13ifvqba0","pricing_plan_id":"cebpf4jnsgd1na2vs0mg"},{"bike_id":"677d8713-0085-4a5a-9e57-998b59bfc774","system_id":"levelo_inurba_marseille","lat":43.29535,"lon":5.38537,"is_reserved":false,"is_disabled":false,"rental_uris":{"android":"levelo://app?vid=677d8713-0085-4a5a-9e57-998b59bfc774","ios":"levelo://app?vid=677d8713-0085-4a5a-9e57-998b59bfc774"},"vehicle_type_id":"4","last_reported":1708031167,"current_range_meters":18000,"station_id":"ce4bgih2rcd13ifvqba0","pricing_plan_id":"cebpf4jnsgd1na2vs0mg"},{"bike_id":"60807d67-75a5-42ca-9517-8da0975a4a1f","system_id":"levelo_inurba_marseille","lat":43.29538,"lon":5.38547,"is_reserved":false,"is_disabled":false,"rental_uris":{"android":"levelo://app?vid=60807d67-75a5-42ca-9517-8da0975a4a1f","ios":"levelo://app?vid=60807d67-75a5-42ca-9517-8da0975a4a1f"},"vehicle_type_id":"4","last_reported":1708031167,"current_range_meters":7200,"station_id":"ce4bgih2rcd13ifvqba0","pricing_plan_id":"cebpf4jnsgd1na2vs0mg"},{"bike_id":"8e33a45f-0aa7-436d-bbc8-697f4ddec737","system_id":"levelo_inurba_marseille","lat":43.295335,"lon":5.385394,"is_reserved":false,"is_disabled":false,"rental_uris":{"android":"levelo://app?vid=8e33a45f-0aa7-436d-bbc8-697f4ddec737","ios":"levelo://app?vid=8e33a45f-0aa7-436d-bbc8-697f4ddec737"},"vehicle_type_id":"4","last_reported":1708031167,"current_range_meters":31200,"station_id":"ce4bgih2rcd13ifvqba0","pricing_plan_id":"cebpf4jnsgd1na2vs0mg"},{"bike_id":"e3c71cf5-200b-4007-a505-65405d820071","system_id":"levelo_inurba_marseille","lat":43.29528,"lon":5.38536,"is_reserved":false,"is_disabled":false,"rental_uris":{"android":"levelo://app?vid=e3c71cf5-200b-4007-a505-65405d820071","ios":"levelo://app?vid=e3c71cf5-200b-4007-a505-65405d820071"},"vehicle_type_id":"4","last_reported":1708031167,"current_range_meters":14000,"station_id":"ce4bgih2rcd13ifvqba0","pricing_plan_id":"cebpf4jnsgd1na2vs0mg"},{"bike_id":"de9f4a88-22e1-48e2-924b-99d421629ce3","system_id":"levelo_inurba_marseille","lat":43.295336,"lon":5.385473,"is_reserved":false,"is_disabled":false,"rental_uris":{"android":"levelo://app?vid=de9f4a88-22e1-48e2-924b-99d421629ce3","ios":"levelo://app?vid=de9f4a88-22e1-48e2-924b-99d421629ce3"},"vehicle_type_id":"4","last_reported":1708031167,"current_range_meters":8800,"station_id":"ce4bgih2rcd13ifvqba0","pricing_plan_id":"cebpf4jnsgd1na2vs0mg"},{"bike_id":"435c4cf5-bcd7-4edd-8d11-eff487bc33e9","system_id":"levelo_inurba_marseille","lat":43.295357,"lon":5.385519,"is_reserved":false,"is_disabled":false,"rental_uris":{"android":"levelo://app?vid=435c4cf5-bcd7-4edd-8d11-eff487bc33e9","ios":"levelo://app?vid=435c4cf5-bcd7-4edd-8d11-eff487bc33e9"},"vehicle_type_id":"4","last_reported":1708031167,"current_range_meters":24400,"station_id":"ce4bgih2rcd13ifvqba0","pricing_plan_id":"cebpf4jnsgd1na2vs0mg"},{"bike_id":"f0a00051-8995-4196-973d-16332b6a87c9","system_id":"levelo_inurba_marseille","lat":43.29526,"lon":5.38536,"is_reserved":false,"is_disabled":false,"rental_uris":{"android":"levelo://app?vid=f0a00051-8995-4196-973d-16332b6a87c9","ios":"levelo://app?vid=f0a00051-8995-4196-973d-16332b6a87c9"},"vehicle_type_id":"4","last_reported":1708031167,"current_range_meters":29200,"station_id":"ce4bgih2rcd13ifvqba0","pricing_plan_id":"cebpf4jnsgd1na2vs0mg"},{"bike_id":"66496cae-d09e-46a1-a1f9-4adefadd18cc","system_id":"levelo_inurba_marseille","lat":43.29532,"lon":5.38549,"is_reserved":false,"is_disabled":false,"rental_uris":{"android":"levelo://app?vid=66496cae-d09e-46a1-a1f9-4adefadd18cc","ios":"levelo://app?vid=66496cae-d09e-46a1-a1f9-4adefadd18cc"},"vehicle_type_id":"4","last_reported":1708031167,"current_range_meters":4000,"station_id":"ce4bgih2rcd13ifvqba0","pricing_plan_id":"cebpf4jnsgd1na2vs0mg"},{"bike_id":"8cbd1f9f-3327-4ac5-8b6b-c4cfabe37cac","system_id":"levelo_inurba_marseille","lat":43.295307,"lon":5.385478,"is_reserved":false,"is_disabled":false,"rental_uris":{"android":"levelo://app?vid=8cbd1f9f-3327-4ac5-8b6b-c4cfabe37cac","ios":"levelo://app?vid=8cbd1f9f-3327-4ac5-8b6b-c4cfabe37cac"},"vehicle_type_id":"4","last_reported":1708031167,"current_range_meters":7200,"station_id":"","pricing_plan_id":"cebpf4jnsgd1na2vs0mg"},{"bike_id":"34c41ddc-d38c-4089-8b84-84966e7ab0c9","system_id":"levelo_inurba_marseille","lat":43.29526,"lon":5.3854,"is_reserved":false,"is_disabled":false,"rental_uris":{"android":"levelo://app?vid=34c41ddc-d38c-4089-8b84-84966e7ab0c9","ios":"levelo://app?vid=34c41ddc-d38c-4089-8b84-84966e7ab0c9"},"vehicle_type_id":"4","last_reported":1708031167,"current_range_meters":11600,"station_id":"ce4bgih2rcd13ifvqba0","pricing_plan_id":"cebpf4jnsgd1na2vs0mg"},{"bike_id":"ccaed8d5-971f-49f1-a749-e92527e39fb7","system_id":"levelo_inurba_marseille","lat":43.290779,"lon":5.371482,"is_reserved":false,"is_disabled":false,"rental_uris":{"android":"levelo://app?vid=ccaed8d5-971f-49f1-a749-e92527e39fb7","ios":"levelo://app?vid=ccaed8d5-971f-49f1-a749-e92527e39fb7"},"vehicle_type_id":"4","last_reported":1708031167,"current_range_meters":14000,"station_id":"ce4bh5p2rcd13ifvqe4g","pricing_plan_id":"cebpf4jnsgd1na2vs0mg"},{"bike_id":"ef42cba2-84df-4eba-a2fe-eae7c554607d","system_id":"levelo_inurba_marseille","lat":43.301817,"lon":5.393712,"is_reserved":false,"is_disabled":false,"rental_uris":{"android":"levelo://app?vid=ef42cba2-84df-4eba-a2fe-eae7c554607d","ios":"levelo://app?vid=ef42cba2-84df-4eba-a2fe-eae7c554607d"},"vehicle_type_id":"4","last_reported":1708031167,"current_range_meters":13200,"station_id":"","pricing_plan_id":"cebpf4jnsgd1na2vs0mg"},{"bike_id":"84994e6a-3cac-4c07-b013-829e8462567c","system_id":"levelo_inurba_marseille","lat":43.29063,"lon":5.37153,"is_reserved":false,"is_disabled":false,"rental_uris":{"android":"levelo://app?vid=84994e6a-3cac-4c07-b013-829e8462567c","ios":"levelo://app?vid=84994e6a-3cac-4c07-b013-829e8462567c"},"vehicle_type_id":"4","last_reported":1708031167,"current_range_meters":0,"station_id":"ce4bh5p2rcd13ifvqe4g","pricing_plan_id":"cebpf4jnsgd1na2vs0mg"},{"bike_id":"c717c6c1-e6dc-4129-ac12-623e5039077b","system_id":"levelo_inurba_marseille","lat":43.290624,"lon":5.359245,"is_reserved":false,"is_disabled":false,"rental_uris":{"android":"levelo://app?vid=c717c6c1-e6dc-4129-ac12-623e5039077b","ios":"levelo://app?vid=c717c6c1-e6dc-4129-ac12-623e5039077b"},"vehicle_type_id":"4","last_reported":1708031167,"current_range_meters":4800,"station_id":"ce4bha92rcd13ifvqeg0","pricing_plan_id":"cebpf4jnsgd1na2vs0mg"},{"bike_id":"405485ba-f27c-4e89-a7cf-9c424ed179a7","system_id":"levelo_inurba_marseille","lat":43.290447,"lon":5.359167,"is_reserved":false,"is_disabled":false,"rental_uris":{"android":"levelo://app?vid=405485ba-f27c-4e89-a7cf-9c424ed179a7","ios":"levelo://app?vid=405485ba-f27c-4e89-a7cf-9c424ed179a7"},"vehicle_type_id":"4","last_reported":1708031167,"current_range_meters":20400,"station_id":"ce4bha92rcd13ifvqeg0","pricing_plan_id":"cebpf4jnsgd1na2vs0mg"},{"bike_id":"2943fd45-a6c6-47f3-b40a-d503ef768467","system_id":"levelo_inurba_marseille","lat":43.29046,"lon":5.37528,"is_reserved":false,"is_disabled":false,"rental_uris":{"android":"levelo://app?vid=2943fd45-a6c6-47f3-b40a-d503ef768467","ios":"levelo://app?vid=2943fd45-a6c6-47f3-b40a-d503ef768467"},"vehicle_type_id":"4","last_reported":1708031167,"current_range_meters":16800,"station_id":"ce4bh692rcd13ifvqe90","pricing_plan_id":"cebpf4jnsgd1na2vs0mg"},{"bike_id":"85fe2657-06b9-4053-b6f6-f420f6de1456","system_id":"levelo_inurba_marseille","lat":43.290328,"lon":5.35913,"is_reserved":false,"is_disabled":false,"rental_uris":{"android":"levelo://app?vid=85fe2657-06b9-4053-b6f6-f420f6de1456","ios":"levelo://app?vid=85fe2657-06b9-4053-b6f6-f420f6de1456"},"vehicle_type_id":"4","last_reported":1708031167,"current_range_meters":5200,"station_id":"ce4bha92rcd13ifvqeg0","pricing_plan_id":"cebpf4jnsgd1na2vs0mg"},{"bike_id":"a2bede09-451a-4077-a82d-36a6f26b91cf","system_id":"levelo_inurba_marseille","lat":43.29439,"lon":5.38627,"is_reserved":false,"is_disabled":false,"rental_uris":{"android":"levelo://app?vid=a2bede09-451a-4077-a82d-36a6f26b91cf","ios":"levelo://app?vid=a2bede09-451a-4077-a82d-36a6f26b91cf"},"vehicle_type_id":"4","last_reported":1708031167,"current_range_meters":6800,"station_id":"ce4bh2h2rcd13ifvqdh0","pricing_plan_id":"cebpf4jnsgd1na2vs0mg"},{"bike_id":"995298fa-8556-45b0-bc58-147c4c941246","system_id":"levelo_inurba_marseille","lat":43.29423,"lon":5.38619,"is_reserved":false,"is_disabled":false,"rental_uris":{"android":"levelo://app?vid=995298fa-8556-45b0-bc58-147c4c941246","ios":"levelo://app?vid=995298fa-8556-45b0-bc58-147c4c941246"},"vehicle_type_id":"4","last_reported":1708031167,"current_range_meters":10800,"station_id":"ce4bh2h2rcd13ifvqdh0","pricing_plan_id":"cebpf4jnsgd1na2vs0mg"},{"bike_id":"256f3b7c-eee0-46c2-bf53-dc6940881f07","system_id":"levelo_inurba_marseille","lat":43.294153,"lon":5.386305,"is_reserved":false,"is_disabled":false,"rental_uris":{"android":"levelo://app?vid=256f3b7c-eee0-46c2-bf53-dc6940881f07","ios":"levelo://app?vid=256f3b7c-eee0-46c2-bf53-dc6940881f07"},"vehicle_type_id":"4","last_reported":1708031167,"current_range_meters":26400,"station_id":"ce4bh2h2rcd13ifvqdh0","pricing_plan_id":"cebpf4jnsgd1na2vs0mg"},{"bike_id":"b160946b-040a-4ec1-9e24-833e80cd3383","system_id":"levelo_inurba_marseille","lat":43.29427,"lon":5.38629,"is_reserved":false,"is_disabled":false,"rental_uris":{"android":"levelo://app?vid=b160946b-040a-4ec1-9e24-833e80cd3383","ios":"levelo://app?vid=b160946b-040a-4ec1-9e24-833e80cd3383"},"vehicle_type_id":"4","last_reported":1708031167,"current_range_meters":13200,"station_id":"ce4bh2h2rcd13ifvqdh0","pricing_plan_id":"cebpf4jnsgd1na2vs0mg"},{"bike_id":"e3903237-33df-4479-9a85-cb0bf06fd9cf","system_id":"levelo_inurba_marseille","lat":43.294224,"lon":5.386244,"is_reserved":false,"is_disabled":false,"rental_uris":{"android":"levelo://app?vid=e3903237-33df-4479-9a85-cb0bf06fd9cf","ios":"levelo://app?vid=e3903237-33df-4479-9a85-cb0bf06fd9cf"},"vehicle_type_id":"4","last_reported":1708031167,"current_range_meters":18000,"station_id":"ce4bh2h2rcd13ifvqdh0","pricing_plan_id":"cebpf4jnsgd1na2vs0mg"},{"bike_id":"40b4bd4c-4d5a-469f-acb8-baa77e243765","system_id":"levelo_inurba_marseille","lat":43.290319,"lon":5.375732,"is_reserved":false,"is_disabled":false,"rental_uris":{"android":"levelo://app?vid=40b4bd4c-4d5a-469f-acb8-baa77e243765","ios":"levelo://app?vid=40b4bd4c-4d5a-469f-acb8-baa77e243765"},"vehicle_type_id":"4","last_reported":1708031167,"current_range_meters":18800,"station_id":"ce4bh692rcd13ifvqe90","pricing_plan_id":"cebpf4jnsgd1na2vs0mg"},{"bike_id":"71a876a6-6644-4679-a35d-cdc9782f8cf7","system_id":"levelo_inurba_marseille","lat":43.294208,"lon":5.386265,"is_reserved":false,"is_disabled":false,"rental_uris":{"android":"levelo://app?vid=71a876a6-6644-4679-a35d-cdc9782f8cf7","ios":"levelo://app?vid=71a876a6-6644-4679-a35d-cdc9782f8cf7"},"vehicle_type_id":"4","last_reported":1708031167,"current_range_meters":24400,"station_id":"ce4bh2h2rcd13ifvqdh0","pricing_plan_id":"cebpf4jnsgd1na2vs0mg"},{"bike_id":"18ea103b-9780-4e5f-95f2-b909c2a79816","system_id":"levelo_inurba_marseille","lat":43.29419,"lon":5.38624,"is_reserved":false,"is_disabled":false,"rental_uris":{"android":"levelo://app?vid=18ea103b-9780-4e5f-95f2-b909c2a79816","ios":"levelo://app?vid=18ea103b-9780-4e5f-95f2-b909c2a79816"},