{"last_updated":1699815873,"ttl":30,"version":"2.2","data":{"bikes":[{"bike_id":"41a86e6c-6456-4c94-930e-35094217b07c","system_id":"levelo_inurba_marseille","lat":43.31341,"lon":5.367098,"is_reserved":false,"is_disabled":false,"rental_uris":{"android":"levelo://app?vid=41a86e6c-6456-4c94-930e-35094217b07c","ios":"levelo://app?vid=41a86e6c-6456-4c94-930e-35094217b07c"},"vehicle_type_id":"4","last_reported":1699815873,"current_range_meters":800,"station_id":"ce4bgr92rcd13ifvqc6g","pricing_plan_id":"free"},{"bike_id":"d33306e6-d3ab-4eea-a0b7-5b57c36815ec","system_id":"levelo_inurba_marseille","lat":43.31341,"lon":5.367098,"is_reserved":false,"is_disabled":false,"rental_uris":{"android":"levelo://app?vid=d33306e6-d3ab-4eea-a0b7-5b57c36815ec","ios":"levelo://app?vid=d33306e6-d3ab-4eea-a0b7-5b57c36815ec"},"vehicle_type_id":"4","last_reported":1699815873,"current_range_meters":16000,"station_id":"ce4bgr92rcd13ifvqc6g","pricing_plan_id":"free"},{"bike_id":"665935bf-33ba-491b-a7dc-07be1c797f96","system_id":"levelo_inurba_marseille","lat":43.31223,"lon":5.36857,"is_reserved":false,"is_disabled":false,"rental_uris":{"android":"levelo://app?vid=665935bf-33ba-491b-a7dc-07be1c797f96","ios":"levelo://app?vid=665935bf-33ba-491b-a7dc-07be1c797f96"},"vehicle_type_id":"4","last_reported":1699815873,"current_range_meters":4800,"station_id":"ce4bgl92rcd13ifvqbq0","pricing_plan_id":"free"},{"bike_id":"99e86685-13e6-4242-abb5-481ed0c1aed5","system_id":"levelo_inurba_marseille","lat":43.30894,"lon":5.37193,"is_reserved":false,"is_disabled":false,"rental_uris":{"android":"levelo://app?vid=99e86685-13e6-4242-abb5-481ed0c1aed5","ios":"levelo://app?vid=99e86685-13e6-4242-abb5-481ed0c1aed5"},"vehicle_type_id":"4","last_reported":1699815873,"current_range_meters":26000,"station_id":"ce4bguh2rcd13ifvqckg","pricing_plan_id":"free"},{"bike_id":"76b359af-c20b-45d0-a1df-78f4c9a6553a","system_id":"levelo_inurba_marseille","lat":43.30537,"lon":5.36537,"is_reserved":false,"is_disabled":false,"rental_uris":{"android":"levelo://app?vid=76b359af-c20b-45d0-a1df-78f4c9a6553a","ios":"levelo://app?vid=76b359af-c20b-45d0-a1df-78f4c9a6553a"},"vehicle_type_id":"4","last_reported":1699815873,"current_range_meters":13600,"station_id":"ce4bgs12rcd13ifvqcag","pricing_plan_id":"free"},{"bike_id":"0007e55b-45c0-4106-908f-d3fbf906c404","system_id":"levelo_inurba_marseille","lat":43.311131,"lon":5.377651,"is_reserved":false,"is_disabled":false,"rental_uris":{"android":"levelo://app?vid=0007e55b-45c0-4106-908f-d3fbf906c404","ios":"levelo://app?vid=0007e55b-45c0-4106-908f-d3fbf906c404"},"vehicle_type_id":"4","last_reported":1699815873,"current_range_meters":0,"station_id":"ce4bgt92rcd13ifvqcg0","pricing_plan_id":"free"},{"bike_id":"8f1f63cd-3c41-4233-8313-644a2602cc1e","system_id":"levelo_inurba_marseille","lat":43.311131,"lon":5.377651,"is_reserved":false,"is_disabled":false,"rental_uris":{"android":"levelo://app?vid=8f1f63cd-3c41-4233-8313-644a2602cc1e","ios":"levelo://app?vid=8f1f63cd-3c41-4233-8313-644a2602cc1e"},"vehicle_type_id":"4","last_reported":1699815873,"current_range_meters":21600,"station_id":"ce4bgt92rcd13ifvqcg0","pricing_plan_id":"free"},{"bike_id":"d4232a01-b9be-4de3-a697-e02086aae915","system_id":"levelo_inurba_marseille","lat":43.307945,"lon":5.376487,"is_reserved":false,"is_disabled":false,"rental_uris":{"android":"levelo://app?vid=d4232a01-b9be-4de3-a697-e02086aae915","ios":"levelo://app?vid=d4232a01-b9be-4de3-a697-e02086aae915"},"vehicle_type_id":"4","last_reported":1699815873,"current_range_meters":30800,"station_id":"ce4bgv92rcd13ifvqcq0","pricing_plan_id":"free"},{"bike_id":"57053367-5328-4d78-8951-737f56b37ed9","system_id":"levelo_inurba_marseille","lat":43.319924,"lon":5.373389,"is_reserved":false,"is_disabled":false,"rental_uris":{"android":"levelo://app?vid=57053367-5328-4d78-8951-737f56b37ed9","ios":"levelo://app?vid=57053367-5328-4d78-8951-737f56b37ed9"},"vehicle_type_id":"4","last_reported":1699815873,"current_range_meters":14000,"station_id":"","pricing_plan_id":"free"},{"bike_id":"93a0fc5f-5944-409a-b908-0e37751a3fb9","system_id":"levelo_inurba_marseille","lat":43.317075,"lon":5.377367,"is_reserved":false,"is_disabled":false,"rental_uris":{"android":"levelo://app?vid=93a0fc5f-5944-409a-b908-0e37751a3fb9","ios":"levelo://app?vid=93a0fc5f-5944-409a-b908-0e37751a3fb9"},"vehicle_type_id":"4","last_reported":1699815873,"current_range_meters":4400,"station_id":"ce4bgth2rcd13ifvqch0","pricing_plan_id":"free"},{"bike_id":"3569e4a6-5bd1-4542-9936-6599a38ea729","system_id":"levelo_inurba_marseille","lat":43.317075,"lon":5.377367,"is_reserved":false,"is_disabled":false,"rental_uris":{"android":"levelo://app?vid=3569e4a6-5bd1-4542-9936-6599a38ea729","ios":"levelo://app?vid=3569e4a6-5bd1-4542-9936-6599a38ea729"},"vehicle_type_id":"4","last_reported":1699815873,"current_range_meters":28800,"station_id":"ce4bgth2rcd13ifvqch0","pricing_plan_id":"free"},{"bike_id":"06415c46-5508-41e1-8eb5-83ae04a4ce74","system_id":"levelo_inurba_marseille","lat":43.30185,"lon":5.36628,"is_reserved":false,"is_disabled":false,"rental_uris":{"android":"levelo://app?vid=06415c46-5508-41e1-8eb5-83ae04a4ce74","ios":"levelo://app?vid=06415c46-5508-41e1-8eb5-83ae04a4ce74"},"vehicle_type_id":"4","last_reported":1699815873,"current_range_meters":6000,"station_id":"ce4bgrh2rcd13ifvqc8g","pricing_plan_id":"free"},{"bike_id":"a26a672c-8f86-40f5-9e8e-9856cf399a24","system_id":"levelo_inurba_marseille","lat":43.308013,"lon":5.381483,"is_reserved":false,"is_disabled":false,"rental_uris":{"android":"levelo://app?vid=a26a672c-8f86-40f5-9e8e-9856cf399a24","ios":"levelo://app?vid=a26a672c-8f86-40f5-9e8e-9856cf399a24"},"vehicle_type_id":"4","last_reported":1699815873,"current_range_meters":21600,"station_id":"ce4bgt12rcd13ifvqce0","pricing_plan_id":"free"},{"bike_id":"9cb6a064-0f0a-4356-8212-800f7aada15d","system_id":"levelo_inurba_marseille","lat":43.304606,"lon":5.379026,"is_reserved":false,"is_disabled":false,"rental_uris":{"android":"levelo://app?vid=9cb6a064-0f0a-4356-8212-800f7aada15d","ios":"levelo://app?vid=9cb6a064-0f0a-4356-8212-800f7aada15d"},"vehicle_type_id":"4","last_reported":1699815873,"current_range_meters":0,"station_id":"ce4bgup2rcd13ifvqcn0","pricing_plan_id":"free"},{"bike_id":"3fb4984a-6013-4ebb-8773-c308071699ec","system_id":"levelo_inurba_marseille","lat":43.32474,"lon":5.36559,"is_reserved":false,"is_disabled":false,"rental_uris":{"android":"levelo://app?vid=3fb4984a-6013-4ebb-8773-c308071699ec","ios":"levelo://app?vid=3fb4984a-6013-4ebb-8773-c308071699ec"},"vehicle_type_id":"4","last_reported":1699815873,"current_range_meters":20400,"station_id":"ce4bhs12rcd13ifvqhvg","pricing_plan_id":"free"},{"bike_id":"3819deec-fe3d-41c7-8346-2b107cb07054","system_id":"levelo_inurba_marseille","lat":43.315237,"lon":5.383797,"is_reserved":false,"is_disabled":false,"rental_uris":{"android":"levelo://app?vid=3819deec-fe3d-41c7-8346-2b107cb07054","ios":"levelo://app?vid=3819deec-fe3d-41c7-8346-2b107cb07054"},"vehicle_type_id":"4","last_reported":1699815873,"current_range_meters":0,"station_id":"","pricing_plan_id":"free"},{"bike_id":"69166d53-ec8e-4a0a-864c-7a29f7650dd8","system_id":"levelo_inurba_marseille","lat":43.321098,"lon":5.380103,"is_reserved":false,"is_disabled":false,"rental_uris":{"android":"levelo://app?vid=69166d53-ec8e-4a0a-864c-7a29f7650dd8","ios":"levelo://app?vid=69166d53-ec8e-4a0a-864c-7a29f7650dd8"},"vehicle_type_id":"4","last_reported":1699815873,"current_range_meters":13200,"station_id":"","pricing_plan_id":"free"},{"bike_id":"13d78257-2559-4a10-97b8-aaa7032179bc","system_id":"levelo_inurba_marseille","lat":43.319975,"lon":5.381519,"is_reserved":false,"is_disabled":false,"rental_uris":{"android":"levelo://app?vid=13d78257-2559-4a10-97b8-aaa7032179bc","ios":"levelo://app?vid=13d78257-2559-4a10-97b8-aaa7032179bc"},"vehicle_type_id":"4","last_reported":1699815873,"current_range_meters":0,"station_id":"","pricing_plan_id":"free"},{"bike_id":"3ebc842a-cb95-4cc1-b823-82514d1705d9","system_id":"levelo_inurba_marseille","lat":43.319935,"lon":5.381699,"is_reserved":false,"is_disabled":false,"rental_uris":{"android":"levelo://app?vid=3ebc842a-cb95-4cc1-b823-82514d1705d9","ios":"levelo://app?vid=3ebc842a-cb95-4cc1-b823-82514d1705d9"},"vehicle_type_id":"4","last_reported":1699815873,"current_range_meters":5200,"station_id":"ce4bhr12rcd13ifvqhpg","pricing_plan_id":"free"},{"bike_id":"cbc1afb7-f33e-480e-bd23-3a85578bc30d","system_id":"levelo_inurba_marseille","lat":43.319935,"lon":5.381699,"is_reserved":false,"is_disabled":false,"rental_uris":{"android":"levelo://app?vid=cbc1afb7-f33e-480e-bd23-3a85578bc30d","ios":"levelo://app?vid=cbc1afb7-f33e-480e-bd23-3a85578bc30d"},"vehicle_type_id":"4","last_reported":1699815873,"current_range_meters":17200,"station_id":"ce4bhr12rcd13ifvqhpg","pricing_plan_id":"free"},{"bike_id":"a38ad7eb-f3a5-4222-9c1e-04f49ae1337a","system_id":"levelo_inurba_marseille","lat":43.32001,"lon":5.38166,"is_reserved":false,"is_disabled":false,"rental_uris":{"android":"levelo://app?vid=a38ad7eb-f3a5-4222-9c1e-04f49ae1337a","ios":"levelo://app?vid=a38ad7eb-f3a5-4222-9c1e-04f49ae1337a"},"vehicle_type_id":"4","last_reported":1699815873,"current_range_meters":20400,"station_id":"ce4bhr12rcd13ifvqhpg","pricing_plan_id":"free"},{"bike_id":"6647a58a-acd9-43b7-b13a-de63f65e456a","system_id":"levelo_inurba_marseille","lat":43.313571,"lon":5.384829,"is_reserved":false,"is_disabled":false,"rental_uris":{"android":"levelo://app?vid=6647a58a-acd9-43b7-b13a-de63f65e456a","ios":"levelo://app?vid=6647a58a-acd9-43b7-b13a-de63f65e456a"},"vehicle_type_id":"4","last_reported":1699815873,"current_range_meters":4400,"station_id":"ce4bgt92rcd13ifvqcf0","pricing_plan_id":"free"},{"bike_id":"4a9109c2-6d96-495b-ac74-e427b38eec75","system_id":"levelo_inurba_marseille","lat":43.313571,"lon":5.384829,"is_reserved":false,"is_disabled":false,"rental_uris":{"android":"levelo://app?vid=4a9109c2-6d96-495b-ac74-e427b38eec75","ios":"levelo://app?vid=4a9109c2-6d96-495b-ac74-e427b38eec75"},"vehicle_type_id":"4","last_reported":1699815873,"current_range_meters":8400,"station_id":"ce4bgt92rcd13ifvqcf0","pricing_plan_id":"free"},{"bike_id":"69d544fb-b18b-456f-96c1-6d10244b41c0","system_id":"levelo_inurba_marseille","lat":43.299724,"lon":5.371829,"is_reserved":false,"is_disabled":false,"rental_uris":{"android":"levelo://app?vid=69d544fb-b18b-456f-96c1-6d10244b41c0","ios":"levelo://app?vid=69d544fb-b18b-456f-96c1-6d10244b41c0"},"vehicle_type_id":"4","last_reported":1699815873,"current_range_meters":6000,"station_id":"ce4bgr92rcd13ifvqc7g","pricing_plan_id":"free"},{"bike_id":"f1c6eeed-d546-48c3-a8ef-c4453a2b978c","system_id":"levelo_inurba_marseille","lat":43.299724,"lon":5.371829,"is_reserved":false,"is_disabled":false,"rental_uris":{"android":"levelo://app?vid=f1c6eeed-d546-48c3-a8ef-c4453a2b978c","ios":"levelo://app?vid=f1c6eeed-d546-48c3-a8ef-c4453a2b978c"},"vehicle_type_id":"4","last_reported":1699815873,"current_range_meters":18400,"station_id":"ce4bgr92rcd13ifvqc7g","pricing_plan_id":"free"},{"bike_id":"90a6cda6-ce5c-4e65-bd16-d0f2f495fa60","system_id":"levelo_inurba_marseille","lat":43.32652,"lon":5.36054,"is_reserved":false,"is_disabled":false,"rental_uris":{"android":"levelo://app?vid=90a6cda6-ce5c-4e65-bd16-d0f2f495fa60","ios":"levelo://app?vid=90a6cda6-ce5c-4e65-bd16-d0f2f495fa60"},"vehicle_type_id":"4","last_reported":1699815873,"current_range_meters":18000,"station_id":"","pricing_plan_id":"free"},{"bike_id":"53d3f7c6-61b5-4687-b899-0009dde1d985","system_id":"levelo_inurba_marseille","lat":43.32607,"lon":5.37509,"is_reserved":false,"is_disabled":false,"rental_uris":{"android":"levelo://app?vid=53d3f7c6-61b5-4687-b899-0009dde1d985","ios":"levelo://app?vid=53d3f7c6-61b5-4687-b899-0009dde1d985"},"vehicle_type_id":"4","last_reported":1699815873,"current_range_meters":5200,"station_id":"","pricing_plan_id":"free"},{"bike_id":"ad542d34-8c00-4ac8-9e2a-2d1511285ddf","system_id":"levelo_inurba_marseille","lat":43.305364,"lon":5.384119,"is_reserved":false,"is_disabled":false,"rental_uris":{"android":"levelo://app?vid=ad542d34-8c00-4ac8-9e2a-2d1511285ddf","ios":"levelo://app?vid=ad542d34-8c00-4ac8-9e2a-2d1511285ddf"},"vehicle_type_id":"4","last_reported":1699815873,"current_range_meters":10000,"station_id":"ce4bgg92rcd13ifvqb30","pricing_plan_id":"free"},{"bike_id":"8950f55a-e75d-4fac-9a7c-f529bc0580a5","system_id":"levelo_inurba_marseille","lat":43.320464,"lon":5.384144,"is_reserved":false,"is_disabled":false,"rental_uris":{"android":"levelo://app?vid=8950f55a-e75d-4fac-9a7c-f529bc0580a5","ios":"levelo://app?vid=8950f55a-e75d-4fac-9a7c-f529bc0580a5"},"vehicle_type_id":"4","last_reported":1699815873,"current_range_meters":8400,"station_id":"","pricing_plan_id":"free"},{"bike_id":"74856dc7-2a28-47f1-aee2-c130d267f007","system_id":"levelo_inurba_marseille","lat":43.31172,"lon":5.38711,"is_reserved":false,"is_disabled":false,"rental_uris":{"android":"levelo://app?vid=74856dc7-2a28-47f1-aee2-c130d267f007","ios":"levelo://app?vid=74856dc7-2a28-47f1-aee2-c130d267f007"},"vehicle_type_id":"4","last_reported":1699815873,"current_range_meters":2800,"station_id":"ce4bgv12rcd13ifvqcp0","pricing_plan_id":"free"},{"bike_id":"82b8407a-28bb-4910-a387-0bfa73b2100b","system_id":"levelo_inurba_marseille","lat":43.299243,"lon":5.37481,"is_reserved":false,"is_disabled":false,"rental_uris":{"android":"levelo://app?vid=82b8407a-28bb-4910-a387-0bfa73b2100b","ios":"levelo://app?vid=82b8407a-28bb-4910-a387-0bfa73b2100b"},"vehicle_type_id":"4","last_reported":1699815873,"current_range_meters":0,"station_id":"ce4bgjh2rcd13ifvqbg0","pricing_plan_id":"free"},{"bike_id":"5b7fd5f5-ba46-441e-91cc-add8e282d240","system_id":"levelo_inurba_marseille","lat":43.311722,"lon":5.387247,"is_reserved":false,"is_disabled":false,"rental_uris":{"android":"levelo://app?vid=5b7fd5f5-ba46-441e-91cc-add8e282d240","ios":"levelo://app?vid=5b7fd5f5-ba46-441e-91cc-add8e282d240"},"vehicle_type_id":"4","last_reported":1699815873,"current_range_meters":20000,"station_id":"ce4bgv12rcd13ifvqcp0","pricing_plan_id":"free"},{"bike_id":"29bee61f-c6ec-4eaa-b60b-1c4aa95301c2","system_id":"levelo_inurba_marseille","lat":43.297794,"lon":5.370888,"is_reserved":false,"is_disabled":false,"rental_uris":{"android":"levelo://app?vid=29bee61f-c6ec-4eaa-b60b-1c4aa95301c2","ios":"levelo://app?vid=29bee61f-c6ec-4eaa-b60b-1c4aa95301c2"},"vehicle_type_id":"4","last_reported":1699815873,"current_range_meters":25600,"station_id":"ce4bgop2rcd13ifvqc1g","pricing_plan_id":"free"},{"bike_id":"20893d12-13d7-4591-8f45-4e0312a96a46","system_id":"levelo_inurba_marseille","lat":43.297774,"lon":5.370875,"is_reserved":false,"is_disabled":false,"rental_uris":{"android":"levelo://app?vid=20893d12-13d7-4591-8f45-4e0312a96a46","ios":"levelo://app?vid=20893d12-13d7-4591-8f45-4e0312a96a46"},"vehicle_type_id":"4","last_reported":1699815873,"current_range_meters":1600,"station_id":"ce4bgop2rcd13ifvqc1g","pricing_plan_id":"free"},{"bike_id":"5cfecf85-b051-48fc-8193-6aa8002faa77","system_id":"levelo_inurba_marseille","lat":43.297794,"lon":5.370888,"is_reserved":false,"is_disabled":false,"rental_uris":{"android":"levelo://app?vid=5cfecf85-b051-48fc-8193-6aa8002faa77","ios":"levelo://app?vid=5cfecf85-b051-48fc-8193-6aa8002faa77"},"vehicle_type_id":"4","last_reported":1699815873,"current_range_meters":30800,"station_id":"ce4bgop2rcd13ifvqc1g","pricing_plan_id":"free"},{"bike_id":"ae335c2e-bf77-4e54-90f9-eb8725aa58bf","system_id":"levelo_inurba_marseille","lat":43.32824,"lon":5.36695,"is_reserved":false,"is_disabled":false,"rental_uris":{"android":"levelo://app?vid=ae335c2e-bf77-4e54-90f9-eb8725aa58bf","ios":"levelo://app?vid=ae335c2e-bf77-4e54-90f9-eb8725aa58bf"},"vehicle_type_id":"4","last_reported":1699815873,"current_range_meters":18400,"station_id":"ce4bhs92rcd13ifvqi0g","pricing_plan_id":"free"},{"bike_id":"8ea3526a-c988-40ce-bc15-be0b171d079a","system_id":"levelo_inurba_marseille","lat":43.32829,"lon":5.36683,"is_reserved":false,"is_disabled":false,"rental_uris":{"android":"levelo://app?vid=8ea3526a-c988-40ce-bc15-be0b171d079a","ios":"levelo://app?vid=8ea3526a-c988-40ce-bc15-be0b171d079a"},"vehicle_type_id":"4","last_reported":1699815873,"current_range_meters":1200,"station_id":"ce4bhs92rcd13ifvqi0g","pricing_plan_id":"free"},{"bike_id":"0cd876df-eda8-4c69-8f93-d68dc6eb1348","system_id":"levelo_inurba_marseille","lat":43.32833,"lon":5.36693,"is_reserved":false,"is_disabled":false,"rental_uris":{"android":"levelo://app?vid=0cd876df-eda8-4c69-8f93-d68dc6eb1348","ios":"levelo://app?vid=0cd876df-eda8-4c69-8f93-d68dc6eb1348"},"vehicle_type_id":"4","last_reported":1699815873,"current_range_meters":4800,"station_id":"ce4bhs92rcd13ifvqi0g","pricing_plan_id":"free"},{"bike_id":"0bcc107b-5afb-45ba-8703-7708a9cd9772","system_id":"levelo_inurba_marseille","lat":43.297163,"lon":5.365866,"is_reserved":false,"is_disabled":false,"rental_uris":{"android":"levelo://app?vid=0bcc107b-5afb-45ba-8703-7708a9cd9772","ios":"levelo://app?vid=0bcc107b-5afb-45ba-8703-7708a9cd9772"},"vehicle_type_id":"4","last_reported":1699815873,"current_range_meters":22000,"station_id":"ce4bgn12rcd13ifvqbt0","pricing_plan_id":"free"},{"bike_id":"07a2a0c2-91c2-409a-b33f-ba4067e29b58","system_id":"levelo_inurba_marseille","lat":43.297163,"lon":5.365866,"is_reserved":false,"is_disabled":false,"rental_uris":{"android":"levelo://app?vid=07a2a0c2-91c2-409a-b33f-ba4067e29b58","ios":"levelo://app?vid=07a2a0c2-91c2-409a-b33f-ba4067e29b58"},"vehicle_type_id":"4","last_reported":1699815873,"current_range_meters":4800,"station_id":"ce4bgn12rcd13ifvqbt0","pricing_plan_id":"free"},{"bike_id":"9caec048-a3aa-428b-9d1e-66ad6c2d8e58","system_id":"levelo_inurba_marseille","lat":43.32148,"lon":5.38603,"is_reserved":false,"is_disabled":false,"rental_uris":{"android":"levelo://app?vid=9caec048-a3aa-428b-9d1e-66ad6c2d8e58","ios":"levelo://app?vid=9caec048-a3aa-428b-9d1e-66ad6c2d8e58"},"vehicle_type_id":"4","last_reported":1699815873,"current_range_meters":20000,"station_id":"","pricing_plan_id":"free"},{"bike_id":"f0812d0f-256a-478f-9681-2e0e9d074993","system_id":"levelo_inurba_marseille","lat":43.29601,"lon":5.36819,"is_reserved":false,"is_disabled":false,"rental_uris":{"android":"levelo://app?vid=f0812d0f-256a-478f-9681-2e0e9d074993","ios":"levelo://app?vid=f0812d0f-256a-478f-9681-2e0e9d074993"},"vehicle_type_id":"4","last_reported":1699815873,"current_range_meters":26800,"station_id":"","pricing_plan_id":"free"},{"bike_id":"d447991a-59b4-4778-a190-7d2b0920a414","system_id":"levelo_inurba_marseille","lat":43.32215,"lon":5.38613,"is_reserved":false,"is_disabled":false,"rental_uris":{"android":"levelo://app?vid=d447991a-59b4-4778-a190-7d2b0920a414","ios":"levelo://app?vid=d447991a-59b4-4778-a190-7d2b0920a414"},"vehicle_type_id":"4","last_reported":1699815873,"current_range_meters":16000,"station_id":"","pricing_plan_id":"free"},{"bike_id":"408e1bba-ac1b-479c-ad30-32026784c873","system_id":"levelo_inurba_marseille","lat":43.2966,"lon":5.37463,"is_reserved":false,"is_disabled":false,"rental_uris":{"android":"levelo://app?vid=408e1bba-ac1b-479c-ad30-32026784c873","ios":"levelo://app?vid=408e1bba-ac1b-479c-ad30-32026784c873"},"vehicle_type_id":"4","last_reported":1699815873,"current_range_meters":10800,"station_id":"","pricing_plan_id":"free"},{"bike_id":"671b3c2c-085d-40ea-abd6-439ebe957c14","system_id":"levelo_inurba_marseille","lat":43.296935,"lon":5.376544,"is_reserved":false,"is_disabled":false,"rental_uris":{"android":"levelo://app?vid=671b3c2c-085d-40ea-abd6-439ebe957c14","ios":"levelo://app?vid=671b3c2c-085d-40ea-abd6-439ebe957c14"},"vehicle_type_id":"4","last_reported":1699815873,"current_range_meters":5200,"station_id":"ce4bgkh2rcd13ifvqbl0","pricing_plan_id":"free"},{"bike_id":"16b2af9c-867e-41ac-be82-1e66b9b65b60","system_id":"levelo_inurba_marseille","lat":43.309589,"lon":5.390258,"is_reserved":false,"is_disabled":false,"rental_uris":{"android":"levelo://app?vid=16b2af9c-867e-41ac-be82-1e66b9b65b60","ios":"levelo://app?vid=16b2af9c-867e-41ac-be82-1e66b9b65b60"},"vehicle_type_id":"4","last_reported":1699815873,"current_range_meters":25200,"station_id":"ce4bgup2rcd13ifvqco0","pricing_plan_id":"free"},{"bike_id":"33ad3c0f-66bd-47e3-9410-0e87927f2751","system_id":"levelo_inurba_marseille","lat":43.309589,"lon":5.390258,"is_reserved":false,"is_disabled":false,"rental_uris":{"android":"levelo://app?vid=33ad3c0f-66bd-47e3-9410-0e87927f2751","ios":"levelo://app?vid=33ad3c0f-66bd-47e3-9410-0e87927f2751"},"vehicle_type_id":"4","last_reported":1699815873,"current_range_meters":7600,"station_id":"ce4bgup2rcd13ifvqco0","pricing_plan_id":"free"},{"bike_id":"feff7d8e-9456-4b4b-b917-4f91bb23e023","system_id":"levelo_inurba_marseille","lat":43.3175,"lon":5.39022,"is_reserved":false,"is_disabled":false,"rental_uris":{"android":"levelo://app?vid=feff7d8e-9456-4b4b-b917-4f91bb23e023","ios":"levelo://app?vid=feff7d8e-9456-4b4b-b917-4f91bb23e023"},"vehicle_type_id":"4","last_reported":1699815873,"current_range_meters":14000,"station_id":"","pricing_plan_id":"free"},{"bike_id":"d410aab9-8909-473c-b142-17d89cc62ba0","system_id":"levelo_inurba_marseille","lat":43.317557,"lon":5.390173,"is_reserved":false,"is_disabled":false,"rental_uris":{"android":"levelo://app?vid=d410aab9-8909-473c-b142-17d89cc62ba0","ios":"levelo://app?vid=d410aab9-8909-473c-b142-17d89cc62ba0"},"vehicle_type_id":"4","last_reported":1699815873,"current_range_meters":13600,"station_id":"ce4bhqp2rcd13ifvqhng","pricing_plan_id":"free"},{"bike_id":"6bcbd990-d37a-42e5-ab6f-ecc1dcf7af59","system_id":"levelo_inurba_marseille","lat":43.298037,"lon":5.381066,"is_reserved":false,"is_disabled":false,"rental_uris":{"android":"levelo://app?vid=6bcbd990-d37a-42e5-ab6f-ecc1dcf7af59","ios":"levelo://app?vid=6bcbd990-d37a-42e5-ab6f-ecc1dcf7af59"},"vehicle_type_id":"4","last_reported":1699815873,"current_range_meters":17200,"station_id":"ce4bgip2rcd13ifvqbb0","pricing_plan_id":"free"},{"bike_id":"1879a3fc-7ead-491b-9d4f-f019902f4112","system_id":"levelo_inurba_marseille","lat":43.296263,"lon":5.377094,"is_reserved":false,"is_disabled":false,"rental_uris":{"android":"levelo://app?vid=1879a3fc-7ead-491b-9d4f-f019902f4112","ios":"levelo://app?vid=1879a3fc-7ead-491b-9d4f-f019902f4112"},"vehicle_type_id":"4","last_reported":1699815873,"current_range_meters":0,"station_id":"ce4bgi92rcd13ifvqb90","pricing_plan_id":"free"},{"bike_id":"5691b5b7-067a-4422-9f0c-a6907daf74a4","system_id":"levelo_inurba_marseille","lat":43.32931,"lon":5.35636,"is_reserved":false,"is_disabled":false,"rental_uris":{"android":"levelo://app?vid=5691b5b7-067a-4422-9f0c-a6907daf74a4","ios":"levelo://app?vid=5691b5b7-067a-4422-9f0c-a6907daf74a4"},"vehicle_type_id":"4","last_reported":1699815873,"current_range_meters":4000,"station_id":"","pricing_plan_id":"free"},{"bike_id":"fe95cb8c-6e19-47ab-9485-73b7ea4afcbf","system_id":"levelo_inurba_marseille","lat":43.296263,"lon":5.377094,"is_reserved":false,"is_disabled":false,"rental_uris":{"android":"levelo://app?vid=fe95cb8c-6e19-47ab-9485-73b7ea4afcbf","ios":"levelo://app?vid=fe95cb8c-6e19-47ab-9485-73b7ea4afcbf"},"vehicle_type_id":"4","last_reported":1699815873,"current_range_meters":4800,"station_id":"ce4bgi92rcd13ifvqb90","pricing_plan_id":"free"},{"bike_id":"9cd4a9d6-0dbb-49af-b248-499a79d5014e","system_id":"levelo_inurba_marseille","lat":43.2997,"lon":5.38491,"is_reserved":false,"is_disabled":false,"rental_uris":{"android":"levelo://app?vid=9cd4a9d6-0dbb-49af-b248-499a79d5014e","ios":"levelo://app?vid=9cd4a9d6-0dbb-49af-b248-499a79d5014e"},"vehicle_type_id":"4","last_reported":1699815873,"current_range_meters":0,"station_id":"ce4bgj92rcd13ifvqbd0","pricing_plan_id":"free"},{"bike_id":"732d6988-25ee-4583-90ae-ee09702f4a0e","system_id":"levelo_inurba_marseille","lat":43.299707,"lon":5.384859,"is_reserved":false,"is_disabled":false,"rental_uris":{"android":"levelo://app?vid=732d6988-25ee-4583-90ae-ee09702f4a0e","ios":"levelo://app?vid=732d6988-25ee-4583-90ae-ee09702f4a0e"},"vehicle_type_id":"4","last_reported":1699815873,"current_range_meters":16800,"station_id":"ce4bgj92rcd13ifvqbd0","pricing_plan_id":"free"},{"bike_id":"8482f543-0942-4527-a88e-48e226a92c6a","system_id":"levelo_inurba_marseille","lat":43.295279,"lon":5.375048,"is_reserved":false,"is_disabled":false,"rental_uris":{"android":"levelo://app?vid=8482f543-0942-4527-a88e-48e226a92c6a","ios":"levelo://app?vid=8482f543-0942-4527-a88e-48e226a92c6a"},"vehicle_type_id":"4","last_reported":1699815873,"current_range_meters":16000,"station_id":"ce4bgkp2rcd13ifvqbmg","pricing_plan_id":"free"},{"bike_id":"170457dc-73c2-4080-9bf8-215aa27ca43e","system_id":"levelo_inurba_marseille","lat":43.29601,"lon":5.381084,"is_reserved":false,"is_disabled":false,"rental_uris":{"android":"levelo://app?vid=170457dc-73c2-4080-9bf8-215aa27ca43e","ios":"levelo://app?vid=170457dc-73c2-4080-9bf8-215aa27ca43e"},"vehicle_type_id":"4","last_reported":1699815873,"current_range_meters":19200,"station_id":"ce4bgl12rcd13ifvqbo0","pricing_plan_id":"free"},{"bike_id":"bf023614-6302-4430-ba6a-d2e99fe27430","system_id":"levelo_inurba_marseille","lat":43.29287,"lon":5.3687,"is_reserved":false,"is_disabled":false,"rental_uris":{"android":"levelo://app?vid=bf023614-6302-4430-ba6a-d2e99fe27430","ios":"levelo://app?vid=bf023614-6302-4430-ba6a-d2e99fe27430"},"vehicle_type_id":"4","last_reported":1699815873,"current_range_meters":0,"station_id":"ce4bgrp2rcd13ifvqc9g","pricing_plan_id":"free"},{"bike_id":"9ad95300-5329-4406-9fea-4a0f3679dbd2","system_id":"levelo_inurba_marseille","lat":43.301117,"lon":5.398795,"is_reserved":false,"is_disabled":false,"rental_uris":{"android":"levelo://app?vid=9ad95300-5329-4406-9fea-4a0f3679dbd2","ios":"levelo://app?vid=9ad95300-5329-4406-9fea-4a0f3679dbd2"},"vehicle_type_id":"4","last_reported":1699815873,"current_range_meters":10000,"station_id":"ce4bh0h2rcd13ifvqd40","pricing_plan_id":"free"},{"bike_id":"1f2edeec-835f-4188-b75a-b19c37bb1dac","system_id":"levelo_inurba_marseille","lat":43.30109,"lon":5.3894,"is_reserved":false,"is_disabled":false,"rental_uris":{"android":"levelo://app?vid=1f2edeec-835f-4188-b75a-b19c37bb1dac","ios":"levelo://app?vid=1f2edeec-835f-4188-b75a-b19c37bb1dac"},"vehicle_type_id":"4","last_reported":1699815873,"current_range_meters":400,"station_id":"","pricing_plan_id":"free"},{"bike_id":"0ede2a0f-f8e9-44d5-8a56-60be60b1f912","system_id":"levelo_inurba_marseille","lat":43.30609,"lon":5.39337,"is_reserved":false,"is_disabled":false,"rental_uris":{"android":"levelo://app?vid=0ede2a0f-f8e9-44d5-8a56-60be60b1f912","ios":"levelo://app?vid=0ede2a0f-f8e9-44d5-8a56-60be60b1f912"},"vehicle_type_id":"4","last_reported":1699815873,"current_range_meters":15600,"station_id":"ce4bh0p2rcd13ifvqd80","pricing_plan_id":"free"},{"bike_id":"28c22b58-bd7a-4b09-9033-6dbaf6877564","system_id":"levelo_inurba_marseille","lat":43.293009,"lon":5.374584,"is_reserved":false,"is_disabled":false,"rental_uris":{"android":"levelo://app?vid=28c22b58-bd7a-4b09-9033-6dbaf6877564","ios":"levelo://app?vid=28c22b58-bd7a-4b09-9033-6dbaf6877564"},"vehicle_type_id":"4","last_reported":1699815873,"current_range_meters":18000,"station_id":"ce4bgi12rcd13ifvqb70","pricing_plan_id":"free"},{"bike_id":"b4389934-e375-4563-8199-25a6ca7deab1","system_id":"levelo_inurba_marseille","lat":43.305994,"lon":5.393687,"is_reserved":false,"is_disabled":false,"rental_uris":{"android":"levelo://app?vid=b4389934-e375-4563-8199-25a6ca7deab1","ios":"levelo://app?vid=b4389934-e375-4563-8199-25a6ca7deab1"},"vehicle_type_id":"4","last_reported":1699815873,"current_range_meters":0,"station_id":"ce4bh0p2rcd13ifvqd80","pricing_plan_id":"free"},{"bike_id":"fbc1606c-6b0f-4a2c-800b-6f500f0cdc3c","system_id":"levelo_inurba_marseille","lat":43.302992,"lon":5.392136,"is_reserved":false,"is_disabled":false,"rental_uris":{"android":"levelo://app?vid=fbc1606c-6b0f-4a2c-800b-6f500f0cdc3c","ios":"levelo://app?vid=fbc1606c-6b0f-4a2c-800b-6f500f0cdc3c"},"vehicle_type_id":"4","last_reported":1699815873,"current_range_meters":1600,"station_id":"ce4bgkh2rcd13ifvqbk0","pricing_plan_id":"free"},{"bike_id":"1eab6dbf-0a43-4cc2-8a4b-174810f9b17c","system_id":"levelo_inurba_marseille","lat":43.292719,"lon":5.376259,"is_reserved":false,"is_disabled":false,"rental_uris":{"android":"levelo://app?vid=1eab6dbf-0a43-4cc2-8a4b-174810f9b17c","ios":"levelo://app?vid=1eab6dbf-0a43-4cc2-8a4b-174810f9b17c"},"vehicle_type_id":"4","last_reported":1699815873,"current_range_meters":6800,"station_id":"ce4bgi12rcd13ifvqb80","pricing_plan_id":"free"},{"bike_id":"017e99e5-e272-4826-b31f-d1beafba653f","system_id":"levelo_inurba_marseille","lat":43.29169,"lon":5.37151,"is_reserved":false,"is_disabled":false,"rental_uris":{"android":"levelo://app?vid=017e99e5-e272-4826-b31f-d1beafba653f","ios":"levelo://app?vid=017e99e5-e272-4826-b31f-d1beafba653f"},"vehicle_type_id":"4","last_reported":1699815873,"current_range_meters":0,"station_id":"ce4bha92rcd13ifvqeh0","pricing_plan_id":"free"},{"bike_id":"c6bd9cef-a503-4ee5-a69f-f64dae7702ac","system_id":"levelo_inurba_marseille","lat":43.298764,"lon":5.388973,"is_reserved":false,"is_disabled":false,"rental_uris":{"android":"levelo://app?vid=c6bd9cef-a503-4ee5-a69f-f64dae7702ac","ios":"levelo://app?vid=c6bd9cef-a503-4ee5-a69f-f64dae7702ac"},"vehicle_type_id":"4","last_reported":1699815873,"current_range_meters":20400,"station_id":"ce4bh392rcd13ifvqdl0","pricing_plan_id":"free"},{"bike_id":"0c68512e-4e98-438a-991c-a994957f75d7","system_id":"levelo_inurba_marseille","lat":43.313291,"lon":5.396838,"is_reserved":false,"is_disabled":false,"rental_uris":{"android":"levelo://app?vid=0c68512e-4e98-438a-991c-a994957f75d7","ios":"levelo://app?vid=0c68512e-4e98-438a-991c-a994957f75d7"},"vehicle_type_id":"4","last_reported":1699815873,"current_range_meters":1200,"station_id":"ce4bgvp2rcd13ifvqcu0","pricing_plan_id":"free"},{"bike_id":"c961464a-f7b1-4b66-b99c-2834fb8aaf4e","system_id":"levelo_inurba_marseille","lat":43.31331,"lon":5.3969,"is_reserved":false,"is_disabled":false,"rental_uris":{"android":"levelo://app?vid=c961464a-f7b1-4b66-b99c-2834fb8aaf4e","ios":"levelo://app?vid=c961464a-f7b1-4b66-b99c-2834fb8aaf4e"},"vehicle_type_id":"4","last_reported":1699815873,"current_range_meters":0,"station_id":"ce4bgvp2rcd13ifvqcu0","pricing_plan_id":"free"},{"bike_id":"ae3c7050-10e8-4269-aefc-94fe3e8b6924","system_id":"levelo_inurba_marseille","lat":43.29191,"lon":5.35801,"is_reserved":false,"is_disabled":false,"rental_uris":{"android":"levelo://app?vid=ae3c7050-10e8-4269-aefc-94fe3e8b6924","ios":"levelo://app?vid=ae3c7050-10e8-4269-aefc-94fe3e8b6924"},"vehicle_type_id":"4","last_reported":1699815873,"current_range_meters":0,"station_id":"ce4bhb12rcd13ifvqel0","pricing_plan_id":"free"},{"bike_id":"fa8740c5-0be0-4902-98d2-c64b140d7e39","system_id":"levelo_inurba_marseille","lat":43.313291,"lon":5.396838,"is_reserved":false,"is_disabled":false,"rental_uris":{"android":"levelo://app?vid=fa8740c5-0be0-4902-98d2-c64b140d7e39","ios":"levelo://app?vid=fa8740c5-0be0-4902-98d2-c64b140d7e39"},"vehicle_type_id":"4","last_reported":1699815873,"current_range_meters":0,"station_id":"ce4bgvp2rcd13ifvqcu0","pricing_plan_id":"free"},{"bike_id":"910cac62-4bb4-435c-99fc-35a1411186be","system_id":"levelo_inurba_marseille","lat":43.31324,"lon":5.39692,"is_reserved":false,"is_disabled":false,"rental_uris":{"android":"levelo://app?vid=910cac62-4bb4-435c-99fc-35a1411186be","ios":"levelo://app?vid=910cac62-4bb4-435c-99fc-35a1411186be"},"vehicle_type_id":"4","last_reported":1699815873,"current_range_meters":4000,"station_id":"ce4bgvp2rcd13ifvqcu0","pricing_plan_id":"free"},{"bike_id":"3c59acd8-5ef2-4e54-8f3c-fc0296f9be20","system_id":"levelo_inurba_marseille","lat":43.29187,"lon":5.35807,"is_reserved":false,"is_disabled":false,"rental_uris":{"android":"levelo://app?vid=3c59acd8-5ef2-4e54-8f3c-fc0296f9be20","ios":"levelo://app?vid=3c59acd8-5ef2-4e54-8f3c-fc0296f9be20"},"vehicle_type_id":"4","last_reported":1699815873,"current_range_meters":22800,"station_id":"ce4bhb12rcd13ifvqel0","pricing_plan_id":"free"},{"bike_id":"6e2d17b6-fc54-4585-985f-8c52808cffcd","system_id":"levelo_inurba_marseille","lat":43.313291,"lon":5.396838,"is_reserved":false,"is_disabled":false,"rental_uris":{"android":"levelo://app?vid=6e2d17b6-fc54-4585-985f-8c52808cffcd","ios":"levelo://app?vid=6e2d17b6-fc54-4585-985f-8c52808cffcd"},"vehicle_type_id":"4","last_reported":1699815873,"current_range_meters":2400,"station_id":"ce4bgvp2rcd13ifvqcu0","pricing_plan_id":"free"},{"bike_id":"6119537c-7ed5-4afe-a587-edac36af6bf3","system_id":"levelo_inurba_marseille","lat":43.313291,"lon":5.396838,"is_reserved":false,"is_disabled":false,"rental_uris":{"android":"levelo://app?vid=6119537c-7ed5-4afe-a587-edac36af6bf3","ios":"levelo://app?vid=6119537c-7ed5-4afe-a587-edac36af6bf3"},"vehicle_type_id":"4","last_reported":1699815873,"current_range_meters":16400,"station_id":"ce4bgvp2rcd13ifvqcu0","pricing_plan_id":"free"},{"bike_id":"f05efe8a-6d59-4ed4-ab39-f82390363452","system_id":"levelo_inurba_marseille","lat":43.309038,"lon":5.396546,"is_reserved":false,"is_disabled":false,"rental_uris":{"android":"levelo://app?vid=f05efe8a-6d59-4ed4-ab39-f82390363452","ios":"levelo://app?vid=f05efe8a-6d59-4ed4-ab39-f82390363452"},"vehicle_type_id":"4","last_reported":1699815873,"current_range_meters":2000,"station_id":"ce4bh012rcd13ifvqcv0","pricing_plan_id":"free"},{"bike_id":"2498a110-efbb-4229-8904-a97c1a0b2deb","system_id":"levelo_inurba_marseille","lat":43.30775,"lon":5.39628,"is_reserved":false,"is_disabled":false,"rental_uris":{"android":"levelo://app?vid=2498a110-efbb-4229-8904-a97c1a0b2deb","ios":"levelo://app?vid=2498a110-efbb-4229-8904-a97c1a0b2deb"},"vehicle_type_id":"4","last_reported":1699815873,"current_range_meters":26400,"station_id":"","pricing_plan_id":"free"},{"bike_id":"6c5727a3-c44f-4144-a04c-aedeff94cef7","system_id":"levelo_inurba_marseille","lat":43.295713,"lon":5.399639,"is_reserved":false,"is_disabled":false,"rental_uris":{"android":"levelo://app?vid=6c5727a3-c44f-4144-a04c-aedeff94cef7","ios":"levelo://app?vid=6c5727a3-c44f-4144-a04c-aedeff94cef7"},"vehicle_type_id":"4","last_reported":1699815873,"current_range_meters":8000,"station_id":"ce4bh312rcd13ifvqdj0","pricing_plan_id":"free"},{"bike_id":"f83a2c3c-face-4105-94cc-fff846834e8f","system_id":"levelo_inurba_marseille","lat":43.290327,"lon":5.375711,"is_reserved":false,"is_disabled":false,"rental_uris":{"android":"levelo://app?vid=f83a2c3c-face-4105-94cc-fff846834e8f","ios":"levelo://app?vid=f83a2c3c-face-4105-94cc-fff846834e8f"},"vehicle_type_id":"4","last_reported":1699815873,"current_range_meters":4000,"station_id":"ce4bh692rcd13ifvqe90","pricing_plan_id":"free"},{"bike_id":"69998f06-7ef1-4225-9c69-feef58055d5b","system_id":"levelo_inurba_marseille","lat":43.29027,"lon":5.37565,"is_reserved":false,"is_disabled":false,"rental_uris":{"android":"levelo://app?vid=69998f06-7ef1-4225-9c69-feef58055d5b","ios":"levelo://app?vid=69998f06-7ef1-4225-9c69-feef58055d5b"},"vehicle_type_id":"4","last_reported":1699815873,"current_range_meters":28400,"station_id":"ce4bh692rcd13ifvqe90","pricing_plan_id":"free"},{"bike_id":"bb335726-ddd5-4e0a-93eb-9cc2a993573e","system_id":"levelo_inurba_marseille","lat":43.28938,"lon":5.36635,"is_reserved":false,"is_disabled":false,"rental_uris":{"android":"levelo://app?vid=bb335726-ddd5-4e0a-93eb-9cc2a993573e","ios":"levelo://app?vid=bb335726-ddd5-4e0a-93eb-9cc2a993573e"},"vehicle_type_id":"4","last_reported":1699815873,"current_range_meters":0,"station_id":"ce4bhap2rcd13ifvqek0","pricing_plan_id":"free"},{"bike_id":"9bcdf688-599b-410b-bfbf-7a110b790f09","system_id":"levelo_inurba_marseille","lat":43.289184,"lon":5.366408,"is_reserved":false,"is_disabled":false,"rental_uris":{"android":"levelo://app?vid=9bcdf688-599b-410b-bfbf-7a110b790f09","ios":"levelo://app?vid=9bcdf688-599b-410b-bfbf-7a110b790f09"},"vehicle_type_id":"4","last_reported":1699815873,"current_range_meters":8400,"station_id":"ce4bhap2rcd13ifvqek0","pricing_plan_id":"free"},{"bike_id":"438c6a40-94c4-4db9-9e6a-a6fa1e2e271c","system_id":"levelo_inurba_marseille","lat":43.289184,"lon":5.366408,"is_reserved":false,"is_disabled":false,"rental_uris":{"android":"levelo://app?vid=438c6a40-94c4-4db9-9e6a-a6fa1e2e271c","ios":"levelo://app?vid=438c6a40-94c4-4db9-9e6a-a6fa1e2e271c"},"vehicle_type_id":"4","last_reported":1699815873,"current_range_meters":12000,"station_id":"ce4bhap2rcd13ifvqek0","pricing_plan_id":"free"},{"bike_id":"d9843ee1-284c-407b-b134-097b09a2f64b","system_id":"levelo_inurba_marseille","lat":43.289184,"lon":5.366408,"is_reserved":false,"is_disabled":false,"rental_uris":{"android":"levelo://app?vid=d9843ee1-284c-407b-b134-097b09a2f64b","ios":"levelo://app?vid=d9843ee1-284c-407b-b134-097b09a2f64b"},"vehicle_type_id":"4","last_reported":1699815873,"current_range_meters":4800,"station_id":"ce4bhap2rcd13ifvqek0","pricing_plan_id":"free"},{"bike_id":"10029093-242b-4aaf-a96b-871953b58f8c","system_id":"levelo_inurba_marseille","lat":43.29269,"lon":5.3845,"is_reserved":false,"is_disabled":false,"rental_uris":{"android":"levelo://app?vid=10029093-242b-4aaf-a96b-871953b58f8c","ios":"levelo://app?vid=10029093-242b-4aaf-a96b-871953b58f8c"},"vehicle_type_id":"4","last_reported":1699815873,"current_range_meters":0,"station_id":"ce4bh692rcd13ifvqea0","pricing_plan_id":"free"},{"bike_id":"88d7cfee-8f42-438f-8aa4-5b18bb643b78","system_id":"levelo_inurba_marseille","lat":43.26949,"lon":5.40262,"is_reserved":false,"is_disabled":false,"rental_uris":{"android":"levelo://app?vid=88d7cfee-8f42-438f-8aa4-5b18bb643b78","ios":"levelo://app?vid=88d7cfee-8f42-438f-8aa4-5b18bb643b78"},"vehicle_type_id":"4","last_reported":1699815873,"current_range_meters":21200,"station_id":"cjm6bp8fraef2m0cb0m0","pricing_plan_id":"free"},{"bike_id":"92fbaedb-8f42-484d-804e-b69a3a21903c","system_id":"levelo_inurba_marseille","lat":43.28904,"lon":5.373027,"is_reserved":false,"is_disabled":false,"rental_uris":{"android":"levelo://app?vid=92fbaedb-8f42-484d-804e-b69a3a21903c","ios":"levelo://app?vid=92fbaedb-8f42-484d-804e-b69a3a21903c"},"vehicle_type_id":"4","last_reported":1699815873,"current_range_meters":0,"station_id":"","pricing_plan_id":"free"},{"bike_id":"4730182e-0c31-4aa3-b616-fada1e5558b2","system_id":"levelo_inurba_marseille","lat":43.29788,"lon":5.39321,"is_reserved":false,"is_disabled":false,"rental_uris":{"android":"levelo://app?vid=4730182e-0c31-4aa3-b616-fada1e5558b2","ios":"levelo://app?vid=4730182e-0c31-4aa3-b616-fada1e5558b2"},"vehicle_type_id":"4","last_reported":1699815873,"current_range_meters":10400,"station_id":"chh1huq6cuj3fo74tm60","pricing_plan_id":"free"},{"bike_id":"10eaa927-755b-421c-9a3b-a560d7c73725","system_id":"levelo_inurba_marseille","lat":43.297916,"lon":5.393339,"is_reserved":false,"is_disabled":false,"rental_uris":{"android":"levelo://app?vid=10eaa927-755b-421c-9a3b-a560d7c73725","ios":"levelo://app?vid=10eaa927-755b-421c-9a3b-a560d7c73725"},"vehicle_type_id":"4","last_reported":1699815873,"current_range_meters":6800,"station_id":"chh1huq6cuj3fo74tm60","pricing_plan_id":"free"},{"bike_id":"3b387f6c-c64f-469d-b58b-27dceef0774b","system_id":"levelo_inurba_marseille","lat":43.297905,"lon":5.393408,"is_reserved":false,"is_disabled":false,"rental_uris":{"android":"levelo://app?vid=3b387f6c-c64f-469d-b58b-27dceef0774b","ios":"levelo://app?vid=3b387f6c-c64f-469d-b58b-27dceef0774b"},"vehicle_type_id":"4","last_reported":1699815873,"current_range_meters":14000,"station_id":"chh1huq6cuj3fo74tm60","pricing_plan_id":"free"},{"bike_id":"875c9b3f-3d80-42ba-8c60-f226d3a63376","system_id":"levelo_inurba_marseille","lat":43.29788,"lon":5.39339,"is_reserved":false,"is_disabled":false,"rental_uris":{"android":"levelo://app?vid=875c9b3f-3d80-42ba-8c60-f226d3a63376","ios":"levelo://app?vid=875c9b3f-3d80-42ba-8c60-f226d3a63376"},"vehicle_type_id":"4","last_reported":1699815873,"current_range_meters":21200,"station_id":"chh1huq6cuj3fo74tm60","pricing_plan_id":"free"},{"bike_id":"698db18a-1005-4b84-ad26-6c49d24c50f7","system_id":"levelo_inurba_marseille","lat":43.29782,"lon":5.39334,"is_reserved":false,"is_disabled":false,"rental_uris":{"android":"levelo://app?vid=698db18a-1005-4b84-ad26-6c49d24c50f7","ios":"levelo://app?vid=698db18a-1005-4b84-ad26-6c49d24c50f7"},"vehicle_type_id":"4","last_reported":1699815873,"current_range_meters":8400,"station_id":"chh1huq6cuj3fo74tm60","pricing_plan_id":"free"},{"bike_id":"b90799c1-a359-441e-84bb-2b07ca968d67","system_id":"levelo_inurba_marseille","lat":43.297802,"lon":5.393422,"is_reserved":false,"is_disabled":false,"rental_uris":{"android":"levelo://app?vid=b90799c1-a359-441e-84bb-2b07ca968d67","ios":"levelo://app?vid=b90799c1-a359-441e-84bb-2b07ca968d67"},"vehicle_type_id":"4","last_reported":1699815873,"current_range_meters":4400,"station_id":"chh1huq6cuj3fo74tm60","pricing_plan_id":"free"},{"bike_id":"6f67768b-590a-4d11-bd87-a11685451d7f","system_id":"levelo_inurba_marseille","lat":43.295169,"lon":5.390426,"is_reserved":false,"is_disabled":false,"rental_uris":{"android":"levelo://app?vid=6f67768b-590a-4d11-bd87-a11685451d7f","ios":"levelo://app?vid=6f67768b-590a-4d11-bd87-a11685451d7f"},"vehicle_type_id":"4","last_reported":1699815873,"current_range_meters":17600,"station_id":"ce4bh3p2rcd13ifvqdp0","pricing_plan_id":"free"},{"bike_id":"7a1356b5-2437-4bfa-bb34-cf55b7f00bb1","system_id":"levelo_inurba_marseille","lat":43.33063,"lon":5.39051,"is_reserved":false,"is_disabled":false,"rental_uris":{"android":"levelo://app?vid=7a1356b5-2437-4bfa-bb34-cf55b7f00bb1","ios":"levelo://app?vid=7a1356b5-2437-4bfa-bb34-cf55b7f00bb1"},"vehicle_type_id":"4","last_reported":1699815873,"current_range_meters":10000,"station_id":"","pricing_plan_id":"free"},{"bike_id":"2b7def9f-587d-44e0-b735-783225bf24ef","system_id":"levelo_inurba_marseille","lat":43.28856,"lon":5.358371,"is_reserved":false,"is_disabled":false,"rental_uris":{"android":"levelo://app?vid=2b7def9f-587d-44e0-b735-783225bf24ef","ios":"levelo://app?vid=2b7def9f-587d-44e0-b735-783225bf24ef"},"vehicle_type_id":"4","last_reported":1699815873,"current_range_meters":4400,"station_id":"ce4bhb12rcd13ifvqem0","pricing_plan_id":"free"},{"bike_id":"de86e3d1-a596-40c7-ba28-8077c5a08266","system_id":"levelo_inurba_marseille","lat":43.33763,"lon":5.37491,"is_reserved":false,"is_disabled":false,"rental_uris":{"android":"levelo://app?vid=de86e3d1-a596-40c7-ba28-8077c5a08266","ios":"levelo://app?vid=de86e3d1-a596-40c7-ba28-8077c5a08266"},"vehicle_type_id":"4","last_reported":1699815873,"current_range_meters":28000,"station_id":"","pricing_plan_id":"free"},{"bike_id":"4934a65d-12a8-4f76-94be-b7834d579b62","system_id":"levelo_inurba_marseille","lat":43.30642,"lon":5.401031,"is_reserved":false,"is_disabled":false,"rental_uris":{"android":"levelo://app?vid=4934a65d-12a8-4f76-94be-b7834d579b62","ios":"levelo://app?vid=4934a65d-12a8-4f76-94be-b7834d579b62"},"vehicle_type_id":"4","last_reported":1699815873,"current_range_meters":11200,"station_id":"ce4bh112rcd13ifvqda0","pricing_plan_id":"free"},{"bike_id":"cd1a5ab7-9a5c-496b-b9fb-b859466a9c8a","system_id":"levelo_inurba_marseille","lat":43.301117,"lon":5.398795,"is_reserved":false,"is_disabled":false,"rental_uris":{"android":"levelo://app?vid=cd1a5ab7-9a5c-496b-b9fb-b859466a9c8a","ios":"levelo://app?vid=cd1a5ab7-9a5c-496b-b9fb-b859466a9c8a"},"vehicle_type_id":"4","last_reported":1699815873,"current_range_meters":0,"station_id":"ce4bh0h2rcd13ifvqd40","pricing_plan_id":"free"},{"bike_id":"743f3bc5-43c9-45a3-8965-b67b169c6c30","system_id":"levelo_inurba_marseille","lat":43.30513,"lon":5.40077,"is_reserved":false,"is_disabled":false,"rental_uris":{"android":"levelo://app?vid=743f3bc5-43c9-45a3-8965-b67b169c6c30","ios":"levelo://app?vid=743f3bc5-43c9-45a3-8965-b67b169c6c30"},"vehicle_type_id":"4","last_reported":1699815873,"current_range_meters":6400,"station_id":"","pricing_plan_id":"free"},{"bike_id":"71d4e9c2-b4e1-4bd0-a72d-92e18a0fa9e1","system_id":"levelo_inurba_marseille","lat":43.286961,"lon":5.373785,"is_reserved":false,"is_disabled":false,"rental_uris":{"android":"levelo://app?vid=71d4e9c2-b4e1-4bd0-a72d-92e18a0fa9e1","ios":"levelo://app?vid=71d4e9c2-b4e1-4bd0-a72d-92e18a0fa9e1"},"vehicle_type_id":"4","last_reported":1699815873,"current_range_meters":14000,"station_id":"ce4bh3p2rcd13ifvqdq0","pricing_plan_id":"free"},{"bike_id":"c953b67a-ef6b-4a2a-b9bf-82b3dfd517ff","system_id":"levelo_inurba_marseille","lat":43.286979,"lon":5.373866,"is_reserved":false,"is_disabled":false,"rental_uris":{"android":"levelo://app?vid=c953b67a-ef6b-4a2a-b9bf-82b3dfd517ff","ios":"levelo://app?vid=c953b67a-ef6b-4a2a-b9bf-82b3dfd517ff"},"vehicle_type_id":"4","last_reported":1699815873,"current_range_meters":0,"station_id":"ce4bh3p2rcd13ifvqdq0","pricing_plan_id":"free"},{"bike_id":"936fe6cf-de8a-4ee0-8cbc-cd3a62f674e1","system_id":"levelo_inurba_marseille","lat":43.2954,"lon":5.39404,"is_reserved":false,"is_disabled":false,"rental_uris":{"android":"levelo://app?vid=936fe6cf-de8a-4ee0-8cbc-cd3a62f674e1","ios":"levelo://app?vid=936fe6cf-de8a-4ee0-8cbc-cd3a62f674e1"},"vehicle_type_id":"4","last_reported":1699815873,"current_range_meters":20800,"station_id":"ce4bh292rcd13ifvqdf0","pricing_plan_id":"free"},{"bike_id":"51fb5f7b-98ae-44a7-bc7c-f9ff2fa1ec3e","system_id":"levelo_inurba_marseille","lat":43.286961,"lon":5.373785,"is_reserved":false,"is_disabled":false,"rental_uris":{"android":"levelo://app?vid=51fb5f7b-98ae-44a7-bc7c-f9ff2fa1ec3e","ios":"levelo://app?vid=51fb5f7b-98ae-44a7-bc7c-f9ff2fa1ec3e"},"vehicle_type_id":"4","last_reported":1699815873,"current_range_meters":20400,"station_id":"ce4bh3p2rcd13ifvqdq0","pricing_plan_id":"free"},{"bike_id":"7f22aae2-284f-4445-9280-b4dfc9e4504e","system_id":"levelo_inurba_marseille","lat":43.286961,"lon":5.373785,"is_reserved":false,"is_disabled":false,"rental_uris":{"android":"levelo://app?vid=7f22aae2-284f-4445-9280-b4dfc9e4504e","ios":"levelo://app?vid=7f22aae2-284f-4445-9280-b4dfc9e4504e"},"vehicle_type_id":"4","last_reported":1699815873,"current_range_meters":13600,"station_id":"ce4bh3p2rcd13ifvqdq0","pricing_plan_id":"free"},{"bike_id":"93c7a429-6dd2-4cc6-9cb7-ef5ecb745bf5","system_id":"levelo_inurba_marseille","lat":43.309038,"lon":5.396546,"is_reserved":false,"is_disabled":false,"rental_uris":{"android":"levelo://app?vid=93c7a429-6dd2-4cc6-9cb7-ef5ecb745bf5","ios":"levelo://app?vid=93c7a429-6dd2-4cc6-9cb7-ef5ecb745bf5"},"vehicle_type_id":"4","last_reported":1699815873,"current_range_meters":21600,"station_id":"ce4bh012rcd13ifvqcv0","pricing_plan_id":"free"},{"bike_id":"35227aa4-e441-4c4b-8dfb-a38a0e1180e2","system_id":"levelo_inurba_marseille","lat":43.3024,"lon":5.40084,"is_reserved":false,"is_disabled":false,"rental_uris":{"android":"levelo://app?vid=35227aa4-e441-4c4b-8dfb-a38a0e1180e2","ios":"levelo://app?vid=35227aa4-e441-4c4b-8dfb-a38a0e1180e2"},"vehicle_type_id":"4","last_reported":1699815873,"current_range_meters":20400,"station_id":"ce4bgvh2rcd13ifvqcs0","pricing_plan_id":"free"},{"bike_id":"b631772a-6856-4dcd-80e8-7fc650467073","system_id":"levelo_inurba_marseille","lat":43.29461,"lon":5.395703,"is_reserved":false,"is_disabled":false,"rental_uris":{"android":"levelo://app?vid=b631772a-6856-4dcd-80e8-7fc650467073","ios":"levelo://app?vid=b631772a-6856-4dcd-80e8-7fc650467073"},"vehicle_type_id":"4","last_reported":1699815873,"current_range_meters":24000,"station_id":"","pricing_plan_id":"free"},{"bike_id":"e57449c2-d088-47cf-8bf2-271593713c89","system_id":"levelo_inurba_marseille","lat":43.328576,"lon":5.398841,"is_reserved":false,"is_disabled":false,"rental_uris":{"android":"levelo://app?vid=e57449c2-d088-47cf-8bf2-271593713c89","ios":"levelo://app?vid=e57449c2-d088-47cf-8bf2-271593713c89"},"vehicle_type_id":"4","last_reported":1699815873,"current_range_meters":3600,"station_id":"","pricing_plan_id":"free"},{"bike_id":"2e60c04f-edd0-4d93-b5aa-71c210fc030f","system_id":"levelo_inurba_marseille","lat":43.291994,"lon":5.392907,"is_reserved":false,"is_disabled":false,"rental_uris":{"android":"levelo://app?vid=2e60c04f-edd0-4d93-b5aa-71c210fc030f","ios":"levelo://app?vid=2e60c04f-edd0-4d93-b5aa-71c210fc030f"},"vehicle_type_id":"4","last_reported":1699815873,"current_range_meters":24000,"station_id":"ce4bh192rcd13ifvqdd0","pricing_plan_id":"free"},{"bike_id":"b860e289-9987-494c-ae7c-05309f444201","system_id":"levelo_inurba_marseille","lat":43.284565,"lon":5.35895,"is_reserved":false,"is_disabled":false,"rental_uris":{"android":"levelo://app?vid=b860e289-9987-494c-ae7c-05309f444201","ios":"levelo://app?vid=b860e289-9987-494c-ae7c-05309f444201"},"vehicle_type_id":"4","last_reported":1699815873,"current_range_meters":0,"station_id":"ce4bhah2rcd13ifvqei0","pricing_plan_id":"free"},{"bike_id":"0e9359df-b5df-42c5-9f7c-1a972ac0c896","system_id":"levelo_inurba_marseille","lat":43.284534,"lon":5.358662,"is_reserved":false,"is_disabled":false,"rental_uris":{"android":"levelo://app?vid=0e9359df-b5df-42c5-9f7c-1a972ac0c896","ios":"levelo://app?vid=0e9359df-b5df-42c5-9f7c-1a972ac0c896"},"vehicle_type_id":"4","last_reported":1699815873,"current_range_meters":5600,"station_id":"ce4bhah2rcd13ifvqei0","pricing_plan_id":"free"},{"bike_id":"12324aa6-b04a-4963-9dbc-c674d7ae9540","system_id":"levelo_inurba_marseille","lat":43.284534,"lon":5.358662,"is_reserved":false,"is_disabled":false,"rental_uris":{"android":"levelo://app?vid=12324aa6-b04a-4963-9dbc-c674d7ae9540","ios":"levelo://app?vid=12324aa6-b04a-4963-9dbc-c674d7ae9540"},"vehicle_type_id":"4","last_reported":1699815873,"current_range_meters":19200,"station_id":"ce4bhah2rcd13ifvqei0","pricing_plan_id":"free"},{"bike_id":"23c368f5-6867-4d32-8177-c09af713dbdf","system_id":"levelo_inurba_marseille","lat":43.295713,"lon":5.399639,"is_reserved":false,"is_disabled":false,"rental_uris":{"android":"levelo://app?vid=23c368f5-6867-4d32-8177-c09af713dbdf","ios":"levelo://app?vid=23c368f5-6867-4d32-8177-c09af713dbdf"},"vehicle_type_id":"4","last_reported":1699815873,"current_range_meters":1200,"station_id":"ce4bh312rcd13ifvqdj0","pricing_plan_id":"free"},{"bike_id":"786515ce-dee1-4c15-b293-5bdc3f0b15a8","system_id":"levelo_inurba_marseille","lat":43.295713,"lon":5.399639,"is_reserved":false,"is_disabled":false,"rental_uris":{"android":"levelo://app?vid=786515ce-dee1-4c15-b293-5bdc3f0b15a8","ios":"levelo://app?vid=786515ce-dee1-4c15-b293-5bdc3f0b15a8"},"vehicle_type_id":"4","last_reported":1699815873,"current_range_meters":8000,"station_id":"ce4bh312rcd13ifvqdj0","pricing_plan_id":"free"},{"bike_id":"f5c47b0e-b131-49d4-87fc-f6e3ff56ae04","system_id":"levelo_inurba_marseille","lat":43.286595,"lon":5.386795,"is_reserved":false,"is_disabled":false,"rental_uris":{"android":"levelo://app?vid=f5c47b0e-b131-49d4-87fc-f6e3ff56ae04","ios":"levelo://app?vid=f5c47b0e-b131-49d4-87fc-f6e3ff56ae04"},"vehicle_type_id":"4","last_reported":1699815873,"current_range_meters":14000,"station_id":"ce4bh492rcd13ifvqdug","pricing_plan_id":"free"},{"bike_id":"030625bd-f8ba-4389-9944-df2973894a22","system_id":"levelo_inurba_marseille","lat":43.325731,"lon":5.404186,"is_reserved":false,"is_disabled":false,"rental_uris":{"android":"levelo://app?vid=030625bd-f8ba-4389-9944-df2973894a22","ios":"levelo://app?vid=030625bd-f8ba-4389-9944-df2973894a22"},"vehicle_type_id":"4","last_reported":1699815873,"current_range_meters":0,"station_id":"","pricing_plan_id":"free"},{"bike_id":"dcdaa1e1-4909-46b4-8da4-f2b0beba29ce","system_id":"levelo_inurba_marseille","lat":43.323414,"lon":5.406178,"is_reserved":false,"is_disabled":false,"rental_uris":{"android":"levelo://app?vid=dcdaa1e1-4909-46b4-8da4-f2b0beba29ce","ios":"levelo://app?vid=dcdaa1e1-4909-46b4-8da4-f2b0beba29ce"},"vehicle_type_id":"4","last_reported":1699815873,"current_range_meters":0,"station_id":"ce4bhq92rcd13ifvqhjg","pricing_plan_id":"free"},{"bike_id":"fd4453ca-443e-40fb-8cb1-027f379fdf21","system_id":"levelo_inurba_marseille","lat":43.33717,"lon":5.391857,"is_reserved":false,"is_disabled":false,"rental_uris":{"android":"levelo://app?vid=fd4453ca-443e-40fb-8cb1-027f379fdf21","ios":"levelo://app?vid=fd4453ca-443e-40fb-8cb1-027f379fdf21"},"vehicle_type_id":"4","last_reported":1699815873,"current_range_meters":30800,"station_id":"ce4bhr92rcd13ifvqhsg","pricing_plan_id":"free"},{"bike_id":"a18ff10d-80b5-4527-9c0f-149663d36b04","system_id":"levelo_inurba_marseille","lat":43.28863,"lon":5.39318,"is_reserved":false,"is_disabled":false,"rental_uris":{"android":"levelo://app?vid=a18ff10d-80b5-4527-9c0f-149663d36b04","ios":"levelo://app?vid=a18ff10d-80b5-4527-9c0f-149663d36b04"},"vehicle_type_id":"4","last_reported":1699815873,"current_range_meters":0,"station_id":"ce4bh2p2rcd13ifvqdi0","pricing_plan_id":"free"},{"bike_id":"a6fb7391-fb62-4f7f-8bbe-97b754a7fda4","system_id":"levelo_inurba_marseille","lat":43.288497,"lon":5.393089,"is_reserved":false,"is_disabled":false,"rental_uris":{"android":"levelo://app?vid=a6fb7391-fb62-4f7f-8bbe-97b754a7fda4","ios":"levelo://app?vid=a6fb7391-fb62-4f7f-8bbe-97b754a7fda4"},"vehicle_type_id":"4","last_reported":1699815873,"current_range_meters":14800,"station_id":"ce4bh2p2rcd13ifvqdi0","pricing_plan_id":"free"},{"bike_id":"694cc18d-6823-481a-9d09-67d990c2d197","system_id":"levelo_inurba_marseille","lat":43.324289,"lon":5.407562,"is_reserved":false,"is_disabled":false,"rental_uris":{"android":"levelo://app?vid=694cc18d-6823-481a-9d09-67d990c2d197","ios":"levelo://app?vid=694cc18d-6823-481a-9d09-67d990c2d197"},"vehicle_type_id":"4","last_reported":1699815873,"current_range_meters":0,"station_id":"","pricing_plan_id":"free"},{"bike_id":"131bab49-b40d-4c0f-8c62-d66d07e6b705","system_id":"levelo_inurba_marseille","lat":43.2928,"lon":5.40122,"is_reserved":false,"is_disabled":false,"rental_uris":{"android":"levelo://app?vid=131bab49-b40d-4c0f-8c62-d66d07e6b705","ios":"levelo://app?vid=131bab49-b40d-4c0f-8c62-d66d07e6b705"},"vehicle_type_id":"4","last_reported":1699815873,"current_range_meters":8400,"station_id":"ce4bh312rcd13ifvqdk0","pricing_plan_id":"free"},{"bike_id":"acc773b2-7934-474b-9479-9483cccb7540","system_id":"levelo_inurba_marseille","lat":43.292658,"lon":5.401195,"is_reserved":false,"is_disabled":false,"rental_uris":{"android":"levelo://app?vid=acc773b2-7934-474b-9479-9483cccb7540","ios":"levelo://app?vid=acc773b2-7934-474b-9479-9483cccb7540"},"vehicle_type_id":"4","last_reported":1699815873,"current_range_meters":0,"station_id":"ce4bh312rcd13ifvqdk0","pricing_plan_id":"free"},{"bike_id":"3c1d2216-dc25-4ca9-9467-a8aa53c1dc34","system_id":"levelo_inurba_marseille","lat":43.33824,"lon":5.3939,"is_reserved":false,"is_disabled":false,"rental_uris":{"android":"levelo://app?vid=3c1d2216-dc25-4ca9-9467-a8aa53c1dc34","ios":"levelo://app?vid=3c1d2216-dc25-4ca9-9467-a8aa53c1dc34"},"vehicle_type_id":"4","last_reported":1699815873,"current_range_meters":29600,"station_id":"","pricing_plan_id":"free"},{"bike_id":"97e13059-b5ac-4348-a1ee-e7b25fe82097","system_id":"levelo_inurba_marseille","lat":43.282754,"lon":5.350519,"is_reserved":false,"is_disabled":false,"rental_uris":{"android":"levelo://app?vid=97e13059-b5ac-4348-a1ee-e7b25fe82097","ios":"levelo://app?vid=97e13059-b5ac-4348-a1ee-e7b25fe82097"},"vehicle_type_id":"4","last_reported":1699815873,"current_range_meters":29200,"station_id":"ce4bhbp2rcd13ifvqerg","pricing_plan_id":"free"},{"bike_id":"66ac49fe-799c-43c5-a9e1-d985710829df","system_id":"levelo_inurba_marseille","lat":43.28039,"lon":5.369297,"is_reserved":false,"is_disabled":false,"rental_uris":{"android":"levelo://app?vid=66ac49fe-799c-43c5-a9e1-d985710829df","ios":"levelo://app?vid=66ac49fe-799c-43c5-a9e1-d985710829df"},"vehicle_type_id":"4","last_reported":1699815873,"current_range_meters":12800,"station_id":"ce4bha12rcd13ifvqef0","pricing_plan_id":"free"},{"bike_id":"aca06aa9-66bc-4367-a736-4ce3c2a4136c","system_id":"levelo_inurba_marseille","lat":43.28039,"lon":5.369297,"is_reserved":false,"is_disabled":false,"rental_uris":{"android":"levelo://app?vid=aca06aa9-66bc-4367-a736-4ce3c2a4136c","ios":"levelo://app?vid=aca06aa9-66bc-4367-a736-4ce3c2a4136c"},"vehicle_type_id":"4","last_reported":1699815873,"current_range_meters":14800,"station_id":"ce4bha12rcd13ifvqef0","pricing_plan_id":"free"},{"bike_id":"3e7a424f-7a9c-4abb-9809-b22b7112b800","system_id":"levelo_inurba_marseille","lat":43.28039,"lon":5.369297,"is_reserved":false,"is_disabled":false,"rental_uris":{"android":"levelo://app?vid=3e7a424f-7a9c-4abb-9809-b22b7112b800","ios":"levelo://app?vid=3e7a424f-7a9c-4abb-9809-b22b7112b800"},"vehicle_type_id":"4","last_reported":1699815873,"current_range_meters":26400,"station_id":"ce4bha12rcd13ifvqef0","pricing_plan_id":"free"},{"bike_id":"306ce30b-0394-4b3d-99bd-d86313430757","system_id":"levelo_inurba_marseille","lat":43.290412,"lon":5.399633,"is_reserved":false,"is_disabled":false,"rental_uris":{"android":"levelo://app?vid=306ce30b-0394-4b3d-99bd-d86313430757","ios":"levelo://app?vid=306ce30b-0394-4b3d-99bd-d86313430757"},"vehicle_type_id":"4","last_reported":1699815873,"current_range_meters":20400,"station_id":"ce4bh392rcd13ifvqdm0","pricing_plan_id":"free"},{"bike_id":"22d4eca9-d1d4-4f41-a0d3-bf612cb95de0","system_id":"levelo_inurba_marseille","lat":43.29041,"lon":5.399634,"is_reserved":false,"is_disabled":false,"rental_uris":{"android":"levelo://app?vid=22d4eca9-d1d4-4f41-a0d3-bf612cb95de0","ios":"levelo://app?vid=22d4eca9-d1d4-4f41-a0d3-bf612cb95de0"},"vehicle_type_id":"4","last_reported":1699815873,"current_range_meters":24800,"station_id":"ce4bh392rcd13ifvqdm0","pricing_plan_id":"free"},{"bike_id":"bf1dda2b-9dd4-4250-8f81-b890a4710215","system_id":"levelo_inurba_marseille","lat":43.281044,"lon":5.378308,"is_reserved":false,"is_disabled":false,"rental_uris":{"android":"levelo://app?vid=bf1dda2b-9dd4-4250-8f81-b890a4710215","ios":"levelo://app?vid=bf1dda2b-9dd4-4250-8f81-b890a4710215"},"vehicle_type_id":"4","last_reported":1699815873,"current_range_meters":28800,"station_id":"ce4bha12rcd13ifvqee0","pricing_plan_id":"free"},{"bike_id":"8a5a8df1-cd7b-4a4f-b199-c40e777058ca","system_id":"levelo_inurba_marseille","lat":43.281044,"lon":5.378308,"is_reserved":false,"is_disabled":false,"rental_uris":{"android":"levelo://app?vid=8a5a8df1-cd7b-4a4f-b199-c40e777058ca","ios":"levelo://app?vid=8a5a8df1-cd7b-4a4f-b199-c40e777058ca"},"vehicle_type_id":"4","last_reported":1699815873,"current_range_meters":4000,"station_id":"ce4bha12rcd13ifvqee0","pricing_plan_id":"free"},{"bike_id":"2d817461-c69a-4cbd-b707-0e4b76b807f8","system_id":"levelo_inurba_marseille","lat":43.281044,"lon":5.378308,"is_reserved":false,"is_disabled":false,"rental_uris":{"android":"levelo://app?vid=2d817461-c69a-4cbd-b707-0e4b76b807f8","ios":"levelo://app?vid=2d817461-c69a-4cbd-b707-0e4b76b807f8"},"vehicle_type_id":"4","last_reported":1699815873,"current_range_meters":2400,"station_id":"ce4bha12rcd13ifvqee0","pricing_plan_id":"free"},{"bike_id":"35bfd768-a64c-4243-8a48-f57b3d5fc036","system_id":"levelo_inurba_marseille","lat":43.280991,"lon":5.37841,"is_reserved":false,"is_disabled":false,"rental_uris":{"android":"levelo://app?vid=35bfd768-a64c-4243-8a48-f57b3d5fc036","ios":"levelo://app?vid=35bfd768-a64c-4243-8a48-f57b3d5fc036"},"vehicle_type_id":"4","last_reported":1699815873,"current_range_meters":2800,"station_id":"ce4bha12rcd13ifvqee0","pricing_plan_id":"free"},{"bike_id":"2d93e3ad-4f91-4709-9f87-d447ebb78ec3","system_id":"levelo_inurba_marseille","lat":43.28093,"lon":5.37843,"is_reserved":false,"is_disabled":false,"rental_uris":{"android":"levelo://app?vid=2d93e3ad-4f91-4709-9f87-d447ebb78ec3","ios":"levelo://app?vid=2d93e3ad-4f91-4709-9f87-d447ebb78ec3"},"vehicle_type_id":"4","last_reported":1699815873,"current_range_meters":4000,"station_id":"ce4bha12rcd13ifvqee0","pricing_plan_id":"free"},{"bike_id":"c5269fde-c094-4163-a2ac-a6350e774e3c","system_id":"levelo_inurba_marseille","lat":43.323447,"lon":5.41003,"is_reserved":false,"is_disabled":false,"rental_uris":{"android":"levelo://app?vid=c5269fde-c094-4163-a2ac-a6350e774e3c","ios":"levelo://app?vid=c5269fde-c094-4163-a2ac-a6350e774e3c"},"vehicle_type_id":"4","last_reported":1699815873,"current_range_meters":800,"station_id":"","pricing_plan_id":"free"},{"bike_id":"f3d4c74b-24d0-4762-b960-0523d7a45fd5","system_id":"levelo_inurba_marseille","lat":43.284462,"lon":5.392121,"is_reserved":false,"is_disabled":false,"rental_uris":{"android":"levelo://app?vid=f3d4c74b-24d0-4762-b960-0523d7a45fd5","ios":"levelo://app?vid=f3d4c74b-24d0-4762-b960-0523d7a45fd5"},"vehicle_type_id":"4","last_reported":1699815873,"current_range_meters":17200,"station_id":"ce4bhoh2rcd13ifvqh5g","pricing_plan_id":"free"},{"bike_id":"a5fb101e-c8ad-4eaa-80a2-c663b07d75dd","system_id":"levelo_inurba_marseille","lat":43.284462,"lon":5.392121,"is_reserved":false,"is_disabled":false,"rental_uris":{"android":"levelo://app?vid=a5fb101e-c8ad-4eaa-80a2-c663b07d75dd","ios":"levelo://app?vid=a5fb101e-c8ad-4eaa-80a2-c663b07d75dd"},"vehicle_type_id":"4","last_reported":1699815873,"current_range_meters":31200,"station_id":"ce4bhoh2rcd13ifvqh5g","pricing_plan_id":"free"},{"bike_id":"5f800b2e-4fa7-442b-a1af-385e3d6c3002","system_id":"levelo_inurba_marseille","lat":43.284462,"lon":5.392121,"is_reserved":false,"is_disabled":false,"rental_uris":{"android":"levelo://app?vid=5f800b2e-4fa7-442b-a1af-385e3d6c3002","ios":"levelo://app?vid=5f800b2e-4fa7-442b-a1af-385e3d6c3002"},"vehicle_type_id":"4","last_reported":1699815873,"current_range_meters":16000,"station_id":"ce4bhoh2rcd13ifvqh5g","pricing_plan_id":"free"},{"bike_id":"9042e460-8045-4344-8c31-d52e7d1bafd7","system_id":"levelo_inurba_marseille","lat":43.284383,"lon":5.39197,"is_reserved":false,"is_disabled":false,"rental_uris":{"android":"levelo://app?vid=9042e460-8045-4344-8c31-d52e7d1bafd7","ios":"levelo://app?vid=9042e460-8045-4344-8c31-d52e7d1bafd7"},"vehicle_type_id":"4","last_reported":1699815873,"current_range_meters":18400,"station_id":"ce4bhoh2rcd13ifvqh5g","pricing_plan_id":"free"},{"bike_id":"8614978e-3800-411b-94e5-70c161d3a90f","system_id":"levelo_inurba_marseille","lat":43.284388,"lon":5.392035,"is_reserved":false,"is_disabled":false,"rental_uris":{"android":"levelo://app?vid=8614978e-3800-411b-94e5-70c161d3a90f","ios":"levelo://app?vid=8614978e-3800-411b-94e5-70c161d3a90f"},"vehicle_type_id":"4","last_reported":1699815873,"current_range_meters":25600,"station_id":"ce4bhoh2rcd13ifvqh5g","pricing_plan_id":"free"},{"bike_id":"f73768ae-26e7-4a93-b440-a40ef6fba1d0","system_id":"levelo_inurba_marseille","lat":43.284313,"lon":5.391875,"is_reserved":false,"is_disabled":false,"rental_uris":{"android":"levelo://app?vid=f73768ae-26e7-4a93-b440-a40ef6fba1d0","ios":"levelo://app?vid=f73768ae-26e7-4a93-b440-a40ef6fba1d0"},"vehicle_type_id":"4","last_reported":1699815873,"current_range_meters":20800,"station_id":"ce4bhoh2rcd13ifvqh5g","pricing_plan_id":"free"},{"bike_id":"2b2d2ba9-21a8-4b2b-b7fa-0f1c682b82b6","system_id":"levelo_inurba_marseille","lat":43.28434,"lon":5.39212,"is_reserved":false,"is_disabled":false,"rental_uris":{"android":"levelo://app?vid=2b2d2ba9-21a8-4b2b-b7fa-0f1c682b82b6","ios":"levelo://app?vid=2b2d2ba9-21a8-4b2b-b7fa-0f1c682b82b6"},"vehicle_type_id":"4","last_reported":1699815873,"current_range_meters":17600,"station_id":"ce4bhoh2rcd13ifvqh5g","pricing_plan_id":"free"},{"bike_id":"ccf9b17e-2fb6-47d5-b5cb-73ea08fcb6e5","system_id":"levelo_inurba_marseille","lat":43.28575,"lon":5.39498,"is_reserved":false,"is_disabled":false,"rental_uris":{"android":"levelo://app?vid=ccf9b17e-2fb6-47d5-b5cb-73ea08fcb6e5","ios":"levelo://app?vid=ccf9b17e-2fb6-47d5-b5cb-73ea08fcb6e5"},"vehicle_type_id":"4","last_reported":1699815873,"current_range_meters":23200,"station_id":"ce4bh292rcd13ifvqdg0","pricing_plan_id":"free"},{"bike_id":"44f87d45-4c30-4be0-a61d-c795b7b0ad56","system_id":"levelo_inurba_marseille","lat":43.30418,"lon":5.41289,"is_reserved":false,"is_disabled":false,"rental_uris":{"android":"levelo://app?vid=44f87d45-4c30-4be0-a61d-c795b7b0ad56","ios":"levelo://app?vid=44f87d45-4c30-4be0-a61d-c795b7b0ad56"},"vehicle_type_id":"4","last_reported":1699815873,"current_range_meters":0,"station_id":"ce4bhop2rcd13ifvqh8g","pricing_plan_id":"free"},{"bike_id":"647befc7-09f8-4d0c-90f2-a599597e5fe2","system_id":"levelo_inurba_marseille","lat":43.287154,"lon":5.399979,"is_reserved":false,"is_disabled":false,"rental_uris":{"android":"levelo://app?vid=647befc7-09f8-4d0c-90f2-a599597e5fe2","ios":"levelo://app?vid=647befc7-09f8-4d0c-90f2-a599597e5fe2"},"vehicle_type_id":"4","last_reported":1699815873,"current_range_meters":8000,"station_id":"ce4bho92rcd13ifvqh3g","pricing_plan_id":"free"},{"bike_id":"97bb9c26-0c69-424d-a9ab-dd74b00608a0","system_id":"levelo_inurba_marseille","lat":43.287154,"lon":5.399979,"is_reserved":false,"is_disabled":false,"rental_uris":{"android":"levelo://app?vid=97bb9c26-0c69-424d-a9ab-dd74b00608a0","ios":"levelo://app?vid=97bb9c26-0c69-424d-a9ab-dd74b00608a0"},"vehicle_type_id":"4","last_reported":1699815873,"current_range_meters":11200,"station_id":"ce4bho92rcd13ifvqh3g","pricing_plan_id":"free"},{"bike_id":"feca28d2-7019-4e39-96be-d7938cc29597","system_id":"levelo_inurba_marseille","lat":43.32435,"lon":5.4137,"is_reserved":false,"is_disabled":false,"rental_uris":{"android":"levelo://app?vid=feca28d2-7019-4e39-96be-d7938cc29597","ios":"levelo://app?vid=feca28d2-7019-4e39-96be-d7938cc29597"},"vehicle_type_id":"4","last_reported":1699815873,"current_range_meters":16800,"station_id":"","pricing_plan_id":"free"},{"bike_id":"15988bd8-c593-4766-a448-17b9550bf979","system_id":"levelo_inurba_marseille","lat":43.299579,"lon":5.413255,"is_reserved":false,"is_disabled":false,"rental_uris":{"android":"levelo://app?vid=15988bd8-c593-4766-a448-17b9550bf979","ios":"levelo://app?vid=15988bd8-c593-4766-a448-17b9550bf979"},"vehicle_type_id":"4","last_reported":1699815873,"current_range_meters":29200,"station_id":"ce4bhp12rcd13ifvqh9g","pricing_plan_id":"free"},{"bike_id":"53059404-70ba-4fa4-8212-a7639c29202a","system_id":"levelo_inurba_marseille","lat":43.299577,"lon":5.413277,"is_reserved":false,"is_disabled":false,"rental_uris":{"android":"levelo://app?vid=53059404-70ba-4fa4-8212-a7639c29202a","ios":"levelo://app?vid=53059404-70ba-4fa4-8212-a7639c29202a"},"vehicle_type_id":"4","last_reported":1699815873,"current_range_meters":30000,"station_id":"ce4bhp12rcd13ifvqh9g","pricing_plan_id":"free"},{"bike_id":"22af7a98-e53f-486d-ae1c-b0437af23ee0","system_id":"levelo_inurba_marseille","lat":43.279742,"lon":5.38744,"is_reserved":false,"is_disabled":false,"rental_uris":{"android":"levelo://app?vid=22af7a98-e53f-486d-ae1c-b0437af23ee0","ios":"levelo://app?vid=22af7a98-e53f-486d-ae1c-b0437af23ee0"},"vehicle_type_id":"4","last_reported":1699815873,"current_range_meters":27600,"station_id":"ce4bhg12rcd13ifvqf80","pricing_plan_id":"free"},{"bike_id":"fed9c799-7f53-43fb-947e-d7b392ceca56","system_id":"levelo_inurba_marseille","lat":43.320277,"lon":5.415752,"is_reserved":false,"is_disabled":false,"rental_uris":{"android":"levelo://app?vid=fed9c799-7f53-43fb-947e-d7b392ceca56","ios":"levelo://app?vid=fed9c799-7f53-43fb-947e-d7b392ceca56"},"vehicle_type_id":"4","last_reported":1699815873,"current_range_meters":0,"station_id":"ce4bhq92rcd13ifvqhkg","pricing_plan_id":"free"},{"bike_id":"2eeb5ff6-9ee3-45b6-addc-e317622e470b","system_id":"levelo_inurba_marseille","lat":43.27618,"lon":5.36115,"is_reserved":false,"is_disabled":false,"rental_uris":{"android":"levelo://app?vid=2eeb5ff6-9ee3-45b6-addc-e317622e470b","ios":"levelo://app?vid=2eeb5ff6-9ee3-45b6-addc-e317622e470b"},"vehicle_type_id":"4","last_reported":1699815873,"current_range_meters":31200,"station_id":"ce4bgj92rcd13ifvqbe0","pricing_plan_id":"free"},{"bike_id":"0ff41da9-75cd-4993-a8c3-ca5ec8279bb7","system_id":"levelo_inurba_marseille","lat":43.27617,"lon":5.36111,"is_reserved":false,"is_disabled":false,"rental_uris":{"android":"levelo://app?vid=0ff41da9-75cd-4993-a8c3-ca5ec8279bb7","ios":"levelo://app?vid=0ff41da9-75cd-4993-a8c3-ca5ec8279bb7"},"vehicle_type_id":"4","last_reported":1699815873,"current_range_meters":26800,"station_id":"ce4bgj92rcd13ifvqbe0","pricing_plan_id":"free"},{"bike_id":"1be15253-f3e5-4bee-ba8b-f0d2af409127","system_id":"levelo_inurba_marseille","lat":43.278399,"lon":5.392139,"is_reserved":false,"is_disabled":false,"rental_uris":{"android":"levelo://app?vid=1be15253-f3e5-4bee-ba8b-f0d2af409127","ios":"levelo://app?vid=1be15253-f3e5-4bee-ba8b-f0d2af409127"},"vehicle_type_id":"4","last_reported":1699815873,"current_range_meters":18400,"station_id":"ce4bhjp2rcd13ifvqga0","pricing_plan_id":"free"},{"bike_id":"49695ef2-e6a6-4f51-991d-10b26dc52ea0","system_id":"levelo_inurba_marseille","lat":43.278399,"lon":5.392139,"is_reserved":false,"is_disabled":false,"rental_uris":{"android":"levelo://app?vid=49695ef2-e6a6-4f51-991d-10b26dc52ea0","ios":"levelo://app?vid=49695ef2-e6a6-4f51-991d-10b26dc52ea0"},"vehicle_type_id":"4","last_reported":1699815873,"current_range_meters":13600,"station_id":"ce4bhjp2rcd13ifvqga0","pricing_plan_id":"free"},{"bike_id":"7f2cde04-d1a1-4a00-95b2-912034a998da","system_id":"levelo_inurba_marseille","lat":43.275625,"lon":5.384392,"is_reserved":false,"is_disabled":false,"rental_uris":{"android":"levelo://app?vid=7f2cde04-d1a1-4a00-95b2-912034a998da","ios":"levelo://app?vid=7f2cde04-d1a1-4a00-95b2-912034a998da"},"vehicle_type_id":"4","last_reported":1699815873,"current_range_meters":7600,"station_id":"ce4bhh92rcd13ifvqfi0","pricing_plan_id":"free"},{"bike_id":"d1fed41e-e669-47d5-bac9-595485afb32a","system_id":"levelo_inurba_marseille","lat":43.276771,"lon":5.388799,"is_reserved":false,"is_disabled":false,"rental_uris":{"android":"levelo://app?vid=d1fed41e-e669-47d5-bac9-595485afb32a","ios":"levelo://app?vid=d1fed41e-e669-47d5-bac9-595485afb32a"},"vehicle_type_id":"4","last_reported":1699815873,"current_range_meters":11600,"station_id":"ce4bhi12rcd13ifvqfo0","pricing_plan_id":"free"},{"bike_id":"fd9bedd4-6f10-46d5-9ff2-7a887c5e8ebe","system_id":"levelo_inurba_marseille","lat":43.29826,"lon":5.41905,"is_reserved":false,"is_disabled":false,"rental_uris":{"android":"levelo://app?vid=fd9bedd4-6f10-46d5-9ff2-7a887c5e8ebe","ios":"levelo://app?vid=fd9bedd4-6f10-46d5-9ff2-7a887c5e8ebe"},"vehicle_type_id":"4","last_reported":1699815873,"current_range_meters":13600,"station_id":"","pricing_plan_id":"free"},{"bike_id":"f6e400c1-a691-4744-adc6-c2c837428005","system_id":"levelo_inurba_marseille","lat":43.279952,"lon":5.400085,"is_reserved":false,"is_disabled":false,"rental_uris":{"android":"levelo://app?vid=f6e400c1-a691-4744-adc6-c2c837428005","ios":"levelo://app?vid=f6e400c1-a691-4744-adc6-c2c837428005"},"vehicle_type_id":"4","last_reported":1699815873,"current_range_meters":30800,"station_id":"ce4bho92rcd13ifvqh4g","pricing_plan_id":"free"},{"bike_id":"e6c72948-8cdf-4804-9295-0ce169d77b44","system_id":"levelo_inurba_marseille","lat":43.279952,"lon":5.400085,"is_reserved":false,"is_disabled":false,"rental_uris":{"android":"levelo://app?vid=e6c72948-8cdf-4804-9295-0ce169d77b44","ios":"levelo://app?vid=e6c72948-8cdf-4804-9295-0ce169d77b44"},"vehicle_type_id":"4","last_reported":1699815873,"current_range_meters":15600,"station_id":"ce4bho92rcd13ifvqh4g","pricing_plan_id":"free"},{"bike_id":"a5f97c79-5f7d-401b-b9aa-59a0d17cd4f6","system_id":"levelo_inurba_marseille","lat":43.274103,"lon":5.394016,"is_reserved":false,"is_disabled":false,"rental_uris":{"android":"levelo://app?vid=a5f97c79-5f7d-401b-b9aa-59a0d17cd4f6","ios":"levelo://app?vid=a5f97c79-5f7d-401b-b9aa-59a0d17cd4f6"},"vehicle_type_id":"4","last_reported":1699815873,"current_range_meters":19200,"station_id":"ce4bhdp2rcd13ifvqf20","pricing_plan_id":"free"},{"bike_id":"80d6d771-4d52-4ca0-9269-cf87547ab1c2","system_id":"levelo_inurba_marseille","lat":43.273129,"lon":5.390725,"is_reserved":false,"is_disabled":false,"rental_uris":{"android":"levelo://app?vid=80d6d771-4d52-4ca0-9269-cf87547ab1c2","ios":"levelo://app?vid=80d6d771-4d52-4ca0-9269-cf87547ab1c2"},"vehicle_type_id":"4","last_reported":1699815873,"current_range_meters":4800,"station_id":"ce4bhgp2rcd13ifvqfe0","pricing_plan_id":"free"},{"bike_id":"272107bc-add3-448b-818c-2ceff32f54bd","system_id":"levelo_inurba_marseille","lat":43.274099,"lon":5.394019,"is_reserved":false,"is_disabled":false,"rental_uris":{"android":"levelo://app?vid=272107bc-add3-448b-818c-2ceff32f54bd","ios":"levelo://app?vid=272107bc-add3-448b-818c-2ceff32f54bd"},"vehicle_type_id":"4","last_reported":1699815873,"current_range_meters":25600,"station_id":"ce4bhdp2rcd13ifvqf20","pricing_plan_id":"free"},{"bike_id":"56fc6c2c-64c4-4cbc-b368-c965f0c371ee","system_id":"levelo_inurba_marseille","lat":43.295523,"lon":5.422926,"is_reserved":false,"is_disabled":false,"rental_uris":{"android":"levelo://app?vid=56fc6c2c-64c4-4cbc-b368-c965f0c371ee","ios":"levelo://app?vid=56fc6c2c-64c4-4cbc-b368-c965f0c371ee"},"vehicle_type_id":"4","last_reported":1699815873,"current_range_meters":31600,"station_id":"ce4bhph2rcd13ifvqhdg","pricing_plan_id":"free"},{"bike_id":"f60a6620-b220-4861-83c1-af0a208e6fac","system_id":"levelo_inurba_marseille","lat":43.295523,"lon":5.422926,"is_reserved":false,"is_disabled":false,"rental_uris":{"android":"levelo://app?vid=f60a6620-b220-4861-83c1-af0a208e6fac","ios":"levelo://app?vid=f60a6620-b220-4861-83c1-af0a208e6fac"},"vehicle_type_id":"4","last_reported":1699815873,"current_range_meters":24400,"station_id":"ce4bhph2rcd13ifvqhdg","pricing_plan_id":"free"},{"bike_id":"fc23ceec-b45a-4766-9c80-384d82439159","system_id":"levelo_inurba_marseille","lat":43.295511,"lon":5.422926,"is_reserved":false,"is_disabled":false,"rental_uris":{"android":"levelo://app?vid=fc23ceec-b45a-4766-9c80-384d82439159","ios":"levelo://app?vid=fc23ceec-b45a-4766-9c80-384d82439159"},"vehicle_type_id":"4","last_reported":1699815873,"current_range_meters":26800,"station_id":"ce4bhph2rcd13ifvqhdg","pricing_plan_id":"free"},{"bike_id":"4aa2e5ec-9993-463f-9603-2c9f0a0bea8a","system_id":"levelo_inurba_marseille","lat":43.295511,"lon":5.422926,"is_reserved":false,"is_disabled":false,"rental_uris":{"android":"levelo://app?vid=4aa2e5ec-9993-463f-9603-2c9f0a0bea8a","ios":"levelo://app?vid=4aa2e5ec-9993-463f-9603-2c9f0a0bea8a"},"vehicle_type_id":"4","last_reported":1699815873,"current_range_meters":14400,"station_id":"ce4bhph2rcd13ifvqhdg","pricing_plan_id":"free"},{"bike_id":"e28b55a9-90d8-469f-81f7-4f042dfbe1cd","system_id":"levelo_inurba_marseille","lat":43.272116,"lon":5.391763,"is_reserved":false,"is_disabled":false,"rental_uris":{"android":"levelo://app?vid=e28b55a9-90d8-469f-81f7-4f042dfbe1cd","ios":"levelo://app?vid=e28b55a9-90d8-469f-81f7-4f042dfbe1cd"},"vehicle_type_id":"4","last_reported":1699815873,"current_range_meters":3200,"station_id":"ce4bhhp2rcd13ifvqfm0","pricing_plan_id":"free"},{"bike_id":"c6039417-4251-4691-9d01-9d79b0b52fb2","system_id":"levelo_inurba_marseille","lat":43.272124,"lon":5.391768,"is_reserved":false,"is_disabled":false,"rental_uris":{"android":"levelo://app?vid=c6039417-4251-4691-9d01-9d79b0b52fb2","ios":"levelo://app?vid=c6039417-4251-4691-9d01-9d79b0b52fb2"},"vehicle_type_id":"4","last_reported":1699815873,"current_range_meters":8400,"station_id":"ce4bhhp2rcd13ifvqfm0","pricing_plan_id":"free"},{"bike_id":"6d9289d7-7903-4242-90a4-d291f4ed4153","system_id":"levelo_inurba_marseille","lat":43.27216,"lon":5.39256,"is_reserved":false,"is_disabled":false,"rental_uris":{"android":"levelo://app?vid=6d9289d7-7903-4242-90a4-d291f4ed4153","ios":"levelo://app?vid=6d9289d7-7903-4242-90a4-d291f4ed4153"},"vehicle_type_id":"4","last_reported":1699815873,"current_range_meters":10800,"station_id":"","pricing_plan_id":"free"},{"bike_id":"9c86b824-2168-4f46-b290-9c226cef33eb","system_id":"levelo_inurba_marseille","lat":43.27192,"lon":5.39228,"is_reserved":false,"is_disabled":false,"rental_uris":{"android":"levelo://app?vid=9c86b824-2168-4f46-b290-9c226cef33eb","ios":"levelo://app?vid=9c86b824-2168-4f46-b290-9c226cef33eb"},"vehicle_type_id":"4","last_reported":1699815873,"current_range_meters":27600,"station_id":"ce4bhhp2rcd13ifvqfm0","pricing_plan_id":"free"},{"bike_id":"fe75077d-42bf-43ae-8fa2-44109df3d40a","system_id":"levelo_inurba_marseille","lat":43.27203,"lon":5.39295,"is_reserved":false,"is_disabled":false,"rental_uris":{"android":"levelo://app?vid=fe75077d-42bf-43ae-8fa2-44109df3d40a","ios":"levelo://app?vid=fe75077d-42bf-43ae-8fa2-44109df3d40a"},"vehicle_type_id":"4","last_reported":1699815873,"current_range_meters":14400,"station_id":"","pricing_plan_id":"free"},{"bike_id":"6d33365e-54fb-4277-b0ab-52cc40433c36","system_id":"levelo_inurba_marseille","lat":43.278128,"lon":5.407195,"is_reserved":false,"is_disabled":false,"rental_uris":{"android":"levelo://app?vid=6d33365e-54fb-4277-b0ab-52cc40433c36","ios":"levelo://app?vid=6d33365e-54fb-4277-b0ab-52cc40433c36"},"vehicle_type_id":"4","last_reported":1699815873,"current_range_meters":23200,"station_id":"ce4bhnh2rcd13ifvqgtg","pricing_plan_id":"free"},{"bike_id":"6d78c4d2-c39a-4d1f-a73c-e6ba86ebba3a","system_id":"levelo_inurba_marseille","lat":43.269467,"lon":5.386439,"is_reserved":false,"is_disabled":false,"rental_uris":{"android":"levelo://app?vid=6d78c4d2-c39a-4d1f-a73c-e6ba86ebba3a","ios":"levelo://app?vid=6d78c4d2-c39a-4d1f-a73c-e6ba86ebba3a"},"vehicle_type_id":"4","last_reported":1699815873,"current_range_meters":30400,"station_id":"ce4bhh92rcd13ifvqfh0","pricing_plan_id":"free"},{"bike_id":"af7b2563-8c62-4baa-8264-b43f0d75d77e","system_id":"levelo_inurba_marseille","lat":43.269467,"lon":5.386439,"is_reserved":false,"is_disabled":false,"rental_uris":{"android":"levelo://app?vid=af7b2563-8c62-4baa-8264-b43f0d75d77e","ios":"levelo://app?vid=af7b2563-8c62-4baa-8264-b43f0d75d77e"},"vehicle_type_id":"4","last_reported":1699815873,"current_range_meters":6400,"station_id":"ce4bhh92rcd13ifvqfh0","pricing_plan_id":"free"},{"bike_id":"9c14c1f3-5a54-4b04-a3a2-07b6790f2267","system_id":"levelo_inurba_marseille","lat":43.269319,"lon":5.389397,"is_reserved":false,"is_disabled":false,"rental_uris":{"android":"levelo://app?vid=9c14c1f3-5a54-4b04-a3a2-07b6790f2267","ios":"levelo://app?vid=9c14c1f3-5a54-4b04-a3a2-07b6790f2267"},"vehicle_type_id":"4","last_reported":1699815873,"current_range_meters":17200,"station_id":"ce4bhhh2rcd13ifvqfl0","pricing_plan_id":"free"},{"bike_id":"a498a306-170c-4434-a0a8-42cb3b70ad54","system_id":"levelo_inurba_marseille","lat":43.269319,"lon":5.389397,"is_reserved":false,"is_disabled":false,"rental_uris":{"android":"levelo://app?vid=a498a306-170c-4434-a0a8-42cb3b70ad54","ios":"levelo://app?vid=a498a306-170c-4434-a0a8-42cb3b70ad54"},"vehicle_type_id":"4","last_reported":1699815873,"current_range_meters":3600,"station_id":"ce4bhhh2rcd13ifvqfl0","pricing_plan_id":"free"},{"bike_id":"2b59db39-f7b9-4144-a81f-2a7459976f62","system_id":"levelo_inurba_marseille","lat":43.27974,"lon":5.41666,"is_reserved":false,"is_disabled":false,"rental_uris":{"android":"levelo://app?vid=2b59db39-f7b9-4144-a81f-2a7459976f62","ios":"levelo://app?vid=2b59db39-f7b9-4144-a81f-2a7459976f62"},"vehicle_type_id":"4","last_reported":1699815873,"current_range_meters":0,"station_id":"ce4bho12rcd13ifvqh1g","pricing_plan_id":"free"},{"bike_id":"e4a2ea1e-0cba-46fc-8713-2d85f148df36","system_id":"levelo_inurba_marseille","lat":43.27153,"lon":5.40558,"is_reserved":false,"is_disabled":false,"rental_uris":{"android":"levelo://app?vid=e4a2ea1e-0cba-46fc-8713-2d85f148df36","ios":"levelo://app?vid=e4a2ea1e-0cba-46fc-8713-2d85f148df36"},"vehicle_type_id":"4","last_reported":1699815873,"current_range_meters":2400,"station_id":"","pricing_plan_id":"free"},{"bike_id":"575ca992-e936-4074-b7c6-852b3c666dc2","system_id":"levelo_inurba_marseille","lat":43.308051,"lon":5.43527,"is_reserved":false,"is_disabled":false,"rental_uris":{"android":"levelo://app?vid=575ca992-e936-4074-b7c6-852b3c666dc2","ios":"levelo://app?vid=575ca992-e936-4074-b7c6-852b3c666dc2"},"vehicle_type_id":"4","last_reported":1699815873,"current_range_meters":30800,"station_id":"ce4bhph2rcd13ifvqheg","pricing_plan_id":"free"},{"bike_id":"f39776f8-e338-4e5d-8296-2a44b065e822","system_id":"levelo_inurba_marseille","lat":43.30799,"lon":5.43527,"is_reserved":false,"is_disabled":false,"rental_uris":{"android":"levelo://app?vid=f39776f8-e338-4e5d-8296-2a44b065e822","ios":"levelo://app?vid=f39776f8-e338-4e5d-8296-2a44b065e822"},"vehicle_type_id":"4","last_reported":1699815873,"current_range_meters":30800,"station_id":"ce4bhph2rcd13ifvqheg","pricing_plan_id":"free"},{"bike_id":"033771a6-1055-48d2-9826-6454c9f5b3f7","system_id":"levelo_inurba_marseille","lat":43.307944,"lon":5.435292,"is_reserved":false,"is_disabled":false,"rental_uris":{"android":"levelo://app?vid=033771a6-1055-48d2-9826-6454c9f5b3f7","ios":"levelo://app?vid=033771a6-1055-48d2-9826-6454c9f5b3f7"},"vehicle_type_id":"4","last_reported":1699815873,"current_range_meters":400,"station_id":"ce4bhph2rcd13ifvqheg","pricing_plan_id":"free"},{"bike_id":"2aa6c4b1-a67d-43b7-9eb1-fe5b5bec91bf","system_id":"levelo_inurba_marseille","lat":43.32903,"lon":5.43282,"is_reserved":false,"is_disabled":false,"rental_uris":{"android":"levelo://app?vid=2aa6c4b1-a67d-43b7-9eb1-fe5b5bec91bf","ios":"levelo://app?vid=2aa6c4b1-a67d-43b7-9eb1-fe5b5bec91bf"},"vehicle_type_id":"4","last_reported":1699815873,"current_range_meters":8400,"station_id":"","pricing_plan_id":"free"},{"bike_id":"f6a81edb-12fc-4faa-bda2-df72115c0dba","system_id":"levelo_inurba_marseille","lat":43.261782,"lon":5.374515,"is_reserved":false,"is_disabled":false,"rental_uris":{"android":"levelo://app?vid=f6a81edb-12fc-4faa-bda2-df72115c0dba","ios":"levelo://app?vid=f6a81edb-12fc-4faa-bda2-df72115c0dba"},"vehicle_type_id":"4","last_reported":1699815873,"current_range_meters":0,"station_id":"ce4bhgp2rcd13ifvqfc0","pricing_plan_id":"free"},{"bike_id":"cfbf6d8d-381c-43fe-9ed8-d6c956f5fbdb","system_id":"levelo_inurba_marseille","lat":43.317104,"lon":5.436818,"is_reserved":false,"is_disabled":false,"rental_uris":{"android":"levelo://app?vid=cfbf6d8d-381c-43fe-9ed8-d6c956f5fbdb","ios":"levelo://app?vid=cfbf6d8d-381c-43fe-9ed8-d6c956f5fbdb"},"vehicle_type_id":"4","last_reported":1699815873,"current_range_meters":20400,"station_id":"ce4bhp92rcd13ifvqhcg","pricing_plan_id":"free"},{"bike_id":"b2d49cda-f49e-4bbf-bbac-372e27fe7e4f","system_id":"levelo_inurba_marseille","lat":43.271368,"lon":5.40928,"is_reserved":false,"is_disabled":false,"rental_uris":{"android":"levelo://app?vid=b2d49cda-f49e-4bbf-bbac-372e27fe7e4f","ios":"levelo://app?vid=b2d49cda-f49e-4bbf-bbac-372e27fe7e4f"},"vehicle_type_id":"4","last_reported":1699815873,"current_range_meters":25200,"station_id":"ce4bhl12rcd13ifvqgf0","pricing_plan_id":"free"},{"bike_id":"982f2640-dc83-4b0c-ac35-458c9efcd9e1","system_id":"levelo_inurba_marseille","lat":43.271368,"lon":5.40928,"is_reserved":false,"is_disabled":false,"rental_uris":{"android":"levelo://app?vid=982f2640-dc83-4b0c-ac35-458c9efcd9e1","ios":"levelo://app?vid=982f2640-dc83-4b0c-ac35-458c9efcd9e1"},"vehicle_type_id":"4","last_reported":1699815873,"current_range_meters":17600,"station_id":"ce4bhl12rcd13ifvqgf0","pricing_plan_id":"free"},{"bike_id":"37f830c7-7ef2-48bf-a546-636135f99c0d","system_id":"levelo_inurba_marseille","lat":43.271388,"lon":5.409269,"is_reserved":false,"is_disabled":false,"rental_uris":{"android":"levelo://app?vid=37f830c7-7ef2-48bf-a546-636135f99c0d","ios":"levelo://app?vid=37f830c7-7ef2-48bf-a546-636135f99c0d"},"vehicle_type_id":"4","last_reported":1699815873,"current_range_meters":31600,"station_id":"ce4bhl12rcd13ifvqgf0","pricing_plan_id":"free"},{"bike_id":"e3431aef-33d7-4a96-bc9f-00e1c07f5ea1","system_id":"levelo_inurba_marseille","lat":43.271388,"lon":5.409269,"is_reserved":false,"is_disabled":false,"rental_uris":{"android":"levelo://app?vid=e3431aef-33d7-4a96-bc9f-00e1c07f5ea1","ios":"levelo://app?vid=e3431aef-33d7-4a96-bc9f-00e1c07f5ea1"},"vehicle_type_id":"4","last_reported":1699815873,"current_range_meters":18000,"station_id":"ce4bhl12rcd13ifvqgf0","pricing_plan_id":"free"},{"bike_id":"16d50137-9550-4d1e-8092-2c71cc40e76c","system_id":"levelo_inurba_marseille","lat":43.267959,"lon":5.402687,"is_reserved":false,"is_disabled":false,"rental_uris":{"android":"levelo://app?vid=16d50137-9550-4d1e-8092-2c71cc40e76c","ios":"levelo://app?vid=16d50137-9550-4d1e-8092-2c71cc40e76c"},"vehicle_type_id":"4","last_reported":1699815873,"current_range_meters":30400,"station_id":"ce501612rcd8frsf0b60","pricing_plan_id":"free"},{"bike_id":"a13c7f78-1111-4a67-b445-29e3bdbafa23","system_id":"levelo_inurba_marseille","lat":43.29898,"lon":5.4366,"is_reserved":false,"is_disabled":false,"rental_uris":{"android":"levelo://app?vid=a13c7f78-1111-4a67-b445-29e3bdbafa23","ios":"levelo://app?vid=a13c7f78-1111-4a67-b445-29e3bdbafa23"},"vehicle_type_id":"4","last_reported":1699815873,"current_range_meters":29200,"station_id":"ce4bhpp2rcd13ifvqhfg","pricing_plan_id":"free"},{"bike_id":"4f6880f4-3164-4fc2-9cf7-3c1358040f10","system_id":"levelo_inurba_marseille","lat":43.290501,"lon":5.433305,"is_reserved":false,"is_disabled":false,"rental_uris":{"android":"levelo://app?vid=4f6880f4-3164-4fc2-9cf7-3c1358040f10","ios":"levelo://app?vid=4f6880f4-3164-4fc2-9cf7-3c1358040f10"},"vehicle_type_id":"4","last_reported":1699815873,"current_range_meters":14800,"station_id":"","pricing_plan_id":"free"},{"bike_id":"4b5a0676-50d0-46c4-9db0-c5e96c669a87","system_id":"levelo_inurba_marseille","lat":43.281548,"lon":5.42643,"is_reserved":false,"is_disabled":false,"rental_uris":{"android":"levelo://app?vid=4b5a0676-50d0-46c4-9db0-c5e96c669a87","ios":"levelo://app?vid=4b5a0676-50d0-46c4-9db0-c5e96c669a87"},"vehicle_type_id":"4","last_reported":1699815873,"current_range_meters":10000,"station_id":"ce4bhnh2rcd13ifvqgug","pricing_plan_id":"free"},{"bike_id":"63718dfa-4c43-4b68-bbf4-70bc2c3c0c1d","system_id":"levelo_inurba_marseille","lat":43.2607,"lon":5.393983,"is_reserved":false,"is_disabled":false,"rental_uris":{"android":"levelo://app?vid=63718dfa-4c43-4b68-bbf4-70bc2c3c0c1d","ios":"levelo://app?vid=63718dfa-4c43-4b68-bbf4-70bc2c3c0c1d"},"vehicle_type_id":"4","last_reported":1699815873,"current_range_meters":17200,"station_id":"ce4bhh92rcd13ifvqfj0","pricing_plan_id":"free"},{"bike_id":"c21c735f-dc06-4a6d-96ad-7819966d42eb","system_id":"levelo_inurba_marseille","lat":43.2607,"lon":5.393983,"is_reserved":false,"is_disabled":false,"rental_uris":{"android":"levelo://app?vid=c21c735f-dc06-4a6d-96ad-7819966d42eb","ios":"levelo://app?vid=c21c735f-dc06-4a6d-96ad-7819966d42eb"},"vehicle_type_id":"4","last_reported":1699815873,"current_range_meters":8800,"station_id":"ce4bhh92rcd13ifvqfj0","pricing_plan_id":"free"},{"bike_id":"6499b318-5697-46a7-a352-5e6852b4bd89","system_id":"levelo_inurba_marseille","lat":43.275028,"lon":5.424534,"is_reserved":false,"is_disabled":false,"rental_uris":{"android":"levelo://app?vid=6499b318-5697-46a7-a352-5e6852b4bd89","ios":"levelo://app?vid=6499b318-5697-46a7-a352-5e6852b4bd89"},"vehicle_type_id":"4","last_reported":1699815873,"current_range_meters":18800,"station_id":"ce4bhn92rcd13ifvqgrg","pricing_plan_id":"free"},{"bike_id":"39b50ce2-616e-4d24-9a66-7f25ce523b5d","system_id":"levelo_inurba_marseille","lat":43.27493,"lon":5.42455,"is_reserved":false,"is_disabled":false,"rental_uris":{"android":"levelo://app?vid=39b50ce2-616e-4d24-9a66-7f25ce523b5d","ios":"levelo://app?vid=39b50ce2-616e-4d24-9a66-7f25ce523b5d"},"vehicle_type_id":"4","last_reported":1699815873,"current_range_meters":0,"station_id":"ce4bhn92rcd13ifvqgrg","pricing_plan_id":"free"},{"bike_id":"f2307a4c-7611-4db6-b58a-5736d1e13606","system_id":"levelo_inurba_marseille","lat":43.2583,"lon":5.39434,"is_reserved":false,"is_disabled":false,"rental_uris":{"android":"levelo://app?vid=f2307a4c-7611-4db6-b58a-5736d1e13606","ios":"levelo://app?vid=f2307a4c-7611-4db6-b58a-5736d1e13606"},"vehicle_type_id":"4","last_reported":1699815873,"current_range_meters":20800,"station_id":"ce4bhip2rcd13ifvqft0","pricing_plan_id":"free"},{"bike_id":"7a132734-a5d7-4095-9180-58bb099db9a2","system_id":"levelo_inurba_marseille","lat":43.25579,"lon":5.38239,"is_reserved":false,"is_disabled":false,"rental_uris":{"android":"levelo://app?vid=7a132734-a5d7-4095-9180-58bb099db9a2","ios":"levelo://app?vid=7a132734-a5d7-4095-9180-58bb099db9a2"},"vehicle_type_id":"4","last_reported":1699815873,"current_range_meters":18400,"station_id":"ce4bhih2rcd13ifvqfs0","pricing_plan_id":"free"},{"bike_id":"09fb4565-53dc-4aea-b5c5-1e9781581ac0","system_id":"levelo_inurba_marseille","lat":43.258224,"lon":5.394369,"is_reserved":false,"is_disabled":false,"rental_uris":{"android":"levelo://app?vid=09fb4565-53dc-4aea-b5c5-1e9781581ac0","ios":"levelo://app?vid=09fb4565-53dc-4aea-b5c5-1e9781581ac0"},"vehicle_type_id":"4","last_reported":1699815873,"current_range_meters":23200,"station_id":"ce4bhip2rcd13ifvqft0","pricing_plan_id":"free"},{"bike_id":"d1be4948-3db8-46c6-a0e9-4eb9877553a6","system_id":"levelo_inurba_marseille","lat":43.25498,"lon":5.37655,"is_reserved":false,"is_disabled":false,"rental_uris":{"android":"levelo://app?vid=d1be4948-3db8-46c6-a0e9-4eb9877553a6","ios":"levelo://app?vid=d1be4948-3db8-46c6-a0e9-4eb9877553a6"},"vehicle_type_id":"4","last_reported":1699815873,"current_range_meters":18800,"station_id":"ce4bhh12rcd13ifvqff0","pricing_plan_id":"free"},{"bike_id":"10b76d9f-9a56-4d4a-9914-775d3f83d3aa","system_id":"levelo_inurba_marseille","lat":43.254947,"lon":5.376454,"is_reserved":false,"is_disabled":false,"rental_uris":{"android":"levelo://app?vid=10b76d9f-9a56-4d4a-9914-775d3f83d3aa","ios":"levelo://app?vid=10b76d9f-9a56-4d4a-9914-775d3f83d3aa"},"vehicle_type_id":"4","last_reported":1699815873,"current_range_meters":22800,"station_id":"ce4bhh12rcd13ifvqff0","pricing_plan_id":"free"},{"bike_id":"e2168e0f-e560-4623-b3d1-1d6833ae1357","system_id":"levelo_inurba_marseille","lat":43.254947,"lon":5.376454,"is_reserved":false,"is_disabled":false,"rental_uris":{"android":"levelo://app?vid=e2168e0f-e560-4623-b3d1-1d6833ae1357","ios":"levelo://app?vid=e2168e0f-e560-4623-b3d1-1d6833ae1357"},"vehicle_type_id":"4","last_reported":1699815873,"current_range_meters":12800,"station_id":"ce4bhh12rcd13ifvqff0","pricing_plan_id":"free"},{"bike_id":"cce421c9-cbad-426a-b834-a86a3411f32e","system_id":"levelo_inurba_marseille","lat":43.259013,"lon":5.409301,"is_reserved":false,"is_disabled":false,"rental_uris":{"android":"levelo://app?vid=cce421c9-cbad-426a-b834-a86a3411f32e","ios":"levelo://app?vid=cce421c9-cbad-426a-b834-a86a3411f32e"},"vehicle_type_id":"4","last_reported":1699815873,"current_range_meters":7200,"station_id":"ce4bhm92rcd13ifvqglg","pricing_plan_id":"free"},{"bike_id":"7db02a47-f10e-4ef9-b04e-f8faa3c33cca","system_id":"levelo_inurba_marseille","lat":43.25937,"lon":5.4091,"is_reserved":false,"is_disabled":false,"rental_uris":{"android":"levelo://app?vid=7db02a47-f10e-4ef9-b04e-f8faa3c33cca","ios":"levelo://app?vid=7db02a47-f10e-4ef9-b04e-f8faa3c33cca"},"vehicle_type_id":"4","last_reported":1699815873,"current_range_meters":22000,"station_id":"ce4bhm92rcd13ifvqglg","pricing_plan_id":"free"},{"bike_id":"78ae59a3-2b4c-4e3d-8c5c-d320d66437b9","system_id":"levelo_inurba_marseille","lat":43.259009,"lon":5.40929,"is_reserved":false,"is_disabled":false,"rental_uris":{"android":"levelo://app?vid=78ae59a3-2b4c-4e3d-8c5c-d320d66437b9","ios":"levelo://app?vid=78ae59a3-2b4c-4e3d-8c5c-d320d66437b9"},"vehicle_type_id":"4","last_reported":1699815873,"current_range_meters":14000,"station_id":"ce4bhm92rcd13ifvqglg","pricing_plan_id":"free"},{"bike_id":"61eb8050-b458-46cd-83ba-67a164399a1d","system_id":"levelo_inurba_marseille","lat":43.257079,"lon":5.411051,"is_reserved":false,"is_disabled":false,"rental_uris":{"android":"levelo://app?vid=61eb8050-b458-46cd-83ba-67a164399a1d","ios":"levelo://app?vid=61eb8050-b458-46cd-83ba-67a164399a1d"},"vehicle_type_id":"4","last_reported":1699815873,"current_range_meters":20800,"station_id":"ce4bhkp2rcd13ifvqgd0","pricing_plan_id":"free"},{"bike_id":"dae8844e-8f77-4bfc-be48-aa5e7466caae","system_id":"levelo_inurba_marseille","lat":43.24994,"lon":5.38933,"is_reserved":false,"is_disabled":false,"rental_uris":{"android":"levelo://app?vid=dae8844e-8f77-4bfc-be48-aa5e7466caae","ios":"levelo://app?vid=dae8844e-8f77-4bfc-be48-aa5e7466caae"},"vehicle_type_id":"4","last_reported":1699815873,"current_range_meters":0,"station_id":"ce4bhgp2rcd13ifvqfd0","pricing_plan_id":"free"},{"bike_id":"545ac6cc-3ae2-43e9-bffd-7eb25c52fd99","system_id":"levelo_inurba_marseille","lat":43.2479,"lon":5.374457,"is_reserved":false,"is_disabled":false,"rental_uris":{"android":"levelo://app?vid=545ac6cc-3ae2-43e9-bffd-7eb25c52fd99","ios":"levelo://app?vid=545ac6cc-3ae2-43e9-bffd-7eb25c52fd99"},"vehicle_type_id":"4","last_reported":1699815873,"current_range_meters":15200,"station_id":"ce4bhgh2rcd13ifvqfb0","pricing_plan_id":"free"},{"bike_id":"f0223649-6878-443d-99fa-96588e72eddd","system_id":"levelo_inurba_marseille","lat":43.249806,"lon":5.389542,"is_reserved":false,"is_disabled":false,"rental_uris":{"android":"levelo://app?vid=f0223649-6878-443d-99fa-96588e72eddd","ios":"levelo://app?vid=f0223649-6878-443d-99fa-96588e72eddd"},"vehicle_type_id":"4","last_reported":1699815873,"current_range_meters":4400,"station_id":"","pricing_plan_id":"free"},{"bike_id":"62fa1369-a457-41b6-8335-4717139987b4","system_id":"levelo_inurba_marseille","lat":43.250966,"lon":5.395186,"is_reserved":false,"is_disabled":false,"rental_uris":{"android":"levelo://app?vid=62fa1369-a457-41b6-8335-4717139987b4","ios":"levelo://app?vid=62fa1369-a457-41b6-8335-4717139987b4"},"vehicle_type_id":"4","last_reported":1699815873,"current_range_meters":20000,"station_id":"ce4bhm12rcd13ifvqgkg","pricing_plan_id":"free"},{"bike_id":"8dd5a5dd-7bdc-4fa9-b4b6-d3ca8f639788","system_id":"levelo_inurba_marseille","lat":43.250966,"lon":5.395186,"is_reserved":false,"is_disabled":false,"rental_uris":{"android":"levelo://app?vid=8dd5a5dd-7bdc-4fa9-b4b6-d3ca8f639788","ios":"levelo://app?vid=8dd5a5dd-7bdc-4fa9-b4b6-d3ca8f639788"},"vehicle_type_id":"4","last_reported":1699815873,"current_range_meters":0,"station_id":"ce4bhm12rcd13ifvqgkg","pricing_plan_id":"free"},{"bike_id":"dc120590-97c0-4a50-8c0e-c320d9e42db3","system_id":"levelo_inurba_marseille","lat":43.250966,"lon":5.395186,"is_reserved":false,"is_disabled":false,"rental_uris":{"android":"levelo://app?vid=dc120590-97c0-4a50-8c0e-c320d9e42db3","ios":"levelo://app?vid=dc120590-97c0-4a50-8c0e-c320d9e42db3"},"vehicle_type_id":"4","last_reported":1699815873,"current_range_meters":20400,"station_id":"ce4bhm12rcd13ifvqgkg","pricing_plan_id":"free"},{"bike_id":"a2cd2a7d-694c-4b32-8716-0bcea4c423be","system_id":"levelo_inurba_marseille","lat":43.250966,"lon":5.395186,"is_reserved":false,"is_disabled":false,"rental_uris":{"android":"levelo://app?vid=a2cd2a7d-694c-4b32-8716-0bcea4c423be","ios":"levelo://app?vid=a2cd2a7d-694c-4b32-8716-0bcea4c423be"},"vehicle_type_id":"4","last_reported":1699815873,"current_range_meters":2800,"station_id":"ce4bhm12rcd13ifvqgkg","pricing_plan_id":"free"},{"bike_id":"c39b645d-7be1-40e4-9f3c-e991d81ec4d6","system_id":"levelo_inurba_marseille","lat":43.250966,"lon":5.395186,"is_reserved":false,"is_disabled":false,"rental_uris":{"android":"levelo://app?vid=c39b645d-7be1-40e4-9f3c-e991d81ec4d6","ios":"levelo://app?vid=c39b645d-7be1-40e4-9f3c-e991d81ec4d6"},"vehicle_type_id":"4","last_reported":1699815873,"current_range_meters":7200,"station_id":"ce4bhm12rcd13ifvqgkg","pricing_plan_id":"free"},{"bike_id":"70e7b146-b543-45b0-b7d1-09c9ccb26bcb","system_id":"levelo_inurba_marseille","lat":43.250966,"lon":5.395186,"is_reserved":false,"is_disabled":false,"rental_uris":{"android":"levelo://app?vid=70e7b146-b543-45b0-b7d1-09c9ccb26bcb","ios":"levelo://app?vid=70e7b146-b543-45b0-b7d1-09c9ccb26bcb"},"vehicle_type_id":"4","last_reported":1699815873,"current_range_meters":31600,"station_id":"ce4bhm12rcd13ifvqgkg","pricing_plan_id":"free"},{"bike_id":"684b13d1-fe6f-4f2d-b1c8-13bd8d03bc75","system_id":"levelo_inurba_marseille","lat":43.246764,"lon":5.381648,"is_reserved":false,"is_disabled":false,"rental_uris":{"android":"levelo://app?vid=684b13d1-fe6f-4f2d-b1c8-13bd8d03bc75","ios":"levelo://app?vid=684b13d1-fe6f-4f2d-b1c8-13bd8d03bc75"},"vehicle_type_id":"4","last_reported":1699815873,"current_range_meters":30800,"station_id":"ce4bhih2rcd13ifvqfr0","pricing_plan_id":"free"},{"bike_id":"c4a10ebc-05db-4cc6-9d02-56bf19318466","system_id":"levelo_inurba_marseille","lat":43.25102,"lon":5.403214,"is_reserved":false,"is_disabled":false,"rental_uris":{"android":"levelo://app?vid=c4a10ebc-05db-4cc6-9d02-56bf19318466","ios":"levelo://app?vid=c4a10ebc-05db-4cc6-9d02-56bf19318466"},"vehicle_type_id":"4","last_reported":1699815873,"current_range_meters":8800,"station_id":"ce4bhlh2rcd13ifvqgig","pricing_plan_id":"free"},{"bike_id":"496ba75f-e40d-4eff-9d9c-a5945a559922","system_id":"levelo_inurba_marseille","lat":43.2512,"lon":5.40319,"is_reserved":false,"is_disabled":false,"rental_uris":{"android":"levelo://app?vid=496ba75f-e40d-4eff-9d9c-a5945a559922","ios":"levelo://app?vid=496ba75f-e40d-4eff-9d9c-a5945a559922"},"vehicle_type_id":"4","last_reported":1699815873,"current_range_meters":0,"station_id":"ce4bhlh2rcd13ifvqgig","pricing_plan_id":"free"},{"bike_id":"106917c9-569a-4d44-bdd8-9f0ff8949230","system_id":"levelo_inurba_marseille","lat":43.24661,"lon":5.38157,"is_reserved":false,"is_disabled":false,"rental_uris":{"android":"levelo://app?vid=106917c9-569a-4d44-bdd8-9f0ff8949230","ios":"levelo://app?vid=106917c9-569a-4d44-bdd8-9f0ff8949230"},"vehicle_type_id":"4","last_reported":1699815873,"current_range_meters":31200,"station_id":"ce4bhih2rcd13ifvqfr0","pricing_plan_id":"free"},{"bike_id":"f606d215-c3e4-4e5b-b768-5b0af98abe46","system_id":"levelo_inurba_marseille","lat":43.25117,"lon":5.40318,"is_reserved":false,"is_disabled":false,"rental_uris":{"android":"levelo://app?vid=f606d215-c3e4-4e5b-b768-5b0af98abe46","ios":"levelo://app?vid=f606d215-c3e4-4e5b-b768-5b0af98abe46"},"vehicle_type_id":"4","last_reported":1699815873,"current_range_meters":25200,"station_id":"ce4bhlh2rcd13ifvqgig","pricing_plan_id":"free"},{"bike_id":"e04e5d90-c79c-48fb-a118-f5e324f8c61a","system_id":"levelo_inurba_marseille","lat":43.24693,"lon":5.382096,"is_reserved":false,"is_disabled":false,"rental_uris":{"android":"levelo://app?vid=e04e5d90-c79c-48fb-a118-f5e324f8c61a","ios":"levelo://app?vid=e04e5d90-c79c-48fb-a118-f5e324f8c61a"},"vehicle_type_id":"4","last_reported":1699815873,"current_range_meters":30000,"station_id":"ce4bhih2rcd13ifvqfr0","pricing_plan_id":"free"},{"bike_id":"8a24de39-1050-447b-bc2c-649b3c548183","system_id":"levelo_inurba_marseille","lat":43.25115,"lon":5.40324,"is_reserved":false,"is_disabled":false,"rental_uris":{"android":"levelo://app?vid=8a24de39-1050-447b-bc2c-649b3c548183","ios":"levelo://app?vid=8a24de39-1050-447b-bc2c-649b3c548183"},"vehicle_type_id":"4","last_reported":1699815873,"current_range_meters":14400,"station_id":"ce4bhlh2rcd13ifvqgig","pricing_plan_id":"free"},{"bike_id":"0adef68c-f09f-4e0c-ae96-55897cb46be5","system_id":"levelo_inurba_marseille","lat":43.25102,"lon":5.403214,"is_reserved":false,"is_disabled":false,"rental_uris":{"android":"levelo://app?vid=0adef68c-f09f-4e0c-ae96-55897cb46be5","ios":"levelo://app?vid=0adef68c-f09f-4e0c-ae96-55897cb46be5"},"vehicle_type_id":"4","last_reported":1699815873,"current_range_meters":4400,"station_id":"ce4bhlh2rcd13ifvqgig","pricing_plan_id":"free"},{"bike_id":"b0b675ef-ae76-41a0-b86b-417a21b2c8fc","system_id":"levelo_inurba_marseille","lat":43.25113,"lon":5.40323,"is_reserved":false,"is_disabled":false,"rental_uris":{"android":"levelo://app?vid=b0b675ef-ae76-41a0-b86b-417a21b2c8fc","ios":"levelo://app?vid=b0b675ef-ae76-41a0-b86b-417a21b2c8fc"},"vehicle_type_id":"4","last_reported":1699815873,"current_range_meters":22800,"station_id":"ce4bhlh2rcd13ifvqgig","pricing_plan_id":"free"},{"bike_id":"dfb98506-f267-4b2b-997c-a6a7e03e86de","system_id":"levelo_inurba_marseille","lat":43.25102,"lon":5.403214,"is_reserved":false,"is_disabled":false,"rental_uris":{"android":"levelo://app?vid=dfb98506-f267-4b2b-997c-a6a7e03e86de","ios":"levelo://app?vid=dfb98506-f267-4b2b-997c-a6a7e03e86de"},