{"last_updated":1737655946,"ttl":60,"version":"2.2","data":{"bikes":[{"bike_id":"31a4586e-43fc-4f44-96bb-b819c4ad0b51","system_id":"levelo_inurba_marseille","lat":43.23183,"lon":5.39988,"is_reserved":false,"is_disabled":false,"rental_uris":{"android":"levelo://app?vid=31a4586e-43fc-4f44-96bb-b819c4ad0b51","ios":"levelo://app?vid=31a4586e-43fc-4f44-96bb-b819c4ad0b51"},"vehicle_type_id":"4","last_reported":1737655946,"current_range_meters":6800,"station_id":"ce4bhn12rcd13ifvqgqg","pricing_plan_id":"cebpf4jnsgd1na2vs0mg"},{"bike_id":"efaf8603-0bec-433e-97a0-3f9a4e56efbc","system_id":"levelo_inurba_marseille","lat":43.26581,"lon":5.39005,"is_reserved":false,"is_disabled":true,"rental_uris":{"android":"levelo://app?vid=efaf8603-0bec-433e-97a0-3f9a4e56efbc","ios":"levelo://app?vid=efaf8603-0bec-433e-97a0-3f9a4e56efbc"},"vehicle_type_id":"4","last_reported":1737655946,"current_range_meters":400,"station_id":"ce4bhe12rcd13ifvqf30","pricing_plan_id":"cebpf4jnsgd1na2vs0mg"},{"bike_id":"e7c9e8b3-4b54-4f29-913a-42c4a660414f","system_id":"levelo_inurba_marseille","lat":43.287,"lon":5.3999,"is_reserved":false,"is_disabled":false,"rental_uris":{"android":"levelo://app?vid=e7c9e8b3-4b54-4f29-913a-42c4a660414f","ios":"levelo://app?vid=e7c9e8b3-4b54-4f29-913a-42c4a660414f"},"vehicle_type_id":"4","last_reported":1737655946,"current_range_meters":6400,"station_id":"ce4bho92rcd13ifvqh3g","pricing_plan_id":"cebpf4jnsgd1na2vs0mg"},{"bike_id":"eccf0d1b-bc05-4442-912e-9450590b779a","system_id":"levelo_inurba_marseille","lat":43.32005,"lon":5.3815,"is_reserved":false,"is_disabled":false,"rental_uris":{"android":"levelo://app?vid=eccf0d1b-bc05-4442-912e-9450590b779a","ios":"levelo://app?vid=eccf0d1b-bc05-4442-912e-9450590b779a"},"vehicle_type_id":"4","last_reported":1737655946,"current_range_meters":17600,"station_id":"ce4bhr12rcd13ifvqhpg","pricing_plan_id":"cebpf4jnsgd1na2vs0mg"},{"bike_id":"bb837106-5fe6-4c19-83c9-a4ca3cad7964","system_id":"levelo_inurba_marseille","lat":43.29225,"lon":5.3607,"is_reserved":false,"is_disabled":false,"rental_uris":{"android":"levelo://app?vid=bb837106-5fe6-4c19-83c9-a4ca3cad7964","ios":"levelo://app?vid=bb837106-5fe6-4c19-83c9-a4ca3cad7964"},"vehicle_type_id":"4","last_reported":1737655946,"current_range_meters":24800,"station_id":"ce4bhbh2rcd13ifvqeqg","pricing_plan_id":"cebpf4jnsgd1na2vs0mg"},{"bike_id":"6bf1abaa-85ea-47ef-aa15-9b541f8817d8","system_id":"levelo_inurba_marseille","lat":43.31889,"lon":5.40752,"is_reserved":false,"is_disabled":false,"rental_uris":{"android":"levelo://app?vid=6bf1abaa-85ea-47ef-aa15-9b541f8817d8","ios":"levelo://app?vid=6bf1abaa-85ea-47ef-aa15-9b541f8817d8"},"vehicle_type_id":"4","last_reported":1737655946,"current_range_meters":33600,"station_id":"ce4bhq12rcd13ifvqhig","pricing_plan_id":"cebpf4jnsgd1na2vs0mg"},{"bike_id":"7ffa4c5f-399b-415f-a0ea-597f39a741fa","system_id":"levelo_inurba_marseille","lat":43.28456,"lon":5.35896,"is_reserved":false,"is_disabled":false,"rental_uris":{"android":"levelo://app?vid=7ffa4c5f-399b-415f-a0ea-597f39a741fa","ios":"levelo://app?vid=7ffa4c5f-399b-415f-a0ea-597f39a741fa"},"vehicle_type_id":"4","last_reported":1737655946,"current_range_meters":25600,"station_id":"ce4bhah2rcd13ifvqei0","pricing_plan_id":"cebpf4jnsgd1na2vs0mg"},{"bike_id":"d5e872fd-88ad-4d26-bf6b-08aaaf1253ee","system_id":"levelo_inurba_marseille","lat":43.28463,"lon":5.35885,"is_reserved":false,"is_disabled":false,"rental_uris":{"android":"levelo://app?vid=d5e872fd-88ad-4d26-bf6b-08aaaf1253ee","ios":"levelo://app?vid=d5e872fd-88ad-4d26-bf6b-08aaaf1253ee"},"vehicle_type_id":"4","last_reported":1737655946,"current_range_meters":17600,"station_id":"ce4bhah2rcd13ifvqei0","pricing_plan_id":"cebpf4jnsgd1na2vs0mg"},{"bike_id":"b5cb07e6-6ffd-4db4-8954-0084503b2aef","system_id":"levelo_inurba_marseille","lat":43.33024,"lon":5.39047,"is_reserved":false,"is_disabled":false,"rental_uris":{"android":"levelo://app?vid=b5cb07e6-6ffd-4db4-8954-0084503b2aef","ios":"levelo://app?vid=b5cb07e6-6ffd-4db4-8954-0084503b2aef"},"vehicle_type_id":"4","last_reported":1737655946,"current_range_meters":38800,"station_id":"ce4bhr92rcd13ifvqhrg","pricing_plan_id":"cebpf4jnsgd1na2vs0mg"},{"bike_id":"ce2b86ec-5c6e-436b-bbf1-eb1b6c761903","system_id":"levelo_inurba_marseille","lat":43.27628,"lon":5.38901,"is_reserved":false,"is_disabled":false,"rental_uris":{"android":"levelo://app?vid=ce2b86ec-5c6e-436b-bbf1-eb1b6c761903","ios":"levelo://app?vid=ce2b86ec-5c6e-436b-bbf1-eb1b6c761903"},"vehicle_type_id":"4","last_reported":1737655946,"current_range_meters":36000,"station_id":"","pricing_plan_id":"cebpf4jnsgd1na2vs0mg"},{"bike_id":"7d8d8db9-57e6-4bd9-a9c2-31aac1d9324a","system_id":"levelo_inurba_marseille","lat":43.28462,"lon":5.35889,"is_reserved":false,"is_disabled":false,"rental_uris":{"android":"levelo://app?vid=7d8d8db9-57e6-4bd9-a9c2-31aac1d9324a","ios":"levelo://app?vid=7d8d8db9-57e6-4bd9-a9c2-31aac1d9324a"},"vehicle_type_id":"4","last_reported":1737655946,"current_range_meters":6000,"station_id":"ce4bhah2rcd13ifvqei0","pricing_plan_id":"cebpf4jnsgd1na2vs0mg"},{"bike_id":"ec016e4b-1100-4b80-a9e8-7ce8bce9aee4","system_id":"levelo_inurba_marseille","lat":43.28002,"lon":5.400162,"is_reserved":false,"is_disabled":false,"rental_uris":{"android":"levelo://app?vid=ec016e4b-1100-4b80-a9e8-7ce8bce9aee4","ios":"levelo://app?vid=ec016e4b-1100-4b80-a9e8-7ce8bce9aee4"},"vehicle_type_id":"4","last_reported":1737655946,"current_range_meters":22400,"station_id":"ce4bho92rcd13ifvqh4g","pricing_plan_id":"cebpf4jnsgd1na2vs0mg"},{"bike_id":"91fc8ad7-6bde-4451-b3fd-2d2543b21a70","system_id":"levelo_inurba_marseille","lat":43.29529,"lon":5.38537,"is_reserved":false,"is_disabled":false,"rental_uris":{"android":"levelo://app?vid=91fc8ad7-6bde-4451-b3fd-2d2543b21a70","ios":"levelo://app?vid=91fc8ad7-6bde-4451-b3fd-2d2543b21a70"},"vehicle_type_id":"4","last_reported":1737655946,"current_range_meters":22400,"station_id":"ce4bgih2rcd13ifvqba0","pricing_plan_id":"cebpf4jnsgd1na2vs0mg"},{"bike_id":"90ef6c1c-7716-486b-815b-e3296621e8a4","system_id":"levelo_inurba_marseille","lat":43.27913,"lon":5.39585,"is_reserved":false,"is_disabled":false,"rental_uris":{"android":"levelo://app?vid=90ef6c1c-7716-486b-815b-e3296621e8a4","ios":"levelo://app?vid=90ef6c1c-7716-486b-815b-e3296621e8a4"},"vehicle_type_id":"4","last_reported":1737655946,"current_range_meters":38800,"station_id":"ce4bhf92rcd13ifvqf40","pricing_plan_id":"cebpf4jnsgd1na2vs0mg"},{"bike_id":"b8568598-e61f-4a20-9739-cc6c473e0cb5","system_id":"levelo_inurba_marseille","lat":43.29964,"lon":5.41324,"is_reserved":false,"is_disabled":false,"rental_uris":{"android":"levelo://app?vid=b8568598-e61f-4a20-9739-cc6c473e0cb5","ios":"levelo://app?vid=b8568598-e61f-4a20-9739-cc6c473e0cb5"},"vehicle_type_id":"4","last_reported":1737655946,"current_range_meters":5600,"station_id":"ce4bhp12rcd13ifvqh9g","pricing_plan_id":"cebpf4jnsgd1na2vs0mg"},{"bike_id":"ba4eb3a5-a079-4603-8814-086be55c16b6","system_id":"levelo_inurba_marseille","lat":43.261949,"lon":5.373589,"is_reserved":false,"is_disabled":false,"rental_uris":{"android":"levelo://app?vid=ba4eb3a5-a079-4603-8814-086be55c16b6","ios":"levelo://app?vid=ba4eb3a5-a079-4603-8814-086be55c16b6"},"vehicle_type_id":"4","last_reported":1737655946,"current_range_meters":35200,"station_id":"ce4bhgp2rcd13ifvqfc0","pricing_plan_id":"cebpf4jnsgd1na2vs0mg"},{"bike_id":"d89c0122-2201-493a-bcbe-65b5d08f4000","system_id":"levelo_inurba_marseille","lat":43.2926,"lon":5.40905,"is_reserved":false,"is_disabled":false,"rental_uris":{"android":"levelo://app?vid=d89c0122-2201-493a-bcbe-65b5d08f4000","ios":"levelo://app?vid=d89c0122-2201-493a-bcbe-65b5d08f4000"},"vehicle_type_id":"4","last_reported":1737655946,"current_range_meters":24800,"station_id":"ce4bh192rcd13ifvqdc0","pricing_plan_id":"cebpf4jnsgd1na2vs0mg"},{"bike_id":"fb25aff4-7712-412a-885d-4665f45586cc","system_id":"levelo_inurba_marseille","lat":43.24662,"lon":5.38168,"is_reserved":false,"is_disabled":false,"rental_uris":{"android":"levelo://app?vid=fb25aff4-7712-412a-885d-4665f45586cc","ios":"levelo://app?vid=fb25aff4-7712-412a-885d-4665f45586cc"},"vehicle_type_id":"4","last_reported":1737655946,"current_range_meters":14000,"station_id":"ce4bhih2rcd13ifvqfr0","pricing_plan_id":"cebpf4jnsgd1na2vs0mg"},{"bike_id":"19833859-0631-4166-81ee-8410dddbd2db","system_id":"levelo_inurba_marseille","lat":43.28672,"lon":5.38664,"is_reserved":false,"is_disabled":false,"rental_uris":{"android":"levelo://app?vid=19833859-0631-4166-81ee-8410dddbd2db","ios":"levelo://app?vid=19833859-0631-4166-81ee-8410dddbd2db"},"vehicle_type_id":"4","last_reported":1737655946,"current_range_meters":30800,"station_id":"ce4bh492rcd13ifvqdug","pricing_plan_id":"cebpf4jnsgd1na2vs0mg"},{"bike_id":"63bfbfa7-e66b-4b84-a88a-e2e3ef85321e","system_id":"levelo_inurba_marseille","lat":43.30072,"lon":5.36485,"is_reserved":false,"is_disabled":true,"rental_uris":{"android":"levelo://app?vid=63bfbfa7-e66b-4b84-a88a-e2e3ef85321e","ios":"levelo://app?vid=63bfbfa7-e66b-4b84-a88a-e2e3ef85321e"},"vehicle_type_id":"4","last_reported":1737655946,"current_range_meters":2800,"station_id":"","pricing_plan_id":"cebpf4jnsgd1na2vs0mg"},{"bike_id":"8306911c-1b49-4f25-b658-2afe8ce20858","system_id":"levelo_inurba_marseille","lat":43.28455,"lon":5.35894,"is_reserved":false,"is_disabled":false,"rental_uris":{"android":"levelo://app?vid=8306911c-1b49-4f25-b658-2afe8ce20858","ios":"levelo://app?vid=8306911c-1b49-4f25-b658-2afe8ce20858"},"vehicle_type_id":"4","last_reported":1737655946,"current_range_meters":31200,"station_id":"ce4bhah2rcd13ifvqei0","pricing_plan_id":"cebpf4jnsgd1na2vs0mg"},{"bike_id":"e38da209-d8d9-4680-be99-11d1954272ef","system_id":"levelo_inurba_marseille","lat":43.262,"lon":5.37921,"is_reserved":false,"is_disabled":false,"rental_uris":{"android":"levelo://app?vid=e38da209-d8d9-4680-be99-11d1954272ef","ios":"levelo://app?vid=e38da209-d8d9-4680-be99-11d1954272ef"},"vehicle_type_id":"4","last_reported":1737655946,"current_range_meters":39200,"station_id":"ce4bhjp2rcd13ifvqg90","pricing_plan_id":"cebpf4jnsgd1na2vs0mg"},{"bike_id":"3797cfec-e8e8-4763-a6d2-dd14bd67c606","system_id":"levelo_inurba_marseille","lat":43.31364,"lon":5.38483,"is_reserved":false,"is_disabled":false,"rental_uris":{"android":"levelo://app?vid=3797cfec-e8e8-4763-a6d2-dd14bd67c606","ios":"levelo://app?vid=3797cfec-e8e8-4763-a6d2-dd14bd67c606"},"vehicle_type_id":"4","last_reported":1737655946,"current_range_meters":9200,"station_id":"ce4bgt92rcd13ifvqcf0","pricing_plan_id":"cebpf4jnsgd1na2vs0mg"},{"bike_id":"00cde2be-1302-4f55-bbe8-44cee8c0b1c4","system_id":"levelo_inurba_marseille","lat":43.28869,"lon":5.37873,"is_reserved":false,"is_disabled":false,"rental_uris":{"android":"levelo://app?vid=00cde2be-1302-4f55-bbe8-44cee8c0b1c4","ios":"levelo://app?vid=00cde2be-1302-4f55-bbe8-44cee8c0b1c4"},"vehicle_type_id":"4","last_reported":1737655946,"current_range_meters":20000,"station_id":"ce4bh9p2rcd13ifvqec0","pricing_plan_id":"cebpf4jnsgd1na2vs0mg"},{"bike_id":"ac928096-789d-4865-b341-20b607bfebbc","system_id":"levelo_inurba_marseille","lat":43.29902,"lon":5.38909,"is_reserved":false,"is_disabled":false,"rental_uris":{"android":"levelo://app?vid=ac928096-789d-4865-b341-20b607bfebbc","ios":"levelo://app?vid=ac928096-789d-4865-b341-20b607bfebbc"},"vehicle_type_id":"4","last_reported":1737655946,"current_range_meters":9600,"station_id":"ce4bh392rcd13ifvqdl0","pricing_plan_id":"cebpf4jnsgd1na2vs0mg"},{"bike_id":"644e1c08-c502-4c85-94d4-d4a064391ff0","system_id":"levelo_inurba_marseille","lat":43.31537,"lon":5.38943,"is_reserved":false,"is_disabled":false,"rental_uris":{"android":"levelo://app?vid=644e1c08-c502-4c85-94d4-d4a064391ff0","ios":"levelo://app?vid=644e1c08-c502-4c85-94d4-d4a064391ff0"},"vehicle_type_id":"4","last_reported":1737655946,"current_range_meters":7200,"station_id":"","pricing_plan_id":"cebpf4jnsgd1na2vs0mg"},{"bike_id":"2e1961ea-cc50-4ce5-bd0e-43fe5c2fb5e3","system_id":"levelo_inurba_marseille","lat":43.25863,"lon":5.39903,"is_reserved":false,"is_disabled":false,"rental_uris":{"android":"levelo://app?vid=2e1961ea-cc50-4ce5-bd0e-43fe5c2fb5e3","ios":"levelo://app?vid=2e1961ea-cc50-4ce5-bd0e-43fe5c2fb5e3"},"vehicle_type_id":"4","last_reported":1737655946,"current_range_meters":30000,"station_id":"ce4bhl92rcd13ifvqghg","pricing_plan_id":"cebpf4jnsgd1na2vs0mg"},{"bike_id":"553e4976-b27f-47dc-8e32-f79d8de69447","system_id":"levelo_inurba_marseille","lat":43.28975,"lon":5.35576,"is_reserved":false,"is_disabled":false,"rental_uris":{"android":"levelo://app?vid=553e4976-b27f-47dc-8e32-f79d8de69447","ios":"levelo://app?vid=553e4976-b27f-47dc-8e32-f79d8de69447"},"vehicle_type_id":"4","last_reported":1737655946,"current_range_meters":38800,"station_id":"ce4bhb92rcd13ifvqen0","pricing_plan_id":"cebpf4jnsgd1na2vs0mg"},{"bike_id":"193315e2-36f8-42b2-9f1c-169237b7a901","system_id":"levelo_inurba_marseille","lat":43.26064,"lon":5.39398,"is_reserved":false,"is_disabled":true,"rental_uris":{"android":"levelo://app?vid=193315e2-36f8-42b2-9f1c-169237b7a901","ios":"levelo://app?vid=193315e2-36f8-42b2-9f1c-169237b7a901"},"vehicle_type_id":"4","last_reported":1737655946,"current_range_meters":400,"station_id":"ce4bhh92rcd13ifvqfj0","pricing_plan_id":"cebpf4jnsgd1na2vs0mg"},{"bike_id":"65d18c98-b565-453b-98ee-8f9d39cde33f","system_id":"levelo_inurba_marseille","lat":43.27812,"lon":5.40727,"is_reserved":false,"is_disabled":false,"rental_uris":{"android":"levelo://app?vid=65d18c98-b565-453b-98ee-8f9d39cde33f","ios":"levelo://app?vid=65d18c98-b565-453b-98ee-8f9d39cde33f"},"vehicle_type_id":"4","last_reported":1737655946,"current_range_meters":20000,"station_id":"ce4bhnh2rcd13ifvqgtg","pricing_plan_id":"cebpf4jnsgd1na2vs0mg"},{"bike_id":"d176d05d-f592-4680-9312-b4c47d85e9a1","system_id":"levelo_inurba_marseille","lat":43.28402,"lon":5.37528,"is_reserved":false,"is_disabled":false,"rental_uris":{"android":"levelo://app?vid=d176d05d-f592-4680-9312-b4c47d85e9a1","ios":"levelo://app?vid=d176d05d-f592-4680-9312-b4c47d85e9a1"},"vehicle_type_id":"4","last_reported":1737655946,"current_range_meters":8400,"station_id":"ce4bh412rcd13ifvqds0","pricing_plan_id":"cebpf4jnsgd1na2vs0mg"},{"bike_id":"67b91b62-cf25-41c7-9ed1-0be33ab461a7","system_id":"levelo_inurba_marseille","lat":43.30546,"lon":5.36551,"is_reserved":false,"is_disabled":false,"rental_uris":{"android":"levelo://app?vid=67b91b62-cf25-41c7-9ed1-0be33ab461a7","ios":"levelo://app?vid=67b91b62-cf25-41c7-9ed1-0be33ab461a7"},"vehicle_type_id":"4","last_reported":1737655946,"current_range_meters":6400,"station_id":"ce4bgs12rcd13ifvqcag","pricing_plan_id":"cebpf4jnsgd1na2vs0mg"},{"bike_id":"abc60fff-dd66-4aec-926e-90acfc4baba7","system_id":"levelo_inurba_marseille","lat":43.29035,"lon":5.38632,"is_reserved":false,"is_disabled":false,"rental_uris":{"android":"levelo://app?vid=abc60fff-dd66-4aec-926e-90acfc4baba7","ios":"levelo://app?vid=abc60fff-dd66-4aec-926e-90acfc4baba7"},"vehicle_type_id":"4","last_reported":1737655946,"current_range_meters":9600,"station_id":"ce4bh4p2rcd13ifvqe0g","pricing_plan_id":"cebpf4jnsgd1na2vs0mg"},{"bike_id":"5f25e61a-61a4-4ae5-a6d8-4b18d2c10925","system_id":"levelo_inurba_marseille","lat":43.2925,"lon":5.38451,"is_reserved":false,"is_disabled":false,"rental_uris":{"android":"levelo://app?vid=5f25e61a-61a4-4ae5-a6d8-4b18d2c10925","ios":"levelo://app?vid=5f25e61a-61a4-4ae5-a6d8-4b18d2c10925"},"vehicle_type_id":"4","last_reported":1737655946,"current_range_meters":37600,"station_id":"ce4bh692rcd13ifvqea0","pricing_plan_id":"cebpf4jnsgd1na2vs0mg"},{"bike_id":"93c32264-ea4b-4b32-b306-d387718a91eb","system_id":"levelo_inurba_marseille","lat":43.30306,"lon":5.36881,"is_reserved":false,"is_disabled":false,"rental_uris":{"android":"levelo://app?vid=93c32264-ea4b-4b32-b306-d387718a91eb","ios":"levelo://app?vid=93c32264-ea4b-4b32-b306-d387718a91eb"},"vehicle_type_id":"4","last_reported":1737655946,"current_range_meters":35200,"station_id":"ce4bgqh2rcd13ifvqc5g","pricing_plan_id":"cebpf4jnsgd1na2vs0mg"},{"bike_id":"0672c778-6d96-43cb-9618-48f187d64dea","system_id":"levelo_inurba_marseille","lat":43.25579,"lon":5.38245,"is_reserved":false,"is_disabled":false,"rental_uris":{"android":"levelo://app?vid=0672c778-6d96-43cb-9618-48f187d64dea","ios":"levelo://app?vid=0672c778-6d96-43cb-9618-48f187d64dea"},"vehicle_type_id":"4","last_reported":1737655946,"current_range_meters":6800,"station_id":"ce4bhih2rcd13ifvqfs0","pricing_plan_id":"cebpf4jnsgd1na2vs0mg"},{"bike_id":"a3690dde-7d95-4509-9b72-f67526eb76aa","system_id":"levelo_inurba_marseille","lat":43.30933,"lon":5.40146,"is_reserved":false,"is_disabled":false,"rental_uris":{"android":"levelo://app?vid=a3690dde-7d95-4509-9b72-f67526eb76aa","ios":"levelo://app?vid=a3690dde-7d95-4509-9b72-f67526eb76aa"},"vehicle_type_id":"4","last_reported":1737655946,"current_range_meters":24400,"station_id":"ce4bgvp2rcd13ifvqct0","pricing_plan_id":"cebpf4jnsgd1na2vs0mg"},{"bike_id":"c8fc9e99-7f14-4182-be94-62d0b556e24b","system_id":"levelo_inurba_marseille","lat":43.25003,"lon":5.38924,"is_reserved":false,"is_disabled":false,"rental_uris":{"android":"levelo://app?vid=c8fc9e99-7f14-4182-be94-62d0b556e24b","ios":"levelo://app?vid=c8fc9e99-7f14-4182-be94-62d0b556e24b"},"vehicle_type_id":"4","last_reported":1737655946,"current_range_meters":16400,"station_id":"ce4bhgp2rcd13ifvqfd0","pricing_plan_id":"cebpf4jnsgd1na2vs0mg"},{"bike_id":"bbdfc660-e997-4a11-9591-bbb56c89be46","system_id":"levelo_inurba_marseille","lat":43.3303,"lon":5.39033,"is_reserved":false,"is_disabled":false,"rental_uris":{"android":"levelo://app?vid=bbdfc660-e997-4a11-9591-bbb56c89be46","ios":"levelo://app?vid=bbdfc660-e997-4a11-9591-bbb56c89be46"},"vehicle_type_id":"4","last_reported":1737655946,"current_range_meters":37600,"station_id":"ce4bhr92rcd13ifvqhrg","pricing_plan_id":"cebpf4jnsgd1na2vs0mg"},{"bike_id":"5e75dd30-ab3b-44d3-8dcb-cb5fd4a0eb65","system_id":"levelo_inurba_marseille","lat":43.24637,"lon":5.38923,"is_reserved":false,"is_disabled":false,"rental_uris":{"android":"levelo://app?vid=5e75dd30-ab3b-44d3-8dcb-cb5fd4a0eb65","ios":"levelo://app?vid=5e75dd30-ab3b-44d3-8dcb-cb5fd4a0eb65"},"vehicle_type_id":"4","last_reported":1737655946,"current_range_meters":37600,"station_id":"ce4bhg12rcd13ifvqf60","pricing_plan_id":"cebpf4jnsgd1na2vs0mg"},{"bike_id":"a9c31a40-9201-412b-8757-c85cddf83ffd","system_id":"levelo_inurba_marseille","lat":43.26687,"lon":5.38273,"is_reserved":false,"is_disabled":false,"rental_uris":{"android":"levelo://app?vid=a9c31a40-9201-412b-8757-c85cddf83ffd","ios":"levelo://app?vid=a9c31a40-9201-412b-8757-c85cddf83ffd"},"vehicle_type_id":"4","last_reported":1737655946,"current_range_meters":36800,"station_id":"ce4bhg92rcd13ifvqf90","pricing_plan_id":"cebpf4jnsgd1na2vs0mg"},{"bike_id":"ba20dbe1-1c8f-47c7-87a0-7e8242e93d86","system_id":"levelo_inurba_marseille","lat":43.28461,"lon":5.35892,"is_reserved":false,"is_disabled":false,"rental_uris":{"android":"levelo://app?vid=ba20dbe1-1c8f-47c7-87a0-7e8242e93d86","ios":"levelo://app?vid=ba20dbe1-1c8f-47c7-87a0-7e8242e93d86"},"vehicle_type_id":"4","last_reported":1737655946,"current_range_meters":20000,"station_id":"ce4bhah2rcd13ifvqei0","pricing_plan_id":"cebpf4jnsgd1na2vs0mg"},{"bike_id":"1f4cc9a1-a6f1-42ee-8f62-d3fd1b2849a6","system_id":"levelo_inurba_marseille","lat":43.23185,"lon":5.39936,"is_reserved":false,"is_disabled":false,"rental_uris":{"android":"levelo://app?vid=1f4cc9a1-a6f1-42ee-8f62-d3fd1b2849a6","ios":"levelo://app?vid=1f4cc9a1-a6f1-42ee-8f62-d3fd1b2849a6"},"vehicle_type_id":"4","last_reported":1737655946,"current_range_meters":5600,"station_id":"","pricing_plan_id":"cebpf4jnsgd1na2vs0mg"},{"bike_id":"2d9bf860-986d-4064-838d-94974cae1372","system_id":"levelo_inurba_marseille","lat":43.29034,"lon":5.38645,"is_reserved":false,"is_disabled":false,"rental_uris":{"android":"levelo://app?vid=2d9bf860-986d-4064-838d-94974cae1372","ios":"levelo://app?vid=2d9bf860-986d-4064-838d-94974cae1372"},"vehicle_type_id":"4","last_reported":1737655946,"current_range_meters":5600,"station_id":"ce4bh4p2rcd13ifvqe0g","pricing_plan_id":"cebpf4jnsgd1na2vs0mg"},{"bike_id":"071539da-84e9-408d-ace9-6801b87e83b6","system_id":"levelo_inurba_marseille","lat":43.29421,"lon":5.38625,"is_reserved":false,"is_disabled":false,"rental_uris":{"android":"levelo://app?vid=071539da-84e9-408d-ace9-6801b87e83b6","ios":"levelo://app?vid=071539da-84e9-408d-ace9-6801b87e83b6"},"vehicle_type_id":"4","last_reported":1737655946,"current_range_meters":8000,"station_id":"ce4bh2h2rcd13ifvqdh0","pricing_plan_id":"cebpf4jnsgd1na2vs0mg"},{"bike_id":"e5c24c1c-808d-4a9f-ab19-377e3b4d808c","system_id":"levelo_inurba_marseille","lat":43.287,"lon":5.37395,"is_reserved":false,"is_disabled":true,"rental_uris":{"android":"levelo://app?vid=e5c24c1c-808d-4a9f-ab19-377e3b4d808c","ios":"levelo://app?vid=e5c24c1c-808d-4a9f-ab19-377e3b4d808c"},"vehicle_type_id":"4","last_reported":1737655946,"current_range_meters":0,"station_id":"ce4bh3p2rcd13ifvqdq0","pricing_plan_id":"cebpf4jnsgd1na2vs0mg"},{"bike_id":"9838cc78-2b53-49d3-ae13-82df62c4fd64","system_id":"levelo_inurba_marseille","lat":43.28425,"lon":5.40936,"is_reserved":false,"is_disabled":false,"rental_uris":{"android":"levelo://app?vid=9838cc78-2b53-49d3-ae13-82df62c4fd64","ios":"levelo://app?vid=9838cc78-2b53-49d3-ae13-82df62c4fd64"},"vehicle_type_id":"4","last_reported":1737655946,"current_range_meters":5600,"station_id":"","pricing_plan_id":"cebpf4jnsgd1na2vs0mg"},{"bike_id":"cf80fd66-51d2-45da-a957-8dd48a7f896f","system_id":"levelo_inurba_marseille","lat":43.30324,"lon":5.4043,"is_reserved":false,"is_disabled":false,"rental_uris":{"android":"levelo://app?vid=cf80fd66-51d2-45da-a957-8dd48a7f896f","ios":"levelo://app?vid=cf80fd66-51d2-45da-a957-8dd48a7f896f"},"vehicle_type_id":"4","last_reported":1737655946,"current_range_meters":15200,"station_id":"ce4bh012rcd13ifvqd10","pricing_plan_id":"cebpf4jnsgd1na2vs0mg"},{"bike_id":"d9d67e50-ff60-4024-bb97-06b4cc192a7e","system_id":"levelo_inurba_marseille","lat":43.30219,"lon":5.37492,"is_reserved":false,"is_disabled":true,"rental_uris":{"android":"levelo://app?vid=d9d67e50-ff60-4024-bb97-06b4cc192a7e","ios":"levelo://app?vid=d9d67e50-ff60-4024-bb97-06b4cc192a7e"},"vehicle_type_id":"4","last_reported":1737655946,"current_range_meters":38400,"station_id":"","pricing_plan_id":"cebpf4jnsgd1na2vs0mg"},{"bike_id":"73d834fb-e5b5-46db-8e60-2e0f290ea695","system_id":"levelo_inurba_marseille","lat":43.29537,"lon":5.39036,"is_reserved":false,"is_disabled":true,"rental_uris":{"android":"levelo://app?vid=73d834fb-e5b5-46db-8e60-2e0f290ea695","ios":"levelo://app?vid=73d834fb-e5b5-46db-8e60-2e0f290ea695"},"vehicle_type_id":"4","last_reported":1737655946,"current_range_meters":1200,"station_id":"ce4bh3p2rcd13ifvqdp0","pricing_plan_id":"cebpf4jnsgd1na2vs0mg"},{"bike_id":"ece6fdd6-9ea1-4d73-833a-919f3bfb5310","system_id":"levelo_inurba_marseille","lat":43.26193,"lon":5.37449,"is_reserved":false,"is_disabled":false,"rental_uris":{"android":"levelo://app?vid=ece6fdd6-9ea1-4d73-833a-919f3bfb5310","ios":"levelo://app?vid=ece6fdd6-9ea1-4d73-833a-919f3bfb5310"},"vehicle_type_id":"4","last_reported":1737655946,"current_range_meters":22800,"station_id":"ce4bhgp2rcd13ifvqfc0","pricing_plan_id":"cebpf4jnsgd1na2vs0mg"},{"bike_id":"bf096a89-ee72-4f37-85bd-7b3cf9f0cb41","system_id":"levelo_inurba_marseille","lat":43.31944,"lon":5.37892,"is_reserved":false,"is_disabled":false,"rental_uris":{"android":"levelo://app?vid=bf096a89-ee72-4f37-85bd-7b3cf9f0cb41","ios":"levelo://app?vid=bf096a89-ee72-4f37-85bd-7b3cf9f0cb41"},"vehicle_type_id":"4","last_reported":1737655946,"current_range_meters":37600,"station_id":"","pricing_plan_id":"cebpf4jnsgd1na2vs0mg"},{"bike_id":"81a1ee1f-b7a3-487f-abfc-c81babfe5d0a","system_id":"levelo_inurba_marseille","lat":43.23188,"lon":5.39989,"is_reserved":false,"is_disabled":false,"rental_uris":{"android":"levelo://app?vid=81a1ee1f-b7a3-487f-abfc-c81babfe5d0a","ios":"levelo://app?vid=81a1ee1f-b7a3-487f-abfc-c81babfe5d0a"},"vehicle_type_id":"4","last_reported":1737655946,"current_range_meters":8400,"station_id":"ce4bhn12rcd13ifvqgqg","pricing_plan_id":"cebpf4jnsgd1na2vs0mg"},{"bike_id":"4078e194-9a49-4303-b9e9-14bd13d7cef2","system_id":"levelo_inurba_marseille","lat":43.25116,"lon":5.40332,"is_reserved":false,"is_disabled":false,"rental_uris":{"android":"levelo://app?vid=4078e194-9a49-4303-b9e9-14bd13d7cef2","ios":"levelo://app?vid=4078e194-9a49-4303-b9e9-14bd13d7cef2"},"vehicle_type_id":"4","last_reported":1737655946,"current_range_meters":12400,"station_id":"ce4bhlh2rcd13ifvqgig","pricing_plan_id":"cebpf4jnsgd1na2vs0mg"},{"bike_id":"634d56c1-a2c0-4178-97ec-f77ccc52b51c","system_id":"levelo_inurba_marseille","lat":43.23197,"lon":5.39974,"is_reserved":false,"is_disabled":false,"rental_uris":{"android":"levelo://app?vid=634d56c1-a2c0-4178-97ec-f77ccc52b51c","ios":"levelo://app?vid=634d56c1-a2c0-4178-97ec-f77ccc52b51c"},"vehicle_type_id":"4","last_reported":1737655946,"current_range_meters":35200,"station_id":"ce4bhn12rcd13ifvqgqg","pricing_plan_id":"cebpf4jnsgd1na2vs0mg"},{"bike_id":"453049cf-9b62-421e-aca6-df9a4afd0bf0","system_id":"levelo_inurba_marseille","lat":43.28124,"lon":5.37858,"is_reserved":false,"is_disabled":false,"rental_uris":{"android":"levelo://app?vid=453049cf-9b62-421e-aca6-df9a4afd0bf0","ios":"levelo://app?vid=453049cf-9b62-421e-aca6-df9a4afd0bf0"},"vehicle_type_id":"4","last_reported":1737655946,"current_range_meters":10800,"station_id":"ce4bha12rcd13ifvqee0","pricing_plan_id":"cebpf4jnsgd1na2vs0mg"},{"bike_id":"16d479db-6199-4d0f-a471-271878ad8ffc","system_id":"levelo_inurba_marseille","lat":43.26198,"lon":5.37442,"is_reserved":false,"is_disabled":false,"rental_uris":{"android":"levelo://app?vid=16d479db-6199-4d0f-a471-271878ad8ffc","ios":"levelo://app?vid=16d479db-6199-4d0f-a471-271878ad8ffc"},"vehicle_type_id":"4","last_reported":1737655946,"current_range_meters":18800,"station_id":"ce4bhgp2rcd13ifvqfc0","pricing_plan_id":"cebpf4jnsgd1na2vs0mg"},{"bike_id":"e0e81928-2fd6-4da0-8a0a-bba218dc49f2","system_id":"levelo_inurba_marseille","lat":43.30252,"lon":5.40078,"is_reserved":false,"is_disabled":false,"rental_uris":{"android":"levelo://app?vid=e0e81928-2fd6-4da0-8a0a-bba218dc49f2","ios":"levelo://app?vid=e0e81928-2fd6-4da0-8a0a-bba218dc49f2"},"vehicle_type_id":"4","last_reported":1737655946,"current_range_meters":8800,"station_id":"ce4bgvh2rcd13ifvqcs0","pricing_plan_id":"cebpf4jnsgd1na2vs0mg"},{"bike_id":"37f69f24-e802-4b25-b688-931f5efd1156","system_id":"levelo_inurba_marseille","lat":43.29193,"lon":5.39308,"is_reserved":false,"is_disabled":false,"rental_uris":{"android":"levelo://app?vid=37f69f24-e802-4b25-b688-931f5efd1156","ios":"levelo://app?vid=37f69f24-e802-4b25-b688-931f5efd1156"},"vehicle_type_id":"4","last_reported":1737655946,"current_range_meters":16400,"station_id":"ce4bh192rcd13ifvqdd0","pricing_plan_id":"cebpf4jnsgd1na2vs0mg"},{"bike_id":"125d6817-170f-495c-8f90-984d499b4e4e","system_id":"levelo_inurba_marseille","lat":43.27214,"lon":5.39182,"is_reserved":false,"is_disabled":true,"rental_uris":{"android":"levelo://app?vid=125d6817-170f-495c-8f90-984d499b4e4e","ios":"levelo://app?vid=125d6817-170f-495c-8f90-984d499b4e4e"},"vehicle_type_id":"4","last_reported":1737655946,"current_range_meters":0,"station_id":"ce4bhhp2rcd13ifvqfm0","pricing_plan_id":"cebpf4jnsgd1na2vs0mg"},{"bike_id":"48abaa4a-2251-4b1a-985d-736d5322fef9","system_id":"levelo_inurba_marseille","lat":43.265603,"lon":5.37299,"is_reserved":false,"is_disabled":false,"rental_uris":{"android":"levelo://app?vid=48abaa4a-2251-4b1a-985d-736d5322fef9","ios":"levelo://app?vid=48abaa4a-2251-4b1a-985d-736d5322fef9"},"vehicle_type_id":"4","last_reported":1737655946,"current_range_meters":16800,"station_id":"ce4bhg12rcd13ifvqf70","pricing_plan_id":"cebpf4jnsgd1na2vs0mg"},{"bike_id":"7a3dc392-114c-481e-a120-37e55299f5aa","system_id":"levelo_inurba_marseille","lat":43.2893,"lon":5.38388,"is_reserved":false,"is_disabled":false,"rental_uris":{"android":"levelo://app?vid=7a3dc392-114c-481e-a120-37e55299f5aa","ios":"levelo://app?vid=7a3dc392-114c-481e-a120-37e55299f5aa"},"vehicle_type_id":"4","last_reported":1737655946,"current_range_meters":29600,"station_id":"ce4bh612rcd13ifvqe6g","pricing_plan_id":"cebpf4jnsgd1na2vs0mg"},{"bike_id":"58e04e08-346e-461f-85c7-12eadb78d927","system_id":"levelo_inurba_marseille","lat":43.31325,"lon":5.39696,"is_reserved":false,"is_disabled":false,"rental_uris":{"android":"levelo://app?vid=58e04e08-346e-461f-85c7-12eadb78d927","ios":"levelo://app?vid=58e04e08-346e-461f-85c7-12eadb78d927"},"vehicle_type_id":"4","last_reported":1737655946,"current_range_meters":35200,"station_id":"ce4bgvp2rcd13ifvqcu0","pricing_plan_id":"cebpf4jnsgd1na2vs0mg"},{"bike_id":"536484ed-d967-41c5-8f88-22ed70378acb","system_id":"levelo_inurba_marseille","lat":43.27494,"lon":5.39795,"is_reserved":false,"is_disabled":false,"rental_uris":{"android":"levelo://app?vid=536484ed-d967-41c5-8f88-22ed70378acb","ios":"levelo://app?vid=536484ed-d967-41c5-8f88-22ed70378acb"},"vehicle_type_id":"4","last_reported":1737655946,"current_range_meters":8000,"station_id":"","pricing_plan_id":"cebpf4jnsgd1na2vs0mg"},{"bike_id":"bc362bf3-b525-4204-b84e-5f6bfecf52c2","system_id":"levelo_inurba_marseille","lat":43.27806,"lon":5.40709,"is_reserved":false,"is_disabled":false,"rental_uris":{"android":"levelo://app?vid=bc362bf3-b525-4204-b84e-5f6bfecf52c2","ios":"levelo://app?vid=bc362bf3-b525-4204-b84e-5f6bfecf52c2"},"vehicle_type_id":"4","last_reported":1737655946,"current_range_meters":10800,"station_id":"ce4bhnh2rcd13ifvqgtg","pricing_plan_id":"cebpf4jnsgd1na2vs0mg"},{"bike_id":"a48a1d35-3f13-45af-a2ef-e29bf30d3d17","system_id":"levelo_inurba_marseille","lat":43.30799,"lon":5.43528,"is_reserved":false,"is_disabled":false,"rental_uris":{"android":"levelo://app?vid=a48a1d35-3f13-45af-a2ef-e29bf30d3d17","ios":"levelo://app?vid=a48a1d35-3f13-45af-a2ef-e29bf30d3d17"},"vehicle_type_id":"4","last_reported":1737655946,"current_range_meters":10000,"station_id":"ce4bhph2rcd13ifvqheg","pricing_plan_id":"cebpf4jnsgd1na2vs0mg"},{"bike_id":"1f7c7217-991e-49b3-8fc6-7ff9b461e132","system_id":"levelo_inurba_marseille","lat":43.29876,"lon":5.3975,"is_reserved":false,"is_disabled":false,"rental_uris":{"android":"levelo://app?vid=1f7c7217-991e-49b3-8fc6-7ff9b461e132","ios":"levelo://app?vid=1f7c7217-991e-49b3-8fc6-7ff9b461e132"},"vehicle_type_id":"4","last_reported":1737655946,"current_range_meters":2800,"station_id":"ce4bh0h2rcd13ifvqd50","pricing_plan_id":"cebpf4jnsgd1na2vs0mg"},{"bike_id":"050bd42b-0fa4-4ea3-8a02-3c1196960ece","system_id":"levelo_inurba_marseille","lat":43.31637,"lon":5.37401,"is_reserved":false,"is_disabled":false,"rental_uris":{"android":"levelo://app?vid=050bd42b-0fa4-4ea3-8a02-3c1196960ece","ios":"levelo://app?vid=050bd42b-0fa4-4ea3-8a02-3c1196960ece"},"vehicle_type_id":"4","last_reported":1737655946,"current_range_meters":26800,"station_id":"","pricing_plan_id":"cebpf4jnsgd1na2vs0mg"},{"bike_id":"3a59db95-3ba3-45d9-9d51-35faeb1e0f2b","system_id":"levelo_inurba_marseille","lat":43.25111,"lon":5.403276,"is_reserved":false,"is_disabled":false,"rental_uris":{"android":"levelo://app?vid=3a59db95-3ba3-45d9-9d51-35faeb1e0f2b","ios":"levelo://app?vid=3a59db95-3ba3-45d9-9d51-35faeb1e0f2b"},"vehicle_type_id":"4","last_reported":1737655946,"current_range_meters":29600,"station_id":"ce4bhlh2rcd13ifvqgig","pricing_plan_id":"cebpf4jnsgd1na2vs0mg"},{"bike_id":"773aef51-1c1e-46db-addb-ab008f84058c","system_id":"levelo_inurba_marseille","lat":43.2892,"lon":5.38384,"is_reserved":false,"is_disabled":false,"rental_uris":{"android":"levelo://app?vid=773aef51-1c1e-46db-addb-ab008f84058c","ios":"levelo://app?vid=773aef51-1c1e-46db-addb-ab008f84058c"},"vehicle_type_id":"4","last_reported":1737655946,"current_range_meters":6800,"station_id":"ce4bh612rcd13ifvqe6g","pricing_plan_id":"cebpf4jnsgd1na2vs0mg"},{"bike_id":"2f4fa984-4c44-4974-abb6-1d4b539de1f0","system_id":"levelo_inurba_marseille","lat":43.287,"lon":5.38651,"is_reserved":false,"is_disabled":true,"rental_uris":{"android":"levelo://app?vid=2f4fa984-4c44-4974-abb6-1d4b539de1f0","ios":"levelo://app?vid=2f4fa984-4c44-4974-abb6-1d4b539de1f0"},"vehicle_type_id":"4","last_reported":1737655946,"current_range_meters":36000,"station_id":"","pricing_plan_id":"cebpf4jnsgd1na2vs0mg"},{"bike_id":"347dd29e-9a9e-4a37-8ddd-6e2050aaff03","system_id":"levelo_inurba_marseille","lat":43.3373,"lon":5.39196,"is_reserved":false,"is_disabled":true,"rental_uris":{"android":"levelo://app?vid=347dd29e-9a9e-4a37-8ddd-6e2050aaff03","ios":"levelo://app?vid=347dd29e-9a9e-4a37-8ddd-6e2050aaff03"},"vehicle_type_id":"4","last_reported":1737655946,"current_range_meters":0,"station_id":"ce4bhr92rcd13ifvqhsg","pricing_plan_id":"cebpf4jnsgd1na2vs0mg"},{"bike_id":"a1b2f991-614d-4992-b026-ecffedca5dc0","system_id":"levelo_inurba_marseille","lat":43.29198,"lon":5.39334,"is_reserved":false,"is_disabled":false,"rental_uris":{"android":"levelo://app?vid=a1b2f991-614d-4992-b026-ecffedca5dc0","ios":"levelo://app?vid=a1b2f991-614d-4992-b026-ecffedca5dc0"},"vehicle_type_id":"4","last_reported":1737655946,"current_range_meters":35600,"station_id":"ce4bh192rcd13ifvqdd0","pricing_plan_id":"cebpf4jnsgd1na2vs0mg"},{"bike_id":"bc32fe9e-5d0d-4c67-850a-c98929b9b6c7","system_id":"levelo_inurba_marseille","lat":43.29535,"lon":5.38545,"is_reserved":false,"is_disabled":false,"rental_uris":{"android":"levelo://app?vid=bc32fe9e-5d0d-4c67-850a-c98929b9b6c7","ios":"levelo://app?vid=bc32fe9e-5d0d-4c67-850a-c98929b9b6c7"},"vehicle_type_id":"4","last_reported":1737655946,"current_range_meters":30800,"station_id":"ce4bgih2rcd13ifvqba0","pricing_plan_id":"cebpf4jnsgd1na2vs0mg"},{"bike_id":"33bdb648-9d21-4884-aef8-a671389b4fbb","system_id":"levelo_inurba_marseille","lat":43.29273,"lon":5.36839,"is_reserved":false,"is_disabled":true,"rental_uris":{"android":"levelo://app?vid=33bdb648-9d21-4884-aef8-a671389b4fbb","ios":"levelo://app?vid=33bdb648-9d21-4884-aef8-a671389b4fbb"},"vehicle_type_id":"4","last_reported":1737655946,"current_range_meters":1200,"station_id":"ce4bhbp2rcd13ifvqesg","pricing_plan_id":"cebpf4jnsgd1na2vs0mg"},{"bike_id":"f98a7ee0-f9fe-4556-933e-ecf6827038e5","system_id":"levelo_inurba_marseille","lat":43.29178,"lon":5.35716,"is_reserved":false,"is_disabled":false,"rental_uris":{"android":"levelo://app?vid=f98a7ee0-f9fe-4556-933e-ecf6827038e5","ios":"levelo://app?vid=f98a7ee0-f9fe-4556-933e-ecf6827038e5"},"vehicle_type_id":"4","last_reported":1737655946,"current_range_meters":12000,"station_id":"","pricing_plan_id":"cebpf4jnsgd1na2vs0mg"},{"bike_id":"90b8a1b1-ad54-458d-9362-f5197bbdf048","system_id":"levelo_inurba_marseille","lat":43.229351,"lon":5.353781,"is_reserved":false,"is_disabled":false,"rental_uris":{"android":"levelo://app?vid=90b8a1b1-ad54-458d-9362-f5197bbdf048","ios":"levelo://app?vid=90b8a1b1-ad54-458d-9362-f5197bbdf048"},"vehicle_type_id":"4","last_reported":1737655946,"current_range_meters":38400,"station_id":"cpo3532slgdg3j2ikp40","pricing_plan_id":"cebpf4jnsgd1na2vs0mg"},{"bike_id":"656571c3-6c17-4e0d-a9af-c80324863edf","system_id":"levelo_inurba_marseille","lat":43.292,"lon":5.35791,"is_reserved":false,"is_disabled":false,"rental_uris":{"android":"levelo://app?vid=656571c3-6c17-4e0d-a9af-c80324863edf","ios":"levelo://app?vid=656571c3-6c17-4e0d-a9af-c80324863edf"},"vehicle_type_id":"4","last_reported":1737655946,"current_range_meters":38000,"station_id":"ce4bhb12rcd13ifvqel0","pricing_plan_id":"cebpf4jnsgd1na2vs0mg"},{"bike_id":"5e54b863-24f9-49ee-b4ca-cb3e93ed5593","system_id":"levelo_inurba_marseille","lat":43.30432,"lon":5.39753,"is_reserved":false,"is_disabled":false,"rental_uris":{"android":"levelo://app?vid=5e54b863-24f9-49ee-b4ca-cb3e93ed5593","ios":"levelo://app?vid=5e54b863-24f9-49ee-b4ca-cb3e93ed5593"},"vehicle_type_id":"4","last_reported":1737655946,"current_range_meters":7200,"station_id":"ce4bh092rcd13ifvqd20","pricing_plan_id":"cebpf4jnsgd1na2vs0mg"},{"bike_id":"ad5fb5c7-4433-4968-848a-9868b4dfb06a","system_id":"levelo_inurba_marseille","lat":43.29299,"lon":5.37449,"is_reserved":false,"is_disabled":false,"rental_uris":{"android":"levelo://app?vid=ad5fb5c7-4433-4968-848a-9868b4dfb06a","ios":"levelo://app?vid=ad5fb5c7-4433-4968-848a-9868b4dfb06a"},"vehicle_type_id":"4","last_reported":1737655946,"current_range_meters":16400,"station_id":"ce4bgi12rcd13ifvqb70","pricing_plan_id":"cebpf4jnsgd1na2vs0mg"},{"bike_id":"62069f6c-3dd9-4b79-9f44-941214b1a57f","system_id":"levelo_inurba_marseille","lat":43.29942,"lon":5.36563,"is_reserved":false,"is_disabled":false,"rental_uris":{"android":"levelo://app?vid=62069f6c-3dd9-4b79-9f44-941214b1a57f","ios":"levelo://app?vid=62069f6c-3dd9-4b79-9f44-941214b1a57f"},"vehicle_type_id":"4","last_reported":1737655946,"current_range_meters":38800,"station_id":"ce4bgm92rcd13ifvqbr0","pricing_plan_id":"cebpf4jnsgd1na2vs0mg"},{"bike_id":"1c521484-0b29-41a9-9bd2-15ebb17b6cb5","system_id":"levelo_inurba_marseille","lat":43.2762,"lon":5.36115,"is_reserved":false,"is_disabled":false,"rental_uris":{"android":"levelo://app?vid=1c521484-0b29-41a9-9bd2-15ebb17b6cb5","ios":"levelo://app?vid=1c521484-0b29-41a9-9bd2-15ebb17b6cb5"},"vehicle_type_id":"4","last_reported":1737655946,"current_range_meters":35600,"station_id":"ce4bgj92rcd13ifvqbe0","pricing_plan_id":"cebpf4jnsgd1na2vs0mg"},{"bike_id":"ce90fea6-ff2a-4d0b-bd4f-45ced0acf4c0","system_id":"levelo_inurba_marseille","lat":43.32304,"lon":5.366,"is_reserved":false,"is_disabled":false,"rental_uris":{"android":"levelo://app?vid=ce90fea6-ff2a-4d0b-bd4f-45ced0acf4c0","ios":"levelo://app?vid=ce90fea6-ff2a-4d0b-bd4f-45ced0acf4c0"},"vehicle_type_id":"4","last_reported":1737655946,"current_range_meters":10000,"station_id":"ce4bhsh2rcd13ifvqi2g","pricing_plan_id":"cebpf4jnsgd1na2vs0mg"},{"bike_id":"c5a86040-4de7-4194-a1f1-f99eba591b8d","system_id":"levelo_inurba_marseille","lat":43.30143,"lon":5.38073,"is_reserved":false,"is_disabled":false,"rental_uris":{"android":"levelo://app?vid=c5a86040-4de7-4194-a1f1-f99eba591b8d","ios":"levelo://app?vid=c5a86040-4de7-4194-a1f1-f99eba591b8d"},"vehicle_type_id":"4","last_reported":1737655946,"current_range_meters":19200,"station_id":"ce4bgjp2rcd13ifvqbh0","pricing_plan_id":"cebpf4jnsgd1na2vs0mg"},{"bike_id":"ab13439f-1c4b-4b83-ac72-9f4e6d1f64cb","system_id":"levelo_inurba_marseille","lat":43.31246,"lon":5.38003,"is_reserved":false,"is_disabled":true,"rental_uris":{"android":"levelo://app?vid=ab13439f-1c4b-4b83-ac72-9f4e6d1f64cb","ios":"levelo://app?vid=ab13439f-1c4b-4b83-ac72-9f4e6d1f64cb"},"vehicle_type_id":"4","last_reported":1737655946,"current_range_meters":9600,"station_id":"","pricing_plan_id":"cebpf4jnsgd1na2vs0mg"},{"bike_id":"d2c3071e-adcf-41bd-b088-c6978a9812a5","system_id":"levelo_inurba_marseille","lat":43.31711,"lon":5.43708,"is_reserved":false,"is_disabled":false,"rental_uris":{"android":"levelo://app?vid=d2c3071e-adcf-41bd-b088-c6978a9812a5","ios":"levelo://app?vid=d2c3071e-adcf-41bd-b088-c6978a9812a5"},"vehicle_type_id":"4","last_reported":1737655946,"current_range_meters":38800,"station_id":"ce4bhp92rcd13ifvqhcg","pricing_plan_id":"cebpf4jnsgd1na2vs0mg"},{"bike_id":"02394dc5-85af-47df-a8e1-31c154c9e2cc","system_id":"levelo_inurba_marseille","lat":43.23181,"lon":5.39986,"is_reserved":false,"is_disabled":false,"rental_uris":{"android":"levelo://app?vid=02394dc5-85af-47df-a8e1-31c154c9e2cc","ios":"levelo://app?vid=02394dc5-85af-47df-a8e1-31c154c9e2cc"},"vehicle_type_id":"4","last_reported":1737655946,"current_range_meters":37600,"station_id":"ce4bhn12rcd13ifvqgqg","pricing_plan_id":"cebpf4jnsgd1na2vs0mg"},{"bike_id":"f727cadd-b012-439d-9f69-5c90e77b0085","system_id":"levelo_inurba_marseille","lat":43.31757,"lon":5.39018,"is_reserved":false,"is_disabled":false,"rental_uris":{"android":"levelo://app?vid=f727cadd-b012-439d-9f69-5c90e77b0085","ios":"levelo://app?vid=f727cadd-b012-439d-9f69-5c90e77b0085"},"vehicle_type_id":"4","last_reported":1737655946,"current_range_meters":10800,"station_id":"ce4bhqp2rcd13ifvqhng","pricing_plan_id":"cebpf4jnsgd1na2vs0mg"},{"bike_id":"40467115-5cc1-4538-8b92-1101369f5ad9","system_id":"levelo_inurba_marseille","lat":43.29305,"lon":5.37173,"is_reserved":false,"is_disabled":false,"rental_uris":{"android":"levelo://app?vid=40467115-5cc1-4538-8b92-1101369f5ad9","ios":"levelo://app?vid=40467115-5cc1-4538-8b92-1101369f5ad9"},"vehicle_type_id":"4","last_reported":1737655946,"current_range_meters":32800,"station_id":"ce4bgh92rcd13ifvqb40","pricing_plan_id":"cebpf4jnsgd1na2vs0mg"},{"bike_id":"8adc7d0b-aa5b-4442-b48e-179492d47b5b","system_id":"levelo_inurba_marseille","lat":43.26787,"lon":5.39416,"is_reserved":false,"is_disabled":false,"rental_uris":{"android":"levelo://app?vid=8adc7d0b-aa5b-4442-b48e-179492d47b5b","ios":"levelo://app?vid=8adc7d0b-aa5b-4442-b48e-179492d47b5b"},"vehicle_type_id":"4","last_reported":1737655946,"current_range_meters":34800,"station_id":"ce4bhh12rcd13ifvqfg0","pricing_plan_id":"cebpf4jnsgd1na2vs0mg"},{"bike_id":"852c4b2c-ff0b-4349-b1ad-8f4566913b6c","system_id":"levelo_inurba_marseille","lat":43.29705,"lon":5.37693,"is_reserved":false,"is_disabled":true,"rental_uris":{"android":"levelo://app?vid=852c4b2c-ff0b-4349-b1ad-8f4566913b6c","ios":"levelo://app?vid=852c4b2c-ff0b-4349-b1ad-8f4566913b6c"},"vehicle_type_id":"4","last_reported":1737655946,"current_range_meters":400,"station_id":"ce4bgkh2rcd13ifvqbl0","pricing_plan_id":"cebpf4jnsgd1na2vs0mg"},{"bike_id":"68e83d05-d94a-49cd-97b5-b91a5ceffe71","system_id":"levelo_inurba_marseille","lat":43.2893,"lon":5.38391,"is_reserved":false,"is_disabled":false,"rental_uris":{"android":"levelo://app?vid=68e83d05-d94a-49cd-97b5-b91a5ceffe71","ios":"levelo://app?vid=68e83d05-d94a-49cd-97b5-b91a5ceffe71"},"vehicle_type_id":"4","last_reported":1737655946,"current_range_meters":35600,"station_id":"ce4bh612rcd13ifvqe6g","pricing_plan_id":"cebpf4jnsgd1na2vs0mg"},{"bike_id":"5134984d-8a77-45c8-84b2-42be4bacac88","system_id":"levelo_inurba_marseille","lat":43.30361,"lon":5.41875,"is_reserved":false,"is_disabled":false,"rental_uris":{"android":"levelo://app?vid=5134984d-8a77-45c8-84b2-42be4bacac88","ios":"levelo://app?vid=5134984d-8a77-45c8-84b2-42be4bacac88"},"vehicle_type_id":"4","last_reported":1737655946,"current_range_meters":37600,"station_id":"ce4bhop2rcd13ifvqh7g","pricing_plan_id":"cebpf4jnsgd1na2vs0mg"},{"bike_id":"a6589423-f81d-43db-8547-4d93d0a4d5b1","system_id":"levelo_inurba_marseille","lat":43.30936,"lon":5.40149,"is_reserved":false,"is_disabled":false,"rental_uris":{"android":"levelo://app?vid=a6589423-f81d-43db-8547-4d93d0a4d5b1","ios":"levelo://app?vid=a6589423-f81d-43db-8547-4d93d0a4d5b1"},"vehicle_type_id":"4","last_reported":1737655946,"current_range_meters":38800,"station_id":"ce4bgvp2rcd13ifvqct0","pricing_plan_id":"cebpf4jnsgd1na2vs0mg"},{"bike_id":"2876aca2-4ddb-4f16-984a-1efd2877960c","system_id":"levelo_inurba_marseille","lat":43.3374,"lon":5.3916,"is_reserved":false,"is_disabled":false,"rental_uris":{"android":"levelo://app?vid=2876aca2-4ddb-4f16-984a-1efd2877960c","ios":"levelo://app?vid=2876aca2-4ddb-4f16-984a-1efd2877960c"},"vehicle_type_id":"4","last_reported":1737655946,"current_range_meters":38800,"station_id":"ce4bhr92rcd13ifvqhsg","pricing_plan_id":"cebpf4jnsgd1na2vs0mg"},{"bike_id":"08e327aa-4f5b-4e8a-b7e7-01baaa34cbd9","system_id":"levelo_inurba_marseille","lat":43.27998,"lon":5.40016,"is_reserved":false,"is_disabled":false,"rental_uris":{"android":"levelo://app?vid=08e327aa-4f5b-4e8a-b7e7-01baaa34cbd9","ios":"levelo://app?vid=08e327aa-4f5b-4e8a-b7e7-01baaa34cbd9"},"vehicle_type_id":"4","last_reported":1737655946,"current_range_meters":38800,"station_id":"ce4bho92rcd13ifvqh4g","pricing_plan_id":"cebpf4jnsgd1na2vs0mg"},{"bike_id":"acb23a67-c708-4e69-adcd-37fdba94603e","system_id":"levelo_inurba_marseille","lat":43.27843,"lon":5.38528,"is_reserved":false,"is_disabled":false,"rental_uris":{"android":"levelo://app?vid=acb23a67-c708-4e69-adcd-37fdba94603e","ios":"levelo://app?vid=acb23a67-c708-4e69-adcd-37fdba94603e"},"vehicle_type_id":"4","last_reported":1737655946,"current_range_meters":11600,"station_id":"","pricing_plan_id":"cebpf4jnsgd1na2vs0mg"},{"bike_id":"bd1bfbb2-238c-4a70-86f5-2bae8805b1aa","system_id":"levelo_inurba_marseille","lat":43.30597,"lon":5.37235,"is_reserved":false,"is_disabled":true,"rental_uris":{"android":"levelo://app?vid=bd1bfbb2-238c-4a70-86f5-2bae8805b1aa","ios":"levelo://app?vid=bd1bfbb2-238c-4a70-86f5-2bae8805b1aa"},"vehicle_type_id":"4","last_reported":1737655946,"current_range_meters":0,"station_id":"ce4bgqh2rcd13ifvqc4g","pricing_plan_id":"cebpf4jnsgd1na2vs0mg"},{"bike_id":"b3f0b266-6469-4deb-9550-7f4d29fecd11","system_id":"levelo_inurba_marseille","lat":43.263397,"lon":5.401654,"is_reserved":false,"is_disabled":false,"rental_uris":{"android":"levelo://app?vid=b3f0b266-6469-4deb-9550-7f4d29fecd11","ios":"levelo://app?vid=b3f0b266-6469-4deb-9550-7f4d29fecd11"},"vehicle_type_id":"4","last_reported":1737655946,"current_range_meters":24400,"station_id":"ce4bhm92rcd13ifvqglg","pricing_plan_id":"cebpf4jnsgd1na2vs0mg"},{"bike_id":"1cf55402-87c5-435d-85af-2c6c0e9ef152","system_id":"levelo_inurba_marseille","lat":43.3248,"lon":5.36565,"is_reserved":false,"is_disabled":false,"rental_uris":{"android":"levelo://app?vid=1cf55402-87c5-435d-85af-2c6c0e9ef152","ios":"levelo://app?vid=1cf55402-87c5-435d-85af-2c6c0e9ef152"},"vehicle_type_id":"4","last_reported":1737655946,"current_range_meters":6400,"station_id":"ce4bhs12rcd13ifvqhvg","pricing_plan_id":"cebpf4jnsgd1na2vs0mg"},{"bike_id":"66fa9073-c159-445d-a494-1e0beded8a13","system_id":"levelo_inurba_marseille","lat":43.22931,"lon":5.3538,"is_reserved":false,"is_disabled":false,"rental_uris":{"android":"levelo://app?vid=66fa9073-c159-445d-a494-1e0beded8a13","ios":"levelo://app?vid=66fa9073-c159-445d-a494-1e0beded8a13"},"vehicle_type_id":"4","last_reported":1737655946,"current_range_meters":18000,"station_id":"cpo3532slgdg3j2ikp40","pricing_plan_id":"cebpf4jnsgd1na2vs0mg"},{"bike_id":"e505fad4-237b-4dd9-bd13-a8b88153cfa5","system_id":"levelo_inurba_marseille","lat":43.29218,"lon":5.36059,"is_reserved":false,"is_disabled":false,"rental_uris":{"android":"levelo://app?vid=e505fad4-237b-4dd9-bd13-a8b88153cfa5","ios":"levelo://app?vid=e505fad4-237b-4dd9-bd13-a8b88153cfa5"},"vehicle_type_id":"4","last_reported":1737655946,"current_range_meters":38800,"station_id":"ce4bhbh2rcd13ifvqeqg","pricing_plan_id":"cebpf4jnsgd1na2vs0mg"},{"bike_id":"f7f20ea8-ac89-40b3-bd17-c73f31722701","system_id":"levelo_inurba_marseille","lat":43.29906,"lon":5.43681,"is_reserved":false,"is_disabled":false,"rental_uris":{"android":"levelo://app?vid=f7f20ea8-ac89-40b3-bd17-c73f31722701","ios":"levelo://app?vid=f7f20ea8-ac89-40b3-bd17-c73f31722701"},"vehicle_type_id":"4","last_reported":1737655946,"current_range_meters":6400,"station_id":"ce4bhpp2rcd13ifvqhfg","pricing_plan_id":"cebpf4jnsgd1na2vs0mg"},{"bike_id":"9c6072e3-22ab-45ca-9fc6-da9e28d7e67d","system_id":"levelo_inurba_marseille","lat":43.26208,"lon":5.37442,"is_reserved":false,"is_disabled":false,"rental_uris":{"android":"levelo://app?vid=9c6072e3-22ab-45ca-9fc6-da9e28d7e67d","ios":"levelo://app?vid=9c6072e3-22ab-45ca-9fc6-da9e28d7e67d"},"vehicle_type_id":"4","last_reported":1737655946,"current_range_meters":20800,"station_id":"ce4bhgp2rcd13ifvqfc0","pricing_plan_id":"cebpf4jnsgd1na2vs0mg"},{"bike_id":"146f87da-04e7-4fa2-aa85-564d3ef8ab7f","system_id":"levelo_inurba_marseille","lat":43.29602,"lon":5.380979,"is_reserved":false,"is_disabled":false,"rental_uris":{"android":"levelo://app?vid=146f87da-04e7-4fa2-aa85-564d3ef8ab7f","ios":"levelo://app?vid=146f87da-04e7-4fa2-aa85-564d3ef8ab7f"},"vehicle_type_id":"4","last_reported":1737655946,"current_range_meters":19600,"station_id":"ce4bgl12rcd13ifvqbo0","pricing_plan_id":"cebpf4jnsgd1na2vs0mg"},{"bike_id":"57ce499e-d4f7-4b47-be4a-ba8113d200a0","system_id":"levelo_inurba_marseille","lat":43.27996,"lon":5.41656,"is_reserved":false,"is_disabled":false,"rental_uris":{"android":"levelo://app?vid=57ce499e-d4f7-4b47-be4a-ba8113d200a0","ios":"levelo://app?vid=57ce499e-d4f7-4b47-be4a-ba8113d200a0"},"vehicle_type_id":"4","last_reported":1737655946,"current_range_meters":11600,"station_id":"ce4bho12rcd13ifvqh1g","pricing_plan_id":"cebpf4jnsgd1na2vs0mg"},{"bike_id":"232b25b7-fa81-4630-9104-082348ac0480","system_id":"levelo_inurba_marseille","lat":43.2799,"lon":5.40046,"is_reserved":false,"is_disabled":false,"rental_uris":{"android":"levelo://app?vid=232b25b7-fa81-4630-9104-082348ac0480","ios":"levelo://app?vid=232b25b7-fa81-4630-9104-082348ac0480"},"vehicle_type_id":"4","last_reported":1737655946,"current_range_meters":38800,"station_id":"ce4bho92rcd13ifvqh4g","pricing_plan_id":"cebpf4jnsgd1na2vs0mg"},{"bike_id":"f7d48dec-58d8-4d1f-9306-318a3e03c002","system_id":"levelo_inurba_marseille","lat":43.29217,"lon":5.35791,"is_reserved":false,"is_disabled":false,"rental_uris":{"android":"levelo://app?vid=f7d48dec-58d8-4d1f-9306-318a3e03c002","ios":"levelo://app?vid=f7d48dec-58d8-4d1f-9306-318a3e03c002"},"vehicle_type_id":"4","last_reported":1737655946,"current_range_meters":37600,"station_id":"ce4bhb12rcd13ifvqel0","pricing_plan_id":"cebpf4jnsgd1na2vs0mg"},{"bike_id":"5f327abf-210e-4a1e-9878-216a20eec0bc","system_id":"levelo_inurba_marseille","lat":43.27814,"lon":5.40721,"is_reserved":false,"is_disabled":false,"rental_uris":{"android":"levelo://app?vid=5f327abf-210e-4a1e-9878-216a20eec0bc","ios":"levelo://app?vid=5f327abf-210e-4a1e-9878-216a20eec0bc"},"vehicle_type_id":"4","last_reported":1737655946,"current_range_meters":12000,"station_id":"ce4bhnh2rcd13ifvqgtg","pricing_plan_id":"cebpf4jnsgd1na2vs0mg"},{"bike_id":"e5918268-d163-4dfc-934a-8c03f49f9ea3","system_id":"levelo_inurba_marseille","lat":43.27005,"lon":5.39949,"is_reserved":false,"is_disabled":false,"rental_uris":{"android":"levelo://app?vid=e5918268-d163-4dfc-934a-8c03f49f9ea3","ios":"levelo://app?vid=e5918268-d163-4dfc-934a-8c03f49f9ea3"},"vehicle_type_id":"4","last_reported":1737655946,"current_range_meters":18800,"station_id":"","pricing_plan_id":"cebpf4jnsgd1na2vs0mg"},{"bike_id":"16b31322-6881-41db-96c5-d0a35ec69470","system_id":"levelo_inurba_marseille","lat":43.29416,"lon":5.38621,"is_reserved":false,"is_disabled":false,"rental_uris":{"android":"levelo://app?vid=16b31322-6881-41db-96c5-d0a35ec69470","ios":"levelo://app?vid=16b31322-6881-41db-96c5-d0a35ec69470"},"vehicle_type_id":"4","last_reported":1737655946,"current_range_meters":38000,"station_id":"ce4bh2h2rcd13ifvqdh0","pricing_plan_id":"cebpf4jnsgd1na2vs0mg"},{"bike_id":"7a55f28a-5a5b-4ca4-9825-dee123c17d08","system_id":"levelo_inurba_marseille","lat":43.3211,"lon":5.36783,"is_reserved":false,"is_disabled":true,"rental_uris":{"android":"levelo://app?vid=7a55f28a-5a5b-4ca4-9825-dee123c17d08","ios":"levelo://app?vid=7a55f28a-5a5b-4ca4-9825-dee123c17d08"},"vehicle_type_id":"4","last_reported":1737655946,"current_range_meters":0,"station_id":"ce4bhrh2rcd13ifvqhug","pricing_plan_id":"cebpf4jnsgd1na2vs0mg"},{"bike_id":"7ae57d4a-987c-4a94-bf67-7089b41c8d83","system_id":"levelo_inurba_marseille","lat":43.27614,"lon":5.36106,"is_reserved":false,"is_disabled":true,"rental_uris":{"android":"levelo://app?vid=7ae57d4a-987c-4a94-bf67-7089b41c8d83","ios":"levelo://app?vid=7ae57d4a-987c-4a94-bf67-7089b41c8d83"},"vehicle_type_id":"4","last_reported":1737655946,"current_range_meters":1600,"station_id":"ce4bgj92rcd13ifvqbe0","pricing_plan_id":"cebpf4jnsgd1na2vs0mg"},{"bike_id":"acc9e968-42f2-443f-bb58-cd32856c66f2","system_id":"levelo_inurba_marseille","lat":43.28388,"lon":5.37501,"is_reserved":false,"is_disabled":false,"rental_uris":{"android":"levelo://app?vid=acc9e968-42f2-443f-bb58-cd32856c66f2","ios":"levelo://app?vid=acc9e968-42f2-443f-bb58-cd32856c66f2"},"vehicle_type_id":"4","last_reported":1737655946,"current_range_meters":28400,"station_id":"ce4bh412rcd13ifvqds0","pricing_plan_id":"cebpf4jnsgd1na2vs0mg"},{"bike_id":"6a200a6c-be29-4daf-8a99-35eadd55ad94","system_id":"levelo_inurba_marseille","lat":43.29403,"lon":5.38651,"is_reserved":false,"is_disabled":false,"rental_uris":{"android":"levelo://app?vid=6a200a6c-be29-4daf-8a99-35eadd55ad94","ios":"levelo://app?vid=6a200a6c-be29-4daf-8a99-35eadd55ad94"},"vehicle_type_id":"4","last_reported":1737655946,"current_range_meters":39200,"station_id":"ce4bh2h2rcd13ifvqdh0","pricing_plan_id":"cebpf4jnsgd1na2vs0mg"},{"bike_id":"4bed9238-79c2-4a4d-9662-7c054bf9aafe","system_id":"levelo_inurba_marseille","lat":43.26948,"lon":5.38641,"is_reserved":false,"is_disabled":false,"rental_uris":{"android":"levelo://app?vid=4bed9238-79c2-4a4d-9662-7c054bf9aafe","ios":"levelo://app?vid=4bed9238-79c2-4a4d-9662-7c054bf9aafe"},"vehicle_type_id":"4","last_reported":1737655946,"current_range_meters":38800,"station_id":"ce4bhh92rcd13ifvqfh0","pricing_plan_id":"cebpf4jnsgd1na2vs0mg"},{"bike_id":"35614ed7-a0df-4792-bca2-a1978fcd9fab","system_id":"levelo_inurba_marseille","lat":43.30814,"lon":5.43501,"is_reserved":false,"is_disabled":true,"rental_uris":{"android":"levelo://app?vid=35614ed7-a0df-4792-bca2-a1978fcd9fab","ios":"levelo://app?vid=35614ed7-a0df-4792-bca2-a1978fcd9fab"},"vehicle_type_id":"4","last_reported":1737655946,"current_range_meters":0,"station_id":"ce4bhph2rcd13ifvqheg","pricing_plan_id":"cebpf4jnsgd1na2vs0mg"},{"bike_id":"59330309-df9a-48c4-9235-796da7a2782d","system_id":"levelo_inurba_marseille","lat":43.30789,"lon":5.43515,"is_reserved":false,"is_disabled":true,"rental_uris":{"android":"levelo://app?vid=59330309-df9a-48c4-9235-796da7a2782d","ios":"levelo://app?vid=59330309-df9a-48c4-9235-796da7a2782d"},"vehicle_type_id":"4","last_reported":1737655946,"current_range_meters":0,"station_id":"ce4bhph2rcd13ifvqheg","pricing_plan_id":"cebpf4jnsgd1na2vs0mg"},{"bike_id":"f6c02ba1-b937-454a-ac95-c67fb385cab9","system_id":"levelo_inurba_marseille","lat":43.28475,"lon":5.38556,"is_reserved":false,"is_disabled":false,"rental_uris":{"android":"levelo://app?vid=f6c02ba1-b937-454a-ac95-c67fb385cab9","ios":"levelo://app?vid=f6c02ba1-b937-454a-ac95-c67fb385cab9"},"vehicle_type_id":"4","last_reported":1737655946,"current_range_meters":21600,"station_id":"ce4bh8p2rcd13ifvqeb0","pricing_plan_id":"cebpf4jnsgd1na2vs0mg"},{"bike_id":"8661b5e3-5c50-41b5-9990-f6cea7332865","system_id":"levelo_inurba_marseille","lat":43.29188,"lon":5.35781,"is_reserved":false,"is_disabled":false,"rental_uris":{"android":"levelo://app?vid=8661b5e3-5c50-41b5-9990-f6cea7332865","ios":"levelo://app?vid=8661b5e3-5c50-41b5-9990-f6cea7332865"},"vehicle_type_id":"4","last_reported":1737655946,"current_range_meters":38800,"station_id":"ce4bhb12rcd13ifvqel0","pricing_plan_id":"cebpf4jnsgd1na2vs0mg"},{"bike_id":"7b7f08be-5484-40ce-80f9-e232abf00b5f","system_id":"levelo_inurba_marseille","lat":43.30091,"lon":5.39075,"is_reserved":false,"is_disabled":false,"rental_uris":{"android":"levelo://app?vid=7b7f08be-5484-40ce-80f9-e232abf00b5f","ios":"levelo://app?vid=7b7f08be-5484-40ce-80f9-e232abf00b5f"},"vehicle_type_id":"4","last_reported":1737655946,"current_range_meters":34800,"station_id":"ce4bh192rcd13ifvqdb0","pricing_plan_id":"cebpf4jnsgd1na2vs0mg"},{"bike_id":"5e0169dd-cfb6-4345-b9e5-59ab64e75e4d","system_id":"levelo_inurba_marseille","lat":43.32289,"lon":5.38273,"is_reserved":false,"is_disabled":false,"rental_uris":{"android":"levelo://app?vid=5e0169dd-cfb6-4345-b9e5-59ab64e75e4d","ios":"levelo://app?vid=5e0169dd-cfb6-4345-b9e5-59ab64e75e4d"},"vehicle_type_id":"4","last_reported":1737655946,"current_range_meters":38800,"station_id":"ce4bhr12rcd13ifvqhqg","pricing_plan_id":"cebpf4jnsgd1na2vs0mg"},{"bike_id":"bf49bae2-9c26-4641-9558-b17e1f3df312","system_id":"levelo_inurba_marseille","lat":43.23183,"lon":5.39985,"is_reserved":false,"is_disabled":false,"rental_uris":{"android":"levelo://app?vid=bf49bae2-9c26-4641-9558-b17e1f3df312","ios":"levelo://app?vid=bf49bae2-9c26-4641-9558-b17e1f3df312"},"vehicle_type_id":"4","last_reported":1737655946,"current_range_meters":4000,"station_id":"ce4bhn12rcd13ifvqgqg","pricing_plan_id":"cebpf4jnsgd1na2vs0mg"},{"bike_id":"96bd9e64-ec79-445f-af92-f8aeeeeb8575","system_id":"levelo_inurba_marseille","lat":43.284083,"lon":5.375421,"is_reserved":false,"is_disabled":false,"rental_uris":{"android":"levelo://app?vid=96bd9e64-ec79-445f-af92-f8aeeeeb8575","ios":"levelo://app?vid=96bd9e64-ec79-445f-af92-f8aeeeeb8575"},"vehicle_type_id":"4","last_reported":1737655946,"current_range_meters":12000,"station_id":"ce4bh412rcd13ifvqds0","pricing_plan_id":"cebpf4jnsgd1na2vs0mg"},{"bike_id":"532f3be0-ce0b-410d-83cc-6419ce4bbd67","system_id":"levelo_inurba_marseille","lat":43.31069,"lon":5.38348,"is_reserved":false,"is_disabled":false,"rental_uris":{"android":"levelo://app?vid=532f3be0-ce0b-410d-83cc-6419ce4bbd67","ios":"levelo://app?vid=532f3be0-ce0b-410d-83cc-6419ce4bbd67"},"vehicle_type_id":"4","last_reported":1737655946,"current_range_meters":17600,"station_id":"ce4bgv92rcd13ifvqcr0","pricing_plan_id":"cebpf4jnsgd1na2vs0mg"},{"bike_id":"a909192c-b42e-42fd-897a-26537d9a69e9","system_id":"levelo_inurba_marseille","lat":43.29968,"lon":5.41325,"is_reserved":false,"is_disabled":true,"rental_uris":{"android":"levelo://app?vid=a909192c-b42e-42fd-897a-26537d9a69e9","ios":"levelo://app?vid=a909192c-b42e-42fd-897a-26537d9a69e9"},"vehicle_type_id":"4","last_reported":1737655946,"current_range_meters":0,"station_id":"ce4bhp12rcd13ifvqh9g","pricing_plan_id":"cebpf4jnsgd1na2vs0mg"},{"bike_id":"eb3ca7ae-a1ea-4fc7-908d-1a734718f0d6","system_id":"levelo_inurba_marseille","lat":43.28393,"lon":5.37546,"is_reserved":false,"is_disabled":false,"rental_uris":{"android":"levelo://app?vid=eb3ca7ae-a1ea-4fc7-908d-1a734718f0d6","ios":"levelo://app?vid=eb3ca7ae-a1ea-4fc7-908d-1a734718f0d6"},"vehicle_type_id":"4","last_reported":1737655946,"current_range_meters":17200,"station_id":"ce4bh412rcd13ifvqds0","pricing_plan_id":"cebpf4jnsgd1na2vs0mg"},{"bike_id":"88795e6b-ecec-4c4d-8ca0-6066e41d68ed","system_id":"levelo_inurba_marseille","lat":43.30546,"lon":5.38415,"is_reserved":false,"is_disabled":false,"rental_uris":{"android":"levelo://app?vid=88795e6b-ecec-4c4d-8ca0-6066e41d68ed","ios":"levelo://app?vid=88795e6b-ecec-4c4d-8ca0-6066e41d68ed"},"vehicle_type_id":"4","last_reported":1737655946,"current_range_meters":12000,"station_id":"ce4bgg92rcd13ifvqb30","pricing_plan_id":"cebpf4jnsgd1na2vs0mg"},{"bike_id":"0835fdee-96cd-4bac-a68b-50000a930abe","system_id":"levelo_inurba_marseille","lat":43.298553,"lon":5.362933,"is_reserved":false,"is_disabled":false,"rental_uris":{"android":"levelo://app?vid=0835fdee-96cd-4bac-a68b-50000a930abe","ios":"levelo://app?vid=0835fdee-96cd-4bac-a68b-50000a930abe"},"vehicle_type_id":"4","last_reported":1737655946,"current_range_meters":38800,"station_id":"ce4bgpp2rcd13ifvqc3g","pricing_plan_id":"cebpf4jnsgd1na2vs0mg"},{"bike_id":"1ea3e8ce-5a26-4c3b-b0aa-96a347f3d14e","system_id":"levelo_inurba_marseille","lat":43.30189,"lon":5.36636,"is_reserved":false,"is_disabled":false,"rental_uris":{"android":"levelo://app?vid=1ea3e8ce-5a26-4c3b-b0aa-96a347f3d14e","ios":"levelo://app?vid=1ea3e8ce-5a26-4c3b-b0aa-96a347f3d14e"},"vehicle_type_id":"4","last_reported":1737655946,"current_range_meters":33600,"station_id":"ce4bgrh2rcd13ifvqc8g","pricing_plan_id":"cebpf4jnsgd1na2vs0mg"},{"bike_id":"730a19d7-8638-4500-9d66-b33219f24537","system_id":"levelo_inurba_marseille","lat":43.30802,"lon":5.43521,"is_reserved":false,"is_disabled":false,"rental_uris":{"android":"levelo://app?vid=730a19d7-8638-4500-9d66-b33219f24537","ios":"levelo://app?vid=730a19d7-8638-4500-9d66-b33219f24537"},"vehicle_type_id":"4","last_reported":1737655946,"current_range_meters":24800,"station_id":"ce4bhph2rcd13ifvqheg","pricing_plan_id":"cebpf4jnsgd1na2vs0mg"},{"bike_id":"d2b4ed73-d7f8-4c49-bef7-db3f88698c80","system_id":"levelo_inurba_marseille","lat":43.3033,"lon":5.40429,"is_reserved":false,"is_disabled":true,"rental_uris":{"android":"levelo://app?vid=d2b4ed73-d7f8-4c49-bef7-db3f88698c80","ios":"levelo://app?vid=d2b4ed73-d7f8-4c49-bef7-db3f88698c80"},"vehicle_type_id":"4","last_reported":1737655946,"current_range_meters":0,"station_id":"ce4bh012rcd13ifvqd10","pricing_plan_id":"cebpf4jnsgd1na2vs0mg"},{"bike_id":"f2a423d2-541a-4d27-98b1-bbdc8f11174c","system_id":"levelo_inurba_marseille","lat":43.30595,"lon":5.39348,"is_reserved":false,"is_disabled":true,"rental_uris":{"android":"levelo://app?vid=f2a423d2-541a-4d27-98b1-bbdc8f11174c","ios":"levelo://app?vid=f2a423d2-541a-4d27-98b1-bbdc8f11174c"},"vehicle_type_id":"4","last_reported":1737655946,"current_range_meters":9200,"station_id":"ce4bh0p2rcd13ifvqd80","pricing_plan_id":"cebpf4jnsgd1na2vs0mg"},{"bike_id":"90562b19-8802-4e76-a682-f90dad6ec469","system_id":"levelo_inurba_marseille","lat":43.29542,"lon":5.38546,"is_reserved":false,"is_disabled":true,"rental_uris":{"android":"levelo://app?vid=90562b19-8802-4e76-a682-f90dad6ec469","ios":"levelo://app?vid=90562b19-8802-4e76-a682-f90dad6ec469"},"vehicle_type_id":"4","last_reported":1737655946,"current_range_meters":1200,"station_id":"ce4bgih2rcd13ifvqba0","pricing_plan_id":"cebpf4jnsgd1na2vs0mg"},{"bike_id":"9863b7f9-4316-4322-9f6c-3cc66b0448e2","system_id":"levelo_inurba_marseille","lat":43.279439,"lon":5.389008,"is_reserved":false,"is_disabled":true,"rental_uris":{"android":"levelo://app?vid=9863b7f9-4316-4322-9f6c-3cc66b0448e2","ios":"levelo://app?vid=9863b7f9-4316-4322-9f6c-3cc66b0448e2"},"vehicle_type_id":"4","last_reported":1737655946,"current_range_meters":24000,"station_id":"","pricing_plan_id":"cebpf4jnsgd1na2vs0mg"},{"bike_id":"a500873e-6683-42d5-9071-d5e5d7732db1","system_id":"levelo_inurba_marseille","lat":43.25862,"lon":5.3992,"is_reserved":false,"is_disabled":false,"rental_uris":{"android":"levelo://app?vid=a500873e-6683-42d5-9071-d5e5d7732db1","ios":"levelo://app?vid=a500873e-6683-42d5-9071-d5e5d7732db1"},"vehicle_type_id":"4","last_reported":1737655946,"current_range_meters":18000,"station_id":"ce4bhl92rcd13ifvqghg","pricing_plan_id":"cebpf4jnsgd1na2vs0mg"},{"bike_id":"ab927040-bfc3-4782-b1b3-ffbf9d71bc34","system_id":"levelo_inurba_marseille","lat":43.26675,"lon":5.38267,"is_reserved":false,"is_disabled":true,"rental_uris":{"android":"levelo://app?vid=ab927040-bfc3-4782-b1b3-ffbf9d71bc34","ios":"levelo://app?vid=ab927040-bfc3-4782-b1b3-ffbf9d71bc34"},"vehicle_type_id":"4","last_reported":1737655946,"current_range_meters":38800,"station_id":"ce4bhg92rcd13ifvqf90","pricing_plan_id":"cebpf4jnsgd1na2vs0mg"},{"bike_id":"41490647-7dcc-4071-b4f6-d8e4813dd93b","system_id":"levelo_inurba_marseille","lat":43.28567,"lon":5.39498,"is_reserved":false,"is_disabled":false,"rental_uris":{"android":"levelo://app?vid=41490647-7dcc-4071-b4f6-d8e4813dd93b","ios":"levelo://app?vid=41490647-7dcc-4071-b4f6-d8e4813dd93b"},"vehicle_type_id":"4","last_reported":1737655946,"current_range_meters":38800,"station_id":"ce4bh292rcd13ifvqdg0","pricing_plan_id":"cebpf4jnsgd1na2vs0mg"},{"bike_id":"df440bf5-3aa6-4938-be86-549397dc1af3","system_id":"levelo_inurba_marseille","lat":43.30649,"lon":5.40102,"is_reserved":false,"is_disabled":false,"rental_uris":{"android":"levelo://app?vid=df440bf5-3aa6-4938-be86-549397dc1af3","ios":"levelo://app?vid=df440bf5-3aa6-4938-be86-549397dc1af3"},"vehicle_type_id":"4","last_reported":1737655946,"current_range_meters":14400,"station_id":"ce4bh112rcd13ifvqda0","pricing_plan_id":"cebpf4jnsgd1na2vs0mg"},{"bike_id":"e11d5e25-e272-47e7-bd8a-065bf108edeb","system_id":"levelo_inurba_marseille","lat":43.29258,"lon":5.38428,"is_reserved":false,"is_disabled":true,"rental_uris":{"android":"levelo://app?vid=e11d5e25-e272-47e7-bd8a-065bf108edeb","ios":"levelo://app?vid=e11d5e25-e272-47e7-bd8a-065bf108edeb"},"vehicle_type_id":"4","last_reported":1737655946,"current_range_meters":18800,"station_id":"ce4bh692rcd13ifvqea0","pricing_plan_id":"cebpf4jnsgd1na2vs0mg"},{"bike_id":"04658b9e-5974-47e3-9ffc-8e3de9314893","system_id":"levelo_inurba_marseille","lat":43.30472,"lon":5.37905,"is_reserved":false,"is_disabled":true,"rental_uris":{"android":"levelo://app?vid=04658b9e-5974-47e3-9ffc-8e3de9314893","ios":"levelo://app?vid=04658b9e-5974-47e3-9ffc-8e3de9314893"},"vehicle_type_id":"4","last_reported":1737655946,"current_range_meters":1600,"station_id":"ce4bgup2rcd13ifvqcn0","pricing_plan_id":"cebpf4jnsgd1na2vs0mg"},{"bike_id":"7555df76-45e5-4931-82aa-7216ceb1ea14","system_id":"levelo_inurba_marseille","lat":43.25869,"lon":5.39903,"is_reserved":false,"is_disabled":false,"rental_uris":{"android":"levelo://app?vid=7555df76-45e5-4931-82aa-7216ceb1ea14","ios":"levelo://app?vid=7555df76-45e5-4931-82aa-7216ceb1ea14"},"vehicle_type_id":"4","last_reported":1737655946,"current_range_meters":9600,"station_id":"ce4bhl92rcd13ifvqghg","pricing_plan_id":"cebpf4jnsgd1na2vs0mg"},{"bike_id":"2f0791d4-1753-4572-bf7a-ac43bbe91908","system_id":"levelo_inurba_marseille","lat":43.30132,"lon":5.388,"is_reserved":false,"is_disabled":true,"rental_uris":{"android":"levelo://app?vid=2f0791d4-1753-4572-bf7a-ac43bbe91908","ios":"levelo://app?vid=2f0791d4-1753-4572-bf7a-ac43bbe91908"},"vehicle_type_id":"4","last_reported":1737655946,"current_range_meters":1200,"station_id":"ce4bghh2rcd13ifvqb60","pricing_plan_id":"cebpf4jnsgd1na2vs0mg"},{"bike_id":"3c239bd9-ff81-4702-b7e7-39459f28986b","system_id":"levelo_inurba_marseille","lat":43.29526,"lon":5.38543,"is_reserved":false,"is_disabled":false,"rental_uris":{"android":"levelo://app?vid=3c239bd9-ff81-4702-b7e7-39459f28986b","ios":"levelo://app?vid=3c239bd9-ff81-4702-b7e7-39459f28986b"},"vehicle_type_id":"4","last_reported":1737655946,"current_range_meters":35600,"station_id":"ce4bgih2rcd13ifvqba0","pricing_plan_id":"cebpf4jnsgd1na2vs0mg"},{"bike_id":"89755512-a191-4337-a2e9-b7f75b594ae4","system_id":"levelo_inurba_marseille","lat":43.29789,"lon":5.393483,"is_reserved":false,"is_disabled":true,"rental_uris":{"android":"levelo://app?vid=89755512-a191-4337-a2e9-b7f75b594ae4","ios":"levelo://app?vid=89755512-a191-4337-a2e9-b7f75b594ae4"},"vehicle_type_id":"4","last_reported":1737655946,"current_range_meters":2000,"station_id":"chh1huq6cuj3fo74tm60","pricing_plan_id":"cebpf4jnsgd1na2vs0mg"},{"bike_id":"de0b815b-0972-42a1-b5c0-b465f84342ac","system_id":"levelo_inurba_marseille","lat":43.23948,"lon":5.36657,"is_reserved":false,"is_disabled":false,"rental_uris":{"android":"levelo://app?vid=de0b815b-0972-42a1-b5c0-b465f84342ac","ios":"levelo://app?vid=de0b815b-0972-42a1-b5c0-b465f84342ac"},"vehicle_type_id":"4","last_reported":1737655946,"current_range_meters":28400,"station_id":"ce4bhi12rcd13ifvqfp0","pricing_plan_id":"cebpf4jnsgd1na2vs0mg"},{"bike_id":"88c68bd3-ae6d-44f9-8c55-92579b0843ad","system_id":"levelo_inurba_marseille","lat":43.31997,"lon":5.38175,"is_reserved":false,"is_disabled":false,"rental_uris":{"android":"levelo://app?vid=88c68bd3-ae6d-44f9-8c55-92579b0843ad","ios":"levelo://app?vid=88c68bd3-ae6d-44f9-8c55-92579b0843ad"},"vehicle_type_id":"4","last_reported":1737655946,"current_range_meters":38000,"station_id":"ce4bhr12rcd13ifvqhpg","pricing_plan_id":"cebpf4jnsgd1na2vs0mg"},{"bike_id":"4f55d06d-86a5-4457-9f9b-0d66dd972c6a","system_id":"levelo_inurba_marseille","lat":43.24995,"lon":5.38935,"is_reserved":false,"is_disabled":false,"rental_uris":{"android":"levelo://app?vid=4f55d06d-86a5-4457-9f9b-0d66dd972c6a","ios":"levelo://app?vid=4f55d06d-86a5-4457-9f9b-0d66dd972c6a"},"vehicle_type_id":"4","last_reported":1737655946,"current_range_meters":23200,"station_id":"ce4bhgp2rcd13ifvqfd0","pricing_plan_id":"cebpf4jnsgd1na2vs0mg"},{"bike_id":"7618d29f-2360-4ead-9d75-51dc8b5bf276","system_id":"levelo_inurba_marseille","lat":43.26553,"lon":5.39011,"is_reserved":false,"is_disabled":false,"rental_uris":{"android":"levelo://app?vid=7618d29f-2360-4ead-9d75-51dc8b5bf276","ios":"levelo://app?vid=7618d29f-2360-4ead-9d75-51dc8b5bf276"},"vehicle_type_id":"4","last_reported":1737655946,"current_range_meters":38800,"station_id":"ce4bhe12rcd13ifvqf30","pricing_plan_id":"cebpf4jnsgd1na2vs0mg"},{"bike_id":"d45d6325-2616-4ec2-8539-3730fedbd7a1","system_id":"levelo_inurba_marseille","lat":43.27832,"lon":5.39212,"is_reserved":false,"is_disabled":false,"rental_uris":{"android":"levelo://app?vid=d45d6325-2616-4ec2-8539-3730fedbd7a1","ios":"levelo://app?vid=d45d6325-2616-4ec2-8539-3730fedbd7a1"},"vehicle_type_id":"4","last_reported":1737655946,"current_range_meters":24400,"station_id":"ce4bhjp2rcd13ifvqga0","pricing_plan_id":"cebpf4jnsgd1na2vs0mg"},{"bike_id":"8f19a520-4e28-4d39-9ada-762bbddd7cdc","system_id":"levelo_inurba_marseille","lat":43.29259,"lon":5.40906,"is_reserved":false,"is_disabled":false,"rental_uris":{"android":"levelo://app?vid=8f19a520-4e28-4d39-9ada-762bbddd7cdc","ios":"levelo://app?vid=8f19a520-4e28-4d39-9ada-762bbddd7cdc"},"vehicle_type_id":"4","last_reported":1737655946,"current_range_meters":10800,"station_id":"ce4bh192rcd13ifvqdc0","pricing_plan_id":"cebpf4jnsgd1na2vs0mg"},{"bike_id":"80f9bce1-7458-4d83-9fde-e462860e0f2b","system_id":"levelo_inurba_marseille","lat":43.28714,"lon":5.40006,"is_reserved":false,"is_disabled":false,"rental_uris":{"android":"levelo://app?vid=80f9bce1-7458-4d83-9fde-e462860e0f2b","ios":"levelo://app?vid=80f9bce1-7458-4d83-9fde-e462860e0f2b"},"vehicle_type_id":"4","last_reported":1737655946,"current_range_meters":38800,"station_id":"ce4bho92rcd13ifvqh3g","pricing_plan_id":"cebpf4jnsgd1na2vs0mg"},{"bike_id":"7c78a755-c7f5-4f07-a96b-621451d47948","system_id":"levelo_inurba_marseille","lat":43.29895,"lon":5.4366,"is_reserved":false,"is_disabled":false,"rental_uris":{"android":"levelo://app?vid=7c78a755-c7f5-4f07-a96b-621451d47948","ios":"levelo://app?vid=7c78a755-c7f5-4f07-a96b-621451d47948"},"vehicle_type_id":"4","last_reported":1737655946,"current_range_meters":10000,"station_id":"ce4bhpp2rcd13ifvqhfg","pricing_plan_id":"cebpf4jnsgd1na2vs0mg"},{"bike_id":"53419644-9b10-4da0-ada4-866a57b8b2c7","system_id":"levelo_inurba_marseille","lat":43.26561,"lon":5.39026,"is_reserved":false,"is_disabled":false,"rental_uris":{"android":"levelo://app?vid=53419644-9b10-4da0-ada4-866a57b8b2c7","ios":"levelo://app?vid=53419644-9b10-4da0-ada4-866a57b8b2c7"},"vehicle_type_id":"4","last_reported":1737655946,"current_range_meters":33200,"station_id":"ce4bhe12rcd13ifvqf30","pricing_plan_id":"cebpf4jnsgd1na2vs0mg"},{"bike_id":"7481fa9f-0c08-48ed-be43-07574ad18580","system_id":"levelo_inurba_marseille","lat":43.26681,"lon":5.38258,"is_reserved":false,"is_disabled":false,"rental_uris":{"android":"levelo://app?vid=7481fa9f-0c08-48ed-be43-07574ad18580","ios":"levelo://app?vid=7481fa9f-0c08-48ed-be43-07574ad18580"},"vehicle_type_id":"4","last_reported":1737655946,"current_range_meters":28800,"station_id":"ce4bhg92rcd13ifvqf90","pricing_plan_id":"cebpf4jnsgd1na2vs0mg"},{"bike_id":"b01fce57-63c8-454c-9252-5518a237155b","system_id":"levelo_inurba_marseille","lat":43.23186,"lon":5.39983,"is_reserved":false,"is_disabled":false,"rental_uris":{"android":"levelo://app?vid=b01fce57-63c8-454c-9252-5518a237155b","ios":"levelo://app?vid=b01fce57-63c8-454c-9252-5518a237155b"},"vehicle_type_id":"4","last_reported":1737655946,"current_range_meters":19200,"station_id":"ce4bhn12rcd13ifvqgqg","pricing_plan_id":"cebpf4jnsgd1na2vs0mg"},{"bike_id":"f43b27ab-e03b-4ad6-b3f2-a6a7ed08a861","system_id":"levelo_inurba_marseille","lat":43.31328,"lon":5.39694,"is_reserved":false,"is_disabled":false,"rental_uris":{"android":"levelo://app?vid=f43b27ab-e03b-4ad6-b3f2-a6a7ed08a861","ios":"levelo://app?vid=f43b27ab-e03b-4ad6-b3f2-a6a7ed08a861"},"vehicle_type_id":"4","last_reported":1737655946,"current_range_meters":3200,"station_id":"ce4bgvp2rcd13ifvqcu0","pricing_plan_id":"cebpf4jnsgd1na2vs0mg"},{"bike_id":"2d71ab73-c13f-44cb-82bd-e90619e2e516","system_id":"levelo_inurba_marseille","lat":43.27997,"lon":5.40013,"is_reserved":false,"is_disabled":false,"rental_uris":{"android":"levelo://app?vid=2d71ab73-c13f-44cb-82bd-e90619e2e516","ios":"levelo://app?vid=2d71ab73-c13f-44cb-82bd-e90619e2e516"},"vehicle_type_id":"4","last_reported":1737655946,"current_range_meters":28400,"station_id":"ce4bho92rcd13ifvqh4g","pricing_plan_id":"cebpf4jnsgd1na2vs0mg"},{"bike_id":"be81e2f7-9a8e-4339-b1b5-551a0a5db6fc","system_id":"levelo_inurba_marseille","lat":43.2319,"lon":5.39991,"is_reserved":false,"is_disabled":false,"rental_uris":{"android":"levelo://app?vid=be81e2f7-9a8e-4339-b1b5-551a0a5db6fc","ios":"levelo://app?vid=be81e2f7-9a8e-4339-b1b5-551a0a5db6fc"},"vehicle_type_id":"4","last_reported":1737655946,"current_range_meters":30400,"station_id":"ce4bhn12rcd13ifvqgqg","pricing_plan_id":"cebpf4jnsgd1na2vs0mg"},{"bike_id":"9746bde7-9aa4-4650-b100-68d6e1990512","system_id":"levelo_inurba_marseille","lat":43.29252,"lon":5.38444,"is_reserved":false,"is_disabled":true,"rental_uris":{"android":"levelo://app?vid=9746bde7-9aa4-4650-b100-68d6e1990512","ios":"levelo://app?vid=9746bde7-9aa4-4650-b100-68d6e1990512"},"vehicle_type_id":"4","last_reported":1737655946,"current_range_meters":0,"station_id":"ce4bh692rcd13ifvqea0","pricing_plan_id":"cebpf4jnsgd1na2vs0mg"},{"bike_id":"d8494322-a9cf-4fca-ab43-72f8c3024d50","system_id":"levelo_inurba_marseille","lat":43.28572,"lon":5.39503,"is_reserved":false,"is_disabled":false,"rental_uris":{"android":"levelo://app?vid=d8494322-a9cf-4fca-ab43-72f8c3024d50","ios":"levelo://app?vid=d8494322-a9cf-4fca-ab43-72f8c3024d50"},"vehicle_type_id":"4","last_reported":1737655946,"current_range_meters":9600,"station_id":"ce4bh292rcd13ifvqdg0","pricing_plan_id":"cebpf4jnsgd1na2vs0mg"},{"bike_id":"edb063c2-5269-4848-a95e-51c2a2327baa","system_id":"levelo_inurba_marseille","lat":43.28971,"lon":5.37828,"is_reserved":false,"is_disabled":true,"rental_uris":{"android":"levelo://app?vid=edb063c2-5269-4848-a95e-51c2a2327baa","ios":"levelo://app?vid=edb063c2-5269-4848-a95e-51c2a2327baa"},"vehicle_type_id":"4","last_reported":1737655946,"current_range_meters":2000,"station_id":"ce4bh9p2rcd13ifvqed0","pricing_plan_id":"cebpf4jnsgd1na2vs0mg"},{"bike_id":"0a423358-6203-4b44-ad89-36e452168bf5","system_id":"levelo_inurba_marseille","lat":43.30299,"lon":5.39219,"is_reserved":false,"is_disabled":false,"rental_uris":{"android":"levelo://app?vid=0a423358-6203-4b44-ad89-36e452168bf5","ios":"levelo://app?vid=0a423358-6203-4b44-ad89-36e452168bf5"},"vehicle_type_id":"4","last_reported":1737655946,"current_range_meters":24800,"station_id":"ce4bgkh2rcd13ifvqbk0","pricing_plan_id":"cebpf4jnsgd1na2vs0mg"},{"bike_id":"8091da5a-cc04-462d-bb09-ae380ca5e4ce","system_id":"levelo_inurba_marseille","lat":43.23182,"lon":5.39984,"is_reserved":false,"is_disabled":false,"rental_uris":{"android":"levelo://app?vid=8091da5a-cc04-462d-bb09-ae380ca5e4ce","ios":"levelo://app?vid=8091da5a-cc04-462d-bb09-ae380ca5e4ce"},"vehicle_type_id":"4","last_reported":1737655946,"current_range_meters":9600,"station_id":"ce4bhn12rcd13ifvqgqg","pricing_plan_id":"cebpf4jnsgd1na2vs0mg"},{"bike_id":"9dc6e481-805d-44ee-904f-f86a18f58ae7","system_id":"levelo_inurba_marseille","lat":43.29273,"lon":5.40117,"is_reserved":false,"is_disabled":false,"rental_uris":{"android":"levelo://app?vid=9dc6e481-805d-44ee-904f-f86a18f58ae7","ios":"levelo://app?vid=9dc6e481-805d-44ee-904f-f86a18f58ae7"},"vehicle_type_id":"4","last_reported":1737655946,"current_range_meters":9200,"station_id":"ce4bh312rcd13ifvqdk0","pricing_plan_id":"cebpf4jnsgd1na2vs0mg"},{"bike_id":"7e916c70-1472-4e6d-89ea-6d1e635df53b","system_id":"levelo_inurba_marseille","lat":43.27816,"lon":5.40721,"is_reserved":false,"is_disabled":false,"rental_uris":{"android":"levelo://app?vid=7e916c70-1472-4e6d-89ea-6d1e635df53b","ios":"levelo://app?vid=7e916c70-1472-4e6d-89ea-6d1e635df53b"},"vehicle_type_id":"4","last_reported":1737655946,"current_range_meters":5600,"station_id":"ce4bhnh2rcd13ifvqgtg","pricing_plan_id":"cebpf4jnsgd1na2vs0mg"},{"bike_id":"8210b62d-a1a5-4f4c-8046-84672334af72","system_id":"levelo_inurba_marseille","lat":43.251218,"lon":5.403251,"is_reserved":false,"is_disabled":false,"rental_uris":{"android":"levelo://app?vid=8210b62d-a1a5-4f4c-8046-84672334af72","ios":"levelo://app?vid=8210b62d-a1a5-4f4c-8046-84672334af72"},"vehicle_type_id":"4","last_reported":1737655946,"current_range_meters":32000,"station_id":"ce4bhlh2rcd13ifvqgig","pricing_plan_id":"cebpf4jnsgd1na2vs0mg"},{"bike_id":"72428ff6-b760-4407-bd52-28cdb9f11441","system_id":"levelo_inurba_marseille","lat":43.2737,"lon":5.36251,"is_reserved":false,"is_disabled":false,"rental_uris":{"android":"levelo://app?vid=72428ff6-b760-4407-bd52-28cdb9f11441","ios":"levelo://app?vid=72428ff6-b760-4407-bd52-28cdb9f11441"},"vehicle_type_id":"4","last_reported":1737655946,"current_range_meters":22400,"station_id":"ce4bhbh2rcd13ifvqeo0","pricing_plan_id":"cebpf4jnsgd1na2vs0mg"},{"bike_id":"51b693ec-6376-489f-b989-9f78de29a1f3","system_id":"levelo_inurba_marseille","lat":43.24163,"lon":5.36408,"is_reserved":false,"is_disabled":false,"rental_uris":{"android":"levelo://app?vid=51b693ec-6376-489f-b989-9f78de29a1f3","ios":"levelo://app?vid=51b693ec-6376-489f-b989-9f78de29a1f3"},"vehicle_type_id":"4","last_reported":1737655946,"current_range_meters":21600,"station_id":"cpo36qri1sfpv3e86is0","pricing_plan_id":"cebpf4jnsgd1na2vs0mg"},{"bike_id":"d0b0bc35-3e70-4e41-ba48-1f65f9acc50b","system_id":"levelo_inurba_marseille","lat":43.29526,"lon":5.38536,"is_reserved":false,"is_disabled":false,"rental_uris":{"android":"levelo://app?vid=d0b0bc35-3e70-4e41-ba48-1f65f9acc50b","ios":"levelo://app?vid=d0b0bc35-3e70-4e41-ba48-1f65f9acc50b"},"vehicle_type_id":"4","last_reported":1737655946,"current_range_meters":35200,"station_id":"ce4bgih2rcd13ifvqba0","pricing_plan_id":"cebpf4jnsgd1na2vs0mg"},{"bike_id":"a63050c1-4fd1-4dba-883c-a8ac6453adb0","system_id":"levelo_inurba_marseille","lat":43.29536,"lon":5.42283,"is_reserved":false,"is_disabled":false,"rental_uris":{"android":"levelo://app?vid=a63050c1-4fd1-4dba-883c-a8ac6453adb0","ios":"levelo://app?vid=a63050c1-4fd1-4dba-883c-a8ac6453adb0"},"vehicle_type_id":"4","last_reported":1737655946,"current_range_meters":39200,"station_id":"ce4bhph2rcd13ifvqhdg","pricing_plan_id":"cebpf4jnsgd1na2vs0mg"},{"bike_id":"13ff516e-16cf-4543-8540-9030b8b296b4","system_id":"levelo_inurba_marseille","lat":43.23191,"lon":5.35566,"is_reserved":false,"is_disabled":false,"rental_uris":{"android":"levelo://app?vid=13ff516e-16cf-4543-8540-9030b8b296b4","ios":"levelo://app?vid=13ff516e-16cf-4543-8540-9030b8b296b4"},"vehicle_type_id":"4","last_reported":1737655946,"current_range_meters":28400,"station_id":"ce4bhu92rcd13ifvqi70","pricing_plan_id":"cebpf4jnsgd1na2vs0mg"},{"bike_id":"382b1d8c-119f-472b-8efe-763a8ffd1020","system_id":"levelo_inurba_marseille","lat":43.27954,"lon":5.41037,"is_reserved":false,"is_disabled":false,"rental_uris":{"android":"levelo://app?vid=382b1d8c-119f-472b-8efe-763a8ffd1020","ios":"levelo://app?vid=382b1d8c-119f-472b-8efe-763a8ffd1020"},"vehicle_type_id":"4","last_reported":1737655946,"current_range_meters":38800,"station_id":"ce4bhnp2rcd13ifvqh0g","pricing_plan_id":"cebpf4jnsgd1na2vs0mg"},{"bike_id":"5c3f09b4-056e-42fe-9ea0-ec4ec9920561","system_id":"levelo_inurba_marseille","lat":43.31326,"lon":5.39697,"is_reserved":false,"is_disabled":false,"rental_uris":{"android":"levelo://app?vid=5c3f09b4-056e-42fe-9ea0-ec4ec9920561","ios":"levelo://app?vid=5c3f09b4-056e-42fe-9ea0-ec4ec9920561"},"vehicle_type_id":"4","last_reported":1737655946,"current_range_meters":31200,"station_id":"ce4bgvp2rcd13ifvqcu0","pricing_plan_id":"cebpf4jnsgd1na2vs0mg"},{"bike_id":"8a151ccc-edf6-40ab-a6a3-42b4ac96f698","system_id":"levelo_inurba_marseille","lat":43.28279,"lon":5.35067,"is_reserved":false,"is_disabled":true,"rental_uris":{"android":"levelo://app?vid=8a151ccc-edf6-40ab-a6a3-42b4ac96f698","ios":"levelo://app?vid=8a151ccc-edf6-40ab-a6a3-42b4ac96f698"},"vehicle_type_id":"4","last_reported":1737655946,"current_range_meters":27200,"station_id":"ce4bhbp2rcd13ifvqerg","pricing_plan_id":"cebpf4jnsgd1na2vs0mg"},{"bike_id":"ad2cad66-aad6-46b0-82d9-631dcb82d661","system_id":"levelo_inurba_marseille","lat":43.24648,"lon":5.38913,"is_reserved":false,"is_disabled":true,"rental_uris":{"android":"levelo://app?vid=ad2cad66-aad6-46b0-82d9-631dcb82d661","ios":"levelo://app?vid=ad2cad66-aad6-46b0-82d9-631dcb82d661"},"vehicle_type_id":"4","last_reported":1737655946,"current_range_meters":0,"station_id":"ce4bhg12rcd13ifvqf60","pricing_plan_id":"cebpf4jnsgd1na2vs0mg"},{"bike_id":"dce8112f-8d4b-4e3d-9d56-ebb67c079165","system_id":"levelo_inurba_marseille","lat":43.2958,"lon":5.36734,"is_reserved":false,"is_disabled":false,"rental_uris":{"android":"levelo://app?vid=dce8112f-8d4b-4e3d-9d56-ebb67c079165","ios":"levelo://app?vid=dce8112f-8d4b-4e3d-9d56-ebb67c079165"},"vehicle_type_id":"4","last_reported":1737655946,"current_range_meters":12800,"station_id":"ce4bgph2rcd13ifvqc2g","pricing_plan_id":"cebpf4jnsgd1na2vs0mg"},{"bike_id":"34beb17f-e643-4c29-9ad4-f65df03fc042","system_id":"levelo_inurba_marseille","lat":43.30655,"lon":5.40102,"is_reserved":false,"is_disabled":false,"rental_uris":{"android":"levelo://app?vid=34beb17f-e643-4c29-9ad4-f65df03fc042","ios":"levelo://app?vid=34beb17f-e643-4c29-9ad4-f65df03fc042"},"vehicle_type_id":"4","last_reported":1737655946,"current_range_meters":4400,"station_id":"ce4bh112rcd13ifvqda0","pricing_plan_id":"cebpf4jnsgd1na2vs0mg"},{"bike_id":"e2b1ddde-dcb5-47c1-9a34-c76833f919d8","system_id":"levelo_inurba_marseille","lat":43.29783,"lon":5.39349,"is_reserved":false,"is_disabled":false,"rental_uris":{"android":"levelo://app?vid=e2b1ddde-dcb5-47c1-9a34-c76833f919d8","ios":"levelo://app?vid=e2b1ddde-dcb5-47c1-9a34-c76833f919d8"},"vehicle_type_id":"4","last_reported":1737655946,"current_range_meters":9200,"station_id":"chh1huq6cuj3fo74tm60","pricing_plan_id":"cebpf4jnsgd1na2vs0mg"},{"bike_id":"5cefcaef-c8d0-426e-85a3-d6a61a1b5e27","system_id":"levelo_inurba_marseille","lat":43.27819,"lon":5.40719,"is_reserved":false,"is_disabled":false,"rental_uris":{"android":"levelo://app?vid=5cefcaef-c8d0-426e-85a3-d6a61a1b5e27","ios":"levelo://app?vid=5cefcaef-c8d0-426e-85a3-d6a61a1b5e27"},"vehicle_type_id":"4","last_reported":1737655946,"current_range_meters":36800,"station_id":"ce4bhnh2rcd13ifvqgtg","pricing_plan_id":"cebpf4jnsgd1na2vs0mg"},{"bike_id":"6640c3ce-1f78-4ac3-964d-f2913cbe0557","system_id":"levelo_inurba_marseille","lat":43.31361,"lon":5.38488,"is_reserved":false,"is_disabled":false,"rental_uris":{"android":"levelo://app?vid=6640c3ce-1f78-4ac3-964d-f2913cbe0557","ios":"levelo://app?vid=6640c3ce-1f78-4ac3-964d-f2913cbe0557"},"vehicle_type_id":"4","last_reported":1737655946,"current_range_meters":16400,"station_id":"ce4bgt92rcd13ifvqcf0","pricing_plan_id":"cebpf4jnsgd1na2vs0mg"},{"bike_id":"c149c6e4-98da-47c0-a441-66414b31d9d8","system_id":"levelo_inurba_marseille","lat":43.29032,"lon":5.38665,"is_reserved":false,"is_disabled":false,"rental_uris":{"android":"levelo://app?vid=c149c6e4-98da-47c0-a441-66414b31d9d8","ios":"levelo://app?vid=c149c6e4-98da-47c0-a441-66414b31d9d8"},"vehicle_type_id":"4","last_reported":1737655946,"current_range_meters":20800,"station_id":"ce4bh4p2rcd13ifvqe0g","pricing_plan_id":"cebpf4jnsgd1na2vs0mg"},{"bike_id":"d7694ff0-5a62-4579-acec-5b073add17ad","system_id":"levelo_inurba_marseille","lat":43.31327,"lon":5.39704,"is_reserved":false,"is_disabled":false,"rental_uris":{"android":"levelo://app?vid=d7694ff0-5a62-4579-acec-5b073add17ad","ios":"levelo://app?vid=d7694ff0-5a62-4579-acec-5b073add17ad"},"vehicle_type_id":"4","last_reported":1737655946,"current_range_meters":28000,"station_id":"ce4bgvp2rcd13ifvqcu0","pricing_plan_id":"cebpf4jnsgd1na2vs0mg"},{"bike_id":"5ba79fea-ad25-4ca2-a964-4aa2aaa976b6","system_id":"levelo_inurba_marseille","lat":43.29029,"lon":5.3592,"is_reserved":false,"is_disabled":false,"rental_uris":{"android":"levelo://app?vid=5ba79fea-ad25-4ca2-a964-4aa2aaa976b6","ios":"levelo://app?vid=5ba79fea-ad25-4ca2-a964-4aa2aaa976b6"},"vehicle_type_id":"4","last_reported":1737655946,"current_range_meters":16000,"station_id":"ce4bha92rcd13ifvqeg0","pricing_plan_id":"cebpf4jnsgd1na2vs0mg"},{"bike_id":"b51731b6-9fd4-4fbb-bd7d-cf2871718f3b","system_id":"levelo_inurba_marseille","lat":43.29255,"lon":5.38438,"is_reserved":false,"is_disabled":false,"rental_uris":{"android":"levelo://app?vid=b51731b6-9fd4-4fbb-bd7d-cf2871718f3b","ios":"levelo://app?vid=b51731b6-9fd4-4fbb-bd7d-cf2871718f3b"},"vehicle_type_id":"4","last_reported":1737655946,"current_range_meters":37600,"station_id":"ce4bh692rcd13ifvqea0","pricing_plan_id":"cebpf4jnsgd1na2vs0mg"},{"bike_id":"e1cd9866-5b4a-4efe-a8a6-5860705b5fe2","system_id":"levelo_inurba_marseille","lat":43.25109,"lon":5.40331,"is_reserved":false,"is_disabled":false,"rental_uris":{"android":"levelo://app?vid=e1cd9866-5b4a-4efe-a8a6-5860705b5fe2","ios":"levelo://app?vid=e1cd9866-5b4a-4efe-a8a6-5860705b5fe2"},"vehicle_type_id":"4","last_reported":1737655946,"current_range_meters":38800,"station_id":"ce4bhlh2rcd13ifvqgig","pricing_plan_id":"cebpf4jnsgd1na2vs0mg"},{"bike_id":"7842ff48-60ff-4bd4-9e05-061ec3ed3536","system_id":"levelo_inurba_marseille","lat":43.29566,"lon":5.37528,"is_reserved":false,"is_disabled":false,"rental_uris":{"android":"levelo://app?vid=7842ff48-60ff-4bd4-9e05-061ec3ed3536","ios":"levelo://app?vid=7842ff48-60ff-4bd4-9e05-061ec3ed3536"},"vehicle_type_id":"4","last_reported":1737655946,"current_range_meters":38000,"station_id":"ce4bgh92rcd13ifvqb50","pricing_plan_id":"cebpf4jnsgd1na2vs0mg"},{"bike_id":"5bc9dd71-39a9-4cb6-8cc4-5c11f5e14b3e","system_id":"levelo_inurba_marseille","lat":43.30144,"lon":5.38791,"is_reserved":false,"is_disabled":false,"rental_uris":{"android":"levelo://app?vid=5bc9dd71-39a9-4cb6-8cc4-5c11f5e14b3e","ios":"levelo://app?vid=5bc9dd71-39a9-4cb6-8cc4-5c11f5e14b3e"},"vehicle_type_id":"4","last_reported":1737655946,"current_range_meters":11600,"station_id":"ce4bhoh2rcd13ifvqh6g","pricing_plan_id":"cebpf4jnsgd1na2vs0mg"},{"bike_id":"87466462-84d6-4f6a-a84b-ab0c4dacd1c1","system_id":"levelo_inurba_marseille","lat":43.28153,"lon":5.42655,"is_reserved":false,"is_disabled":true,"rental_uris":{"android":"levelo://app?vid=87466462-84d6-4f6a-a84b-ab0c4dacd1c1","ios":"levelo://app?vid=87466462-84d6-4f6a-a84b-ab0c4dacd1c1"},"vehicle_type_id":"4","last_reported":1737655946,"current_range_meters":2000,"station_id":"ce4bhnh2rcd13ifvqgug","pricing_plan_id":"cebpf4jnsgd1na2vs0mg"},{"bike_id":"207ece9f-8b0c-431c-b248-6698d7e591dd","system_id":"levelo_inurba_marseille","lat":43.29528,"lon":5.38532,"is_reserved":false,"is_disabled":false,"rental_uris":{"android":"levelo://app?vid=207ece9f-8b0c-431c-b248-6698d7e591dd","ios":"levelo://app?vid=207ece9f-8b0c-431c-b248-6698d7e591dd"},"vehicle_type_id":"4","last_reported":1737655946,"current_range_meters":22000,"station_id":"ce4bgih2rcd13ifvqba0","pricing_plan_id":"cebpf4jnsgd1na2vs0mg"},{"bike_id":"b8338bfe-1284-4232-9a51-15bb8e974f1c","system_id":"levelo_inurba_marseille","lat":43.29841,"lon":5.36269,"is_reserved":false,"is_disabled":false,"rental_uris":{"android":"levelo://app?vid=b8338bfe-1284-4232-9a51-15bb8e974f1c","ios":"levelo://app?vid=b8338bfe-1284-4232-9a51-15bb8e974f1c"},"vehicle_type_id":"4","last_reported":1737655946,"current_range_meters":38800,"station_id":"ce4bgpp2rcd13ifvqc3g","pricing_plan_id":"cebpf4jnsgd1na2vs0mg"},{"bike_id":"75495e7c-20bd-4569-84c6-35df34ab244d","system_id":"levelo_inurba_marseille","lat":43.299022,"lon":5.436708,"is_reserved":false,"is_disabled":true,"rental_uris":{"android":"levelo://app?vid=75495e7c-20bd-4569-84c6-35df34ab244d","ios":"levelo://app?vid=75495e7c-20bd-4569-84c6-35df34ab244d"},"vehicle_type_id":"4","last_reported":1737655946,"current_range_meters":2000,"station_id":"ce4bhpp2rcd13ifvqhfg","pricing_plan_id":"cebpf4jnsgd1na2vs0mg"},{"bike_id":"42903672-56a4-43e5-afb5-82933896743b","system_id":"levelo_inurba_marseille","lat":43.30092,"lon":5.39081,"is_reserved":false,"is_disabled":false,"rental_uris":{"android":"levelo://app?vid=42903672-56a4-43e5-afb5-82933896743b","ios":"levelo://app?vid=42903672-56a4-43e5-afb5-82933896743b"},"vehicle_type_id":"4","last_reported":1737655946,"current_range_meters":3600,"station_id":"ce4bh192rcd13ifvqdb0","pricing_plan_id":"cebpf4jnsgd1na2vs0mg"},{"bike_id":"5c6dd2ff-5977-45ea-9ab6-79ed70b4ade5","system_id":"levelo_inurba_marseille","lat":43.29427,"lon":5.3859,"is_reserved":false,"is_disabled":true,"rental_uris":{"android":"levelo://app?vid=5c6dd2ff-5977-45ea-9ab6-79ed70b4ade5","ios":"levelo://app?vid=5c6dd2ff-5977-45ea-9ab6-79ed70b4ade5"},"vehicle_type_id":"4","last_reported":1737655946,"current_range_meters":35200,"station_id":"ce4bh2h2rcd13ifvqdh0","pricing_plan_id":"cebpf4jnsgd1na2vs0mg"},{"bike_id":"f15a3926-03ea-4c4b-9f1b-6e7324acfe94","system_id":"levelo_inurba_marseille","lat":43.28738,"lon":5.37656,"is_reserved":false,"is_disabled":true,"rental_uris":{"android":"levelo://app?vid=f15a3926-03ea-4c4b-9f1b-6e7324acfe94","ios":"levelo://app?vid=f15a3926-03ea-4c4b-9f1b-6e7324acfe94"},"vehicle_type_id":"4","last_reported":1737655946,"current_range_meters":9600,"station_id":"","pricing_plan_id":"cebpf4jnsgd1na2vs0mg"},{"bike_id":"d22b6dd8-70dd-44e2-b2da-7416379d6042","system_id":"levelo_inurba_marseille","lat":43.266779,"lon":5.382708,"is_reserved":false,"is_disabled":false,"rental_uris":{"android":"levelo://app?vid=d22b6dd8-70dd-44e2-b2da-7416379d6042","ios":"levelo://app?vid=d22b6dd8-70dd-44e2-b2da-7416379d6042"},"vehicle_type_id":"4","last_reported":1737655946,"current_range_meters":38800,"station_id":"ce4bhg92rcd13ifvqf90","pricing_plan_id":"cebpf4jnsgd1na2vs0mg"},{"bike_id":"0683b8fa-bf66-4a85-b23f-305b1ef8e2c5","system_id":"levelo_inurba_marseille","lat":43.29894,"lon":5.43663,"is_reserved":false,"is_disabled":false,"rental_uris":{"android":"levelo://app?vid=0683b8fa-bf66-4a85-b23f-305b1ef8e2c5","ios":"levelo://app?vid=0683b8fa-bf66-4a85-b23f-305b1ef8e2c5"},"vehicle_type_id":"4","last_reported":1737655946,"current_range_meters":14800,"station_id":"ce4bhpp2rcd13ifvqhfg","pricing_plan_id":"cebpf4jnsgd1na2vs0mg"},{"bike_id":"99ea1d2e-8d62-4f50-9344-65f6a4b5a574","system_id":"levelo_inurba_marseille","lat":43.29533,"lon":5.3854,"is_reserved":false,"is_disabled":false,"rental_uris":{"android":"levelo://app?vid=99ea1d2e-8d62-4f50-9344-65f6a4b5a574","ios":"levelo://app?vid=99ea1d2e-8d62-4f50-9344-65f6a4b5a574"},"vehicle_type_id":"4","last_reported":1737655946,"current_range_meters":30000,"station_id":"ce4bgih2rcd13ifvqba0","pricing_plan_id":"cebpf4jnsgd1na2vs0mg"},{"bike_id":"ce9b6775-622a-4006-8fb5-f269869a0dfc","system_id":"levelo_inurba_marseille","lat":43.31353,"lon":5.38506,"is_reserved":false,"is_disabled":true,"rental_uris":{"android":"levelo://app?vid=ce9b6775-622a-4006-8fb5-f269869a0dfc","ios":"levelo://app?vid=ce9b6775-622a-4006-8fb5-f269869a0dfc"},"vehicle_type_id":"4","last_reported":1737655946,"current_range_meters":29600,"station_id":"ce4bgt92rcd13ifvqcf0","pricing_plan_id":"cebpf4jnsgd1na2vs0mg"},{"bike_id":"bab88f68-d450-4ab9-b273-0e037fbb5c60","system_id":"levelo_inurba_marseille","lat":43.2583,"lon":5.39444,"is_reserved":false,"is_disabled":false,"rental_uris":{"android":"levelo://app?vid=bab88f68-d450-4ab9-b273-0e037fbb5c60","ios":"levelo://app?vid=bab88f68-d450-4ab9-b273-0e037fbb5c60"},"vehicle_type_id":"4","last_reported":1737655946,"current_range_meters":27600,"station_id":"ce4bhip2rcd13ifvqft0","pricing_plan_id":"cebpf4jnsgd1na2vs0mg"},{"bike_id":"c709a6f6-06c6-414a-b7e4-50a0683e65e2","system_id":"levelo_inurba_marseille","lat":43.276156,"lon":5.361117,"is_reserved":false,"is_disabled":false,"rental_uris":{"android":"levelo://app?vid=c709a6f6-06c6-414a-b7e4-50a0683e65e2","ios":"levelo://app?vid=c709a6f6-06c6-414a-b7e4-50a0683e65e2"},"vehicle_type_id":"4","last_reported":1737655946,"current_range_meters":35600,"station_id":"ce4bgj92rcd13ifvqbe0","pricing_plan_id":"cebpf4jnsgd1na2vs0mg"},{"bike_id":"373d0671-a3cd-4860-a08e-36647a2e3ee5","system_id":"levelo_inurba_marseille","lat":43.31271,"lon":5.40175,"is_reserved":false,"is_disabled":false,"rental_uris":{"android":"levelo://app?vid=373d0671-a3cd-4860-a08e-36647a2e3ee5","ios":"levelo://app?vid=373d0671-a3cd-4860-a08e-36647a2e3ee5"},"vehicle_type_id":"4","last_reported":1737655946,"current_range_meters":9600,"station_id":"ce4bh092rcd13ifvqd30","pricing_plan_id":"cebpf4jnsgd1na2vs0mg"},{"bike_id":"efd34077-9796-45fd-80a1-67ffb72269ce","system_id":"levelo_inurba_marseille","lat":43.268193,"lon":5.402708,"is_reserved":false,"is_disabled":false,"rental_uris":{"android":"levelo://app?vid=efd34077-9796-45fd-80a1-67ffb72269ce","ios":"levelo://app?vid=efd34077-9796-45fd-80a1-67ffb72269ce"},"vehicle_type_id":"4","last_reported":1737655946,"current_range_meters":2800,"station_id":"ce501612rcd8frsf0b60","pricing_plan_id":"cebpf4jnsgd1na2vs0mg"},{"bike_id":"9d0a1296-bc68-4335-9e8a-2b917ca7e52b","system_id":"levelo_inurba_marseille","lat":43.27619,"lon":5.3612,"is_reserved":false,"is_disabled":false,"rental_uris":{"android":"levelo://app?vid=9d0a1296-bc68-4335-9e8a-2b917ca7e52b","ios":"levelo://app?vid=9d0a1296-bc68-4335-9e8a-2b917ca7e52b"},"vehicle_type_id":"4","last_reported":1737655946,"current_range_meters":18800,"station_id":"ce4bgj92rcd13ifvqbe0","pricing_plan_id":"cebpf4jnsgd1na2vs0mg"},{"bike_id":"19034180-e16f-48f7-94d1-adab833f846a","system_id":"levelo_inurba_marseille","lat":43.30099,"lon":5.39062,"is_reserved":false,"is_disabled":false,"rental_uris":{"android":"levelo://app?vid=19034180-e16f-48f7-94d1-adab833f846a","ios":"levelo://app?vid=19034180-e16f-48f7-94d1-adab833f846a"},"vehicle_type_id":"4","last_reported":1737655946,"current_range_meters":24000,"station_id":"ce4bh192rcd13ifvqdb0","pricing_plan_id":"cebpf4jnsgd1na2vs0mg"},{"bike_id":"dd375116-e59d-4a1a-bb00-bed4ce91743b","system_id":"levelo_inurba_marseille","lat":43.26568,"lon":5.39006,"is_reserved":false,"is_disabled":false,"rental_uris":{"android":"levelo://app?vid=dd375116-e59d-4a1a-bb00-bed4ce91743b","ios":"levelo://app?vid=dd375116-e59d-4a1a-bb00-bed4ce91743b"},"vehicle_type_id":"4","last_reported":1737655946,"current_range_meters":25200,"station_id":"ce4bhe12rcd13ifvqf30","pricing_plan_id":"cebpf4jnsgd1na2vs0mg"},{"bike_id":"4f28d564-9abf-4d5e-9a9d-dda9fa544fbb","system_id":"levelo_inurba_marseille","lat":43.29296,"lon":5.37467,"is_reserved":false,"is_disabled":false,"rental_uris":{"android":"levelo://app?vid=4f28d564-9abf-4d5e-9a9d-dda9fa544fbb","ios":"levelo://app?vid=4f28d564-9abf-4d5e-9a9d-dda9fa544fbb"},"vehicle_type_id":"4","last_reported":1737655946,"current_range_meters":11600,"station_id":"ce4bgi12rcd13ifvqb70","pricing_plan_id":"cebpf4jnsgd1na2vs0mg"},{"bike_id":"f10162bc-45ac-4be3-a823-90614decb8dc","system_id":"levelo_inurba_marseille","lat":43.29535,"lon":5.38536,"is_reserved":false,"is_disabled":false,"rental_uris":{"android":"levelo://app?vid=f10162bc-45ac-4be3-a823-90614decb8dc","ios":"levelo://app?vid=f10162bc-45ac-4be3-a823-90614decb8dc"},"vehicle_type_id":"4","last_reported":1737655946,"current_range_meters":28800,"station_id":"ce4bgih2rcd13ifvqba0","pricing_plan_id":"cebpf4jnsgd1na2vs0mg"},{"bike_id":"3c2e4d10-28ad-48eb-b11d-07984ad0856c","system_id":"levelo_inurba_marseille","lat":43.28466,"lon":5.3589,"is_reserved":false,"is_disabled":false,"rental_uris":{"android":"levelo://app?vid=3c2e4d10-28ad-48eb-b11d-07984ad0856c","ios":"levelo://app?vid=3c2e4d10-28ad-48eb-b11d-07984ad0856c"},"vehicle_type_id":"4","last_reported":1737655946,"current_range_meters":18800,"station_id":"ce4bhah2rcd13ifvqei0","pricing_plan_id":"cebpf4jnsgd1na2vs0mg"},{"bike_id":"496105d1-4440-4e61-890c-25931e798891","system_id":"levelo_inurba_marseille","lat":43.29312,"lon":5.37182,"is_reserved":false,"is_disabled":false,"rental_uris":{"android":"levelo://app?vid=496105d1-4440-4e61-890c-25931e798891","ios":"levelo://app?vid=496105d1-4440-4e61-890c-25931e798891"},"vehicle_type_id":"4","last_reported":1737655946,"current_range_meters":8000,"station_id":"ce4bgh92rcd13ifvqb40","pricing_plan_id":"cebpf4jnsgd1na2vs0mg"},{"bike_id":"ddd963ba-9a0c-435b-be45-69b594dc5944","system_id":"levelo_inurba_marseille","lat":43.25094,"lon":5.40346,"is_reserved":false,"is_disabled":false,"rental_uris":{"android":"levelo://app?vid=ddd963ba-9a0c-435b-be45-69b594dc5944","ios":"levelo://app?vid=ddd963ba-9a0c-435b-be45-69b594dc5944"},"vehicle_type_id":"4","last_reported":1737655946,"current_range_meters":22400,"station_id":"ce4bhlh2rcd13ifvqgig","pricing_plan_id":"cebpf4jnsgd1na2vs0mg"},{"bike_id":"efc4b42b-3f23-4c5e-be2d-4f7dfd6fdda5","system_id":"levelo_inurba_marseille","lat":43.280004,"lon":5.400179,"is_reserved":false,"is_disabled":false,"rental_uris":{"android":"levelo://app?vid=efc4b42b-3f23-4c5e-be2d-4f7dfd6fdda5","ios":"levelo://app?vid=efc4b42b-3f23-4c5e-be2d-4f7dfd6fdda5"},"vehicle_type_id":"4","last_reported":1737655946,"current_range_meters":26000,"station_id":"ce4bho92rcd13ifvqh4g","pricing_plan_id":"cebpf4jnsgd1na2vs0mg"},{"bike_id":"b6470e5a-07ec-40ca-b76b-ff9b8a9b4bb0","system_id":"levelo_inurba_marseille","lat":43.29036,"lon":5.37564,"is_reserved":false,"is_disabled":false,"rental_uris":{"android":"levelo://app?vid=b6470e5a-07ec-40ca-b76b-ff9b8a9b4bb0","ios":"levelo://app?vid=b6470e5a-07ec-40ca-b76b-ff9b8a9b4bb0"},"vehicle_type_id":"4","last_reported":1737655946,"current_range_meters":31200,"station_id":"ce4bh692rcd13ifvqe90","pricing_plan_id":"cebpf4jnsgd1na2vs0mg"},{"bike_id":"46a6f3ea-bf9e-49e8-ba46-58296b2ab5d6","system_id":"levelo_inurba_marseille","lat":43.2582,"lon":5.3943,"is_reserved":false,"is_disabled":false,"rental_uris":{"android":"levelo://app?vid=46a6f3ea-bf9e-49e8-ba46-58296b2ab5d6","ios":"levelo://app?vid=46a6f3ea-bf9e-49e8-ba46-58296b2ab5d6"},"vehicle_type_id":"4","last_reported":1737655946,"current_range_meters":35200,"station_id":"ce4bhip2rcd13ifvqft0","pricing_plan_id":"cebpf4jnsgd1na2vs0mg"},{"bike_id":"6871c30e-86a4-48a0-9abb-dfcf5b7dbcc9","system_id":"levelo_inurba_marseille","lat":43.30095,"lon":5.391,"is_reserved":false,"is_disabled":false,"rental_uris":{"android":"levelo://app?vid=6871c30e-86a4-48a0-9abb-dfcf5b7dbcc9","ios":"levelo://app?vid=6871c30e-86a4-48a0-9abb-dfcf5b7dbcc9"},"vehicle_type_id":"4","last_reported":1737655946,"current_range_meters":9600,"station_id":"ce4bh192rcd13ifvqdb0","pricing_plan_id":"cebpf4jnsgd1na2vs0mg"},{"bike_id":"d6fc6fb1-0936-448b-92bc-d0d9c321026d","system_id":"levelo_inurba_marseille","lat":43.290307,"lon":5.386481,"is_reserved":false,"is_disabled":false,"rental_uris":{"android":"levelo://app?vid=d6fc6fb1-0936-448b-92bc-d0d9c321026d","ios":"levelo://app?vid=d6fc6fb1-0936-448b-92bc-d0d9c321026d"},"vehicle_type_id":"4","last_reported":1737655946,"current_range_meters":25200,"station_id":"ce4bh4p2rcd13ifvqe0g","pricing_plan_id":"cebpf4jnsgd1na2vs0mg"},{"bike_id":"feb91a13-1143-435b-ae9b-f0b8f3eec6c3","system_id":"levelo_inurba_marseille","lat":43.30089,"lon":5.39109,"is_reserved":false,"is_disabled":false,"rental_uris":{"android":"levelo://app?vid=feb91a13-1143-435b-ae9b-f0b8f3eec6c3","ios":"levelo://app?vid=feb91a13-1143-435b-ae9b-f0b8f3eec6c3"},"vehicle_type_id":"4","last_reported":1737655946,"current_range_meters":36000,"station_id":"ce4bh192rcd13ifvqdb0","pricing_plan_id":"cebpf4jnsgd1na2vs0mg"},{"bike_id":"21a3400f-6f4c-4878-9167-d193e12aff92","system_id":"levelo_inurba_marseille","lat":43.26557,"lon":5.39001,"is_reserved":false,"is_disabled":true,"rental_uris":{"android":"levelo://app?vid=21a3400f-6f4c-4878-9167-d193e12aff92","ios":"levelo://app?vid=21a3400f-6f4c-4878-9167-d193e12aff92"},"vehicle_type_id":"4","last_reported":1737655946,"current_range_meters":17200,"station_id":"ce4bhe12rcd13ifvqf30","pricing_plan_id":"cebpf4jnsgd1na2vs0mg"},{"bike_id":"8b8929bc-4b9f-45f1-9607-384009214396","system_id":"levelo_inurba_marseille","lat":43.2573,"lon":5.41093,"is_reserved":false,"is_disabled":true,"rental_uris":{"android":"levelo://app?vid=8b8929bc-4b9f-45f1-9607-384009214396","ios":"levelo://app?vid=8b8929bc-4b9f-45f1-9607-384009214396"},"vehicle_type_id":"4","last_reported":1737655946,"current_range_meters":1200,"station_id":"ce4bhkp2rcd13ifvqgd0","pricing_plan_id":"cebpf4jnsgd1na2vs0mg"},{"bike_id":"5801677c-5c9e-41fa-89e2-fe61a9da5268","system_id":"levelo_inurba_marseille","lat":43.25584,"lon":5.38242,"is_reserved":false,"is_disabled":false,"rental_uris":{"android":"levelo://app?vid=5801677c-5c9e-41fa-89e2-fe61a9da5268","ios":"levelo://app?vid=5801677c-5c9e-41fa-89e2-fe61a9da5268"},