{"last_updated":1749586301,"ttl":60,"version":"2.2","data":{"bikes":[{"bike_id":"f66a42a6-75d4-4d43-aa7a-df6ad943ece8","system_id":"levelo_inurba_marseille","lat":43.2417,"lon":5.36391,"is_reserved":false,"is_disabled":false,"rental_uris":{"android":"levelo://app?vid=f66a42a6-75d4-4d43-aa7a-df6ad943ece8","ios":"levelo://app?vid=f66a42a6-75d4-4d43-aa7a-df6ad943ece8"},"vehicle_type_id":"4","last_reported":1749586302,"current_range_meters":2800,"station_id":"cpo36qri1sfpv3e86is0","pricing_plan_id":"cebpf4jnsgd1na2vs0mg"},{"bike_id":"3738f7da-6e54-4ef1-9148-c3599789fb7d","system_id":"levelo_inurba_marseille","lat":43.31386,"lon":5.37143,"is_reserved":false,"is_disabled":false,"rental_uris":{"android":"levelo://app?vid=3738f7da-6e54-4ef1-9148-c3599789fb7d","ios":"levelo://app?vid=3738f7da-6e54-4ef1-9148-c3599789fb7d"},"vehicle_type_id":"4","last_reported":1749586302,"current_range_meters":2800,"station_id":"","pricing_plan_id":"cebpf4jnsgd1na2vs0mg"},{"bike_id":"99c6cfb4-33e3-40b1-b332-3a4f0e9a9765","system_id":"levelo_inurba_marseille","lat":43.29033,"lon":5.39951,"is_reserved":false,"is_disabled":false,"rental_uris":{"android":"levelo://app?vid=99c6cfb4-33e3-40b1-b332-3a4f0e9a9765","ios":"levelo://app?vid=99c6cfb4-33e3-40b1-b332-3a4f0e9a9765"},"vehicle_type_id":"4","last_reported":1749586302,"current_range_meters":2800,"station_id":"ce4bh392rcd13ifvqdm0","pricing_plan_id":"cebpf4jnsgd1na2vs0mg"},{"bike_id":"284e9a98-f0e9-460f-919b-8e7203b5d2c9","system_id":"levelo_inurba_marseille","lat":43.30943,"lon":5.39025,"is_reserved":false,"is_disabled":false,"rental_uris":{"android":"levelo://app?vid=284e9a98-f0e9-460f-919b-8e7203b5d2c9","ios":"levelo://app?vid=284e9a98-f0e9-460f-919b-8e7203b5d2c9"},"vehicle_type_id":"4","last_reported":1749586302,"current_range_meters":3200,"station_id":"ce4bgup2rcd13ifvqco0","pricing_plan_id":"cebpf4jnsgd1na2vs0mg"},{"bike_id":"148849e1-132e-4792-9724-86a77944e787","system_id":"levelo_inurba_marseille","lat":43.29875,"lon":5.38901,"is_reserved":false,"is_disabled":false,"rental_uris":{"android":"levelo://app?vid=148849e1-132e-4792-9724-86a77944e787","ios":"levelo://app?vid=148849e1-132e-4792-9724-86a77944e787"},"vehicle_type_id":"4","last_reported":1749586302,"current_range_meters":3200,"station_id":"ce4bh392rcd13ifvqdl0","pricing_plan_id":"cebpf4jnsgd1na2vs0mg"},{"bike_id":"7aabafe5-cf9a-4a99-9181-61d000c52288","system_id":"levelo_inurba_marseille","lat":43.3064,"lon":5.40082,"is_reserved":false,"is_disabled":false,"rental_uris":{"android":"levelo://app?vid=7aabafe5-cf9a-4a99-9181-61d000c52288","ios":"levelo://app?vid=7aabafe5-cf9a-4a99-9181-61d000c52288"},"vehicle_type_id":"4","last_reported":1749586302,"current_range_meters":3200,"station_id":"ce4bh112rcd13ifvqda0","pricing_plan_id":"cebpf4jnsgd1na2vs0mg"},{"bike_id":"89df9e12-60f6-4a9e-a1f4-f158f81288fc","system_id":"levelo_inurba_marseille","lat":43.3173,"lon":5.4239,"is_reserved":false,"is_disabled":false,"rental_uris":{"android":"levelo://app?vid=89df9e12-60f6-4a9e-a1f4-f158f81288fc","ios":"levelo://app?vid=89df9e12-60f6-4a9e-a1f4-f158f81288fc"},"vehicle_type_id":"4","last_reported":1749586302,"current_range_meters":6400,"station_id":"ce4bhp92rcd13ifvqhbg","pricing_plan_id":"cebpf4jnsgd1na2vs0mg"},{"bike_id":"e93005d2-6890-4105-bc8c-eeac192ed928","system_id":"levelo_inurba_marseille","lat":43.323269,"lon":5.406299,"is_reserved":false,"is_disabled":false,"rental_uris":{"android":"levelo://app?vid=e93005d2-6890-4105-bc8c-eeac192ed928","ios":"levelo://app?vid=e93005d2-6890-4105-bc8c-eeac192ed928"},"vehicle_type_id":"4","last_reported":1749586302,"current_range_meters":3600,"station_id":"ce4bhq92rcd13ifvqhjg","pricing_plan_id":"cebpf4jnsgd1na2vs0mg"},{"bike_id":"c96defc4-7d86-4a0a-9944-e593e4547d0e","system_id":"levelo_inurba_marseille","lat":43.3239,"lon":5.40667,"is_reserved":false,"is_disabled":false,"rental_uris":{"android":"levelo://app?vid=c96defc4-7d86-4a0a-9944-e593e4547d0e","ios":"levelo://app?vid=c96defc4-7d86-4a0a-9944-e593e4547d0e"},"vehicle_type_id":"4","last_reported":1749586302,"current_range_meters":3600,"station_id":"","pricing_plan_id":"cebpf4jnsgd1na2vs0mg"},{"bike_id":"c7998ce1-8e9c-4da4-8023-2f5517f62fba","system_id":"levelo_inurba_marseille","lat":43.2938,"lon":5.37846,"is_reserved":false,"is_disabled":false,"rental_uris":{"android":"levelo://app?vid=c7998ce1-8e9c-4da4-8023-2f5517f62fba","ios":"levelo://app?vid=c7998ce1-8e9c-4da4-8023-2f5517f62fba"},"vehicle_type_id":"4","last_reported":1749586302,"current_range_meters":3600,"station_id":"ce4bgjh2rcd13ifvqbf0","pricing_plan_id":"cebpf4jnsgd1na2vs0mg"},{"bike_id":"ef0832dc-4f51-49a4-82f3-a8b6bb2dc394","system_id":"levelo_inurba_marseille","lat":43.29302,"lon":5.37459,"is_reserved":false,"is_disabled":false,"rental_uris":{"android":"levelo://app?vid=ef0832dc-4f51-49a4-82f3-a8b6bb2dc394","ios":"levelo://app?vid=ef0832dc-4f51-49a4-82f3-a8b6bb2dc394"},"vehicle_type_id":"4","last_reported":1749586302,"current_range_meters":3600,"station_id":"ce4bgi12rcd13ifvqb70","pricing_plan_id":"cebpf4jnsgd1na2vs0mg"},{"bike_id":"4ea2196d-4ed0-48b3-94d9-db402dbba8c6","system_id":"levelo_inurba_marseille","lat":43.314901,"lon":5.373097,"is_reserved":false,"is_disabled":false,"rental_uris":{"android":"levelo://app?vid=4ea2196d-4ed0-48b3-94d9-db402dbba8c6","ios":"levelo://app?vid=4ea2196d-4ed0-48b3-94d9-db402dbba8c6"},"vehicle_type_id":"4","last_reported":1749586302,"current_range_meters":3600,"station_id":"ce4bgt12rcd13ifvqcd0","pricing_plan_id":"cebpf4jnsgd1na2vs0mg"},{"bike_id":"0d411e1c-22a3-4c7b-9afb-63d240c3e659","system_id":"levelo_inurba_marseille","lat":43.3014,"lon":5.39847,"is_reserved":false,"is_disabled":false,"rental_uris":{"android":"levelo://app?vid=0d411e1c-22a3-4c7b-9afb-63d240c3e659","ios":"levelo://app?vid=0d411e1c-22a3-4c7b-9afb-63d240c3e659"},"vehicle_type_id":"4","last_reported":1749586302,"current_range_meters":3600,"station_id":"ce4bh0h2rcd13ifvqd40","pricing_plan_id":"cebpf4jnsgd1na2vs0mg"},{"bike_id":"74111bcb-249c-4743-ae00-26cd4525fd43","system_id":"levelo_inurba_marseille","lat":43.31092,"lon":5.4242,"is_reserved":false,"is_disabled":false,"rental_uris":{"android":"levelo://app?vid=74111bcb-249c-4743-ae00-26cd4525fd43","ios":"levelo://app?vid=74111bcb-249c-4743-ae00-26cd4525fd43"},"vehicle_type_id":"4","last_reported":1749586302,"current_range_meters":3600,"station_id":"ce4bhp92rcd13ifvqhag","pricing_plan_id":"cebpf4jnsgd1na2vs0mg"},{"bike_id":"f5320484-a613-47b5-9102-42669cc7c908","system_id":"levelo_inurba_marseille","lat":43.26027,"lon":5.37552,"is_reserved":false,"is_disabled":false,"rental_uris":{"android":"levelo://app?vid=f5320484-a613-47b5-9102-42669cc7c908","ios":"levelo://app?vid=f5320484-a613-47b5-9102-42669cc7c908"},"vehicle_type_id":"4","last_reported":1749586302,"current_range_meters":3600,"station_id":"ce4bhgh2rcd13ifvqfa0","pricing_plan_id":"cebpf4jnsgd1na2vs0mg"},{"bike_id":"075bcc1c-00c9-4fd8-a40b-99e2169b60e0","system_id":"levelo_inurba_marseille","lat":43.3093,"lon":5.40149,"is_reserved":false,"is_disabled":false,"rental_uris":{"android":"levelo://app?vid=075bcc1c-00c9-4fd8-a40b-99e2169b60e0","ios":"levelo://app?vid=075bcc1c-00c9-4fd8-a40b-99e2169b60e0"},"vehicle_type_id":"4","last_reported":1749586302,"current_range_meters":3600,"station_id":"ce4bgvp2rcd13ifvqct0","pricing_plan_id":"cebpf4jnsgd1na2vs0mg"},{"bike_id":"161415b6-1a0b-4170-a4a1-9e7b3aba4a71","system_id":"levelo_inurba_marseille","lat":43.2846,"lon":5.35883,"is_reserved":false,"is_disabled":false,"rental_uris":{"android":"levelo://app?vid=161415b6-1a0b-4170-a4a1-9e7b3aba4a71","ios":"levelo://app?vid=161415b6-1a0b-4170-a4a1-9e7b3aba4a71"},"vehicle_type_id":"4","last_reported":1749586302,"current_range_meters":4000,"station_id":"ce4bhah2rcd13ifvqei0","pricing_plan_id":"cebpf4jnsgd1na2vs0mg"},{"bike_id":"25728845-453b-4453-b7ba-4400dc0eb221","system_id":"levelo_inurba_marseille","lat":43.29265,"lon":5.40901,"is_reserved":false,"is_disabled":false,"rental_uris":{"android":"levelo://app?vid=25728845-453b-4453-b7ba-4400dc0eb221","ios":"levelo://app?vid=25728845-453b-4453-b7ba-4400dc0eb221"},"vehicle_type_id":"4","last_reported":1749586302,"current_range_meters":4000,"station_id":"ce4bh192rcd13ifvqdc0","pricing_plan_id":"cebpf4jnsgd1na2vs0mg"},{"bike_id":"8d958922-edf3-4249-8b77-278a145ee8d6","system_id":"levelo_inurba_marseille","lat":43.32287,"lon":5.38277,"is_reserved":false,"is_disabled":false,"rental_uris":{"android":"levelo://app?vid=8d958922-edf3-4249-8b77-278a145ee8d6","ios":"levelo://app?vid=8d958922-edf3-4249-8b77-278a145ee8d6"},"vehicle_type_id":"4","last_reported":1749586302,"current_range_meters":4000,"station_id":"ce4bhr12rcd13ifvqhqg","pricing_plan_id":"cebpf4jnsgd1na2vs0mg"},{"bike_id":"f7a1831e-24ec-43eb-a90c-756c351e1976","system_id":"levelo_inurba_marseille","lat":43.23182,"lon":5.39991,"is_reserved":false,"is_disabled":false,"rental_uris":{"android":"levelo://app?vid=f7a1831e-24ec-43eb-a90c-756c351e1976","ios":"levelo://app?vid=f7a1831e-24ec-43eb-a90c-756c351e1976"},"vehicle_type_id":"4","last_reported":1749586302,"current_range_meters":4400,"station_id":"ce4bhn12rcd13ifvqgqg","pricing_plan_id":"cebpf4jnsgd1na2vs0mg"},{"bike_id":"dd67f108-95bf-4a1e-b619-4bb77e009c5b","system_id":"levelo_inurba_marseille","lat":43.29061,"lon":5.42748,"is_reserved":false,"is_disabled":false,"rental_uris":{"android":"levelo://app?vid=dd67f108-95bf-4a1e-b619-4bb77e009c5b","ios":"levelo://app?vid=dd67f108-95bf-4a1e-b619-4bb77e009c5b"},"vehicle_type_id":"4","last_reported":1749586302,"current_range_meters":4400,"station_id":"","pricing_plan_id":"cebpf4jnsgd1na2vs0mg"},{"bike_id":"b93e6318-42b7-409b-902f-f23156ee003f","system_id":"levelo_inurba_marseille","lat":43.28462,"lon":5.35896,"is_reserved":false,"is_disabled":false,"rental_uris":{"android":"levelo://app?vid=b93e6318-42b7-409b-902f-f23156ee003f","ios":"levelo://app?vid=b93e6318-42b7-409b-902f-f23156ee003f"},"vehicle_type_id":"4","last_reported":1749586302,"current_range_meters":7200,"station_id":"ce4bhah2rcd13ifvqei0","pricing_plan_id":"cebpf4jnsgd1na2vs0mg"},{"bike_id":"3e453239-814f-425a-afaf-bc952311888e","system_id":"levelo_inurba_marseille","lat":43.29636,"lon":5.406,"is_reserved":false,"is_disabled":false,"rental_uris":{"android":"levelo://app?vid=3e453239-814f-425a-afaf-bc952311888e","ios":"levelo://app?vid=3e453239-814f-425a-afaf-bc952311888e"},"vehicle_type_id":"4","last_reported":1749586302,"current_range_meters":4400,"station_id":"ce4bh0h2rcd13ifvqd60","pricing_plan_id":"cebpf4jnsgd1na2vs0mg"},{"bike_id":"ca286102-090e-4101-8ad3-0509f826c900","system_id":"levelo_inurba_marseille","lat":43.330936,"lon":5.38532,"is_reserved":false,"is_disabled":false,"rental_uris":{"android":"levelo://app?vid=ca286102-090e-4101-8ad3-0509f826c900","ios":"levelo://app?vid=ca286102-090e-4101-8ad3-0509f826c900"},"vehicle_type_id":"4","last_reported":1749586302,"current_range_meters":4800,"station_id":"","pricing_plan_id":"cebpf4jnsgd1na2vs0mg"},{"bike_id":"b323ce18-6ea8-4a24-8888-4341d364e764","system_id":"levelo_inurba_marseille","lat":43.28757,"lon":5.36169,"is_reserved":false,"is_disabled":false,"rental_uris":{"android":"levelo://app?vid=b323ce18-6ea8-4a24-8888-4341d364e764","ios":"levelo://app?vid=b323ce18-6ea8-4a24-8888-4341d364e764"},"vehicle_type_id":"4","last_reported":1749586302,"current_range_meters":5600,"station_id":"","pricing_plan_id":"cebpf4jnsgd1na2vs0mg"},{"bike_id":"67c1ab1d-19d8-4205-b03c-c69686390d1b","system_id":"levelo_inurba_marseille","lat":43.30172,"lon":5.36617,"is_reserved":false,"is_disabled":false,"rental_uris":{"android":"levelo://app?vid=67c1ab1d-19d8-4205-b03c-c69686390d1b","ios":"levelo://app?vid=67c1ab1d-19d8-4205-b03c-c69686390d1b"},"vehicle_type_id":"4","last_reported":1749586302,"current_range_meters":5600,"station_id":"ce4bgrh2rcd13ifvqc8g","pricing_plan_id":"cebpf4jnsgd1na2vs0mg"},{"bike_id":"6f04e077-cea3-45f0-8c20-824ae996f09a","system_id":"levelo_inurba_marseille","lat":43.313535,"lon":5.367255,"is_reserved":false,"is_disabled":false,"rental_uris":{"android":"levelo://app?vid=6f04e077-cea3-45f0-8c20-824ae996f09a","ios":"levelo://app?vid=6f04e077-cea3-45f0-8c20-824ae996f09a"},"vehicle_type_id":"4","last_reported":1749586302,"current_range_meters":5600,"station_id":"ce4bgr92rcd13ifvqc6g","pricing_plan_id":"cebpf4jnsgd1na2vs0mg"},{"bike_id":"33e46029-55e9-44bf-9d19-d05b961e9471","system_id":"levelo_inurba_marseille","lat":43.28038,"lon":5.36944,"is_reserved":false,"is_disabled":false,"rental_uris":{"android":"levelo://app?vid=33e46029-55e9-44bf-9d19-d05b961e9471","ios":"levelo://app?vid=33e46029-55e9-44bf-9d19-d05b961e9471"},"vehicle_type_id":"4","last_reported":1749586302,"current_range_meters":5600,"station_id":"ce4bha12rcd13ifvqef0","pricing_plan_id":"cebpf4jnsgd1na2vs0mg"},{"bike_id":"23a70fd6-bc1b-49a2-8cd5-22ecc5c828bb","system_id":"levelo_inurba_marseille","lat":43.30459,"lon":5.37906,"is_reserved":false,"is_disabled":false,"rental_uris":{"android":"levelo://app?vid=23a70fd6-bc1b-49a2-8cd5-22ecc5c828bb","ios":"levelo://app?vid=23a70fd6-bc1b-49a2-8cd5-22ecc5c828bb"},"vehicle_type_id":"4","last_reported":1749586302,"current_range_meters":5600,"station_id":"ce4bgup2rcd13ifvqcn0","pricing_plan_id":"cebpf4jnsgd1na2vs0mg"},{"bike_id":"86fc0e7c-8dc0-4aaf-9275-d51157114916","system_id":"levelo_inurba_marseille","lat":43.29637,"lon":5.40601,"is_reserved":false,"is_disabled":false,"rental_uris":{"android":"levelo://app?vid=86fc0e7c-8dc0-4aaf-9275-d51157114916","ios":"levelo://app?vid=86fc0e7c-8dc0-4aaf-9275-d51157114916"},"vehicle_type_id":"4","last_reported":1749586302,"current_range_meters":5600,"station_id":"ce4bh0h2rcd13ifvqd60","pricing_plan_id":"cebpf4jnsgd1na2vs0mg"},{"bike_id":"2f513e37-e006-40fc-a416-ac74d2993abf","system_id":"levelo_inurba_marseille","lat":43.29069,"lon":5.37163,"is_reserved":false,"is_disabled":false,"rental_uris":{"android":"levelo://app?vid=2f513e37-e006-40fc-a416-ac74d2993abf","ios":"levelo://app?vid=2f513e37-e006-40fc-a416-ac74d2993abf"},"vehicle_type_id":"4","last_reported":1749586302,"current_range_meters":5600,"station_id":"ce4bh5p2rcd13ifvqe4g","pricing_plan_id":"cebpf4jnsgd1na2vs0mg"},{"bike_id":"d88d43f3-8c32-49ef-9ed9-d02c18d93673","system_id":"levelo_inurba_marseille","lat":43.28943,"lon":5.39632,"is_reserved":false,"is_disabled":false,"rental_uris":{"android":"levelo://app?vid=d88d43f3-8c32-49ef-9ed9-d02c18d93673","ios":"levelo://app?vid=d88d43f3-8c32-49ef-9ed9-d02c18d93673"},"vehicle_type_id":"4","last_reported":1749586302,"current_range_meters":5600,"station_id":"ce4bh3h2rcd13ifvqdn0","pricing_plan_id":"cebpf4jnsgd1na2vs0mg"},{"bike_id":"c2b582ff-c7cd-4674-acbe-7d3bad4a779d","system_id":"levelo_inurba_marseille","lat":43.28938,"lon":5.36641,"is_reserved":false,"is_disabled":false,"rental_uris":{"android":"levelo://app?vid=c2b582ff-c7cd-4674-acbe-7d3bad4a779d","ios":"levelo://app?vid=c2b582ff-c7cd-4674-acbe-7d3bad4a779d"},"vehicle_type_id":"4","last_reported":1749586302,"current_range_meters":7200,"station_id":"ce4bhap2rcd13ifvqek0","pricing_plan_id":"cebpf4jnsgd1na2vs0mg"},{"bike_id":"b4012967-9d2e-4c09-904e-daa50f31b675","system_id":"levelo_inurba_marseille","lat":43.28476,"lon":5.38428,"is_reserved":false,"is_disabled":true,"rental_uris":{"android":"levelo://app?vid=b4012967-9d2e-4c09-904e-daa50f31b675","ios":"levelo://app?vid=b4012967-9d2e-4c09-904e-daa50f31b675"},"vehicle_type_id":"4","last_reported":1749586302,"current_range_meters":6000,"station_id":"ce4bh512rcd13ifvqe3g","pricing_plan_id":"cebpf4jnsgd1na2vs0mg"},{"bike_id":"12dd82d1-4f3b-4991-9ae0-f1cfac6c972c","system_id":"levelo_inurba_marseille","lat":43.29024,"lon":5.38124,"is_reserved":false,"is_disabled":false,"rental_uris":{"android":"levelo://app?vid=12dd82d1-4f3b-4991-9ae0-f1cfac6c972c","ios":"levelo://app?vid=12dd82d1-4f3b-4991-9ae0-f1cfac6c972c"},"vehicle_type_id":"4","last_reported":1749586302,"current_range_meters":6000,"station_id":"ce4bh4p2rcd13ifvqe1g","pricing_plan_id":"cebpf4jnsgd1na2vs0mg"},{"bike_id":"29d25e9b-0ede-4049-a215-d7b6da35e53e","system_id":"levelo_inurba_marseille","lat":43.33722,"lon":5.39179,"is_reserved":false,"is_disabled":false,"rental_uris":{"android":"levelo://app?vid=29d25e9b-0ede-4049-a215-d7b6da35e53e","ios":"levelo://app?vid=29d25e9b-0ede-4049-a215-d7b6da35e53e"},"vehicle_type_id":"4","last_reported":1749586302,"current_range_meters":6400,"station_id":"ce4bhr92rcd13ifvqhsg","pricing_plan_id":"cebpf4jnsgd1na2vs0mg"},{"bike_id":"53aa84b7-c1fc-4124-8ad8-56d482cfb2a4","system_id":"levelo_inurba_marseille","lat":43.26554,"lon":5.372869,"is_reserved":false,"is_disabled":false,"rental_uris":{"android":"levelo://app?vid=53aa84b7-c1fc-4124-8ad8-56d482cfb2a4","ios":"levelo://app?vid=53aa84b7-c1fc-4124-8ad8-56d482cfb2a4"},"vehicle_type_id":"4","last_reported":1749586302,"current_range_meters":6000,"station_id":"ce4bhg12rcd13ifvqf70","pricing_plan_id":"cebpf4jnsgd1na2vs0mg"},{"bike_id":"fe52c15f-5aec-4b7e-998e-284a85843b2f","system_id":"levelo_inurba_marseille","lat":43.32104,"lon":5.3677,"is_reserved":false,"is_disabled":false,"rental_uris":{"android":"levelo://app?vid=fe52c15f-5aec-4b7e-998e-284a85843b2f","ios":"levelo://app?vid=fe52c15f-5aec-4b7e-998e-284a85843b2f"},"vehicle_type_id":"4","last_reported":1749586302,"current_range_meters":6000,"station_id":"ce4bhrh2rcd13ifvqhug","pricing_plan_id":"cebpf4jnsgd1na2vs0mg"},{"bike_id":"4d066308-0896-439e-96ba-fb5fee398354","system_id":"levelo_inurba_marseille","lat":43.314937,"lon":5.373106,"is_reserved":false,"is_disabled":false,"rental_uris":{"android":"levelo://app?vid=4d066308-0896-439e-96ba-fb5fee398354","ios":"levelo://app?vid=4d066308-0896-439e-96ba-fb5fee398354"},"vehicle_type_id":"4","last_reported":1749586302,"current_range_meters":6400,"station_id":"","pricing_plan_id":"cebpf4jnsgd1na2vs0mg"},{"bike_id":"c80b951c-40ca-49ec-bb96-9b23afa6204e","system_id":"levelo_inurba_marseille","lat":43.29906,"lon":5.38476,"is_reserved":false,"is_disabled":false,"rental_uris":{"android":"levelo://app?vid=c80b951c-40ca-49ec-bb96-9b23afa6204e","ios":"levelo://app?vid=c80b951c-40ca-49ec-bb96-9b23afa6204e"},"vehicle_type_id":"4","last_reported":1749586302,"current_range_meters":6400,"station_id":"","pricing_plan_id":"cebpf4jnsgd1na2vs0mg"},{"bike_id":"b81c8b70-8994-4582-ad19-4d9d5a175f79","system_id":"levelo_inurba_marseille","lat":43.29591,"lon":5.37035,"is_reserved":false,"is_disabled":false,"rental_uris":{"android":"levelo://app?vid=b81c8b70-8994-4582-ad19-4d9d5a175f79","ios":"levelo://app?vid=b81c8b70-8994-4582-ad19-4d9d5a175f79"},"vehicle_type_id":"4","last_reported":1749586302,"current_range_meters":6400,"station_id":"","pricing_plan_id":"cebpf4jnsgd1na2vs0mg"},{"bike_id":"d60a4cc9-505f-4ca7-9487-5eb13ee07b70","system_id":"levelo_inurba_marseille","lat":43.30589,"lon":5.39342,"is_reserved":false,"is_disabled":false,"rental_uris":{"android":"levelo://app?vid=d60a4cc9-505f-4ca7-9487-5eb13ee07b70","ios":"levelo://app?vid=d60a4cc9-505f-4ca7-9487-5eb13ee07b70"},"vehicle_type_id":"4","last_reported":1749586302,"current_range_meters":6800,"station_id":"ce4bh0p2rcd13ifvqd80","pricing_plan_id":"cebpf4jnsgd1na2vs0mg"},{"bike_id":"f0782932-4f65-40fc-9cee-a635f880f137","system_id":"levelo_inurba_marseille","lat":43.32377,"lon":5.36739,"is_reserved":false,"is_disabled":false,"rental_uris":{"android":"levelo://app?vid=f0782932-4f65-40fc-9cee-a635f880f137","ios":"levelo://app?vid=f0782932-4f65-40fc-9cee-a635f880f137"},"vehicle_type_id":"4","last_reported":1749586302,"current_range_meters":6800,"station_id":"ce4bhsh2rcd13ifvqi2g","pricing_plan_id":"cebpf4jnsgd1na2vs0mg"},{"bike_id":"4bbf18c4-952a-4eb4-8649-6803f058eaa5","system_id":"levelo_inurba_marseille","lat":43.33325,"lon":5.43014,"is_reserved":false,"is_disabled":false,"rental_uris":{"android":"levelo://app?vid=4bbf18c4-952a-4eb4-8649-6803f058eaa5","ios":"levelo://app?vid=4bbf18c4-952a-4eb4-8649-6803f058eaa5"},"vehicle_type_id":"4","last_reported":1749586302,"current_range_meters":6800,"station_id":"","pricing_plan_id":"cebpf4jnsgd1na2vs0mg"},{"bike_id":"ea613711-4f50-4fe1-945e-2f27a58fb0a4","system_id":"levelo_inurba_marseille","lat":43.31491,"lon":5.37313,"is_reserved":false,"is_disabled":false,"rental_uris":{"android":"levelo://app?vid=ea613711-4f50-4fe1-945e-2f27a58fb0a4","ios":"levelo://app?vid=ea613711-4f50-4fe1-945e-2f27a58fb0a4"},"vehicle_type_id":"4","last_reported":1749586302,"current_range_meters":6800,"station_id":"ce4bgt12rcd13ifvqcd0","pricing_plan_id":"cebpf4jnsgd1na2vs0mg"},{"bike_id":"a679cb80-4242-4d18-a97e-ea4a60dc83be","system_id":"levelo_inurba_marseille","lat":43.32197,"lon":5.41306,"is_reserved":false,"is_disabled":false,"rental_uris":{"android":"levelo://app?vid=a679cb80-4242-4d18-a97e-ea4a60dc83be","ios":"levelo://app?vid=a679cb80-4242-4d18-a97e-ea4a60dc83be"},"vehicle_type_id":"4","last_reported":1749586302,"current_range_meters":7200,"station_id":"","pricing_plan_id":"cebpf4jnsgd1na2vs0mg"},{"bike_id":"88113087-f0bb-4133-ab2a-bbfce1f3d99a","system_id":"levelo_inurba_marseille","lat":43.317145,"lon":5.404781,"is_reserved":false,"is_disabled":true,"rental_uris":{"android":"levelo://app?vid=88113087-f0bb-4133-ab2a-bbfce1f3d99a","ios":"levelo://app?vid=88113087-f0bb-4133-ab2a-bbfce1f3d99a"},"vehicle_type_id":"4","last_reported":1749586302,"current_range_meters":7200,"station_id":"","pricing_plan_id":"cebpf4jnsgd1na2vs0mg"},{"bike_id":"0b2a2a85-9624-4c05-a62a-96b315f42012","system_id":"levelo_inurba_marseille","lat":43.292304,"lon":5.379274,"is_reserved":false,"is_disabled":false,"rental_uris":{"android":"levelo://app?vid=0b2a2a85-9624-4c05-a62a-96b315f42012","ios":"levelo://app?vid=0b2a2a85-9624-4c05-a62a-96b315f42012"},"vehicle_type_id":"4","last_reported":1749586302,"current_range_meters":7200,"station_id":"ce4bgjh2rcd13ifvqbg0","pricing_plan_id":"cebpf4jnsgd1na2vs0mg"},{"bike_id":"5bc3a768-88aa-48b1-b04a-49035c573dc6","system_id":"levelo_inurba_marseille","lat":43.28724,"lon":5.3608,"is_reserved":false,"is_disabled":false,"rental_uris":{"android":"levelo://app?vid=5bc3a768-88aa-48b1-b04a-49035c573dc6","ios":"levelo://app?vid=5bc3a768-88aa-48b1-b04a-49035c573dc6"},"vehicle_type_id":"4","last_reported":1749586302,"current_range_meters":8000,"station_id":"cki0cbj6b192h4jlfktg","pricing_plan_id":"cebpf4jnsgd1na2vs0mg"},{"bike_id":"a968c6de-e308-4f2c-b5de-f55d4c5d6007","system_id":"levelo_inurba_marseille","lat":43.29589,"lon":5.36744,"is_reserved":false,"is_disabled":false,"rental_uris":{"android":"levelo://app?vid=a968c6de-e308-4f2c-b5de-f55d4c5d6007","ios":"levelo://app?vid=a968c6de-e308-4f2c-b5de-f55d4c5d6007"},"vehicle_type_id":"4","last_reported":1749586302,"current_range_meters":8000,"station_id":"ce4bgph2rcd13ifvqc2g","pricing_plan_id":"cebpf4jnsgd1na2vs0mg"},{"bike_id":"ef62100e-391d-43d7-a7b3-d30210719fed","system_id":"levelo_inurba_marseille","lat":43.30902,"lon":5.36839,"is_reserved":false,"is_disabled":false,"rental_uris":{"android":"levelo://app?vid=ef62100e-391d-43d7-a7b3-d30210719fed","ios":"levelo://app?vid=ef62100e-391d-43d7-a7b3-d30210719fed"},"vehicle_type_id":"4","last_reported":1749586302,"current_range_meters":8000,"station_id":"ce4bgn92rcd13ifvqbvg","pricing_plan_id":"cebpf4jnsgd1na2vs0mg"},{"bike_id":"a426b9e8-9d94-4d99-8682-1ee9ed77062b","system_id":"levelo_inurba_marseille","lat":43.292327,"lon":5.360607,"is_reserved":false,"is_disabled":false,"rental_uris":{"android":"levelo://app?vid=a426b9e8-9d94-4d99-8682-1ee9ed77062b","ios":"levelo://app?vid=a426b9e8-9d94-4d99-8682-1ee9ed77062b"},"vehicle_type_id":"4","last_reported":1749586302,"current_range_meters":8000,"station_id":"ce4bhbh2rcd13ifvqeqg","pricing_plan_id":"cebpf4jnsgd1na2vs0mg"},{"bike_id":"a2f99aff-05e0-4874-916f-cac9f9e78df9","system_id":"levelo_inurba_marseille","lat":43.32043,"lon":5.41549,"is_reserved":false,"is_disabled":false,"rental_uris":{"android":"levelo://app?vid=a2f99aff-05e0-4874-916f-cac9f9e78df9","ios":"levelo://app?vid=a2f99aff-05e0-4874-916f-cac9f9e78df9"},"vehicle_type_id":"4","last_reported":1749586302,"current_range_meters":8400,"station_id":"ce4bhq92rcd13ifvqhkg","pricing_plan_id":"cebpf4jnsgd1na2vs0mg"},{"bike_id":"35ef1a96-488a-4fc7-9217-a79d1b12f91d","system_id":"levelo_inurba_marseille","lat":43.28354,"lon":5.3809,"is_reserved":false,"is_disabled":false,"rental_uris":{"android":"levelo://app?vid=35ef1a96-488a-4fc7-9217-a79d1b12f91d","ios":"levelo://app?vid=35ef1a96-488a-4fc7-9217-a79d1b12f91d"},"vehicle_type_id":"4","last_reported":1749586302,"current_range_meters":8800,"station_id":"ce4bh412rcd13ifvqdr0","pricing_plan_id":"cebpf4jnsgd1na2vs0mg"},{"bike_id":"55149e8e-93ea-48bc-ba40-d4389b5f0961","system_id":"levelo_inurba_marseille","lat":43.29262,"lon":5.38443,"is_reserved":false,"is_disabled":false,"rental_uris":{"android":"levelo://app?vid=55149e8e-93ea-48bc-ba40-d4389b5f0961","ios":"levelo://app?vid=55149e8e-93ea-48bc-ba40-d4389b5f0961"},"vehicle_type_id":"4","last_reported":1749586302,"current_range_meters":8800,"station_id":"ce4bh692rcd13ifvqea0","pricing_plan_id":"cebpf4jnsgd1na2vs0mg"},{"bike_id":"30719d31-5a42-41f1-8c0f-c28d36e9b53e","system_id":"levelo_inurba_marseille","lat":43.32337,"lon":5.40622,"is_reserved":false,"is_disabled":false,"rental_uris":{"android":"levelo://app?vid=30719d31-5a42-41f1-8c0f-c28d36e9b53e","ios":"levelo://app?vid=30719d31-5a42-41f1-8c0f-c28d36e9b53e"},"vehicle_type_id":"4","last_reported":1749586302,"current_range_meters":8800,"station_id":"ce4bhq92rcd13ifvqhjg","pricing_plan_id":"cebpf4jnsgd1na2vs0mg"},{"bike_id":"69adf9f2-3ed7-46dd-9acc-dc2d5a3814c5","system_id":"levelo_inurba_marseille","lat":43.2624,"lon":5.40461,"is_reserved":false,"is_disabled":false,"rental_uris":{"android":"levelo://app?vid=69adf9f2-3ed7-46dd-9acc-dc2d5a3814c5","ios":"levelo://app?vid=69adf9f2-3ed7-46dd-9acc-dc2d5a3814c5"},"vehicle_type_id":"4","last_reported":1749586302,"current_range_meters":8800,"station_id":"ce4bhmh2rcd13ifvqgmg","pricing_plan_id":"cebpf4jnsgd1na2vs0mg"},{"bike_id":"a28437c2-bcfd-4995-bf8c-4808bdfde55a","system_id":"levelo_inurba_marseille","lat":43.29611,"lon":5.38107,"is_reserved":false,"is_disabled":false,"rental_uris":{"android":"levelo://app?vid=a28437c2-bcfd-4995-bf8c-4808bdfde55a","ios":"levelo://app?vid=a28437c2-bcfd-4995-bf8c-4808bdfde55a"},"vehicle_type_id":"4","last_reported":1749586302,"current_range_meters":8800,"station_id":"ce4bgl12rcd13ifvqbo0","pricing_plan_id":"cebpf4jnsgd1na2vs0mg"},{"bike_id":"63b5796e-e5fa-4c08-b52b-4ffb68437406","system_id":"levelo_inurba_marseille","lat":43.31559,"lon":5.38357,"is_reserved":false,"is_disabled":false,"rental_uris":{"android":"levelo://app?vid=63b5796e-e5fa-4c08-b52b-4ffb68437406","ios":"levelo://app?vid=63b5796e-e5fa-4c08-b52b-4ffb68437406"},"vehicle_type_id":"4","last_reported":1749586302,"current_range_meters":9200,"station_id":"","pricing_plan_id":"cebpf4jnsgd1na2vs0mg"},{"bike_id":"092dcad3-5c24-489f-9804-9bda75f06bc8","system_id":"levelo_inurba_marseille","lat":43.30929,"lon":5.40143,"is_reserved":false,"is_disabled":false,"rental_uris":{"android":"levelo://app?vid=092dcad3-5c24-489f-9804-9bda75f06bc8","ios":"levelo://app?vid=092dcad3-5c24-489f-9804-9bda75f06bc8"},"vehicle_type_id":"4","last_reported":1749586302,"current_range_meters":9200,"station_id":"ce4bgvp2rcd13ifvqct0","pricing_plan_id":"cebpf4jnsgd1na2vs0mg"},{"bike_id":"b6285f6b-e9e7-470d-9b6d-1afe99ab71bf","system_id":"levelo_inurba_marseille","lat":43.261881,"lon":5.420736,"is_reserved":false,"is_disabled":false,"rental_uris":{"android":"levelo://app?vid=b6285f6b-e9e7-470d-9b6d-1afe99ab71bf","ios":"levelo://app?vid=b6285f6b-e9e7-470d-9b6d-1afe99ab71bf"},"vehicle_type_id":"4","last_reported":1749586302,"current_range_meters":9200,"station_id":"","pricing_plan_id":"cebpf4jnsgd1na2vs0mg"},{"bike_id":"570e0556-7651-43f0-b0a9-f5817a5ee683","system_id":"levelo_inurba_marseille","lat":43.29766,"lon":5.38081,"is_reserved":false,"is_disabled":false,"rental_uris":{"android":"levelo://app?vid=570e0556-7651-43f0-b0a9-f5817a5ee683","ios":"levelo://app?vid=570e0556-7651-43f0-b0a9-f5817a5ee683"},"vehicle_type_id":"4","last_reported":1749586302,"current_range_meters":9200,"station_id":"ce4bgip2rcd13ifvqbb0","pricing_plan_id":"cebpf4jnsgd1na2vs0mg"},{"bike_id":"b39daac5-8785-4c0f-8fa5-3feea3c725cf","system_id":"levelo_inurba_marseille","lat":43.29968,"lon":5.3849,"is_reserved":false,"is_disabled":false,"rental_uris":{"android":"levelo://app?vid=b39daac5-8785-4c0f-8fa5-3feea3c725cf","ios":"levelo://app?vid=b39daac5-8785-4c0f-8fa5-3feea3c725cf"},"vehicle_type_id":"4","last_reported":1749586302,"current_range_meters":14000,"station_id":"ce4bgj92rcd13ifvqbd0","pricing_plan_id":"cebpf4jnsgd1na2vs0mg"},{"bike_id":"b3aff2fa-854f-469f-a886-5216463bc0d6","system_id":"levelo_inurba_marseille","lat":43.306,"lon":5.39362,"is_reserved":false,"is_disabled":false,"rental_uris":{"android":"levelo://app?vid=b3aff2fa-854f-469f-a886-5216463bc0d6","ios":"levelo://app?vid=b3aff2fa-854f-469f-a886-5216463bc0d6"},"vehicle_type_id":"4","last_reported":1749586302,"current_range_meters":9200,"station_id":"ce4bh0p2rcd13ifvqd80","pricing_plan_id":"cebpf4jnsgd1na2vs0mg"},{"bike_id":"3d59d2ec-b59a-43e8-abae-40ac02fdcdb8","system_id":"levelo_inurba_marseille","lat":43.29559,"lon":5.42299,"is_reserved":false,"is_disabled":false,"rental_uris":{"android":"levelo://app?vid=3d59d2ec-b59a-43e8-abae-40ac02fdcdb8","ios":"levelo://app?vid=3d59d2ec-b59a-43e8-abae-40ac02fdcdb8"},"vehicle_type_id":"4","last_reported":1749586302,"current_range_meters":9200,"station_id":"ce4bhph2rcd13ifvqhdg","pricing_plan_id":"cebpf4jnsgd1na2vs0mg"},{"bike_id":"39d32260-51d5-455a-ba53-6471389bd255","system_id":"levelo_inurba_marseille","lat":43.31994,"lon":5.37644,"is_reserved":false,"is_disabled":false,"rental_uris":{"android":"levelo://app?vid=39d32260-51d5-455a-ba53-6471389bd255","ios":"levelo://app?vid=39d32260-51d5-455a-ba53-6471389bd255"},"vehicle_type_id":"4","last_reported":1749586302,"current_range_meters":9200,"station_id":"","pricing_plan_id":"cebpf4jnsgd1na2vs0mg"},{"bike_id":"8ff811ea-f688-4c56-8b61-1084846cf6c9","system_id":"levelo_inurba_marseille","lat":43.28344,"lon":5.38101,"is_reserved":false,"is_disabled":false,"rental_uris":{"android":"levelo://app?vid=8ff811ea-f688-4c56-8b61-1084846cf6c9","ios":"levelo://app?vid=8ff811ea-f688-4c56-8b61-1084846cf6c9"},"vehicle_type_id":"4","last_reported":1749586302,"current_range_meters":9200,"station_id":"ce4bh412rcd13ifvqdr0","pricing_plan_id":"cebpf4jnsgd1na2vs0mg"},{"bike_id":"89751972-2148-47e8-a9f5-6238a039cba7","system_id":"levelo_inurba_marseille","lat":43.30542,"lon":5.36546,"is_reserved":false,"is_disabled":true,"rental_uris":{"android":"levelo://app?vid=89751972-2148-47e8-a9f5-6238a039cba7","ios":"levelo://app?vid=89751972-2148-47e8-a9f5-6238a039cba7"},"vehicle_type_id":"4","last_reported":1749586302,"current_range_meters":9200,"station_id":"ce4bgs12rcd13ifvqcag","pricing_plan_id":"cebpf4jnsgd1na2vs0mg"},{"bike_id":"7130eafd-58ef-49e3-8296-da23b92ff172","system_id":"levelo_inurba_marseille","lat":43.24694,"lon":5.39436,"is_reserved":false,"is_disabled":false,"rental_uris":{"android":"levelo://app?vid=7130eafd-58ef-49e3-8296-da23b92ff172","ios":"levelo://app?vid=7130eafd-58ef-49e3-8296-da23b92ff172"},"vehicle_type_id":"4","last_reported":1749586302,"current_range_meters":9600,"station_id":"","pricing_plan_id":"cebpf4jnsgd1na2vs0mg"},{"bike_id":"a71e4913-e618-48b6-8ef0-c70c9de54db4","system_id":"levelo_inurba_marseille","lat":43.29026,"lon":5.38635,"is_reserved":false,"is_disabled":false,"rental_uris":{"android":"levelo://app?vid=a71e4913-e618-48b6-8ef0-c70c9de54db4","ios":"levelo://app?vid=a71e4913-e618-48b6-8ef0-c70c9de54db4"},"vehicle_type_id":"4","last_reported":1749586302,"current_range_meters":9600,"station_id":"ce4bh4p2rcd13ifvqe0g","pricing_plan_id":"cebpf4jnsgd1na2vs0mg"},{"bike_id":"1b1beb17-e69e-45f4-833c-c85032cb1db7","system_id":"levelo_inurba_marseille","lat":43.2957,"lon":5.39403,"is_reserved":false,"is_disabled":false,"rental_uris":{"android":"levelo://app?vid=1b1beb17-e69e-45f4-833c-c85032cb1db7","ios":"levelo://app?vid=1b1beb17-e69e-45f4-833c-c85032cb1db7"},"vehicle_type_id":"4","last_reported":1749586302,"current_range_meters":9600,"station_id":"","pricing_plan_id":"cebpf4jnsgd1na2vs0mg"},{"bike_id":"a2bcab2a-6bfc-4b2e-8edc-c0755f556489","system_id":"levelo_inurba_marseille","lat":43.2827,"lon":5.35071,"is_reserved":false,"is_disabled":true,"rental_uris":{"android":"levelo://app?vid=a2bcab2a-6bfc-4b2e-8edc-c0755f556489","ios":"levelo://app?vid=a2bcab2a-6bfc-4b2e-8edc-c0755f556489"},"vehicle_type_id":"4","last_reported":1749586302,"current_range_meters":9600,"station_id":"ce4bhbp2rcd13ifvqerg","pricing_plan_id":"cebpf4jnsgd1na2vs0mg"},{"bike_id":"641a6d7d-5be4-447a-976c-a9dbef30085e","system_id":"levelo_inurba_marseille","lat":43.293103,"lon":5.371812,"is_reserved":false,"is_disabled":false,"rental_uris":{"android":"levelo://app?vid=641a6d7d-5be4-447a-976c-a9dbef30085e","ios":"levelo://app?vid=641a6d7d-5be4-447a-976c-a9dbef30085e"},"vehicle_type_id":"4","last_reported":1749586302,"current_range_meters":9600,"station_id":"ce4bgh92rcd13ifvqb40","pricing_plan_id":"cebpf4jnsgd1na2vs0mg"},{"bike_id":"66fac9ba-4e53-469d-8c0e-b15cb784136c","system_id":"levelo_inurba_marseille","lat":43.29066,"lon":5.37144,"is_reserved":false,"is_disabled":true,"rental_uris":{"android":"levelo://app?vid=66fac9ba-4e53-469d-8c0e-b15cb784136c","ios":"levelo://app?vid=66fac9ba-4e53-469d-8c0e-b15cb784136c"},"vehicle_type_id":"4","last_reported":1749586302,"current_range_meters":9600,"station_id":"ce4bh5p2rcd13ifvqe4g","pricing_plan_id":"cebpf4jnsgd1na2vs0mg"},{"bike_id":"955c930c-c336-417f-bb8a-3d2b0a0f3d0c","system_id":"levelo_inurba_marseille","lat":43.27835,"lon":5.39195,"is_reserved":false,"is_disabled":true,"rental_uris":{"android":"levelo://app?vid=955c930c-c336-417f-bb8a-3d2b0a0f3d0c","ios":"levelo://app?vid=955c930c-c336-417f-bb8a-3d2b0a0f3d0c"},"vehicle_type_id":"4","last_reported":1749586302,"current_range_meters":9600,"station_id":"ce4bhjp2rcd13ifvqga0","pricing_plan_id":"cebpf4jnsgd1na2vs0mg"},{"bike_id":"5e6b1e47-16fd-488b-b7eb-507767b76ee6","system_id":"levelo_inurba_marseille","lat":43.26824,"lon":5.39046,"is_reserved":false,"is_disabled":false,"rental_uris":{"android":"levelo://app?vid=5e6b1e47-16fd-488b-b7eb-507767b76ee6","ios":"levelo://app?vid=5e6b1e47-16fd-488b-b7eb-507767b76ee6"},"vehicle_type_id":"4","last_reported":1749586302,"current_range_meters":9600,"station_id":"","pricing_plan_id":"cebpf4jnsgd1na2vs0mg"},{"bike_id":"10333356-14e6-4bf4-826e-fd32d9ab78ad","system_id":"levelo_inurba_marseille","lat":43.29784,"lon":5.37097,"is_reserved":false,"is_disabled":false,"rental_uris":{"android":"levelo://app?vid=10333356-14e6-4bf4-826e-fd32d9ab78ad","ios":"levelo://app?vid=10333356-14e6-4bf4-826e-fd32d9ab78ad"},"vehicle_type_id":"4","last_reported":1749586302,"current_range_meters":9600,"station_id":"ce4bgop2rcd13ifvqc1g","pricing_plan_id":"cebpf4jnsgd1na2vs0mg"},{"bike_id":"382f425f-6c27-4c3f-bb26-9b2b5a3314a9","system_id":"levelo_inurba_marseille","lat":43.284798,"lon":5.384099,"is_reserved":false,"is_disabled":false,"rental_uris":{"android":"levelo://app?vid=382f425f-6c27-4c3f-bb26-9b2b5a3314a9","ios":"levelo://app?vid=382f425f-6c27-4c3f-bb26-9b2b5a3314a9"},"vehicle_type_id":"4","last_reported":1749586302,"current_range_meters":9600,"station_id":"","pricing_plan_id":"cebpf4jnsgd1na2vs0mg"},{"bike_id":"7eb5b35e-d0fd-42ce-bdfb-f1d27f5ec13e","system_id":"levelo_inurba_marseille","lat":43.30146,"lon":5.37422,"is_reserved":false,"is_disabled":false,"rental_uris":{"android":"levelo://app?vid=7eb5b35e-d0fd-42ce-bdfb-f1d27f5ec13e","ios":"levelo://app?vid=7eb5b35e-d0fd-42ce-bdfb-f1d27f5ec13e"},"vehicle_type_id":"4","last_reported":1749586302,"current_range_meters":9600,"station_id":"ce4bgs92rcd13ifvqcc0","pricing_plan_id":"cebpf4jnsgd1na2vs0mg"},{"bike_id":"28ea6148-486f-4aa9-bb9b-670c9195893c","system_id":"levelo_inurba_marseille","lat":43.30136,"lon":5.39844,"is_reserved":false,"is_disabled":false,"rental_uris":{"android":"levelo://app?vid=28ea6148-486f-4aa9-bb9b-670c9195893c","ios":"levelo://app?vid=28ea6148-486f-4aa9-bb9b-670c9195893c"},"vehicle_type_id":"4","last_reported":1749586302,"current_range_meters":10000,"station_id":"ce4bh0h2rcd13ifvqd40","pricing_plan_id":"cebpf4jnsgd1na2vs0mg"},{"bike_id":"5077581b-cebb-46fc-ba69-4fa8272d4810","system_id":"levelo_inurba_marseille","lat":43.21365,"lon":5.3552,"is_reserved":false,"is_disabled":false,"rental_uris":{"android":"levelo://app?vid=5077581b-cebb-46fc-ba69-4fa8272d4810","ios":"levelo://app?vid=5077581b-cebb-46fc-ba69-4fa8272d4810"},"vehicle_type_id":"4","last_reported":1749586302,"current_range_meters":10000,"station_id":"","pricing_plan_id":"cebpf4jnsgd1na2vs0mg"},{"bike_id":"ef555bdb-3115-4b1f-9398-9c76776e1204","system_id":"levelo_inurba_marseille","lat":43.2604,"lon":5.37413,"is_reserved":false,"is_disabled":false,"rental_uris":{"android":"levelo://app?vid=ef555bdb-3115-4b1f-9398-9c76776e1204","ios":"levelo://app?vid=ef555bdb-3115-4b1f-9398-9c76776e1204"},"vehicle_type_id":"4","last_reported":1749586302,"current_range_meters":10000,"station_id":"","pricing_plan_id":"cebpf4jnsgd1na2vs0mg"},{"bike_id":"fbb4b008-47d0-48b7-bdcd-0d3ceb1cd168","system_id":"levelo_inurba_marseille","lat":43.29639,"lon":5.40592,"is_reserved":false,"is_disabled":false,"rental_uris":{"android":"levelo://app?vid=fbb4b008-47d0-48b7-bdcd-0d3ceb1cd168","ios":"levelo://app?vid=fbb4b008-47d0-48b7-bdcd-0d3ceb1cd168"},"vehicle_type_id":"4","last_reported":1749586302,"current_range_meters":10000,"station_id":"ce4bh0h2rcd13ifvqd60","pricing_plan_id":"cebpf4jnsgd1na2vs0mg"},{"bike_id":"6890b9e2-87e1-40b6-9e0f-8af99f456400","system_id":"levelo_inurba_marseille","lat":43.29623,"lon":5.380699,"is_reserved":false,"is_disabled":true,"rental_uris":{"android":"levelo://app?vid=6890b9e2-87e1-40b6-9e0f-8af99f456400","ios":"levelo://app?vid=6890b9e2-87e1-40b6-9e0f-8af99f456400"},"vehicle_type_id":"4","last_reported":1749586302,"current_range_meters":10000,"station_id":"ce4bgl12rcd13ifvqbo0","pricing_plan_id":"cebpf4jnsgd1na2vs0mg"},{"bike_id":"79270514-cc68-488d-8a05-917d49f47732","system_id":"levelo_inurba_marseille","lat":43.30137,"lon":5.39855,"is_reserved":false,"is_disabled":false,"rental_uris":{"android":"levelo://app?vid=79270514-cc68-488d-8a05-917d49f47732","ios":"levelo://app?vid=79270514-cc68-488d-8a05-917d49f47732"},"vehicle_type_id":"4","last_reported":1749586302,"current_range_meters":10000,"station_id":"ce4bh0h2rcd13ifvqd40","pricing_plan_id":"cebpf4jnsgd1na2vs0mg"},{"bike_id":"70002c0c-8371-4abe-ae54-5318487b22b1","system_id":"levelo_inurba_marseille","lat":43.29544,"lon":5.39034,"is_reserved":false,"is_disabled":false,"rental_uris":{"android":"levelo://app?vid=70002c0c-8371-4abe-ae54-5318487b22b1","ios":"levelo://app?vid=70002c0c-8371-4abe-ae54-5318487b22b1"},"vehicle_type_id":"4","last_reported":1749586302,"current_range_meters":10000,"station_id":"ce4bh3p2rcd13ifvqdp0","pricing_plan_id":"cebpf4jnsgd1na2vs0mg"},{"bike_id":"1ab048e4-d16d-4228-b804-d09de6f24b1e","system_id":"levelo_inurba_marseille","lat":43.28696,"lon":5.37403,"is_reserved":false,"is_disabled":true,"rental_uris":{"android":"levelo://app?vid=1ab048e4-d16d-4228-b804-d09de6f24b1e","ios":"levelo://app?vid=1ab048e4-d16d-4228-b804-d09de6f24b1e"},"vehicle_type_id":"4","last_reported":1749586302,"current_range_meters":10000,"station_id":"ce4bh3p2rcd13ifvqdq0","pricing_plan_id":"cebpf4jnsgd1na2vs0mg"},{"bike_id":"f2606571-b30a-401a-b3ae-49eae8966a7e","system_id":"levelo_inurba_marseille","lat":43.3065,"lon":5.40076,"is_reserved":false,"is_disabled":false,"rental_uris":{"android":"levelo://app?vid=f2606571-b30a-401a-b3ae-49eae8966a7e","ios":"levelo://app?vid=f2606571-b30a-401a-b3ae-49eae8966a7e"},"vehicle_type_id":"4","last_reported":1749586302,"current_range_meters":10000,"station_id":"ce4bh112rcd13ifvqda0","pricing_plan_id":"cebpf4jnsgd1na2vs0mg"},{"bike_id":"ea3aa8cc-3da5-4c9f-b785-438f25aae8ad","system_id":"levelo_inurba_marseille","lat":43.30937,"lon":5.401399,"is_reserved":false,"is_disabled":false,"rental_uris":{"android":"levelo://app?vid=ea3aa8cc-3da5-4c9f-b785-438f25aae8ad","ios":"levelo://app?vid=ea3aa8cc-3da5-4c9f-b785-438f25aae8ad"},"vehicle_type_id":"4","last_reported":1749586302,"current_range_meters":10800,"station_id":"ce4bgvp2rcd13ifvqct0","pricing_plan_id":"cebpf4jnsgd1na2vs0mg"},{"bike_id":"8549d8ce-3ceb-4eec-8c41-287580b2f6a1","system_id":"levelo_inurba_marseille","lat":43.2928,"lon":5.40115,"is_reserved":false,"is_disabled":false,"rental_uris":{"android":"levelo://app?vid=8549d8ce-3ceb-4eec-8c41-287580b2f6a1","ios":"levelo://app?vid=8549d8ce-3ceb-4eec-8c41-287580b2f6a1"},"vehicle_type_id":"4","last_reported":1749586302,"current_range_meters":10800,"station_id":"ce4bh312rcd13ifvqdk0","pricing_plan_id":"cebpf4jnsgd1na2vs0mg"},{"bike_id":"53c41f31-c601-4611-9bb0-a36b1b7bffe4","system_id":"levelo_inurba_marseille","lat":43.27321,"lon":5.39077,"is_reserved":false,"is_disabled":false,"rental_uris":{"android":"levelo://app?vid=53c41f31-c601-4611-9bb0-a36b1b7bffe4","ios":"levelo://app?vid=53c41f31-c601-4611-9bb0-a36b1b7bffe4"},"vehicle_type_id":"4","last_reported":1749586302,"current_range_meters":10800,"station_id":"ce4bhgp2rcd13ifvqfe0","pricing_plan_id":"cebpf4jnsgd1na2vs0mg"},{"bike_id":"36db50ba-f353-490f-8fd1-4688be133d72","system_id":"levelo_inurba_marseille","lat":43.24661,"lon":5.38196,"is_reserved":false,"is_disabled":false,"rental_uris":{"android":"levelo://app?vid=36db50ba-f353-490f-8fd1-4688be133d72","ios":"levelo://app?vid=36db50ba-f353-490f-8fd1-4688be133d72"},"vehicle_type_id":"4","last_reported":1749586302,"current_range_meters":10800,"station_id":"ce4bhih2rcd13ifvqfr0","pricing_plan_id":"cebpf4jnsgd1na2vs0mg"},{"bike_id":"d308fd5f-114d-4c8d-acf2-a21c562bff36","system_id":"levelo_inurba_marseille","lat":43.2861,"lon":5.37071,"is_reserved":false,"is_disabled":false,"rental_uris":{"android":"levelo://app?vid=d308fd5f-114d-4c8d-acf2-a21c562bff36","ios":"levelo://app?vid=d308fd5f-114d-4c8d-acf2-a21c562bff36"},"vehicle_type_id":"4","last_reported":1749586302,"current_range_meters":10800,"station_id":"ce4bht12rcd13ifvqi60","pricing_plan_id":"cebpf4jnsgd1na2vs0mg"},{"bike_id":"4f1cefd8-4393-44dd-83d9-5d93ccfb8b69","system_id":"levelo_inurba_marseille","lat":43.29746,"lon":5.3807,"is_reserved":false,"is_disabled":false,"rental_uris":{"android":"levelo://app?vid=4f1cefd8-4393-44dd-83d9-5d93ccfb8b69","ios":"levelo://app?vid=4f1cefd8-4393-44dd-83d9-5d93ccfb8b69"},"vehicle_type_id":"4","last_reported":1749586302,"current_range_meters":10800,"station_id":"","pricing_plan_id":"cebpf4jnsgd1na2vs0mg"},{"bike_id":"2fb82a4e-0ee1-4839-87e1-0819fb18ed3d","system_id":"levelo_inurba_marseille","lat":43.2708,"lon":5.42261,"is_reserved":false,"is_disabled":true,"rental_uris":{"android":"levelo://app?vid=2fb82a4e-0ee1-4839-87e1-0819fb18ed3d","ios":"levelo://app?vid=2fb82a4e-0ee1-4839-87e1-0819fb18ed3d"},"vehicle_type_id":"4","last_reported":1749586302,"current_range_meters":10800,"station_id":"ce4bhk92rcd13ifvqgb0","pricing_plan_id":"cebpf4jnsgd1na2vs0mg"},{"bike_id":"5a8aebc1-4b9f-40cd-af06-b2c2750a7146","system_id":"levelo_inurba_marseille","lat":43.31752,"lon":5.39008,"is_reserved":false,"is_disabled":false,"rental_uris":{"android":"levelo://app?vid=5a8aebc1-4b9f-40cd-af06-b2c2750a7146","ios":"levelo://app?vid=5a8aebc1-4b9f-40cd-af06-b2c2750a7146"},"vehicle_type_id":"4","last_reported":1749586302,"current_range_meters":10800,"station_id":"ce4bhqp2rcd13ifvqhng","pricing_plan_id":"cebpf4jnsgd1na2vs0mg"},{"bike_id":"5c7d7377-46ad-48a5-85ed-90e09665aa12","system_id":"levelo_inurba_marseille","lat":43.28475,"lon":5.38406,"is_reserved":false,"is_disabled":false,"rental_uris":{"android":"levelo://app?vid=5c7d7377-46ad-48a5-85ed-90e09665aa12","ios":"levelo://app?vid=5c7d7377-46ad-48a5-85ed-90e09665aa12"},"vehicle_type_id":"4","last_reported":1749586302,"current_range_meters":11200,"station_id":"ce4bh512rcd13ifvqe3g","pricing_plan_id":"cebpf4jnsgd1na2vs0mg"},{"bike_id":"5de77314-0ae5-47c3-acab-77fbc83b110f","system_id":"levelo_inurba_marseille","lat":43.29054,"lon":5.39961,"is_reserved":false,"is_disabled":false,"rental_uris":{"android":"levelo://app?vid=5de77314-0ae5-47c3-acab-77fbc83b110f","ios":"levelo://app?vid=5de77314-0ae5-47c3-acab-77fbc83b110f"},"vehicle_type_id":"4","last_reported":1749586302,"current_range_meters":11200,"station_id":"ce4bh392rcd13ifvqdm0","pricing_plan_id":"cebpf4jnsgd1na2vs0mg"},{"bike_id":"9be4aa23-de01-4d44-abb0-d24a670630f6","system_id":"levelo_inurba_marseille","lat":43.30146,"lon":5.37427,"is_reserved":false,"is_disabled":false,"rental_uris":{"android":"levelo://app?vid=9be4aa23-de01-4d44-abb0-d24a670630f6","ios":"levelo://app?vid=9be4aa23-de01-4d44-abb0-d24a670630f6"},"vehicle_type_id":"4","last_reported":1749586302,"current_range_meters":11200,"station_id":"ce4bgs92rcd13ifvqcc0","pricing_plan_id":"cebpf4jnsgd1na2vs0mg"},{"bike_id":"29453fc9-b720-4b8b-b038-78f17aac8faf","system_id":"levelo_inurba_marseille","lat":43.27071,"lon":5.402537,"is_reserved":false,"is_disabled":true,"rental_uris":{"android":"levelo://app?vid=29453fc9-b720-4b8b-b038-78f17aac8faf","ios":"levelo://app?vid=29453fc9-b720-4b8b-b038-78f17aac8faf"},"vehicle_type_id":"4","last_reported":1749586302,"current_range_meters":11200,"station_id":"ce4bhk92rcd13ifvqgc0","pricing_plan_id":"cebpf4jnsgd1na2vs0mg"},{"bike_id":"dd3dc162-2c7a-4f53-a9bb-a42251b1d267","system_id":"levelo_inurba_marseille","lat":43.28935,"lon":5.36643,"is_reserved":false,"is_disabled":false,"rental_uris":{"android":"levelo://app?vid=dd3dc162-2c7a-4f53-a9bb-a42251b1d267","ios":"levelo://app?vid=dd3dc162-2c7a-4f53-a9bb-a42251b1d267"},"vehicle_type_id":"4","last_reported":1749586302,"current_range_meters":15200,"station_id":"ce4bhap2rcd13ifvqek0","pricing_plan_id":"cebpf4jnsgd1na2vs0mg"},{"bike_id":"6eb17bcb-5317-49c9-8c51-511153a87057","system_id":"levelo_inurba_marseille","lat":43.29281,"lon":5.40113,"is_reserved":false,"is_disabled":false,"rental_uris":{"android":"levelo://app?vid=6eb17bcb-5317-49c9-8c51-511153a87057","ios":"levelo://app?vid=6eb17bcb-5317-49c9-8c51-511153a87057"},"vehicle_type_id":"4","last_reported":1749586302,"current_range_meters":11600,"station_id":"ce4bh312rcd13ifvqdk0","pricing_plan_id":"cebpf4jnsgd1na2vs0mg"},{"bike_id":"ca27e12a-1f2d-4cf2-be29-12a2b9ff1547","system_id":"levelo_inurba_marseille","lat":43.31719,"lon":5.424,"is_reserved":false,"is_disabled":false,"rental_uris":{"android":"levelo://app?vid=ca27e12a-1f2d-4cf2-be29-12a2b9ff1547","ios":"levelo://app?vid=ca27e12a-1f2d-4cf2-be29-12a2b9ff1547"},"vehicle_type_id":"4","last_reported":1749586302,"current_range_meters":11600,"station_id":"ce4bhp92rcd13ifvqhbg","pricing_plan_id":"cebpf4jnsgd1na2vs0mg"},{"bike_id":"ba7c932a-6cd1-4a14-80ce-7b54fe755521","system_id":"levelo_inurba_marseille","lat":43.29596,"lon":5.38106,"is_reserved":false,"is_disabled":false,"rental_uris":{"android":"levelo://app?vid=ba7c932a-6cd1-4a14-80ce-7b54fe755521","ios":"levelo://app?vid=ba7c932a-6cd1-4a14-80ce-7b54fe755521"},"vehicle_type_id":"4","last_reported":1749586302,"current_range_meters":11600,"station_id":"ce4bgl12rcd13ifvqbo0","pricing_plan_id":"cebpf4jnsgd1na2vs0mg"},{"bike_id":"59312715-509a-4757-aadb-afe9d3682d92","system_id":"levelo_inurba_marseille","lat":43.29261,"lon":5.38434,"is_reserved":false,"is_disabled":false,"rental_uris":{"android":"levelo://app?vid=59312715-509a-4757-aadb-afe9d3682d92","ios":"levelo://app?vid=59312715-509a-4757-aadb-afe9d3682d92"},"vehicle_type_id":"4","last_reported":1749586302,"current_range_meters":11600,"station_id":"ce4bh692rcd13ifvqea0","pricing_plan_id":"cebpf4jnsgd1na2vs0mg"},{"bike_id":"602fbf9a-762e-484b-b05e-5e97a38ac095","system_id":"levelo_inurba_marseille","lat":43.30531,"lon":5.36552,"is_reserved":false,"is_disabled":false,"rental_uris":{"android":"levelo://app?vid=602fbf9a-762e-484b-b05e-5e97a38ac095","ios":"levelo://app?vid=602fbf9a-762e-484b-b05e-5e97a38ac095"},"vehicle_type_id":"4","last_reported":1749586302,"current_range_meters":12000,"station_id":"ce4bgs12rcd13ifvqcag","pricing_plan_id":"cebpf4jnsgd1na2vs0mg"},{"bike_id":"f5e7b4d1-016d-4e5c-bdea-6b4bae0120ac","system_id":"levelo_inurba_marseille","lat":43.25654,"lon":5.40987,"is_reserved":false,"is_disabled":false,"rental_uris":{"android":"levelo://app?vid=f5e7b4d1-016d-4e5c-bdea-6b4bae0120ac","ios":"levelo://app?vid=f5e7b4d1-016d-4e5c-bdea-6b4bae0120ac"},"vehicle_type_id":"4","last_reported":1749586302,"current_range_meters":12000,"station_id":"","pricing_plan_id":"cebpf4jnsgd1na2vs0mg"},{"bike_id":"97b5114b-92ef-44e4-8891-6e6f766af298","system_id":"levelo_inurba_marseille","lat":43.28936,"lon":5.36642,"is_reserved":false,"is_disabled":false,"rental_uris":{"android":"levelo://app?vid=97b5114b-92ef-44e4-8891-6e6f766af298","ios":"levelo://app?vid=97b5114b-92ef-44e4-8891-6e6f766af298"},"vehicle_type_id":"4","last_reported":1749586302,"current_range_meters":12000,"station_id":"ce4bhap2rcd13ifvqek0","pricing_plan_id":"cebpf4jnsgd1na2vs0mg"},{"bike_id":"84690189-aac2-4995-a759-49db2dd7b2fa","system_id":"levelo_inurba_marseille","lat":43.27916,"lon":5.38003,"is_reserved":false,"is_disabled":false,"rental_uris":{"android":"levelo://app?vid=84690189-aac2-4995-a759-49db2dd7b2fa","ios":"levelo://app?vid=84690189-aac2-4995-a759-49db2dd7b2fa"},"vehicle_type_id":"4","last_reported":1749586302,"current_range_meters":12000,"station_id":"ce4bhf92rcd13ifvqf50","pricing_plan_id":"cebpf4jnsgd1na2vs0mg"},{"bike_id":"187b0a7b-e256-4c19-9794-bb250a6c5653","system_id":"levelo_inurba_marseille","lat":43.31849,"lon":5.37934,"is_reserved":false,"is_disabled":false,"rental_uris":{"android":"levelo://app?vid=187b0a7b-e256-4c19-9794-bb250a6c5653","ios":"levelo://app?vid=187b0a7b-e256-4c19-9794-bb250a6c5653"},"vehicle_type_id":"4","last_reported":1749586302,"current_range_meters":12000,"station_id":"","pricing_plan_id":"cebpf4jnsgd1na2vs0mg"},{"bike_id":"4e58bfc6-5a7c-406a-ab51-d831d6cc8676","system_id":"levelo_inurba_marseille","lat":43.330398,"lon":5.390512,"is_reserved":false,"is_disabled":true,"rental_uris":{"android":"levelo://app?vid=4e58bfc6-5a7c-406a-ab51-d831d6cc8676","ios":"levelo://app?vid=4e58bfc6-5a7c-406a-ab51-d831d6cc8676"},"vehicle_type_id":"4","last_reported":1749586302,"current_range_meters":12400,"station_id":"ce4bhr92rcd13ifvqhrg","pricing_plan_id":"cebpf4jnsgd1na2vs0mg"},{"bike_id":"f81976f1-e2bb-4a52-a5ae-fe0bbf57d88b","system_id":"levelo_inurba_marseille","lat":43.29535,"lon":5.39032,"is_reserved":false,"is_disabled":false,"rental_uris":{"android":"levelo://app?vid=f81976f1-e2bb-4a52-a5ae-fe0bbf57d88b","ios":"levelo://app?vid=f81976f1-e2bb-4a52-a5ae-fe0bbf57d88b"},"vehicle_type_id":"4","last_reported":1749586302,"current_range_meters":12400,"station_id":"ce4bh3p2rcd13ifvqdp0","pricing_plan_id":"cebpf4jnsgd1na2vs0mg"},{"bike_id":"03fd0f84-a8fa-40df-be76-da4d9c42bc8c","system_id":"levelo_inurba_marseille","lat":43.28378,"lon":5.38638,"is_reserved":false,"is_disabled":false,"rental_uris":{"android":"levelo://app?vid=03fd0f84-a8fa-40df-be76-da4d9c42bc8c","ios":"levelo://app?vid=03fd0f84-a8fa-40df-be76-da4d9c42bc8c"},"vehicle_type_id":"4","last_reported":1749586302,"current_range_meters":12400,"station_id":"ce4bh492rcd13ifvqdvg","pricing_plan_id":"cebpf4jnsgd1na2vs0mg"},{"bike_id":"c4839721-e423-481b-b94c-653bcd9909ef","system_id":"levelo_inurba_marseille","lat":43.28174,"lon":5.42676,"is_reserved":false,"is_disabled":false,"rental_uris":{"android":"levelo://app?vid=c4839721-e423-481b-b94c-653bcd9909ef","ios":"levelo://app?vid=c4839721-e423-481b-b94c-653bcd9909ef"},"vehicle_type_id":"4","last_reported":1749586302,"current_range_meters":12400,"station_id":"ce4bhnh2rcd13ifvqgug","pricing_plan_id":"cebpf4jnsgd1na2vs0mg"},{"bike_id":"15138ce4-9850-4a09-9eb2-0da12393d0d8","system_id":"levelo_inurba_marseille","lat":43.31714,"lon":5.43702,"is_reserved":false,"is_disabled":false,"rental_uris":{"android":"levelo://app?vid=15138ce4-9850-4a09-9eb2-0da12393d0d8","ios":"levelo://app?vid=15138ce4-9850-4a09-9eb2-0da12393d0d8"},"vehicle_type_id":"4","last_reported":1749586302,"current_range_meters":12400,"station_id":"ce4bhp92rcd13ifvqhcg","pricing_plan_id":"cebpf4jnsgd1na2vs0mg"},{"bike_id":"09fc93df-1b5b-4565-bebf-a33c16f5f13b","system_id":"levelo_inurba_marseille","lat":43.33171,"lon":5.38194,"is_reserved":false,"is_disabled":false,"rental_uris":{"android":"levelo://app?vid=09fc93df-1b5b-4565-bebf-a33c16f5f13b","ios":"levelo://app?vid=09fc93df-1b5b-4565-bebf-a33c16f5f13b"},"vehicle_type_id":"4","last_reported":1749586302,"current_range_meters":12800,"station_id":"","pricing_plan_id":"cebpf4jnsgd1na2vs0mg"},{"bike_id":"ac920c9f-2692-4ded-b88a-935563d75620","system_id":"levelo_inurba_marseille","lat":43.29417,"lon":5.38634,"is_reserved":false,"is_disabled":false,"rental_uris":{"android":"levelo://app?vid=ac920c9f-2692-4ded-b88a-935563d75620","ios":"levelo://app?vid=ac920c9f-2692-4ded-b88a-935563d75620"},"vehicle_type_id":"4","last_reported":1749586302,"current_range_meters":12800,"station_id":"ce4bh2h2rcd13ifvqdh0","pricing_plan_id":"cebpf4jnsgd1na2vs0mg"},{"bike_id":"c30dbedc-c866-492b-a092-32c1ee0c1f22","system_id":"levelo_inurba_marseille","lat":43.29546,"lon":5.38543,"is_reserved":false,"is_disabled":true,"rental_uris":{"android":"levelo://app?vid=c30dbedc-c866-492b-a092-32c1ee0c1f22","ios":"levelo://app?vid=c30dbedc-c866-492b-a092-32c1ee0c1f22"},"vehicle_type_id":"4","last_reported":1749586302,"current_range_meters":12800,"station_id":"ce4bgih2rcd13ifvqba0","pricing_plan_id":"cebpf4jnsgd1na2vs0mg"},{"bike_id":"1e20f032-0f6a-40b2-ad29-e4d2225496fa","system_id":"levelo_inurba_marseille","lat":43.30296,"lon":5.37051,"is_reserved":false,"is_disabled":false,"rental_uris":{"android":"levelo://app?vid=1e20f032-0f6a-40b2-ad29-e4d2225496fa","ios":"levelo://app?vid=1e20f032-0f6a-40b2-ad29-e4d2225496fa"},"vehicle_type_id":"4","last_reported":1749586302,"current_range_meters":12800,"station_id":"","pricing_plan_id":"cebpf4jnsgd1na2vs0mg"},{"bike_id":"ab5d796b-6f87-4b6e-a5bd-6ac051fcacd1","system_id":"levelo_inurba_marseille","lat":43.32502,"lon":5.36605,"is_reserved":false,"is_disabled":false,"rental_uris":{"android":"levelo://app?vid=ab5d796b-6f87-4b6e-a5bd-6ac051fcacd1","ios":"levelo://app?vid=ab5d796b-6f87-4b6e-a5bd-6ac051fcacd1"},"vehicle_type_id":"4","last_reported":1749586302,"current_range_meters":12800,"station_id":"ce4bhs12rcd13ifvqhvg","pricing_plan_id":"cebpf4jnsgd1na2vs0mg"},{"bike_id":"af7e4485-8b39-451f-9b37-55fdd324809a","system_id":"levelo_inurba_marseille","lat":43.3033,"lon":5.40431,"is_reserved":false,"is_disabled":false,"rental_uris":{"android":"levelo://app?vid=af7e4485-8b39-451f-9b37-55fdd324809a","ios":"levelo://app?vid=af7e4485-8b39-451f-9b37-55fdd324809a"},"vehicle_type_id":"4","last_reported":1749586302,"current_range_meters":12800,"station_id":"ce4bh012rcd13ifvqd10","pricing_plan_id":"cebpf4jnsgd1na2vs0mg"},{"bike_id":"6181a8f6-1227-49a1-9beb-bb1c37c1ae5c","system_id":"levelo_inurba_marseille","lat":43.27991,"lon":5.41652,"is_reserved":false,"is_disabled":true,"rental_uris":{"android":"levelo://app?vid=6181a8f6-1227-49a1-9beb-bb1c37c1ae5c","ios":"levelo://app?vid=6181a8f6-1227-49a1-9beb-bb1c37c1ae5c"},"vehicle_type_id":"4","last_reported":1749586302,"current_range_meters":13600,"station_id":"ce4bho12rcd13ifvqh1g","pricing_plan_id":"cebpf4jnsgd1na2vs0mg"},{"bike_id":"43cc6a88-2826-453b-ad1d-8272e295bc3f","system_id":"levelo_inurba_marseille","lat":43.28726,"lon":5.37935,"is_reserved":false,"is_disabled":false,"rental_uris":{"android":"levelo://app?vid=43cc6a88-2826-453b-ad1d-8272e295bc3f","ios":"levelo://app?vid=43cc6a88-2826-453b-ad1d-8272e295bc3f"},"vehicle_type_id":"4","last_reported":1749586302,"current_range_meters":13600,"station_id":"ce4bh9p2rcd13ifvqec0","pricing_plan_id":"cebpf4jnsgd1na2vs0mg"},{"bike_id":"9cee3212-067f-4444-a22f-011a375d6d7c","system_id":"levelo_inurba_marseille","lat":43.31991,"lon":5.38133,"is_reserved":false,"is_disabled":false,"rental_uris":{"android":"levelo://app?vid=9cee3212-067f-4444-a22f-011a375d6d7c","ios":"levelo://app?vid=9cee3212-067f-4444-a22f-011a375d6d7c"},"vehicle_type_id":"4","last_reported":1749586302,"current_range_meters":13600,"station_id":"ce4bhr12rcd13ifvqhpg","pricing_plan_id":"cebpf4jnsgd1na2vs0mg"},{"bike_id":"1773f722-0601-4bc4-ac0e-b687bb926946","system_id":"levelo_inurba_marseille","lat":43.29269,"lon":5.40901,"is_reserved":false,"is_disabled":false,"rental_uris":{"android":"levelo://app?vid=1773f722-0601-4bc4-ac0e-b687bb926946","ios":"levelo://app?vid=1773f722-0601-4bc4-ac0e-b687bb926946"},"vehicle_type_id":"4","last_reported":1749586302,"current_range_meters":14000,"station_id":"ce4bh192rcd13ifvqdc0","pricing_plan_id":"cebpf4jnsgd1na2vs0mg"},{"bike_id":"abac1aef-dbbd-4e20-b5da-a2236e654af5","system_id":"levelo_inurba_marseille","lat":43.26937,"lon":5.40255,"is_reserved":false,"is_disabled":false,"rental_uris":{"android":"levelo://app?vid=abac1aef-dbbd-4e20-b5da-a2236e654af5","ios":"levelo://app?vid=abac1aef-dbbd-4e20-b5da-a2236e654af5"},"vehicle_type_id":"4","last_reported":1749586302,"current_range_meters":14000,"station_id":"cjm6bp8fraef2m0cb0m0","pricing_plan_id":"cebpf4jnsgd1na2vs0mg"},{"bike_id":"262903a9-22b9-4b2d-96c2-2e5dbd155090","system_id":"levelo_inurba_marseille","lat":43.32475,"lon":5.36561,"is_reserved":false,"is_disabled":false,"rental_uris":{"android":"levelo://app?vid=262903a9-22b9-4b2d-96c2-2e5dbd155090","ios":"levelo://app?vid=262903a9-22b9-4b2d-96c2-2e5dbd155090"},"vehicle_type_id":"4","last_reported":1749586302,"current_range_meters":14400,"station_id":"ce4bhs12rcd13ifvqhvg","pricing_plan_id":"cebpf4jnsgd1na2vs0mg"},{"bike_id":"72a94b25-2fe0-4919-8521-e8b66695aa46","system_id":"levelo_inurba_marseille","lat":43.286987,"lon":5.399945,"is_reserved":false,"is_disabled":false,"rental_uris":{"android":"levelo://app?vid=72a94b25-2fe0-4919-8521-e8b66695aa46","ios":"levelo://app?vid=72a94b25-2fe0-4919-8521-e8b66695aa46"},"vehicle_type_id":"4","last_reported":1749586302,"current_range_meters":14400,"station_id":"","pricing_plan_id":"cebpf4jnsgd1na2vs0mg"},{"bike_id":"2fb77abd-3112-4fce-99a6-71b8052ec74f","system_id":"levelo_inurba_marseille","lat":43.27937,"lon":5.41035,"is_reserved":false,"is_disabled":false,"rental_uris":{"android":"levelo://app?vid=2fb77abd-3112-4fce-99a6-71b8052ec74f","ios":"levelo://app?vid=2fb77abd-3112-4fce-99a6-71b8052ec74f"},"vehicle_type_id":"4","last_reported":1749586302,"current_range_meters":14400,"station_id":"ce4bhnp2rcd13ifvqh0g","pricing_plan_id":"cebpf4jnsgd1na2vs0mg"},{"bike_id":"84f5a926-1dd6-4535-b647-2764ce0ca103","system_id":"levelo_inurba_marseille","lat":43.32118,"lon":5.36786,"is_reserved":false,"is_disabled":false,"rental_uris":{"android":"levelo://app?vid=84f5a926-1dd6-4535-b647-2764ce0ca103","ios":"levelo://app?vid=84f5a926-1dd6-4535-b647-2764ce0ca103"},"vehicle_type_id":"4","last_reported":1749586302,"current_range_meters":14400,"station_id":"ce4bhrh2rcd13ifvqhug","pricing_plan_id":"cebpf4jnsgd1na2vs0mg"},{"bike_id":"a23ab102-8a76-47dc-97d6-44c9942c81e4","system_id":"levelo_inurba_marseille","lat":43.284796,"lon":5.385698,"is_reserved":false,"is_disabled":false,"rental_uris":{"android":"levelo://app?vid=a23ab102-8a76-47dc-97d6-44c9942c81e4","ios":"levelo://app?vid=a23ab102-8a76-47dc-97d6-44c9942c81e4"},"vehicle_type_id":"4","last_reported":1749586302,"current_range_meters":14400,"station_id":"ce4bh8p2rcd13ifvqeb0","pricing_plan_id":"cebpf4jnsgd1na2vs0mg"},{"bike_id":"f069439b-750c-424a-b619-732b0da17305","system_id":"levelo_inurba_marseille","lat":43.29584,"lon":5.38061,"is_reserved":false,"is_disabled":false,"rental_uris":{"android":"levelo://app?vid=f069439b-750c-424a-b619-732b0da17305","ios":"levelo://app?vid=f069439b-750c-424a-b619-732b0da17305"},"vehicle_type_id":"4","last_reported":1749586302,"current_range_meters":14400,"station_id":"ce4bgl12rcd13ifvqbo0","pricing_plan_id":"cebpf4jnsgd1na2vs0mg"},{"bike_id":"11f400b9-70e2-41d1-b065-11a8ee08079c","system_id":"levelo_inurba_marseille","lat":43.31166,"lon":5.38722,"is_reserved":false,"is_disabled":false,"rental_uris":{"android":"levelo://app?vid=11f400b9-70e2-41d1-b065-11a8ee08079c","ios":"levelo://app?vid=11f400b9-70e2-41d1-b065-11a8ee08079c"},"vehicle_type_id":"4","last_reported":1749586302,"current_range_meters":14800,"station_id":"ce4bgv12rcd13ifvqcp0","pricing_plan_id":"cebpf4jnsgd1na2vs0mg"},{"bike_id":"d59db2ac-bac5-4944-90e1-cdfef7914127","system_id":"levelo_inurba_marseille","lat":43.29552,"lon":5.39393,"is_reserved":false,"is_disabled":false,"rental_uris":{"android":"levelo://app?vid=d59db2ac-bac5-4944-90e1-cdfef7914127","ios":"levelo://app?vid=d59db2ac-bac5-4944-90e1-cdfef7914127"},"vehicle_type_id":"4","last_reported":1749586302,"current_range_meters":14800,"station_id":"ce4bh292rcd13ifvqdf0","pricing_plan_id":"cebpf4jnsgd1na2vs0mg"},{"bike_id":"7748c355-0aba-4683-9c44-fc091cf1332a","system_id":"levelo_inurba_marseille","lat":43.30315,"lon":5.39209,"is_reserved":false,"is_disabled":false,"rental_uris":{"android":"levelo://app?vid=7748c355-0aba-4683-9c44-fc091cf1332a","ios":"levelo://app?vid=7748c355-0aba-4683-9c44-fc091cf1332a"},"vehicle_type_id":"4","last_reported":1749586302,"current_range_meters":14800,"station_id":"ce4bgkh2rcd13ifvqbk0","pricing_plan_id":"cebpf4jnsgd1na2vs0mg"},{"bike_id":"e6d67648-0d34-4392-8e2c-f83f208c9d05","system_id":"levelo_inurba_marseille","lat":43.3168,"lon":5.40463,"is_reserved":false,"is_disabled":false,"rental_uris":{"android":"levelo://app?vid=e6d67648-0d34-4392-8e2c-f83f208c9d05","ios":"levelo://app?vid=e6d67648-0d34-4392-8e2c-f83f208c9d05"},"vehicle_type_id":"4","last_reported":1749586302,"current_range_meters":14800,"station_id":"ce4bh012rcd13ifvqd00","pricing_plan_id":"cebpf4jnsgd1na2vs0mg"},{"bike_id":"e2aa6bd4-fd75-4a24-9870-b02876ed02a3","system_id":"levelo_inurba_marseille","lat":43.29251,"lon":5.37617,"is_reserved":false,"is_disabled":false,"rental_uris":{"android":"levelo://app?vid=e2aa6bd4-fd75-4a24-9870-b02876ed02a3","ios":"levelo://app?vid=e2aa6bd4-fd75-4a24-9870-b02876ed02a3"},"vehicle_type_id":"4","last_reported":1749586302,"current_range_meters":14800,"station_id":"ce4bgi12rcd13ifvqb80","pricing_plan_id":"cebpf4jnsgd1na2vs0mg"},{"bike_id":"002ad4e8-6140-4bdd-b14b-f38ee707447e","system_id":"levelo_inurba_marseille","lat":43.30987,"lon":5.38578,"is_reserved":false,"is_disabled":false,"rental_uris":{"android":"levelo://app?vid=002ad4e8-6140-4bdd-b14b-f38ee707447e","ios":"levelo://app?vid=002ad4e8-6140-4bdd-b14b-f38ee707447e"},"vehicle_type_id":"4","last_reported":1749586302,"current_range_meters":14800,"station_id":"","pricing_plan_id":"cebpf4jnsgd1na2vs0mg"},{"bike_id":"c8324cdd-5686-4578-ad34-0f16439ea220","system_id":"levelo_inurba_marseille","lat":43.306061,"lon":5.372252,"is_reserved":false,"is_disabled":false,"rental_uris":{"android":"levelo://app?vid=c8324cdd-5686-4578-ad34-0f16439ea220","ios":"levelo://app?vid=c8324cdd-5686-4578-ad34-0f16439ea220"},"vehicle_type_id":"4","last_reported":1749586302,"current_range_meters":14800,"station_id":"ce4bgqh2rcd13ifvqc4g","pricing_plan_id":"cebpf4jnsgd1na2vs0mg"},{"bike_id":"f9c7be32-165b-478a-b752-d36248c41146","system_id":"levelo_inurba_marseille","lat":43.29584,"lon":5.39966,"is_reserved":false,"is_disabled":false,"rental_uris":{"android":"levelo://app?vid=f9c7be32-165b-478a-b752-d36248c41146","ios":"levelo://app?vid=f9c7be32-165b-478a-b752-d36248c41146"},"vehicle_type_id":"4","last_reported":1749586302,"current_range_meters":14800,"station_id":"ce4bh312rcd13ifvqdj0","pricing_plan_id":"cebpf4jnsgd1na2vs0mg"},{"bike_id":"1e5fef25-37e9-4fb9-9303-2a15c31b61a6","system_id":"levelo_inurba_marseille","lat":43.2417,"lon":5.36397,"is_reserved":false,"is_disabled":false,"rental_uris":{"android":"levelo://app?vid=1e5fef25-37e9-4fb9-9303-2a15c31b61a6","ios":"levelo://app?vid=1e5fef25-37e9-4fb9-9303-2a15c31b61a6"},"vehicle_type_id":"4","last_reported":1749586302,"current_range_meters":15200,"station_id":"cpo36qri1sfpv3e86is0","pricing_plan_id":"cebpf4jnsgd1na2vs0mg"},{"bike_id":"459ca737-6f77-471f-8093-5a88355f5584","system_id":"levelo_inurba_marseille","lat":43.27534,"lon":5.42421,"is_reserved":false,"is_disabled":false,"rental_uris":{"android":"levelo://app?vid=459ca737-6f77-471f-8093-5a88355f5584","ios":"levelo://app?vid=459ca737-6f77-471f-8093-5a88355f5584"},"vehicle_type_id":"4","last_reported":1749586302,"current_range_meters":15200,"station_id":"ce4bhn92rcd13ifvqgrg","pricing_plan_id":"cebpf4jnsgd1na2vs0mg"},{"bike_id":"fd1d14a0-1a3e-4eb9-b19e-044738f5d1c3","system_id":"levelo_inurba_marseille","lat":43.29015,"lon":5.35594,"is_reserved":false,"is_disabled":true,"rental_uris":{"android":"levelo://app?vid=fd1d14a0-1a3e-4eb9-b19e-044738f5d1c3","ios":"levelo://app?vid=fd1d14a0-1a3e-4eb9-b19e-044738f5d1c3"},"vehicle_type_id":"4","last_reported":1749586302,"current_range_meters":15200,"station_id":"ce4bhb92rcd13ifvqen0","pricing_plan_id":"cebpf4jnsgd1na2vs0mg"},{"bike_id":"c9b21e58-6ba5-4034-a19f-29e6922b7b60","system_id":"levelo_inurba_marseille","lat":43.30597,"lon":5.39355,"is_reserved":false,"is_disabled":false,"rental_uris":{"android":"levelo://app?vid=c9b21e58-6ba5-4034-a19f-29e6922b7b60","ios":"levelo://app?vid=c9b21e58-6ba5-4034-a19f-29e6922b7b60"},"vehicle_type_id":"4","last_reported":1749586302,"current_range_meters":15200,"station_id":"ce4bh0p2rcd13ifvqd80","pricing_plan_id":"cebpf4jnsgd1na2vs0mg"},{"bike_id":"38f6a98b-4691-4132-ac78-8a6ef0144926","system_id":"levelo_inurba_marseille","lat":43.29243,"lon":5.37621,"is_reserved":false,"is_disabled":false,"rental_uris":{"android":"levelo://app?vid=38f6a98b-4691-4132-ac78-8a6ef0144926","ios":"levelo://app?vid=38f6a98b-4691-4132-ac78-8a6ef0144926"},"vehicle_type_id":"4","last_reported":1749586302,"current_range_meters":15200,"station_id":"ce4bgi12rcd13ifvqb80","pricing_plan_id":"cebpf4jnsgd1na2vs0mg"},{"bike_id":"5d175b05-9c53-4f72-85c1-3c6545525ac6","system_id":"levelo_inurba_marseille","lat":43.25102,"lon":5.40331,"is_reserved":false,"is_disabled":false,"rental_uris":{"android":"levelo://app?vid=5d175b05-9c53-4f72-85c1-3c6545525ac6","ios":"levelo://app?vid=5d175b05-9c53-4f72-85c1-3c6545525ac6"},"vehicle_type_id":"4","last_reported":1749586302,"current_range_meters":15200,"station_id":"ce4bhlh2rcd13ifvqgig","pricing_plan_id":"cebpf4jnsgd1na2vs0mg"},{"bike_id":"e857b26f-e98d-4e5b-a472-9489934cc3bc","system_id":"levelo_inurba_marseille","lat":43.30926,"lon":5.40146,"is_reserved":false,"is_disabled":true,"rental_uris":{"android":"levelo://app?vid=e857b26f-e98d-4e5b-a472-9489934cc3bc","ios":"levelo://app?vid=e857b26f-e98d-4e5b-a472-9489934cc3bc"},"vehicle_type_id":"4","last_reported":1749586302,"current_range_meters":16000,"station_id":"ce4bgvp2rcd13ifvqct0","pricing_plan_id":"cebpf4jnsgd1na2vs0mg"},{"bike_id":"b350c8e9-ed32-4415-aae6-ec1b9bd87516","system_id":"levelo_inurba_marseille","lat":43.28663,"lon":5.36363,"is_reserved":false,"is_disabled":false,"rental_uris":{"android":"levelo://app?vid=b350c8e9-ed32-4415-aae6-ec1b9bd87516","ios":"levelo://app?vid=b350c8e9-ed32-4415-aae6-ec1b9bd87516"},"vehicle_type_id":"4","last_reported":1749586302,"current_range_meters":16000,"station_id":"ce4bhah2rcd13ifvqej0","pricing_plan_id":"cebpf4jnsgd1na2vs0mg"},{"bike_id":"21c32cf0-9fff-4197-8409-5b26012f94c3","system_id":"levelo_inurba_marseille","lat":43.27832,"lon":5.40699,"is_reserved":false,"is_disabled":false,"rental_uris":{"android":"levelo://app?vid=21c32cf0-9fff-4197-8409-5b26012f94c3","ios":"levelo://app?vid=21c32cf0-9fff-4197-8409-5b26012f94c3"},"vehicle_type_id":"4","last_reported":1749586302,"current_range_meters":16000,"station_id":"ce4bhnh2rcd13ifvqgtg","pricing_plan_id":"cebpf4jnsgd1na2vs0mg"},{"bike_id":"53ad8fa1-d150-4303-9608-ed288946d58c","system_id":"levelo_inurba_marseille","lat":43.31317,"lon":5.39693,"is_reserved":false,"is_disabled":false,"rental_uris":{"android":"levelo://app?vid=53ad8fa1-d150-4303-9608-ed288946d58c","ios":"levelo://app?vid=53ad8fa1-d150-4303-9608-ed288946d58c"},"vehicle_type_id":"4","last_reported":1749586302,"current_range_meters":16000,"station_id":"ce4bgvp2rcd13ifvqcu0","pricing_plan_id":"cebpf4jnsgd1na2vs0mg"},{"bike_id":"04f107b7-020e-49a3-8513-6c594c244cad","system_id":"levelo_inurba_marseille","lat":43.31359,"lon":5.385,"is_reserved":false,"is_disabled":false,"rental_uris":{"android":"levelo://app?vid=04f107b7-020e-49a3-8513-6c594c244cad","ios":"levelo://app?vid=04f107b7-020e-49a3-8513-6c594c244cad"},"vehicle_type_id":"4","last_reported":1749586302,"current_range_meters":16000,"station_id":"ce4bgt92rcd13ifvqcf0","pricing_plan_id":"cebpf4jnsgd1na2vs0mg"},{"bike_id":"7d98a342-ea50-4cc2-bf12-206c0950fbb3","system_id":"levelo_inurba_marseille","lat":43.33717,"lon":5.39183,"is_reserved":false,"is_disabled":false,"rental_uris":{"android":"levelo://app?vid=7d98a342-ea50-4cc2-bf12-206c0950fbb3","ios":"levelo://app?vid=7d98a342-ea50-4cc2-bf12-206c0950fbb3"},"vehicle_type_id":"4","last_reported":1749586302,"current_range_meters":16000,"station_id":"ce4bhr92rcd13ifvqhsg","pricing_plan_id":"cebpf4jnsgd1na2vs0mg"},{"bike_id":"9553fe67-76f4-4900-9c26-7b95b68f7a5b","system_id":"levelo_inurba_marseille","lat":43.32063,"lon":5.41541,"is_reserved":false,"is_disabled":false,"rental_uris":{"android":"levelo://app?vid=9553fe67-76f4-4900-9c26-7b95b68f7a5b","ios":"levelo://app?vid=9553fe67-76f4-4900-9c26-7b95b68f7a5b"},"vehicle_type_id":"4","last_reported":1749586302,"current_range_meters":16000,"station_id":"ce4bhq92rcd13ifvqhkg","pricing_plan_id":"cebpf4jnsgd1na2vs0mg"},{"bike_id":"1acfb620-cad7-48c0-8901-d7a5b74a5b65","system_id":"levelo_inurba_marseille","lat":43.33751,"lon":5.37456,"is_reserved":false,"is_disabled":false,"rental_uris":{"android":"levelo://app?vid=1acfb620-cad7-48c0-8901-d7a5b74a5b65","ios":"levelo://app?vid=1acfb620-cad7-48c0-8901-d7a5b74a5b65"},"vehicle_type_id":"4","last_reported":1749586302,"current_range_meters":16000,"station_id":"","pricing_plan_id":"cebpf4jnsgd1na2vs0mg"},{"bike_id":"f1b65fa1-984c-44f0-a715-d2dc0f780629","system_id":"levelo_inurba_marseille","lat":43.30593,"lon":5.39356,"is_reserved":false,"is_disabled":false,"rental_uris":{"android":"levelo://app?vid=f1b65fa1-984c-44f0-a715-d2dc0f780629","ios":"levelo://app?vid=f1b65fa1-984c-44f0-a715-d2dc0f780629"},"vehicle_type_id":"4","last_reported":1749586302,"current_range_meters":16400,"station_id":"ce4bh0p2rcd13ifvqd80","pricing_plan_id":"cebpf4jnsgd1na2vs0mg"},{"bike_id":"17ce4098-23dd-46b9-ae48-2bbe0f9e9785","system_id":"levelo_inurba_marseille","lat":43.27958,"lon":5.38685,"is_reserved":false,"is_disabled":false,"rental_uris":{"android":"levelo://app?vid=17ce4098-23dd-46b9-ae48-2bbe0f9e9785","ios":"levelo://app?vid=17ce4098-23dd-46b9-ae48-2bbe0f9e9785"},"vehicle_type_id":"4","last_reported":1749586302,"current_range_meters":16400,"station_id":"","pricing_plan_id":"cebpf4jnsgd1na2vs0mg"},{"bike_id":"a5e4103e-f351-4058-8d1f-d324a3a289c2","system_id":"levelo_inurba_marseille","lat":43.30303,"lon":5.39214,"is_reserved":false,"is_disabled":false,"rental_uris":{"android":"levelo://app?vid=a5e4103e-f351-4058-8d1f-d324a3a289c2","ios":"levelo://app?vid=a5e4103e-f351-4058-8d1f-d324a3a289c2"},"vehicle_type_id":"4","last_reported":1749586302,"current_range_meters":16400,"station_id":"ce4bgkh2rcd13ifvqbk0","pricing_plan_id":"cebpf4jnsgd1na2vs0mg"},{"bike_id":"514f3ce4-4675-4352-bc6b-a6afd14c005f","system_id":"levelo_inurba_marseille","lat":43.28384,"lon":5.38627,"is_reserved":false,"is_disabled":false,"rental_uris":{"android":"levelo://app?vid=514f3ce4-4675-4352-bc6b-a6afd14c005f","ios":"levelo://app?vid=514f3ce4-4675-4352-bc6b-a6afd14c005f"},"vehicle_type_id":"4","last_reported":1749586302,"current_range_meters":16400,"station_id":"ce4bh492rcd13ifvqdvg","pricing_plan_id":"cebpf4jnsgd1na2vs0mg"},{"bike_id":"9cd37ad7-76f6-412f-8948-5f249c922c57","system_id":"levelo_inurba_marseille","lat":43.30217,"lon":5.39474,"is_reserved":false,"is_disabled":false,"rental_uris":{"android":"levelo://app?vid=9cd37ad7-76f6-412f-8948-5f249c922c57","ios":"levelo://app?vid=9cd37ad7-76f6-412f-8948-5f249c922c57"},"vehicle_type_id":"4","last_reported":1749586302,"current_range_meters":16400,"station_id":"ce4bh0p2rcd13ifvqd70","pricing_plan_id":"cebpf4jnsgd1na2vs0mg"},{"bike_id":"446436a8-b6bb-4a5a-9c4b-3e473aa7729a","system_id":"levelo_inurba_marseille","lat":43.2621,"lon":5.37442,"is_reserved":false,"is_disabled":false,"rental_uris":{"android":"levelo://app?vid=446436a8-b6bb-4a5a-9c4b-3e473aa7729a","ios":"levelo://app?vid=446436a8-b6bb-4a5a-9c4b-3e473aa7729a"},"vehicle_type_id":"4","last_reported":1749586302,"current_range_meters":16400,"station_id":"ce4bhgp2rcd13ifvqfc0","pricing_plan_id":"cebpf4jnsgd1na2vs0mg"},{"bike_id":"eb187228-0e8a-420b-846b-4f6df9aaa629","system_id":"levelo_inurba_marseille","lat":43.23957,"lon":5.36634,"is_reserved":false,"is_disabled":false,"rental_uris":{"android":"levelo://app?vid=eb187228-0e8a-420b-846b-4f6df9aaa629","ios":"levelo://app?vid=eb187228-0e8a-420b-846b-4f6df9aaa629"},"vehicle_type_id":"4","last_reported":1749586302,"current_range_meters":16400,"station_id":"ce4bhi12rcd13ifvqfp0","pricing_plan_id":"cebpf4jnsgd1na2vs0mg"},{"bike_id":"4ae3b5e5-d310-4634-bb03-304356048555","system_id":"levelo_inurba_marseille","lat":43.3266,"lon":5.40981,"is_reserved":false,"is_disabled":false,"rental_uris":{"android":"levelo://app?vid=4ae3b5e5-d310-4634-bb03-304356048555","ios":"levelo://app?vid=4ae3b5e5-d310-4634-bb03-304356048555"},"vehicle_type_id":"4","last_reported":1749586302,"current_range_meters":15200,"station_id":"ce4bhpp2rcd13ifvqhgg","pricing_plan_id":"cebpf4jnsgd1na2vs0mg"},{"bike_id":"9bd6db66-5c57-43a0-819b-98c196e1424c","system_id":"levelo_inurba_marseille","lat":43.29506,"lon":5.39042,"is_reserved":false,"is_disabled":false,"rental_uris":{"android":"levelo://app?vid=9bd6db66-5c57-43a0-819b-98c196e1424c","ios":"levelo://app?vid=9bd6db66-5c57-43a0-819b-98c196e1424c"},"vehicle_type_id":"4","last_reported":1749586302,"current_range_meters":16400,"station_id":"ce4bh3p2rcd13ifvqdp0","pricing_plan_id":"cebpf4jnsgd1na2vs0mg"},{"bike_id":"b9dce34d-aeb2-409b-9fbd-9266ac903aaa","system_id":"levelo_inurba_marseille","lat":43.28975,"lon":5.37825,"is_reserved":false,"is_disabled":true,"rental_uris":{"android":"levelo://app?vid=b9dce34d-aeb2-409b-9fbd-9266ac903aaa","ios":"levelo://app?vid=b9dce34d-aeb2-409b-9fbd-9266ac903aaa"},"vehicle_type_id":"4","last_reported":1749586302,"current_range_meters":16400,"station_id":"ce4bh9p2rcd13ifvqed0","pricing_plan_id":"cebpf4jnsgd1na2vs0mg"},{"bike_id":"c25d961b-7952-48d3-8115-b3a897d04bff","system_id":"levelo_inurba_marseille","lat":43.28154,"lon":5.4265,"is_reserved":false,"is_disabled":false,"rental_uris":{"android":"levelo://app?vid=c25d961b-7952-48d3-8115-b3a897d04bff","ios":"levelo://app?vid=c25d961b-7952-48d3-8115-b3a897d04bff"},"vehicle_type_id":"4","last_reported":1749586302,"current_range_meters":16800,"station_id":"ce4bhnh2rcd13ifvqgug","pricing_plan_id":"cebpf4jnsgd1na2vs0mg"},{"bike_id":"4727b314-3bd1-43f9-b43d-76c9166f290d","system_id":"levelo_inurba_marseille","lat":43.32337,"lon":5.40619,"is_reserved":false,"is_disabled":false,"rental_uris":{"android":"levelo://app?vid=4727b314-3bd1-43f9-b43d-76c9166f290d","ios":"levelo://app?vid=4727b314-3bd1-43f9-b43d-76c9166f290d"},"vehicle_type_id":"4","last_reported":1749586302,"current_range_meters":16800,"station_id":"ce4bhq92rcd13ifvqhjg","pricing_plan_id":"cebpf4jnsgd1na2vs0mg"},{"bike_id":"997854c7-15e3-447d-839d-4eca6b3ab90c","system_id":"levelo_inurba_marseille","lat":43.29256,"lon":5.38439,"is_reserved":false,"is_disabled":false,"rental_uris":{"android":"levelo://app?vid=997854c7-15e3-447d-839d-4eca6b3ab90c","ios":"levelo://app?vid=997854c7-15e3-447d-839d-4eca6b3ab90c"},"vehicle_type_id":"4","last_reported":1749586302,"current_range_meters":16800,"station_id":"ce4bh692rcd13ifvqea0","pricing_plan_id":"cebpf4jnsgd1na2vs0mg"},{"bike_id":"929c0d1a-61d0-4797-aab5-b8531e32d169","system_id":"levelo_inurba_marseille","lat":43.28343,"lon":5.38099,"is_reserved":false,"is_disabled":false,"rental_uris":{"android":"levelo://app?vid=929c0d1a-61d0-4797-aab5-b8531e32d169","ios":"levelo://app?vid=929c0d1a-61d0-4797-aab5-b8531e32d169"},"vehicle_type_id":"4","last_reported":1749586302,"current_range_meters":16800,"station_id":"ce4bh412rcd13ifvqdr0","pricing_plan_id":"cebpf4jnsgd1na2vs0mg"},{"bike_id":"720096be-b7bf-4b22-aa52-5e2f6af37b39","system_id":"levelo_inurba_marseille","lat":43.26556,"lon":5.37295,"is_reserved":false,"is_disabled":false,"rental_uris":{"android":"levelo://app?vid=720096be-b7bf-4b22-aa52-5e2f6af37b39","ios":"levelo://app?vid=720096be-b7bf-4b22-aa52-5e2f6af37b39"},"vehicle_type_id":"4","last_reported":1749586302,"current_range_meters":16800,"station_id":"ce4bhg12rcd13ifvqf70","pricing_plan_id":"cebpf4jnsgd1na2vs0mg"},{"bike_id":"aa9085db-88fc-49be-aad8-9551ff3c1877","system_id":"levelo_inurba_marseille","lat":43.27939,"lon":5.41038,"is_reserved":false,"is_disabled":false,"rental_uris":{"android":"levelo://app?vid=aa9085db-88fc-49be-aad8-9551ff3c1877","ios":"levelo://app?vid=aa9085db-88fc-49be-aad8-9551ff3c1877"},"vehicle_type_id":"4","last_reported":1749586302,"current_range_meters":16800,"station_id":"ce4bhnp2rcd13ifvqh0g","pricing_plan_id":"cebpf4jnsgd1na2vs0mg"},{"bike_id":"a7d9bc35-eebd-4163-9c85-b6809886bd4b","system_id":"levelo_inurba_marseille","lat":43.306,"lon":5.37206,"is_reserved":false,"is_disabled":false,"rental_uris":{"android":"levelo://app?vid=a7d9bc35-eebd-4163-9c85-b6809886bd4b","ios":"levelo://app?vid=a7d9bc35-eebd-4163-9c85-b6809886bd4b"},"vehicle_type_id":"4","last_reported":1749586302,"current_range_meters":16800,"station_id":"ce4bgqh2rcd13ifvqc4g","pricing_plan_id":"cebpf4jnsgd1na2vs0mg"},{"bike_id":"a5b9b5c9-c179-4c91-9449-0adda2fa467d","system_id":"levelo_inurba_marseille","lat":43.28683,"lon":5.38673,"is_reserved":false,"is_disabled":false,"rental_uris":{"android":"levelo://app?vid=a5b9b5c9-c179-4c91-9449-0adda2fa467d","ios":"levelo://app?vid=a5b9b5c9-c179-4c91-9449-0adda2fa467d"},"vehicle_type_id":"4","last_reported":1749586302,"current_range_meters":16800,"station_id":"ce4bh492rcd13ifvqdug","pricing_plan_id":"cebpf4jnsgd1na2vs0mg"},{"bike_id":"125bd855-10ed-4a56-9707-403f3a8b58a0","system_id":"levelo_inurba_marseille","lat":43.31604,"lon":5.40754,"is_reserved":false,"is_disabled":false,"rental_uris":{"android":"levelo://app?vid=125bd855-10ed-4a56-9707-403f3a8b58a0","ios":"levelo://app?vid=125bd855-10ed-4a56-9707-403f3a8b58a0"},"vehicle_type_id":"4","last_reported":1749586302,"current_range_meters":16800,"station_id":"","pricing_plan_id":"cebpf4jnsgd1na2vs0mg"},{"bike_id":"6d393250-b7fe-42a5-bf3e-1a99a50e9a44","system_id":"levelo_inurba_marseille","lat":43.305298,"lon":5.365351,"is_reserved":false,"is_disabled":false,"rental_uris":{"android":"levelo://app?vid=6d393250-b7fe-42a5-bf3e-1a99a50e9a44","ios":"levelo://app?vid=6d393250-b7fe-42a5-bf3e-1a99a50e9a44"},"vehicle_type_id":"4","last_reported":1749586302,"current_range_meters":17200,"station_id":"ce4bgs12rcd13ifvqcag","pricing_plan_id":"cebpf4jnsgd1na2vs0mg"},{"bike_id":"33bc8731-edaf-4629-9bbd-51fefc951e28","system_id":"levelo_inurba_marseille","lat":43.25924,"lon":5.40872,"is_reserved":false,"is_disabled":false,"rental_uris":{"android":"levelo://app?vid=33bc8731-edaf-4629-9bbd-51fefc951e28","ios":"levelo://app?vid=33bc8731-edaf-4629-9bbd-51fefc951e28"},"vehicle_type_id":"4","last_reported":1749586302,"current_range_meters":17200,"station_id":"ce4bhm92rcd13ifvqglg","pricing_plan_id":"cebpf4jnsgd1na2vs0mg"},{"bike_id":"3e6b0fae-ad2c-4a7a-9485-acaac5f35614","system_id":"levelo_inurba_marseille","lat":43.252801,"lon":5.394336,"is_reserved":false,"is_disabled":false,"rental_uris":{"android":"levelo://app?vid=3e6b0fae-ad2c-4a7a-9485-acaac5f35614","ios":"levelo://app?vid=3e6b0fae-ad2c-4a7a-9485-acaac5f35614"},"vehicle_type_id":"4","last_reported":1749586302,"current_range_meters":17200,"station_id":"","pricing_plan_id":"cebpf4jnsgd1na2vs0mg"},{"bike_id":"21642226-12aa-40d0-80e6-9c3ac8a093af","system_id":"levelo_inurba_marseille","lat":43.25106,"lon":5.40323,"is_reserved":false,"is_disabled":false,"rental_uris":{"android":"levelo://app?vid=21642226-12aa-40d0-80e6-9c3ac8a093af","ios":"levelo://app?vid=21642226-12aa-40d0-80e6-9c3ac8a093af"},"vehicle_type_id":"4","last_reported":1749586302,"current_range_meters":17200,"station_id":"ce4bhlh2rcd13ifvqgig","pricing_plan_id":"cebpf4jnsgd1na2vs0mg"},{"bike_id":"9231f021-d06e-4dc9-b555-e59bf1d45ecd","system_id":"levelo_inurba_marseille","lat":43.321082,"lon":5.367858,"is_reserved":false,"is_disabled":false,"rental_uris":{"android":"levelo://app?vid=9231f021-d06e-4dc9-b555-e59bf1d45ecd","ios":"levelo://app?vid=9231f021-d06e-4dc9-b555-e59bf1d45ecd"},"vehicle_type_id":"4","last_reported":1749586302,"current_range_meters":17200,"station_id":"ce4bhrh2rcd13ifvqhug","pricing_plan_id":"cebpf4jnsgd1na2vs0mg"},{"bike_id":"cb976465-c3a7-4f11-9c5d-9e186e35f0c2","system_id":"levelo_inurba_marseille","lat":43.30541,"lon":5.38427,"is_reserved":false,"is_disabled":false,"rental_uris":{"android":"levelo://app?vid=cb976465-c3a7-4f11-9c5d-9e186e35f0c2","ios":"levelo://app?vid=cb976465-c3a7-4f11-9c5d-9e186e35f0c2"},"vehicle_type_id":"4","last_reported":1749586302,"current_range_meters":17200,"station_id":"ce4bgg92rcd13ifvqb30","pricing_plan_id":"cebpf4jnsgd1na2vs0mg"},{"bike_id":"1f42e774-0b65-4738-b3e3-0aae7ec0e65c","system_id":"levelo_inurba_marseille","lat":43.29582,"lon":5.37498,"is_reserved":false,"is_disabled":true,"rental_uris":{"android":"levelo://app?vid=1f42e774-0b65-4738-b3e3-0aae7ec0e65c","ios":"levelo://app?vid=1f42e774-0b65-4738-b3e3-0aae7ec0e65c"},"vehicle_type_id":"4","last_reported":1749586302,"current_range_meters":17200,"station_id":"ce4bgh92rcd13ifvqb50","pricing_plan_id":"cebpf4jnsgd1na2vs0mg"},{"bike_id":"d49963c9-4a74-4b7c-ae71-2e7f71f19deb","system_id":"levelo_inurba_marseille","lat":43.29594,"lon":5.36747,"is_reserved":false,"is_disabled":true,"rental_uris":{"android":"levelo://app?vid=d49963c9-4a74-4b7c-ae71-2e7f71f19deb","ios":"levelo://app?vid=d49963c9-4a74-4b7c-ae71-2e7f71f19deb"},"vehicle_type_id":"4","last_reported":1749586302,"current_range_meters":17600,"station_id":"ce4bgph2rcd13ifvqc2g","pricing_plan_id":"cebpf4jnsgd1na2vs0mg"},{"bike_id":"950522e5-9842-420b-a023-ada25ce94634","system_id":"levelo_inurba_marseille","lat":43.311767,"lon":5.387045,"is_reserved":false,"is_disabled":false,"rental_uris":{"android":"levelo://app?vid=950522e5-9842-420b-a023-ada25ce94634","ios":"levelo://app?vid=950522e5-9842-420b-a023-ada25ce94634"},"vehicle_type_id":"4","last_reported":1749586302,"current_range_meters":17600,"station_id":"ce4bgv12rcd13ifvqcp0","pricing_plan_id":"cebpf4jnsgd1na2vs0mg"},{"bike_id":"0c3e18d1-6e14-4233-9fe7-28c924f7be44","system_id":"levelo_inurba_marseille","lat":43.28691,"lon":5.38666,"is_reserved":false,"is_disabled":false,"rental_uris":{"android":"levelo://app?vid=0c3e18d1-6e14-4233-9fe7-28c924f7be44","ios":"levelo://app?vid=0c3e18d1-6e14-4233-9fe7-28c924f7be44"},"vehicle_type_id":"4","last_reported":1749586302,"current_range_meters":17600,"station_id":"ce4bh492rcd13ifvqdug","pricing_plan_id":"cebpf4jnsgd1na2vs0mg"},{"bike_id":"b8a18c38-2fce-4546-88fa-4688d15b1932","system_id":"levelo_inurba_marseille","lat":43.31699,"lon":5.37785,"is_reserved":false,"is_disabled":false,"rental_uris":{"android":"levelo://app?vid=b8a18c38-2fce-4546-88fa-4688d15b1932","ios":"levelo://app?vid=b8a18c38-2fce-4546-88fa-4688d15b1932"},"vehicle_type_id":"4","last_reported":1749586302,"current_range_meters":17600,"station_id":"ce4bgth2rcd13ifvqch0","pricing_plan_id":"cebpf4jnsgd1na2vs0mg"},{"bike_id":"95a59019-684d-4d04-85b5-594f74925668","system_id":"levelo_inurba_marseille","lat":43.31259,"lon":5.3685,"is_reserved":false,"is_disabled":false,"rental_uris":{"android":"levelo://app?vid=95a59019-684d-4d04-85b5-594f74925668","ios":"levelo://app?vid=95a59019-684d-4d04-85b5-594f74925668"},"vehicle_type_id":"4","last_reported":1749586302,"current_range_meters":17600,"station_id":"ce4bgl92rcd13ifvqbq0","pricing_plan_id":"cebpf4jnsgd1na2vs0mg"},{"bike_id":"2b7ee569-8bd5-4e64-b404-21374d340d95","system_id":"levelo_inurba_marseille","lat":43.32069,"lon":5.41544,"is_reserved":false,"is_disabled":false,"rental_uris":{"android":"levelo://app?vid=2b7ee569-8bd5-4e64-b404-21374d340d95","ios":"levelo://app?vid=2b7ee569-8bd5-4e64-b404-21374d340d95"},"vehicle_type_id":"4","last_reported":1749586302,"current_range_meters":17600,"station_id":"ce4bhq92rcd13ifvqhkg","pricing_plan_id":"cebpf4jnsgd1na2vs0mg"},{"bike_id":"d6515318-ac2c-47f0-b0e4-ac5ab2c5d151","system_id":"levelo_inurba_marseille","lat":43.24172,"lon":5.36397,"is_reserved":false,"is_disabled":false,"rental_uris":{"android":"levelo://app?vid=d6515318-ac2c-47f0-b0e4-ac5ab2c5d151","ios":"levelo://app?vid=d6515318-ac2c-47f0-b0e4-ac5ab2c5d151"},"vehicle_type_id":"4","last_reported":1749586302,"current_range_meters":17600,"station_id":"cpo36qri1sfpv3e86is0","pricing_plan_id":"cebpf4jnsgd1na2vs0mg"},{"bike_id":"ec34162b-f099-4e86-870f-199408ffe562","system_id":"levelo_inurba_marseille","lat":43.29531,"lon":5.39401,"is_reserved":false,"is_disabled":false,"rental_uris":{"android":"levelo://app?vid=ec34162b-f099-4e86-870f-199408ffe562","ios":"levelo://app?vid=ec34162b-f099-4e86-870f-199408ffe562"},"vehicle_type_id":"4","last_reported":1749586302,"current_range_meters":17600,"station_id":"ce4bh292rcd13ifvqdf0","pricing_plan_id":"cebpf4jnsgd1na2vs0mg"},{"bike_id":"539ccb83-cf9a-4419-9b04-f6045b59ae0a","system_id":"levelo_inurba_marseille","lat":43.29543,"lon":5.39427,"is_reserved":false,"is_disabled":false,"rental_uris":{"android":"levelo://app?vid=539ccb83-cf9a-4419-9b04-f6045b59ae0a","ios":"levelo://app?vid=539ccb83-cf9a-4419-9b04-f6045b59ae0a"},"vehicle_type_id":"4","last_reported":1749586302,"current_range_meters":17600,"station_id":"ce4bh292rcd13ifvqdf0","pricing_plan_id":"cebpf4jnsgd1na2vs0mg"},{"bike_id":"eb141528-d7ed-4d25-93fb-bf7329c50fab","system_id":"levelo_inurba_marseille","lat":43.266873,"lon":5.38271,"is_reserved":false,"is_disabled":false,"rental_uris":{"android":"levelo://app?vid=eb141528-d7ed-4d25-93fb-bf7329c50fab","ios":"levelo://app?vid=eb141528-d7ed-4d25-93fb-bf7329c50fab"},"vehicle_type_id":"4","last_reported":1749586302,"current_range_meters":17600,"station_id":"ce4bhg92rcd13ifvqf90","pricing_plan_id":"cebpf4jnsgd1na2vs0mg"},{"bike_id":"b918f339-a33d-489c-826a-8fffafca2d2e","system_id":"levelo_inurba_marseille","lat":43.32386,"lon":5.3886,"is_reserved":false,"is_disabled":false,"rental_uris":{"android":"levelo://app?vid=b918f339-a33d-489c-826a-8fffafca2d2e","ios":"levelo://app?vid=b918f339-a33d-489c-826a-8fffafca2d2e"},"vehicle_type_id":"4","last_reported":1749586302,"current_range_meters":17600,"station_id":"ce4bhqp2rcd13ifvqhog","pricing_plan_id":"cebpf4jnsgd1na2vs0mg"},{"bike_id":"2f377509-e360-4a8a-9635-3dd05c67749e","system_id":"levelo_inurba_marseille","lat":43.29267,"lon":5.38444,"is_reserved":false,"is_disabled":false,"rental_uris":{"android":"levelo://app?vid=2f377509-e360-4a8a-9635-3dd05c67749e","ios":"levelo://app?vid=2f377509-e360-4a8a-9635-3dd05c67749e"},"vehicle_type_id":"4","last_reported":1749586302,"current_range_meters":17600,"station_id":"ce4bh692rcd13ifvqea0","pricing_plan_id":"cebpf4jnsgd1na2vs0mg"},{"bike_id":"91252cb4-db98-4cff-ba49-0337a6eacf8f","system_id":"levelo_inurba_marseille","lat":43.31982,"lon":5.38784,"is_reserved":false,"is_disabled":false,"rental_uris":{"android":"levelo://app?vid=91252cb4-db98-4cff-ba49-0337a6eacf8f","ios":"levelo://app?vid=91252cb4-db98-4cff-ba49-0337a6eacf8f"},"vehicle_type_id":"4","last_reported":1749586302,"current_range_meters":17600,"station_id":"","pricing_plan_id":"cebpf4jnsgd1na2vs0mg"},{"bike_id":"980028fd-46b1-497b-ac4e-ab70d53e2673","system_id":"levelo_inurba_marseille","lat":43.28844,"lon":5.39303,"is_reserved":false,"is_disabled":false,"rental_uris":{"android":"levelo://app?vid=980028fd-46b1-497b-ac4e-ab70d53e2673","ios":"levelo://app?vid=980028fd-46b1-497b-ac4e-ab70d53e2673"},"vehicle_type_id":"4","last_reported":1749586302,"current_range_meters":17600,"station_id":"ce4bh2p2rcd13ifvqdi0","pricing_plan_id":"cebpf4jnsgd1na2vs0mg"},{"bike_id":"45996aec-a1af-49a2-a054-d331a85db064","system_id":"levelo_inurba_marseille","lat":43.27832,"lon":5.39205,"is_reserved":false,"is_disabled":false,"rental_uris":{"android":"levelo://app?vid=45996aec-a1af-49a2-a054-d331a85db064","ios":"levelo://app?vid=45996aec-a1af-49a2-a054-d331a85db064"},"vehicle_type_id":"4","last_reported":1749586302,"current_range_meters":17600,"station_id":"ce4bhjp2rcd13ifvqga0","pricing_plan_id":"cebpf4jnsgd1na2vs0mg"},{"bike_id":"314bac2c-e47f-46cd-afcd-53cd84a7d142","system_id":"levelo_inurba_marseille","lat":43.276136,"lon":5.36115,"is_reserved":false,"is_disabled":true,"rental_uris":{"android":"levelo://app?vid=314bac2c-e47f-46cd-afcd-53cd84a7d142","ios":"levelo://app?vid=314bac2c-e47f-46cd-afcd-53cd84a7d142"},"vehicle_type_id":"4","last_reported":1749586302,"current_range_meters":17600,"station_id":"ce4bgj92rcd13ifvqbe0","pricing_plan_id":"cebpf4jnsgd1na2vs0mg"},{"bike_id":"cccbf000-5478-4bba-84e6-727d3f6274cd","system_id":"levelo_inurba_marseille","lat":43.25114,"lon":5.40318,"is_reserved":false,"is_disabled":false,"rental_uris":{"android":"levelo://app?vid=cccbf000-5478-4bba-84e6-727d3f6274cd","ios":"levelo://app?vid=cccbf000-5478-4bba-84e6-727d3f6274cd"},"vehicle_type_id":"4","last_reported":1749586302,"current_range_meters":18000,"station_id":"ce4bhlh2rcd13ifvqgig","pricing_plan_id":"cebpf4jnsgd1na2vs0mg"},{"bike_id":"a2421370-e442-436f-a98a-844d44299694","system_id":"levelo_inurba_marseille","lat":43.32365,"lon":5.36767,"is_reserved":false,"is_disabled":false,"rental_uris":{"android":"levelo://app?vid=a2421370-e442-436f-a98a-844d44299694","ios":"levelo://app?vid=a2421370-e442-436f-a98a-844d44299694"},"vehicle_type_id":"4","last_reported":1749586302,"current_range_meters":18000,"station_id":"ce4bhsh2rcd13ifvqi2g","pricing_plan_id":"cebpf4jnsgd1na2vs0mg"},{"bike_id":"0c0ebad2-2854-402a-bcfb-c1756f152233","system_id":"levelo_inurba_marseille","lat":43.27833,"lon":5.39203,"is_reserved":false,"is_disabled":false,"rental_uris":{"android":"levelo://app?vid=0c0ebad2-2854-402a-bcfb-c1756f152233","ios":"levelo://app?vid=0c0ebad2-2854-402a-bcfb-c1756f152233"},"vehicle_type_id":"4","last_reported":1749586302,"current_range_meters":18000,"station_id":"ce4bhjp2rcd13ifvqga0","pricing_plan_id":"cebpf4jnsgd1na2vs0mg"},{"bike_id":"77b6bd4b-6078-4018-a798-1ea47e1514b9","system_id":"levelo_inurba_marseille","lat":43.29956,"lon":5.41316,"is_reserved":false,"is_disabled":false,"rental_uris":{"android":"levelo://app?vid=77b6bd4b-6078-4018-a798-1ea47e1514b9","ios":"levelo://app?vid=77b6bd4b-6078-4018-a798-1ea47e1514b9"},"vehicle_type_id":"4","last_reported":1749586302,"current_range_meters":18000,"station_id":"ce4bhp12rcd13ifvqh9g","pricing_plan_id":"cebpf4jnsgd1na2vs0mg"},{"bike_id":"2966505e-fe5e-4b47-9f25-13eace28d8e2","system_id":"levelo_inurba_marseille","lat":43.29609,"lon":5.36746,"is_reserved":false,"is_disabled":false,"rental_uris":{"android":"levelo://app?vid=2966505e-fe5e-4b47-9f25-13eace28d8e2","ios":"levelo://app?vid=2966505e-fe5e-4b47-9f25-13eace28d8e2"},"vehicle_type_id":"4","last_reported":1749586302,"current_range_meters":18000,"station_id":"ce4bgph2rcd13ifvqc2g","pricing_plan_id":"cebpf4jnsgd1na2vs0mg"},{"bike_id":"7819eaaa-3f58-4c23-a5d9-18bda87e0b16","system_id":"levelo_inurba_marseille","lat":43.31376,"lon":5.38255,"is_reserved":false,"is_disabled":false,"rental_uris":{"android":"levelo://app?vid=7819eaaa-3f58-4c23-a5d9-18bda87e0b16","ios":"levelo://app?vid=7819eaaa-3f58-4c23-a5d9-18bda87e0b16"},"vehicle_type_id":"4","last_reported":1749586302,"current_range_meters":18000,"station_id":"","pricing_plan_id":"cebpf4jnsgd1na2vs0mg"},{"bike_id":"6561ada4-4d9c-44fb-9d27-ab653c449cf8","system_id":"levelo_inurba_marseille","lat":43.30599,"lon":5.39348,"is_reserved":false,"is_disabled":false,"rental_uris":{"android":"levelo://app?vid=6561ada4-4d9c-44fb-9d27-ab653c449cf8","ios":"levelo://app?vid=6561ada4-4d9c-44fb-9d27-ab653c449cf8"},"vehicle_type_id":"4","last_reported":1749586302,"current_range_meters":18000,"station_id":"ce4bh0p2rcd13ifvqd80","pricing_plan_id":"cebpf4jnsgd1na2vs0mg"},{"bike_id":"03ff7327-9d80-465b-bc3e-d109526df4c5","system_id":"levelo_inurba_marseille","lat":43.26229,"lon":5.40455,"is_reserved":false,"is_disabled":false,"rental_uris":{"android":"levelo://app?vid=03ff7327-9d80-465b-bc3e-d109526df4c5","ios":"levelo://app?vid=03ff7327-9d80-465b-bc3e-d109526df4c5"},"vehicle_type_id":"4","last_reported":1749586302,"current_range_meters":18000,"station_id":"ce4bhmh2rcd13ifvqgmg","pricing_plan_id":"cebpf4jnsgd1na2vs0mg"},{"bike_id":"c6d21e26-26b7-4a15-9f95-3af0bce0ea14","system_id":"levelo_inurba_marseille","lat":43.24164,"lon":5.364,"is_reserved":false,"is_disabled":false,"rental_uris":{"android":"levelo://app?vid=c6d21e26-26b7-4a15-9f95-3af0bce0ea14","ios":"levelo://app?vid=c6d21e26-26b7-4a15-9f95-3af0bce0ea14"},"vehicle_type_id":"4","last_reported":1749586302,"current_range_meters":18000,"station_id":"cpo36qri1sfpv3e86is0","pricing_plan_id":"cebpf4jnsgd1na2vs0mg"},{"bike_id":"5a1d050c-2159-4454-9a9b-40cab73aa2fb","system_id":"levelo_inurba_marseille","lat":43.32349,"lon":5.40623,"is_reserved":false,"is_disabled":false,"rental_uris":{"android":"levelo://app?vid=5a1d050c-2159-4454-9a9b-40cab73aa2fb","ios":"levelo://app?vid=5a1d050c-2159-4454-9a9b-40cab73aa2fb"},"vehicle_type_id":"4","last_reported":1749586302,"current_range_meters":18000,"station_id":"ce4bhq92rcd13ifvqhjg","pricing_plan_id":"cebpf4jnsgd1na2vs0mg"},{"bike_id":"a172b0cf-62c4-4c52-a818-ce564350df02","system_id":"levelo_inurba_marseille","lat":43.21212,"lon":5.35052,"is_reserved":false,"is_disabled":false,"rental_uris":{"android":"levelo://app?vid=a172b0cf-62c4-4c52-a818-ce564350df02","ios":"levelo://app?vid=a172b0cf-62c4-4c52-a818-ce564350df02"},"vehicle_type_id":"4","last_reported":1749586302,"current_range_meters":18000,"station_id":"st_cvj6sg6p6f1abm77japg","pricing_plan_id":"cebpf4jnsgd1na2vs0mg"},{"bike_id":"65066ef9-1c39-47d6-b104-be1d784d3bad","system_id":"levelo_inurba_marseille","lat":43.26231,"lon":5.40449,"is_reserved":false,"is_disabled":false,"rental_uris":{"android":"levelo://app?vid=65066ef9-1c39-47d6-b104-be1d784d3bad","ios":"levelo://app?vid=65066ef9-1c39-47d6-b104-be1d784d3bad"},"vehicle_type_id":"4","last_reported":1749586302,"current_range_meters":18800,"station_id":"ce4bhmh2rcd13ifvqgmg","pricing_plan_id":"cebpf4jnsgd1na2vs0mg"},{"bike_id":"c912e3c2-7491-4816-9157-cc206e84ef2a","system_id":"levelo_inurba_marseille","lat":43.29174,"lon":5.37152,"is_reserved":false,"is_disabled":false,"rental_uris":{"android":"levelo://app?vid=c912e3c2-7491-4816-9157-cc206e84ef2a","ios":"levelo://app?vid=c912e3c2-7491-4816-9157-cc206e84ef2a"},"vehicle_type_id":"4","last_reported":1749586302,"current_range_meters":18800,"station_id":"ce4bha92rcd13ifvqeh0","pricing_plan_id":"cebpf4jnsgd1na2vs0mg"},{"bike_id":"cf31a56d-c3cf-4a18-84a2-3db492cc4534","system_id":"levelo_inurba_marseille","lat":43.31321,"lon":5.39678,"is_reserved":false,"is_disabled":false,"rental_uris":{"android":"levelo://app?vid=cf31a56d-c3cf-4a18-84a2-3db492cc4534","ios":"levelo://app?vid=cf31a56d-c3cf-4a18-84a2-3db492cc4534"},"vehicle_type_id":"4","last_reported":1749586302,"current_range_meters":18800,"station_id":"ce4bgvp2rcd13ifvqcu0","pricing_plan_id":"cebpf4jnsgd1na2vs0mg"},{"bike_id":"d78b40c7-e032-4da9-99fc-9d345b78b8c4","system_id":"levelo_inurba_marseille","lat":43.28729,"lon":5.36075,"is_reserved":false,"is_disabled":false,"rental_uris":{"android":"levelo://app?vid=d78b40c7-e032-4da9-99fc-9d345b78b8c4","ios":"levelo://app?vid=d78b40c7-e032-4da9-99fc-9d345b78b8c4"},"vehicle_type_id":"4","last_reported":1749586302,"current_range_meters":18800,"station_id":"cki0cbj6b192h4jlfktg","pricing_plan_id":"cebpf4jnsgd1na2vs0mg"},{"bike_id":"812e4842-d011-45eb-9f3e-65d6a7b1e1f0","system_id":"levelo_inurba_marseille","lat":43.30941,"lon":5.40162,"is_reserved":false,"is_disabled":false,"rental_uris":{"android":"levelo://app?vid=812e4842-d011-45eb-9f3e-65d6a7b1e1f0","ios":"levelo://app?vid=812e4842-d011-45eb-9f3e-65d6a7b1e1f0"},"vehicle_type_id":"4","last_reported":1749586302,"current_range_meters":18800,"station_id":"ce4bgvp2rcd13ifvqct0","pricing_plan_id":"cebpf4jnsgd1na2vs0mg"},{"bike_id":"9b747460-6561-4caa-8750-eef0fc21e0e8","system_id":"levelo_inurba_marseille","lat":43.28941,"lon":5.39624,"is_reserved":false,"is_disabled":false,"rental_uris":{"android":"levelo://app?vid=9b747460-6561-4caa-8750-eef0fc21e0e8","ios":"levelo://app?vid=9b747460-6561-4caa-8750-eef0fc21e0e8"},"vehicle_type_id":"4","last_reported":1749586302,"current_range_meters":18800,"station_id":"ce4bh3h2rcd13ifvqdn0","pricing_plan_id":"cebpf4jnsgd1na2vs0mg"},{"bike_id":"f10adc7e-6a3a-4a5d-9515-dc52fefe2058","system_id":"levelo_inurba_marseille","lat":43.32378,"lon":5.36764,"is_reserved":false,"is_disabled":false,"rental_uris":{"android":"levelo://app?vid=f10adc7e-6a3a-4a5d-9515-dc52fefe2058","ios":"levelo://app?vid=f10adc7e-6a3a-4a5d-9515-dc52fefe2058"},"vehicle_type_id":"4","last_reported":1749586302,"current_range_meters":18800,"station_id":"ce4bhsh2rcd13ifvqi2g","pricing_plan_id":"cebpf4jnsgd1na2vs0mg"},{"bike_id":"3f23dc14-e967-4f30-a972-8f69894f1ae2","system_id":"levelo_inurba_marseille","lat":43.29535,"lon":5.38746,"is_reserved":false,"is_disabled":false,"rental_uris":{"android":"levelo://app?vid=3f23dc14-e967-4f30-a972-8f69894f1ae2","ios":"levelo://app?vid=3f23dc14-e967-4f30-a972-8f69894f1ae2"},"vehicle_type_id":"4","last_reported":1749586302,"current_range_meters":18800,"station_id":"","pricing_plan_id":"cebpf4jnsgd1na2vs0mg"},{"bike_id":"e52167b8-b978-4996-b457-39e378d310f5","system_id":"levelo_inurba_marseille","lat":43.30435,"lon":5.38894,"is_reserved":false,"is_disabled":false,"rental_uris":{"android":"levelo://app?vid=e52167b8-b978-4996-b457-39e378d310f5","ios":"levelo://app?vid=e52167b8-b978-4996-b457-39e378d310f5"},"vehicle_type_id":"4","last_reported":1749586302,"current_range_meters":18800,"station_id":"ce4bgk12rcd13ifvqbi0","pricing_plan_id":"cebpf4jnsgd1na2vs0mg"},{"bike_id":"4bec66fd-7294-442c-a854-a5a5f362e96f","system_id":"levelo_inurba_marseille","lat":43.29874,"lon":5.39725,"is_reserved":false,"is_disabled":false,"rental_uris":{"android":"levelo://app?vid=4bec66fd-7294-442c-a854-a5a5f362e96f","ios":"levelo://app?vid=4bec66fd-7294-442c-a854-a5a5f362e96f"},"vehicle_type_id":"4","last_reported":1749586302,"current_range_meters":17600,"station_id":"ce4bh0h2rcd13ifvqd50","pricing_plan_id":"cebpf4jnsgd1na2vs0mg"},{"bike_id":"f6d3d94e-73e1-4c42-a7d7-b044a59dddd2","system_id":"levelo_inurba_marseille","lat":43.27833,"lon":5.3921,"is_reserved":false,"is_disabled":false,"rental_uris":{"android":"levelo://app?vid=f6d3d94e-73e1-4c42-a7d7-b044a59dddd2","ios":"levelo://app?vid=f6d3d94e-73e1-4c42-a7d7-b044a59dddd2"},"vehicle_type_id":"4","last_reported":1749586302,"current_range_meters":19200,"station_id":"ce4bhjp2rcd13ifvqga0","pricing_plan_id":"cebpf4jnsgd1na2vs0mg"},{"bike_id":"f0e6557f-7fe1-444b-b1ec-d4b4bef9a76c","system_id":"levelo_inurba_marseille","lat":43.25126,"lon":5.40313,"is_reserved":false,"is_disabled":false,"rental_uris":{"android":"levelo://app?vid=f0e6557f-7fe1-444b-b1ec-d4b4bef9a76c","ios":"levelo://app?vid=f0e6557f-7fe1-444b-b1ec-d4b4bef9a76c"},"vehicle_type_id":"4","last_reported":1749586302,"current_range_meters":19200,"station_id":"ce4bhlh2rcd13ifvqgig","pricing_plan_id":"cebpf4jnsgd1na2vs0mg"},{"bike_id":"abad3af0-1713-43c2-96eb-1108efc0dc1b","system_id":"levelo_inurba_marseille","lat":43.28693,"lon":5.38666,"is_reserved":false,"is_disabled":false,"rental_uris":{"android":"levelo://app?vid=abad3af0-1713-43c2-96eb-1108efc0dc1b","ios":"levelo://app?vid=abad3af0-1713-43c2-96eb-1108efc0dc1b"},"vehicle_type_id":"4","last_reported":1749586302,"current_range_meters":19200,"station_id":"ce4bh492rcd13ifvqdug","pricing_plan_id":"cebpf4jnsgd1na2vs0mg"},