{"last_updated":1723997352,"ttl":30,"version":"2.2","data":{"bikes":[{"bike_id":"8cdd4afa-5785-41f6-9ada-e303ada66b29","system_id":"levelo_inurba_marseille","lat":43.309076,"lon":5.368465,"is_reserved":false,"is_disabled":false,"rental_uris":{"android":"levelo://app?vid=8cdd4afa-5785-41f6-9ada-e303ada66b29","ios":"levelo://app?vid=8cdd4afa-5785-41f6-9ada-e303ada66b29"},"vehicle_type_id":"4","last_reported":1723997352,"current_range_meters":0,"station_id":"ce4bgn92rcd13ifvqbvg","pricing_plan_id":"cebpf4jnsgd1na2vs0mg"},{"bike_id":"8e822841-ae11-492b-a7c5-d26ef465253b","system_id":"levelo_inurba_marseille","lat":43.309076,"lon":5.368465,"is_reserved":false,"is_disabled":false,"rental_uris":{"android":"levelo://app?vid=8e822841-ae11-492b-a7c5-d26ef465253b","ios":"levelo://app?vid=8e822841-ae11-492b-a7c5-d26ef465253b"},"vehicle_type_id":"4","last_reported":1723997352,"current_range_meters":22000,"station_id":"ce4bgn92rcd13ifvqbvg","pricing_plan_id":"cebpf4jnsgd1na2vs0mg"},{"bike_id":"219c2f4b-c115-4c7b-9592-afd4f5f975f5","system_id":"levelo_inurba_marseille","lat":43.31485,"lon":5.37303,"is_reserved":false,"is_disabled":false,"rental_uris":{"android":"levelo://app?vid=219c2f4b-c115-4c7b-9592-afd4f5f975f5","ios":"levelo://app?vid=219c2f4b-c115-4c7b-9592-afd4f5f975f5"},"vehicle_type_id":"4","last_reported":1723997352,"current_range_meters":27600,"station_id":"","pricing_plan_id":"cebpf4jnsgd1na2vs0mg"},{"bike_id":"ef727c45-7a8e-4232-9ed0-e8563084304b","system_id":"levelo_inurba_marseille","lat":43.31486,"lon":5.37304,"is_reserved":false,"is_disabled":false,"rental_uris":{"android":"levelo://app?vid=ef727c45-7a8e-4232-9ed0-e8563084304b","ios":"levelo://app?vid=ef727c45-7a8e-4232-9ed0-e8563084304b"},"vehicle_type_id":"4","last_reported":1723997352,"current_range_meters":25600,"station_id":"ce4bgt12rcd13ifvqcd0","pricing_plan_id":"cebpf4jnsgd1na2vs0mg"},{"bike_id":"a1f42af1-46a8-4198-be8e-f1a982177377","system_id":"levelo_inurba_marseille","lat":43.314811,"lon":5.373103,"is_reserved":false,"is_disabled":false,"rental_uris":{"android":"levelo://app?vid=a1f42af1-46a8-4198-be8e-f1a982177377","ios":"levelo://app?vid=a1f42af1-46a8-4198-be8e-f1a982177377"},"vehicle_type_id":"4","last_reported":1723997352,"current_range_meters":16400,"station_id":"ce4bgt12rcd13ifvqcd0","pricing_plan_id":"cebpf4jnsgd1na2vs0mg"},{"bike_id":"b4f0473a-9e73-4ec9-bcc0-64809b676b8e","system_id":"levelo_inurba_marseille","lat":43.31465,"lon":5.37377,"is_reserved":false,"is_disabled":false,"rental_uris":{"android":"levelo://app?vid=b4f0473a-9e73-4ec9-bcc0-64809b676b8e","ios":"levelo://app?vid=b4f0473a-9e73-4ec9-bcc0-64809b676b8e"},"vehicle_type_id":"4","last_reported":1723997352,"current_range_meters":26800,"station_id":"","pricing_plan_id":"cebpf4jnsgd1na2vs0mg"},{"bike_id":"9b517d61-5f8c-42e7-8f8e-df8343c614a0","system_id":"levelo_inurba_marseille","lat":43.3157,"lon":5.37415,"is_reserved":false,"is_disabled":false,"rental_uris":{"android":"levelo://app?vid=9b517d61-5f8c-42e7-8f8e-df8343c614a0","ios":"levelo://app?vid=9b517d61-5f8c-42e7-8f8e-df8343c614a0"},"vehicle_type_id":"4","last_reported":1723997352,"current_range_meters":0,"station_id":"","pricing_plan_id":"cebpf4jnsgd1na2vs0mg"},{"bike_id":"e9044e1c-3b26-49fb-951b-f55b9eedfc08","system_id":"levelo_inurba_marseille","lat":43.305368,"lon":5.367343,"is_reserved":false,"is_disabled":false,"rental_uris":{"android":"levelo://app?vid=e9044e1c-3b26-49fb-951b-f55b9eedfc08","ios":"levelo://app?vid=e9044e1c-3b26-49fb-951b-f55b9eedfc08"},"vehicle_type_id":"4","last_reported":1723997352,"current_range_meters":0,"station_id":"ce4bgrp2rcd13ifvqc9g","pricing_plan_id":"cebpf4jnsgd1na2vs0mg"},{"bike_id":"4c44d17c-1c04-43ea-8b74-c7d3d75df4af","system_id":"levelo_inurba_marseille","lat":43.305706,"lon":5.365654,"is_reserved":false,"is_disabled":false,"rental_uris":{"android":"levelo://app?vid=4c44d17c-1c04-43ea-8b74-c7d3d75df4af","ios":"levelo://app?vid=4c44d17c-1c04-43ea-8b74-c7d3d75df4af"},"vehicle_type_id":"4","last_reported":1723997352,"current_range_meters":21600,"station_id":"ce4bgs12rcd13ifvqcag","pricing_plan_id":"cebpf4jnsgd1na2vs0mg"},{"bike_id":"6f3b0fff-03c6-4bf2-bf94-008f2d7ba3a4","system_id":"levelo_inurba_marseille","lat":43.3137,"lon":5.3792,"is_reserved":false,"is_disabled":false,"rental_uris":{"android":"levelo://app?vid=6f3b0fff-03c6-4bf2-bf94-008f2d7ba3a4","ios":"levelo://app?vid=6f3b0fff-03c6-4bf2-bf94-008f2d7ba3a4"},"vehicle_type_id":"4","last_reported":1723997352,"current_range_meters":0,"station_id":"","pricing_plan_id":"cebpf4jnsgd1na2vs0mg"},{"bike_id":"de2577bc-8202-447d-973d-e5acedd0914a","system_id":"levelo_inurba_marseille","lat":43.30486,"lon":5.37324,"is_reserved":false,"is_disabled":false,"rental_uris":{"android":"levelo://app?vid=de2577bc-8202-447d-973d-e5acedd0914a","ios":"levelo://app?vid=de2577bc-8202-447d-973d-e5acedd0914a"},"vehicle_type_id":"4","last_reported":1723997352,"current_range_meters":8000,"station_id":"","pricing_plan_id":"cebpf4jnsgd1na2vs0mg"},{"bike_id":"6525aa52-816a-4c8e-ad78-f32505ccdfba","system_id":"levelo_inurba_marseille","lat":43.3103,"lon":5.38064,"is_reserved":false,"is_disabled":false,"rental_uris":{"android":"levelo://app?vid=6525aa52-816a-4c8e-ad78-f32505ccdfba","ios":"levelo://app?vid=6525aa52-816a-4c8e-ad78-f32505ccdfba"},"vehicle_type_id":"4","last_reported":1723997352,"current_range_meters":0,"station_id":"","pricing_plan_id":"cebpf4jnsgd1na2vs0mg"},{"bike_id":"d016996d-3359-4a10-af45-08bb2d23f8b5","system_id":"levelo_inurba_marseille","lat":43.324771,"lon":5.36557,"is_reserved":false,"is_disabled":false,"rental_uris":{"android":"levelo://app?vid=d016996d-3359-4a10-af45-08bb2d23f8b5","ios":"levelo://app?vid=d016996d-3359-4a10-af45-08bb2d23f8b5"},"vehicle_type_id":"4","last_reported":1723997352,"current_range_meters":16800,"station_id":"ce4bhs12rcd13ifvqhvg","pricing_plan_id":"cebpf4jnsgd1na2vs0mg"},{"bike_id":"c5ebffba-6ec3-44b9-a792-7df31734cd11","system_id":"levelo_inurba_marseille","lat":43.304606,"lon":5.379026,"is_reserved":false,"is_disabled":false,"rental_uris":{"android":"levelo://app?vid=c5ebffba-6ec3-44b9-a792-7df31734cd11","ios":"levelo://app?vid=c5ebffba-6ec3-44b9-a792-7df31734cd11"},"vehicle_type_id":"4","last_reported":1723997352,"current_range_meters":6400,"station_id":"ce4bgup2rcd13ifvqcn0","pricing_plan_id":"cebpf4jnsgd1na2vs0mg"},{"bike_id":"c2b26ff9-a0c0-4f74-92b8-ebbb310a6dcc","system_id":"levelo_inurba_marseille","lat":43.304606,"lon":5.379026,"is_reserved":false,"is_disabled":false,"rental_uris":{"android":"levelo://app?vid=c2b26ff9-a0c0-4f74-92b8-ebbb310a6dcc","ios":"levelo://app?vid=c2b26ff9-a0c0-4f74-92b8-ebbb310a6dcc"},"vehicle_type_id":"4","last_reported":1723997352,"current_range_meters":19600,"station_id":"ce4bgup2rcd13ifvqcn0","pricing_plan_id":"cebpf4jnsgd1na2vs0mg"},{"bike_id":"23db8ace-bcc6-4917-8818-45a20daf2cf6","system_id":"levelo_inurba_marseille","lat":43.324771,"lon":5.36557,"is_reserved":false,"is_disabled":false,"rental_uris":{"android":"levelo://app?vid=23db8ace-bcc6-4917-8818-45a20daf2cf6","ios":"levelo://app?vid=23db8ace-bcc6-4917-8818-45a20daf2cf6"},"vehicle_type_id":"4","last_reported":1723997352,"current_range_meters":25200,"station_id":"ce4bhs12rcd13ifvqhvg","pricing_plan_id":"cebpf4jnsgd1na2vs0mg"},{"bike_id":"ac0bd178-ec6e-435c-a3e6-f8184d37594b","system_id":"levelo_inurba_marseille","lat":43.324771,"lon":5.36557,"is_reserved":false,"is_disabled":false,"rental_uris":{"android":"levelo://app?vid=ac0bd178-ec6e-435c-a3e6-f8184d37594b","ios":"levelo://app?vid=ac0bd178-ec6e-435c-a3e6-f8184d37594b"},"vehicle_type_id":"4","last_reported":1723997352,"current_range_meters":27200,"station_id":"ce4bhs12rcd13ifvqhvg","pricing_plan_id":"cebpf4jnsgd1na2vs0mg"},{"bike_id":"703b8608-92a3-4c87-8f90-58b9950ee574","system_id":"levelo_inurba_marseille","lat":43.324771,"lon":5.36557,"is_reserved":false,"is_disabled":false,"rental_uris":{"android":"levelo://app?vid=703b8608-92a3-4c87-8f90-58b9950ee574","ios":"levelo://app?vid=703b8608-92a3-4c87-8f90-58b9950ee574"},"vehicle_type_id":"4","last_reported":1723997352,"current_range_meters":5600,"station_id":"ce4bhs12rcd13ifvqhvg","pricing_plan_id":"cebpf4jnsgd1na2vs0mg"},{"bike_id":"6787e2e3-b330-4c6a-af60-0494b0e3ba79","system_id":"levelo_inurba_marseille","lat":43.324771,"lon":5.36557,"is_reserved":false,"is_disabled":false,"rental_uris":{"android":"levelo://app?vid=6787e2e3-b330-4c6a-af60-0494b0e3ba79","ios":"levelo://app?vid=6787e2e3-b330-4c6a-af60-0494b0e3ba79"},"vehicle_type_id":"4","last_reported":1723997352,"current_range_meters":25600,"station_id":"ce4bhs12rcd13ifvqhvg","pricing_plan_id":"cebpf4jnsgd1na2vs0mg"},{"bike_id":"4df678f9-14f9-4b52-aa3c-6a432f8b6c9d","system_id":"levelo_inurba_marseille","lat":43.324771,"lon":5.36557,"is_reserved":false,"is_disabled":false,"rental_uris":{"android":"levelo://app?vid=4df678f9-14f9-4b52-aa3c-6a432f8b6c9d","ios":"levelo://app?vid=4df678f9-14f9-4b52-aa3c-6a432f8b6c9d"},"vehicle_type_id":"4","last_reported":1723997352,"current_range_meters":24000,"station_id":"ce4bhs12rcd13ifvqhvg","pricing_plan_id":"cebpf4jnsgd1na2vs0mg"},{"bike_id":"47b41a5a-365e-4f2e-b49d-5acaf487f121","system_id":"levelo_inurba_marseille","lat":43.324771,"lon":5.36557,"is_reserved":false,"is_disabled":false,"rental_uris":{"android":"levelo://app?vid=47b41a5a-365e-4f2e-b49d-5acaf487f121","ios":"levelo://app?vid=47b41a5a-365e-4f2e-b49d-5acaf487f121"},"vehicle_type_id":"4","last_reported":1723997352,"current_range_meters":16800,"station_id":"ce4bhs12rcd13ifvqhvg","pricing_plan_id":"cebpf4jnsgd1na2vs0mg"},{"bike_id":"018f37f5-9c46-49c3-ac17-86750eb1896b","system_id":"levelo_inurba_marseille","lat":43.324771,"lon":5.36557,"is_reserved":false,"is_disabled":false,"rental_uris":{"android":"levelo://app?vid=018f37f5-9c46-49c3-ac17-86750eb1896b","ios":"levelo://app?vid=018f37f5-9c46-49c3-ac17-86750eb1896b"},"vehicle_type_id":"4","last_reported":1723997352,"current_range_meters":31200,"station_id":"ce4bhs12rcd13ifvqhvg","pricing_plan_id":"cebpf4jnsgd1na2vs0mg"},{"bike_id":"d3631bf2-be53-4b78-abf0-2de090db8946","system_id":"levelo_inurba_marseille","lat":43.324771,"lon":5.36557,"is_reserved":false,"is_disabled":false,"rental_uris":{"android":"levelo://app?vid=d3631bf2-be53-4b78-abf0-2de090db8946","ios":"levelo://app?vid=d3631bf2-be53-4b78-abf0-2de090db8946"},"vehicle_type_id":"4","last_reported":1723997352,"current_range_meters":31600,"station_id":"ce4bhs12rcd13ifvqhvg","pricing_plan_id":"cebpf4jnsgd1na2vs0mg"},{"bike_id":"a1e35c53-d7d1-42ae-a1ec-7b3cbe91df91","system_id":"levelo_inurba_marseille","lat":43.324771,"lon":5.36557,"is_reserved":false,"is_disabled":false,"rental_uris":{"android":"levelo://app?vid=a1e35c53-d7d1-42ae-a1ec-7b3cbe91df91","ios":"levelo://app?vid=a1e35c53-d7d1-42ae-a1ec-7b3cbe91df91"},"vehicle_type_id":"4","last_reported":1723997352,"current_range_meters":400,"station_id":"ce4bhs12rcd13ifvqhvg","pricing_plan_id":"cebpf4jnsgd1na2vs0mg"},{"bike_id":"337e4ef4-55c5-4153-b323-cf3f7168bb97","system_id":"levelo_inurba_marseille","lat":43.310804,"lon":5.38359,"is_reserved":false,"is_disabled":false,"rental_uris":{"android":"levelo://app?vid=337e4ef4-55c5-4153-b323-cf3f7168bb97","ios":"levelo://app?vid=337e4ef4-55c5-4153-b323-cf3f7168bb97"},"vehicle_type_id":"4","last_reported":1723997352,"current_range_meters":800,"station_id":"ce4bgv92rcd13ifvqcr0","pricing_plan_id":"cebpf4jnsgd1na2vs0mg"},{"bike_id":"a9954dad-3602-4004-98ca-6b84653ffd5e","system_id":"levelo_inurba_marseille","lat":43.310804,"lon":5.38359,"is_reserved":false,"is_disabled":false,"rental_uris":{"android":"levelo://app?vid=a9954dad-3602-4004-98ca-6b84653ffd5e","ios":"levelo://app?vid=a9954dad-3602-4004-98ca-6b84653ffd5e"},"vehicle_type_id":"4","last_reported":1723997352,"current_range_meters":0,"station_id":"ce4bgv92rcd13ifvqcr0","pricing_plan_id":"cebpf4jnsgd1na2vs0mg"},{"bike_id":"3b28a141-d551-4df1-910c-fe1f2988b527","system_id":"levelo_inurba_marseille","lat":43.302784,"lon":5.377158,"is_reserved":false,"is_disabled":false,"rental_uris":{"android":"levelo://app?vid=3b28a141-d551-4df1-910c-fe1f2988b527","ios":"levelo://app?vid=3b28a141-d551-4df1-910c-fe1f2988b527"},"vehicle_type_id":"4","last_reported":1723997352,"current_range_meters":16800,"station_id":"ce4bguh2rcd13ifvqcj0","pricing_plan_id":"cebpf4jnsgd1na2vs0mg"},{"bike_id":"a057c2b3-7e53-4d6b-805b-6673633e2ddf","system_id":"levelo_inurba_marseille","lat":43.3153,"lon":5.38354,"is_reserved":false,"is_disabled":false,"rental_uris":{"android":"levelo://app?vid=a057c2b3-7e53-4d6b-805b-6673633e2ddf","ios":"levelo://app?vid=a057c2b3-7e53-4d6b-805b-6673633e2ddf"},"vehicle_type_id":"4","last_reported":1723997352,"current_range_meters":14400,"station_id":"","pricing_plan_id":"cebpf4jnsgd1na2vs0mg"},{"bike_id":"d2a259fa-017e-4912-81c8-eb6f63bce838","system_id":"levelo_inurba_marseille","lat":43.30143,"lon":5.37413,"is_reserved":false,"is_disabled":false,"rental_uris":{"android":"levelo://app?vid=d2a259fa-017e-4912-81c8-eb6f63bce838","ios":"levelo://app?vid=d2a259fa-017e-4912-81c8-eb6f63bce838"},"vehicle_type_id":"4","last_reported":1723997352,"current_range_meters":3200,"station_id":"ce4bgs92rcd13ifvqcc0","pricing_plan_id":"cebpf4jnsgd1na2vs0mg"},{"bike_id":"3f146932-d64d-4b3a-a70b-933a6ee6a65a","system_id":"levelo_inurba_marseille","lat":43.301429,"lon":5.37413,"is_reserved":false,"is_disabled":false,"rental_uris":{"android":"levelo://app?vid=3f146932-d64d-4b3a-a70b-933a6ee6a65a","ios":"levelo://app?vid=3f146932-d64d-4b3a-a70b-933a6ee6a65a"},"vehicle_type_id":"4","last_reported":1723997352,"current_range_meters":16000,"station_id":"ce4bgs92rcd13ifvqcc0","pricing_plan_id":"cebpf4jnsgd1na2vs0mg"},{"bike_id":"12f24074-b3ed-4294-9712-3012f3f35e88","system_id":"levelo_inurba_marseille","lat":43.30608,"lon":5.3819,"is_reserved":false,"is_disabled":false,"rental_uris":{"android":"levelo://app?vid=12f24074-b3ed-4294-9712-3012f3f35e88","ios":"levelo://app?vid=12f24074-b3ed-4294-9712-3012f3f35e88"},"vehicle_type_id":"4","last_reported":1723997352,"current_range_meters":9200,"station_id":"","pricing_plan_id":"cebpf4jnsgd1na2vs0mg"},{"bike_id":"347393ff-b756-4d22-8f52-d74679ba3e5a","system_id":"levelo_inurba_marseille","lat":43.30499,"lon":5.38104,"is_reserved":false,"is_disabled":false,"rental_uris":{"android":"levelo://app?vid=347393ff-b756-4d22-8f52-d74679ba3e5a","ios":"levelo://app?vid=347393ff-b756-4d22-8f52-d74679ba3e5a"},"vehicle_type_id":"4","last_reported":1723997352,"current_range_meters":1200,"station_id":"","pricing_plan_id":"cebpf4jnsgd1na2vs0mg"},{"bike_id":"ff7b2010-97e8-4571-b3fa-573ae02d2e62","system_id":"levelo_inurba_marseille","lat":43.313571,"lon":5.384829,"is_reserved":false,"is_disabled":false,"rental_uris":{"android":"levelo://app?vid=ff7b2010-97e8-4571-b3fa-573ae02d2e62","ios":"levelo://app?vid=ff7b2010-97e8-4571-b3fa-573ae02d2e62"},"vehicle_type_id":"4","last_reported":1723997352,"current_range_meters":29600,"station_id":"ce4bgt92rcd13ifvqcf0","pricing_plan_id":"cebpf4jnsgd1na2vs0mg"},{"bike_id":"83e4d5a4-68fe-4cd0-9fa1-cca381ee30d7","system_id":"levelo_inurba_marseille","lat":43.313571,"lon":5.384829,"is_reserved":false,"is_disabled":false,"rental_uris":{"android":"levelo://app?vid=83e4d5a4-68fe-4cd0-9fa1-cca381ee30d7","ios":"levelo://app?vid=83e4d5a4-68fe-4cd0-9fa1-cca381ee30d7"},"vehicle_type_id":"4","last_reported":1723997352,"current_range_meters":16400,"station_id":"ce4bgt92rcd13ifvqcf0","pricing_plan_id":"cebpf4jnsgd1na2vs0mg"},{"bike_id":"d84d2e6a-a125-4b5a-8b76-46bc703eb4de","system_id":"levelo_inurba_marseille","lat":43.313571,"lon":5.384829,"is_reserved":false,"is_disabled":false,"rental_uris":{"android":"levelo://app?vid=d84d2e6a-a125-4b5a-8b76-46bc703eb4de","ios":"levelo://app?vid=d84d2e6a-a125-4b5a-8b76-46bc703eb4de"},"vehicle_type_id":"4","last_reported":1723997352,"current_range_meters":22000,"station_id":"ce4bgt92rcd13ifvqcf0","pricing_plan_id":"cebpf4jnsgd1na2vs0mg"},{"bike_id":"e2bcf9f8-b6f9-4655-8317-7b931690c152","system_id":"levelo_inurba_marseille","lat":43.313571,"lon":5.384829,"is_reserved":false,"is_disabled":false,"rental_uris":{"android":"levelo://app?vid=e2bcf9f8-b6f9-4655-8317-7b931690c152","ios":"levelo://app?vid=e2bcf9f8-b6f9-4655-8317-7b931690c152"},"vehicle_type_id":"4","last_reported":1723997352,"current_range_meters":5200,"station_id":"ce4bgt92rcd13ifvqcf0","pricing_plan_id":"cebpf4jnsgd1na2vs0mg"},{"bike_id":"d200029b-2220-4cf7-89c6-fc6ee09fbc8d","system_id":"levelo_inurba_marseille","lat":43.306673,"lon":5.38309,"is_reserved":false,"is_disabled":false,"rental_uris":{"android":"levelo://app?vid=d200029b-2220-4cf7-89c6-fc6ee09fbc8d","ios":"levelo://app?vid=d200029b-2220-4cf7-89c6-fc6ee09fbc8d"},"vehicle_type_id":"4","last_reported":1723997352,"current_range_meters":14400,"station_id":"","pricing_plan_id":"cebpf4jnsgd1na2vs0mg"},{"bike_id":"b6d9b503-e9f7-4f7b-bb38-4ac1dee5a07c","system_id":"levelo_inurba_marseille","lat":43.299222,"lon":5.365554,"is_reserved":false,"is_disabled":false,"rental_uris":{"android":"levelo://app?vid=b6d9b503-e9f7-4f7b-bb38-4ac1dee5a07c","ios":"levelo://app?vid=b6d9b503-e9f7-4f7b-bb38-4ac1dee5a07c"},"vehicle_type_id":"4","last_reported":1723997352,"current_range_meters":0,"station_id":"ce4bgm92rcd13ifvqbr0","pricing_plan_id":"cebpf4jnsgd1na2vs0mg"},{"bike_id":"a2577323-85cc-4978-8cdc-1649871eafc8","system_id":"levelo_inurba_marseille","lat":43.299222,"lon":5.365554,"is_reserved":false,"is_disabled":false,"rental_uris":{"android":"levelo://app?vid=a2577323-85cc-4978-8cdc-1649871eafc8","ios":"levelo://app?vid=a2577323-85cc-4978-8cdc-1649871eafc8"},"vehicle_type_id":"4","last_reported":1723997352,"current_range_meters":16000,"station_id":"ce4bgm92rcd13ifvqbr0","pricing_plan_id":"cebpf4jnsgd1na2vs0mg"},{"bike_id":"a41d8b72-5801-46d3-85c5-706eed800c62","system_id":"levelo_inurba_marseille","lat":43.298433,"lon":5.362774,"is_reserved":false,"is_disabled":false,"rental_uris":{"android":"levelo://app?vid=a41d8b72-5801-46d3-85c5-706eed800c62","ios":"levelo://app?vid=a41d8b72-5801-46d3-85c5-706eed800c62"},"vehicle_type_id":"4","last_reported":1723997352,"current_range_meters":31200,"station_id":"ce4bgpp2rcd13ifvqc3g","pricing_plan_id":"cebpf4jnsgd1na2vs0mg"},{"bike_id":"93cc80d2-b0ee-49f5-a425-5435d3b1201c","system_id":"levelo_inurba_marseille","lat":43.311722,"lon":5.387247,"is_reserved":false,"is_disabled":false,"rental_uris":{"android":"levelo://app?vid=93cc80d2-b0ee-49f5-a425-5435d3b1201c","ios":"levelo://app?vid=93cc80d2-b0ee-49f5-a425-5435d3b1201c"},"vehicle_type_id":"4","last_reported":1723997352,"current_range_meters":4400,"station_id":"ce4bgv12rcd13ifvqcp0","pricing_plan_id":"cebpf4jnsgd1na2vs0mg"},{"bike_id":"1a043b23-8ddb-490c-bc16-edb838e2f3b6","system_id":"levelo_inurba_marseille","lat":43.311722,"lon":5.387247,"is_reserved":false,"is_disabled":false,"rental_uris":{"android":"levelo://app?vid=1a043b23-8ddb-490c-bc16-edb838e2f3b6","ios":"levelo://app?vid=1a043b23-8ddb-490c-bc16-edb838e2f3b6"},"vehicle_type_id":"4","last_reported":1723997352,"current_range_meters":4000,"station_id":"ce4bgv12rcd13ifvqcp0","pricing_plan_id":"cebpf4jnsgd1na2vs0mg"},{"bike_id":"9ca6f601-57a7-49b4-aecc-43a4b101b12b","system_id":"levelo_inurba_marseille","lat":43.29914,"lon":5.3748,"is_reserved":false,"is_disabled":false,"rental_uris":{"android":"levelo://app?vid=9ca6f601-57a7-49b4-aecc-43a4b101b12b","ios":"levelo://app?vid=9ca6f601-57a7-49b4-aecc-43a4b101b12b"},"vehicle_type_id":"4","last_reported":1723997352,"current_range_meters":2400,"station_id":"ce4bgjh2rcd13ifvqbg0","pricing_plan_id":"cebpf4jnsgd1na2vs0mg"},{"bike_id":"9774ede7-bd63-4819-82a3-b180b64ffbb6","system_id":"levelo_inurba_marseille","lat":43.311722,"lon":5.387247,"is_reserved":false,"is_disabled":false,"rental_uris":{"android":"levelo://app?vid=9774ede7-bd63-4819-82a3-b180b64ffbb6","ios":"levelo://app?vid=9774ede7-bd63-4819-82a3-b180b64ffbb6"},"vehicle_type_id":"4","last_reported":1723997352,"current_range_meters":0,"station_id":"ce4bgv12rcd13ifvqcp0","pricing_plan_id":"cebpf4jnsgd1na2vs0mg"},{"bike_id":"2e7916c5-4bc6-4a9b-9772-9aad2631dd79","system_id":"levelo_inurba_marseille","lat":43.299243,"lon":5.374807,"is_reserved":false,"is_disabled":false,"rental_uris":{"android":"levelo://app?vid=2e7916c5-4bc6-4a9b-9772-9aad2631dd79","ios":"levelo://app?vid=2e7916c5-4bc6-4a9b-9772-9aad2631dd79"},"vehicle_type_id":"4","last_reported":1723997352,"current_range_meters":8400,"station_id":"ce4bgjh2rcd13ifvqbg0","pricing_plan_id":"cebpf4jnsgd1na2vs0mg"},{"bike_id":"56af6306-269e-4fd8-ae5c-e9b85d36a0bc","system_id":"levelo_inurba_marseille","lat":43.301417,"lon":5.3809,"is_reserved":false,"is_disabled":false,"rental_uris":{"android":"levelo://app?vid=56af6306-269e-4fd8-ae5c-e9b85d36a0bc","ios":"levelo://app?vid=56af6306-269e-4fd8-ae5c-e9b85d36a0bc"},"vehicle_type_id":"4","last_reported":1723997352,"current_range_meters":6400,"station_id":"ce4bgjp2rcd13ifvqbh0","pricing_plan_id":"cebpf4jnsgd1na2vs0mg"},{"bike_id":"f1ab5eb4-7a63-4d9a-b67a-247ed8609133","system_id":"levelo_inurba_marseille","lat":43.297794,"lon":5.370888,"is_reserved":false,"is_disabled":false,"rental_uris":{"android":"levelo://app?vid=f1ab5eb4-7a63-4d9a-b67a-247ed8609133","ios":"levelo://app?vid=f1ab5eb4-7a63-4d9a-b67a-247ed8609133"},"vehicle_type_id":"4","last_reported":1723997352,"current_range_meters":2800,"station_id":"ce4bgop2rcd13ifvqc1g","pricing_plan_id":"cebpf4jnsgd1na2vs0mg"},{"bike_id":"141d3717-8f66-423c-a797-f3b495160ae0","system_id":"levelo_inurba_marseille","lat":43.297828,"lon":5.371043,"is_reserved":false,"is_disabled":false,"rental_uris":{"android":"levelo://app?vid=141d3717-8f66-423c-a797-f3b495160ae0","ios":"levelo://app?vid=141d3717-8f66-423c-a797-f3b495160ae0"},"vehicle_type_id":"4","last_reported":1723997352,"current_range_meters":17600,"station_id":"","pricing_plan_id":"cebpf4jnsgd1na2vs0mg"},{"bike_id":"16d0aece-5b52-4a02-ad99-39145ece37fd","system_id":"levelo_inurba_marseille","lat":43.322945,"lon":5.382643,"is_reserved":false,"is_disabled":false,"rental_uris":{"android":"levelo://app?vid=16d0aece-5b52-4a02-ad99-39145ece37fd","ios":"levelo://app?vid=16d0aece-5b52-4a02-ad99-39145ece37fd"},"vehicle_type_id":"4","last_reported":1723997352,"current_range_meters":800,"station_id":"ce4bhr12rcd13ifvqhqg","pricing_plan_id":"cebpf4jnsgd1na2vs0mg"},{"bike_id":"b9219f2f-1c94-4bf1-9c5e-a1ddf0def11a","system_id":"levelo_inurba_marseille","lat":43.29722,"lon":5.36878,"is_reserved":false,"is_disabled":false,"rental_uris":{"android":"levelo://app?vid=b9219f2f-1c94-4bf1-9c5e-a1ddf0def11a","ios":"levelo://app?vid=b9219f2f-1c94-4bf1-9c5e-a1ddf0def11a"},"vehicle_type_id":"4","last_reported":1723997352,"current_range_meters":22000,"station_id":"","pricing_plan_id":"cebpf4jnsgd1na2vs0mg"},{"bike_id":"f16bca96-a9a3-425f-81bc-f66643d984a6","system_id":"levelo_inurba_marseille","lat":43.29915,"lon":5.38136,"is_reserved":false,"is_disabled":false,"rental_uris":{"android":"levelo://app?vid=f16bca96-a9a3-425f-81bc-f66643d984a6","ios":"levelo://app?vid=f16bca96-a9a3-425f-81bc-f66643d984a6"},"vehicle_type_id":"4","last_reported":1723997352,"current_range_meters":22000,"station_id":"ce4bgj12rcd13ifvqbc0","pricing_plan_id":"cebpf4jnsgd1na2vs0mg"},{"bike_id":"ea635b49-5908-42b0-ae31-68a35d9d09bd","system_id":"levelo_inurba_marseille","lat":43.299028,"lon":5.381509,"is_reserved":false,"is_disabled":false,"rental_uris":{"android":"levelo://app?vid=ea635b49-5908-42b0-ae31-68a35d9d09bd","ios":"levelo://app?vid=ea635b49-5908-42b0-ae31-68a35d9d09bd"},"vehicle_type_id":"4","last_reported":1723997352,"current_range_meters":17200,"station_id":"ce4bgj12rcd13ifvqbc0","pricing_plan_id":"cebpf4jnsgd1na2vs0mg"},{"bike_id":"c1c59f17-1920-43a1-bd66-5f2308a81821","system_id":"levelo_inurba_marseille","lat":43.297103,"lon":5.376957,"is_reserved":false,"is_disabled":false,"rental_uris":{"android":"levelo://app?vid=c1c59f17-1920-43a1-bd66-5f2308a81821","ios":"levelo://app?vid=c1c59f17-1920-43a1-bd66-5f2308a81821"},"vehicle_type_id":"4","last_reported":1723997352,"current_range_meters":0,"station_id":"ce4bgkh2rcd13ifvqbl0","pricing_plan_id":"cebpf4jnsgd1na2vs0mg"},{"bike_id":"339e4549-7c27-4f03-898c-adecb378fd1f","system_id":"levelo_inurba_marseille","lat":43.309589,"lon":5.390258,"is_reserved":false,"is_disabled":false,"rental_uris":{"android":"levelo://app?vid=339e4549-7c27-4f03-898c-adecb378fd1f","ios":"levelo://app?vid=339e4549-7c27-4f03-898c-adecb378fd1f"},"vehicle_type_id":"4","last_reported":1723997352,"current_range_meters":0,"station_id":"ce4bgup2rcd13ifvqco0","pricing_plan_id":"cebpf4jnsgd1na2vs0mg"},{"bike_id":"cc07ed16-5e46-4a75-a38d-0450c152bd00","system_id":"levelo_inurba_marseille","lat":43.309589,"lon":5.390258,"is_reserved":false,"is_disabled":false,"rental_uris":{"android":"levelo://app?vid=cc07ed16-5e46-4a75-a38d-0450c152bd00","ios":"levelo://app?vid=cc07ed16-5e46-4a75-a38d-0450c152bd00"},"vehicle_type_id":"4","last_reported":1723997352,"current_range_meters":9600,"station_id":"ce4bgup2rcd13ifvqco0","pricing_plan_id":"cebpf4jnsgd1na2vs0mg"},{"bike_id":"92d77f81-b869-4ed4-818f-21ec374beeab","system_id":"levelo_inurba_marseille","lat":43.309589,"lon":5.390258,"is_reserved":false,"is_disabled":false,"rental_uris":{"android":"levelo://app?vid=92d77f81-b869-4ed4-818f-21ec374beeab","ios":"levelo://app?vid=92d77f81-b869-4ed4-818f-21ec374beeab"},"vehicle_type_id":"4","last_reported":1723997352,"current_range_meters":21600,"station_id":"ce4bgup2rcd13ifvqco0","pricing_plan_id":"cebpf4jnsgd1na2vs0mg"},{"bike_id":"69eaf954-552c-4ce6-9afd-32e3390cbdeb","system_id":"levelo_inurba_marseille","lat":43.309589,"lon":5.390258,"is_reserved":false,"is_disabled":false,"rental_uris":{"android":"levelo://app?vid=69eaf954-552c-4ce6-9afd-32e3390cbdeb","ios":"levelo://app?vid=69eaf954-552c-4ce6-9afd-32e3390cbdeb"},"vehicle_type_id":"4","last_reported":1723997352,"current_range_meters":10400,"station_id":"ce4bgup2rcd13ifvqco0","pricing_plan_id":"cebpf4jnsgd1na2vs0mg"},{"bike_id":"2fec4533-9de0-494a-b7df-51e93502bd8e","system_id":"levelo_inurba_marseille","lat":43.309589,"lon":5.390258,"is_reserved":false,"is_disabled":false,"rental_uris":{"android":"levelo://app?vid=2fec4533-9de0-494a-b7df-51e93502bd8e","ios":"levelo://app?vid=2fec4533-9de0-494a-b7df-51e93502bd8e"},"vehicle_type_id":"4","last_reported":1723997352,"current_range_meters":28400,"station_id":"ce4bgup2rcd13ifvqco0","pricing_plan_id":"cebpf4jnsgd1na2vs0mg"},{"bike_id":"2298510f-9226-4deb-bea8-68ffe811f955","system_id":"levelo_inurba_marseille","lat":43.29899,"lon":5.38143,"is_reserved":false,"is_disabled":false,"rental_uris":{"android":"levelo://app?vid=2298510f-9226-4deb-bea8-68ffe811f955","ios":"levelo://app?vid=2298510f-9226-4deb-bea8-68ffe811f955"},"vehicle_type_id":"4","last_reported":1723997352,"current_range_meters":24000,"station_id":"ce4bgj12rcd13ifvqbc0","pricing_plan_id":"cebpf4jnsgd1na2vs0mg"},{"bike_id":"b66f534b-1816-4c49-a09d-76fd38632fb8","system_id":"levelo_inurba_marseille","lat":43.309589,"lon":5.390258,"is_reserved":false,"is_disabled":false,"rental_uris":{"android":"levelo://app?vid=b66f534b-1816-4c49-a09d-76fd38632fb8","ios":"levelo://app?vid=b66f534b-1816-4c49-a09d-76fd38632fb8"},"vehicle_type_id":"4","last_reported":1723997352,"current_range_meters":16000,"station_id":"ce4bgup2rcd13ifvqco0","pricing_plan_id":"cebpf4jnsgd1na2vs0mg"},{"bike_id":"0ff0a450-d483-4bc5-80ab-6e492f21d9cb","system_id":"levelo_inurba_marseille","lat":43.309589,"lon":5.390258,"is_reserved":false,"is_disabled":false,"rental_uris":{"android":"levelo://app?vid=0ff0a450-d483-4bc5-80ab-6e492f21d9cb","ios":"levelo://app?vid=0ff0a450-d483-4bc5-80ab-6e492f21d9cb"},"vehicle_type_id":"4","last_reported":1723997352,"current_range_meters":22000,"station_id":"ce4bgup2rcd13ifvqco0","pricing_plan_id":"cebpf4jnsgd1na2vs0mg"},{"bike_id":"4d956f28-ca76-4e06-af97-be29cb09a4aa","system_id":"levelo_inurba_marseille","lat":43.298037,"lon":5.381066,"is_reserved":false,"is_disabled":false,"rental_uris":{"android":"levelo://app?vid=4d956f28-ca76-4e06-af97-be29cb09a4aa","ios":"levelo://app?vid=4d956f28-ca76-4e06-af97-be29cb09a4aa"},"vehicle_type_id":"4","last_reported":1723997352,"current_range_meters":19200,"station_id":"ce4bgip2rcd13ifvqbb0","pricing_plan_id":"cebpf4jnsgd1na2vs0mg"},{"bike_id":"d8c9c642-b090-4fc0-ad31-57f6abb7ac68","system_id":"levelo_inurba_marseille","lat":43.29801,"lon":5.38109,"is_reserved":false,"is_disabled":false,"rental_uris":{"android":"levelo://app?vid=d8c9c642-b090-4fc0-ad31-57f6abb7ac68","ios":"levelo://app?vid=d8c9c642-b090-4fc0-ad31-57f6abb7ac68"},"vehicle_type_id":"4","last_reported":1723997352,"current_range_meters":14800,"station_id":"ce4bgip2rcd13ifvqbb0","pricing_plan_id":"cebpf4jnsgd1na2vs0mg"},{"bike_id":"54f67549-accf-4bdf-80e0-c43074297458","system_id":"levelo_inurba_marseille","lat":43.30437,"lon":5.38896,"is_reserved":false,"is_disabled":false,"rental_uris":{"android":"levelo://app?vid=54f67549-accf-4bdf-80e0-c43074297458","ios":"levelo://app?vid=54f67549-accf-4bdf-80e0-c43074297458"},"vehicle_type_id":"4","last_reported":1723997352,"current_range_meters":0,"station_id":"ce4bgk12rcd13ifvqbi0","pricing_plan_id":"cebpf4jnsgd1na2vs0mg"},{"bike_id":"10747061-6b8e-415c-be73-bf73a2551742","system_id":"levelo_inurba_marseille","lat":43.309589,"lon":5.390258,"is_reserved":false,"is_disabled":false,"rental_uris":{"android":"levelo://app?vid=10747061-6b8e-415c-be73-bf73a2551742","ios":"levelo://app?vid=10747061-6b8e-415c-be73-bf73a2551742"},"vehicle_type_id":"4","last_reported":1723997352,"current_range_meters":9600,"station_id":"ce4bgup2rcd13ifvqco0","pricing_plan_id":"cebpf4jnsgd1na2vs0mg"},{"bike_id":"fc0703db-3936-4008-882d-f10eb9c66fe5","system_id":"levelo_inurba_marseille","lat":43.295279,"lon":5.375048,"is_reserved":false,"is_disabled":false,"rental_uris":{"android":"levelo://app?vid=fc0703db-3936-4008-882d-f10eb9c66fe5","ios":"levelo://app?vid=fc0703db-3936-4008-882d-f10eb9c66fe5"},"vehicle_type_id":"4","last_reported":1723997352,"current_range_meters":30400,"station_id":"ce4bgkp2rcd13ifvqbmg","pricing_plan_id":"cebpf4jnsgd1na2vs0mg"},{"bike_id":"f495d0cc-3fc8-4b13-83e0-534f71fdea12","system_id":"levelo_inurba_marseille","lat":43.299707,"lon":5.384859,"is_reserved":false,"is_disabled":false,"rental_uris":{"android":"levelo://app?vid=f495d0cc-3fc8-4b13-83e0-534f71fdea12","ios":"levelo://app?vid=f495d0cc-3fc8-4b13-83e0-534f71fdea12"},"vehicle_type_id":"4","last_reported":1723997352,"current_range_meters":31200,"station_id":"ce4bgj92rcd13ifvqbd0","pricing_plan_id":"cebpf4jnsgd1na2vs0mg"},{"bike_id":"c47908a4-da34-4612-85dd-64e898c7032a","system_id":"levelo_inurba_marseille","lat":43.299717,"lon":5.384845,"is_reserved":false,"is_disabled":false,"rental_uris":{"android":"levelo://app?vid=c47908a4-da34-4612-85dd-64e898c7032a","ios":"levelo://app?vid=c47908a4-da34-4612-85dd-64e898c7032a"},"vehicle_type_id":"4","last_reported":1723997352,"current_range_meters":28000,"station_id":"ce4bgj92rcd13ifvqbd0","pricing_plan_id":"cebpf4jnsgd1na2vs0mg"},{"bike_id":"b3b8be87-6e38-45a6-b98b-7e03be2c5c32","system_id":"levelo_inurba_marseille","lat":43.323563,"lon":5.387537,"is_reserved":false,"is_disabled":false,"rental_uris":{"android":"levelo://app?vid=b3b8be87-6e38-45a6-b98b-7e03be2c5c32","ios":"levelo://app?vid=b3b8be87-6e38-45a6-b98b-7e03be2c5c32"},"vehicle_type_id":"4","last_reported":1723997352,"current_range_meters":1200,"station_id":"","pricing_plan_id":"cebpf4jnsgd1na2vs0mg"},{"bike_id":"d77fff5b-b489-4473-bfbc-f5ce4303076b","system_id":"levelo_inurba_marseille","lat":43.299724,"lon":5.384848,"is_reserved":false,"is_disabled":false,"rental_uris":{"android":"levelo://app?vid=d77fff5b-b489-4473-bfbc-f5ce4303076b","ios":"levelo://app?vid=d77fff5b-b489-4473-bfbc-f5ce4303076b"},"vehicle_type_id":"4","last_reported":1723997352,"current_range_meters":26000,"station_id":"ce4bgj92rcd13ifvqbd0","pricing_plan_id":"cebpf4jnsgd1na2vs0mg"},{"bike_id":"8164a4f3-c3a9-42d3-a1c8-978ee603130e","system_id":"levelo_inurba_marseille","lat":43.295279,"lon":5.375048,"is_reserved":false,"is_disabled":false,"rental_uris":{"android":"levelo://app?vid=8164a4f3-c3a9-42d3-a1c8-978ee603130e","ios":"levelo://app?vid=8164a4f3-c3a9-42d3-a1c8-978ee603130e"},"vehicle_type_id":"4","last_reported":1723997352,"current_range_meters":6000,"station_id":"ce4bgkp2rcd13ifvqbmg","pricing_plan_id":"cebpf4jnsgd1na2vs0mg"},{"bike_id":"5b71615a-3526-48e9-9e77-91ea8f98847d","system_id":"levelo_inurba_marseille","lat":43.32367,"lon":5.388836,"is_reserved":false,"is_disabled":false,"rental_uris":{"android":"levelo://app?vid=5b71615a-3526-48e9-9e77-91ea8f98847d","ios":"levelo://app?vid=5b71615a-3526-48e9-9e77-91ea8f98847d"},"vehicle_type_id":"4","last_reported":1723997352,"current_range_meters":6800,"station_id":"ce4bhqp2rcd13ifvqhog","pricing_plan_id":"cebpf4jnsgd1na2vs0mg"},{"bike_id":"c04723a4-c584-42c0-b571-a79db1cebe15","system_id":"levelo_inurba_marseille","lat":43.29602,"lon":5.381084,"is_reserved":false,"is_disabled":false,"rental_uris":{"android":"levelo://app?vid=c04723a4-c584-42c0-b571-a79db1cebe15","ios":"levelo://app?vid=c04723a4-c584-42c0-b571-a79db1cebe15"},"vehicle_type_id":"4","last_reported":1723997352,"current_range_meters":14400,"station_id":"ce4bgl12rcd13ifvqbo0","pricing_plan_id":"cebpf4jnsgd1na2vs0mg"},{"bike_id":"e3ad733a-abfd-4428-b73e-8ea18feaa3b3","system_id":"levelo_inurba_marseille","lat":43.29276,"lon":5.36844,"is_reserved":false,"is_disabled":false,"rental_uris":{"android":"levelo://app?vid=e3ad733a-abfd-4428-b73e-8ea18feaa3b3","ios":"levelo://app?vid=e3ad733a-abfd-4428-b73e-8ea18feaa3b3"},"vehicle_type_id":"4","last_reported":1723997352,"current_range_meters":0,"station_id":"ce4bhbp2rcd13ifvqesg","pricing_plan_id":"cebpf4jnsgd1na2vs0mg"},{"bike_id":"fd4129c8-fc36-45ef-aa62-8cf3de01e469","system_id":"levelo_inurba_marseille","lat":43.2927,"lon":5.36846,"is_reserved":false,"is_disabled":false,"rental_uris":{"android":"levelo://app?vid=fd4129c8-fc36-45ef-aa62-8cf3de01e469","ios":"levelo://app?vid=fd4129c8-fc36-45ef-aa62-8cf3de01e469"},"vehicle_type_id":"4","last_reported":1723997352,"current_range_meters":0,"station_id":"ce4bhbp2rcd13ifvqesg","pricing_plan_id":"cebpf4jnsgd1na2vs0mg"},{"bike_id":"240c389b-410e-4108-adac-e149b2362e9b","system_id":"levelo_inurba_marseille","lat":43.295645,"lon":5.381444,"is_reserved":false,"is_disabled":false,"rental_uris":{"android":"levelo://app?vid=240c389b-410e-4108-adac-e149b2362e9b","ios":"levelo://app?vid=240c389b-410e-4108-adac-e149b2362e9b"},"vehicle_type_id":"4","last_reported":1723997352,"current_range_meters":5200,"station_id":"ce4bgl12rcd13ifvqbo0","pricing_plan_id":"cebpf4jnsgd1na2vs0mg"},{"bike_id":"464f78b8-d855-493c-854e-64195256e1e0","system_id":"levelo_inurba_marseille","lat":43.29446,"lon":5.37926,"is_reserved":false,"is_disabled":false,"rental_uris":{"android":"levelo://app?vid=464f78b8-d855-493c-854e-64195256e1e0","ios":"levelo://app?vid=464f78b8-d855-493c-854e-64195256e1e0"},"vehicle_type_id":"4","last_reported":1723997352,"current_range_meters":0,"station_id":"","pricing_plan_id":"cebpf4jnsgd1na2vs0mg"},{"bike_id":"c9d1b16a-ce9c-408c-b589-b086573cace4","system_id":"levelo_inurba_marseille","lat":43.305994,"lon":5.393687,"is_reserved":false,"is_disabled":false,"rental_uris":{"android":"levelo://app?vid=c9d1b16a-ce9c-408c-b589-b086573cace4","ios":"levelo://app?vid=c9d1b16a-ce9c-408c-b589-b086573cace4"},"vehicle_type_id":"4","last_reported":1723997352,"current_range_meters":8400,"station_id":"ce4bh0p2rcd13ifvqd80","pricing_plan_id":"cebpf4jnsgd1na2vs0mg"},{"bike_id":"8fa2ae19-71ea-49b9-8dfc-315b389412fb","system_id":"levelo_inurba_marseille","lat":43.305994,"lon":5.393687,"is_reserved":false,"is_disabled":false,"rental_uris":{"android":"levelo://app?vid=8fa2ae19-71ea-49b9-8dfc-315b389412fb","ios":"levelo://app?vid=8fa2ae19-71ea-49b9-8dfc-315b389412fb"},"vehicle_type_id":"4","last_reported":1723997352,"current_range_meters":13200,"station_id":"ce4bh0p2rcd13ifvqd80","pricing_plan_id":"cebpf4jnsgd1na2vs0mg"},{"bike_id":"746997b2-fb61-47b8-b4f7-17811ae658ce","system_id":"levelo_inurba_marseille","lat":43.305994,"lon":5.393687,"is_reserved":false,"is_disabled":false,"rental_uris":{"android":"levelo://app?vid=746997b2-fb61-47b8-b4f7-17811ae658ce","ios":"levelo://app?vid=746997b2-fb61-47b8-b4f7-17811ae658ce"},"vehicle_type_id":"4","last_reported":1723997352,"current_range_meters":26000,"station_id":"ce4bh0p2rcd13ifvqd80","pricing_plan_id":"cebpf4jnsgd1na2vs0mg"},{"bike_id":"63407ad9-8683-4af9-81d7-0c23a03d811f","system_id":"levelo_inurba_marseille","lat":43.2936,"lon":5.37835,"is_reserved":false,"is_disabled":false,"rental_uris":{"android":"levelo://app?vid=63407ad9-8683-4af9-81d7-0c23a03d811f","ios":"levelo://app?vid=63407ad9-8683-4af9-81d7-0c23a03d811f"},"vehicle_type_id":"4","last_reported":1723997352,"current_range_meters":3200,"station_id":"ce4bgjh2rcd13ifvqbf0","pricing_plan_id":"cebpf4jnsgd1na2vs0mg"},{"bike_id":"418eacc0-43ed-4d40-bb51-0968e420fe41","system_id":"levelo_inurba_marseille","lat":43.303002,"lon":5.392142,"is_reserved":false,"is_disabled":false,"rental_uris":{"android":"levelo://app?vid=418eacc0-43ed-4d40-bb51-0968e420fe41","ios":"levelo://app?vid=418eacc0-43ed-4d40-bb51-0968e420fe41"},"vehicle_type_id":"4","last_reported":1723997352,"current_range_meters":0,"station_id":"ce4bgkh2rcd13ifvqbk0","pricing_plan_id":"cebpf4jnsgd1na2vs0mg"},{"bike_id":"ede080d2-937a-49e9-b211-ee39b16b2dd3","system_id":"levelo_inurba_marseille","lat":43.293009,"lon":5.374584,"is_reserved":false,"is_disabled":false,"rental_uris":{"android":"levelo://app?vid=ede080d2-937a-49e9-b211-ee39b16b2dd3","ios":"levelo://app?vid=ede080d2-937a-49e9-b211-ee39b16b2dd3"},"vehicle_type_id":"4","last_reported":1723997352,"current_range_meters":2800,"station_id":"ce4bgi12rcd13ifvqb70","pricing_plan_id":"cebpf4jnsgd1na2vs0mg"},{"bike_id":"91fcc8ce-9f4b-439a-abcb-c52adafa79e1","system_id":"levelo_inurba_marseille","lat":43.29224,"lon":5.3605,"is_reserved":false,"is_disabled":false,"rental_uris":{"android":"levelo://app?vid=91fcc8ce-9f4b-439a-abcb-c52adafa79e1","ios":"levelo://app?vid=91fcc8ce-9f4b-439a-abcb-c52adafa79e1"},"vehicle_type_id":"4","last_reported":1723997352,"current_range_meters":25600,"station_id":"ce4bhbh2rcd13ifvqeqg","pricing_plan_id":"cebpf4jnsgd1na2vs0mg"},{"bike_id":"89edbfab-fe01-4da4-be52-bb4376e14ea5","system_id":"levelo_inurba_marseille","lat":43.292311,"lon":5.360731,"is_reserved":false,"is_disabled":false,"rental_uris":{"android":"levelo://app?vid=89edbfab-fe01-4da4-be52-bb4376e14ea5","ios":"levelo://app?vid=89edbfab-fe01-4da4-be52-bb4376e14ea5"},"vehicle_type_id":"4","last_reported":1723997352,"current_range_meters":0,"station_id":"ce4bhbh2rcd13ifvqeqg","pricing_plan_id":"cebpf4jnsgd1na2vs0mg"},{"bike_id":"f3e37878-1772-44f0-9628-ae8867ddf6c6","system_id":"levelo_inurba_marseille","lat":43.30094,"lon":5.39091,"is_reserved":false,"is_disabled":false,"rental_uris":{"android":"levelo://app?vid=f3e37878-1772-44f0-9628-ae8867ddf6c6","ios":"levelo://app?vid=f3e37878-1772-44f0-9628-ae8867ddf6c6"},"vehicle_type_id":"4","last_reported":1723997352,"current_range_meters":20000,"station_id":"ce4bh192rcd13ifvqdb0","pricing_plan_id":"cebpf4jnsgd1na2vs0mg"},{"bike_id":"d3f4774e-b005-495d-8f86-cbb09ec4e2f8","system_id":"levelo_inurba_marseille","lat":43.309038,"lon":5.396546,"is_reserved":false,"is_disabled":false,"rental_uris":{"android":"levelo://app?vid=d3f4774e-b005-495d-8f86-cbb09ec4e2f8","ios":"levelo://app?vid=d3f4774e-b005-495d-8f86-cbb09ec4e2f8"},"vehicle_type_id":"4","last_reported":1723997352,"current_range_meters":30000,"station_id":"ce4bh012rcd13ifvqcv0","pricing_plan_id":"cebpf4jnsgd1na2vs0mg"},{"bike_id":"be112ab5-73c0-4faa-9e11-ea1578359e04","system_id":"levelo_inurba_marseille","lat":43.292,"lon":5.35792,"is_reserved":false,"is_disabled":false,"rental_uris":{"android":"levelo://app?vid=be112ab5-73c0-4faa-9e11-ea1578359e04","ios":"levelo://app?vid=be112ab5-73c0-4faa-9e11-ea1578359e04"},"vehicle_type_id":"4","last_reported":1723997352,"current_range_meters":20800,"station_id":"ce4bhb12rcd13ifvqel0","pricing_plan_id":"cebpf4jnsgd1na2vs0mg"},{"bike_id":"73b17b0b-ce62-4261-89b7-a029587f78be","system_id":"levelo_inurba_marseille","lat":43.313291,"lon":5.396838,"is_reserved":false,"is_disabled":false,"rental_uris":{"android":"levelo://app?vid=73b17b0b-ce62-4261-89b7-a029587f78be","ios":"levelo://app?vid=73b17b0b-ce62-4261-89b7-a029587f78be"},"vehicle_type_id":"4","last_reported":1723997352,"current_range_meters":17600,"station_id":"ce4bgvp2rcd13ifvqcu0","pricing_plan_id":"cebpf4jnsgd1na2vs0mg"},{"bike_id":"58157e78-e5cc-48b9-b47c-b5af06b65891","system_id":"levelo_inurba_marseille","lat":43.29184,"lon":5.35786,"is_reserved":false,"is_disabled":false,"rental_uris":{"android":"levelo://app?vid=58157e78-e5cc-48b9-b47c-b5af06b65891","ios":"levelo://app?vid=58157e78-e5cc-48b9-b47c-b5af06b65891"},"vehicle_type_id":"4","last_reported":1723997352,"current_range_meters":30400,"station_id":"ce4bhb12rcd13ifvqel0","pricing_plan_id":"cebpf4jnsgd1na2vs0mg"},{"bike_id":"fdf260b8-e6e0-4b71-bc73-20983a215b4c","system_id":"levelo_inurba_marseille","lat":43.29529,"lon":5.385581,"is_reserved":false,"is_disabled":false,"rental_uris":{"android":"levelo://app?vid=fdf260b8-e6e0-4b71-bc73-20983a215b4c","ios":"levelo://app?vid=fdf260b8-e6e0-4b71-bc73-20983a215b4c"},"vehicle_type_id":"4","last_reported":1723997352,"current_range_meters":12000,"station_id":"ce4bgih2rcd13ifvqba0","pricing_plan_id":"cebpf4jnsgd1na2vs0mg"},{"bike_id":"b686a03a-6988-4465-99ce-e0a91e15592f","system_id":"levelo_inurba_marseille","lat":43.29529,"lon":5.385581,"is_reserved":false,"is_disabled":false,"rental_uris":{"android":"levelo://app?vid=b686a03a-6988-4465-99ce-e0a91e15592f","ios":"levelo://app?vid=b686a03a-6988-4465-99ce-e0a91e15592f"},"vehicle_type_id":"4","last_reported":1723997352,"current_range_meters":15200,"station_id":"ce4bgih2rcd13ifvqba0","pricing_plan_id":"cebpf4jnsgd1na2vs0mg"},{"bike_id":"9b475cae-68da-488c-88d1-9f88f737eac5","system_id":"levelo_inurba_marseille","lat":43.29529,"lon":5.385581,"is_reserved":false,"is_disabled":false,"rental_uris":{"android":"levelo://app?vid=9b475cae-68da-488c-88d1-9f88f737eac5","ios":"levelo://app?vid=9b475cae-68da-488c-88d1-9f88f737eac5"},"vehicle_type_id":"4","last_reported":1723997352,"current_range_meters":0,"station_id":"ce4bgih2rcd13ifvqba0","pricing_plan_id":"cebpf4jnsgd1na2vs0mg"},{"bike_id":"c5083e13-e47e-4aca-9392-1a36058eb138","system_id":"levelo_inurba_marseille","lat":43.29529,"lon":5.385581,"is_reserved":false,"is_disabled":false,"rental_uris":{"android":"levelo://app?vid=c5083e13-e47e-4aca-9392-1a36058eb138","ios":"levelo://app?vid=c5083e13-e47e-4aca-9392-1a36058eb138"},"vehicle_type_id":"4","last_reported":1723997352,"current_range_meters":30400,"station_id":"ce4bgih2rcd13ifvqba0","pricing_plan_id":"cebpf4jnsgd1na2vs0mg"},{"bike_id":"9e91a0e2-66e0-4a59-84c6-f304bbc4f790","system_id":"levelo_inurba_marseille","lat":43.29529,"lon":5.385581,"is_reserved":false,"is_disabled":false,"rental_uris":{"android":"levelo://app?vid=9e91a0e2-66e0-4a59-84c6-f304bbc4f790","ios":"levelo://app?vid=9e91a0e2-66e0-4a59-84c6-f304bbc4f790"},"vehicle_type_id":"4","last_reported":1723997352,"current_range_meters":24800,"station_id":"ce4bgih2rcd13ifvqba0","pricing_plan_id":"cebpf4jnsgd1na2vs0mg"},{"bike_id":"cad279b5-a69c-4f9b-ac13-de04ec10489f","system_id":"levelo_inurba_marseille","lat":43.290779,"lon":5.371482,"is_reserved":false,"is_disabled":false,"rental_uris":{"android":"levelo://app?vid=cad279b5-a69c-4f9b-ac13-de04ec10489f","ios":"levelo://app?vid=cad279b5-a69c-4f9b-ac13-de04ec10489f"},"vehicle_type_id":"4","last_reported":1723997352,"current_range_meters":16800,"station_id":"ce4bh5p2rcd13ifvqe4g","pricing_plan_id":"cebpf4jnsgd1na2vs0mg"},{"bike_id":"0db2567f-a496-431d-9248-6db8fdc080ab","system_id":"levelo_inurba_marseille","lat":43.290779,"lon":5.371482,"is_reserved":false,"is_disabled":false,"rental_uris":{"android":"levelo://app?vid=0db2567f-a496-431d-9248-6db8fdc080ab","ios":"levelo://app?vid=0db2567f-a496-431d-9248-6db8fdc080ab"},"vehicle_type_id":"4","last_reported":1723997352,"current_range_meters":28000,"station_id":"ce4bh5p2rcd13ifvqe4g","pricing_plan_id":"cebpf4jnsgd1na2vs0mg"},{"bike_id":"9878049f-2e25-4e23-9e60-fe559b7e4140","system_id":"levelo_inurba_marseille","lat":43.290779,"lon":5.371482,"is_reserved":false,"is_disabled":false,"rental_uris":{"android":"levelo://app?vid=9878049f-2e25-4e23-9e60-fe559b7e4140","ios":"levelo://app?vid=9878049f-2e25-4e23-9e60-fe559b7e4140"},"vehicle_type_id":"4","last_reported":1723997352,"current_range_meters":18000,"station_id":"ce4bh5p2rcd13ifvqe4g","pricing_plan_id":"cebpf4jnsgd1na2vs0mg"},{"bike_id":"7b25f59b-cf4a-4624-afe1-4b25f705e041","system_id":"levelo_inurba_marseille","lat":43.290779,"lon":5.371482,"is_reserved":false,"is_disabled":false,"rental_uris":{"android":"levelo://app?vid=7b25f59b-cf4a-4624-afe1-4b25f705e041","ios":"levelo://app?vid=7b25f59b-cf4a-4624-afe1-4b25f705e041"},"vehicle_type_id":"4","last_reported":1723997352,"current_range_meters":26000,"station_id":"ce4bh5p2rcd13ifvqe4g","pricing_plan_id":"cebpf4jnsgd1na2vs0mg"},{"bike_id":"7744af42-b684-47fa-8b21-c0329f04db22","system_id":"levelo_inurba_marseille","lat":43.302008,"lon":5.394694,"is_reserved":false,"is_disabled":false,"rental_uris":{"android":"levelo://app?vid=7744af42-b684-47fa-8b21-c0329f04db22","ios":"levelo://app?vid=7744af42-b684-47fa-8b21-c0329f04db22"},"vehicle_type_id":"4","last_reported":1723997352,"current_range_meters":12800,"station_id":"ce4bh0p2rcd13ifvqd70","pricing_plan_id":"cebpf4jnsgd1na2vs0mg"},{"bike_id":"12c692d8-a1ae-41df-a5e6-d79dd01eff2a","system_id":"levelo_inurba_marseille","lat":43.290624,"lon":5.359245,"is_reserved":false,"is_disabled":false,"rental_uris":{"android":"levelo://app?vid=12c692d8-a1ae-41df-a5e6-d79dd01eff2a","ios":"levelo://app?vid=12c692d8-a1ae-41df-a5e6-d79dd01eff2a"},"vehicle_type_id":"4","last_reported":1723997352,"current_range_meters":21600,"station_id":"ce4bha92rcd13ifvqeg0","pricing_plan_id":"cebpf4jnsgd1na2vs0mg"},{"bike_id":"ee96f4a5-9658-41b0-ad4c-f1fe64a1289e","system_id":"levelo_inurba_marseille","lat":43.29039,"lon":5.35918,"is_reserved":false,"is_disabled":false,"rental_uris":{"android":"levelo://app?vid=ee96f4a5-9658-41b0-ad4c-f1fe64a1289e","ios":"levelo://app?vid=ee96f4a5-9658-41b0-ad4c-f1fe64a1289e"},"vehicle_type_id":"4","last_reported":1723997352,"current_range_meters":0,"station_id":"ce4bha92rcd13ifvqeg0","pricing_plan_id":"cebpf4jnsgd1na2vs0mg"},{"bike_id":"ca01ee0d-937e-4c42-a78d-97e6599435d3","system_id":"levelo_inurba_marseille","lat":43.294153,"lon":5.386305,"is_reserved":false,"is_disabled":false,"rental_uris":{"android":"levelo://app?vid=ca01ee0d-937e-4c42-a78d-97e6599435d3","ios":"levelo://app?vid=ca01ee0d-937e-4c42-a78d-97e6599435d3"},"vehicle_type_id":"4","last_reported":1723997352,"current_range_meters":1600,"station_id":"ce4bh2h2rcd13ifvqdh0","pricing_plan_id":"cebpf4jnsgd1na2vs0mg"},{"bike_id":"e76ae282-ae03-46a3-b47a-6c1111077f25","system_id":"levelo_inurba_marseille","lat":43.294153,"lon":5.386305,"is_reserved":false,"is_disabled":false,"rental_uris":{"android":"levelo://app?vid=e76ae282-ae03-46a3-b47a-6c1111077f25","ios":"levelo://app?vid=e76ae282-ae03-46a3-b47a-6c1111077f25"},"vehicle_type_id":"4","last_reported":1723997352,"current_range_meters":27200,"station_id":"ce4bh2h2rcd13ifvqdh0","pricing_plan_id":"cebpf4jnsgd1na2vs0mg"},{"bike_id":"aab0cfe2-75a4-49e6-a74c-2135c548f06f","system_id":"levelo_inurba_marseille","lat":43.294153,"lon":5.386305,"is_reserved":false,"is_disabled":false,"rental_uris":{"android":"levelo://app?vid=aab0cfe2-75a4-49e6-a74c-2135c548f06f","ios":"levelo://app?vid=aab0cfe2-75a4-49e6-a74c-2135c548f06f"},"vehicle_type_id":"4","last_reported":1723997352,"current_range_meters":22000,"station_id":"ce4bh2h2rcd13ifvqdh0","pricing_plan_id":"cebpf4jnsgd1na2vs0mg"},{"bike_id":"77519ac3-3725-474f-82ac-383c9ddae78e","system_id":"levelo_inurba_marseille","lat":43.289478,"lon":5.366437,"is_reserved":false,"is_disabled":false,"rental_uris":{"android":"levelo://app?vid=77519ac3-3725-474f-82ac-383c9ddae78e","ios":"levelo://app?vid=77519ac3-3725-474f-82ac-383c9ddae78e"},"vehicle_type_id":"4","last_reported":1723997352,"current_range_meters":0,"station_id":"ce4bhap2rcd13ifvqek0","pricing_plan_id":"cebpf4jnsgd1na2vs0mg"},{"bike_id":"d59fb288-3ca6-4917-8ba7-1edf158390b5","system_id":"levelo_inurba_marseille","lat":43.2942,"lon":5.38625,"is_reserved":false,"is_disabled":false,"rental_uris":{"android":"levelo://app?vid=d59fb288-3ca6-4917-8ba7-1edf158390b5","ios":"levelo://app?vid=d59fb288-3ca6-4917-8ba7-1edf158390b5"},"vehicle_type_id":"4","last_reported":1723997352,"current_range_meters":0,"station_id":"ce4bh2h2rcd13ifvqdh0","pricing_plan_id":"cebpf4jnsgd1na2vs0mg"},{"bike_id":"533a42f0-7f43-4546-bcc2-c0f953d674c3","system_id":"levelo_inurba_marseille","lat":43.294153,"lon":5.386305,"is_reserved":false,"is_disabled":false,"rental_uris":{"android":"levelo://app?vid=533a42f0-7f43-4546-bcc2-c0f953d674c3","ios":"levelo://app?vid=533a42f0-7f43-4546-bcc2-c0f953d674c3"},"vehicle_type_id":"4","last_reported":1723997352,"current_range_meters":24000,"station_id":"ce4bh2h2rcd13ifvqdh0","pricing_plan_id":"cebpf4jnsgd1na2vs0mg"},{"bike_id":"4f78da5a-8118-40bf-99cd-f9305c21e6a2","system_id":"levelo_inurba_marseille","lat":43.28947,"lon":5.36639,"is_reserved":false,"is_disabled":false,"rental_uris":{"android":"levelo://app?vid=4f78da5a-8118-40bf-99cd-f9305c21e6a2","ios":"levelo://app?vid=4f78da5a-8118-40bf-99cd-f9305c21e6a2"},"vehicle_type_id":"4","last_reported":1723997352,"current_range_meters":10000,"station_id":"ce4bhap2rcd13ifvqek0","pricing_plan_id":"cebpf4jnsgd1na2vs0mg"},{"bike_id":"e4a8e6a0-5a52-4d04-8170-e4d5b3cb5e53","system_id":"levelo_inurba_marseille","lat":43.294153,"lon":5.386305,"is_reserved":false,"is_disabled":false,"rental_uris":{"android":"levelo://app?vid=e4a8e6a0-5a52-4d04-8170-e4d5b3cb5e53","ios":"levelo://app?vid=e4a8e6a0-5a52-4d04-8170-e4d5b3cb5e53"},"vehicle_type_id":"4","last_reported":1723997352,"current_range_meters":16400,"station_id":"ce4bh2h2rcd13ifvqdh0","pricing_plan_id":"cebpf4jnsgd1na2vs0mg"},{"bike_id":"b63a53af-c360-4374-82ed-bcb8221a0386","system_id":"levelo_inurba_marseille","lat":43.294153,"lon":5.386305,"is_reserved":false,"is_disabled":false,"rental_uris":{"android":"levelo://app?vid=b63a53af-c360-4374-82ed-bcb8221a0386","ios":"levelo://app?vid=b63a53af-c360-4374-82ed-bcb8221a0386"},"vehicle_type_id":"4","last_reported":1723997352,"current_range_meters":800,"station_id":"ce4bh2h2rcd13ifvqdh0","pricing_plan_id":"cebpf4jnsgd1na2vs0mg"},{"bike_id":"8c634a49-ed34-4a5f-9666-ba555d45f528","system_id":"levelo_inurba_marseille","lat":43.294153,"lon":5.386305,"is_reserved":false,"is_disabled":false,"rental_uris":{"android":"levelo://app?vid=8c634a49-ed34-4a5f-9666-ba555d45f528","ios":"levelo://app?vid=8c634a49-ed34-4a5f-9666-ba555d45f528"},"vehicle_type_id":"4","last_reported":1723997352,"current_range_meters":1200,"station_id":"ce4bh2h2rcd13ifvqdh0","pricing_plan_id":"cebpf4jnsgd1na2vs0mg"},{"bike_id":"abf2f706-7ae9-44af-a17e-d84d79517125","system_id":"levelo_inurba_marseille","lat":43.29419,"lon":5.38631,"is_reserved":false,"is_disabled":false,"rental_uris":{"android":"levelo://app?vid=abf2f706-7ae9-44af-a17e-d84d79517125","ios":"levelo://app?vid=abf2f706-7ae9-44af-a17e-d84d79517125"},"vehicle_type_id":"4","last_reported":1723997352,"current_range_meters":4000,"station_id":"ce4bh2h2rcd13ifvqdh0","pricing_plan_id":"cebpf4jnsgd1na2vs0mg"},{"bike_id":"b45e99cc-b9e7-4d70-96af-9cd2f9cb1d53","system_id":"levelo_inurba_marseille","lat":43.294153,"lon":5.386305,"is_reserved":false,"is_disabled":false,"rental_uris":{"android":"levelo://app?vid=b45e99cc-b9e7-4d70-96af-9cd2f9cb1d53","ios":"levelo://app?vid=b45e99cc-b9e7-4d70-96af-9cd2f9cb1d53"},"vehicle_type_id":"4","last_reported":1723997352,"current_range_meters":24000,"station_id":"ce4bh2h2rcd13ifvqdh0","pricing_plan_id":"cebpf4jnsgd1na2vs0mg"},{"bike_id":"ab62d00d-6f8c-4b41-9656-257306e89c30","system_id":"levelo_inurba_marseille","lat":43.28939,"lon":5.36629,"is_reserved":false,"is_disabled":false,"rental_uris":{"android":"levelo://app?vid=ab62d00d-6f8c-4b41-9656-257306e89c30","ios":"levelo://app?vid=ab62d00d-6f8c-4b41-9656-257306e89c30"},"vehicle_type_id":"4","last_reported":1723997352,"current_range_meters":10800,"station_id":"ce4bhap2rcd13ifvqek0","pricing_plan_id":"cebpf4jnsgd1na2vs0mg"},{"bike_id":"b464660c-2ef5-4bda-aac5-0f8a300247ac","system_id":"levelo_inurba_marseille","lat":43.289468,"lon":5.363719,"is_reserved":false,"is_disabled":false,"rental_uris":{"android":"levelo://app?vid=b464660c-2ef5-4bda-aac5-0f8a300247ac","ios":"levelo://app?vid=b464660c-2ef5-4bda-aac5-0f8a300247ac"},"vehicle_type_id":"4","last_reported":1723997352,"current_range_meters":11600,"station_id":"ce4bhc92rcd13ifvqetg","pricing_plan_id":"cebpf4jnsgd1na2vs0mg"},{"bike_id":"613415d2-7cbb-4d44-be32-a464c89b6f6d","system_id":"levelo_inurba_marseille","lat":43.292642,"lon":5.384254,"is_reserved":false,"is_disabled":false,"rental_uris":{"android":"levelo://app?vid=613415d2-7cbb-4d44-be32-a464c89b6f6d","ios":"levelo://app?vid=613415d2-7cbb-4d44-be32-a464c89b6f6d"},"vehicle_type_id":"4","last_reported":1723997352,"current_range_meters":0,"station_id":"ce4bh692rcd13ifvqea0","pricing_plan_id":"cebpf4jnsgd1na2vs0mg"},{"bike_id":"05c2264a-cbd7-4de4-a064-e962ea164d4b","system_id":"levelo_inurba_marseille","lat":43.292644,"lon":5.384257,"is_reserved":false,"is_disabled":false,"rental_uris":{"android":"levelo://app?vid=05c2264a-cbd7-4de4-a064-e962ea164d4b","ios":"levelo://app?vid=05c2264a-cbd7-4de4-a064-e962ea164d4b"},"vehicle_type_id":"4","last_reported":1723997352,"current_range_meters":15600,"station_id":"ce4bh692rcd13ifvqea0","pricing_plan_id":"cebpf4jnsgd1na2vs0mg"},{"bike_id":"db1384c5-1810-4348-8593-04eabdebeac2","system_id":"levelo_inurba_marseille","lat":43.29268,"lon":5.38435,"is_reserved":false,"is_disabled":false,"rental_uris":{"android":"levelo://app?vid=db1384c5-1810-4348-8593-04eabdebeac2","ios":"levelo://app?vid=db1384c5-1810-4348-8593-04eabdebeac2"},"vehicle_type_id":"4","last_reported":1723997352,"current_range_meters":7200,"station_id":"ce4bh692rcd13ifvqea0","pricing_plan_id":"cebpf4jnsgd1na2vs0mg"},{"bike_id":"ec511cf4-ae8a-4a6a-90e5-215854f3602a","system_id":"levelo_inurba_marseille","lat":43.292644,"lon":5.384257,"is_reserved":false,"is_disabled":false,"rental_uris":{"android":"levelo://app?vid=ec511cf4-ae8a-4a6a-90e5-215854f3602a","ios":"levelo://app?vid=ec511cf4-ae8a-4a6a-90e5-215854f3602a"},"vehicle_type_id":"4","last_reported":1723997352,"current_range_meters":3600,"station_id":"ce4bh692rcd13ifvqea0","pricing_plan_id":"cebpf4jnsgd1na2vs0mg"},{"bike_id":"384880d0-dd3e-45a6-8739-6bf3654e4a27","system_id":"levelo_inurba_marseille","lat":43.292669,"lon":5.384418,"is_reserved":false,"is_disabled":false,"rental_uris":{"android":"levelo://app?vid=384880d0-dd3e-45a6-8739-6bf3654e4a27","ios":"levelo://app?vid=384880d0-dd3e-45a6-8739-6bf3654e4a27"},"vehicle_type_id":"4","last_reported":1723997352,"current_range_meters":0,"station_id":"ce4bh692rcd13ifvqea0","pricing_plan_id":"cebpf4jnsgd1na2vs0mg"},{"bike_id":"5f09cb6b-b193-4059-bc93-5fd758a358fd","system_id":"levelo_inurba_marseille","lat":43.292644,"lon":5.384257,"is_reserved":false,"is_disabled":false,"rental_uris":{"android":"levelo://app?vid=5f09cb6b-b193-4059-bc93-5fd758a358fd","ios":"levelo://app?vid=5f09cb6b-b193-4059-bc93-5fd758a358fd"},"vehicle_type_id":"4","last_reported":1723997352,"current_range_meters":0,"station_id":"ce4bh692rcd13ifvqea0","pricing_plan_id":"cebpf4jnsgd1na2vs0mg"},{"bike_id":"95954d38-b632-4acb-8ddf-5c0388801f09","system_id":"levelo_inurba_marseille","lat":43.29256,"lon":5.38434,"is_reserved":false,"is_disabled":false,"rental_uris":{"android":"levelo://app?vid=95954d38-b632-4acb-8ddf-5c0388801f09","ios":"levelo://app?vid=95954d38-b632-4acb-8ddf-5c0388801f09"},"vehicle_type_id":"4","last_reported":1723997352,"current_range_meters":27200,"station_id":"ce4bh692rcd13ifvqea0","pricing_plan_id":"cebpf4jnsgd1na2vs0mg"},{"bike_id":"a30215bb-6de0-4e17-8a6b-6df1d0b50d3a","system_id":"levelo_inurba_marseille","lat":43.30417,"lon":5.397508,"is_reserved":false,"is_disabled":false,"rental_uris":{"android":"levelo://app?vid=a30215bb-6de0-4e17-8a6b-6df1d0b50d3a","ios":"levelo://app?vid=a30215bb-6de0-4e17-8a6b-6df1d0b50d3a"},"vehicle_type_id":"4","last_reported":1723997352,"current_range_meters":0,"station_id":"ce4bh092rcd13ifvqd20","pricing_plan_id":"cebpf4jnsgd1na2vs0mg"},{"bike_id":"2b1b1f88-eea6-47f8-a66a-ac2306b60460","system_id":"levelo_inurba_marseille","lat":43.29005,"lon":5.35611,"is_reserved":false,"is_disabled":false,"rental_uris":{"android":"levelo://app?vid=2b1b1f88-eea6-47f8-a66a-ac2306b60460","ios":"levelo://app?vid=2b1b1f88-eea6-47f8-a66a-ac2306b60460"},"vehicle_type_id":"4","last_reported":1723997352,"current_range_meters":31200,"station_id":"ce4bhb92rcd13ifvqen0","pricing_plan_id":"cebpf4jnsgd1na2vs0mg"},{"bike_id":"97252394-3bfb-49d0-8bf4-1c1cb4e92685","system_id":"levelo_inurba_marseille","lat":43.29005,"lon":5.35604,"is_reserved":false,"is_disabled":false,"rental_uris":{"android":"levelo://app?vid=97252394-3bfb-49d0-8bf4-1c1cb4e92685","ios":"levelo://app?vid=97252394-3bfb-49d0-8bf4-1c1cb4e92685"},"vehicle_type_id":"4","last_reported":1723997352,"current_range_meters":0,"station_id":"","pricing_plan_id":"cebpf4jnsgd1na2vs0mg"},{"bike_id":"6958e387-3fe3-41ec-8199-d1b802e95c33","system_id":"levelo_inurba_marseille","lat":43.290995,"lon":5.381361,"is_reserved":false,"is_disabled":false,"rental_uris":{"android":"levelo://app?vid=6958e387-3fe3-41ec-8199-d1b802e95c33","ios":"levelo://app?vid=6958e387-3fe3-41ec-8199-d1b802e95c33"},"vehicle_type_id":"4","last_reported":1723997352,"current_range_meters":21600,"station_id":"ce4bh512rcd13ifvqe2g","pricing_plan_id":"cebpf4jnsgd1na2vs0mg"},{"bike_id":"5f8c62ce-55ce-4398-a514-4df0b776cb11","system_id":"levelo_inurba_marseille","lat":43.290995,"lon":5.381361,"is_reserved":false,"is_disabled":false,"rental_uris":{"android":"levelo://app?vid=5f8c62ce-55ce-4398-a514-4df0b776cb11","ios":"levelo://app?vid=5f8c62ce-55ce-4398-a514-4df0b776cb11"},"vehicle_type_id":"4","last_reported":1723997352,"current_range_meters":400,"station_id":"ce4bh512rcd13ifvqe2g","pricing_plan_id":"cebpf4jnsgd1na2vs0mg"},{"bike_id":"1e14c2cd-5da0-41ac-b87e-cd3731213c3b","system_id":"levelo_inurba_marseille","lat":43.290995,"lon":5.381361,"is_reserved":false,"is_disabled":false,"rental_uris":{"android":"levelo://app?vid=1e14c2cd-5da0-41ac-b87e-cd3731213c3b","ios":"levelo://app?vid=1e14c2cd-5da0-41ac-b87e-cd3731213c3b"},"vehicle_type_id":"4","last_reported":1723997352,"current_range_meters":22800,"station_id":"ce4bh512rcd13ifvqe2g","pricing_plan_id":"cebpf4jnsgd1na2vs0mg"},{"bike_id":"1dd0f87f-89e4-44a6-a451-47cb098f6452","system_id":"levelo_inurba_marseille","lat":43.290995,"lon":5.381361,"is_reserved":false,"is_disabled":false,"rental_uris":{"android":"levelo://app?vid=1dd0f87f-89e4-44a6-a451-47cb098f6452","ios":"levelo://app?vid=1dd0f87f-89e4-44a6-a451-47cb098f6452"},"vehicle_type_id":"4","last_reported":1723997352,"current_range_meters":0,"station_id":"ce4bh512rcd13ifvqe2g","pricing_plan_id":"cebpf4jnsgd1na2vs0mg"},{"bike_id":"866d0ff7-41f1-4204-8c9f-c73b2f0e1582","system_id":"levelo_inurba_marseille","lat":43.295169,"lon":5.390426,"is_reserved":false,"is_disabled":false,"rental_uris":{"android":"levelo://app?vid=866d0ff7-41f1-4204-8c9f-c73b2f0e1582","ios":"levelo://app?vid=866d0ff7-41f1-4204-8c9f-c73b2f0e1582"},"vehicle_type_id":"4","last_reported":1723997352,"current_range_meters":1200,"station_id":"ce4bh3p2rcd13ifvqdp0","pricing_plan_id":"cebpf4jnsgd1na2vs0mg"},{"bike_id":"64164031-5453-4010-8f72-ae0f1c2dcfd0","system_id":"levelo_inurba_marseille","lat":43.297807,"lon":5.393533,"is_reserved":false,"is_disabled":false,"rental_uris":{"android":"levelo://app?vid=64164031-5453-4010-8f72-ae0f1c2dcfd0","ios":"levelo://app?vid=64164031-5453-4010-8f72-ae0f1c2dcfd0"},"vehicle_type_id":"4","last_reported":1723997352,"current_range_meters":24800,"station_id":"chh1huq6cuj3fo74tm60","pricing_plan_id":"cebpf4jnsgd1na2vs0mg"},{"bike_id":"b8ab5f4f-d32e-437b-8bd7-0377afb29f91","system_id":"levelo_inurba_marseille","lat":43.330442,"lon":5.389148,"is_reserved":false,"is_disabled":false,"rental_uris":{"android":"levelo://app?vid=b8ab5f4f-d32e-437b-8bd7-0377afb29f91","ios":"levelo://app?vid=b8ab5f4f-d32e-437b-8bd7-0377afb29f91"},"vehicle_type_id":"4","last_reported":1723997352,"current_range_meters":24400,"station_id":"ce4bhr92rcd13ifvqhrg","pricing_plan_id":"cebpf4jnsgd1na2vs0mg"},{"bike_id":"fb70f85a-7a65-438d-a9c4-36fcdb4bb45f","system_id":"levelo_inurba_marseille","lat":43.330442,"lon":5.389148,"is_reserved":false,"is_disabled":false,"rental_uris":{"android":"levelo://app?vid=fb70f85a-7a65-438d-a9c4-36fcdb4bb45f","ios":"levelo://app?vid=fb70f85a-7a65-438d-a9c4-36fcdb4bb45f"},"vehicle_type_id":"4","last_reported":1723997352,"current_range_meters":7200,"station_id":"ce4bhr92rcd13ifvqhrg","pricing_plan_id":"cebpf4jnsgd1na2vs0mg"},{"bike_id":"3530fdbe-1356-47a7-ad17-da6c26c06f7b","system_id":"levelo_inurba_marseille","lat":43.330442,"lon":5.389148,"is_reserved":false,"is_disabled":false,"rental_uris":{"android":"levelo://app?vid=3530fdbe-1356-47a7-ad17-da6c26c06f7b","ios":"levelo://app?vid=3530fdbe-1356-47a7-ad17-da6c26c06f7b"},"vehicle_type_id":"4","last_reported":1723997352,"current_range_meters":9200,"station_id":"ce4bhr92rcd13ifvqhrg","pricing_plan_id":"cebpf4jnsgd1na2vs0mg"},{"bike_id":"2f13879c-2a28-424c-8664-daaf9fc535d7","system_id":"levelo_inurba_marseille","lat":43.330442,"lon":5.389148,"is_reserved":false,"is_disabled":false,"rental_uris":{"android":"levelo://app?vid=2f13879c-2a28-424c-8664-daaf9fc535d7","ios":"levelo://app?vid=2f13879c-2a28-424c-8664-daaf9fc535d7"},"vehicle_type_id":"4","last_reported":1723997352,"current_range_meters":20400,"station_id":"ce4bhr92rcd13ifvqhrg","pricing_plan_id":"cebpf4jnsgd1na2vs0mg"},{"bike_id":"ca49606e-75bb-417d-b2d7-e4bbc4024a6b","system_id":"levelo_inurba_marseille","lat":43.330442,"lon":5.389148,"is_reserved":false,"is_disabled":false,"rental_uris":{"android":"levelo://app?vid=ca49606e-75bb-417d-b2d7-e4bbc4024a6b","ios":"levelo://app?vid=ca49606e-75bb-417d-b2d7-e4bbc4024a6b"},"vehicle_type_id":"4","last_reported":1723997352,"current_range_meters":16000,"station_id":"ce4bhr92rcd13ifvqhrg","pricing_plan_id":"cebpf4jnsgd1na2vs0mg"},{"bike_id":"cd5b8cd5-7d1e-47b3-9030-34bdb807b422","system_id":"levelo_inurba_marseille","lat":43.330442,"lon":5.389148,"is_reserved":false,"is_disabled":false,"rental_uris":{"android":"levelo://app?vid=cd5b8cd5-7d1e-47b3-9030-34bdb807b422","ios":"levelo://app?vid=cd5b8cd5-7d1e-47b3-9030-34bdb807b422"},"vehicle_type_id":"4","last_reported":1723997352,"current_range_meters":4400,"station_id":"ce4bhr92rcd13ifvqhrg","pricing_plan_id":"cebpf4jnsgd1na2vs0mg"},{"bike_id":"81e8ae51-a20e-4814-995f-d0fc9dfa22f7","system_id":"levelo_inurba_marseille","lat":43.33026,"lon":5.39036,"is_reserved":false,"is_disabled":false,"rental_uris":{"android":"levelo://app?vid=81e8ae51-a20e-4814-995f-d0fc9dfa22f7","ios":"levelo://app?vid=81e8ae51-a20e-4814-995f-d0fc9dfa22f7"},"vehicle_type_id":"4","last_reported":1723997352,"current_range_meters":22800,"station_id":"ce4bhr92rcd13ifvqhrg","pricing_plan_id":"cebpf4jnsgd1na2vs0mg"},{"bike_id":"81ddc7fc-2e06-449b-8e3b-b3b6e0b034ca","system_id":"levelo_inurba_marseille","lat":43.330442,"lon":5.389148,"is_reserved":false,"is_disabled":false,"rental_uris":{"android":"levelo://app?vid=81ddc7fc-2e06-449b-8e3b-b3b6e0b034ca","ios":"levelo://app?vid=81ddc7fc-2e06-449b-8e3b-b3b6e0b034ca"},"vehicle_type_id":"4","last_reported":1723997352,"current_range_meters":6400,"station_id":"ce4bhr92rcd13ifvqhrg","pricing_plan_id":"cebpf4jnsgd1na2vs0mg"},{"bike_id":"2fd8a0f0-587c-4871-be0a-dc660a3b7cdb","system_id":"levelo_inurba_marseille","lat":43.33024,"lon":5.39044,"is_reserved":false,"is_disabled":false,"rental_uris":{"android":"levelo://app?vid=2fd8a0f0-587c-4871-be0a-dc660a3b7cdb","ios":"levelo://app?vid=2fd8a0f0-587c-4871-be0a-dc660a3b7cdb"},"vehicle_type_id":"4","last_reported":1723997352,"current_range_meters":800,"station_id":"ce4bhr92rcd13ifvqhrg","pricing_plan_id":"cebpf4jnsgd1na2vs0mg"},{"bike_id":"f3e2531b-26e9-457b-a2b2-e17c0ea4cf74","system_id":"levelo_inurba_marseille","lat":43.33025,"lon":5.39043,"is_reserved":false,"is_disabled":false,"rental_uris":{"android":"levelo://app?vid=f3e2531b-26e9-457b-a2b2-e17c0ea4cf74","ios":"levelo://app?vid=f3e2531b-26e9-457b-a2b2-e17c0ea4cf74"},"vehicle_type_id":"4","last_reported":1723997352,"current_range_meters":6400,"station_id":"ce4bhr92rcd13ifvqhrg","pricing_plan_id":"cebpf4jnsgd1na2vs0mg"},{"bike_id":"0eb95b4f-6700-4c40-b995-e0691d83ce64","system_id":"levelo_inurba_marseille","lat":43.330442,"lon":5.389148,"is_reserved":false,"is_disabled":false,"rental_uris":{"android":"levelo://app?vid=0eb95b4f-6700-4c40-b995-e0691d83ce64","ios":"levelo://app?vid=0eb95b4f-6700-4c40-b995-e0691d83ce64"},"vehicle_type_id":"4","last_reported":1723997352,"current_range_meters":5200,"station_id":"ce4bhr92rcd13ifvqhrg","pricing_plan_id":"cebpf4jnsgd1na2vs0mg"},{"bike_id":"8041bf46-200c-4436-8aa6-7bd56af27107","system_id":"levelo_inurba_marseille","lat":43.330442,"lon":5.389148,"is_reserved":false,"is_disabled":false,"rental_uris":{"android":"levelo://app?vid=8041bf46-200c-4436-8aa6-7bd56af27107","ios":"levelo://app?vid=8041bf46-200c-4436-8aa6-7bd56af27107"},"vehicle_type_id":"4","last_reported":1723997352,"current_range_meters":11600,"station_id":"ce4bhr92rcd13ifvqhrg","pricing_plan_id":"cebpf4jnsgd1na2vs0mg"},{"bike_id":"6600ee24-80c7-438d-94db-4bc319d99b84","system_id":"levelo_inurba_marseille","lat":43.310634,"lon":5.400717,"is_reserved":false,"is_disabled":false,"rental_uris":{"android":"levelo://app?vid=6600ee24-80c7-438d-94db-4bc319d99b84","ios":"levelo://app?vid=6600ee24-80c7-438d-94db-4bc319d99b84"},"vehicle_type_id":"4","last_reported":1723997352,"current_range_meters":20000,"station_id":"","pricing_plan_id":"cebpf4jnsgd1na2vs0mg"},{"bike_id":"5b203b78-897f-444a-b81b-f45c451f5c61","system_id":"levelo_inurba_marseille","lat":43.290094,"lon":5.381264,"is_reserved":false,"is_disabled":false,"rental_uris":{"android":"levelo://app?vid=5b203b78-897f-444a-b81b-f45c451f5c61","ios":"levelo://app?vid=5b203b78-897f-444a-b81b-f45c451f5c61"},"vehicle_type_id":"4","last_reported":1723997352,"current_range_meters":23600,"station_id":"ce4bh4p2rcd13ifvqe1g","pricing_plan_id":"cebpf4jnsgd1na2vs0mg"},{"bike_id":"8d4e0196-9754-435c-a53d-a80c49a1e5b7","system_id":"levelo_inurba_marseille","lat":43.28856,"lon":5.358371,"is_reserved":false,"is_disabled":false,"rental_uris":{"android":"levelo://app?vid=8d4e0196-9754-435c-a53d-a80c49a1e5b7","ios":"levelo://app?vid=8d4e0196-9754-435c-a53d-a80c49a1e5b7"},"vehicle_type_id":"4","last_reported":1723997352,"current_range_meters":2000,"station_id":"ce4bhb12rcd13ifvqem0","pricing_plan_id":"cebpf4jnsgd1na2vs0mg"},{"bike_id":"748ae21b-6bb9-45af-89f2-da8f6b1a6c9f","system_id":"levelo_inurba_marseille","lat":43.309371,"lon":5.401449,"is_reserved":false,"is_disabled":false,"rental_uris":{"android":"levelo://app?vid=748ae21b-6bb9-45af-89f2-da8f6b1a6c9f","ios":"levelo://app?vid=748ae21b-6bb9-45af-89f2-da8f6b1a6c9f"},"vehicle_type_id":"4","last_reported":1723997352,"current_range_meters":21200,"station_id":"ce4bgvp2rcd13ifvqct0","pricing_plan_id":"cebpf4jnsgd1na2vs0mg"},{"bike_id":"ac75d8e5-5139-4e43-a64e-51e7994c2517","system_id":"levelo_inurba_marseille","lat":43.337444,"lon":5.374475,"is_reserved":false,"is_disabled":false,"rental_uris":{"android":"levelo://app?vid=ac75d8e5-5139-4e43-a64e-51e7994c2517","ios":"levelo://app?vid=ac75d8e5-5139-4e43-a64e-51e7994c2517"},"vehicle_type_id":"3","last_reported":1723997352,"current_range_meters":24800,"station_id":"","pricing_plan_id":"cebpf4jnsgd1na2vs0mg"},{"bike_id":"eff0e2f6-3633-4566-b499-293e80cefdeb","system_id":"levelo_inurba_marseille","lat":43.312609,"lon":5.401662,"is_reserved":false,"is_disabled":false,"rental_uris":{"android":"levelo://app?vid=eff0e2f6-3633-4566-b499-293e80cefdeb","ios":"levelo://app?vid=eff0e2f6-3633-4566-b499-293e80cefdeb"},"vehicle_type_id":"4","last_reported":1723997352,"current_range_meters":2400,"station_id":"ce4bh092rcd13ifvqd30","pricing_plan_id":"cebpf4jnsgd1na2vs0mg"},{"bike_id":"8eaf926a-7e5f-4d14-9f02-abf0dfb4820a","system_id":"levelo_inurba_marseille","lat":43.312609,"lon":5.401662,"is_reserved":false,"is_disabled":false,"rental_uris":{"android":"levelo://app?vid=8eaf926a-7e5f-4d14-9f02-abf0dfb4820a","ios":"levelo://app?vid=8eaf926a-7e5f-4d14-9f02-abf0dfb4820a"},"vehicle_type_id":"4","last_reported":1723997352,"current_range_meters":13600,"station_id":"ce4bh092rcd13ifvqd30","pricing_plan_id":"cebpf4jnsgd1na2vs0mg"},{"bike_id":"3c41009f-2d18-48d8-a23d-2ea0c78e24ec","system_id":"levelo_inurba_marseille","lat":43.3376,"lon":5.37479,"is_reserved":false,"is_disabled":false,"rental_uris":{"android":"levelo://app?vid=3c41009f-2d18-48d8-a23d-2ea0c78e24ec","ios":"levelo://app?vid=3c41009f-2d18-48d8-a23d-2ea0c78e24ec"},"vehicle_type_id":"4","last_reported":1723997352,"current_range_meters":20000,"station_id":"","pricing_plan_id":"cebpf4jnsgd1na2vs0mg"},{"bike_id":"013cfb55-a2ad-4416-a977-5534ff73af07","system_id":"levelo_inurba_marseille","lat":43.337622,"lon":5.374694,"is_reserved":false,"is_disabled":false,"rental_uris":{"android":"levelo://app?vid=013cfb55-a2ad-4416-a977-5534ff73af07","ios":"levelo://app?vid=013cfb55-a2ad-4416-a977-5534ff73af07"},"vehicle_type_id":"4","last_reported":1723997352,"current_range_meters":23600,"station_id":"","pricing_plan_id":"cebpf4jnsgd1na2vs0mg"},{"bike_id":"ef6ed788-f983-4e6d-b61a-3cde5b3fdf1c","system_id":"levelo_inurba_marseille","lat":43.301117,"lon":5.398795,"is_reserved":false,"is_disabled":false,"rental_uris":{"android":"levelo://app?vid=ef6ed788-f983-4e6d-b61a-3cde5b3fdf1c","ios":"levelo://app?vid=ef6ed788-f983-4e6d-b61a-3cde5b3fdf1c"},"vehicle_type_id":"4","last_reported":1723997352,"current_range_meters":0,"station_id":"ce4bh0h2rcd13ifvqd40","pricing_plan_id":"cebpf4jnsgd1na2vs0mg"},{"bike_id":"16a958e0-aafc-4396-b634-1d8af67abff0","system_id":"levelo_inurba_marseille","lat":43.33766,"lon":5.37481,"is_reserved":false,"is_disabled":false,"rental_uris":{"android":"levelo://app?vid=16a958e0-aafc-4396-b634-1d8af67abff0","ios":"levelo://app?vid=16a958e0-aafc-4396-b634-1d8af67abff0"},"vehicle_type_id":"4","last_reported":1723997352,"current_range_meters":19600,"station_id":"","pricing_plan_id":"cebpf4jnsgd1na2vs0mg"},{"bike_id":"6516bdad-628c-4986-b81f-4b85dd22433a","system_id":"levelo_inurba_marseille","lat":43.301117,"lon":5.398795,"is_reserved":false,"is_disabled":false,"rental_uris":{"android":"levelo://app?vid=6516bdad-628c-4986-b81f-4b85dd22433a","ios":"levelo://app?vid=6516bdad-628c-4986-b81f-4b85dd22433a"},"vehicle_type_id":"4","last_reported":1723997352,"current_range_meters":8000,"station_id":"ce4bh0h2rcd13ifvqd40","pricing_plan_id":"cebpf4jnsgd1na2vs0mg"},{"bike_id":"17506a18-ef4c-4f67-8f27-fd9c09192e41","system_id":"levelo_inurba_marseille","lat":43.337704,"lon":5.374725,"is_reserved":false,"is_disabled":false,"rental_uris":{"android":"levelo://app?vid=17506a18-ef4c-4f67-8f27-fd9c09192e41","ios":"levelo://app?vid=17506a18-ef4c-4f67-8f27-fd9c09192e41"},"vehicle_type_id":"4","last_reported":1723997352,"current_range_meters":21200,"station_id":"","pricing_plan_id":"cebpf4jnsgd1na2vs0mg"},{"bike_id":"cd7ef2ad-f91c-4cda-975b-45e9692366ae","system_id":"levelo_inurba_marseille","lat":43.33771,"lon":5.3748,"is_reserved":false,"is_disabled":false,"rental_uris":{"android":"levelo://app?vid=cd7ef2ad-f91c-4cda-975b-45e9692366ae","ios":"levelo://app?vid=cd7ef2ad-f91c-4cda-975b-45e9692366ae"},"vehicle_type_id":"4","last_reported":1723997352,"current_range_meters":6000,"station_id":"","pricing_plan_id":"cebpf4jnsgd1na2vs0mg"},{"bike_id":"152b6fb3-b3a1-4cef-b9e8-f0300a4a30c6","system_id":"levelo_inurba_marseille","lat":43.306524,"lon":5.401172,"is_reserved":false,"is_disabled":false,"rental_uris":{"android":"levelo://app?vid=152b6fb3-b3a1-4cef-b9e8-f0300a4a30c6","ios":"levelo://app?vid=152b6fb3-b3a1-4cef-b9e8-f0300a4a30c6"},"vehicle_type_id":"4","last_reported":1723997352,"current_range_meters":0,"station_id":"ce4bh112rcd13ifvqda0","pricing_plan_id":"cebpf4jnsgd1na2vs0mg"},{"bike_id":"bd452b42-fcdb-42df-ba0e-422376e3853b","system_id":"levelo_inurba_marseille","lat":43.28727,"lon":5.36078,"is_reserved":false,"is_disabled":false,"rental_uris":{"android":"levelo://app?vid=bd452b42-fcdb-42df-ba0e-422376e3853b","ios":"levelo://app?vid=bd452b42-fcdb-42df-ba0e-422376e3853b"},"vehicle_type_id":"4","last_reported":1723997352,"current_range_meters":1200,"station_id":"cki0cbj6b192h4jlfktg","pricing_plan_id":"cebpf4jnsgd1na2vs0mg"},{"bike_id":"1c2a4e14-dc48-4788-a1cf-b311fe32578a","system_id":"levelo_inurba_marseille","lat":43.298681,"lon":5.397225,"is_reserved":false,"is_disabled":false,"rental_uris":{"android":"levelo://app?vid=1c2a4e14-dc48-4788-a1cf-b311fe32578a","ios":"levelo://app?vid=1c2a4e14-dc48-4788-a1cf-b311fe32578a"},"vehicle_type_id":"4","last_reported":1723997352,"current_range_meters":22400,"station_id":"ce4bh0h2rcd13ifvqd50","pricing_plan_id":"cebpf4jnsgd1na2vs0mg"},{"bike_id":"74b0a690-9eef-4d88-9ea5-d8503da42737","system_id":"levelo_inurba_marseille","lat":43.28854,"lon":5.38179,"is_reserved":false,"is_disabled":false,"rental_uris":{"android":"levelo://app?vid=74b0a690-9eef-4d88-9ea5-d8503da42737","ios":"levelo://app?vid=74b0a690-9eef-4d88-9ea5-d8503da42737"},"vehicle_type_id":"4","last_reported":1723997352,"current_range_meters":5200,"station_id":"","pricing_plan_id":"cebpf4jnsgd1na2vs0mg"},{"bike_id":"166bda16-c154-45fe-887d-591b21fb04ff","system_id":"levelo_inurba_marseille","lat":43.289307,"lon":5.38406,"is_reserved":false,"is_disabled":false,"rental_uris":{"android":"levelo://app?vid=166bda16-c154-45fe-887d-591b21fb04ff","ios":"levelo://app?vid=166bda16-c154-45fe-887d-591b21fb04ff"},"vehicle_type_id":"4","last_reported":1723997352,"current_range_meters":0,"station_id":"ce4bh612rcd13ifvqe6g","pricing_plan_id":"cebpf4jnsgd1na2vs0mg"},{"bike_id":"40cebfa9-aa36-48a6-982c-69e7b1d668c1","system_id":"levelo_inurba_marseille","lat":43.30246,"lon":5.40073,"is_reserved":false,"is_disabled":false,"rental_uris":{"android":"levelo://app?vid=40cebfa9-aa36-48a6-982c-69e7b1d668c1","ios":"levelo://app?vid=40cebfa9-aa36-48a6-982c-69e7b1d668c1"},"vehicle_type_id":"4","last_reported":1723997352,"current_range_meters":24400,"station_id":"ce4bgvh2rcd13ifvqcs0","pricing_plan_id":"cebpf4jnsgd1na2vs0mg"},{"bike_id":"9bed0782-a91a-47a6-876d-936bff1de964","system_id":"levelo_inurba_marseille","lat":43.286039,"lon":5.370679,"is_reserved":false,"is_disabled":false,"rental_uris":{"android":"levelo://app?vid=9bed0782-a91a-47a6-876d-936bff1de964","ios":"levelo://app?vid=9bed0782-a91a-47a6-876d-936bff1de964"},"vehicle_type_id":"4","last_reported":1723997352,"current_range_meters":22000,"station_id":"ce4bht12rcd13ifvqi60","pricing_plan_id":"cebpf4jnsgd1na2vs0mg"},{"bike_id":"e8393e23-a438-4fac-ad7a-e21a89ac4d8b","system_id":"levelo_inurba_marseille","lat":43.316821,"lon":5.404737,"is_reserved":false,"is_disabled":false,"rental_uris":{"android":"levelo://app?vid=e8393e23-a438-4fac-ad7a-e21a89ac4d8b","ios":"levelo://app?vid=e8393e23-a438-4fac-ad7a-e21a89ac4d8b"},"vehicle_type_id":"4","last_reported":1723997352,"current_range_meters":2400,"station_id":"ce4bh012rcd13ifvqd00","pricing_plan_id":"cebpf4jnsgd1na2vs0mg"},{"bike_id":"3fcc0772-30fd-488b-bf94-267d2aaafed9","system_id":"levelo_inurba_marseille","lat":43.284962,"lon":5.37094,"is_reserved":false,"is_disabled":false,"rental_uris":{"android":"levelo://app?vid=3fcc0772-30fd-488b-bf94-267d2aaafed9","ios":"levelo://app?vid=3fcc0772-30fd-488b-bf94-267d2aaafed9"},"vehicle_type_id":"4","last_reported":1723997352,"current_range_meters":7200,"station_id":"","pricing_plan_id":"cebpf4jnsgd1na2vs0mg"},{"bike_id":"0a1ed7a5-c6e3-4834-be95-dca710f316e7","system_id":"levelo_inurba_marseille","lat":43.284538,"lon":5.358657,"is_reserved":false,"is_disabled":false,"rental_uris":{"android":"levelo://app?vid=0a1ed7a5-c6e3-4834-be95-dca710f316e7","ios":"levelo://app?vid=0a1ed7a5-c6e3-4834-be95-dca710f316e7"},"vehicle_type_id":"4","last_reported":1723997352,"current_range_meters":4800,"station_id":"ce4bhah2rcd13ifvqei0","pricing_plan_id":"cebpf4jnsgd1na2vs0mg"},{"bike_id":"7c571d5e-2b48-4c92-8ec0-d06a93d573f2","system_id":"levelo_inurba_marseille","lat":43.2846,"lon":5.35895,"is_reserved":false,"is_disabled":false,"rental_uris":{"android":"levelo://app?vid=7c571d5e-2b48-4c92-8ec0-d06a93d573f2","ios":"levelo://app?vid=7c571d5e-2b48-4c92-8ec0-d06a93d573f2"},"vehicle_type_id":"4","last_reported":1723997352,"current_range_meters":20800,"station_id":"ce4bhah2rcd13ifvqei0","pricing_plan_id":"cebpf4jnsgd1na2vs0mg"},{"bike_id":"63864e09-48ce-4698-bc25-e4a9cc71d081","system_id":"levelo_inurba_marseille","lat":43.284538,"lon":5.358657,"is_reserved":false,"is_disabled":false,"rental_uris":{"android":"levelo://app?vid=63864e09-48ce-4698-bc25-e4a9cc71d081","ios":"levelo://app?vid=63864e09-48ce-4698-bc25-e4a9cc71d081"},"vehicle_type_id":"4","last_reported":1723997352,"current_range_meters":31200,"station_id":"ce4bhah2rcd13ifvqei0","pricing_plan_id":"cebpf4jnsgd1na2vs0mg"},{"bike_id":"99638895-93bb-4c74-bd04-dca8f5df06d2","system_id":"levelo_inurba_marseille","lat":43.284534,"lon":5.358662,"is_reserved":false,"is_disabled":false,"rental_uris":{"android":"levelo://app?vid=99638895-93bb-4c74-bd04-dca8f5df06d2","ios":"levelo://app?vid=99638895-93bb-4c74-bd04-dca8f5df06d2"},"vehicle_type_id":"4","last_reported":1723997352,"current_range_meters":31200,"station_id":"ce4bhah2rcd13ifvqei0","pricing_plan_id":"cebpf4jnsgd1na2vs0mg"},{"bike_id":"2e5ec4d6-be3b-4ef6-96b0-242a14322ed3","system_id":"levelo_inurba_marseille","lat":43.284538,"lon":5.358657,"is_reserved":false,"is_disabled":false,"rental_uris":{"android":"levelo://app?vid=2e5ec4d6-be3b-4ef6-96b0-242a14322ed3","ios":"levelo://app?vid=2e5ec4d6-be3b-4ef6-96b0-242a14322ed3"},"vehicle_type_id":"4","last_reported":1723997352,"current_range_meters":28800,"station_id":"ce4bhah2rcd13ifvqei0","pricing_plan_id":"cebpf4jnsgd1na2vs0mg"},{"bike_id":"3cbd12ec-ca80-442d-8953-11e0d110e53d","system_id":"levelo_inurba_marseille","lat":43.28459,"lon":5.35883,"is_reserved":false,"is_disabled":false,"rental_uris":{"android":"levelo://app?vid=3cbd12ec-ca80-442d-8953-11e0d110e53d","ios":"levelo://app?vid=3cbd12ec-ca80-442d-8953-11e0d110e53d"},"vehicle_type_id":"4","last_reported":1723997352,"current_range_meters":800,"station_id":"ce4bhah2rcd13ifvqei0","pricing_plan_id":"cebpf4jnsgd1na2vs0mg"},{"bike_id":"53efec56-6a6f-4c1f-aeda-4471dc62b42a","system_id":"levelo_inurba_marseille","lat":43.284534,"lon":5.358662,"is_reserved":false,"is_disabled":false,"rental_uris":{"android":"levelo://app?vid=53efec56-6a6f-4c1f-aeda-4471dc62b42a","ios":"levelo://app?vid=53efec56-6a6f-4c1f-aeda-4471dc62b42a"},"vehicle_type_id":"4","last_reported":1723997352,"current_range_meters":13200,"station_id":"ce4bhah2rcd13ifvqei0","pricing_plan_id":"cebpf4jnsgd1na2vs0mg"},{"bike_id":"aef22c2a-0233-484d-befb-a203fceeb2b8","system_id":"levelo_inurba_marseille","lat":43.284538,"lon":5.358657,"is_reserved":false,"is_disabled":false,"rental_uris":{"android":"levelo://app?vid=aef22c2a-0233-484d-befb-a203fceeb2b8","ios":"levelo://app?vid=aef22c2a-0233-484d-befb-a203fceeb2b8"},"vehicle_type_id":"4","last_reported":1723997352,"current_range_meters":23200,"station_id":"ce4bhah2rcd13ifvqei0","pricing_plan_id":"cebpf4jnsgd1na2vs0mg"},{"bike_id":"a420cac7-279d-4726-bf84-36e65c753364","system_id":"levelo_inurba_marseille","lat":43.284538,"lon":5.358657,"is_reserved":false,"is_disabled":false,"rental_uris":{"android":"levelo://app?vid=a420cac7-279d-4726-bf84-36e65c753364","ios":"levelo://app?vid=a420cac7-279d-4726-bf84-36e65c753364"},"vehicle_type_id":"4","last_reported":1723997352,"current_range_meters":22400,"station_id":"ce4bhah2rcd13ifvqei0","pricing_plan_id":"cebpf4jnsgd1na2vs0mg"},{"bike_id":"7683386d-e274-4260-a707-85517dce6b5d","system_id":"levelo_inurba_marseille","lat":43.284534,"lon":5.358662,"is_reserved":false,"is_disabled":false,"rental_uris":{"android":"levelo://app?vid=7683386d-e274-4260-a707-85517dce6b5d","ios":"levelo://app?vid=7683386d-e274-4260-a707-85517dce6b5d"},"vehicle_type_id":"4","last_reported":1723997352,"current_range_meters":31200,"station_id":"ce4bhah2rcd13ifvqei0","pricing_plan_id":"cebpf4jnsgd1na2vs0mg"},{"bike_id":"c7f338bf-ce72-411b-8114-464ca00fc801","system_id":"levelo_inurba_marseille","lat":43.28455,"lon":5.35887,"is_reserved":false,"is_disabled":false,"rental_uris":{"android":"levelo://app?vid=c7f338bf-ce72-411b-8114-464ca00fc801","ios":"levelo://app?vid=c7f338bf-ce72-411b-8114-464ca00fc801"},"vehicle_type_id":"4","last_reported":1723997352,"current_range_meters":14000,"station_id":"ce4bhah2rcd13ifvqei0","pricing_plan_id":"cebpf4jnsgd1na2vs0mg"},{"bike_id":"990e51f4-ce93-448a-89d5-376bc82db239","system_id":"levelo_inurba_marseille","lat":43.28452,"lon":5.35904,"is_reserved":false,"is_disabled":false,"rental_uris":{"android":"levelo://app?vid=990e51f4-ce93-448a-89d5-376bc82db239","ios":"levelo://app?vid=990e51f4-ce93-448a-89d5-376bc82db239"},"vehicle_type_id":"4","last_reported":1723997352,"current_range_meters":0,"station_id":"ce4bhah2rcd13ifvqei0","pricing_plan_id":"cebpf4jnsgd1na2vs0mg"},{"bike_id":"75bc3a3b-145a-4e39-a89c-75f06822e514","system_id":"levelo_inurba_marseille","lat":43.285856,"lon":5.350771,"is_reserved":false,"is_disabled":false,"rental_uris":{"android":"levelo://app?vid=75bc3a3b-145a-4e39-a89c-75f06822e514","ios":"levelo://app?vid=75bc3a3b-145a-4e39-a89c-75f06822e514"},"vehicle_type_id":"4","last_reported":1723997352,"current_range_meters":24800,"station_id":"ce4bhch2rcd13ifvqeug","pricing_plan_id":"cebpf4jnsgd1na2vs0mg"},{"bike_id":"f69cb2e2-dbad-4f46-ba49-bf3478223b57","system_id":"levelo_inurba_marseille","lat":43.28616,"lon":5.35107,"is_reserved":false,"is_disabled":false,"rental_uris":{"android":"levelo://app?vid=f69cb2e2-dbad-4f46-ba49-bf3478223b57","ios":"levelo://app?vid=f69cb2e2-dbad-4f46-ba49-bf3478223b57"},"vehicle_type_id":"4","last_reported":1723997352,"current_range_meters":0,"station_id":"ce4bhch2rcd13ifvqeug","pricing_plan_id":"cebpf4jnsgd1na2vs0mg"},{"bike_id":"95e79df7-bc5e-4fda-b8c7-d70dbf9f1d65","system_id":"levelo_inurba_marseille","lat":43.285848,"lon":5.350787,"is_reserved":false,"is_disabled":false,"rental_uris":{"android":"levelo://app?vid=95e79df7-bc5e-4fda-b8c7-d70dbf9f1d65","ios":"levelo://app?vid=95e79df7-bc5e-4fda-b8c7-d70dbf9f1d65"},"vehicle_type_id":"4","last_reported":1723997352,"current_range_meters":0,"station_id":"ce4bhch2rcd13ifvqeug","pricing_plan_id":"cebpf4jnsgd1na2vs0mg"},{"bike_id":"62e82ee3-edaf-47a5-95aa-dff50879a50d","system_id":"levelo_inurba_marseille","lat":43.28613,"lon":5.35104,"is_reserved":false,"is_disabled":false,"rental_uris":{"android":"levelo://app?vid=62e82ee3-edaf-47a5-95aa-dff50879a50d","ios":"levelo://app?vid=62e82ee3-edaf-47a5-95aa-dff50879a50d"},"vehicle_type_id":"4","last_reported":1723997352,"current_range_meters":0,"station_id":"ce4bhch2rcd13ifvqeug","pricing_plan_id":"cebpf4jnsgd1na2vs0mg"},{"bike_id":"5354945e-2d89-4024-9d0e-539e96c1128c","system_id":"levelo_inurba_marseille","lat":43.28612,"lon":5.35106,"is_reserved":false,"is_disabled":false,"rental_uris":{"android":"levelo://app?vid=5354945e-2d89-4024-9d0e-539e96c1128c","ios":"levelo://app?vid=5354945e-2d89-4024-9d0e-539e96c1128c"},"vehicle_type_id":"4","last_reported":1723997352,"current_range_meters":0,"station_id":"ce4bhch2rcd13ifvqeug","pricing_plan_id":"cebpf4jnsgd1na2vs0mg"},{"bike_id":"634eab8c-eb4d-4d7f-9fd0-647ee5c47116","system_id":"levelo_inurba_marseille","lat":43.283998,"lon":5.375062,"is_reserved":false,"is_disabled":false,"rental_uris":{"android":"levelo://app?vid=634eab8c-eb4d-4d7f-9fd0-647ee5c47116","ios":"levelo://app?vid=634eab8c-eb4d-4d7f-9fd0-647ee5c47116"},"vehicle_type_id":"4","last_reported":1723997352,"current_range_meters":10800,"station_id":"ce4bh412rcd13ifvqds0","pricing_plan_id":"cebpf4jnsgd1na2vs0mg"},{"bike_id":"7ee50f44-7020-48e3-a319-25e4f51845a6","system_id":"levelo_inurba_marseille","lat":43.284538,"lon":5.358657,"is_reserved":false,"is_disabled":false,"rental_uris":{"android":"levelo://app?vid=7ee50f44-7020-48e3-a319-25e4f51845a6","ios":"levelo://app?vid=7ee50f44-7020-48e3-a319-25e4f51845a6"},"vehicle_type_id":"4","last_reported":1723997352,"current_range_meters":18800,"station_id":"ce4bhah2rcd13ifvqei0","pricing_plan_id":"cebpf4jnsgd1na2vs0mg"},{"bike_id":"28dce197-f008-449e-a4e4-a125f4dd46a3","system_id":"levelo_inurba_marseille","lat":43.337168,"lon":5.391825,"is_reserved":false,"is_disabled":false,"rental_uris":{"android":"levelo://app?vid=28dce197-f008-449e-a4e4-a125f4dd46a3","ios":"levelo://app?vid=28dce197-f008-449e-a4e4-a125f4dd46a3"},"vehicle_type_id":"4","last_reported":1723997352,"current_range_meters":31200,"station_id":"ce4bhr92rcd13ifvqhsg","pricing_plan_id":"cebpf4jnsgd1na2vs0mg"},{"bike_id":"f7bb9e4c-f0de-46c4-a751-153ddf4730c6","system_id":"levelo_inurba_marseille","lat":43.33717,"lon":5.391857,"is_reserved":false,"is_disabled":false,"rental_uris":{"android":"levelo://app?vid=f7bb9e4c-f0de-46c4-a751-153ddf4730c6","ios":"levelo://app?vid=f7bb9e4c-f0de-46c4-a751-153ddf4730c6"},"vehicle_type_id":"4","last_reported":1723997352,"current_range_meters":24800,"station_id":"ce4bhr92rcd13ifvqhsg","pricing_plan_id":"cebpf4jnsgd1na2vs0mg"},{"bike_id":"5d389d0b-cd64-4426-addc-f2c25f1223ad","system_id":"levelo_inurba_marseille","lat":43.337168,"lon":5.391825,"is_reserved":false,"is_disabled":false,"rental_uris":{"android":"levelo://app?vid=5d389d0b-cd64-4426-addc-f2c25f1223ad","ios":"levelo://app?vid=5d389d0b-cd64-4426-addc-f2c25f1223ad"},"vehicle_type_id":"4","last_reported":1723997352,"current_range_meters":26000,"station_id":"ce4bhr92rcd13ifvqhsg","pricing_plan_id":"cebpf4jnsgd1na2vs0mg"},{"bike_id":"f4f9dce4-d120-41a6-9694-3816570b9672","system_id":"levelo_inurba_marseille","lat":43.284787,"lon":5.384116,"is_reserved":false,"is_disabled":false,"rental_uris":{"android":"levelo://app?vid=f4f9dce4-d120-41a6-9694-3816570b9672","ios":"levelo://app?vid=f4f9dce4-d120-41a6-9694-3816570b9672"},"vehicle_type_id":"4","last_reported":1723997352,"current_range_meters":11600,"station_id":"ce4bh512rcd13ifvqe3g","pricing_plan_id":"cebpf4jnsgd1na2vs0mg"},{"bike_id":"331898df-5368-4cb3-8acb-54c828cccf2e","system_id":"levelo_inurba_marseille","lat":43.284857,"lon":5.384163,"is_reserved":false,"is_disabled":false,"rental_uris":{"android":"levelo://app?vid=331898df-5368-4cb3-8acb-54c828cccf2e","ios":"levelo://app?vid=331898df-5368-4cb3-8acb-54c828cccf2e"},"vehicle_type_id":"4","last_reported":1723997352,"current_range_meters":4000,"station_id":"ce4bh512rcd13ifvqe3g","pricing_plan_id":"cebpf4jnsgd1na2vs0mg"},{"bike_id":"9564d887-a003-4c72-a270-530ccd283dd1","system_id":"levelo_inurba_marseille","lat":43.284787,"lon":5.384116,"is_reserved":false,"is_disabled":false,"rental_uris":{"android":"levelo://app?vid=9564d887-a003-4c72-a270-530ccd283dd1","ios":"levelo://app?vid=9564d887-a003-4c72-a270-530ccd283dd1"},"vehicle_type_id":"4","last_reported":1723997352,"current_range_meters":15600,"station_id":"ce4bh512rcd13ifvqe3g","pricing_plan_id":"cebpf4jnsgd1na2vs0mg"},{"bike_id":"4054fd33-6a5e-4182-bc29-c203d931dbad","system_id":"levelo_inurba_marseille","lat":43.284787,"lon":5.384116,"is_reserved":false,"is_disabled":false,"rental_uris":{"android":"levelo://app?vid=4054fd33-6a5e-4182-bc29-c203d931dbad","ios":"levelo://app?vid=4054fd33-6a5e-4182-bc29-c203d931dbad"},"vehicle_type_id":"4","last_reported":1723997352,"current_range_meters":14800,"station_id":"ce4bh512rcd13ifvqe3g","pricing_plan_id":"cebpf4jnsgd1na2vs0mg"},{"bike_id":"32a95db6-dcae-47e5-ae20-a89391bfcfc6","system_id":"levelo_inurba_marseille","lat":43.284793,"lon":5.384113,"is_reserved":false,"is_disabled":false,"rental_uris":{"android":"levelo://app?vid=32a95db6-dcae-47e5-ae20-a89391bfcfc6","ios":"levelo://app?vid=32a95db6-dcae-47e5-ae20-a89391bfcfc6"},"vehicle_type_id":"4","last_reported":1723997352,"current_range_meters":2400,"station_id":"ce4bh512rcd13ifvqe3g","pricing_plan_id":"cebpf4jnsgd1na2vs0mg"},{"bike_id":"2e8f0f84-17ca-4177-bf0e-103c99512f20","system_id":"levelo_inurba_marseille","lat":43.284787,"lon":5.384116,"is_reserved":false,"is_disabled":false,"rental_uris":{"android":"levelo://app?vid=2e8f0f84-17ca-4177-bf0e-103c99512f20","ios":"levelo://app?vid=2e8f0f84-17ca-4177-bf0e-103c99512f20"},"vehicle_type_id":"4","last_reported":1723997352,"current_range_meters":2800,"station_id":"ce4bh512rcd13ifvqe3g","pricing_plan_id":"cebpf4jnsgd1na2vs0mg"},{"bike_id":"e1561e34-114f-4b3a-843d-4b5492239852","system_id":"levelo_inurba_marseille","lat":43.284793,"lon":5.384119,"is_reserved":false,"is_disabled":false,"rental_uris":{"android":"levelo://app?vid=e1561e34-114f-4b3a-843d-4b5492239852","ios":"levelo://app?vid=e1561e34-114f-4b3a-843d-4b5492239852"},"vehicle_type_id":"4","last_reported":1723997352,"current_range_meters":7600,"station_id":"ce4bh512rcd13ifvqe3g","pricing_plan_id":"cebpf4jnsgd1na2vs0mg"},{"bike_id":"ce79539b-6874-416a-9be6-7fc1dfb70194","system_id":"levelo_inurba_marseille","lat":43.284793,"lon":5.384119,"is_reserved":false,"is_disabled":false,"rental_uris":{"android":"levelo://app?vid=ce79539b-6874-416a-9be6-7fc1dfb70194","ios":"levelo://app?vid=ce79539b-6874-416a-9be6-7fc1dfb70194"},"vehicle_type_id":"4","last_reported":1723997352,"current_range_meters":22800,"station_id":"ce4bh512rcd13ifvqe3g","pricing_plan_id":"cebpf4jnsgd1na2vs0mg"},{"bike_id":"18ee472f-81e5-48e9-bce8-61766e7f160a","system_id":"levelo_inurba_marseille","lat":43.284793,"lon":5.384119,"is_reserved":false,"is_disabled":false,"rental_uris":{"android":"levelo://app?vid=18ee472f-81e5-48e9-bce8-61766e7f160a","ios":"levelo://app?vid=18ee472f-81e5-48e9-bce8-61766e7f160a"},"vehicle_type_id":"4","last_reported":1723997352,"current_range_meters":0,"station_id":"ce4bh512rcd13ifvqe3g","pricing_plan_id":"cebpf4jnsgd1na2vs0mg"},{"bike_id":"0f3bb296-ecc9-4588-8e46-59a24ad7d79b","system_id":"levelo_inurba_marseille","lat":43.284787,"lon":5.384116,"is_reserved":false,"is_disabled":false,"rental_uris":{"android":"levelo://app?vid=0f3bb296-ecc9-4588-8e46-59a24ad7d79b","ios":"levelo://app?vid=0f3bb296-ecc9-4588-8e46-59a24ad7d79b"},"vehicle_type_id":"4","last_reported":1723997352,"current_range_meters":400,"station_id":"ce4bh512rcd13ifvqe3g","pricing_plan_id":"cebpf4jnsgd1na2vs0mg"},{"bike_id":"28d008e4-6544-4050-86d2-484c40742b46","system_id":"levelo_inurba_marseille","lat":43.297946,"lon":5.404063,"is_reserved":false,"is_disabled":false,"rental_uris":{"android":"levelo://app?vid=28d008e4-6544-4050-86d2-484c40742b46","ios":"levelo://app?vid=28d008e4-6544-4050-86d2-484c40742b46"},"vehicle_type_id":"4","last_reported":1723997352,"current_range_meters":7200,"station_id":"ce4bh112rcd13ifvqd90","pricing_plan_id":"cebpf4jnsgd1na2vs0mg"},{"bike_id":"09256f50-c67e-4f34-a551-ae9f02320d55","system_id":"levelo_inurba_marseille","lat":43.284793,"lon":5.384119,"is_reserved":false,"is_disabled":false,"rental_uris":{"android":"levelo://app?vid=09256f50-c67e-4f34-a551-ae9f02320d55","ios":"levelo://app?vid=09256f50-c67e-4f34-a551-ae9f02320d55"},"vehicle_type_id":"4","last_reported":1723997352,"current_range_meters":0,"station_id":"ce4bh512rcd13ifvqe3g","pricing_plan_id":"cebpf4jnsgd1na2vs0mg"},{"bike_id":"d79c7974-bc60-4ca1-a544-362cf49d4826","system_id":"levelo_inurba_marseille","lat":43.283494,"lon":5.380945,"is_reserved":false,"is_disabled":false,"rental_uris":{"android":"levelo://app?vid=d79c7974-bc60-4ca1-a544-362cf49d4826","ios":"levelo://app?vid=d79c7974-bc60-4ca1-a544-362cf49d4826"},"vehicle_type_id":"4","last_reported":1723997352,"current_range_meters":0,"station_id":"ce4bh412rcd13ifvqdr0","pricing_plan_id":"cebpf4jnsgd1na2vs0mg"},{"bike_id":"847d55c1-2841-4030-89d6-c5f6b428c710","system_id":"levelo_inurba_marseille","lat":43.283498,"lon":5.380948,"is_reserved":false,"is_disabled":false,"rental_uris":{"android":"levelo://app?vid=847d55c1-2841-4030-89d6-c5f6b428c710","ios":"levelo://app?vid=847d55c1-2841-4030-89d6-c5f6b428c710"},"vehicle_type_id":"4","last_reported":1723997352,"current_range_meters":13200,"station_id":"ce4bh412rcd13ifvqdr0","pricing_plan_id":"cebpf4jnsgd1na2vs0mg"},{"bike_id":"4b90d019-c63d-47fb-b4ad-38e618a8d815","system_id":"levelo_inurba_marseille","lat":43.283498,"lon":5.380948,"is_reserved":false,"is_disabled":false,"rental_uris":{"android":"levelo://app?vid=4b90d019-c63d-47fb-b4ad-38e618a8d815","ios":"levelo://app?vid=4b90d019-c63d-47fb-b4ad-38e618a8d815"},"vehicle_type_id":"4","last_reported":1723997352,"current_range_meters":11200,"station_id":"ce4bh412rcd13ifvqdr0","pricing_plan_id":"cebpf4jnsgd1na2vs0mg"},{"bike_id":"858ff5be-d0a9-4a43-86a9-c0f083ca71e9","system_id":"levelo_inurba_marseille","lat":43.28425,"lon":5.34988,"is_reserved":false,"is_disabled":false,"rental_uris":{"android":"levelo://app?vid=858ff5be-d0a9-4a43-86a9-c0f083ca71e9","ios":"levelo://app?vid=858ff5be-d0a9-4a43-86a9-c0f083ca71e9"},"vehicle_type_id":"4","last_reported":1723997352,"current_range_meters":28000,"station_id":"ce4bhbh2rcd13ifvqepg","pricing_plan_id":"cebpf4jnsgd1na2vs0mg"},{"bike_id":"181250d4-8e89-49b7-9a6e-16a94d33d463","system_id":"levelo_inurba_marseille","lat":43.283498,"lon":5.380948,"is_reserved":false,"is_disabled":false,"rental_uris":{"android":"levelo://app?vid=181250d4-8e89-49b7-9a6e-16a94d33d463","ios":"levelo://app?vid=181250d4-8e89-49b7-9a6e-16a94d33d463"},"vehicle_type_id":"4","last_reported":1723997352,"current_range_meters":28000,"station_id":"ce4bh412rcd13ifvqdr0","pricing_plan_id":"cebpf4jnsgd1na2vs0mg"},{"bike_id":"3f7e9aa0-6c80-433f-9fba-aeb5a4823586","system_id":"levelo_inurba_marseille","lat":43.283494,"lon":5.380945,"is_reserved":false,"is_disabled":false,"rental_uris":{"android":"levelo://app?vid=3f7e9aa0-6c80-433f-9fba-aeb5a4823586","ios":"levelo://app?vid=3f7e9aa0-6c80-433f-9fba-aeb5a4823586"},"vehicle_type_id":"4","last_reported":1723997352,"current_range_meters":0,"station_id":"ce4bh412rcd13ifvqdr0","pricing_plan_id":"cebpf4jnsgd1na2vs0mg"},{"bike_id":"07f03c94-7e50-410e-a4a8-aede62c58dc3","system_id":"levelo_inurba_marseille","lat":43.28423,"lon":5.34986,"is_reserved":false,"is_disabled":false,"rental_uris":{"android":"levelo://app?vid=07f03c94-7e50-410e-a4a8-aede62c58dc3","ios":"levelo://app?vid=07f03c94-7e50-410e-a4a8-aede62c58dc3"},"vehicle_type_id":"4","last_reported":1723997352,"current_range_meters":7200,"station_id":"ce4bhbh2rcd13ifvqepg","pricing_plan_id":"cebpf4jnsgd1na2vs0mg"},{"bike_id":"87947fc9-6fe9-45a7-a187-869d58a4747c","system_id":"levelo_inurba_marseille","lat":43.284227,"lon":5.349842,"is_reserved":false,"is_disabled":false,"rental_uris":{"android":"levelo://app?vid=87947fc9-6fe9-45a7-a187-869d58a4747c","ios":"levelo://app?vid=87947fc9-6fe9-45a7-a187-869d58a4747c"},"vehicle_type_id":"4","last_reported":1723997352,"current_range_meters":18000,"station_id":"ce4bhbh2rcd13ifvqepg","pricing_plan_id":"cebpf4jnsgd1na2vs0mg"},{"bike_id":"f58da71c-abe6-47e9-8462-29520866e673","system_id":"levelo_inurba_marseille","lat":43.283498,"lon":5.380948,"is_reserved":false,"is_disabled":false,"rental_uris":{"android":"levelo://app?vid=f58da71c-abe6-47e9-8462-29520866e673","ios":"levelo://app?vid=f58da71c-abe6-47e9-8462-29520866e673"},"vehicle_type_id":"4","last_reported":1723997352,"current_range_meters":800,"station_id":"ce4bh412rcd13ifvqdr0","pricing_plan_id":"cebpf4jnsgd1na2vs0mg"},{"bike_id":"347931db-a73c-4277-9853-830058bc664c","system_id":"levelo_inurba_marseille","lat":43.284214,"lon":5.349706,"is_reserved":false,"is_disabled":false,"rental_uris":{"android":"levelo://app?vid=347931db-a73c-4277-9853-830058bc664c","ios":"levelo://app?vid=347931db-a73c-4277-9853-830058bc664c"},"vehicle_type_id":"4","last_reported":1723997352,"current_range_meters":8800,"station_id":"ce4bhbh2rcd13ifvqepg","pricing_plan_id":"cebpf4jnsgd1na2vs0mg"},{"bike_id":"ab1fd7a0-b49b-40d9-9f6c-7243e867215c","system_id":"levelo_inurba_marseille","lat":43.2842,"lon":5.34989,"is_reserved":false,"is_disabled":false,"rental_uris":{"android":"levelo://app?vid=ab1fd7a0-b49b-40d9-9f6c-7243e867215c","ios":"levelo://app?vid=ab1fd7a0-b49b-40d9-9f6c-7243e867215c"},"vehicle_type_id":"4","last_reported":1723997352,"current_range_meters":7200,"station_id":"ce4bhbh2rcd13ifvqepg","pricing_plan_id":"cebpf4jnsgd1na2vs0mg"},{"bike_id":"e98cde81-d155-4301-a28f-66a4804fac1c","system_id":"levelo_inurba_marseille","lat":43.2842,"lon":5.34988,"is_reserved":false,"is_disabled":false,"rental_uris":{"android":"levelo://app?vid=e98cde81-d155-4301-a28f-66a4804fac1c","ios":"levelo://app?vid=e98cde81-d155-4301-a28f-66a4804fac1c"},"vehicle_type_id":"4","last_reported":1723997352,"current_range_meters":13600,"station_id":"ce4bhbh2rcd13ifvqepg","pricing_plan_id":"cebpf4jnsgd1na2vs0mg"},{"bike_id":"016a5ed6-4f72-4b6b-b897-19180f9df48b","system_id":"levelo_inurba_marseille","lat":43.284219,"lon":5.3497,"is_reserved":false,"is_disabled":false,"rental_uris":{"android":"levelo://app?vid=016a5ed6-4f72-4b6b-b897-19180f9df48b","ios":"levelo://app?vid=016a5ed6-4f72-4b6b-b897-19180f9df48b"},"vehicle_type_id":"4","last_reported":1723997352,"current_range_meters":31200,"station_id":"ce4bhbh2rcd13ifvqepg","pricing_plan_id":"cebpf4jnsgd1na2vs0mg"},{"bike_id":"c0dcaeac-d7a0-4225-820c-b6fc8131b438","system_id":"levelo_inurba_marseille","lat":43.28416,"lon":5.34991,"is_reserved":false,"is_disabled":false,"rental_uris":{"android":"levelo://app?vid=c0dcaeac-d7a0-4225-820c-b6fc8131b438","ios":"levelo://app?vid=c0dcaeac-d7a0-4225-820c-b6fc8131b438"},"vehicle_type_id":"4","last_reported":1723997352,"current_range_meters":13200,"station_id":"ce4bhbh2rcd13ifvqepg","pricing_plan_id":"cebpf4jnsgd1na2vs0mg"},{"bike_id":"12b3aefb-d986-4cc1-969a-bc83a20ce3a9","system_id":"levelo_inurba_marseille","lat":43.284214,"lon":5.349706,"is_reserved":false,"is_disabled":false,"rental_uris":{"android":"levelo://app?vid=12b3aefb-d986-4cc1-969a-bc83a20ce3a9","ios":"levelo://app?vid=12b3aefb-d986-4cc1-969a-bc83a20ce3a9"},"vehicle_type_id":"4","last_reported":1723997352,"current_range_meters":31200,"station_id":"ce4bhbh2rcd13ifvqepg","pricing_plan_id":"cebpf4jnsgd1na2vs0mg"},{"bike_id":"6af442a8-6048-4e7d-9f58-f2ba7f83ff7a","system_id":"levelo_inurba_marseille","lat":43.2842,"lon":5.34976,"is_reserved":false,"is_disabled":false,"rental_uris":{"android":"levelo://app?vid=6af442a8-6048-4e7d-9f58-f2ba7f83ff7a","ios":"levelo://app?vid=6af442a8-6048-4e7d-9f58-f2ba7f83ff7a"},"vehicle_type_id":"4","last_reported":1723997352,"current_range_meters":21600,"station_id":"ce4bhbh2rcd13ifvqepg","pricing_plan_id":"cebpf4jnsgd1na2vs0mg"},{"bike_id":"4bd28766-9fff-4455-9ffc-9362c4061dfc","system_id":"levelo_inurba_marseille","lat":43.284217,"lon":5.349697,"is_reserved":false,"is_disabled":false,"rental_uris":{"android":"levelo://app?vid=4bd28766-9fff-4455-9ffc-9362c4061dfc","ios":"levelo://app?vid=4bd28766-9fff-4455-9ffc-9362c4061dfc"},"vehicle_type_id":"4","last_reported":1723997352,"current_range_meters":13200,"station_id":"ce4bhbh2rcd13ifvqepg","pricing_plan_id":"cebpf4jnsgd1na2vs0mg"},{"bike_id":"3c227755-a455-44ad-96eb-692a8d8949f6","system_id":"levelo_inurba_marseille","lat":43.28415,"lon":5.34988,"is_reserved":false,"is_disabled":false,"rental_uris":{"android":"levelo://app?vid=3c227755-a455-44ad-96eb-692a8d8949f6","ios":"levelo://app?vid=3c227755-a455-44ad-96eb-692a8d8949f6"},"vehicle_type_id":"4","last_reported":1723997352,"current_range_meters":12000,"station_id":"ce4bhbh2rcd13ifvqepg","pricing_plan_id":"cebpf4jnsgd1na2vs0mg"},