{"last_updated":1730480896,"ttl":60,"version":"2.2","data":{"bikes":[{"bike_id":"05b35a93-0e4a-46e1-b03e-d08730bc4653","system_id":"levelo_inurba_marseille","lat":43.28729,"lon":5.37934,"is_reserved":false,"is_disabled":false,"rental_uris":{"android":"levelo://app?vid=05b35a93-0e4a-46e1-b03e-d08730bc4653","ios":"levelo://app?vid=05b35a93-0e4a-46e1-b03e-d08730bc4653"},"vehicle_type_id":"4","last_reported":1730480896,"current_range_meters":6400,"station_id":"ce4bh9p2rcd13ifvqec0","pricing_plan_id":"cebpf4jnsgd1na2vs0mg"},{"bike_id":"4b4761a5-e987-4f8c-9b08-ce45a1ec0c1e","system_id":"levelo_inurba_marseille","lat":43.29435,"lon":5.39746,"is_reserved":false,"is_disabled":false,"rental_uris":{"android":"levelo://app?vid=4b4761a5-e987-4f8c-9b08-ce45a1ec0c1e","ios":"levelo://app?vid=4b4761a5-e987-4f8c-9b08-ce45a1ec0c1e"},"vehicle_type_id":"4","last_reported":1730480896,"current_range_meters":38800,"station_id":"ce4bh3h2rcd13ifvqdo0","pricing_plan_id":"cebpf4jnsgd1na2vs0mg"},{"bike_id":"4f4ebc16-b1d1-4ad6-83e1-a3bbb291e995","system_id":"levelo_inurba_marseille","lat":43.24673,"lon":5.38173,"is_reserved":false,"is_disabled":false,"rental_uris":{"android":"levelo://app?vid=4f4ebc16-b1d1-4ad6-83e1-a3bbb291e995","ios":"levelo://app?vid=4f4ebc16-b1d1-4ad6-83e1-a3bbb291e995"},"vehicle_type_id":"4","last_reported":1730480896,"current_range_meters":33600,"station_id":"ce4bhih2rcd13ifvqfr0","pricing_plan_id":"cebpf4jnsgd1na2vs0mg"},{"bike_id":"0ece6ada-ebe1-40d8-96ef-8b609c9fb01a","system_id":"levelo_inurba_marseille","lat":43.27963,"lon":5.38737,"is_reserved":false,"is_disabled":false,"rental_uris":{"android":"levelo://app?vid=0ece6ada-ebe1-40d8-96ef-8b609c9fb01a","ios":"levelo://app?vid=0ece6ada-ebe1-40d8-96ef-8b609c9fb01a"},"vehicle_type_id":"4","last_reported":1730480896,"current_range_meters":8000,"station_id":"ce4bhg12rcd13ifvqf80","pricing_plan_id":"cebpf4jnsgd1na2vs0mg"},{"bike_id":"72aeef7b-29fe-46b8-a95f-dcd59fc8c40f","system_id":"levelo_inurba_marseille","lat":43.2707,"lon":5.42278,"is_reserved":false,"is_disabled":false,"rental_uris":{"android":"levelo://app?vid=72aeef7b-29fe-46b8-a95f-dcd59fc8c40f","ios":"levelo://app?vid=72aeef7b-29fe-46b8-a95f-dcd59fc8c40f"},"vehicle_type_id":"4","last_reported":1730480896,"current_range_meters":24400,"station_id":"ce4bhk92rcd13ifvqgb0","pricing_plan_id":"cebpf4jnsgd1na2vs0mg"},{"bike_id":"8682c02d-b75e-4986-bf40-c0b0cf6578e7","system_id":"levelo_inurba_marseille","lat":43.32108,"lon":5.36777,"is_reserved":false,"is_disabled":false,"rental_uris":{"android":"levelo://app?vid=8682c02d-b75e-4986-bf40-c0b0cf6578e7","ios":"levelo://app?vid=8682c02d-b75e-4986-bf40-c0b0cf6578e7"},"vehicle_type_id":"4","last_reported":1730480896,"current_range_meters":6400,"station_id":"ce4bhrh2rcd13ifvqhug","pricing_plan_id":"cebpf4jnsgd1na2vs0mg"},{"bike_id":"f4585e26-1b29-48d3-8b37-58ec663397e9","system_id":"levelo_inurba_marseille","lat":43.28358,"lon":5.38098,"is_reserved":false,"is_disabled":false,"rental_uris":{"android":"levelo://app?vid=f4585e26-1b29-48d3-8b37-58ec663397e9","ios":"levelo://app?vid=f4585e26-1b29-48d3-8b37-58ec663397e9"},"vehicle_type_id":"4","last_reported":1730480896,"current_range_meters":38000,"station_id":"ce4bh412rcd13ifvqdr0","pricing_plan_id":"cebpf4jnsgd1na2vs0mg"},{"bike_id":"a4748aeb-70c4-4ff1-92f1-45babf49a075","system_id":"levelo_inurba_marseille","lat":43.27211,"lon":5.39185,"is_reserved":false,"is_disabled":false,"rental_uris":{"android":"levelo://app?vid=a4748aeb-70c4-4ff1-92f1-45babf49a075","ios":"levelo://app?vid=a4748aeb-70c4-4ff1-92f1-45babf49a075"},"vehicle_type_id":"4","last_reported":1730480896,"current_range_meters":12400,"station_id":"ce4bhhp2rcd13ifvqfm0","pricing_plan_id":"cebpf4jnsgd1na2vs0mg"},{"bike_id":"512c4bd5-3edb-49b7-a54a-bbe327a08aa0","system_id":"levelo_inurba_marseille","lat":43.25726,"lon":5.41114,"is_reserved":false,"is_disabled":false,"rental_uris":{"android":"levelo://app?vid=512c4bd5-3edb-49b7-a54a-bbe327a08aa0","ios":"levelo://app?vid=512c4bd5-3edb-49b7-a54a-bbe327a08aa0"},"vehicle_type_id":"4","last_reported":1730480896,"current_range_meters":17200,"station_id":"ce4bhkp2rcd13ifvqgd0","pricing_plan_id":"cebpf4jnsgd1na2vs0mg"},{"bike_id":"a4627486-a087-47d1-bdea-e9476cd49986","system_id":"levelo_inurba_marseille","lat":43.23198,"lon":5.35549,"is_reserved":false,"is_disabled":false,"rental_uris":{"android":"levelo://app?vid=a4627486-a087-47d1-bdea-e9476cd49986","ios":"levelo://app?vid=a4627486-a087-47d1-bdea-e9476cd49986"},"vehicle_type_id":"4","last_reported":1730480896,"current_range_meters":30800,"station_id":"ce4bhu92rcd13ifvqi70","pricing_plan_id":"cebpf4jnsgd1na2vs0mg"},{"bike_id":"ab10d8e9-2fb4-47ff-b674-d8405936167d","system_id":"levelo_inurba_marseille","lat":43.31226,"lon":5.36864,"is_reserved":false,"is_disabled":false,"rental_uris":{"android":"levelo://app?vid=ab10d8e9-2fb4-47ff-b674-d8405936167d","ios":"levelo://app?vid=ab10d8e9-2fb4-47ff-b674-d8405936167d"},"vehicle_type_id":"4","last_reported":1730480896,"current_range_meters":24800,"station_id":"ce4bgl92rcd13ifvqbq0","pricing_plan_id":"cebpf4jnsgd1na2vs0mg"},{"bike_id":"509a9bdc-ca48-4855-8040-748bb9b3087b","system_id":"levelo_inurba_marseille","lat":43.25936,"lon":5.40911,"is_reserved":false,"is_disabled":false,"rental_uris":{"android":"levelo://app?vid=509a9bdc-ca48-4855-8040-748bb9b3087b","ios":"levelo://app?vid=509a9bdc-ca48-4855-8040-748bb9b3087b"},"vehicle_type_id":"4","last_reported":1730480896,"current_range_meters":26800,"station_id":"ce4bhm92rcd13ifvqglg","pricing_plan_id":"cebpf4jnsgd1na2vs0mg"},{"bike_id":"5c556863-405c-40b3-9af2-63ce8c845b8c","system_id":"levelo_inurba_marseille","lat":43.24798,"lon":5.37451,"is_reserved":false,"is_disabled":false,"rental_uris":{"android":"levelo://app?vid=5c556863-405c-40b3-9af2-63ce8c845b8c","ios":"levelo://app?vid=5c556863-405c-40b3-9af2-63ce8c845b8c"},"vehicle_type_id":"4","last_reported":1730480896,"current_range_meters":1200,"station_id":"ce4bhgh2rcd13ifvqfb0","pricing_plan_id":"cebpf4jnsgd1na2vs0mg"},{"bike_id":"efbe383f-83c6-4df5-ac1f-ffa8f2e0197b","system_id":"levelo_inurba_marseille","lat":43.31335,"lon":5.39699,"is_reserved":false,"is_disabled":false,"rental_uris":{"android":"levelo://app?vid=efbe383f-83c6-4df5-ac1f-ffa8f2e0197b","ios":"levelo://app?vid=efbe383f-83c6-4df5-ac1f-ffa8f2e0197b"},"vehicle_type_id":"4","last_reported":1730480896,"current_range_meters":8800,"station_id":"ce4bgvp2rcd13ifvqcu0","pricing_plan_id":"cebpf4jnsgd1na2vs0mg"},{"bike_id":"190a3d9c-90b1-4866-922b-875011ebac89","system_id":"levelo_inurba_marseille","lat":43.29026,"lon":5.38131,"is_reserved":false,"is_disabled":false,"rental_uris":{"android":"levelo://app?vid=190a3d9c-90b1-4866-922b-875011ebac89","ios":"levelo://app?vid=190a3d9c-90b1-4866-922b-875011ebac89"},"vehicle_type_id":"4","last_reported":1730480896,"current_range_meters":20400,"station_id":"ce4bh4p2rcd13ifvqe1g","pricing_plan_id":"cebpf4jnsgd1na2vs0mg"},{"bike_id":"006e4a05-2eb4-4fe3-9f85-80f3fed4097a","system_id":"levelo_inurba_marseille","lat":43.26687,"lon":5.38264,"is_reserved":false,"is_disabled":false,"rental_uris":{"android":"levelo://app?vid=006e4a05-2eb4-4fe3-9f85-80f3fed4097a","ios":"levelo://app?vid=006e4a05-2eb4-4fe3-9f85-80f3fed4097a"},"vehicle_type_id":"4","last_reported":1730480896,"current_range_meters":14800,"station_id":"ce4bhg92rcd13ifvqf90","pricing_plan_id":"cebpf4jnsgd1na2vs0mg"},{"bike_id":"fa0b7708-dbd0-4f73-9509-9d531b9c5dae","system_id":"levelo_inurba_marseille","lat":43.26377,"lon":5.37782,"is_reserved":false,"is_disabled":false,"rental_uris":{"android":"levelo://app?vid=fa0b7708-dbd0-4f73-9509-9d531b9c5dae","ios":"levelo://app?vid=fa0b7708-dbd0-4f73-9509-9d531b9c5dae"},"vehicle_type_id":"4","last_reported":1730480896,"current_range_meters":24800,"station_id":"","pricing_plan_id":"cebpf4jnsgd1na2vs0mg"},{"bike_id":"947e02ee-2058-4daf-92e8-c2c03ab90ada","system_id":"levelo_inurba_marseille","lat":43.31705,"lon":5.37749,"is_reserved":false,"is_disabled":false,"rental_uris":{"android":"levelo://app?vid=947e02ee-2058-4daf-92e8-c2c03ab90ada","ios":"levelo://app?vid=947e02ee-2058-4daf-92e8-c2c03ab90ada"},"vehicle_type_id":"4","last_reported":1730480896,"current_range_meters":19200,"station_id":"ce4bgth2rcd13ifvqch0","pricing_plan_id":"cebpf4jnsgd1na2vs0mg"},{"bike_id":"276c9587-13b1-4ed9-a5c3-41b5dd9ac5c5","system_id":"levelo_inurba_marseille","lat":43.258255,"lon":5.394266,"is_reserved":false,"is_disabled":false,"rental_uris":{"android":"levelo://app?vid=276c9587-13b1-4ed9-a5c3-41b5dd9ac5c5","ios":"levelo://app?vid=276c9587-13b1-4ed9-a5c3-41b5dd9ac5c5"},"vehicle_type_id":"4","last_reported":1730480896,"current_range_meters":31200,"station_id":"ce4bhip2rcd13ifvqft0","pricing_plan_id":"cebpf4jnsgd1na2vs0mg"},{"bike_id":"84fce519-2272-4b93-8b0a-9d3ef213e2a6","system_id":"levelo_inurba_marseille","lat":43.29307,"lon":5.37462,"is_reserved":false,"is_disabled":false,"rental_uris":{"android":"levelo://app?vid=84fce519-2272-4b93-8b0a-9d3ef213e2a6","ios":"levelo://app?vid=84fce519-2272-4b93-8b0a-9d3ef213e2a6"},"vehicle_type_id":"4","last_reported":1730480896,"current_range_meters":8000,"station_id":"ce4bgi12rcd13ifvqb70","pricing_plan_id":"cebpf4jnsgd1na2vs0mg"},{"bike_id":"7afc5214-8216-4699-8494-af5d30295625","system_id":"levelo_inurba_marseille","lat":43.32285,"lon":5.38265,"is_reserved":false,"is_disabled":false,"rental_uris":{"android":"levelo://app?vid=7afc5214-8216-4699-8494-af5d30295625","ios":"levelo://app?vid=7afc5214-8216-4699-8494-af5d30295625"},"vehicle_type_id":"4","last_reported":1730480896,"current_range_meters":21600,"station_id":"ce4bhr12rcd13ifvqhqg","pricing_plan_id":"cebpf4jnsgd1na2vs0mg"},{"bike_id":"bb9f1271-71ba-488b-b3ee-71a04dac652d","system_id":"levelo_inurba_marseille","lat":43.29612,"lon":5.37722,"is_reserved":false,"is_disabled":false,"rental_uris":{"android":"levelo://app?vid=bb9f1271-71ba-488b-b3ee-71a04dac652d","ios":"levelo://app?vid=bb9f1271-71ba-488b-b3ee-71a04dac652d"},"vehicle_type_id":"4","last_reported":1730480896,"current_range_meters":5600,"station_id":"ce4bgi92rcd13ifvqb90","pricing_plan_id":"cebpf4jnsgd1na2vs0mg"},{"bike_id":"476b06cf-afe6-437a-ba24-86dd4a621edb","system_id":"levelo_inurba_marseille","lat":43.24539,"lon":5.39524,"is_reserved":false,"is_disabled":false,"rental_uris":{"android":"levelo://app?vid=476b06cf-afe6-437a-ba24-86dd4a621edb","ios":"levelo://app?vid=476b06cf-afe6-437a-ba24-86dd4a621edb"},"vehicle_type_id":"4","last_reported":1730480896,"current_range_meters":3600,"station_id":"ce4bhlp2rcd13ifvqgjg","pricing_plan_id":"cebpf4jnsgd1na2vs0mg"},{"bike_id":"3a553a2c-e023-4474-9540-63662b8b9562","system_id":"levelo_inurba_marseille","lat":43.28711,"lon":5.3795,"is_reserved":false,"is_disabled":false,"rental_uris":{"android":"levelo://app?vid=3a553a2c-e023-4474-9540-63662b8b9562","ios":"levelo://app?vid=3a553a2c-e023-4474-9540-63662b8b9562"},"vehicle_type_id":"4","last_reported":1730480896,"current_range_meters":24000,"station_id":"ce4bh9p2rcd13ifvqec0","pricing_plan_id":"cebpf4jnsgd1na2vs0mg"},{"bike_id":"8d57ff4a-4527-4b83-9e44-8fa879a3fb58","system_id":"levelo_inurba_marseille","lat":43.28561,"lon":5.395,"is_reserved":false,"is_disabled":false,"rental_uris":{"android":"levelo://app?vid=8d57ff4a-4527-4b83-9e44-8fa879a3fb58","ios":"levelo://app?vid=8d57ff4a-4527-4b83-9e44-8fa879a3fb58"},"vehicle_type_id":"4","last_reported":1730480896,"current_range_meters":30000,"station_id":"ce4bh292rcd13ifvqdg0","pricing_plan_id":"cebpf4jnsgd1na2vs0mg"},{"bike_id":"1bb12a0b-2bb6-4715-aefb-40a851a1254d","system_id":"levelo_inurba_marseille","lat":43.26213,"lon":5.37439,"is_reserved":false,"is_disabled":false,"rental_uris":{"android":"levelo://app?vid=1bb12a0b-2bb6-4715-aefb-40a851a1254d","ios":"levelo://app?vid=1bb12a0b-2bb6-4715-aefb-40a851a1254d"},"vehicle_type_id":"4","last_reported":1730480896,"current_range_meters":26800,"station_id":"ce4bhgp2rcd13ifvqfc0","pricing_plan_id":"cebpf4jnsgd1na2vs0mg"},{"bike_id":"a7125d65-74ce-495d-817a-4658be7b2ef8","system_id":"levelo_inurba_marseille","lat":43.28686,"lon":5.37387,"is_reserved":false,"is_disabled":false,"rental_uris":{"android":"levelo://app?vid=a7125d65-74ce-495d-817a-4658be7b2ef8","ios":"levelo://app?vid=a7125d65-74ce-495d-817a-4658be7b2ef8"},"vehicle_type_id":"4","last_reported":1730480896,"current_range_meters":21600,"station_id":"ce4bh3p2rcd13ifvqdq0","pricing_plan_id":"cebpf4jnsgd1na2vs0mg"},{"bike_id":"df313352-ada7-4bc9-a4c0-177a4b77cf99","system_id":"levelo_inurba_marseille","lat":43.28848,"lon":5.3931,"is_reserved":false,"is_disabled":false,"rental_uris":{"android":"levelo://app?vid=df313352-ada7-4bc9-a4c0-177a4b77cf99","ios":"levelo://app?vid=df313352-ada7-4bc9-a4c0-177a4b77cf99"},"vehicle_type_id":"4","last_reported":1730480896,"current_range_meters":24400,"station_id":"ce4bh2p2rcd13ifvqdi0","pricing_plan_id":"cebpf4jnsgd1na2vs0mg"},{"bike_id":"7e0922b8-af05-4d5e-aea2-6e11d68145dd","system_id":"levelo_inurba_marseille","lat":43.28666,"lon":5.38678,"is_reserved":false,"is_disabled":false,"rental_uris":{"android":"levelo://app?vid=7e0922b8-af05-4d5e-aea2-6e11d68145dd","ios":"levelo://app?vid=7e0922b8-af05-4d5e-aea2-6e11d68145dd"},"vehicle_type_id":"4","last_reported":1730480896,"current_range_meters":39200,"station_id":"ce4bh492rcd13ifvqdug","pricing_plan_id":"cebpf4jnsgd1na2vs0mg"},{"bike_id":"46a6a64b-7288-4ea7-8d75-1eac437167db","system_id":"levelo_inurba_marseille","lat":43.294117,"lon":5.386361,"is_reserved":false,"is_disabled":false,"rental_uris":{"android":"levelo://app?vid=46a6a64b-7288-4ea7-8d75-1eac437167db","ios":"levelo://app?vid=46a6a64b-7288-4ea7-8d75-1eac437167db"},"vehicle_type_id":"4","last_reported":1730480896,"current_range_meters":39200,"station_id":"ce4bh2h2rcd13ifvqdh0","pricing_plan_id":"cebpf4jnsgd1na2vs0mg"},{"bike_id":"2eda8c49-123c-4e4b-ba4f-d343273eb69d","system_id":"levelo_inurba_marseille","lat":43.29375,"lon":5.37858,"is_reserved":false,"is_disabled":false,"rental_uris":{"android":"levelo://app?vid=2eda8c49-123c-4e4b-ba4f-d343273eb69d","ios":"levelo://app?vid=2eda8c49-123c-4e4b-ba4f-d343273eb69d"},"vehicle_type_id":"4","last_reported":1730480896,"current_range_meters":27600,"station_id":"ce4bgjh2rcd13ifvqbf0","pricing_plan_id":"cebpf4jnsgd1na2vs0mg"},{"bike_id":"d5cc3b1a-2d11-43a5-a32b-b3d146f40d91","system_id":"levelo_inurba_marseille","lat":43.29552,"lon":5.42287,"is_reserved":false,"is_disabled":false,"rental_uris":{"android":"levelo://app?vid=d5cc3b1a-2d11-43a5-a32b-b3d146f40d91","ios":"levelo://app?vid=d5cc3b1a-2d11-43a5-a32b-b3d146f40d91"},"vehicle_type_id":"4","last_reported":1730480896,"current_range_meters":39200,"station_id":"ce4bhph2rcd13ifvqhdg","pricing_plan_id":"cebpf4jnsgd1na2vs0mg"},{"bike_id":"90d5d68c-138a-4f05-95ba-e50b716963cc","system_id":"levelo_inurba_marseille","lat":43.29272,"lon":5.38448,"is_reserved":false,"is_disabled":false,"rental_uris":{"android":"levelo://app?vid=90d5d68c-138a-4f05-95ba-e50b716963cc","ios":"levelo://app?vid=90d5d68c-138a-4f05-95ba-e50b716963cc"},"vehicle_type_id":"4","last_reported":1730480896,"current_range_meters":33200,"station_id":"ce4bh692rcd13ifvqea0","pricing_plan_id":"cebpf4jnsgd1na2vs0mg"},{"bike_id":"df6c180f-66af-4ad3-8bda-acc65a972bb5","system_id":"levelo_inurba_marseille","lat":43.26026,"lon":5.37551,"is_reserved":false,"is_disabled":false,"rental_uris":{"android":"levelo://app?vid=df6c180f-66af-4ad3-8bda-acc65a972bb5","ios":"levelo://app?vid=df6c180f-66af-4ad3-8bda-acc65a972bb5"},"vehicle_type_id":"4","last_reported":1730480896,"current_range_meters":30000,"station_id":"ce4bhgh2rcd13ifvqfa0","pricing_plan_id":"cebpf4jnsgd1na2vs0mg"},{"bike_id":"9938ebcd-9900-4f33-ae62-087d07b91466","system_id":"levelo_inurba_marseille","lat":43.25727,"lon":5.41109,"is_reserved":false,"is_disabled":false,"rental_uris":{"android":"levelo://app?vid=9938ebcd-9900-4f33-ae62-087d07b91466","ios":"levelo://app?vid=9938ebcd-9900-4f33-ae62-087d07b91466"},"vehicle_type_id":"4","last_reported":1730480896,"current_range_meters":38800,"station_id":"ce4bhkp2rcd13ifvqgd0","pricing_plan_id":"cebpf4jnsgd1na2vs0mg"},{"bike_id":"23e5277a-875b-4643-aa51-2cf6a855f0e5","system_id":"levelo_inurba_marseille","lat":43.28153,"lon":5.42648,"is_reserved":false,"is_disabled":false,"rental_uris":{"android":"levelo://app?vid=23e5277a-875b-4643-aa51-2cf6a855f0e5","ios":"levelo://app?vid=23e5277a-875b-4643-aa51-2cf6a855f0e5"},"vehicle_type_id":"4","last_reported":1730480896,"current_range_meters":9200,"station_id":"ce4bhnh2rcd13ifvqgug","pricing_plan_id":"cebpf4jnsgd1na2vs0mg"},{"bike_id":"e960ac30-070e-494a-a9c1-effafcd9c6f4","system_id":"levelo_inurba_marseille","lat":43.29449,"lon":5.39597,"is_reserved":false,"is_disabled":false,"rental_uris":{"android":"levelo://app?vid=e960ac30-070e-494a-a9c1-effafcd9c6f4","ios":"levelo://app?vid=e960ac30-070e-494a-a9c1-effafcd9c6f4"},"vehicle_type_id":"4","last_reported":1730480896,"current_range_meters":19600,"station_id":"","pricing_plan_id":"cebpf4jnsgd1na2vs0mg"},{"bike_id":"e88bce18-5080-4503-afe2-a948bda99fe8","system_id":"levelo_inurba_marseille","lat":43.29967,"lon":5.38502,"is_reserved":false,"is_disabled":false,"rental_uris":{"android":"levelo://app?vid=e88bce18-5080-4503-afe2-a948bda99fe8","ios":"levelo://app?vid=e88bce18-5080-4503-afe2-a948bda99fe8"},"vehicle_type_id":"4","last_reported":1730480896,"current_range_meters":38800,"station_id":"ce4bgj92rcd13ifvqbd0","pricing_plan_id":"cebpf4jnsgd1na2vs0mg"},{"bike_id":"2d24cbdf-87a0-4d3c-a958-6b481330a665","system_id":"levelo_inurba_marseille","lat":43.2718,"lon":5.41002,"is_reserved":false,"is_disabled":false,"rental_uris":{"android":"levelo://app?vid=2d24cbdf-87a0-4d3c-a958-6b481330a665","ios":"levelo://app?vid=2d24cbdf-87a0-4d3c-a958-6b481330a665"},"vehicle_type_id":"4","last_reported":1730480896,"current_range_meters":8800,"station_id":"ce4bhl12rcd13ifvqgf0","pricing_plan_id":"cebpf4jnsgd1na2vs0mg"},{"bike_id":"a63b9fb5-56f7-422f-b390-b53b9a4eff8b","system_id":"levelo_inurba_marseille","lat":43.2318,"lon":5.40024,"is_reserved":false,"is_disabled":false,"rental_uris":{"android":"levelo://app?vid=a63b9fb5-56f7-422f-b390-b53b9a4eff8b","ios":"levelo://app?vid=a63b9fb5-56f7-422f-b390-b53b9a4eff8b"},"vehicle_type_id":"4","last_reported":1730480896,"current_range_meters":9200,"station_id":"ce4bhn12rcd13ifvqgqg","pricing_plan_id":"cebpf4jnsgd1na2vs0mg"},{"bike_id":"bd4e2b20-1aa1-479f-bd96-ad4e0572a62c","system_id":"levelo_inurba_marseille","lat":43.32476,"lon":5.36587,"is_reserved":false,"is_disabled":false,"rental_uris":{"android":"levelo://app?vid=bd4e2b20-1aa1-479f-bd96-ad4e0572a62c","ios":"levelo://app?vid=bd4e2b20-1aa1-479f-bd96-ad4e0572a62c"},"vehicle_type_id":"4","last_reported":1730480896,"current_range_meters":29600,"station_id":"ce4bhs12rcd13ifvqhvg","pricing_plan_id":"cebpf4jnsgd1na2vs0mg"},{"bike_id":"4c5fd537-f98f-42ed-8bfc-39560a732049","system_id":"levelo_inurba_marseille","lat":43.287109,"lon":5.379422,"is_reserved":false,"is_disabled":false,"rental_uris":{"android":"levelo://app?vid=4c5fd537-f98f-42ed-8bfc-39560a732049","ios":"levelo://app?vid=4c5fd537-f98f-42ed-8bfc-39560a732049"},"vehicle_type_id":"4","last_reported":1730480896,"current_range_meters":4800,"station_id":"ce4bh9p2rcd13ifvqec0","pricing_plan_id":"cebpf4jnsgd1na2vs0mg"},{"bike_id":"c2156f05-7689-4dbe-9776-0f37e549dc18","system_id":"levelo_inurba_marseille","lat":43.29068,"lon":5.37153,"is_reserved":false,"is_disabled":false,"rental_uris":{"android":"levelo://app?vid=c2156f05-7689-4dbe-9776-0f37e549dc18","ios":"levelo://app?vid=c2156f05-7689-4dbe-9776-0f37e549dc18"},"vehicle_type_id":"4","last_reported":1730480896,"current_range_meters":17200,"station_id":"ce4bh5p2rcd13ifvqe4g","pricing_plan_id":"cebpf4jnsgd1na2vs0mg"},{"bike_id":"c50f83b6-11db-4219-a047-7ab50a9641ac","system_id":"levelo_inurba_marseille","lat":43.30596,"lon":5.39359,"is_reserved":false,"is_disabled":false,"rental_uris":{"android":"levelo://app?vid=c50f83b6-11db-4219-a047-7ab50a9641ac","ios":"levelo://app?vid=c50f83b6-11db-4219-a047-7ab50a9641ac"},"vehicle_type_id":"4","last_reported":1730480896,"current_range_meters":39200,"station_id":"ce4bh0p2rcd13ifvqd80","pricing_plan_id":"cebpf4jnsgd1na2vs0mg"},{"bike_id":"252d99f9-a24d-4bbd-ac9e-4bf014a0a6d1","system_id":"levelo_inurba_marseille","lat":43.286234,"lon":5.380705,"is_reserved":false,"is_disabled":false,"rental_uris":{"android":"levelo://app?vid=252d99f9-a24d-4bbd-ac9e-4bf014a0a6d1","ios":"levelo://app?vid=252d99f9-a24d-4bbd-ac9e-4bf014a0a6d1"},"vehicle_type_id":"4","last_reported":1730480896,"current_range_meters":6000,"station_id":"ce4bhbh2rcd13ifvqepg","pricing_plan_id":"cebpf4jnsgd1na2vs0mg"},{"bike_id":"af7b33ce-f24c-40e3-9f8e-dfe7b8d0fdca","system_id":"levelo_inurba_marseille","lat":43.28598,"lon":5.351021,"is_reserved":false,"is_disabled":false,"rental_uris":{"android":"levelo://app?vid=af7b33ce-f24c-40e3-9f8e-dfe7b8d0fdca","ios":"levelo://app?vid=af7b33ce-f24c-40e3-9f8e-dfe7b8d0fdca"},"vehicle_type_id":"4","last_reported":1730480896,"current_range_meters":8400,"station_id":"ce4bgip2rcd13ifvqbb0","pricing_plan_id":"cebpf4jnsgd1na2vs0mg"},{"bike_id":"658dacf4-7ef3-4634-8126-9bbd88e5a6eb","system_id":"levelo_inurba_marseille","lat":43.23198,"lon":5.35554,"is_reserved":false,"is_disabled":false,"rental_uris":{"android":"levelo://app?vid=658dacf4-7ef3-4634-8126-9bbd88e5a6eb","ios":"levelo://app?vid=658dacf4-7ef3-4634-8126-9bbd88e5a6eb"},"vehicle_type_id":"4","last_reported":1730480896,"current_range_meters":24000,"station_id":"ce4bhu92rcd13ifvqi70","pricing_plan_id":"cebpf4jnsgd1na2vs0mg"},{"bike_id":"145a6d53-b60c-40c0-9d37-4907245241b3","system_id":"levelo_inurba_marseille","lat":43.303,"lon":5.36898,"is_reserved":false,"is_disabled":false,"rental_uris":{"android":"levelo://app?vid=145a6d53-b60c-40c0-9d37-4907245241b3","ios":"levelo://app?vid=145a6d53-b60c-40c0-9d37-4907245241b3"},"vehicle_type_id":"4","last_reported":1730480896,"current_range_meters":36800,"station_id":"ce4bgqh2rcd13ifvqc5g","pricing_plan_id":"cebpf4jnsgd1na2vs0mg"},{"bike_id":"e62e38a9-284c-4b15-bfe8-8b214b98f04b","system_id":"levelo_inurba_marseille","lat":43.23055,"lon":5.35495,"is_reserved":false,"is_disabled":false,"rental_uris":{"android":"levelo://app?vid=e62e38a9-284c-4b15-bfe8-8b214b98f04b","ios":"levelo://app?vid=e62e38a9-284c-4b15-bfe8-8b214b98f04b"},"vehicle_type_id":"4","last_reported":1730480896,"current_range_meters":26000,"station_id":"cpo3342slgdg3j2ifvpg","pricing_plan_id":"cebpf4jnsgd1na2vs0mg"},{"bike_id":"522cf0ac-265a-440b-92ae-96252ff4b6fc","system_id":"levelo_inurba_marseille","lat":43.29032,"lon":5.38642,"is_reserved":false,"is_disabled":false,"rental_uris":{"android":"levelo://app?vid=522cf0ac-265a-440b-92ae-96252ff4b6fc","ios":"levelo://app?vid=522cf0ac-265a-440b-92ae-96252ff4b6fc"},"vehicle_type_id":"4","last_reported":1730480896,"current_range_meters":22000,"station_id":"ce4bh4p2rcd13ifvqe0g","pricing_plan_id":"cebpf4jnsgd1na2vs0mg"},{"bike_id":"5080e729-7358-4ad7-a95f-c2d775bea9ec","system_id":"levelo_inurba_marseille","lat":43.31277,"lon":5.401678,"is_reserved":false,"is_disabled":false,"rental_uris":{"android":"levelo://app?vid=5080e729-7358-4ad7-a95f-c2d775bea9ec","ios":"levelo://app?vid=5080e729-7358-4ad7-a95f-c2d775bea9ec"},"vehicle_type_id":"4","last_reported":1730480896,"current_range_meters":39200,"station_id":"ce4bh092rcd13ifvqd30","pricing_plan_id":"cebpf4jnsgd1na2vs0mg"},{"bike_id":"a0549040-4993-4a87-bdbb-b16c852e1889","system_id":"levelo_inurba_marseille","lat":43.2784,"lon":5.39206,"is_reserved":false,"is_disabled":false,"rental_uris":{"android":"levelo://app?vid=a0549040-4993-4a87-bdbb-b16c852e1889","ios":"levelo://app?vid=a0549040-4993-4a87-bdbb-b16c852e1889"},"vehicle_type_id":"4","last_reported":1730480896,"current_range_meters":37600,"station_id":"ce4bhjp2rcd13ifvqga0","pricing_plan_id":"cebpf4jnsgd1na2vs0mg"},{"bike_id":"1bfce3ac-3e31-4bf9-99cb-86153faa19f4","system_id":"levelo_inurba_marseille","lat":43.26775,"lon":5.39421,"is_reserved":false,"is_disabled":false,"rental_uris":{"android":"levelo://app?vid=1bfce3ac-3e31-4bf9-99cb-86153faa19f4","ios":"levelo://app?vid=1bfce3ac-3e31-4bf9-99cb-86153faa19f4"},"vehicle_type_id":"4","last_reported":1730480896,"current_range_meters":6800,"station_id":"ce4bhh12rcd13ifvqfg0","pricing_plan_id":"cebpf4jnsgd1na2vs0mg"},{"bike_id":"6b084eea-e1ea-4308-bb49-75cb07209cfe","system_id":"levelo_inurba_marseille","lat":43.32489,"lon":5.36566,"is_reserved":false,"is_disabled":false,"rental_uris":{"android":"levelo://app?vid=6b084eea-e1ea-4308-bb49-75cb07209cfe","ios":"levelo://app?vid=6b084eea-e1ea-4308-bb49-75cb07209cfe"},"vehicle_type_id":"4","last_reported":1730480896,"current_range_meters":34000,"station_id":"ce4bhs12rcd13ifvqhvg","pricing_plan_id":"cebpf4jnsgd1na2vs0mg"},{"bike_id":"b890158d-4cc0-42ea-b1b1-cf934d08cc8a","system_id":"levelo_inurba_marseille","lat":43.32363,"lon":5.38885,"is_reserved":false,"is_disabled":false,"rental_uris":{"android":"levelo://app?vid=b890158d-4cc0-42ea-b1b1-cf934d08cc8a","ios":"levelo://app?vid=b890158d-4cc0-42ea-b1b1-cf934d08cc8a"},"vehicle_type_id":"4","last_reported":1730480896,"current_range_meters":32000,"station_id":"ce4bhqp2rcd13ifvqhog","pricing_plan_id":"cebpf4jnsgd1na2vs0mg"},{"bike_id":"fe9625bd-3854-4eec-a593-8fa0f2878c84","system_id":"levelo_inurba_marseille","lat":43.29527,"lon":5.38545,"is_reserved":false,"is_disabled":false,"rental_uris":{"android":"levelo://app?vid=fe9625bd-3854-4eec-a593-8fa0f2878c84","ios":"levelo://app?vid=fe9625bd-3854-4eec-a593-8fa0f2878c84"},"vehicle_type_id":"4","last_reported":1730480896,"current_range_meters":16800,"station_id":"ce4bgih2rcd13ifvqba0","pricing_plan_id":"cebpf4jnsgd1na2vs0mg"},{"bike_id":"569b0fbe-ed72-417d-9e56-1ca18cf64965","system_id":"levelo_inurba_marseille","lat":43.29704,"lon":5.3616,"is_reserved":false,"is_disabled":false,"rental_uris":{"android":"levelo://app?vid=569b0fbe-ed72-417d-9e56-1ca18cf64965","ios":"levelo://app?vid=569b0fbe-ed72-417d-9e56-1ca18cf64965"},"vehicle_type_id":"4","last_reported":1730480896,"current_range_meters":36400,"station_id":"","pricing_plan_id":"cebpf4jnsgd1na2vs0mg"},{"bike_id":"3a55db0f-9569-425e-93c7-715a0cc229d5","system_id":"levelo_inurba_marseille","lat":43.303,"lon":5.36887,"is_reserved":false,"is_disabled":false,"rental_uris":{"android":"levelo://app?vid=3a55db0f-9569-425e-93c7-715a0cc229d5","ios":"levelo://app?vid=3a55db0f-9569-425e-93c7-715a0cc229d5"},"vehicle_type_id":"4","last_reported":1730480896,"current_range_meters":34800,"station_id":"ce4bgqh2rcd13ifvqc5g","pricing_plan_id":"cebpf4jnsgd1na2vs0mg"},{"bike_id":"6a0c8005-9604-4532-97a5-bf0c496901c7","system_id":"levelo_inurba_marseille","lat":43.32361,"lon":5.38875,"is_reserved":false,"is_disabled":false,"rental_uris":{"android":"levelo://app?vid=6a0c8005-9604-4532-97a5-bf0c496901c7","ios":"levelo://app?vid=6a0c8005-9604-4532-97a5-bf0c496901c7"},"vehicle_type_id":"4","last_reported":1730480896,"current_range_meters":38400,"station_id":"ce4bhqp2rcd13ifvqhog","pricing_plan_id":"cebpf4jnsgd1na2vs0mg"},{"bike_id":"fa7676c1-2639-4b99-bd6e-8a5d76a8230f","system_id":"levelo_inurba_marseille","lat":43.29087,"lon":5.38138,"is_reserved":false,"is_disabled":false,"rental_uris":{"android":"levelo://app?vid=fa7676c1-2639-4b99-bd6e-8a5d76a8230f","ios":"levelo://app?vid=fa7676c1-2639-4b99-bd6e-8a5d76a8230f"},"vehicle_type_id":"4","last_reported":1730480896,"current_range_meters":20400,"station_id":"ce4bh512rcd13ifvqe2g","pricing_plan_id":"cebpf4jnsgd1na2vs0mg"},{"bike_id":"3c082f3f-630f-4777-8939-9e7a2e83bd2f","system_id":"levelo_inurba_marseille","lat":43.29215,"lon":5.36057,"is_reserved":false,"is_disabled":false,"rental_uris":{"android":"levelo://app?vid=3c082f3f-630f-4777-8939-9e7a2e83bd2f","ios":"levelo://app?vid=3c082f3f-630f-4777-8939-9e7a2e83bd2f"},"vehicle_type_id":"4","last_reported":1730480896,"current_range_meters":36800,"station_id":"ce4bhbh2rcd13ifvqeqg","pricing_plan_id":"cebpf4jnsgd1na2vs0mg"},{"bike_id":"049a7769-5cc9-4e52-b73a-056766374462","system_id":"levelo_inurba_marseille","lat":43.28713,"lon":5.37927,"is_reserved":false,"is_disabled":false,"rental_uris":{"android":"levelo://app?vid=049a7769-5cc9-4e52-b73a-056766374462","ios":"levelo://app?vid=049a7769-5cc9-4e52-b73a-056766374462"},"vehicle_type_id":"4","last_reported":1730480896,"current_range_meters":23200,"station_id":"ce4bh9p2rcd13ifvqec0","pricing_plan_id":"cebpf4jnsgd1na2vs0mg"},{"bike_id":"016a4bf1-781c-43c3-9a9e-b42149c36362","system_id":"levelo_inurba_marseille","lat":43.28346,"lon":5.38103,"is_reserved":false,"is_disabled":false,"rental_uris":{"android":"levelo://app?vid=016a4bf1-781c-43c3-9a9e-b42149c36362","ios":"levelo://app?vid=016a4bf1-781c-43c3-9a9e-b42149c36362"},"vehicle_type_id":"4","last_reported":1730480896,"current_range_meters":8000,"station_id":"ce4bh412rcd13ifvqdr0","pricing_plan_id":"cebpf4jnsgd1na2vs0mg"},{"bike_id":"fbce631f-76d5-4720-b0fe-ac537ff16654","system_id":"levelo_inurba_marseille","lat":43.29906,"lon":5.37469,"is_reserved":false,"is_disabled":false,"rental_uris":{"android":"levelo://app?vid=fbce631f-76d5-4720-b0fe-ac537ff16654","ios":"levelo://app?vid=fbce631f-76d5-4720-b0fe-ac537ff16654"},"vehicle_type_id":"4","last_reported":1730480896,"current_range_meters":20000,"station_id":"ce4bgjh2rcd13ifvqbg0","pricing_plan_id":"cebpf4jnsgd1na2vs0mg"},{"bike_id":"2494737e-ee3f-4579-b37a-46586af395ea","system_id":"levelo_inurba_marseille","lat":43.26062,"lon":5.39399,"is_reserved":false,"is_disabled":false,"rental_uris":{"android":"levelo://app?vid=2494737e-ee3f-4579-b37a-46586af395ea","ios":"levelo://app?vid=2494737e-ee3f-4579-b37a-46586af395ea"},"vehicle_type_id":"4","last_reported":1730480896,"current_range_meters":17600,"station_id":"ce4bhh92rcd13ifvqfj0","pricing_plan_id":"cebpf4jnsgd1na2vs0mg"},{"bike_id":"b0176a28-527c-42b9-b750-f1dad8510223","system_id":"levelo_inurba_marseille","lat":43.29777,"lon":5.37912,"is_reserved":false,"is_disabled":false,"rental_uris":{"android":"levelo://app?vid=b0176a28-527c-42b9-b750-f1dad8510223","ios":"levelo://app?vid=b0176a28-527c-42b9-b750-f1dad8510223"},"vehicle_type_id":"4","last_reported":1730480896,"current_range_meters":33600,"station_id":"","pricing_plan_id":"cebpf4jnsgd1na2vs0mg"},{"bike_id":"df27df7d-e20c-4949-b0b3-a67be5ecea1d","system_id":"levelo_inurba_marseille","lat":43.2781,"lon":5.40712,"is_reserved":false,"is_disabled":false,"rental_uris":{"android":"levelo://app?vid=df27df7d-e20c-4949-b0b3-a67be5ecea1d","ios":"levelo://app?vid=df27df7d-e20c-4949-b0b3-a67be5ecea1d"},"vehicle_type_id":"4","last_reported":1730480896,"current_range_meters":23200,"station_id":"ce4bhnh2rcd13ifvqgtg","pricing_plan_id":"cebpf4jnsgd1na2vs0mg"},{"bike_id":"d3e1031d-5971-4d39-b357-cb59855ed522","system_id":"levelo_inurba_marseille","lat":43.25824,"lon":5.39438,"is_reserved":false,"is_disabled":false,"rental_uris":{"android":"levelo://app?vid=d3e1031d-5971-4d39-b357-cb59855ed522","ios":"levelo://app?vid=d3e1031d-5971-4d39-b357-cb59855ed522"},"vehicle_type_id":"4","last_reported":1730480896,"current_range_meters":20000,"station_id":"ce4bhip2rcd13ifvqft0","pricing_plan_id":"cebpf4jnsgd1na2vs0mg"},{"bike_id":"e21335a2-4c03-4d87-bf65-f92d0169b049","system_id":"levelo_inurba_marseille","lat":43.23192,"lon":5.35556,"is_reserved":false,"is_disabled":false,"rental_uris":{"android":"levelo://app?vid=e21335a2-4c03-4d87-bf65-f92d0169b049","ios":"levelo://app?vid=e21335a2-4c03-4d87-bf65-f92d0169b049"},"vehicle_type_id":"4","last_reported":1730480896,"current_range_meters":16400,"station_id":"ce4bhu92rcd13ifvqi70","pricing_plan_id":"cebpf4jnsgd1na2vs0mg"},{"bike_id":"01377f0b-aec9-4132-843a-03f134d2a4fa","system_id":"levelo_inurba_marseille","lat":43.27661,"lon":5.388797,"is_reserved":false,"is_disabled":false,"rental_uris":{"android":"levelo://app?vid=01377f0b-aec9-4132-843a-03f134d2a4fa","ios":"levelo://app?vid=01377f0b-aec9-4132-843a-03f134d2a4fa"},"vehicle_type_id":"4","last_reported":1730480896,"current_range_meters":8400,"station_id":"ce4bhi12rcd13ifvqfo0","pricing_plan_id":"cebpf4jnsgd1na2vs0mg"},{"bike_id":"18402065-9e87-476b-95ad-30853de181a0","system_id":"levelo_inurba_marseille","lat":43.32456,"lon":5.45548,"is_reserved":false,"is_disabled":false,"rental_uris":{"android":"levelo://app?vid=18402065-9e87-476b-95ad-30853de181a0","ios":"levelo://app?vid=18402065-9e87-476b-95ad-30853de181a0"},"vehicle_type_id":"4","last_reported":1730480896,"current_range_meters":10800,"station_id":"","pricing_plan_id":"cebpf4jnsgd1na2vs0mg"},{"bike_id":"be294046-deaf-44bd-a85a-00bdfc9b3ae8","system_id":"levelo_inurba_marseille","lat":43.2693,"lon":5.38916,"is_reserved":false,"is_disabled":false,"rental_uris":{"android":"levelo://app?vid=be294046-deaf-44bd-a85a-00bdfc9b3ae8","ios":"levelo://app?vid=be294046-deaf-44bd-a85a-00bdfc9b3ae8"},"vehicle_type_id":"4","last_reported":1730480896,"current_range_meters":14000,"station_id":"ce4bhhh2rcd13ifvqfl0","pricing_plan_id":"cebpf4jnsgd1na2vs0mg"},{"bike_id":"f7afa9be-4b26-4404-927c-6d5553b61ad5","system_id":"levelo_inurba_marseille","lat":43.26566,"lon":5.39002,"is_reserved":false,"is_disabled":false,"rental_uris":{"android":"levelo://app?vid=f7afa9be-4b26-4404-927c-6d5553b61ad5","ios":"levelo://app?vid=f7afa9be-4b26-4404-927c-6d5553b61ad5"},"vehicle_type_id":"4","last_reported":1730480896,"current_range_meters":19200,"station_id":"ce4bhe12rcd13ifvqf30","pricing_plan_id":"cebpf4jnsgd1na2vs0mg"},{"bike_id":"d85943f3-6184-4372-abc1-6d1c66c130db","system_id":"levelo_inurba_marseille","lat":43.310807,"lon":5.42433,"is_reserved":false,"is_disabled":false,"rental_uris":{"android":"levelo://app?vid=d85943f3-6184-4372-abc1-6d1c66c130db","ios":"levelo://app?vid=d85943f3-6184-4372-abc1-6d1c66c130db"},"vehicle_type_id":"4","last_reported":1730480896,"current_range_meters":7200,"station_id":"ce4bhp92rcd13ifvqhag","pricing_plan_id":"cebpf4jnsgd1na2vs0mg"},{"bike_id":"4419cd0a-6448-49d4-b7a7-716da84b3c9d","system_id":"levelo_inurba_marseille","lat":43.24389,"lon":5.3706,"is_reserved":false,"is_disabled":false,"rental_uris":{"android":"levelo://app?vid=4419cd0a-6448-49d4-b7a7-716da84b3c9d","ios":"levelo://app?vid=4419cd0a-6448-49d4-b7a7-716da84b3c9d"},"vehicle_type_id":"4","last_reported":1730480896,"current_range_meters":19200,"station_id":"ce4bhhh2rcd13ifvqfk0","pricing_plan_id":"cebpf4jnsgd1na2vs0mg"},{"bike_id":"da1a89eb-2ddd-423c-a6a3-a9402dcb5dfc","system_id":"levelo_inurba_marseille","lat":43.29378,"lon":5.37869,"is_reserved":false,"is_disabled":false,"rental_uris":{"android":"levelo://app?vid=da1a89eb-2ddd-423c-a6a3-a9402dcb5dfc","ios":"levelo://app?vid=da1a89eb-2ddd-423c-a6a3-a9402dcb5dfc"},"vehicle_type_id":"4","last_reported":1730480896,"current_range_meters":34800,"station_id":"ce4bgjh2rcd13ifvqbf0","pricing_plan_id":"cebpf4jnsgd1na2vs0mg"},{"bike_id":"a9289d85-aed2-4ac1-9b90-0d4eb2813a41","system_id":"levelo_inurba_marseille","lat":43.27205,"lon":5.39178,"is_reserved":false,"is_disabled":false,"rental_uris":{"android":"levelo://app?vid=a9289d85-aed2-4ac1-9b90-0d4eb2813a41","ios":"levelo://app?vid=a9289d85-aed2-4ac1-9b90-0d4eb2813a41"},"vehicle_type_id":"4","last_reported":1730480896,"current_range_meters":4400,"station_id":"ce4bhhp2rcd13ifvqfm0","pricing_plan_id":"cebpf4jnsgd1na2vs0mg"},{"bike_id":"16ce40d0-c273-461a-9e9d-91cc95198691","system_id":"levelo_inurba_marseille","lat":43.29962,"lon":5.38498,"is_reserved":false,"is_disabled":false,"rental_uris":{"android":"levelo://app?vid=16ce40d0-c273-461a-9e9d-91cc95198691","ios":"levelo://app?vid=16ce40d0-c273-461a-9e9d-91cc95198691"},"vehicle_type_id":"4","last_reported":1730480896,"current_range_meters":30800,"station_id":"ce4bgj92rcd13ifvqbd0","pricing_plan_id":"cebpf4jnsgd1na2vs0mg"},{"bike_id":"ce1ade0e-215e-4aea-9060-90b37139feca","system_id":"levelo_inurba_marseille","lat":43.33594,"lon":5.41027,"is_reserved":false,"is_disabled":false,"rental_uris":{"android":"levelo://app?vid=ce1ade0e-215e-4aea-9060-90b37139feca","ios":"levelo://app?vid=ce1ade0e-215e-4aea-9060-90b37139feca"},"vehicle_type_id":"4","last_reported":1730480896,"current_range_meters":17600,"station_id":"ce4bhqh2rcd13ifvqhmg","pricing_plan_id":"cebpf4jnsgd1na2vs0mg"},{"bike_id":"6839ab5e-4b95-46fb-aacf-bc5b6f154750","system_id":"levelo_inurba_marseille","lat":43.27922,"lon":5.38021,"is_reserved":false,"is_disabled":false,"rental_uris":{"android":"levelo://app?vid=6839ab5e-4b95-46fb-aacf-bc5b6f154750","ios":"levelo://app?vid=6839ab5e-4b95-46fb-aacf-bc5b6f154750"},"vehicle_type_id":"4","last_reported":1730480896,"current_range_meters":27600,"station_id":"ce4bhf92rcd13ifvqf50","pricing_plan_id":"cebpf4jnsgd1na2vs0mg"},{"bike_id":"1b7788e5-cf27-4a51-a530-2bd2e70693ba","system_id":"levelo_inurba_marseille","lat":43.29635,"lon":5.406,"is_reserved":false,"is_disabled":false,"rental_uris":{"android":"levelo://app?vid=1b7788e5-cf27-4a51-a530-2bd2e70693ba","ios":"levelo://app?vid=1b7788e5-cf27-4a51-a530-2bd2e70693ba"},"vehicle_type_id":"4","last_reported":1730480896,"current_range_meters":32800,"station_id":"ce4bh0h2rcd13ifvqd60","pricing_plan_id":"cebpf4jnsgd1na2vs0mg"},{"bike_id":"c3c71192-9e19-4b13-84f1-7f8b554e0568","system_id":"levelo_inurba_marseille","lat":43.295776,"lon":5.367098,"is_reserved":false,"is_disabled":false,"rental_uris":{"android":"levelo://app?vid=c3c71192-9e19-4b13-84f1-7f8b554e0568","ios":"levelo://app?vid=c3c71192-9e19-4b13-84f1-7f8b554e0568"},"vehicle_type_id":"4","last_reported":1730480896,"current_range_meters":8400,"station_id":"ce4bgph2rcd13ifvqc2g","pricing_plan_id":"cebpf4jnsgd1na2vs0mg"},{"bike_id":"33b24ba8-59ac-4ab4-8dfc-38d7252a48d2","system_id":"levelo_inurba_marseille","lat":43.29526,"lon":5.39415,"is_reserved":false,"is_disabled":false,"rental_uris":{"android":"levelo://app?vid=33b24ba8-59ac-4ab4-8dfc-38d7252a48d2","ios":"levelo://app?vid=33b24ba8-59ac-4ab4-8dfc-38d7252a48d2"},"vehicle_type_id":"4","last_reported":1730480896,"current_range_meters":3600,"station_id":"ce4bh292rcd13ifvqdf0","pricing_plan_id":"cebpf4jnsgd1na2vs0mg"},{"bike_id":"ee03de3b-d1e7-4762-ad87-bea9b273c5d3","system_id":"levelo_inurba_marseille","lat":43.29371,"lon":5.37846,"is_reserved":false,"is_disabled":false,"rental_uris":{"android":"levelo://app?vid=ee03de3b-d1e7-4762-ad87-bea9b273c5d3","ios":"levelo://app?vid=ee03de3b-d1e7-4762-ad87-bea9b273c5d3"},"vehicle_type_id":"4","last_reported":1730480896,"current_range_meters":24800,"station_id":"ce4bgjh2rcd13ifvqbf0","pricing_plan_id":"cebpf4jnsgd1na2vs0mg"},{"bike_id":"2b22eaf7-9d3a-4e2c-974b-cef333c0254f","system_id":"levelo_inurba_marseille","lat":43.25497,"lon":5.37651,"is_reserved":false,"is_disabled":false,"rental_uris":{"android":"levelo://app?vid=2b22eaf7-9d3a-4e2c-974b-cef333c0254f","ios":"levelo://app?vid=2b22eaf7-9d3a-4e2c-974b-cef333c0254f"},"vehicle_type_id":"4","last_reported":1730480896,"current_range_meters":26000,"station_id":"ce4bhih2rcd13ifvqfs0","pricing_plan_id":"cebpf4jnsgd1na2vs0mg"},{"bike_id":"1823c886-7120-4ffa-b924-97aa8a9ea939","system_id":"levelo_inurba_marseille","lat":43.29981,"lon":5.3718,"is_reserved":false,"is_disabled":false,"rental_uris":{"android":"levelo://app?vid=1823c886-7120-4ffa-b924-97aa8a9ea939","ios":"levelo://app?vid=1823c886-7120-4ffa-b924-97aa8a9ea939"},"vehicle_type_id":"4","last_reported":1730480896,"current_range_meters":39200,"station_id":"ce4bgr92rcd13ifvqc7g","pricing_plan_id":"cebpf4jnsgd1na2vs0mg"},{"bike_id":"09d6f4ad-9c19-4924-90b8-a89f792e9550","system_id":"levelo_inurba_marseille","lat":43.24168,"lon":5.36398,"is_reserved":false,"is_disabled":false,"rental_uris":{"android":"levelo://app?vid=09d6f4ad-9c19-4924-90b8-a89f792e9550","ios":"levelo://app?vid=09d6f4ad-9c19-4924-90b8-a89f792e9550"},"vehicle_type_id":"4","last_reported":1730480896,"current_range_meters":38800,"station_id":"cpo36qri1sfpv3e86is0","pricing_plan_id":"cebpf4jnsgd1na2vs0mg"},{"bike_id":"0ed68df8-f16b-48e1-8dca-3de2c5a2efd8","system_id":"levelo_inurba_marseille","lat":43.29106,"lon":5.41748,"is_reserved":false,"is_disabled":false,"rental_uris":{"android":"levelo://app?vid=0ed68df8-f16b-48e1-8dca-3de2c5a2efd8","ios":"levelo://app?vid=0ed68df8-f16b-48e1-8dca-3de2c5a2efd8"},"vehicle_type_id":"4","last_reported":1730480896,"current_range_meters":17600,"station_id":"","pricing_plan_id":"cebpf4jnsgd1na2vs0mg"},{"bike_id":"f6447ff3-be1a-4453-9a61-e7e0a23af984","system_id":"levelo_inurba_marseille","lat":43.29774,"lon":5.37107,"is_reserved":false,"is_disabled":false,"rental_uris":{"android":"levelo://app?vid=f6447ff3-be1a-4453-9a61-e7e0a23af984","ios":"levelo://app?vid=f6447ff3-be1a-4453-9a61-e7e0a23af984"},"vehicle_type_id":"4","last_reported":1730480896,"current_range_meters":38800,"station_id":"ce4bgop2rcd13ifvqc1g","pricing_plan_id":"cebpf4jnsgd1na2vs0mg"},{"bike_id":"8fa1110a-fa4b-46bc-99d4-d3c579d8e890","system_id":"levelo_inurba_marseille","lat":43.28844,"lon":5.35951,"is_reserved":false,"is_disabled":false,"rental_uris":{"android":"levelo://app?vid=8fa1110a-fa4b-46bc-99d4-d3c579d8e890","ios":"levelo://app?vid=8fa1110a-fa4b-46bc-99d4-d3c579d8e890"},"vehicle_type_id":"4","last_reported":1730480896,"current_range_meters":19200,"station_id":"","pricing_plan_id":"cebpf4jnsgd1na2vs0mg"},{"bike_id":"29c17652-89eb-4e67-8df9-1af1bdc73f02","system_id":"levelo_inurba_marseille","lat":43.312012,"lon":5.36778,"is_reserved":false,"is_disabled":false,"rental_uris":{"android":"levelo://app?vid=29c17652-89eb-4e67-8df9-1af1bdc73f02","ios":"levelo://app?vid=29c17652-89eb-4e67-8df9-1af1bdc73f02"},"vehicle_type_id":"4","last_reported":1730480896,"current_range_meters":26000,"station_id":"ce4bgl92rcd13ifvqbq0","pricing_plan_id":"cebpf4jnsgd1na2vs0mg"},{"bike_id":"794d23c0-def7-4557-a69a-112ea268f585","system_id":"levelo_inurba_marseille","lat":43.23198,"lon":5.35551,"is_reserved":false,"is_disabled":false,"rental_uris":{"android":"levelo://app?vid=794d23c0-def7-4557-a69a-112ea268f585","ios":"levelo://app?vid=794d23c0-def7-4557-a69a-112ea268f585"},"vehicle_type_id":"4","last_reported":1730480896,"current_range_meters":38800,"station_id":"ce4bhu92rcd13ifvqi70","pricing_plan_id":"cebpf4jnsgd1na2vs0mg"},{"bike_id":"c9fe9305-e5b5-403a-8ac6-ee784523647c","system_id":"levelo_inurba_marseille","lat":43.23426,"lon":5.35947,"is_reserved":false,"is_disabled":false,"rental_uris":{"android":"levelo://app?vid=c9fe9305-e5b5-403a-8ac6-ee784523647c","ios":"levelo://app?vid=c9fe9305-e5b5-403a-8ac6-ee784523647c"},"vehicle_type_id":"4","last_reported":1730480896,"current_range_meters":22400,"station_id":"","pricing_plan_id":"cebpf4jnsgd1na2vs0mg"},{"bike_id":"19e6008c-0743-45ac-b4bf-fc683ef0e14c","system_id":"levelo_inurba_marseille","lat":43.25719,"lon":5.41112,"is_reserved":false,"is_disabled":false,"rental_uris":{"android":"levelo://app?vid=19e6008c-0743-45ac-b4bf-fc683ef0e14c","ios":"levelo://app?vid=19e6008c-0743-45ac-b4bf-fc683ef0e14c"},"vehicle_type_id":"4","last_reported":1730480896,"current_range_meters":29600,"station_id":"ce4bhkp2rcd13ifvqgd0","pricing_plan_id":"cebpf4jnsgd1na2vs0mg"},{"bike_id":"36c69d2a-0dd9-4787-8384-293980b02ab5","system_id":"levelo_inurba_marseille","lat":43.30145,"lon":5.38077,"is_reserved":false,"is_disabled":false,"rental_uris":{"android":"levelo://app?vid=36c69d2a-0dd9-4787-8384-293980b02ab5","ios":"levelo://app?vid=36c69d2a-0dd9-4787-8384-293980b02ab5"},"vehicle_type_id":"4","last_reported":1730480896,"current_range_meters":29600,"station_id":"ce4bgjp2rcd13ifvqbh0","pricing_plan_id":"cebpf4jnsgd1na2vs0mg"},{"bike_id":"e4e24e96-5d78-43a7-b1f9-03bf958a4628","system_id":"levelo_inurba_marseille","lat":43.27861,"lon":5.380091,"is_reserved":false,"is_disabled":false,"rental_uris":{"android":"levelo://app?vid=e4e24e96-5d78-43a7-b1f9-03bf958a4628","ios":"levelo://app?vid=e4e24e96-5d78-43a7-b1f9-03bf958a4628"},"vehicle_type_id":"4","last_reported":1730480896,"current_range_meters":14000,"station_id":"ce4bhf92rcd13ifvqf50","pricing_plan_id":"cebpf4jnsgd1na2vs0mg"},{"bike_id":"e98b454f-f6a3-4f09-b929-235eaa0d33fa","system_id":"levelo_inurba_marseille","lat":43.273407,"lon":5.362799,"is_reserved":false,"is_disabled":false,"rental_uris":{"android":"levelo://app?vid=e98b454f-f6a3-4f09-b929-235eaa0d33fa","ios":"levelo://app?vid=e98b454f-f6a3-4f09-b929-235eaa0d33fa"},"vehicle_type_id":"4","last_reported":1730480896,"current_range_meters":28800,"station_id":"ce4bh292rcd13ifvqdg0","pricing_plan_id":"cebpf4jnsgd1na2vs0mg"},{"bike_id":"8fbacf44-3257-404c-a81e-573a832c6a9f","system_id":"levelo_inurba_marseille","lat":43.28713,"lon":5.37935,"is_reserved":false,"is_disabled":false,"rental_uris":{"android":"levelo://app?vid=8fbacf44-3257-404c-a81e-573a832c6a9f","ios":"levelo://app?vid=8fbacf44-3257-404c-a81e-573a832c6a9f"},"vehicle_type_id":"4","last_reported":1730480896,"current_range_meters":22000,"station_id":"ce4bh9p2rcd13ifvqec0","pricing_plan_id":"cebpf4jnsgd1na2vs0mg"},{"bike_id":"9371ec22-28e8-4a60-ad3e-a03e315b6981","system_id":"levelo_inurba_marseille","lat":43.26683,"lon":5.38271,"is_reserved":false,"is_disabled":false,"rental_uris":{"android":"levelo://app?vid=9371ec22-28e8-4a60-ad3e-a03e315b6981","ios":"levelo://app?vid=9371ec22-28e8-4a60-ad3e-a03e315b6981"},"vehicle_type_id":"4","last_reported":1730480896,"current_range_meters":38800,"station_id":"ce4bhg92rcd13ifvqf90","pricing_plan_id":"cebpf4jnsgd1na2vs0mg"},{"bike_id":"e0fe1391-6bd3-41e9-8250-2659e81b1e2b","system_id":"levelo_inurba_marseille","lat":43.27836,"lon":5.39207,"is_reserved":false,"is_disabled":false,"rental_uris":{"android":"levelo://app?vid=e0fe1391-6bd3-41e9-8250-2659e81b1e2b","ios":"levelo://app?vid=e0fe1391-6bd3-41e9-8250-2659e81b1e2b"},"vehicle_type_id":"4","last_reported":1730480896,"current_range_meters":28000,"station_id":"ce4bhjp2rcd13ifvqga0","pricing_plan_id":"cebpf4jnsgd1na2vs0mg"},{"bike_id":"367151e3-d9d1-496e-afc3-1d3ad14f98c6","system_id":"levelo_inurba_marseille","lat":43.32368,"lon":5.38885,"is_reserved":false,"is_disabled":false,"rental_uris":{"android":"levelo://app?vid=367151e3-d9d1-496e-afc3-1d3ad14f98c6","ios":"levelo://app?vid=367151e3-d9d1-496e-afc3-1d3ad14f98c6"},"vehicle_type_id":"4","last_reported":1730480896,"current_range_meters":36400,"station_id":"ce4bhqp2rcd13ifvqhog","pricing_plan_id":"cebpf4jnsgd1na2vs0mg"},{"bike_id":"6345230e-f6a0-407f-8be7-e1e90f767494","system_id":"levelo_inurba_marseille","lat":43.27373,"lon":5.36277,"is_reserved":false,"is_disabled":false,"rental_uris":{"android":"levelo://app?vid=6345230e-f6a0-407f-8be7-e1e90f767494","ios":"levelo://app?vid=6345230e-f6a0-407f-8be7-e1e90f767494"},"vehicle_type_id":"4","last_reported":1730480896,"current_range_meters":24800,"station_id":"ce4bhbh2rcd13ifvqeo0","pricing_plan_id":"cebpf4jnsgd1na2vs0mg"},{"bike_id":"b308451d-42cb-41d1-b5a5-a3a56d0b89d4","system_id":"levelo_inurba_marseille","lat":43.29027,"lon":5.38636,"is_reserved":false,"is_disabled":false,"rental_uris":{"android":"levelo://app?vid=b308451d-42cb-41d1-b5a5-a3a56d0b89d4","ios":"levelo://app?vid=b308451d-42cb-41d1-b5a5-a3a56d0b89d4"},"vehicle_type_id":"4","last_reported":1730480896,"current_range_meters":4800,"station_id":"ce4bh4p2rcd13ifvqe0g","pricing_plan_id":"cebpf4jnsgd1na2vs0mg"},{"bike_id":"d9f4849d-e86e-456c-b489-1270d3d404f7","system_id":"levelo_inurba_marseille","lat":43.31163,"lon":5.38722,"is_reserved":false,"is_disabled":false,"rental_uris":{"android":"levelo://app?vid=d9f4849d-e86e-456c-b489-1270d3d404f7","ios":"levelo://app?vid=d9f4849d-e86e-456c-b489-1270d3d404f7"},"vehicle_type_id":"4","last_reported":1730480896,"current_range_meters":32800,"station_id":"ce4bgv12rcd13ifvqcp0","pricing_plan_id":"cebpf4jnsgd1na2vs0mg"},{"bike_id":"57d18951-2001-4003-92d2-aa5cb684af8c","system_id":"levelo_inurba_marseille","lat":43.2712,"lon":5.39453,"is_reserved":false,"is_disabled":false,"rental_uris":{"android":"levelo://app?vid=57d18951-2001-4003-92d2-aa5cb684af8c","ios":"levelo://app?vid=57d18951-2001-4003-92d2-aa5cb684af8c"},"vehicle_type_id":"4","last_reported":1730480896,"current_range_meters":21600,"station_id":"","pricing_plan_id":"cebpf4jnsgd1na2vs0mg"},{"bike_id":"6d92fbc9-1212-480c-9fcd-cf158c9bd688","system_id":"levelo_inurba_marseille","lat":43.24167,"lon":5.36401,"is_reserved":false,"is_disabled":false,"rental_uris":{"android":"levelo://app?vid=6d92fbc9-1212-480c-9fcd-cf158c9bd688","ios":"levelo://app?vid=6d92fbc9-1212-480c-9fcd-cf158c9bd688"},"vehicle_type_id":"4","last_reported":1730480896,"current_range_meters":18000,"station_id":"cpo36qri1sfpv3e86is0","pricing_plan_id":"cebpf4jnsgd1na2vs0mg"},{"bike_id":"2800e1c8-c4e0-4b44-87a1-51e0b26a30d3","system_id":"levelo_inurba_marseille","lat":43.28844,"lon":5.39305,"is_reserved":false,"is_disabled":false,"rental_uris":{"android":"levelo://app?vid=2800e1c8-c4e0-4b44-87a1-51e0b26a30d3","ios":"levelo://app?vid=2800e1c8-c4e0-4b44-87a1-51e0b26a30d3"},"vehicle_type_id":"4","last_reported":1730480896,"current_range_meters":7200,"station_id":"ce4bh2p2rcd13ifvqdi0","pricing_plan_id":"cebpf4jnsgd1na2vs0mg"},{"bike_id":"e8bb2e43-06e1-4662-9540-13b29d948ad5","system_id":"levelo_inurba_marseille","lat":43.33725,"lon":5.39187,"is_reserved":false,"is_disabled":false,"rental_uris":{"android":"levelo://app?vid=e8bb2e43-06e1-4662-9540-13b29d948ad5","ios":"levelo://app?vid=e8bb2e43-06e1-4662-9540-13b29d948ad5"},"vehicle_type_id":"4","last_reported":1730480896,"current_range_meters":8000,"station_id":"ce4bhr92rcd13ifvqhsg","pricing_plan_id":"cebpf4jnsgd1na2vs0mg"},{"bike_id":"a9674731-0331-4984-b60f-be9a4a501ff6","system_id":"levelo_inurba_marseille","lat":43.24166,"lon":5.36397,"is_reserved":false,"is_disabled":false,"rental_uris":{"android":"levelo://app?vid=a9674731-0331-4984-b60f-be9a4a501ff6","ios":"levelo://app?vid=a9674731-0331-4984-b60f-be9a4a501ff6"},"vehicle_type_id":"4","last_reported":1730480896,"current_range_meters":16400,"station_id":"cpo36qri1sfpv3e86is0","pricing_plan_id":"cebpf4jnsgd1na2vs0mg"},{"bike_id":"3d6fd9b5-d089-4528-8d03-e74fa73acfa8","system_id":"levelo_inurba_marseille","lat":43.29527,"lon":5.37507,"is_reserved":false,"is_disabled":false,"rental_uris":{"android":"levelo://app?vid=3d6fd9b5-d089-4528-8d03-e74fa73acfa8","ios":"levelo://app?vid=3d6fd9b5-d089-4528-8d03-e74fa73acfa8"},"vehicle_type_id":"4","last_reported":1730480896,"current_range_meters":20800,"station_id":"ce4bgkp2rcd13ifvqbmg","pricing_plan_id":"cebpf4jnsgd1na2vs0mg"},{"bike_id":"94279a57-03c0-47b7-abe3-7226e86fd3b0","system_id":"levelo_inurba_marseille","lat":43.27613,"lon":5.36113,"is_reserved":false,"is_disabled":false,"rental_uris":{"android":"levelo://app?vid=94279a57-03c0-47b7-abe3-7226e86fd3b0","ios":"levelo://app?vid=94279a57-03c0-47b7-abe3-7226e86fd3b0"},"vehicle_type_id":"4","last_reported":1730480896,"current_range_meters":24800,"station_id":"ce4bgj92rcd13ifvqbe0","pricing_plan_id":"cebpf4jnsgd1na2vs0mg"},{"bike_id":"fb29912c-07ce-4969-9ffc-3120e8a970f5","system_id":"levelo_inurba_marseille","lat":43.295224,"lon":5.385407,"is_reserved":false,"is_disabled":false,"rental_uris":{"android":"levelo://app?vid=fb29912c-07ce-4969-9ffc-3120e8a970f5","ios":"levelo://app?vid=fb29912c-07ce-4969-9ffc-3120e8a970f5"},"vehicle_type_id":"4","last_reported":1730480896,"current_range_meters":16400,"station_id":"ce4bgt92rcd13ifvqcg0","pricing_plan_id":"cebpf4jnsgd1na2vs0mg"},{"bike_id":"6cdada4d-910a-4275-bce7-09cdc5904740","system_id":"levelo_inurba_marseille","lat":43.33024,"lon":5.39044,"is_reserved":false,"is_disabled":false,"rental_uris":{"android":"levelo://app?vid=6cdada4d-910a-4275-bce7-09cdc5904740","ios":"levelo://app?vid=6cdada4d-910a-4275-bce7-09cdc5904740"},"vehicle_type_id":"4","last_reported":1730480896,"current_range_meters":8000,"station_id":"ce4bhr92rcd13ifvqhrg","pricing_plan_id":"cebpf4jnsgd1na2vs0mg"},{"bike_id":"b9e3f5f8-ee7e-43e9-b538-f99c28b441d6","system_id":"levelo_inurba_marseille","lat":43.29257,"lon":5.40896,"is_reserved":false,"is_disabled":false,"rental_uris":{"android":"levelo://app?vid=b9e3f5f8-ee7e-43e9-b538-f99c28b441d6","ios":"levelo://app?vid=b9e3f5f8-ee7e-43e9-b538-f99c28b441d6"},"vehicle_type_id":"4","last_reported":1730480896,"current_range_meters":11200,"station_id":"ce4bh192rcd13ifvqdc0","pricing_plan_id":"cebpf4jnsgd1na2vs0mg"},{"bike_id":"ce7a9679-1309-4337-a277-05901a838b7d","system_id":"levelo_inurba_marseille","lat":43.29346,"lon":5.43431,"is_reserved":false,"is_disabled":false,"rental_uris":{"android":"levelo://app?vid=ce7a9679-1309-4337-a277-05901a838b7d","ios":"levelo://app?vid=ce7a9679-1309-4337-a277-05901a838b7d"},"vehicle_type_id":"4","last_reported":1730480896,"current_range_meters":16400,"station_id":"","pricing_plan_id":"cebpf4jnsgd1na2vs0mg"},{"bike_id":"00d8b132-526c-4b61-8a33-be4241d59d10","system_id":"levelo_inurba_marseille","lat":43.267914,"lon":5.394101,"is_reserved":false,"is_disabled":false,"rental_uris":{"android":"levelo://app?vid=00d8b132-526c-4b61-8a33-be4241d59d10","ios":"levelo://app?vid=00d8b132-526c-4b61-8a33-be4241d59d10"},"vehicle_type_id":"4","last_reported":1730480896,"current_range_meters":15200,"station_id":"ce4bhh12rcd13ifvqfg0","pricing_plan_id":"cebpf4jnsgd1na2vs0mg"},{"bike_id":"c50f7c29-aa48-4c19-aea5-ad96fd005783","system_id":"levelo_inurba_marseille","lat":43.28659,"lon":5.38677,"is_reserved":false,"is_disabled":false,"rental_uris":{"android":"levelo://app?vid=c50f7c29-aa48-4c19-aea5-ad96fd005783","ios":"levelo://app?vid=c50f7c29-aa48-4c19-aea5-ad96fd005783"},"vehicle_type_id":"4","last_reported":1730480896,"current_range_meters":3600,"station_id":"ce4bh492rcd13ifvqdug","pricing_plan_id":"cebpf4jnsgd1na2vs0mg"},{"bike_id":"3802bc3c-5beb-4db6-98c3-3fde0bace741","system_id":"levelo_inurba_marseille","lat":43.3137,"lon":5.38488,"is_reserved":false,"is_disabled":false,"rental_uris":{"android":"levelo://app?vid=3802bc3c-5beb-4db6-98c3-3fde0bace741","ios":"levelo://app?vid=3802bc3c-5beb-4db6-98c3-3fde0bace741"},"vehicle_type_id":"4","last_reported":1730480896,"current_range_meters":9600,"station_id":"ce4bgt92rcd13ifvqcf0","pricing_plan_id":"cebpf4jnsgd1na2vs0mg"},{"bike_id":"1e18dfb5-00e2-4104-9729-5dfebd04b3b4","system_id":"levelo_inurba_marseille","lat":43.32661,"lon":5.4099,"is_reserved":false,"is_disabled":false,"rental_uris":{"android":"levelo://app?vid=1e18dfb5-00e2-4104-9729-5dfebd04b3b4","ios":"levelo://app?vid=1e18dfb5-00e2-4104-9729-5dfebd04b3b4"},"vehicle_type_id":"4","last_reported":1730480896,"current_range_meters":38000,"station_id":"ce4bhpp2rcd13ifvqhgg","pricing_plan_id":"cebpf4jnsgd1na2vs0mg"},{"bike_id":"5bf83bd3-fe95-4881-9266-a1f339568134","system_id":"levelo_inurba_marseille","lat":43.28477,"lon":5.38433,"is_reserved":false,"is_disabled":false,"rental_uris":{"android":"levelo://app?vid=5bf83bd3-fe95-4881-9266-a1f339568134","ios":"levelo://app?vid=5bf83bd3-fe95-4881-9266-a1f339568134"},"vehicle_type_id":"4","last_reported":1730480896,"current_range_meters":38400,"station_id":"ce4bh512rcd13ifvqe3g","pricing_plan_id":"cebpf4jnsgd1na2vs0mg"},{"bike_id":"86b8ebb1-5435-48ac-9db3-cc93f71dc9eb","system_id":"levelo_inurba_marseille","lat":43.30307,"lon":5.36901,"is_reserved":false,"is_disabled":false,"rental_uris":{"android":"levelo://app?vid=86b8ebb1-5435-48ac-9db3-cc93f71dc9eb","ios":"levelo://app?vid=86b8ebb1-5435-48ac-9db3-cc93f71dc9eb"},"vehicle_type_id":"4","last_reported":1730480896,"current_range_meters":7200,"station_id":"ce4bgqh2rcd13ifvqc5g","pricing_plan_id":"cebpf4jnsgd1na2vs0mg"},{"bike_id":"6f446db5-4c4a-4691-98f0-6a025869ecf5","system_id":"levelo_inurba_marseille","lat":43.2721,"lon":5.39187,"is_reserved":false,"is_disabled":false,"rental_uris":{"android":"levelo://app?vid=6f446db5-4c4a-4691-98f0-6a025869ecf5","ios":"levelo://app?vid=6f446db5-4c4a-4691-98f0-6a025869ecf5"},"vehicle_type_id":"4","last_reported":1730480896,"current_range_meters":32400,"station_id":"ce4bhhp2rcd13ifvqfm0","pricing_plan_id":"cebpf4jnsgd1na2vs0mg"},{"bike_id":"8a337328-8c57-4685-a4eb-c0b9998fa90e","system_id":"levelo_inurba_marseille","lat":43.28469,"lon":5.38422,"is_reserved":false,"is_disabled":false,"rental_uris":{"android":"levelo://app?vid=8a337328-8c57-4685-a4eb-c0b9998fa90e","ios":"levelo://app?vid=8a337328-8c57-4685-a4eb-c0b9998fa90e"},"vehicle_type_id":"4","last_reported":1730480896,"current_range_meters":32000,"station_id":"ce4bh512rcd13ifvqe3g","pricing_plan_id":"cebpf4jnsgd1na2vs0mg"},{"bike_id":"41d47d69-979b-4480-8fb6-135de4b1e8ff","system_id":"levelo_inurba_marseille","lat":43.2572,"lon":5.41112,"is_reserved":false,"is_disabled":false,"rental_uris":{"android":"levelo://app?vid=41d47d69-979b-4480-8fb6-135de4b1e8ff","ios":"levelo://app?vid=41d47d69-979b-4480-8fb6-135de4b1e8ff"},"vehicle_type_id":"4","last_reported":1730480896,"current_range_meters":39200,"station_id":"ce4bhkp2rcd13ifvqgd0","pricing_plan_id":"cebpf4jnsgd1na2vs0mg"},{"bike_id":"8454a295-5e4c-4c6b-9074-03d808c05811","system_id":"levelo_inurba_marseille","lat":43.27915,"lon":5.39583,"is_reserved":false,"is_disabled":false,"rental_uris":{"android":"levelo://app?vid=8454a295-5e4c-4c6b-9074-03d808c05811","ios":"levelo://app?vid=8454a295-5e4c-4c6b-9074-03d808c05811"},"vehicle_type_id":"4","last_reported":1730480896,"current_range_meters":38800,"station_id":"ce4bhf92rcd13ifvqf40","pricing_plan_id":"cebpf4jnsgd1na2vs0mg"},{"bike_id":"aedd0170-267a-4b99-bf90-cda30ee29225","system_id":"levelo_inurba_marseille","lat":43.29537,"lon":5.37512,"is_reserved":false,"is_disabled":false,"rental_uris":{"android":"levelo://app?vid=aedd0170-267a-4b99-bf90-cda30ee29225","ios":"levelo://app?vid=aedd0170-267a-4b99-bf90-cda30ee29225"},"vehicle_type_id":"4","last_reported":1730480896,"current_range_meters":16800,"station_id":"ce4bgkp2rcd13ifvqbmg","pricing_plan_id":"cebpf4jnsgd1na2vs0mg"},{"bike_id":"f0d635e0-b4c7-42d1-ba6f-99ad69e7f984","system_id":"levelo_inurba_marseille","lat":43.31729,"lon":5.42403,"is_reserved":false,"is_disabled":false,"rental_uris":{"android":"levelo://app?vid=f0d635e0-b4c7-42d1-ba6f-99ad69e7f984","ios":"levelo://app?vid=f0d635e0-b4c7-42d1-ba6f-99ad69e7f984"},"vehicle_type_id":"4","last_reported":1730480896,"current_range_meters":39200,"station_id":"ce4bhp92rcd13ifvqhbg","pricing_plan_id":"cebpf4jnsgd1na2vs0mg"},{"bike_id":"93310f76-e215-420c-9d69-4fb79824b67a","system_id":"levelo_inurba_marseille","lat":43.28275,"lon":5.3506,"is_reserved":false,"is_disabled":false,"rental_uris":{"android":"levelo://app?vid=93310f76-e215-420c-9d69-4fb79824b67a","ios":"levelo://app?vid=93310f76-e215-420c-9d69-4fb79824b67a"},"vehicle_type_id":"4","last_reported":1730480896,"current_range_meters":27600,"station_id":"ce4bhbp2rcd13ifvqerg","pricing_plan_id":"cebpf4jnsgd1na2vs0mg"},{"bike_id":"2e679aa2-6222-4666-94d2-8febbbac34cf","system_id":"levelo_inurba_marseille","lat":43.28898,"lon":5.4806,"is_reserved":false,"is_disabled":false,"rental_uris":{"android":"levelo://app?vid=2e679aa2-6222-4666-94d2-8febbbac34cf","ios":"levelo://app?vid=2e679aa2-6222-4666-94d2-8febbbac34cf"},"vehicle_type_id":"4","last_reported":1730480896,"current_range_meters":6400,"station_id":"","pricing_plan_id":"cebpf4jnsgd1na2vs0mg"},{"bike_id":"08161e80-0eaf-410f-ab4f-9155ed557666","system_id":"levelo_inurba_marseille","lat":43.29982,"lon":5.38485,"is_reserved":false,"is_disabled":false,"rental_uris":{"android":"levelo://app?vid=08161e80-0eaf-410f-ab4f-9155ed557666","ios":"levelo://app?vid=08161e80-0eaf-410f-ab4f-9155ed557666"},"vehicle_type_id":"4","last_reported":1730480896,"current_range_meters":22800,"station_id":"ce4bgj92rcd13ifvqbd0","pricing_plan_id":"cebpf4jnsgd1na2vs0mg"},{"bike_id":"0597baac-0976-4b01-ac18-b7c5f29d68f4","system_id":"levelo_inurba_marseille","lat":43.28712,"lon":5.37935,"is_reserved":false,"is_disabled":false,"rental_uris":{"android":"levelo://app?vid=0597baac-0976-4b01-ac18-b7c5f29d68f4","ios":"levelo://app?vid=0597baac-0976-4b01-ac18-b7c5f29d68f4"},"vehicle_type_id":"4","last_reported":1730480896,"current_range_meters":24000,"station_id":"ce4bh9p2rcd13ifvqec0","pricing_plan_id":"cebpf4jnsgd1na2vs0mg"},{"bike_id":"1dca45a8-0336-4041-83cb-7a06ca40420d","system_id":"levelo_inurba_marseille","lat":43.2319,"lon":5.35559,"is_reserved":false,"is_disabled":false,"rental_uris":{"android":"levelo://app?vid=1dca45a8-0336-4041-83cb-7a06ca40420d","ios":"levelo://app?vid=1dca45a8-0336-4041-83cb-7a06ca40420d"},"vehicle_type_id":"4","last_reported":1730480896,"current_range_meters":8400,"station_id":"ce4bhu92rcd13ifvqi70","pricing_plan_id":"cebpf4jnsgd1na2vs0mg"},{"bike_id":"589ac114-e349-4d4d-aae5-325daa9a810d","system_id":"levelo_inurba_marseille","lat":43.28411,"lon":5.37513,"is_reserved":false,"is_disabled":false,"rental_uris":{"android":"levelo://app?vid=589ac114-e349-4d4d-aae5-325daa9a810d","ios":"levelo://app?vid=589ac114-e349-4d4d-aae5-325daa9a810d"},"vehicle_type_id":"4","last_reported":1730480896,"current_range_meters":4400,"station_id":"ce4bh412rcd13ifvqds0","pricing_plan_id":"cebpf4jnsgd1na2vs0mg"},{"bike_id":"5e009c35-9d88-4f66-bd94-1eb3233a1fac","system_id":"levelo_inurba_marseille","lat":43.29525,"lon":5.38537,"is_reserved":false,"is_disabled":false,"rental_uris":{"android":"levelo://app?vid=5e009c35-9d88-4f66-bd94-1eb3233a1fac","ios":"levelo://app?vid=5e009c35-9d88-4f66-bd94-1eb3233a1fac"},"vehicle_type_id":"4","last_reported":1730480896,"current_range_meters":27600,"station_id":"ce4bgih2rcd13ifvqba0","pricing_plan_id":"cebpf4jnsgd1na2vs0mg"},{"bike_id":"5804714d-ac69-4ae7-864c-bc5e2f8291c8","system_id":"levelo_inurba_marseille","lat":43.28467,"lon":5.38409,"is_reserved":false,"is_disabled":false,"rental_uris":{"android":"levelo://app?vid=5804714d-ac69-4ae7-864c-bc5e2f8291c8","ios":"levelo://app?vid=5804714d-ac69-4ae7-864c-bc5e2f8291c8"},"vehicle_type_id":"4","last_reported":1730480896,"current_range_meters":16400,"station_id":"ce4bh512rcd13ifvqe3g","pricing_plan_id":"cebpf4jnsgd1na2vs0mg"},{"bike_id":"50732fdc-c284-4aea-af5d-764e99e4bf7c","system_id":"levelo_inurba_marseille","lat":43.295807,"lon":5.377091,"is_reserved":false,"is_disabled":false,"rental_uris":{"android":"levelo://app?vid=50732fdc-c284-4aea-af5d-764e99e4bf7c","ios":"levelo://app?vid=50732fdc-c284-4aea-af5d-764e99e4bf7c"},"vehicle_type_id":"4","last_reported":1730480896,"current_range_meters":4800,"station_id":"ce4bh392rcd13ifvqdl0","pricing_plan_id":"cebpf4jnsgd1na2vs0mg"},{"bike_id":"65dd7e40-c273-4ac5-8bca-87430fbf9b19","system_id":"levelo_inurba_marseille","lat":43.267822,"lon":5.393924,"is_reserved":false,"is_disabled":false,"rental_uris":{"android":"levelo://app?vid=65dd7e40-c273-4ac5-8bca-87430fbf9b19","ios":"levelo://app?vid=65dd7e40-c273-4ac5-8bca-87430fbf9b19"},"vehicle_type_id":"4","last_reported":1730480896,"current_range_meters":6800,"station_id":"ce4bhh12rcd13ifvqfg0","pricing_plan_id":"cebpf4jnsgd1na2vs0mg"},{"bike_id":"43696823-ec85-43a1-892d-54413b95bdce","system_id":"levelo_inurba_marseille","lat":43.22928,"lon":5.3538,"is_reserved":false,"is_disabled":false,"rental_uris":{"android":"levelo://app?vid=43696823-ec85-43a1-892d-54413b95bdce","ios":"levelo://app?vid=43696823-ec85-43a1-892d-54413b95bdce"},"vehicle_type_id":"4","last_reported":1730480896,"current_range_meters":28400,"station_id":"cpo3532slgdg3j2ikp40","pricing_plan_id":"cebpf4jnsgd1na2vs0mg"},{"bike_id":"9c36aef5-f6e7-419b-ab08-b5d07c4dc4f8","system_id":"levelo_inurba_marseille","lat":43.27203,"lon":5.39179,"is_reserved":false,"is_disabled":false,"rental_uris":{"android":"levelo://app?vid=9c36aef5-f6e7-419b-ab08-b5d07c4dc4f8","ios":"levelo://app?vid=9c36aef5-f6e7-419b-ab08-b5d07c4dc4f8"},"vehicle_type_id":"4","last_reported":1730480896,"current_range_meters":8800,"station_id":"ce4bhhp2rcd13ifvqfm0","pricing_plan_id":"cebpf4jnsgd1na2vs0mg"},{"bike_id":"ea65eb4d-cb99-42f4-9ce0-28b06945a086","system_id":"levelo_inurba_marseille","lat":43.2606,"lon":5.39406,"is_reserved":false,"is_disabled":false,"rental_uris":{"android":"levelo://app?vid=ea65eb4d-cb99-42f4-9ce0-28b06945a086","ios":"levelo://app?vid=ea65eb4d-cb99-42f4-9ce0-28b06945a086"},"vehicle_type_id":"4","last_reported":1730480896,"current_range_meters":36000,"station_id":"ce4bhh92rcd13ifvqfj0","pricing_plan_id":"cebpf4jnsgd1na2vs0mg"},{"bike_id":"f7684814-0783-4958-8fc4-90e3bd6395c0","system_id":"levelo_inurba_marseille","lat":43.292582,"lon":5.409105,"is_reserved":false,"is_disabled":false,"rental_uris":{"android":"levelo://app?vid=f7684814-0783-4958-8fc4-90e3bd6395c0","ios":"levelo://app?vid=f7684814-0783-4958-8fc4-90e3bd6395c0"},"vehicle_type_id":"4","last_reported":1730480896,"current_range_meters":16400,"station_id":"ce4bh192rcd13ifvqdc0","pricing_plan_id":"cebpf4jnsgd1na2vs0mg"},{"bike_id":"f78f641d-3198-4252-ac20-84a511193400","system_id":"levelo_inurba_marseille","lat":43.30341,"lon":5.36522,"is_reserved":false,"is_disabled":false,"rental_uris":{"android":"levelo://app?vid=f78f641d-3198-4252-ac20-84a511193400","ios":"levelo://app?vid=f78f641d-3198-4252-ac20-84a511193400"},"vehicle_type_id":"4","last_reported":1730480896,"current_range_meters":18800,"station_id":"","pricing_plan_id":"cebpf4jnsgd1na2vs0mg"},{"bike_id":"7714b82a-4223-4739-8256-6c138637765b","system_id":"levelo_inurba_marseille","lat":43.262109,"lon":5.374468,"is_reserved":false,"is_disabled":false,"rental_uris":{"android":"levelo://app?vid=7714b82a-4223-4739-8256-6c138637765b","ios":"levelo://app?vid=7714b82a-4223-4739-8256-6c138637765b"},"vehicle_type_id":"4","last_reported":1730480896,"current_range_meters":38800,"station_id":"ce4bhgp2rcd13ifvqfc0","pricing_plan_id":"cebpf4jnsgd1na2vs0mg"},{"bike_id":"55d57c35-2798-44bd-b340-e44ab4f96ac1","system_id":"levelo_inurba_marseille","lat":43.337444,"lon":5.374475,"is_reserved":false,"is_disabled":false,"rental_uris":{"android":"levelo://app?vid=55d57c35-2798-44bd-b340-e44ab4f96ac1","ios":"levelo://app?vid=55d57c35-2798-44bd-b340-e44ab4f96ac1"},"vehicle_type_id":"4","last_reported":1730480896,"current_range_meters":36400,"station_id":"","pricing_plan_id":"cebpf4jnsgd1na2vs0mg"},{"bike_id":"59b15010-051a-4706-a4d9-2c24faab62db","system_id":"levelo_inurba_marseille","lat":43.26569,"lon":5.39009,"is_reserved":false,"is_disabled":false,"rental_uris":{"android":"levelo://app?vid=59b15010-051a-4706-a4d9-2c24faab62db","ios":"levelo://app?vid=59b15010-051a-4706-a4d9-2c24faab62db"},"vehicle_type_id":"4","last_reported":1730480896,"current_range_meters":15200,"station_id":"ce4bhe12rcd13ifvqf30","pricing_plan_id":"cebpf4jnsgd1na2vs0mg"},{"bike_id":"6f6f82e2-3d10-4258-a976-ef8fd3c8c7f9","system_id":"levelo_inurba_marseille","lat":43.29764,"lon":5.39336,"is_reserved":false,"is_disabled":false,"rental_uris":{"android":"levelo://app?vid=6f6f82e2-3d10-4258-a976-ef8fd3c8c7f9","ios":"levelo://app?vid=6f6f82e2-3d10-4258-a976-ef8fd3c8c7f9"},"vehicle_type_id":"4","last_reported":1730480896,"current_range_meters":16400,"station_id":"chh1huq6cuj3fo74tm60","pricing_plan_id":"cebpf4jnsgd1na2vs0mg"},{"bike_id":"f8cd3598-2530-48cd-86f4-47ca26266b9e","system_id":"levelo_inurba_marseille","lat":43.24549,"lon":5.39526,"is_reserved":false,"is_disabled":false,"rental_uris":{"android":"levelo://app?vid=f8cd3598-2530-48cd-86f4-47ca26266b9e","ios":"levelo://app?vid=f8cd3598-2530-48cd-86f4-47ca26266b9e"},"vehicle_type_id":"4","last_reported":1730480896,"current_range_meters":17600,"station_id":"ce4bhlp2rcd13ifvqgjg","pricing_plan_id":"cebpf4jnsgd1na2vs0mg"},{"bike_id":"0d4e0479-d8a2-45f2-91e0-dd87823320fe","system_id":"levelo_inurba_marseille","lat":43.33777,"lon":5.37469,"is_reserved":false,"is_disabled":false,"rental_uris":{"android":"levelo://app?vid=0d4e0479-d8a2-45f2-91e0-dd87823320fe","ios":"levelo://app?vid=0d4e0479-d8a2-45f2-91e0-dd87823320fe"},"vehicle_type_id":"4","last_reported":1730480896,"current_range_meters":25200,"station_id":"","pricing_plan_id":"cebpf4jnsgd1na2vs0mg"},{"bike_id":"3621c4f9-06a7-4177-a984-88e086f5a073","system_id":"levelo_inurba_marseille","lat":43.29197,"lon":5.39325,"is_reserved":false,"is_disabled":false,"rental_uris":{"android":"levelo://app?vid=3621c4f9-06a7-4177-a984-88e086f5a073","ios":"levelo://app?vid=3621c4f9-06a7-4177-a984-88e086f5a073"},"vehicle_type_id":"4","last_reported":1730480896,"current_range_meters":32800,"station_id":"ce4bh192rcd13ifvqdd0","pricing_plan_id":"cebpf4jnsgd1na2vs0mg"},{"bike_id":"b06f966c-851c-4d4d-952c-20ba533d506d","system_id":"levelo_inurba_marseille","lat":43.28023,"lon":5.36922,"is_reserved":false,"is_disabled":false,"rental_uris":{"android":"levelo://app?vid=b06f966c-851c-4d4d-952c-20ba533d506d","ios":"levelo://app?vid=b06f966c-851c-4d4d-952c-20ba533d506d"},"vehicle_type_id":"4","last_reported":1730480896,"current_range_meters":32400,"station_id":"ce4bha12rcd13ifvqef0","pricing_plan_id":"cebpf4jnsgd1na2vs0mg"},{"bike_id":"8ae2c13c-0234-49e7-9784-0ddabc24bd38","system_id":"levelo_inurba_marseille","lat":43.29027,"lon":5.38123,"is_reserved":false,"is_disabled":false,"rental_uris":{"android":"levelo://app?vid=8ae2c13c-0234-49e7-9784-0ddabc24bd38","ios":"levelo://app?vid=8ae2c13c-0234-49e7-9784-0ddabc24bd38"},"vehicle_type_id":"4","last_reported":1730480896,"current_range_meters":37600,"station_id":"ce4bh4p2rcd13ifvqe1g","pricing_plan_id":"cebpf4jnsgd1na2vs0mg"},{"bike_id":"71cf9ae0-b14a-4c89-a31e-74b6516ca54f","system_id":"levelo_inurba_marseille","lat":43.28984,"lon":5.37833,"is_reserved":false,"is_disabled":false,"rental_uris":{"android":"levelo://app?vid=71cf9ae0-b14a-4c89-a31e-74b6516ca54f","ios":"levelo://app?vid=71cf9ae0-b14a-4c89-a31e-74b6516ca54f"},"vehicle_type_id":"4","last_reported":1730480896,"current_range_meters":12400,"station_id":"ce4bh9p2rcd13ifvqed0","pricing_plan_id":"cebpf4jnsgd1na2vs0mg"},{"bike_id":"a5d35506-8913-4176-bff6-d1fb26b3ae96","system_id":"levelo_inurba_marseille","lat":43.29054,"lon":5.40036,"is_reserved":false,"is_disabled":false,"rental_uris":{"android":"levelo://app?vid=a5d35506-8913-4176-bff6-d1fb26b3ae96","ios":"levelo://app?vid=a5d35506-8913-4176-bff6-d1fb26b3ae96"},"vehicle_type_id":"4","last_reported":1730480896,"current_range_meters":24000,"station_id":"","pricing_plan_id":"cebpf4jnsgd1na2vs0mg"},{"bike_id":"7edda5be-cf74-499d-9fbd-2d52bcbe5f3c","system_id":"levelo_inurba_marseille","lat":43.24602,"lon":5.37405,"is_reserved":false,"is_disabled":false,"rental_uris":{"android":"levelo://app?vid=7edda5be-cf74-499d-9fbd-2d52bcbe5f3c","ios":"levelo://app?vid=7edda5be-cf74-499d-9fbd-2d52bcbe5f3c"},"vehicle_type_id":"4","last_reported":1730480896,"current_range_meters":30800,"station_id":"ce4bha12rcd13ifvqee0","pricing_plan_id":"cebpf4jnsgd1na2vs0mg"},{"bike_id":"3040547d-7cac-4ac8-a811-2d6932ea8c51","system_id":"levelo_inurba_marseille","lat":43.28361,"lon":5.38631,"is_reserved":false,"is_disabled":false,"rental_uris":{"android":"levelo://app?vid=3040547d-7cac-4ac8-a811-2d6932ea8c51","ios":"levelo://app?vid=3040547d-7cac-4ac8-a811-2d6932ea8c51"},"vehicle_type_id":"4","last_reported":1730480896,"current_range_meters":38800,"station_id":"ce4bh492rcd13ifvqdvg","pricing_plan_id":"cebpf4jnsgd1na2vs0mg"},{"bike_id":"1bc83854-7222-4030-80e8-8cbd036df630","system_id":"levelo_inurba_marseille","lat":43.27073,"lon":5.42282,"is_reserved":false,"is_disabled":false,"rental_uris":{"android":"levelo://app?vid=1bc83854-7222-4030-80e8-8cbd036df630","ios":"levelo://app?vid=1bc83854-7222-4030-80e8-8cbd036df630"},"vehicle_type_id":"4","last_reported":1730480896,"current_range_meters":8400,"station_id":"ce4bhk92rcd13ifvqgb0","pricing_plan_id":"cebpf4jnsgd1na2vs0mg"},{"bike_id":"684ae5e8-d331-46fe-a758-8ff9db1e31e6","system_id":"levelo_inurba_marseille","lat":43.29795,"lon":5.38093,"is_reserved":false,"is_disabled":false,"rental_uris":{"android":"levelo://app?vid=684ae5e8-d331-46fe-a758-8ff9db1e31e6","ios":"levelo://app?vid=684ae5e8-d331-46fe-a758-8ff9db1e31e6"},"vehicle_type_id":"4","last_reported":1730480896,"current_range_meters":38800,"station_id":"ce4bgip2rcd13ifvqbb0","pricing_plan_id":"cebpf4jnsgd1na2vs0mg"},{"bike_id":"6c80faf6-d96b-456c-abe0-c11599ff8df2","system_id":"levelo_inurba_marseille","lat":43.278857,"lon":5.380338,"is_reserved":false,"is_disabled":false,"rental_uris":{"android":"levelo://app?vid=6c80faf6-d96b-456c-abe0-c11599ff8df2","ios":"levelo://app?vid=6c80faf6-d96b-456c-abe0-c11599ff8df2"},"vehicle_type_id":"4","last_reported":1730480896,"current_range_meters":32800,"station_id":"ce4bhf92rcd13ifvqf50","pricing_plan_id":"cebpf4jnsgd1na2vs0mg"},{"bike_id":"dcc3412c-7336-4d5e-a8cb-a4954fb1723f","system_id":"levelo_inurba_marseille","lat":43.23068,"lon":5.35495,"is_reserved":false,"is_disabled":false,"rental_uris":{"android":"levelo://app?vid=dcc3412c-7336-4d5e-a8cb-a4954fb1723f","ios":"levelo://app?vid=dcc3412c-7336-4d5e-a8cb-a4954fb1723f"},"vehicle_type_id":"4","last_reported":1730480896,"current_range_meters":6800,"station_id":"cpo3342slgdg3j2ifvpg","pricing_plan_id":"cebpf4jnsgd1na2vs0mg"},{"bike_id":"22ad4fe6-f70b-40c5-a44e-df8590eb93c2","system_id":"levelo_inurba_marseille","lat":43.25577,"lon":5.38233,"is_reserved":false,"is_disabled":false,"rental_uris":{"android":"levelo://app?vid=22ad4fe6-f70b-40c5-a44e-df8590eb93c2","ios":"levelo://app?vid=22ad4fe6-f70b-40c5-a44e-df8590eb93c2"},"vehicle_type_id":"4","last_reported":1730480896,"current_range_meters":6800,"station_id":"ce4bhih2rcd13ifvqfs0","pricing_plan_id":"cebpf4jnsgd1na2vs0mg"},{"bike_id":"a8a18ccb-36b5-411f-ae9f-0c023666235e","system_id":"levelo_inurba_marseille","lat":43.29162,"lon":5.37158,"is_reserved":false,"is_disabled":false,"rental_uris":{"android":"levelo://app?vid=a8a18ccb-36b5-411f-ae9f-0c023666235e","ios":"levelo://app?vid=a8a18ccb-36b5-411f-ae9f-0c023666235e"},"vehicle_type_id":"4","last_reported":1730480896,"current_range_meters":38000,"station_id":"ce4bha92rcd13ifvqeh0","pricing_plan_id":"cebpf4jnsgd1na2vs0mg"},{"bike_id":"b5857e3f-0f98-48df-81a9-7332eb0e8f01","system_id":"levelo_inurba_marseille","lat":43.27561,"lon":5.38414,"is_reserved":false,"is_disabled":false,"rental_uris":{"android":"levelo://app?vid=b5857e3f-0f98-48df-81a9-7332eb0e8f01","ios":"levelo://app?vid=b5857e3f-0f98-48df-81a9-7332eb0e8f01"},"vehicle_type_id":"4","last_reported":1730480896,"current_range_meters":18800,"station_id":"ce4bhh92rcd13ifvqfi0","pricing_plan_id":"cebpf4jnsgd1na2vs0mg"},{"bike_id":"ef6cd22d-620b-4690-bbfe-42ed1f9d398f","system_id":"levelo_inurba_marseille","lat":43.29409,"lon":5.38629,"is_reserved":false,"is_disabled":false,"rental_uris":{"android":"levelo://app?vid=ef6cd22d-620b-4690-bbfe-42ed1f9d398f","ios":"levelo://app?vid=ef6cd22d-620b-4690-bbfe-42ed1f9d398f"},"vehicle_type_id":"4","last_reported":1730480896,"current_range_meters":16800,"station_id":"ce4bh2h2rcd13ifvqdh0","pricing_plan_id":"cebpf4jnsgd1na2vs0mg"},{"bike_id":"b33c89d7-293f-4c75-a0b9-4610830cdd49","system_id":"levelo_inurba_marseille","lat":43.2978,"lon":5.38115,"is_reserved":false,"is_disabled":false,"rental_uris":{"android":"levelo://app?vid=b33c89d7-293f-4c75-a0b9-4610830cdd49","ios":"levelo://app?vid=b33c89d7-293f-4c75-a0b9-4610830cdd49"},"vehicle_type_id":"4","last_reported":1730480896,"current_range_meters":3200,"station_id":"ce4bgip2rcd13ifvqbb0","pricing_plan_id":"cebpf4jnsgd1na2vs0mg"},{"bike_id":"141465a3-1b6b-4a5e-a293-e6c54a1bfaeb","system_id":"levelo_inurba_marseille","lat":43.30022,"lon":5.37569,"is_reserved":false,"is_disabled":false,"rental_uris":{"android":"levelo://app?vid=141465a3-1b6b-4a5e-a293-e6c54a1bfaeb","ios":"levelo://app?vid=141465a3-1b6b-4a5e-a293-e6c54a1bfaeb"},"vehicle_type_id":"4","last_reported":1730480896,"current_range_meters":3600,"station_id":"","pricing_plan_id":"cebpf4jnsgd1na2vs0mg"},{"bike_id":"6eebaa63-3150-485e-aa8f-063147b7db12","system_id":"levelo_inurba_marseille","lat":43.28334,"lon":5.38099,"is_reserved":false,"is_disabled":false,"rental_uris":{"android":"levelo://app?vid=6eebaa63-3150-485e-aa8f-063147b7db12","ios":"levelo://app?vid=6eebaa63-3150-485e-aa8f-063147b7db12"},"vehicle_type_id":"4","last_reported":1730480896,"current_range_meters":24400,"station_id":"ce4bh412rcd13ifvqdr0","pricing_plan_id":"cebpf4jnsgd1na2vs0mg"},{"bike_id":"c6967962-248c-4386-8cf4-890c2c81f01a","system_id":"levelo_inurba_marseille","lat":43.24169,"lon":5.36393,"is_reserved":false,"is_disabled":false,"rental_uris":{"android":"levelo://app?vid=c6967962-248c-4386-8cf4-890c2c81f01a","ios":"levelo://app?vid=c6967962-248c-4386-8cf4-890c2c81f01a"},"vehicle_type_id":"4","last_reported":1730480896,"current_range_meters":24800,"station_id":"cpo36qri1sfpv3e86is0","pricing_plan_id":"cebpf4jnsgd1na2vs0mg"},{"bike_id":"178dd10a-770d-48af-924b-ec366d471771","system_id":"levelo_inurba_marseille","lat":43.28099,"lon":5.37835,"is_reserved":false,"is_disabled":false,"rental_uris":{"android":"levelo://app?vid=178dd10a-770d-48af-924b-ec366d471771","ios":"levelo://app?vid=178dd10a-770d-48af-924b-ec366d471771"},"vehicle_type_id":"4","last_reported":1730480896,"current_range_meters":20400,"station_id":"ce4bha12rcd13ifvqee0","pricing_plan_id":"cebpf4jnsgd1na2vs0mg"},{"bike_id":"c890cd27-2f5c-4327-9858-b1740601ad26","system_id":"levelo_inurba_marseille","lat":43.28467,"lon":5.38552,"is_reserved":false,"is_disabled":false,"rental_uris":{"android":"levelo://app?vid=c890cd27-2f5c-4327-9858-b1740601ad26","ios":"levelo://app?vid=c890cd27-2f5c-4327-9858-b1740601ad26"},"vehicle_type_id":"4","last_reported":1730480896,"current_range_meters":36400,"station_id":"ce4bh8p2rcd13ifvqeb0","pricing_plan_id":"cebpf4jnsgd1na2vs0mg"},{"bike_id":"839c4629-2756-4220-adec-d0112dc0e41b","system_id":"levelo_inurba_marseille","lat":43.291626,"lon":5.371593,"is_reserved":false,"is_disabled":false,"rental_uris":{"android":"levelo://app?vid=839c4629-2756-4220-adec-d0112dc0e41b","ios":"levelo://app?vid=839c4629-2756-4220-adec-d0112dc0e41b"},"vehicle_type_id":"4","last_reported":1730480896,"current_range_meters":20800,"station_id":"ce4bha92rcd13ifvqeh0","pricing_plan_id":"cebpf4jnsgd1na2vs0mg"},{"bike_id":"aedd613a-3e0e-48bc-bcce-01db4dfff1e5","system_id":"levelo_inurba_marseille","lat":43.27066,"lon":5.42283,"is_reserved":false,"is_disabled":false,"rental_uris":{"android":"levelo://app?vid=aedd613a-3e0e-48bc-bcce-01db4dfff1e5","ios":"levelo://app?vid=aedd613a-3e0e-48bc-bcce-01db4dfff1e5"},"vehicle_type_id":"4","last_reported":1730480896,"current_range_meters":28400,"station_id":"ce4bhk92rcd13ifvqgb0","pricing_plan_id":"cebpf4jnsgd1na2vs0mg"},{"bike_id":"26bc740e-3723-485e-bfe2-391835f61884","system_id":"levelo_inurba_marseille","lat":43.229444,"lon":5.353865,"is_reserved":false,"is_disabled":false,"rental_uris":{"android":"levelo://app?vid=26bc740e-3723-485e-bfe2-391835f61884","ios":"levelo://app?vid=26bc740e-3723-485e-bfe2-391835f61884"},"vehicle_type_id":"4","last_reported":1730480896,"current_range_meters":19200,"station_id":"cpo3532slgdg3j2ikp40","pricing_plan_id":"cebpf4jnsgd1na2vs0mg"},{"bike_id":"bd95dc30-8740-459a-925b-11d03e37dc4f","system_id":"levelo_inurba_marseille","lat":43.32263,"lon":5.38277,"is_reserved":false,"is_disabled":false,"rental_uris":{"android":"levelo://app?vid=bd95dc30-8740-459a-925b-11d03e37dc4f","ios":"levelo://app?vid=bd95dc30-8740-459a-925b-11d03e37dc4f"},"vehicle_type_id":"4","last_reported":1730480896,"current_range_meters":37600,"station_id":"ce4bhr12rcd13ifvqhqg","pricing_plan_id":"cebpf4jnsgd1na2vs0mg"},{"bike_id":"dae03f26-012d-455c-9c80-dea180afeb47","system_id":"levelo_inurba_marseille","lat":43.29156,"lon":5.37156,"is_reserved":false,"is_disabled":false,"rental_uris":{"android":"levelo://app?vid=dae03f26-012d-455c-9c80-dea180afeb47","ios":"levelo://app?vid=dae03f26-012d-455c-9c80-dea180afeb47"},"vehicle_type_id":"4","last_reported":1730480896,"current_range_meters":25200,"station_id":"ce4bha92rcd13ifvqeh0","pricing_plan_id":"cebpf4jnsgd1na2vs0mg"},{"bike_id":"0a29cf26-6c84-43c4-b23e-0cf20cc5163f","system_id":"levelo_inurba_marseille","lat":43.29034,"lon":5.38642,"is_reserved":false,"is_disabled":false,"rental_uris":{"android":"levelo://app?vid=0a29cf26-6c84-43c4-b23e-0cf20cc5163f","ios":"levelo://app?vid=0a29cf26-6c84-43c4-b23e-0cf20cc5163f"},"vehicle_type_id":"4","last_reported":1730480896,"current_range_meters":25600,"station_id":"ce4bh4p2rcd13ifvqe0g","pricing_plan_id":"cebpf4jnsgd1na2vs0mg"},{"bike_id":"ffa60d60-dc54-4530-b04e-7d950447ec62","system_id":"levelo_inurba_marseille","lat":43.30303,"lon":5.36895,"is_reserved":false,"is_disabled":false,"rental_uris":{"android":"levelo://app?vid=ffa60d60-dc54-4530-b04e-7d950447ec62","ios":"levelo://app?vid=ffa60d60-dc54-4530-b04e-7d950447ec62"},"vehicle_type_id":"4","last_reported":1730480896,"current_range_meters":39200,"station_id":"ce4bgqh2rcd13ifvqc5g","pricing_plan_id":"cebpf4jnsgd1na2vs0mg"},{"bike_id":"5eebc6dd-a25f-4c50-8aea-6cc28b647d39","system_id":"levelo_inurba_marseille","lat":43.24545,"lon":5.39526,"is_reserved":false,"is_disabled":false,"rental_uris":{"android":"levelo://app?vid=5eebc6dd-a25f-4c50-8aea-6cc28b647d39","ios":"levelo://app?vid=5eebc6dd-a25f-4c50-8aea-6cc28b647d39"},"vehicle_type_id":"4","last_reported":1730480896,"current_range_meters":30800,"station_id":"ce4bhlp2rcd13ifvqgjg","pricing_plan_id":"cebpf4jnsgd1na2vs0mg"},{"bike_id":"157aa4dd-2aea-4be4-8d20-c2f89a2ab2e2","system_id":"levelo_inurba_marseille","lat":43.2841,"lon":5.37519,"is_reserved":false,"is_disabled":false,"rental_uris":{"android":"levelo://app?vid=157aa4dd-2aea-4be4-8d20-c2f89a2ab2e2","ios":"levelo://app?vid=157aa4dd-2aea-4be4-8d20-c2f89a2ab2e2"},"vehicle_type_id":"4","last_reported":1730480896,"current_range_meters":10000,"station_id":"ce4bh412rcd13ifvqds0","pricing_plan_id":"cebpf4jnsgd1na2vs0mg"},{"bike_id":"04630d28-ba53-483b-a9d1-84eec1a25f87","system_id":"levelo_inurba_marseille","lat":43.28366,"lon":5.38621,"is_reserved":false,"is_disabled":false,"rental_uris":{"android":"levelo://app?vid=04630d28-ba53-483b-a9d1-84eec1a25f87","ios":"levelo://app?vid=04630d28-ba53-483b-a9d1-84eec1a25f87"},"vehicle_type_id":"4","last_reported":1730480896,"current_range_meters":19200,"station_id":"ce4bh492rcd13ifvqdvg","pricing_plan_id":"cebpf4jnsgd1na2vs0mg"},{"bike_id":"e086fb38-b3b7-4ea7-b37d-d2fd810301b9","system_id":"levelo_inurba_marseille","lat":43.2962,"lon":5.37153,"is_reserved":false,"is_disabled":false,"rental_uris":{"android":"levelo://app?vid=e086fb38-b3b7-4ea7-b37d-d2fd810301b9","ios":"levelo://app?vid=e086fb38-b3b7-4ea7-b37d-d2fd810301b9"},"vehicle_type_id":"4","last_reported":1730480896,"current_range_meters":4800,"station_id":"ce4bgnh2rcd13ifvqc0g","pricing_plan_id":"cebpf4jnsgd1na2vs0mg"},{"bike_id":"eb208bdf-817d-47a7-86ab-1f16fc3fc47d","system_id":"levelo_inurba_marseille","lat":43.27964,"lon":5.38739,"is_reserved":false,"is_disabled":false,"rental_uris":{"android":"levelo://app?vid=eb208bdf-817d-47a7-86ab-1f16fc3fc47d","ios":"levelo://app?vid=eb208bdf-817d-47a7-86ab-1f16fc3fc47d"},"vehicle_type_id":"4","last_reported":1730480896,"current_range_meters":20400,"station_id":"ce4bhg12rcd13ifvqf80","pricing_plan_id":"cebpf4jnsgd1na2vs0mg"},{"bike_id":"cb5ea47a-3798-4077-b904-e0e749807094","system_id":"levelo_inurba_marseille","lat":43.30517,"lon":5.38072,"is_reserved":false,"is_disabled":false,"rental_uris":{"android":"levelo://app?vid=cb5ea47a-3798-4077-b904-e0e749807094","ios":"levelo://app?vid=cb5ea47a-3798-4077-b904-e0e749807094"},"vehicle_type_id":"4","last_reported":1730480896,"current_range_meters":18000,"station_id":"","pricing_plan_id":"cebpf4jnsgd1na2vs0mg"},{"bike_id":"1df1abc2-7026-447b-8038-e9719616b4ae","system_id":"levelo_inurba_marseille","lat":43.278595,"lon":5.416697,"is_reserved":false,"is_disabled":false,"rental_uris":{"android":"levelo://app?vid=1df1abc2-7026-447b-8038-e9719616b4ae","ios":"levelo://app?vid=1df1abc2-7026-447b-8038-e9719616b4ae"},"vehicle_type_id":"4","last_reported":1730480896,"current_range_meters":22400,"station_id":"ce4bhn92rcd13ifvqgrg","pricing_plan_id":"cebpf4jnsgd1na2vs0mg"},{"bike_id":"ad092866-3ea0-416b-8831-c867ec16cab7","system_id":"levelo_inurba_marseille","lat":43.32101,"lon":5.38047,"is_reserved":false,"is_disabled":false,"rental_uris":{"android":"levelo://app?vid=ad092866-3ea0-416b-8831-c867ec16cab7","ios":"levelo://app?vid=ad092866-3ea0-416b-8831-c867ec16cab7"},"vehicle_type_id":"4","last_reported":1730480896,"current_range_meters":36800,"station_id":"","pricing_plan_id":"cebpf4jnsgd1na2vs0mg"},{"bike_id":"e553aac5-d7b5-4c11-9275-b9ad0d93974a","system_id":"levelo_inurba_marseille","lat":43.31352,"lon":5.36652,"is_reserved":false,"is_disabled":false,"rental_uris":{"android":"levelo://app?vid=e553aac5-d7b5-4c11-9275-b9ad0d93974a","ios":"levelo://app?vid=e553aac5-d7b5-4c11-9275-b9ad0d93974a"},"vehicle_type_id":"4","last_reported":1730480896,"current_range_meters":15200,"station_id":"ce4bgr92rcd13ifvqc6g","pricing_plan_id":"cebpf4jnsgd1na2vs0mg"},{"bike_id":"48d509bd-405e-455c-91ab-70ac83e23f45","system_id":"levelo_inurba_marseille","lat":43.29119,"lon":5.38295,"is_reserved":false,"is_disabled":false,"rental_uris":{"android":"levelo://app?vid=48d509bd-405e-455c-91ab-70ac83e23f45","ios":"levelo://app?vid=48d509bd-405e-455c-91ab-70ac83e23f45"},"vehicle_type_id":"4","last_reported":1730480896,"current_range_meters":3200,"station_id":"","pricing_plan_id":"cebpf4jnsgd1na2vs0mg"},{"bike_id":"e874a969-2bb9-473d-bd8f-f6c3c27abd33","system_id":"levelo_inurba_marseille","lat":43.23968,"lon":5.36623,"is_reserved":false,"is_disabled":false,"rental_uris":{"android":"levelo://app?vid=e874a969-2bb9-473d-bd8f-f6c3c27abd33","ios":"levelo://app?vid=e874a969-2bb9-473d-bd8f-f6c3c27abd33"},"vehicle_type_id":"4","last_reported":1730480896,"current_range_meters":25200,"station_id":"ce4bhi12rcd13ifvqfp0","pricing_plan_id":"cebpf4jnsgd1na2vs0mg"},{"bike_id":"4d216b50-b34b-488a-b246-0fa985044757","system_id":"levelo_inurba_marseille","lat":43.28481,"lon":5.38424,"is_reserved":false,"is_disabled":false,"rental_uris":{"android":"levelo://app?vid=4d216b50-b34b-488a-b246-0fa985044757","ios":"levelo://app?vid=4d216b50-b34b-488a-b246-0fa985044757"},"vehicle_type_id":"4","last_reported":1730480896,"current_range_meters":16400,"station_id":"ce4bh512rcd13ifvqe3g","pricing_plan_id":"cebpf4jnsgd1na2vs0mg"},{"bike_id":"8d654401-0e6a-4d79-82da-83f8b1a52f2c","system_id":"levelo_inurba_marseille","lat":43.31335,"lon":5.36661,"is_reserved":false,"is_disabled":false,"rental_uris":{"android":"levelo://app?vid=8d654401-0e6a-4d79-82da-83f8b1a52f2c","ios":"levelo://app?vid=8d654401-0e6a-4d79-82da-83f8b1a52f2c"},"vehicle_type_id":"4","last_reported":1730480896,"current_range_meters":6400,"station_id":"","pricing_plan_id":"cebpf4jnsgd1na2vs0mg"},{"bike_id":"e7f033b3-7c70-4c86-82b0-973e3ec704bb","system_id":"levelo_inurba_marseille","lat":43.28734,"lon":5.37938,"is_reserved":false,"is_disabled":false,"rental_uris":{"android":"levelo://app?vid=e7f033b3-7c70-4c86-82b0-973e3ec704bb","ios":"levelo://app?vid=e7f033b3-7c70-4c86-82b0-973e3ec704bb"},"vehicle_type_id":"4","last_reported":1730480896,"current_range_meters":8800,"station_id":"ce4bh9p2rcd13ifvqec0","pricing_plan_id":"cebpf4jnsgd1na2vs0mg"},{"bike_id":"71ff020a-a269-4927-add6-bf004381a337","system_id":"levelo_inurba_marseille","lat":43.29594,"lon":5.38109,"is_reserved":false,"is_disabled":false,"rental_uris":{"android":"levelo://app?vid=71ff020a-a269-4927-add6-bf004381a337","ios":"levelo://app?vid=71ff020a-a269-4927-add6-bf004381a337"},"vehicle_type_id":"4","last_reported":1730480896,"current_range_meters":35600,"station_id":"ce4bgl12rcd13ifvqbo0","pricing_plan_id":"cebpf4jnsgd1na2vs0mg"},{"bike_id":"cb0a3c79-54fa-4556-8624-42e76d6c5de4","system_id":"levelo_inurba_marseille","lat":43.25718,"lon":5.41122,"is_reserved":false,"is_disabled":false,"rental_uris":{"android":"levelo://app?vid=cb0a3c79-54fa-4556-8624-42e76d6c5de4","ios":"levelo://app?vid=cb0a3c79-54fa-4556-8624-42e76d6c5de4"},"vehicle_type_id":"4","last_reported":1730480896,"current_range_meters":33200,"station_id":"ce4bhkp2rcd13ifvqgd0","pricing_plan_id":"cebpf4jnsgd1na2vs0mg"},{"bike_id":"90956052-c53e-4c20-9562-3a10feff30b7","system_id":"levelo_inurba_marseille","lat":43.26575,"lon":5.39019,"is_reserved":false,"is_disabled":false,"rental_uris":{"android":"levelo://app?vid=90956052-c53e-4c20-9562-3a10feff30b7","ios":"levelo://app?vid=90956052-c53e-4c20-9562-3a10feff30b7"},"vehicle_type_id":"4","last_reported":1730480896,"current_range_meters":8800,"station_id":"ce4bhe12rcd13ifvqf30","pricing_plan_id":"cebpf4jnsgd1na2vs0mg"},{"bike_id":"b8bccd8e-73b9-4fa4-a820-046f07d9ac1f","system_id":"levelo_inurba_marseille","lat":43.32105,"lon":5.36776,"is_reserved":false,"is_disabled":false,"rental_uris":{"android":"levelo://app?vid=b8bccd8e-73b9-4fa4-a820-046f07d9ac1f","ios":"levelo://app?vid=b8bccd8e-73b9-4fa4-a820-046f07d9ac1f"},"vehicle_type_id":"4","last_reported":1730480896,"current_range_meters":36800,"station_id":"ce4bhrh2rcd13ifvqhug","pricing_plan_id":"cebpf4jnsgd1na2vs0mg"},{"bike_id":"5a3e7700-0672-4a08-8e27-1c004d0bcb34","system_id":"levelo_inurba_marseille","lat":43.25936,"lon":5.40898,"is_reserved":false,"is_disabled":false,"rental_uris":{"android":"levelo://app?vid=5a3e7700-0672-4a08-8e27-1c004d0bcb34","ios":"levelo://app?vid=5a3e7700-0672-4a08-8e27-1c004d0bcb34"},"vehicle_type_id":"4","last_reported":1730480896,"current_range_meters":36000,"station_id":"ce4bhm92rcd13ifvqglg","pricing_plan_id":"cebpf4jnsgd1na2vs0mg"},{"bike_id":"63641bf0-7bb8-4608-84ec-9f3f3b2c5236","system_id":"levelo_inurba_marseille","lat":43.22929,"lon":5.35379,"is_reserved":false,"is_disabled":false,"rental_uris":{"android":"levelo://app?vid=63641bf0-7bb8-4608-84ec-9f3f3b2c5236","ios":"levelo://app?vid=63641bf0-7bb8-4608-84ec-9f3f3b2c5236"},"vehicle_type_id":"4","last_reported":1730480896,"current_range_meters":38800,"station_id":"cpo3532slgdg3j2ikp40","pricing_plan_id":"cebpf4jnsgd1na2vs0mg"},{"bike_id":"954495f4-a3d3-4cea-a5e6-6f26fac8f43e","system_id":"levelo_inurba_marseille","lat":43.30167,"lon":5.38348,"is_reserved":false,"is_disabled":false,"rental_uris":{"android":"levelo://app?vid=954495f4-a3d3-4cea-a5e6-6f26fac8f43e","ios":"levelo://app?vid=954495f4-a3d3-4cea-a5e6-6f26fac8f43e"},"vehicle_type_id":"4","last_reported":1730480896,"current_range_meters":31200,"station_id":"ce4bgv12rcd13ifvqcp0","pricing_plan_id":"cebpf4jnsgd1na2vs0mg"},{"bike_id":"e2d172a4-34ed-4956-b608-bf0eeaac4d7f","system_id":"levelo_inurba_marseille","lat":43.31334,"lon":5.37035,"is_reserved":false,"is_disabled":false,"rental_uris":{"android":"levelo://app?vid=e2d172a4-34ed-4956-b608-bf0eeaac4d7f","ios":"levelo://app?vid=e2d172a4-34ed-4956-b608-bf0eeaac4d7f"},"vehicle_type_id":"4","last_reported":1730480896,"current_range_meters":34000,"station_id":"ce4bguh2rcd13ifvqckg","pricing_plan_id":"cebpf4jnsgd1na2vs0mg"},{"bike_id":"272bebd9-4595-4557-a612-999cc9297ae6","system_id":"levelo_inurba_marseille","lat":43.28721,"lon":5.37939,"is_reserved":false,"is_disabled":false,"rental_uris":{"android":"levelo://app?vid=272bebd9-4595-4557-a612-999cc9297ae6","ios":"levelo://app?vid=272bebd9-4595-4557-a612-999cc9297ae6"},"vehicle_type_id":"4","last_reported":1730480896,"current_range_meters":21600,"station_id":"ce4bh9p2rcd13ifvqec0","pricing_plan_id":"cebpf4jnsgd1na2vs0mg"},{"bike_id":"5ed4d702-cd28-4508-abfa-9c7ff6858225","system_id":"levelo_inurba_marseille","lat":43.30059,"lon":5.38641,"is_reserved":false,"is_disabled":false,"rental_uris":{"android":"levelo://app?vid=5ed4d702-cd28-4508-abfa-9c7ff6858225","ios":"levelo://app?vid=5ed4d702-cd28-4508-abfa-9c7ff6858225"},"vehicle_type_id":"4","last_reported":1730480896,"current_range_meters":30800,"station_id":"","pricing_plan_id":"cebpf4jnsgd1na2vs0mg"},{"bike_id":"3fde1863-f2ec-4b37-a940-9603baaeeca9","system_id":"levelo_inurba_marseille","lat":43.27072,"lon":5.42282,"is_reserved":false,"is_disabled":false,"rental_uris":{"android":"levelo://app?vid=3fde1863-f2ec-4b37-a940-9603baaeeca9","ios":"levelo://app?vid=3fde1863-f2ec-4b37-a940-9603baaeeca9"},"vehicle_type_id":"4","last_reported":1730480896,"current_range_meters":16800,"station_id":"ce4bhk92rcd13ifvqgb0","pricing_plan_id":"cebpf4jnsgd1na2vs0mg"},{"bike_id":"368456c4-ce10-425e-ba40-6b94f0c935ab","system_id":"levelo_inurba_marseille","lat":43.28664,"lon":5.36352,"is_reserved":false,"is_disabled":false,"rental_uris":{"android":"levelo://app?vid=368456c4-ce10-425e-ba40-6b94f0c935ab","ios":"levelo://app?vid=368456c4-ce10-425e-ba40-6b94f0c935ab"},"vehicle_type_id":"4","last_reported":1730480896,"current_range_meters":8400,"station_id":"ce4bhah2rcd13ifvqej0","pricing_plan_id":"cebpf4jnsgd1na2vs0mg"},{"bike_id":"d6d7d62e-a141-46ce-9fd5-2c9966dd6a9c","system_id":"levelo_inurba_marseille","lat":43.27942,"lon":5.41051,"is_reserved":false,"is_disabled":false,"rental_uris":{"android":"levelo://app?vid=d6d7d62e-a141-46ce-9fd5-2c9966dd6a9c","ios":"levelo://app?vid=d6d7d62e-a141-46ce-9fd5-2c9966dd6a9c"},"vehicle_type_id":"4","last_reported":1730480896,"current_range_meters":4400,"station_id":"ce4bhnp2rcd13ifvqh0g","pricing_plan_id":"cebpf4jnsgd1na2vs0mg"},{"bike_id":"e004cac0-55e7-47f3-ab2c-c8f591eb870d","system_id":"levelo_inurba_marseille","lat":43.28361,"lon":5.38104,"is_reserved":false,"is_disabled":false,"rental_uris":{"android":"levelo://app?vid=e004cac0-55e7-47f3-ab2c-c8f591eb870d","ios":"levelo://app?vid=e004cac0-55e7-47f3-ab2c-c8f591eb870d"},"vehicle_type_id":"4","last_reported":1730480896,"current_range_meters":30000,"station_id":"ce4bh412rcd13ifvqdr0","pricing_plan_id":"cebpf4jnsgd1na2vs0mg"},{"bike_id":"17333b36-ce2a-4555-99e9-6ee1c6264ffe","system_id":"levelo_inurba_marseille","lat":43.29021,"lon":5.38137,"is_reserved":false,"is_disabled":false,"rental_uris":{"android":"levelo://app?vid=17333b36-ce2a-4555-99e9-6ee1c6264ffe","ios":"levelo://app?vid=17333b36-ce2a-4555-99e9-6ee1c6264ffe"},"vehicle_type_id":"4","last_reported":1730480896,"current_range_meters":19600,"station_id":"ce4bh4p2rcd13ifvqe1g","pricing_plan_id":"cebpf4jnsgd1na2vs0mg"},{"bike_id":"ef1d4041-cf77-48a5-97c3-f8deb4398227","system_id":"levelo_inurba_marseille","lat":43.268971,"lon":5.386183,"is_reserved":false,"is_disabled":false,"rental_uris":{"android":"levelo://app?vid=ef1d4041-cf77-48a5-97c3-f8deb4398227","ios":"levelo://app?vid=ef1d4041-cf77-48a5-97c3-f8deb4398227"},"vehicle_type_id":"4","last_reported":1730480896,"current_range_meters":10000,"station_id":"ce4bhhh2rcd13ifvqfl0","pricing_plan_id":"cebpf4jnsgd1na2vs0mg"},{"bike_id":"32804690-d1d8-45bb-a3cc-8a7aeba6aa00","system_id":"levelo_inurba_marseille","lat":43.29963,"lon":5.38498,"is_reserved":false,"is_disabled":false,"rental_uris":{"android":"levelo://app?vid=32804690-d1d8-45bb-a3cc-8a7aeba6aa00","ios":"levelo://app?vid=32804690-d1d8-45bb-a3cc-8a7aeba6aa00"},"vehicle_type_id":"4","last_reported":1730480896,"current_range_meters":38800,"station_id":"ce4bgj92rcd13ifvqbd0","pricing_plan_id":"cebpf4jnsgd1na2vs0mg"},{"bike_id":"edecf5a7-851f-48af-9704-9bf24d0161e0","system_id":"levelo_inurba_marseille","lat":43.27072,"lon":5.42282,"is_reserved":false,"is_disabled":false,"rental_uris":{"android":"levelo://app?vid=edecf5a7-851f-48af-9704-9bf24d0161e0","ios":"levelo://app?vid=edecf5a7-851f-48af-9704-9bf24d0161e0"},"vehicle_type_id":"4","last_reported":1730480896,"current_range_meters":24400,"station_id":"ce4bhk92rcd13ifvqgb0","pricing_plan_id":"cebpf4jnsgd1na2vs0mg"},{"bike_id":"82ec5040-dee3-467c-935b-81b877b92cc2","system_id":"levelo_inurba_marseille","lat":43.24552,"lon":5.39529,"is_reserved":false,"is_disabled":false,"rental_uris":{"android":"levelo://app?vid=82ec5040-dee3-467c-935b-81b877b92cc2","ios":"levelo://app?vid=82ec5040-dee3-467c-935b-81b877b92cc2"},"vehicle_type_id":"4","last_reported":1730480896,"current_range_meters":38800,"station_id":"ce4bhlp2rcd13ifvqgjg","pricing_plan_id":"cebpf4jnsgd1na2vs0mg"},{"bike_id":"7d0e3354-8bd2-42d9-b255-78911a4c3536","system_id":"levelo_inurba_marseille","lat":43.29197,"lon":5.3933,"is_reserved":false,"is_disabled":false,"rental_uris":{"android":"levelo://app?vid=7d0e3354-8bd2-42d9-b255-78911a4c3536","ios":"levelo://app?vid=7d0e3354-8bd2-42d9-b255-78911a4c3536"},"vehicle_type_id":"4","last_reported":1730480896,"current_range_meters":29600,"station_id":"ce4bh192rcd13ifvqdd0","pricing_plan_id":"cebpf4jnsgd1na2vs0mg"},{"bike_id":"67ac1651-9589-4006-b658-4bd46fb70707","system_id":"levelo_inurba_marseille","lat":43.24649,"lon":5.38891,"is_reserved":false,"is_disabled":false,"rental_uris":{"android":"levelo://app?vid=67ac1651-9589-4006-b658-4bd46fb70707","ios":"levelo://app?vid=67ac1651-9589-4006-b658-4bd46fb70707"},"vehicle_type_id":"4","last_reported":1730480896,"current_range_meters":19600,"station_id":"ce4bhg12rcd13ifvqf60","pricing_plan_id":"cebpf4jnsgd1na2vs0mg"},{"bike_id":"cb8ef95f-e83e-4d83-a2c9-73f6881bf726","system_id":"levelo_inurba_marseille","lat":43.26954,"lon":5.38629,"is_reserved":false,"is_disabled":false,"rental_uris":{"android":"levelo://app?vid=cb8ef95f-e83e-4d83-a2c9-73f6881bf726","ios":"levelo://app?vid=cb8ef95f-e83e-4d83-a2c9-73f6881bf726"},"vehicle_type_id":"4","last_reported":1730480896,"current_range_meters":26800,"station_id":"ce4bhh92rcd13ifvqfh0","pricing_plan_id":"cebpf4jnsgd1na2vs0mg"},{"bike_id":"c6a9138c-ea4f-4a0a-aacd-99674c4a979f","system_id":"levelo_inurba_marseille","lat":43.28843,"lon":5.35845,"is_reserved":false,"is_disabled":false,"rental_uris":{"android":"levelo://app?vid=c6a9138c-ea4f-4a0a-aacd-99674c4a979f","ios":"levelo://app?vid=c6a9138c-ea4f-4a0a-aacd-99674c4a979f"},"vehicle_type_id":"4","last_reported":1730480896,"current_range_meters":2800,"station_id":"ce4bhb12rcd13ifvqem0","pricing_plan_id":"cebpf4jnsgd1na2vs0mg"},{"bike_id":"09063546-a7df-4322-86e6-c8f7cab8ca1a","system_id":"levelo_inurba_marseille","lat":43.31272,"lon":5.40172,"is_reserved":false,"is_disabled":false,"rental_uris":{"android":"levelo://app?vid=09063546-a7df-4322-86e6-c8f7cab8ca1a","ios":"levelo://app?vid=09063546-a7df-4322-86e6-c8f7cab8ca1a"},"vehicle_type_id":"4","last_reported":1730480896,"current_range_meters":38800,"station_id":"ce4bh092rcd13ifvqd30","pricing_plan_id":"cebpf4jnsgd1na2vs0mg"},{"bike_id":"f444d790-b33a-433a-b5b3-f582d8b899c4","system_id":"levelo_inurba_marseille","lat":43.31714,"lon":5.43708,"is_reserved":false,"is_disabled":false,"rental_uris":{"android":"levelo://app?vid=f444d790-b33a-433a-b5b3-f582d8b899c4","ios":"levelo://app?vid=f444d790-b33a-433a-b5b3-f582d8b899c4"},"vehicle_type_id":"4","last_reported":1730480896,"current_range_meters":37600,"station_id":"ce4bhp92rcd13ifvqhcg","pricing_plan_id":"cebpf4jnsgd1na2vs0mg"},{"bike_id":"a4db891c-a327-4871-b3b8-1756c250675c","system_id":"levelo_inurba_marseille","lat":43.29965,"lon":5.38501,"is_reserved":false,"is_disabled":false,"rental_uris":{"android":"levelo://app?vid=a4db891c-a327-4871-b3b8-1756c250675c","ios":"levelo://app?vid=a4db891c-a327-4871-b3b8-1756c250675c"},"vehicle_type_id":"4","last_reported":1730480896,"current_range_meters":17200,"station_id":"ce4bgj92rcd13ifvqbd0","pricing_plan_id":"cebpf4jnsgd1na2vs0mg"},{"bike_id":"b1989298-8dcd-4e26-8737-80e3f8f5ced6","system_id":"levelo_inurba_marseille","lat":43.292,"lon":5.39322,"is_reserved":false,"is_disabled":false,"rental_uris":{"android":"levelo://app?vid=b1989298-8dcd-4e26-8737-80e3f8f5ced6","ios":"levelo://app?vid=b1989298-8dcd-4e26-8737-80e3f8f5ced6"},"vehicle_type_id":"4","last_reported":1730480896,"current_range_meters":20400,"station_id":"ce4bh192rcd13ifvqdd0","pricing_plan_id":"cebpf4jnsgd1na2vs0mg"},{"bike_id":"bf3803a6-ecab-48b6-bca8-5cc88617ac84","system_id":"levelo_inurba_marseille","lat":43.2916,"lon":5.37168,"is_reserved":false,"is_disabled":false,"rental_uris":{"android":"levelo://app?vid=bf3803a6-ecab-48b6-bca8-5cc88617ac84","ios":"levelo://app?vid=bf3803a6-ecab-48b6-bca8-5cc88617ac84"},"vehicle_type_id":"4","last_reported":1730480896,"current_range_meters":38400,"station_id":"ce4bha92rcd13ifvqeh0","pricing_plan_id":"cebpf4jnsgd1na2vs0mg"},{"bike_id":"7c890d51-aed2-42ac-8582-19cad8a7b14f","system_id":"levelo_inurba_marseille","lat":43.23188,"lon":5.40019,"is_reserved":false,"is_disabled":false,"rental_uris":{"android":"levelo://app?vid=7c890d51-aed2-42ac-8582-19cad8a7b14f","ios":"levelo://app?vid=7c890d51-aed2-42ac-8582-19cad8a7b14f"},"vehicle_type_id":"4","last_reported":1730480896,"current_range_meters":14800,"station_id":"ce4bhn12rcd13ifvqgqg","pricing_plan_id":"cebpf4jnsgd1na2vs0mg"},{"bike_id":"57853615-eda8-470e-b50c-142d381f9645","system_id":"levelo_inurba_marseille","lat":43.28443,"lon":5.39197,"is_reserved":false,"is_disabled":false,"rental_uris":{"android":"levelo://app?vid=57853615-eda8-470e-b50c-142d381f9645","ios":"levelo://app?vid=57853615-eda8-470e-b50c-142d381f9645"},