{"last_updated":1743930545,"ttl":60,"version":"2.2","data":{"bikes":[{"bike_id":"c73a85e2-fb2d-4d21-bea0-c717ffa7bb89","system_id":"levelo_inurba_marseille","lat":43.30454,"lon":5.36714,"is_reserved":false,"is_disabled":true,"rental_uris":{"android":"levelo://app?vid=c73a85e2-fb2d-4d21-bea0-c717ffa7bb89","ios":"levelo://app?vid=c73a85e2-fb2d-4d21-bea0-c717ffa7bb89"},"vehicle_type_id":"4","last_reported":1743930545,"current_range_meters":3200,"station_id":"","pricing_plan_id":"cebpf4jnsgd1na2vs0mg"},{"bike_id":"de50bbab-1368-4da3-a92a-1e482f1dcc12","system_id":"levelo_inurba_marseille","lat":43.29201,"lon":5.37661,"is_reserved":false,"is_disabled":false,"rental_uris":{"android":"levelo://app?vid=de50bbab-1368-4da3-a92a-1e482f1dcc12","ios":"levelo://app?vid=de50bbab-1368-4da3-a92a-1e482f1dcc12"},"vehicle_type_id":"4","last_reported":1743930545,"current_range_meters":3200,"station_id":"","pricing_plan_id":"cebpf4jnsgd1na2vs0mg"},{"bike_id":"7becbeac-5790-468b-90f4-6347360d01af","system_id":"levelo_inurba_marseille","lat":43.304263,"lon":5.397344,"is_reserved":false,"is_disabled":false,"rental_uris":{"android":"levelo://app?vid=7becbeac-5790-468b-90f4-6347360d01af","ios":"levelo://app?vid=7becbeac-5790-468b-90f4-6347360d01af"},"vehicle_type_id":"4","last_reported":1743930545,"current_range_meters":3600,"station_id":"ce4bhqh2rcd13ifvqhlg","pricing_plan_id":"cebpf4jnsgd1na2vs0mg"},{"bike_id":"050a0ea3-f288-4335-82d4-1c0a70d44252","system_id":"levelo_inurba_marseille","lat":43.29566,"lon":5.37364,"is_reserved":false,"is_disabled":false,"rental_uris":{"android":"levelo://app?vid=050a0ea3-f288-4335-82d4-1c0a70d44252","ios":"levelo://app?vid=050a0ea3-f288-4335-82d4-1c0a70d44252"},"vehicle_type_id":"4","last_reported":1743930545,"current_range_meters":3600,"station_id":"","pricing_plan_id":"cebpf4jnsgd1na2vs0mg"},{"bike_id":"e7b956ce-2ab2-4301-8fd3-6312d753e8f6","system_id":"levelo_inurba_marseille","lat":43.24676,"lon":5.38174,"is_reserved":false,"is_disabled":true,"rental_uris":{"android":"levelo://app?vid=e7b956ce-2ab2-4301-8fd3-6312d753e8f6","ios":"levelo://app?vid=e7b956ce-2ab2-4301-8fd3-6312d753e8f6"},"vehicle_type_id":"4","last_reported":1743930545,"current_range_meters":3600,"station_id":"ce4bhih2rcd13ifvqfr0","pricing_plan_id":"cebpf4jnsgd1na2vs0mg"},{"bike_id":"340b7e56-b158-42c6-bdf7-5814da16da39","system_id":"levelo_inurba_marseille","lat":43.293762,"lon":5.374408,"is_reserved":false,"is_disabled":false,"rental_uris":{"android":"levelo://app?vid=340b7e56-b158-42c6-bdf7-5814da16da39","ios":"levelo://app?vid=340b7e56-b158-42c6-bdf7-5814da16da39"},"vehicle_type_id":"4","last_reported":1743930545,"current_range_meters":4000,"station_id":"ce4bh692rcd13ifvqe90","pricing_plan_id":"cebpf4jnsgd1na2vs0mg"},{"bike_id":"30444244-8195-45e9-99cf-6992d5082eb7","system_id":"levelo_inurba_marseille","lat":43.28422,"lon":5.34987,"is_reserved":false,"is_disabled":false,"rental_uris":{"android":"levelo://app?vid=30444244-8195-45e9-99cf-6992d5082eb7","ios":"levelo://app?vid=30444244-8195-45e9-99cf-6992d5082eb7"},"vehicle_type_id":"4","last_reported":1743930545,"current_range_meters":4000,"station_id":"ce4bhbh2rcd13ifvqepg","pricing_plan_id":"cebpf4jnsgd1na2vs0mg"},{"bike_id":"2cbb6dc3-aafd-42a1-8326-324602b54fb8","system_id":"levelo_inurba_marseille","lat":43.23153,"lon":5.43698,"is_reserved":false,"is_disabled":false,"rental_uris":{"android":"levelo://app?vid=2cbb6dc3-aafd-42a1-8326-324602b54fb8","ios":"levelo://app?vid=2cbb6dc3-aafd-42a1-8326-324602b54fb8"},"vehicle_type_id":"4","last_reported":1743930545,"current_range_meters":4000,"station_id":"ce4bhmp2rcd13ifvqgog","pricing_plan_id":"cebpf4jnsgd1na2vs0mg"},{"bike_id":"00cb19b4-d8e0-485f-a15a-3e8fa94a0c5e","system_id":"levelo_inurba_marseille","lat":43.23055,"lon":5.35485,"is_reserved":false,"is_disabled":false,"rental_uris":{"android":"levelo://app?vid=00cb19b4-d8e0-485f-a15a-3e8fa94a0c5e","ios":"levelo://app?vid=00cb19b4-d8e0-485f-a15a-3e8fa94a0c5e"},"vehicle_type_id":"4","last_reported":1743930545,"current_range_meters":4400,"station_id":"cpo3342slgdg3j2ifvpg","pricing_plan_id":"cebpf4jnsgd1na2vs0mg"},{"bike_id":"be55b736-3aaf-4278-b81a-f641a2479bd1","system_id":"levelo_inurba_marseille","lat":43.23064,"lon":5.35494,"is_reserved":false,"is_disabled":false,"rental_uris":{"android":"levelo://app?vid=be55b736-3aaf-4278-b81a-f641a2479bd1","ios":"levelo://app?vid=be55b736-3aaf-4278-b81a-f641a2479bd1"},"vehicle_type_id":"4","last_reported":1743930545,"current_range_meters":4400,"station_id":"cpo3342slgdg3j2ifvpg","pricing_plan_id":"cebpf4jnsgd1na2vs0mg"},{"bike_id":"5f86682b-a28b-41bb-a30f-d0a55ea77263","system_id":"levelo_inurba_marseille","lat":43.3089,"lon":5.372,"is_reserved":false,"is_disabled":false,"rental_uris":{"android":"levelo://app?vid=5f86682b-a28b-41bb-a30f-d0a55ea77263","ios":"levelo://app?vid=5f86682b-a28b-41bb-a30f-d0a55ea77263"},"vehicle_type_id":"4","last_reported":1743930545,"current_range_meters":4000,"station_id":"ce4bguh2rcd13ifvqckg","pricing_plan_id":"cebpf4jnsgd1na2vs0mg"},{"bike_id":"feb6e46c-3fb2-45a9-a2fb-22ac62feb505","system_id":"levelo_inurba_marseille","lat":43.23052,"lon":5.35493,"is_reserved":false,"is_disabled":true,"rental_uris":{"android":"levelo://app?vid=feb6e46c-3fb2-45a9-a2fb-22ac62feb505","ios":"levelo://app?vid=feb6e46c-3fb2-45a9-a2fb-22ac62feb505"},"vehicle_type_id":"4","last_reported":1743930545,"current_range_meters":4400,"station_id":"cpo3342slgdg3j2ifvpg","pricing_plan_id":"cebpf4jnsgd1na2vs0mg"},{"bike_id":"88ff41c6-b66a-47f4-91b0-95d39850f40b","system_id":"levelo_inurba_marseille","lat":43.3014,"lon":5.3985,"is_reserved":false,"is_disabled":false,"rental_uris":{"android":"levelo://app?vid=88ff41c6-b66a-47f4-91b0-95d39850f40b","ios":"levelo://app?vid=88ff41c6-b66a-47f4-91b0-95d39850f40b"},"vehicle_type_id":"4","last_reported":1743930545,"current_range_meters":4400,"station_id":"ce4bh0h2rcd13ifvqd40","pricing_plan_id":"cebpf4jnsgd1na2vs0mg"},{"bike_id":"5fd84ac0-b49d-4ad8-8802-eca6671b41e6","system_id":"levelo_inurba_marseille","lat":43.30922,"lon":5.40149,"is_reserved":false,"is_disabled":false,"rental_uris":{"android":"levelo://app?vid=5fd84ac0-b49d-4ad8-8802-eca6671b41e6","ios":"levelo://app?vid=5fd84ac0-b49d-4ad8-8802-eca6671b41e6"},"vehicle_type_id":"4","last_reported":1743930545,"current_range_meters":4800,"station_id":"ce4bgvp2rcd13ifvqct0","pricing_plan_id":"cebpf4jnsgd1na2vs0mg"},{"bike_id":"8fa92ff1-c2cb-4fa2-b3ce-e14c12ce1bf4","system_id":"levelo_inurba_marseille","lat":43.2816,"lon":5.42635,"is_reserved":false,"is_disabled":false,"rental_uris":{"android":"levelo://app?vid=8fa92ff1-c2cb-4fa2-b3ce-e14c12ce1bf4","ios":"levelo://app?vid=8fa92ff1-c2cb-4fa2-b3ce-e14c12ce1bf4"},"vehicle_type_id":"4","last_reported":1743930545,"current_range_meters":4800,"station_id":"ce4bhnh2rcd13ifvqgug","pricing_plan_id":"cebpf4jnsgd1na2vs0mg"},{"bike_id":"9a36e749-313f-43fc-ac90-b52b5015306e","system_id":"levelo_inurba_marseille","lat":43.21193,"lon":5.3508,"is_reserved":false,"is_disabled":false,"rental_uris":{"android":"levelo://app?vid=9a36e749-313f-43fc-ac90-b52b5015306e","ios":"levelo://app?vid=9a36e749-313f-43fc-ac90-b52b5015306e"},"vehicle_type_id":"4","last_reported":1743930545,"current_range_meters":4800,"station_id":"st_cvj6sg6p6f1abm77japg","pricing_plan_id":"cebpf4jnsgd1na2vs0mg"},{"bike_id":"81334faa-2d4e-413f-9e43-5148ed0072c1","system_id":"levelo_inurba_marseille","lat":43.31221,"lon":5.36863,"is_reserved":false,"is_disabled":false,"rental_uris":{"android":"levelo://app?vid=81334faa-2d4e-413f-9e43-5148ed0072c1","ios":"levelo://app?vid=81334faa-2d4e-413f-9e43-5148ed0072c1"},"vehicle_type_id":"4","last_reported":1743930545,"current_range_meters":4800,"station_id":"ce4bgl92rcd13ifvqbq0","pricing_plan_id":"cebpf4jnsgd1na2vs0mg"},{"bike_id":"3daac253-581e-43ab-a219-e273bcb430ae","system_id":"levelo_inurba_marseille","lat":43.29043,"lon":5.39946,"is_reserved":false,"is_disabled":false,"rental_uris":{"android":"levelo://app?vid=3daac253-581e-43ab-a219-e273bcb430ae","ios":"levelo://app?vid=3daac253-581e-43ab-a219-e273bcb430ae"},"vehicle_type_id":"4","last_reported":1743930545,"current_range_meters":4800,"station_id":"ce4bh392rcd13ifvqdm0","pricing_plan_id":"cebpf4jnsgd1na2vs0mg"},{"bike_id":"3f6369ab-88e8-4535-a5e4-1c77d903d599","system_id":"levelo_inurba_marseille","lat":43.26199,"lon":5.37921,"is_reserved":false,"is_disabled":false,"rental_uris":{"android":"levelo://app?vid=3f6369ab-88e8-4535-a5e4-1c77d903d599","ios":"levelo://app?vid=3f6369ab-88e8-4535-a5e4-1c77d903d599"},"vehicle_type_id":"4","last_reported":1743930545,"current_range_meters":4800,"station_id":"ce4bhjp2rcd13ifvqg90","pricing_plan_id":"cebpf4jnsgd1na2vs0mg"},{"bike_id":"b538d2a3-4f09-4b79-be69-a689cd7559df","system_id":"levelo_inurba_marseille","lat":43.28156,"lon":5.42659,"is_reserved":false,"is_disabled":false,"rental_uris":{"android":"levelo://app?vid=b538d2a3-4f09-4b79-be69-a689cd7559df","ios":"levelo://app?vid=b538d2a3-4f09-4b79-be69-a689cd7559df"},"vehicle_type_id":"4","last_reported":1743930545,"current_range_meters":4800,"station_id":"ce4bhnh2rcd13ifvqgug","pricing_plan_id":"cebpf4jnsgd1na2vs0mg"},{"bike_id":"b71a90bd-6f85-4770-a515-2d0fa5402a88","system_id":"levelo_inurba_marseille","lat":43.30985,"lon":5.37944,"is_reserved":false,"is_disabled":false,"rental_uris":{"android":"levelo://app?vid=b71a90bd-6f85-4770-a515-2d0fa5402a88","ios":"levelo://app?vid=b71a90bd-6f85-4770-a515-2d0fa5402a88"},"vehicle_type_id":"4","last_reported":1743930545,"current_range_meters":4800,"station_id":"","pricing_plan_id":"cebpf4jnsgd1na2vs0mg"},{"bike_id":"026b22f5-faef-4439-98a4-803dc3ac7968","system_id":"levelo_inurba_marseille","lat":43.304635,"lon":5.38005,"is_reserved":false,"is_disabled":false,"rental_uris":{"android":"levelo://app?vid=026b22f5-faef-4439-98a4-803dc3ac7968","ios":"levelo://app?vid=026b22f5-faef-4439-98a4-803dc3ac7968"},"vehicle_type_id":"4","last_reported":1743930545,"current_range_meters":5600,"station_id":"ce4bgup2rcd13ifvqcn0","pricing_plan_id":"cebpf4jnsgd1na2vs0mg"},{"bike_id":"317faf55-493e-4889-8dbf-ad7835f378c8","system_id":"levelo_inurba_marseille","lat":43.29571,"lon":5.36744,"is_reserved":false,"is_disabled":false,"rental_uris":{"android":"levelo://app?vid=317faf55-493e-4889-8dbf-ad7835f378c8","ios":"levelo://app?vid=317faf55-493e-4889-8dbf-ad7835f378c8"},"vehicle_type_id":"4","last_reported":1743930545,"current_range_meters":6000,"station_id":"ce4bgph2rcd13ifvqc2g","pricing_plan_id":"cebpf4jnsgd1na2vs0mg"},{"bike_id":"fb0d4993-67fa-4314-9525-ef2ba9197c72","system_id":"levelo_inurba_marseille","lat":43.30321,"lon":5.4059,"is_reserved":false,"is_disabled":false,"rental_uris":{"android":"levelo://app?vid=fb0d4993-67fa-4314-9525-ef2ba9197c72","ios":"levelo://app?vid=fb0d4993-67fa-4314-9525-ef2ba9197c72"},"vehicle_type_id":"4","last_reported":1743930545,"current_range_meters":6000,"station_id":"","pricing_plan_id":"cebpf4jnsgd1na2vs0mg"},{"bike_id":"ff9448e7-2f31-4a91-b1d6-ba9d8a3fe59b","system_id":"levelo_inurba_marseille","lat":43.255829,"lon":5.382293,"is_reserved":false,"is_disabled":false,"rental_uris":{"android":"levelo://app?vid=ff9448e7-2f31-4a91-b1d6-ba9d8a3fe59b","ios":"levelo://app?vid=ff9448e7-2f31-4a91-b1d6-ba9d8a3fe59b"},"vehicle_type_id":"4","last_reported":1743930545,"current_range_meters":6000,"station_id":"ce4bhih2rcd13ifvqfs0","pricing_plan_id":"cebpf4jnsgd1na2vs0mg"},{"bike_id":"6fed2a63-1ee3-4038-82f4-c32fa315f28a","system_id":"levelo_inurba_marseille","lat":43.29632,"lon":5.40598,"is_reserved":false,"is_disabled":false,"rental_uris":{"android":"levelo://app?vid=6fed2a63-1ee3-4038-82f4-c32fa315f28a","ios":"levelo://app?vid=6fed2a63-1ee3-4038-82f4-c32fa315f28a"},"vehicle_type_id":"4","last_reported":1743930545,"current_range_meters":6000,"station_id":"ce4bh0h2rcd13ifvqd60","pricing_plan_id":"cebpf4jnsgd1na2vs0mg"},{"bike_id":"9fe929f7-d7ac-4455-876f-ab3d27792e39","system_id":"levelo_inurba_marseille","lat":43.29861,"lon":5.36271,"is_reserved":false,"is_disabled":false,"rental_uris":{"android":"levelo://app?vid=9fe929f7-d7ac-4455-876f-ab3d27792e39","ios":"levelo://app?vid=9fe929f7-d7ac-4455-876f-ab3d27792e39"},"vehicle_type_id":"4","last_reported":1743930545,"current_range_meters":6000,"station_id":"ce4bgpp2rcd13ifvqc3g","pricing_plan_id":"cebpf4jnsgd1na2vs0mg"},{"bike_id":"b00c5f5a-83a2-41e1-bd8f-6214d2184404","system_id":"levelo_inurba_marseille","lat":43.30196,"lon":5.36624,"is_reserved":false,"is_disabled":false,"rental_uris":{"android":"levelo://app?vid=b00c5f5a-83a2-41e1-bd8f-6214d2184404","ios":"levelo://app?vid=b00c5f5a-83a2-41e1-bd8f-6214d2184404"},"vehicle_type_id":"4","last_reported":1743930545,"current_range_meters":6000,"station_id":"ce4bgrh2rcd13ifvqc8g","pricing_plan_id":"cebpf4jnsgd1na2vs0mg"},{"bike_id":"d96f89f3-b8c8-426d-843e-1be5fa564c9d","system_id":"levelo_inurba_marseille","lat":43.30534,"lon":5.36558,"is_reserved":false,"is_disabled":false,"rental_uris":{"android":"levelo://app?vid=d96f89f3-b8c8-426d-843e-1be5fa564c9d","ios":"levelo://app?vid=d96f89f3-b8c8-426d-843e-1be5fa564c9d"},"vehicle_type_id":"4","last_reported":1743930545,"current_range_meters":6000,"station_id":"ce4bgs12rcd13ifvqcag","pricing_plan_id":"cebpf4jnsgd1na2vs0mg"},{"bike_id":"ac7a85da-6a1d-42f4-b3e0-decaec458451","system_id":"levelo_inurba_marseille","lat":43.22919,"lon":5.35376,"is_reserved":false,"is_disabled":true,"rental_uris":{"android":"levelo://app?vid=ac7a85da-6a1d-42f4-b3e0-decaec458451","ios":"levelo://app?vid=ac7a85da-6a1d-42f4-b3e0-decaec458451"},"vehicle_type_id":"4","last_reported":1743930545,"current_range_meters":6400,"station_id":"cpo3532slgdg3j2ikp40","pricing_plan_id":"cebpf4jnsgd1na2vs0mg"},{"bike_id":"8e8105ce-63e2-4441-9ebe-d6a09a08a22e","system_id":"levelo_inurba_marseille","lat":43.29668,"lon":5.36204,"is_reserved":false,"is_disabled":false,"rental_uris":{"android":"levelo://app?vid=8e8105ce-63e2-4441-9ebe-d6a09a08a22e","ios":"levelo://app?vid=8e8105ce-63e2-4441-9ebe-d6a09a08a22e"},"vehicle_type_id":"4","last_reported":1743930545,"current_range_meters":6400,"station_id":"","pricing_plan_id":"cebpf4jnsgd1na2vs0mg"},{"bike_id":"fb7a6658-65a4-4af9-acc1-679ce624548f","system_id":"levelo_inurba_marseille","lat":43.26225,"lon":5.40452,"is_reserved":false,"is_disabled":false,"rental_uris":{"android":"levelo://app?vid=fb7a6658-65a4-4af9-acc1-679ce624548f","ios":"levelo://app?vid=fb7a6658-65a4-4af9-acc1-679ce624548f"},"vehicle_type_id":"4","last_reported":1743930545,"current_range_meters":6800,"station_id":"ce4bhmh2rcd13ifvqgmg","pricing_plan_id":"cebpf4jnsgd1na2vs0mg"},{"bike_id":"eb79d1f9-7c91-4ea2-b5f8-796189743e1a","system_id":"levelo_inurba_marseille","lat":43.33737,"lon":5.39163,"is_reserved":false,"is_disabled":false,"rental_uris":{"android":"levelo://app?vid=eb79d1f9-7c91-4ea2-b5f8-796189743e1a","ios":"levelo://app?vid=eb79d1f9-7c91-4ea2-b5f8-796189743e1a"},"vehicle_type_id":"4","last_reported":1743930545,"current_range_meters":6800,"station_id":"ce4bhr92rcd13ifvqhsg","pricing_plan_id":"cebpf4jnsgd1na2vs0mg"},{"bike_id":"da2c0523-95d2-4536-9674-1400e7cb2212","system_id":"levelo_inurba_marseille","lat":43.24172,"lon":5.39695,"is_reserved":false,"is_disabled":false,"rental_uris":{"android":"levelo://app?vid=da2c0523-95d2-4536-9674-1400e7cb2212","ios":"levelo://app?vid=da2c0523-95d2-4536-9674-1400e7cb2212"},"vehicle_type_id":"4","last_reported":1743930545,"current_range_meters":6800,"station_id":"ce4bhn12rcd13ifvqgpg","pricing_plan_id":"cebpf4jnsgd1na2vs0mg"},{"bike_id":"d5e984d3-343e-4e16-bd54-bc3ebbd48639","system_id":"levelo_inurba_marseille","lat":43.30138,"lon":5.38787,"is_reserved":false,"is_disabled":true,"rental_uris":{"android":"levelo://app?vid=d5e984d3-343e-4e16-bd54-bc3ebbd48639","ios":"levelo://app?vid=d5e984d3-343e-4e16-bd54-bc3ebbd48639"},"vehicle_type_id":"4","last_reported":1743930545,"current_range_meters":7200,"station_id":"ce4bghh2rcd13ifvqb60","pricing_plan_id":"cebpf4jnsgd1na2vs0mg"},{"bike_id":"597e3cb0-7bf1-4c5c-814c-bff699977597","system_id":"levelo_inurba_marseille","lat":43.33155,"lon":5.3818,"is_reserved":false,"is_disabled":false,"rental_uris":{"android":"levelo://app?vid=597e3cb0-7bf1-4c5c-814c-bff699977597","ios":"levelo://app?vid=597e3cb0-7bf1-4c5c-814c-bff699977597"},"vehicle_type_id":"4","last_reported":1743930545,"current_range_meters":7200,"station_id":"","pricing_plan_id":"cebpf4jnsgd1na2vs0mg"},{"bike_id":"98514e77-22f5-4e2b-9f65-8efc32d06320","system_id":"levelo_inurba_marseille","lat":43.25101,"lon":5.40334,"is_reserved":false,"is_disabled":false,"rental_uris":{"android":"levelo://app?vid=98514e77-22f5-4e2b-9f65-8efc32d06320","ios":"levelo://app?vid=98514e77-22f5-4e2b-9f65-8efc32d06320"},"vehicle_type_id":"4","last_reported":1743930545,"current_range_meters":7200,"station_id":"ce4bhlh2rcd13ifvqgig","pricing_plan_id":"cebpf4jnsgd1na2vs0mg"},{"bike_id":"53bc376f-e4d1-4ba2-b652-37ab1ceb6614","system_id":"levelo_inurba_marseille","lat":43.27376,"lon":5.36249,"is_reserved":false,"is_disabled":false,"rental_uris":{"android":"levelo://app?vid=53bc376f-e4d1-4ba2-b652-37ab1ceb6614","ios":"levelo://app?vid=53bc376f-e4d1-4ba2-b652-37ab1ceb6614"},"vehicle_type_id":"4","last_reported":1743930545,"current_range_meters":7200,"station_id":"ce4bhbh2rcd13ifvqeo0","pricing_plan_id":"cebpf4jnsgd1na2vs0mg"},{"bike_id":"9378cab7-1ef7-47d6-af28-c6473192be1a","system_id":"levelo_inurba_marseille","lat":43.3118,"lon":5.40773,"is_reserved":false,"is_disabled":false,"rental_uris":{"android":"levelo://app?vid=9378cab7-1ef7-47d6-af28-c6473192be1a","ios":"levelo://app?vid=9378cab7-1ef7-47d6-af28-c6473192be1a"},"vehicle_type_id":"4","last_reported":1743930545,"current_range_meters":7200,"station_id":"","pricing_plan_id":"cebpf4jnsgd1na2vs0mg"},{"bike_id":"d0a10f6f-b535-48bd-8067-86f19477a3ea","system_id":"levelo_inurba_marseille","lat":43.24639,"lon":5.38902,"is_reserved":false,"is_disabled":false,"rental_uris":{"android":"levelo://app?vid=d0a10f6f-b535-48bd-8067-86f19477a3ea","ios":"levelo://app?vid=d0a10f6f-b535-48bd-8067-86f19477a3ea"},"vehicle_type_id":"4","last_reported":1743930545,"current_range_meters":7200,"station_id":"ce4bhg12rcd13ifvqf60","pricing_plan_id":"cebpf4jnsgd1na2vs0mg"},{"bike_id":"ee3afc47-3f83-4880-b8af-fe0b4a55c550","system_id":"levelo_inurba_marseille","lat":43.28608,"lon":5.37062,"is_reserved":false,"is_disabled":false,"rental_uris":{"android":"levelo://app?vid=ee3afc47-3f83-4880-b8af-fe0b4a55c550","ios":"levelo://app?vid=ee3afc47-3f83-4880-b8af-fe0b4a55c550"},"vehicle_type_id":"4","last_reported":1743930545,"current_range_meters":7200,"station_id":"ce4bht12rcd13ifvqi60","pricing_plan_id":"cebpf4jnsgd1na2vs0mg"},{"bike_id":"f825fa0b-561d-4b58-a029-a279b1a7e45d","system_id":"levelo_inurba_marseille","lat":43.310774,"lon":5.383673,"is_reserved":false,"is_disabled":false,"rental_uris":{"android":"levelo://app?vid=f825fa0b-561d-4b58-a029-a279b1a7e45d","ios":"levelo://app?vid=f825fa0b-561d-4b58-a029-a279b1a7e45d"},"vehicle_type_id":"4","last_reported":1743930545,"current_range_meters":7200,"station_id":"ce4bgv92rcd13ifvqcr0","pricing_plan_id":"cebpf4jnsgd1na2vs0mg"},{"bike_id":"07c7901b-1e71-4848-9e20-cf44800abe61","system_id":"levelo_inurba_marseille","lat":43.29268,"lon":5.38445,"is_reserved":false,"is_disabled":false,"rental_uris":{"android":"levelo://app?vid=07c7901b-1e71-4848-9e20-cf44800abe61","ios":"levelo://app?vid=07c7901b-1e71-4848-9e20-cf44800abe61"},"vehicle_type_id":"4","last_reported":1743930545,"current_range_meters":7200,"station_id":"ce4bh692rcd13ifvqea0","pricing_plan_id":"cebpf4jnsgd1na2vs0mg"},{"bike_id":"9d5e033b-05b5-411f-8f82-5b44142c931e","system_id":"levelo_inurba_marseille","lat":43.25845,"lon":5.39406,"is_reserved":false,"is_disabled":false,"rental_uris":{"android":"levelo://app?vid=9d5e033b-05b5-411f-8f82-5b44142c931e","ios":"levelo://app?vid=9d5e033b-05b5-411f-8f82-5b44142c931e"},"vehicle_type_id":"4","last_reported":1743930545,"current_range_meters":8000,"station_id":"ce4bhip2rcd13ifvqft0","pricing_plan_id":"cebpf4jnsgd1na2vs0mg"},{"bike_id":"267eeb16-6453-4fb7-8038-3b408a6bb427","system_id":"levelo_inurba_marseille","lat":43.3143,"lon":5.36995,"is_reserved":false,"is_disabled":false,"rental_uris":{"android":"levelo://app?vid=267eeb16-6453-4fb7-8038-3b408a6bb427","ios":"levelo://app?vid=267eeb16-6453-4fb7-8038-3b408a6bb427"},"vehicle_type_id":"4","last_reported":1743930545,"current_range_meters":8000,"station_id":"","pricing_plan_id":"cebpf4jnsgd1na2vs0mg"},{"bike_id":"9246d8bb-4735-434f-b77a-a5133c8b0b74","system_id":"levelo_inurba_marseille","lat":43.29773,"lon":5.38086,"is_reserved":false,"is_disabled":true,"rental_uris":{"android":"levelo://app?vid=9246d8bb-4735-434f-b77a-a5133c8b0b74","ios":"levelo://app?vid=9246d8bb-4735-434f-b77a-a5133c8b0b74"},"vehicle_type_id":"4","last_reported":1743930545,"current_range_meters":8000,"station_id":"ce4bgip2rcd13ifvqbb0","pricing_plan_id":"cebpf4jnsgd1na2vs0mg"},{"bike_id":"30b57730-cb66-4122-bd93-7dabcaba84e7","system_id":"levelo_inurba_marseille","lat":43.24914,"lon":5.40683,"is_reserved":false,"is_disabled":false,"rental_uris":{"android":"levelo://app?vid=30b57730-cb66-4122-bd93-7dabcaba84e7","ios":"levelo://app?vid=30b57730-cb66-4122-bd93-7dabcaba84e7"},"vehicle_type_id":"4","last_reported":1743930545,"current_range_meters":8000,"station_id":"","pricing_plan_id":"cebpf4jnsgd1na2vs0mg"},{"bike_id":"b5b7e338-7921-4104-8fa9-b0ad19c08d8e","system_id":"levelo_inurba_marseille","lat":43.28077,"lon":5.39663,"is_reserved":false,"is_disabled":false,"rental_uris":{"android":"levelo://app?vid=b5b7e338-7921-4104-8fa9-b0ad19c08d8e","ios":"levelo://app?vid=b5b7e338-7921-4104-8fa9-b0ad19c08d8e"},"vehicle_type_id":"4","last_reported":1743930545,"current_range_meters":8000,"station_id":"ce4bho12rcd13ifvqh2g","pricing_plan_id":"cebpf4jnsgd1na2vs0mg"},{"bike_id":"4ac6dfb0-5fb3-41d5-9e83-0029602112f6","system_id":"levelo_inurba_marseille","lat":43.29732,"lon":5.36608,"is_reserved":false,"is_disabled":true,"rental_uris":{"android":"levelo://app?vid=4ac6dfb0-5fb3-41d5-9e83-0029602112f6","ios":"levelo://app?vid=4ac6dfb0-5fb3-41d5-9e83-0029602112f6"},"vehicle_type_id":"4","last_reported":1743930545,"current_range_meters":8400,"station_id":"ce4bgn12rcd13ifvqbt0","pricing_plan_id":"cebpf4jnsgd1na2vs0mg"},{"bike_id":"db29433a-c7f6-40d6-b0e1-3a1f0abf15ab","system_id":"levelo_inurba_marseille","lat":43.241712,"lon":5.364041,"is_reserved":false,"is_disabled":true,"rental_uris":{"android":"levelo://app?vid=db29433a-c7f6-40d6-b0e1-3a1f0abf15ab","ios":"levelo://app?vid=db29433a-c7f6-40d6-b0e1-3a1f0abf15ab"},"vehicle_type_id":"4","last_reported":1743930545,"current_range_meters":8400,"station_id":"ce4bh412rcd13ifvqdr0","pricing_plan_id":"cebpf4jnsgd1na2vs0mg"},{"bike_id":"a6a4aada-4dec-4c66-9029-bd9ebff46b38","system_id":"levelo_inurba_marseille","lat":43.313276,"lon":5.397029,"is_reserved":false,"is_disabled":false,"rental_uris":{"android":"levelo://app?vid=a6a4aada-4dec-4c66-9029-bd9ebff46b38","ios":"levelo://app?vid=a6a4aada-4dec-4c66-9029-bd9ebff46b38"},"vehicle_type_id":"4","last_reported":1743930545,"current_range_meters":8400,"station_id":"ce4bgvp2rcd13ifvqcu0","pricing_plan_id":"cebpf4jnsgd1na2vs0mg"},{"bike_id":"fdfd01fc-093d-4c48-8c80-06fe1b4633e3","system_id":"levelo_inurba_marseille","lat":43.29238,"lon":5.38425,"is_reserved":false,"is_disabled":true,"rental_uris":{"android":"levelo://app?vid=fdfd01fc-093d-4c48-8c80-06fe1b4633e3","ios":"levelo://app?vid=fdfd01fc-093d-4c48-8c80-06fe1b4633e3"},"vehicle_type_id":"4","last_reported":1743930545,"current_range_meters":8400,"station_id":"ce4bh692rcd13ifvqea0","pricing_plan_id":"cebpf4jnsgd1na2vs0mg"},{"bike_id":"b7a6d371-4cea-45c6-b168-85005dec8f56","system_id":"levelo_inurba_marseille","lat":43.31339,"lon":5.39729,"is_reserved":false,"is_disabled":false,"rental_uris":{"android":"levelo://app?vid=b7a6d371-4cea-45c6-b168-85005dec8f56","ios":"levelo://app?vid=b7a6d371-4cea-45c6-b168-85005dec8f56"},"vehicle_type_id":"4","last_reported":1743930545,"current_range_meters":8400,"station_id":"ce4bgvp2rcd13ifvqcu0","pricing_plan_id":"cebpf4jnsgd1na2vs0mg"},{"bike_id":"4c25fb76-cd0e-4544-8837-d2585ee48375","system_id":"levelo_inurba_marseille","lat":43.298891,"lon":5.436718,"is_reserved":false,"is_disabled":false,"rental_uris":{"android":"levelo://app?vid=4c25fb76-cd0e-4544-8837-d2585ee48375","ios":"levelo://app?vid=4c25fb76-cd0e-4544-8837-d2585ee48375"},"vehicle_type_id":"4","last_reported":1743930545,"current_range_meters":8400,"station_id":"ce4bhpp2rcd13ifvqhfg","pricing_plan_id":"cebpf4jnsgd1na2vs0mg"},{"bike_id":"a7c2c1f2-f86f-41e7-bd6d-8a6dfae4d3eb","system_id":"levelo_inurba_marseille","lat":43.28606,"lon":5.37066,"is_reserved":false,"is_disabled":false,"rental_uris":{"android":"levelo://app?vid=a7c2c1f2-f86f-41e7-bd6d-8a6dfae4d3eb","ios":"levelo://app?vid=a7c2c1f2-f86f-41e7-bd6d-8a6dfae4d3eb"},"vehicle_type_id":"4","last_reported":1743930545,"current_range_meters":8400,"station_id":"ce4bht12rcd13ifvqi60","pricing_plan_id":"cebpf4jnsgd1na2vs0mg"},{"bike_id":"e5a7e6b1-2168-407f-8739-469989498272","system_id":"levelo_inurba_marseille","lat":43.31717,"lon":5.43703,"is_reserved":false,"is_disabled":false,"rental_uris":{"android":"levelo://app?vid=e5a7e6b1-2168-407f-8739-469989498272","ios":"levelo://app?vid=e5a7e6b1-2168-407f-8739-469989498272"},"vehicle_type_id":"4","last_reported":1743930545,"current_range_meters":8400,"station_id":"ce4bhp92rcd13ifvqhcg","pricing_plan_id":"cebpf4jnsgd1na2vs0mg"},{"bike_id":"7f414c42-2aeb-4568-b6fb-a47266229789","system_id":"levelo_inurba_marseille","lat":43.2291,"lon":5.35331,"is_reserved":false,"is_disabled":false,"rental_uris":{"android":"levelo://app?vid=7f414c42-2aeb-4568-b6fb-a47266229789","ios":"levelo://app?vid=7f414c42-2aeb-4568-b6fb-a47266229789"},"vehicle_type_id":"4","last_reported":1743930545,"current_range_meters":8400,"station_id":"cpo3532slgdg3j2ikp40","pricing_plan_id":"cebpf4jnsgd1na2vs0mg"},{"bike_id":"9f3986ed-7e09-49d3-8d97-dbac184e8474","system_id":"levelo_inurba_marseille","lat":43.2693,"lon":5.38618,"is_reserved":false,"is_disabled":false,"rental_uris":{"android":"levelo://app?vid=9f3986ed-7e09-49d3-8d97-dbac184e8474","ios":"levelo://app?vid=9f3986ed-7e09-49d3-8d97-dbac184e8474"},"vehicle_type_id":"4","last_reported":1743930545,"current_range_meters":8400,"station_id":"ce4bhh92rcd13ifvqfh0","pricing_plan_id":"cebpf4jnsgd1na2vs0mg"},{"bike_id":"5519561e-6a78-4e38-8de4-84b7f76a38b0","system_id":"levelo_inurba_marseille","lat":43.30915,"lon":5.401701,"is_reserved":false,"is_disabled":true,"rental_uris":{"android":"levelo://app?vid=5519561e-6a78-4e38-8de4-84b7f76a38b0","ios":"levelo://app?vid=5519561e-6a78-4e38-8de4-84b7f76a38b0"},"vehicle_type_id":"4","last_reported":1743930545,"current_range_meters":8400,"station_id":"ce4bgvp2rcd13ifvqct0","pricing_plan_id":"cebpf4jnsgd1na2vs0mg"},{"bike_id":"45b4008f-54c1-4d17-8bbf-96f80d4fa84f","system_id":"levelo_inurba_marseille","lat":43.32101,"lon":5.36786,"is_reserved":false,"is_disabled":false,"rental_uris":{"android":"levelo://app?vid=45b4008f-54c1-4d17-8bbf-96f80d4fa84f","ios":"levelo://app?vid=45b4008f-54c1-4d17-8bbf-96f80d4fa84f"},"vehicle_type_id":"4","last_reported":1743930545,"current_range_meters":8400,"station_id":"ce4bhrh2rcd13ifvqhug","pricing_plan_id":"cebpf4jnsgd1na2vs0mg"},{"bike_id":"02779b29-7a5d-439e-936a-d77d08eab911","system_id":"levelo_inurba_marseille","lat":43.24992,"lon":5.3893,"is_reserved":false,"is_disabled":false,"rental_uris":{"android":"levelo://app?vid=02779b29-7a5d-439e-936a-d77d08eab911","ios":"levelo://app?vid=02779b29-7a5d-439e-936a-d77d08eab911"},"vehicle_type_id":"4","last_reported":1743930545,"current_range_meters":8400,"station_id":"ce4bhgp2rcd13ifvqfd0","pricing_plan_id":"cebpf4jnsgd1na2vs0mg"},{"bike_id":"4a79947f-5a38-484f-87e2-60b6af9027ff","system_id":"levelo_inurba_marseille","lat":43.28145,"lon":5.42604,"is_reserved":false,"is_disabled":false,"rental_uris":{"android":"levelo://app?vid=4a79947f-5a38-484f-87e2-60b6af9027ff","ios":"levelo://app?vid=4a79947f-5a38-484f-87e2-60b6af9027ff"},"vehicle_type_id":"4","last_reported":1743930545,"current_range_meters":8800,"station_id":"ce4bhnh2rcd13ifvqgug","pricing_plan_id":"cebpf4jnsgd1na2vs0mg"},{"bike_id":"301b6729-c45c-4915-8ef6-dadde3959d3d","system_id":"levelo_inurba_marseille","lat":43.2656,"lon":5.39004,"is_reserved":false,"is_disabled":true,"rental_uris":{"android":"levelo://app?vid=301b6729-c45c-4915-8ef6-dadde3959d3d","ios":"levelo://app?vid=301b6729-c45c-4915-8ef6-dadde3959d3d"},"vehicle_type_id":"4","last_reported":1743930545,"current_range_meters":8800,"station_id":"ce4bhe12rcd13ifvqf30","pricing_plan_id":"cebpf4jnsgd1na2vs0mg"},{"bike_id":"43718d37-b132-4a2d-9430-23101833a89e","system_id":"levelo_inurba_marseille","lat":43.30854,"lon":5.38091,"is_reserved":false,"is_disabled":false,"rental_uris":{"android":"levelo://app?vid=43718d37-b132-4a2d-9430-23101833a89e","ios":"levelo://app?vid=43718d37-b132-4a2d-9430-23101833a89e"},"vehicle_type_id":"4","last_reported":1743930545,"current_range_meters":8800,"station_id":"","pricing_plan_id":"cebpf4jnsgd1na2vs0mg"},{"bike_id":"bead49ad-4f08-409b-b5dc-f17872424c3c","system_id":"levelo_inurba_marseille","lat":43.29524,"lon":5.42248,"is_reserved":false,"is_disabled":false,"rental_uris":{"android":"levelo://app?vid=bead49ad-4f08-409b-b5dc-f17872424c3c","ios":"levelo://app?vid=bead49ad-4f08-409b-b5dc-f17872424c3c"},"vehicle_type_id":"4","last_reported":1743930545,"current_range_meters":8800,"station_id":"ce4bhph2rcd13ifvqhdg","pricing_plan_id":"cebpf4jnsgd1na2vs0mg"},{"bike_id":"7a935817-47e2-4cb3-8324-a647fdf3a140","system_id":"levelo_inurba_marseille","lat":43.295355,"lon":5.385456,"is_reserved":false,"is_disabled":true,"rental_uris":{"android":"levelo://app?vid=7a935817-47e2-4cb3-8324-a647fdf3a140","ios":"levelo://app?vid=7a935817-47e2-4cb3-8324-a647fdf3a140"},"vehicle_type_id":"4","last_reported":1743930545,"current_range_meters":8800,"station_id":"ce4bgih2rcd13ifvqba0","pricing_plan_id":"cebpf4jnsgd1na2vs0mg"},{"bike_id":"68ea0086-76a8-4c6e-b84d-9082869e46b1","system_id":"levelo_inurba_marseille","lat":43.303546,"lon":5.418811,"is_reserved":false,"is_disabled":false,"rental_uris":{"android":"levelo://app?vid=68ea0086-76a8-4c6e-b84d-9082869e46b1","ios":"levelo://app?vid=68ea0086-76a8-4c6e-b84d-9082869e46b1"},"vehicle_type_id":"4","last_reported":1743930545,"current_range_meters":8800,"station_id":"ce4bhop2rcd13ifvqh7g","pricing_plan_id":"cebpf4jnsgd1na2vs0mg"},{"bike_id":"c6be368f-888b-4032-8930-33d5cbf2657b","system_id":"levelo_inurba_marseille","lat":43.29902,"lon":5.4365,"is_reserved":false,"is_disabled":false,"rental_uris":{"android":"levelo://app?vid=c6be368f-888b-4032-8930-33d5cbf2657b","ios":"levelo://app?vid=c6be368f-888b-4032-8930-33d5cbf2657b"},"vehicle_type_id":"4","last_reported":1743930545,"current_range_meters":8800,"station_id":"ce4bhpp2rcd13ifvqhfg","pricing_plan_id":"cebpf4jnsgd1na2vs0mg"},{"bike_id":"5ba0afa0-a7ab-4a34-baac-dadd66c92458","system_id":"levelo_inurba_marseille","lat":43.28267,"lon":5.35052,"is_reserved":false,"is_disabled":false,"rental_uris":{"android":"levelo://app?vid=5ba0afa0-a7ab-4a34-baac-dadd66c92458","ios":"levelo://app?vid=5ba0afa0-a7ab-4a34-baac-dadd66c92458"},"vehicle_type_id":"4","last_reported":1743930545,"current_range_meters":8800,"station_id":"ce4bhbp2rcd13ifvqerg","pricing_plan_id":"cebpf4jnsgd1na2vs0mg"},{"bike_id":"77308609-d3ec-4a55-b2c0-9ec1eab07bf9","system_id":"levelo_inurba_marseille","lat":43.29303,"lon":5.36841,"is_reserved":false,"is_disabled":false,"rental_uris":{"android":"levelo://app?vid=77308609-d3ec-4a55-b2c0-9ec1eab07bf9","ios":"levelo://app?vid=77308609-d3ec-4a55-b2c0-9ec1eab07bf9"},"vehicle_type_id":"4","last_reported":1743930545,"current_range_meters":8800,"station_id":"ce4bhbp2rcd13ifvqesg","pricing_plan_id":"cebpf4jnsgd1na2vs0mg"},{"bike_id":"596c8839-b7cf-45b4-a690-17d962944c1f","system_id":"levelo_inurba_marseille","lat":43.24634,"lon":5.38909,"is_reserved":false,"is_disabled":false,"rental_uris":{"android":"levelo://app?vid=596c8839-b7cf-45b4-a690-17d962944c1f","ios":"levelo://app?vid=596c8839-b7cf-45b4-a690-17d962944c1f"},"vehicle_type_id":"4","last_reported":1743930545,"current_range_meters":8800,"station_id":"ce4bhg12rcd13ifvqf60","pricing_plan_id":"cebpf4jnsgd1na2vs0mg"},{"bike_id":"aeaafdce-072b-410b-bb71-bd5216dc505b","system_id":"levelo_inurba_marseille","lat":43.2313,"lon":5.40048,"is_reserved":false,"is_disabled":false,"rental_uris":{"android":"levelo://app?vid=aeaafdce-072b-410b-bb71-bd5216dc505b","ios":"levelo://app?vid=aeaafdce-072b-410b-bb71-bd5216dc505b"},"vehicle_type_id":"4","last_reported":1743930545,"current_range_meters":9200,"station_id":"","pricing_plan_id":"cebpf4jnsgd1na2vs0mg"},{"bike_id":"2b8f412f-27ed-44df-8391-3077c2423f8f","system_id":"levelo_inurba_marseille","lat":43.30911,"lon":5.37185,"is_reserved":false,"is_disabled":false,"rental_uris":{"android":"levelo://app?vid=2b8f412f-27ed-44df-8391-3077c2423f8f","ios":"levelo://app?vid=2b8f412f-27ed-44df-8391-3077c2423f8f"},"vehicle_type_id":"4","last_reported":1743930545,"current_range_meters":9200,"station_id":"ce4bguh2rcd13ifvqckg","pricing_plan_id":"cebpf4jnsgd1na2vs0mg"},{"bike_id":"9ad37536-c955-4431-ab90-8691093425c4","system_id":"levelo_inurba_marseille","lat":43.29844,"lon":5.36263,"is_reserved":false,"is_disabled":false,"rental_uris":{"android":"levelo://app?vid=9ad37536-c955-4431-ab90-8691093425c4","ios":"levelo://app?vid=9ad37536-c955-4431-ab90-8691093425c4"},"vehicle_type_id":"4","last_reported":1743930545,"current_range_meters":9200,"station_id":"ce4bgpp2rcd13ifvqc3g","pricing_plan_id":"cebpf4jnsgd1na2vs0mg"},{"bike_id":"ba05910d-bdff-42fa-a381-3dd9cd2490d5","system_id":"levelo_inurba_marseille","lat":43.30247,"lon":5.40049,"is_reserved":false,"is_disabled":false,"rental_uris":{"android":"levelo://app?vid=ba05910d-bdff-42fa-a381-3dd9cd2490d5","ios":"levelo://app?vid=ba05910d-bdff-42fa-a381-3dd9cd2490d5"},"vehicle_type_id":"4","last_reported":1743930545,"current_range_meters":9200,"station_id":"ce4bgvh2rcd13ifvqcs0","pricing_plan_id":"cebpf4jnsgd1na2vs0mg"},{"bike_id":"1d16e172-d477-4a96-8d7d-42ff6a622d2e","system_id":"levelo_inurba_marseille","lat":43.246904,"lon":5.411937,"is_reserved":false,"is_disabled":false,"rental_uris":{"android":"levelo://app?vid=1d16e172-d477-4a96-8d7d-42ff6a622d2e","ios":"levelo://app?vid=1d16e172-d477-4a96-8d7d-42ff6a622d2e"},"vehicle_type_id":"4","last_reported":1743930545,"current_range_meters":9200,"station_id":"","pricing_plan_id":"cebpf4jnsgd1na2vs0mg"},{"bike_id":"53634a60-50c5-4296-8062-7e1f0d525848","system_id":"levelo_inurba_marseille","lat":43.299218,"lon":5.363403,"is_reserved":false,"is_disabled":false,"rental_uris":{"android":"levelo://app?vid=53634a60-50c5-4296-8062-7e1f0d525848","ios":"levelo://app?vid=53634a60-50c5-4296-8062-7e1f0d525848"},"vehicle_type_id":"4","last_reported":1743930545,"current_range_meters":9200,"station_id":"","pricing_plan_id":"cebpf4jnsgd1na2vs0mg"},{"bike_id":"b70cced5-dc6e-4ac4-aef4-4cfbee9a2e11","system_id":"levelo_inurba_marseille","lat":43.29594,"lon":5.37709,"is_reserved":false,"is_disabled":true,"rental_uris":{"android":"levelo://app?vid=b70cced5-dc6e-4ac4-aef4-4cfbee9a2e11","ios":"levelo://app?vid=b70cced5-dc6e-4ac4-aef4-4cfbee9a2e11"},"vehicle_type_id":"4","last_reported":1743930545,"current_range_meters":9200,"station_id":"ce4bgi92rcd13ifvqb90","pricing_plan_id":"cebpf4jnsgd1na2vs0mg"},{"bike_id":"0f3d6cb8-7efe-42ee-ab50-2a663f90e5af","system_id":"levelo_inurba_marseille","lat":43.27629,"lon":5.36088,"is_reserved":false,"is_disabled":false,"rental_uris":{"android":"levelo://app?vid=0f3d6cb8-7efe-42ee-ab50-2a663f90e5af","ios":"levelo://app?vid=0f3d6cb8-7efe-42ee-ab50-2a663f90e5af"},"vehicle_type_id":"4","last_reported":1743930545,"current_range_meters":9200,"station_id":"ce4bgj92rcd13ifvqbe0","pricing_plan_id":"cebpf4jnsgd1na2vs0mg"},{"bike_id":"6b652b17-4709-4398-8896-6b070cee45a3","system_id":"levelo_inurba_marseille","lat":43.315084,"lon":5.380435,"is_reserved":false,"is_disabled":false,"rental_uris":{"android":"levelo://app?vid=6b652b17-4709-4398-8896-6b070cee45a3","ios":"levelo://app?vid=6b652b17-4709-4398-8896-6b070cee45a3"},"vehicle_type_id":"4","last_reported":1743930545,"current_range_meters":9600,"station_id":"ce4bhsp2rcd13ifvqi50","pricing_plan_id":"cebpf4jnsgd1na2vs0mg"},{"bike_id":"1622461e-25a5-4ec6-9188-643400d8cf0e","system_id":"levelo_inurba_marseille","lat":43.30803,"lon":5.43524,"is_reserved":false,"is_disabled":false,"rental_uris":{"android":"levelo://app?vid=1622461e-25a5-4ec6-9188-643400d8cf0e","ios":"levelo://app?vid=1622461e-25a5-4ec6-9188-643400d8cf0e"},"vehicle_type_id":"4","last_reported":1743930545,"current_range_meters":9600,"station_id":"ce4bhph2rcd13ifvqheg","pricing_plan_id":"cebpf4jnsgd1na2vs0mg"},{"bike_id":"0390015b-5bef-448b-bc10-44e5f8ab3c5f","system_id":"levelo_inurba_marseille","lat":43.25848,"lon":5.39421,"is_reserved":false,"is_disabled":false,"rental_uris":{"android":"levelo://app?vid=0390015b-5bef-448b-bc10-44e5f8ab3c5f","ios":"levelo://app?vid=0390015b-5bef-448b-bc10-44e5f8ab3c5f"},"vehicle_type_id":"4","last_reported":1743930545,"current_range_meters":9600,"station_id":"ce4bhip2rcd13ifvqft0","pricing_plan_id":"cebpf4jnsgd1na2vs0mg"},{"bike_id":"1bf28fcd-357a-43a7-b215-31bb2951a59c","system_id":"levelo_inurba_marseille","lat":43.29565,"lon":5.42318,"is_reserved":false,"is_disabled":false,"rental_uris":{"android":"levelo://app?vid=1bf28fcd-357a-43a7-b215-31bb2951a59c","ios":"levelo://app?vid=1bf28fcd-357a-43a7-b215-31bb2951a59c"},"vehicle_type_id":"4","last_reported":1743930545,"current_range_meters":9600,"station_id":"ce4bhph2rcd13ifvqhdg","pricing_plan_id":"cebpf4jnsgd1na2vs0mg"},{"bike_id":"6b6a8aef-8598-4cf3-b8df-3b495ddf55dd","system_id":"levelo_inurba_marseille","lat":43.32044,"lon":5.41549,"is_reserved":false,"is_disabled":false,"rental_uris":{"android":"levelo://app?vid=6b6a8aef-8598-4cf3-b8df-3b495ddf55dd","ios":"levelo://app?vid=6b6a8aef-8598-4cf3-b8df-3b495ddf55dd"},"vehicle_type_id":"4","last_reported":1743930545,"current_range_meters":9600,"station_id":"ce4bhq92rcd13ifvqhkg","pricing_plan_id":"cebpf4jnsgd1na2vs0mg"},{"bike_id":"64928ba1-df5f-4bed-a597-6dab5f3f4879","system_id":"levelo_inurba_marseille","lat":43.21738,"lon":5.3459,"is_reserved":false,"is_disabled":false,"rental_uris":{"android":"levelo://app?vid=64928ba1-df5f-4bed-a597-6dab5f3f4879","ios":"levelo://app?vid=64928ba1-df5f-4bed-a597-6dab5f3f4879"},"vehicle_type_id":"4","last_reported":1743930545,"current_range_meters":9600,"station_id":"st_cvj6r9ubvosntc0bgbag","pricing_plan_id":"cebpf4jnsgd1na2vs0mg"},{"bike_id":"1946e314-eb60-418f-abb3-0e12975613d2","system_id":"levelo_inurba_marseille","lat":43.29275,"lon":5.36845,"is_reserved":false,"is_disabled":false,"rental_uris":{"android":"levelo://app?vid=1946e314-eb60-418f-abb3-0e12975613d2","ios":"levelo://app?vid=1946e314-eb60-418f-abb3-0e12975613d2"},"vehicle_type_id":"4","last_reported":1743930545,"current_range_meters":9600,"station_id":"ce4bhbp2rcd13ifvqesg","pricing_plan_id":"cebpf4jnsgd1na2vs0mg"},{"bike_id":"4f7c2cc0-5ad1-402b-80a6-41908fad589f","system_id":"levelo_inurba_marseille","lat":43.22933,"lon":5.35378,"is_reserved":false,"is_disabled":false,"rental_uris":{"android":"levelo://app?vid=4f7c2cc0-5ad1-402b-80a6-41908fad589f","ios":"levelo://app?vid=4f7c2cc0-5ad1-402b-80a6-41908fad589f"},"vehicle_type_id":"4","last_reported":1743930545,"current_range_meters":9600,"station_id":"cpo3532slgdg3j2ikp40","pricing_plan_id":"cebpf4jnsgd1na2vs0mg"},{"bike_id":"949d6423-3352-438e-8bfd-3303fb19a91f","system_id":"levelo_inurba_marseille","lat":43.26958,"lon":5.38635,"is_reserved":false,"is_disabled":false,"rental_uris":{"android":"levelo://app?vid=949d6423-3352-438e-8bfd-3303fb19a91f","ios":"levelo://app?vid=949d6423-3352-438e-8bfd-3303fb19a91f"},"vehicle_type_id":"4","last_reported":1743930545,"current_range_meters":9600,"station_id":"ce4bhh92rcd13ifvqfh0","pricing_plan_id":"cebpf4jnsgd1na2vs0mg"},{"bike_id":"8ebecaba-d031-4628-83c3-8ffa1c9cf003","system_id":"levelo_inurba_marseille","lat":43.30468,"lon":5.37904,"is_reserved":false,"is_disabled":false,"rental_uris":{"android":"levelo://app?vid=8ebecaba-d031-4628-83c3-8ffa1c9cf003","ios":"levelo://app?vid=8ebecaba-d031-4628-83c3-8ffa1c9cf003"},"vehicle_type_id":"4","last_reported":1743930545,"current_range_meters":9600,"station_id":"ce4bgup2rcd13ifvqcn0","pricing_plan_id":"cebpf4jnsgd1na2vs0mg"},{"bike_id":"e47d0894-a5ef-4a54-99dc-25ba483d11d9","system_id":"levelo_inurba_marseille","lat":43.29278,"lon":5.36864,"is_reserved":false,"is_disabled":false,"rental_uris":{"android":"levelo://app?vid=e47d0894-a5ef-4a54-99dc-25ba483d11d9","ios":"levelo://app?vid=e47d0894-a5ef-4a54-99dc-25ba483d11d9"},"vehicle_type_id":"4","last_reported":1743930545,"current_range_meters":9600,"station_id":"ce4bhbp2rcd13ifvqesg","pricing_plan_id":"cebpf4jnsgd1na2vs0mg"},{"bike_id":"ef2a2ca1-4f86-4e54-8549-eed27a676d71","system_id":"levelo_inurba_marseille","lat":43.29274,"lon":5.36832,"is_reserved":false,"is_disabled":false,"rental_uris":{"android":"levelo://app?vid=ef2a2ca1-4f86-4e54-8549-eed27a676d71","ios":"levelo://app?vid=ef2a2ca1-4f86-4e54-8549-eed27a676d71"},"vehicle_type_id":"4","last_reported":1743930545,"current_range_meters":9600,"station_id":"ce4bhbp2rcd13ifvqesg","pricing_plan_id":"cebpf4jnsgd1na2vs0mg"},{"bike_id":"cc8e49e6-a408-4f2b-9358-55f50dd0cf5a","system_id":"levelo_inurba_marseille","lat":43.32043,"lon":5.41544,"is_reserved":false,"is_disabled":false,"rental_uris":{"android":"levelo://app?vid=cc8e49e6-a408-4f2b-9358-55f50dd0cf5a","ios":"levelo://app?vid=cc8e49e6-a408-4f2b-9358-55f50dd0cf5a"},"vehicle_type_id":"4","last_reported":1743930545,"current_range_meters":10000,"station_id":"ce4bhq92rcd13ifvqhkg","pricing_plan_id":"cebpf4jnsgd1na2vs0mg"},{"bike_id":"64fc428c-8b98-49bd-be4b-80f97f9a87a3","system_id":"levelo_inurba_marseille","lat":43.303131,"lon":5.368983,"is_reserved":false,"is_disabled":false,"rental_uris":{"android":"levelo://app?vid=64fc428c-8b98-49bd-be4b-80f97f9a87a3","ios":"levelo://app?vid=64fc428c-8b98-49bd-be4b-80f97f9a87a3"},"vehicle_type_id":"4","last_reported":1743930545,"current_range_meters":10000,"station_id":"ce4bgqh2rcd13ifvqc5g","pricing_plan_id":"cebpf4jnsgd1na2vs0mg"},{"bike_id":"c0ca0a91-b628-4481-81af-14cf49388c1c","system_id":"levelo_inurba_marseille","lat":43.27374,"lon":5.36251,"is_reserved":false,"is_disabled":false,"rental_uris":{"android":"levelo://app?vid=c0ca0a91-b628-4481-81af-14cf49388c1c","ios":"levelo://app?vid=c0ca0a91-b628-4481-81af-14cf49388c1c"},"vehicle_type_id":"4","last_reported":1743930545,"current_range_meters":10000,"station_id":"ce4bhbh2rcd13ifvqeo0","pricing_plan_id":"cebpf4jnsgd1na2vs0mg"},{"bike_id":"6b7393a0-ff7d-45d7-a9d9-6ade3bd6b183","system_id":"levelo_inurba_marseille","lat":43.267839,"lon":5.394188,"is_reserved":false,"is_disabled":false,"rental_uris":{"android":"levelo://app?vid=6b7393a0-ff7d-45d7-a9d9-6ade3bd6b183","ios":"levelo://app?vid=6b7393a0-ff7d-45d7-a9d9-6ade3bd6b183"},"vehicle_type_id":"4","last_reported":1743930545,"current_range_meters":10000,"station_id":"ce4bhlh2rcd13ifvqgig","pricing_plan_id":"cebpf4jnsgd1na2vs0mg"},{"bike_id":"867fb900-f56e-4c6b-83c4-e5102d4bd393","system_id":"levelo_inurba_marseille","lat":43.32333,"lon":5.40614,"is_reserved":false,"is_disabled":false,"rental_uris":{"android":"levelo://app?vid=867fb900-f56e-4c6b-83c4-e5102d4bd393","ios":"levelo://app?vid=867fb900-f56e-4c6b-83c4-e5102d4bd393"},"vehicle_type_id":"4","last_reported":1743930545,"current_range_meters":10000,"station_id":"ce4bhq92rcd13ifvqhjg","pricing_plan_id":"cebpf4jnsgd1na2vs0mg"},{"bike_id":"c5a180ee-9b66-4c05-bdde-4100257c7dd0","system_id":"levelo_inurba_marseille","lat":43.217555,"lon":5.345998,"is_reserved":false,"is_disabled":false,"rental_uris":{"android":"levelo://app?vid=c5a180ee-9b66-4c05-bdde-4100257c7dd0","ios":"levelo://app?vid=c5a180ee-9b66-4c05-bdde-4100257c7dd0"},"vehicle_type_id":"4","last_reported":1743930545,"current_range_meters":10000,"station_id":"st_cvj6r9ubvosntc0bgbag","pricing_plan_id":"cebpf4jnsgd1na2vs0mg"},{"bike_id":"331ea854-5ef0-408d-9b23-b2372e32220a","system_id":"levelo_inurba_marseille","lat":43.30139,"lon":5.38105,"is_reserved":false,"is_disabled":false,"rental_uris":{"android":"levelo://app?vid=331ea854-5ef0-408d-9b23-b2372e32220a","ios":"levelo://app?vid=331ea854-5ef0-408d-9b23-b2372e32220a"},"vehicle_type_id":"4","last_reported":1743930545,"current_range_meters":10000,"station_id":"ce4bgjp2rcd13ifvqbh0","pricing_plan_id":"cebpf4jnsgd1na2vs0mg"},{"bike_id":"9e065a82-9f50-4cb7-a540-8588637168ef","system_id":"levelo_inurba_marseille","lat":43.29283,"lon":5.36845,"is_reserved":false,"is_disabled":false,"rental_uris":{"android":"levelo://app?vid=9e065a82-9f50-4cb7-a540-8588637168ef","ios":"levelo://app?vid=9e065a82-9f50-4cb7-a540-8588637168ef"},"vehicle_type_id":"4","last_reported":1743930545,"current_range_meters":10000,"station_id":"ce4bhbp2rcd13ifvqesg","pricing_plan_id":"cebpf4jnsgd1na2vs0mg"},{"bike_id":"21f8acc6-ad6e-4601-b104-7de5e76cb194","system_id":"levelo_inurba_marseille","lat":43.28152,"lon":5.42652,"is_reserved":false,"is_disabled":false,"rental_uris":{"android":"levelo://app?vid=21f8acc6-ad6e-4601-b104-7de5e76cb194","ios":"levelo://app?vid=21f8acc6-ad6e-4601-b104-7de5e76cb194"},"vehicle_type_id":"4","last_reported":1743930545,"current_range_meters":10000,"station_id":"ce4bhnh2rcd13ifvqgug","pricing_plan_id":"cebpf4jnsgd1na2vs0mg"},{"bike_id":"936233dd-1e5b-4f07-9529-f0ff53a06c61","system_id":"levelo_inurba_marseille","lat":43.24663,"lon":5.38169,"is_reserved":false,"is_disabled":false,"rental_uris":{"android":"levelo://app?vid=936233dd-1e5b-4f07-9529-f0ff53a06c61","ios":"levelo://app?vid=936233dd-1e5b-4f07-9529-f0ff53a06c61"},"vehicle_type_id":"4","last_reported":1743930545,"current_range_meters":10800,"station_id":"ce4bhih2rcd13ifvqfr0","pricing_plan_id":"cebpf4jnsgd1na2vs0mg"},{"bike_id":"b598b6b8-69a3-4491-bd9b-eb0a2b32b0cf","system_id":"levelo_inurba_marseille","lat":43.31036,"lon":5.38028,"is_reserved":false,"is_disabled":false,"rental_uris":{"android":"levelo://app?vid=b598b6b8-69a3-4491-bd9b-eb0a2b32b0cf","ios":"levelo://app?vid=b598b6b8-69a3-4491-bd9b-eb0a2b32b0cf"},"vehicle_type_id":"4","last_reported":1743930545,"current_range_meters":10800,"station_id":"","pricing_plan_id":"cebpf4jnsgd1na2vs0mg"},{"bike_id":"00393ee2-317d-4e98-a30d-fd25773ef49f","system_id":"levelo_inurba_marseille","lat":43.3526,"lon":5.35787,"is_reserved":false,"is_disabled":false,"rental_uris":{"android":"levelo://app?vid=00393ee2-317d-4e98-a30d-fd25773ef49f","ios":"levelo://app?vid=00393ee2-317d-4e98-a30d-fd25773ef49f"},"vehicle_type_id":"4","last_reported":1743930545,"current_range_meters":10800,"station_id":"","pricing_plan_id":"cebpf4jnsgd1na2vs0mg"},{"bike_id":"9c9e91df-e133-414a-8295-3f6a292805f6","system_id":"levelo_inurba_marseille","lat":43.231866,"lon":5.355594,"is_reserved":false,"is_disabled":true,"rental_uris":{"android":"levelo://app?vid=9c9e91df-e133-414a-8295-3f6a292805f6","ios":"levelo://app?vid=9c9e91df-e133-414a-8295-3f6a292805f6"},"vehicle_type_id":"4","last_reported":1743930545,"current_range_meters":10800,"station_id":"ce4bhu92rcd13ifvqi70","pricing_plan_id":"cebpf4jnsgd1na2vs0mg"},{"bike_id":"984088d8-ee53-46fb-9069-bace25dcbe92","system_id":"levelo_inurba_marseille","lat":43.26558,"lon":5.37297,"is_reserved":false,"is_disabled":false,"rental_uris":{"android":"levelo://app?vid=984088d8-ee53-46fb-9069-bace25dcbe92","ios":"levelo://app?vid=984088d8-ee53-46fb-9069-bace25dcbe92"},"vehicle_type_id":"4","last_reported":1743930545,"current_range_meters":10800,"station_id":"ce4bhg12rcd13ifvqf70","pricing_plan_id":"cebpf4jnsgd1na2vs0mg"},{"bike_id":"7aff76c8-39b0-410c-b330-995f2a5af159","system_id":"levelo_inurba_marseille","lat":43.25007,"lon":5.38934,"is_reserved":false,"is_disabled":false,"rental_uris":{"android":"levelo://app?vid=7aff76c8-39b0-410c-b330-995f2a5af159","ios":"levelo://app?vid=7aff76c8-39b0-410c-b330-995f2a5af159"},"vehicle_type_id":"4","last_reported":1743930545,"current_range_meters":10800,"station_id":"ce4bhgp2rcd13ifvqfd0","pricing_plan_id":"cebpf4jnsgd1na2vs0mg"},{"bike_id":"4bf7e3ec-0fba-4268-9d05-9bbfcbbc4bb3","system_id":"levelo_inurba_marseille","lat":43.29784,"lon":5.37106,"is_reserved":false,"is_disabled":false,"rental_uris":{"android":"levelo://app?vid=4bf7e3ec-0fba-4268-9d05-9bbfcbbc4bb3","ios":"levelo://app?vid=4bf7e3ec-0fba-4268-9d05-9bbfcbbc4bb3"},"vehicle_type_id":"4","last_reported":1743930545,"current_range_meters":10800,"station_id":"ce4bgop2rcd13ifvqc1g","pricing_plan_id":"cebpf4jnsgd1na2vs0mg"},{"bike_id":"e067d89b-d929-4e36-a12f-27f7ad2bcbd5","system_id":"levelo_inurba_marseille","lat":43.27309,"lon":5.39081,"is_reserved":false,"is_disabled":false,"rental_uris":{"android":"levelo://app?vid=e067d89b-d929-4e36-a12f-27f7ad2bcbd5","ios":"levelo://app?vid=e067d89b-d929-4e36-a12f-27f7ad2bcbd5"},"vehicle_type_id":"4","last_reported":1743930545,"current_range_meters":10800,"station_id":"ce4bhgp2rcd13ifvqfe0","pricing_plan_id":"cebpf4jnsgd1na2vs0mg"},{"bike_id":"f789d64a-d5b0-4190-83d5-7e7c48b6c987","system_id":"levelo_inurba_marseille","lat":43.25,"lon":5.38917,"is_reserved":false,"is_disabled":false,"rental_uris":{"android":"levelo://app?vid=f789d64a-d5b0-4190-83d5-7e7c48b6c987","ios":"levelo://app?vid=f789d64a-d5b0-4190-83d5-7e7c48b6c987"},"vehicle_type_id":"4","last_reported":1743930545,"current_range_meters":11200,"station_id":"ce4bhgp2rcd13ifvqfd0","pricing_plan_id":"cebpf4jnsgd1na2vs0mg"},{"bike_id":"7f235a8b-fa53-4ec4-a10b-74eadc11829b","system_id":"levelo_inurba_marseille","lat":43.29938,"lon":5.36537,"is_reserved":false,"is_disabled":false,"rental_uris":{"android":"levelo://app?vid=7f235a8b-fa53-4ec4-a10b-74eadc11829b","ios":"levelo://app?vid=7f235a8b-fa53-4ec4-a10b-74eadc11829b"},"vehicle_type_id":"4","last_reported":1743930545,"current_range_meters":11200,"station_id":"ce4bgm92rcd13ifvqbr0","pricing_plan_id":"cebpf4jnsgd1na2vs0mg"},{"bike_id":"abde5d83-9b30-4b2f-8a88-f914ca452329","system_id":"levelo_inurba_marseille","lat":43.3121,"lon":5.38682,"is_reserved":false,"is_disabled":false,"rental_uris":{"android":"levelo://app?vid=abde5d83-9b30-4b2f-8a88-f914ca452329","ios":"levelo://app?vid=abde5d83-9b30-4b2f-8a88-f914ca452329"},"vehicle_type_id":"4","last_reported":1743930545,"current_range_meters":11200,"station_id":"","pricing_plan_id":"cebpf4jnsgd1na2vs0mg"},{"bike_id":"5420e474-5232-43f0-bd62-51e2359e3157","system_id":"levelo_inurba_marseille","lat":43.313574,"lon":5.370134,"is_reserved":false,"is_disabled":false,"rental_uris":{"android":"levelo://app?vid=5420e474-5232-43f0-bd62-51e2359e3157","ios":"levelo://app?vid=5420e474-5232-43f0-bd62-51e2359e3157"},"vehicle_type_id":"4","last_reported":1743930545,"current_range_meters":11200,"station_id":"","pricing_plan_id":"cebpf4jnsgd1na2vs0mg"},{"bike_id":"d445a323-cf9d-4572-9626-70cf34b4b467","system_id":"levelo_inurba_marseille","lat":43.27206,"lon":5.39172,"is_reserved":false,"is_disabled":false,"rental_uris":{"android":"levelo://app?vid=d445a323-cf9d-4572-9626-70cf34b4b467","ios":"levelo://app?vid=d445a323-cf9d-4572-9626-70cf34b4b467"},"vehicle_type_id":"4","last_reported":1743930545,"current_range_meters":11200,"station_id":"ce4bhhp2rcd13ifvqfm0","pricing_plan_id":"cebpf4jnsgd1na2vs0mg"},{"bike_id":"7fd0635d-68ad-4ce6-a52b-daef56987b4b","system_id":"levelo_inurba_marseille","lat":43.30836,"lon":5.38503,"is_reserved":false,"is_disabled":false,"rental_uris":{"android":"levelo://app?vid=7fd0635d-68ad-4ce6-a52b-daef56987b4b","ios":"levelo://app?vid=7fd0635d-68ad-4ce6-a52b-daef56987b4b"},"vehicle_type_id":"4","last_reported":1743930545,"current_range_meters":11200,"station_id":"","pricing_plan_id":"cebpf4jnsgd1na2vs0mg"},{"bike_id":"136b6e45-ee21-453e-aa22-e07947db9071","system_id":"levelo_inurba_marseille","lat":43.23157,"lon":5.43713,"is_reserved":false,"is_disabled":true,"rental_uris":{"android":"levelo://app?vid=136b6e45-ee21-453e-aa22-e07947db9071","ios":"levelo://app?vid=136b6e45-ee21-453e-aa22-e07947db9071"},"vehicle_type_id":"4","last_reported":1743930545,"current_range_meters":11200,"station_id":"ce4bhmp2rcd13ifvqgog","pricing_plan_id":"cebpf4jnsgd1na2vs0mg"},{"bike_id":"6023584e-870f-454d-88b0-bf3dc0e21fbe","system_id":"levelo_inurba_marseille","lat":43.24388,"lon":5.37052,"is_reserved":false,"is_disabled":true,"rental_uris":{"android":"levelo://app?vid=6023584e-870f-454d-88b0-bf3dc0e21fbe","ios":"levelo://app?vid=6023584e-870f-454d-88b0-bf3dc0e21fbe"},"vehicle_type_id":"4","last_reported":1743930545,"current_range_meters":11200,"station_id":"ce4bhhh2rcd13ifvqfk0","pricing_plan_id":"cebpf4jnsgd1na2vs0mg"},{"bike_id":"1f9006c0-6130-498f-9399-ca1c8ff0c462","system_id":"levelo_inurba_marseille","lat":43.32117,"lon":5.36774,"is_reserved":false,"is_disabled":false,"rental_uris":{"android":"levelo://app?vid=1f9006c0-6130-498f-9399-ca1c8ff0c462","ios":"levelo://app?vid=1f9006c0-6130-498f-9399-ca1c8ff0c462"},"vehicle_type_id":"4","last_reported":1743930545,"current_range_meters":11200,"station_id":"ce4bhrh2rcd13ifvqhug","pricing_plan_id":"cebpf4jnsgd1na2vs0mg"},{"bike_id":"128fb589-a97e-437f-a8d4-fb84393c9e61","system_id":"levelo_inurba_marseille","lat":43.29853,"lon":5.36261,"is_reserved":false,"is_disabled":false,"rental_uris":{"android":"levelo://app?vid=128fb589-a97e-437f-a8d4-fb84393c9e61","ios":"levelo://app?vid=128fb589-a97e-437f-a8d4-fb84393c9e61"},"vehicle_type_id":"4","last_reported":1743930545,"current_range_meters":11600,"station_id":"ce4bgpp2rcd13ifvqc3g","pricing_plan_id":"cebpf4jnsgd1na2vs0mg"},{"bike_id":"308ccf60-9009-43f8-bb03-6f4f6c34706f","system_id":"levelo_inurba_marseille","lat":43.30238,"lon":5.40035,"is_reserved":false,"is_disabled":false,"rental_uris":{"android":"levelo://app?vid=308ccf60-9009-43f8-bb03-6f4f6c34706f","ios":"levelo://app?vid=308ccf60-9009-43f8-bb03-6f4f6c34706f"},"vehicle_type_id":"4","last_reported":1743930545,"current_range_meters":11600,"station_id":"ce4bgvh2rcd13ifvqcs0","pricing_plan_id":"cebpf4jnsgd1na2vs0mg"},{"bike_id":"ceba594e-ff69-4140-828e-f8a961103e51","system_id":"levelo_inurba_marseille","lat":43.2419,"lon":5.36388,"is_reserved":false,"is_disabled":false,"rental_uris":{"android":"levelo://app?vid=ceba594e-ff69-4140-828e-f8a961103e51","ios":"levelo://app?vid=ceba594e-ff69-4140-828e-f8a961103e51"},"vehicle_type_id":"4","last_reported":1743930545,"current_range_meters":11600,"station_id":"cpo36qri1sfpv3e86is0","pricing_plan_id":"cebpf4jnsgd1na2vs0mg"},{"bike_id":"94a0e1b9-1cb0-491b-8f89-1b2778983346","system_id":"levelo_inurba_marseille","lat":43.30889,"lon":5.36835,"is_reserved":false,"is_disabled":false,"rental_uris":{"android":"levelo://app?vid=94a0e1b9-1cb0-491b-8f89-1b2778983346","ios":"levelo://app?vid=94a0e1b9-1cb0-491b-8f89-1b2778983346"},"vehicle_type_id":"4","last_reported":1743930545,"current_range_meters":11600,"station_id":"ce4bgn92rcd13ifvqbvg","pricing_plan_id":"cebpf4jnsgd1na2vs0mg"},{"bike_id":"347b59a6-7fab-4bf0-a924-eac626981b6e","system_id":"levelo_inurba_marseille","lat":43.24186,"lon":5.39681,"is_reserved":false,"is_disabled":false,"rental_uris":{"android":"levelo://app?vid=347b59a6-7fab-4bf0-a924-eac626981b6e","ios":"levelo://app?vid=347b59a6-7fab-4bf0-a924-eac626981b6e"},"vehicle_type_id":"4","last_reported":1743930545,"current_range_meters":11600,"station_id":"ce4bhn12rcd13ifvqgpg","pricing_plan_id":"cebpf4jnsgd1na2vs0mg"},{"bike_id":"a31f6740-60eb-4877-b3f0-26aacd0129c2","system_id":"levelo_inurba_marseille","lat":43.25112,"lon":5.40318,"is_reserved":false,"is_disabled":false,"rental_uris":{"android":"levelo://app?vid=a31f6740-60eb-4877-b3f0-26aacd0129c2","ios":"levelo://app?vid=a31f6740-60eb-4877-b3f0-26aacd0129c2"},"vehicle_type_id":"4","last_reported":1743930545,"current_range_meters":11600,"station_id":"ce4bhlh2rcd13ifvqgig","pricing_plan_id":"cebpf4jnsgd1na2vs0mg"},{"bike_id":"5b26f200-5b49-4d8a-93a2-ce335b258e0d","system_id":"levelo_inurba_marseille","lat":43.28418,"lon":5.34977,"is_reserved":false,"is_disabled":false,"rental_uris":{"android":"levelo://app?vid=5b26f200-5b49-4d8a-93a2-ce335b258e0d","ios":"levelo://app?vid=5b26f200-5b49-4d8a-93a2-ce335b258e0d"},"vehicle_type_id":"4","last_reported":1743930545,"current_range_meters":11600,"station_id":"ce4bhbh2rcd13ifvqepg","pricing_plan_id":"cebpf4jnsgd1na2vs0mg"},{"bike_id":"8f6dc4df-021c-4b49-b773-41ad9c5221cf","system_id":"levelo_inurba_marseille","lat":43.31091,"lon":5.37181,"is_reserved":false,"is_disabled":false,"rental_uris":{"android":"levelo://app?vid=8f6dc4df-021c-4b49-b773-41ad9c5221cf","ios":"levelo://app?vid=8f6dc4df-021c-4b49-b773-41ad9c5221cf"},"vehicle_type_id":"4","last_reported":1743930545,"current_range_meters":11600,"station_id":"","pricing_plan_id":"cebpf4jnsgd1na2vs0mg"},{"bike_id":"0db79626-80f8-4250-8bc9-558f5d952fb2","system_id":"levelo_inurba_marseille","lat":43.23158,"lon":5.43699,"is_reserved":false,"is_disabled":false,"rental_uris":{"android":"levelo://app?vid=0db79626-80f8-4250-8bc9-558f5d952fb2","ios":"levelo://app?vid=0db79626-80f8-4250-8bc9-558f5d952fb2"},"vehicle_type_id":"4","last_reported":1743930545,"current_range_meters":11600,"station_id":"ce4bh492rcd13ifvqdug","pricing_plan_id":"cebpf4jnsgd1na2vs0mg"},{"bike_id":"39119060-af49-409e-96d3-c184076822f9","system_id":"levelo_inurba_marseille","lat":43.30502,"lon":5.36527,"is_reserved":false,"is_disabled":false,"rental_uris":{"android":"levelo://app?vid=39119060-af49-409e-96d3-c184076822f9","ios":"levelo://app?vid=39119060-af49-409e-96d3-c184076822f9"},"vehicle_type_id":"4","last_reported":1743930545,"current_range_meters":12000,"station_id":"","pricing_plan_id":"cebpf4jnsgd1na2vs0mg"},{"bike_id":"c9bcb9ed-89fa-4f1d-bf29-12fb5d644696","system_id":"levelo_inurba_marseille","lat":43.2801,"lon":5.41669,"is_reserved":false,"is_disabled":false,"rental_uris":{"android":"levelo://app?vid=c9bcb9ed-89fa-4f1d-bf29-12fb5d644696","ios":"levelo://app?vid=c9bcb9ed-89fa-4f1d-bf29-12fb5d644696"},"vehicle_type_id":"4","last_reported":1743930545,"current_range_meters":12000,"station_id":"ce4bho12rcd13ifvqh1g","pricing_plan_id":"cebpf4jnsgd1na2vs0mg"},{"bike_id":"7d2dde4f-5a6a-4005-a47e-231c9dacefe3","system_id":"levelo_inurba_marseille","lat":43.30806,"lon":5.43525,"is_reserved":false,"is_disabled":false,"rental_uris":{"android":"levelo://app?vid=7d2dde4f-5a6a-4005-a47e-231c9dacefe3","ios":"levelo://app?vid=7d2dde4f-5a6a-4005-a47e-231c9dacefe3"},"vehicle_type_id":"4","last_reported":1743930545,"current_range_meters":12400,"station_id":"ce4bhph2rcd13ifvqheg","pricing_plan_id":"cebpf4jnsgd1na2vs0mg"},{"bike_id":"18d469c4-d727-46eb-abf2-d9ec63679d45","system_id":"levelo_inurba_marseille","lat":43.30952,"lon":5.390248,"is_reserved":false,"is_disabled":false,"rental_uris":{"android":"levelo://app?vid=18d469c4-d727-46eb-abf2-d9ec63679d45","ios":"levelo://app?vid=18d469c4-d727-46eb-abf2-d9ec63679d45"},"vehicle_type_id":"4","last_reported":1743930545,"current_range_meters":12400,"station_id":"ce4bgop2rcd13ifvqc1g","pricing_plan_id":"cebpf4jnsgd1na2vs0mg"},{"bike_id":"c3e6d442-6282-4c88-9f90-93d85aff9e76","system_id":"levelo_inurba_marseille","lat":43.28163,"lon":5.42644,"is_reserved":false,"is_disabled":false,"rental_uris":{"android":"levelo://app?vid=c3e6d442-6282-4c88-9f90-93d85aff9e76","ios":"levelo://app?vid=c3e6d442-6282-4c88-9f90-93d85aff9e76"},"vehicle_type_id":"4","last_reported":1743930545,"current_range_meters":12400,"station_id":"ce4bhnh2rcd13ifvqgug","pricing_plan_id":"cebpf4jnsgd1na2vs0mg"},{"bike_id":"5d40b06b-f88c-438b-a124-c6e520eec699","system_id":"levelo_inurba_marseille","lat":43.27376,"lon":5.36264,"is_reserved":false,"is_disabled":false,"rental_uris":{"android":"levelo://app?vid=5d40b06b-f88c-438b-a124-c6e520eec699","ios":"levelo://app?vid=5d40b06b-f88c-438b-a124-c6e520eec699"},"vehicle_type_id":"4","last_reported":1743930545,"current_range_meters":12400,"station_id":"ce4bhbh2rcd13ifvqeo0","pricing_plan_id":"cebpf4jnsgd1na2vs0mg"},{"bike_id":"f2a4a726-900d-43d4-8328-76c9d2f6012d","system_id":"levelo_inurba_marseille","lat":43.290063,"lon":5.3561,"is_reserved":false,"is_disabled":true,"rental_uris":{"android":"levelo://app?vid=f2a4a726-900d-43d4-8328-76c9d2f6012d","ios":"levelo://app?vid=f2a4a726-900d-43d4-8328-76c9d2f6012d"},"vehicle_type_id":"4","last_reported":1743930545,"current_range_meters":12400,"station_id":"ce4bhb92rcd13ifvqen0","pricing_plan_id":"cebpf4jnsgd1na2vs0mg"},{"bike_id":"d0e124f2-dde1-483a-9e02-4bb27b48dbb5","system_id":"levelo_inurba_marseille","lat":43.29847,"lon":5.36287,"is_reserved":false,"is_disabled":false,"rental_uris":{"android":"levelo://app?vid=d0e124f2-dde1-483a-9e02-4bb27b48dbb5","ios":"levelo://app?vid=d0e124f2-dde1-483a-9e02-4bb27b48dbb5"},"vehicle_type_id":"4","last_reported":1743930545,"current_range_meters":12800,"station_id":"ce4bgpp2rcd13ifvqc3g","pricing_plan_id":"cebpf4jnsgd1na2vs0mg"},{"bike_id":"3f9f60e9-46e5-408d-a83f-6ffb283e0d47","system_id":"levelo_inurba_marseille","lat":43.241696,"lon":5.397396,"is_reserved":false,"is_disabled":false,"rental_uris":{"android":"levelo://app?vid=3f9f60e9-46e5-408d-a83f-6ffb283e0d47","ios":"levelo://app?vid=3f9f60e9-46e5-408d-a83f-6ffb283e0d47"},"vehicle_type_id":"4","last_reported":1743930545,"current_range_meters":12800,"station_id":"ce4bhn12rcd13ifvqgpg","pricing_plan_id":"cebpf4jnsgd1na2vs0mg"},{"bike_id":"db933d7e-6474-429a-b754-eca91e98be1e","system_id":"levelo_inurba_marseille","lat":43.28704,"lon":5.39988,"is_reserved":false,"is_disabled":false,"rental_uris":{"android":"levelo://app?vid=db933d7e-6474-429a-b754-eca91e98be1e","ios":"levelo://app?vid=db933d7e-6474-429a-b754-eca91e98be1e"},"vehicle_type_id":"4","last_reported":1743930545,"current_range_meters":12800,"station_id":"ce4bho92rcd13ifvqh3g","pricing_plan_id":"cebpf4jnsgd1na2vs0mg"},{"bike_id":"c2c27c97-cdb9-4118-84ef-b2dc6e9357e6","system_id":"levelo_inurba_marseille","lat":43.306176,"lon":5.371658,"is_reserved":false,"is_disabled":false,"rental_uris":{"android":"levelo://app?vid=c2c27c97-cdb9-4118-84ef-b2dc6e9357e6","ios":"levelo://app?vid=c2c27c97-cdb9-4118-84ef-b2dc6e9357e6"},"vehicle_type_id":"4","last_reported":1743930545,"current_range_meters":12800,"station_id":"","pricing_plan_id":"cebpf4jnsgd1na2vs0mg"},{"bike_id":"f7e3b8fa-9062-4469-bcee-58c5aa5cfb6e","system_id":"levelo_inurba_marseille","lat":43.29537,"lon":5.385481,"is_reserved":false,"is_disabled":true,"rental_uris":{"android":"levelo://app?vid=f7e3b8fa-9062-4469-bcee-58c5aa5cfb6e","ios":"levelo://app?vid=f7e3b8fa-9062-4469-bcee-58c5aa5cfb6e"},"vehicle_type_id":"4","last_reported":1743930545,"current_range_meters":12800,"station_id":"ce4bgih2rcd13ifvqba0","pricing_plan_id":"cebpf4jnsgd1na2vs0mg"},{"bike_id":"6ee85d75-9576-48a6-9ea1-92da0dac2d73","system_id":"levelo_inurba_marseille","lat":43.30816,"lon":5.43533,"is_reserved":false,"is_disabled":false,"rental_uris":{"android":"levelo://app?vid=6ee85d75-9576-48a6-9ea1-92da0dac2d73","ios":"levelo://app?vid=6ee85d75-9576-48a6-9ea1-92da0dac2d73"},"vehicle_type_id":"4","last_reported":1743930545,"current_range_meters":13600,"station_id":"ce4bhph2rcd13ifvqheg","pricing_plan_id":"cebpf4jnsgd1na2vs0mg"},{"bike_id":"1ae38861-1622-4644-99e5-1671d17e84d8","system_id":"levelo_inurba_marseille","lat":43.25012,"lon":5.38954,"is_reserved":false,"is_disabled":false,"rental_uris":{"android":"levelo://app?vid=1ae38861-1622-4644-99e5-1671d17e84d8","ios":"levelo://app?vid=1ae38861-1622-4644-99e5-1671d17e84d8"},"vehicle_type_id":"4","last_reported":1743930545,"current_range_meters":13600,"station_id":"ce4bhgp2rcd13ifvqfd0","pricing_plan_id":"cebpf4jnsgd1na2vs0mg"},{"bike_id":"54b199ca-afeb-4fad-8014-ff88a48bd01c","system_id":"levelo_inurba_marseille","lat":43.23152,"lon":5.43715,"is_reserved":false,"is_disabled":false,"rental_uris":{"android":"levelo://app?vid=54b199ca-afeb-4fad-8014-ff88a48bd01c","ios":"levelo://app?vid=54b199ca-afeb-4fad-8014-ff88a48bd01c"},"vehicle_type_id":"4","last_reported":1743930545,"current_range_meters":13600,"station_id":"ce4bhmp2rcd13ifvqgog","pricing_plan_id":"cebpf4jnsgd1na2vs0mg"},{"bike_id":"63e1d95c-79be-4b82-a868-e312bf827ceb","system_id":"levelo_inurba_marseille","lat":43.29025,"lon":5.38645,"is_reserved":false,"is_disabled":true,"rental_uris":{"android":"levelo://app?vid=63e1d95c-79be-4b82-a868-e312bf827ceb","ios":"levelo://app?vid=63e1d95c-79be-4b82-a868-e312bf827ceb"},"vehicle_type_id":"4","last_reported":1743930545,"current_range_meters":13600,"station_id":"ce4bh4p2rcd13ifvqe0g","pricing_plan_id":"cebpf4jnsgd1na2vs0mg"},{"bike_id":"5d20f3fc-5c29-492f-a2ad-9a768caf389d","system_id":"levelo_inurba_marseille","lat":43.28658,"lon":5.36351,"is_reserved":false,"is_disabled":false,"rental_uris":{"android":"levelo://app?vid=5d20f3fc-5c29-492f-a2ad-9a768caf389d","ios":"levelo://app?vid=5d20f3fc-5c29-492f-a2ad-9a768caf389d"},"vehicle_type_id":"4","last_reported":1743930545,"current_range_meters":12800,"station_id":"ce4bhah2rcd13ifvqej0","pricing_plan_id":"cebpf4jnsgd1na2vs0mg"},{"bike_id":"58f41ad4-7d2c-4bf2-9f72-d18a60cb4891","system_id":"levelo_inurba_marseille","lat":43.29838,"lon":5.36261,"is_reserved":false,"is_disabled":false,"rental_uris":{"android":"levelo://app?vid=58f41ad4-7d2c-4bf2-9f72-d18a60cb4891","ios":"levelo://app?vid=58f41ad4-7d2c-4bf2-9f72-d18a60cb4891"},"vehicle_type_id":"4","last_reported":1743930545,"current_range_meters":13600,"station_id":"ce4bgpp2rcd13ifvqc3g","pricing_plan_id":"cebpf4jnsgd1na2vs0mg"},{"bike_id":"fefe83d6-22ae-4bdc-9846-80fca8c3f8b6","system_id":"levelo_inurba_marseille","lat":43.26212,"lon":5.40432,"is_reserved":false,"is_disabled":false,"rental_uris":{"android":"levelo://app?vid=fefe83d6-22ae-4bdc-9846-80fca8c3f8b6","ios":"levelo://app?vid=fefe83d6-22ae-4bdc-9846-80fca8c3f8b6"},"vehicle_type_id":"4","last_reported":1743930545,"current_range_meters":13600,"station_id":"ce4bhmh2rcd13ifvqgmg","pricing_plan_id":"cebpf4jnsgd1na2vs0mg"},{"bike_id":"e332aab8-1fe3-40e9-8086-1f7d5ff35118","system_id":"levelo_inurba_marseille","lat":43.331634,"lon":5.381805,"is_reserved":false,"is_disabled":false,"rental_uris":{"android":"levelo://app?vid=e332aab8-1fe3-40e9-8086-1f7d5ff35118","ios":"levelo://app?vid=e332aab8-1fe3-40e9-8086-1f7d5ff35118"},"vehicle_type_id":"4","last_reported":1743930545,"current_range_meters":14000,"station_id":"","pricing_plan_id":"cebpf4jnsgd1na2vs0mg"},{"bike_id":"8a38320c-a733-4cf5-8c8e-152497fe8f8f","system_id":"levelo_inurba_marseille","lat":43.28111,"lon":5.42512,"is_reserved":false,"is_disabled":false,"rental_uris":{"android":"levelo://app?vid=8a38320c-a733-4cf5-8c8e-152497fe8f8f","ios":"levelo://app?vid=8a38320c-a733-4cf5-8c8e-152497fe8f8f"},"vehicle_type_id":"4","last_reported":1743930545,"current_range_meters":14000,"station_id":"","pricing_plan_id":"cebpf4jnsgd1na2vs0mg"},{"bike_id":"a409c3f0-8991-4228-afb5-57b19bb06658","system_id":"levelo_inurba_marseille","lat":43.32401,"lon":5.38997,"is_reserved":false,"is_disabled":false,"rental_uris":{"android":"levelo://app?vid=a409c3f0-8991-4228-afb5-57b19bb06658","ios":"levelo://app?vid=a409c3f0-8991-4228-afb5-57b19bb06658"},"vehicle_type_id":"4","last_reported":1743930545,"current_range_meters":14000,"station_id":"","pricing_plan_id":"cebpf4jnsgd1na2vs0mg"},{"bike_id":"3eac9664-d468-4557-9d31-aa4f2f6217bb","system_id":"levelo_inurba_marseille","lat":43.26564,"lon":5.37268,"is_reserved":false,"is_disabled":false,"rental_uris":{"android":"levelo://app?vid=3eac9664-d468-4557-9d31-aa4f2f6217bb","ios":"levelo://app?vid=3eac9664-d468-4557-9d31-aa4f2f6217bb"},"vehicle_type_id":"4","last_reported":1743930545,"current_range_meters":14000,"station_id":"ce4bhg12rcd13ifvqf70","pricing_plan_id":"cebpf4jnsgd1na2vs0mg"},{"bike_id":"60b77715-6420-4d50-9b9c-f4b4cd7983fb","system_id":"levelo_inurba_marseille","lat":43.290298,"lon":5.386505,"is_reserved":false,"is_disabled":false,"rental_uris":{"android":"levelo://app?vid=60b77715-6420-4d50-9b9c-f4b4cd7983fb","ios":"levelo://app?vid=60b77715-6420-4d50-9b9c-f4b4cd7983fb"},"vehicle_type_id":"4","last_reported":1743930545,"current_range_meters":14000,"station_id":"ce4bha12rcd13ifvqee0","pricing_plan_id":"cebpf4jnsgd1na2vs0mg"},{"bike_id":"873b9cb9-411d-441c-81fa-204f209e04e7","system_id":"levelo_inurba_marseille","lat":43.308369,"lon":5.373929,"is_reserved":false,"is_disabled":false,"rental_uris":{"android":"levelo://app?vid=873b9cb9-411d-441c-81fa-204f209e04e7","ios":"levelo://app?vid=873b9cb9-411d-441c-81fa-204f209e04e7"},"vehicle_type_id":"4","last_reported":1743930545,"current_range_meters":14400,"station_id":"","pricing_plan_id":"cebpf4jnsgd1na2vs0mg"},{"bike_id":"e4d4dc7a-abcd-4c1d-8017-887f937d011f","system_id":"levelo_inurba_marseille","lat":43.29563,"lon":5.39951,"is_reserved":false,"is_disabled":true,"rental_uris":{"android":"levelo://app?vid=e4d4dc7a-abcd-4c1d-8017-887f937d011f","ios":"levelo://app?vid=e4d4dc7a-abcd-4c1d-8017-887f937d011f"},"vehicle_type_id":"4","last_reported":1743930545,"current_range_meters":14400,"station_id":"ce4bh312rcd13ifvqdj0","pricing_plan_id":"cebpf4jnsgd1na2vs0mg"},{"bike_id":"73272853-088e-4b39-8e6e-94fe10fc353c","system_id":"levelo_inurba_marseille","lat":43.33744,"lon":5.37429,"is_reserved":false,"is_disabled":false,"rental_uris":{"android":"levelo://app?vid=73272853-088e-4b39-8e6e-94fe10fc353c","ios":"levelo://app?vid=73272853-088e-4b39-8e6e-94fe10fc353c"},"vehicle_type_id":"4","last_reported":1743930545,"current_range_meters":14400,"station_id":"","pricing_plan_id":"cebpf4jnsgd1na2vs0mg"},{"bike_id":"350e666a-10b7-4b84-9afa-fe3bebb82833","system_id":"levelo_inurba_marseille","lat":43.31097,"lon":5.38355,"is_reserved":false,"is_disabled":false,"rental_uris":{"android":"levelo://app?vid=350e666a-10b7-4b84-9afa-fe3bebb82833","ios":"levelo://app?vid=350e666a-10b7-4b84-9afa-fe3bebb82833"},"vehicle_type_id":"4","last_reported":1743930545,"current_range_meters":14400,"station_id":"ce4bgv92rcd13ifvqcr0","pricing_plan_id":"cebpf4jnsgd1na2vs0mg"},{"bike_id":"a1a74f1b-fb44-455f-8438-c57f314bba18","system_id":"levelo_inurba_marseille","lat":43.21745,"lon":5.34605,"is_reserved":false,"is_disabled":false,"rental_uris":{"android":"levelo://app?vid=a1a74f1b-fb44-455f-8438-c57f314bba18","ios":"levelo://app?vid=a1a74f1b-fb44-455f-8438-c57f314bba18"},"vehicle_type_id":"4","last_reported":1743930545,"current_range_meters":14400,"station_id":"st_cvj6r9ubvosntc0bgbag","pricing_plan_id":"cebpf4jnsgd1na2vs0mg"},{"bike_id":"d553dd87-8cd1-4b81-808e-8aeb82a0fa0c","system_id":"levelo_inurba_marseille","lat":43.280382,"lon":5.369361,"is_reserved":false,"is_disabled":true,"rental_uris":{"android":"levelo://app?vid=d553dd87-8cd1-4b81-808e-8aeb82a0fa0c","ios":"levelo://app?vid=d553dd87-8cd1-4b81-808e-8aeb82a0fa0c"},"vehicle_type_id":"4","last_reported":1743930545,"current_range_meters":14400,"station_id":"ce4bha12rcd13ifvqef0","pricing_plan_id":"cebpf4jnsgd1na2vs0mg"},{"bike_id":"d6c3d7f4-760c-422c-8667-25e15a7934b3","system_id":"levelo_inurba_marseille","lat":43.30809,"lon":5.37404,"is_reserved":false,"is_disabled":false,"rental_uris":{"android":"levelo://app?vid=d6c3d7f4-760c-422c-8667-25e15a7934b3","ios":"levelo://app?vid=d6c3d7f4-760c-422c-8667-25e15a7934b3"},"vehicle_type_id":"4","last_reported":1743930545,"current_range_meters":14800,"station_id":"","pricing_plan_id":"cebpf4jnsgd1na2vs0mg"},{"bike_id":"d0905cfd-03b9-433a-a2d7-90bdba9c98e8","system_id":"levelo_inurba_marseille","lat":43.29269,"lon":5.36844,"is_reserved":false,"is_disabled":false,"rental_uris":{"android":"levelo://app?vid=d0905cfd-03b9-433a-a2d7-90bdba9c98e8","ios":"levelo://app?vid=d0905cfd-03b9-433a-a2d7-90bdba9c98e8"},"vehicle_type_id":"4","last_reported":1743930545,"current_range_meters":14800,"station_id":"ce4bhbp2rcd13ifvqesg","pricing_plan_id":"cebpf4jnsgd1na2vs0mg"},{"bike_id":"530e934d-fa5f-4174-942f-60d0ca8604f7","system_id":"levelo_inurba_marseille","lat":43.2812,"lon":5.42571,"is_reserved":false,"is_disabled":false,"rental_uris":{"android":"levelo://app?vid=530e934d-fa5f-4174-942f-60d0ca8604f7","ios":"levelo://app?vid=530e934d-fa5f-4174-942f-60d0ca8604f7"},"vehicle_type_id":"4","last_reported":1743930545,"current_range_meters":14800,"station_id":"ce4bhnh2rcd13ifvqgug","pricing_plan_id":"cebpf4jnsgd1na2vs0mg"},{"bike_id":"fa63968e-8189-428f-a6c5-4ddfbd83ea29","system_id":"levelo_inurba_marseille","lat":43.29006,"lon":5.35606,"is_reserved":false,"is_disabled":false,"rental_uris":{"android":"levelo://app?vid=fa63968e-8189-428f-a6c5-4ddfbd83ea29","ios":"levelo://app?vid=fa63968e-8189-428f-a6c5-4ddfbd83ea29"},"vehicle_type_id":"4","last_reported":1743930545,"current_range_meters":14800,"station_id":"ce4bhb92rcd13ifvqen0","pricing_plan_id":"cebpf4jnsgd1na2vs0mg"},{"bike_id":"99b42c8a-4df4-430b-a30f-ebdd17155953","system_id":"levelo_inurba_marseille","lat":43.29188,"lon":5.35801,"is_reserved":false,"is_disabled":false,"rental_uris":{"android":"levelo://app?vid=99b42c8a-4df4-430b-a30f-ebdd17155953","ios":"levelo://app?vid=99b42c8a-4df4-430b-a30f-ebdd17155953"},"vehicle_type_id":"4","last_reported":1743930545,"current_range_meters":14800,"station_id":"ce4bhb12rcd13ifvqel0","pricing_plan_id":"cebpf4jnsgd1na2vs0mg"},{"bike_id":"95a2808d-fcff-4357-b119-2023f2aebd19","system_id":"levelo_inurba_marseille","lat":43.290422,"lon":5.399523,"is_reserved":false,"is_disabled":false,"rental_uris":{"android":"levelo://app?vid=95a2808d-fcff-4357-b119-2023f2aebd19","ios":"levelo://app?vid=95a2808d-fcff-4357-b119-2023f2aebd19"},"vehicle_type_id":"4","last_reported":1743930545,"current_range_meters":14800,"station_id":"ce4bh392rcd13ifvqdm0","pricing_plan_id":"cebpf4jnsgd1na2vs0mg"},{"bike_id":"b2e6d730-1ae9-4dd3-ab0c-1de601c116c2","system_id":"levelo_inurba_marseille","lat":43.25089,"lon":5.39508,"is_reserved":false,"is_disabled":false,"rental_uris":{"android":"levelo://app?vid=b2e6d730-1ae9-4dd3-ab0c-1de601c116c2","ios":"levelo://app?vid=b2e6d730-1ae9-4dd3-ab0c-1de601c116c2"},"vehicle_type_id":"4","last_reported":1743930545,"current_range_meters":14800,"station_id":"ce4bhm12rcd13ifvqgkg","pricing_plan_id":"cebpf4jnsgd1na2vs0mg"},{"bike_id":"06a77a37-b355-4343-8219-b1631ce0814d","system_id":"levelo_inurba_marseille","lat":43.28734,"lon":5.379417,"is_reserved":false,"is_disabled":false,"rental_uris":{"android":"levelo://app?vid=06a77a37-b355-4343-8219-b1631ce0814d","ios":"levelo://app?vid=06a77a37-b355-4343-8219-b1631ce0814d"},"vehicle_type_id":"4","last_reported":1743930545,"current_range_meters":14800,"station_id":"ce4bh9p2rcd13ifvqec0","pricing_plan_id":"cebpf4jnsgd1na2vs0mg"},{"bike_id":"98934827-7a36-4e0d-98f2-96ff1ecd834e","system_id":"levelo_inurba_marseille","lat":43.28008,"lon":5.40002,"is_reserved":false,"is_disabled":false,"rental_uris":{"android":"levelo://app?vid=98934827-7a36-4e0d-98f2-96ff1ecd834e","ios":"levelo://app?vid=98934827-7a36-4e0d-98f2-96ff1ecd834e"},"vehicle_type_id":"4","last_reported":1743930545,"current_range_meters":15200,"station_id":"ce4bho92rcd13ifvqh4g","pricing_plan_id":"cebpf4jnsgd1na2vs0mg"},{"bike_id":"e121a6ac-0cc6-4e68-913d-ed71711d2706","system_id":"levelo_inurba_marseille","lat":43.28618,"lon":5.35106,"is_reserved":false,"is_disabled":false,"rental_uris":{"android":"levelo://app?vid=e121a6ac-0cc6-4e68-913d-ed71711d2706","ios":"levelo://app?vid=e121a6ac-0cc6-4e68-913d-ed71711d2706"},"vehicle_type_id":"4","last_reported":1743930545,"current_range_meters":15200,"station_id":"ce4bhch2rcd13ifvqeug","pricing_plan_id":"cebpf4jnsgd1na2vs0mg"},{"bike_id":"4ceb2271-4ec6-4b85-83ef-a2f741531b82","system_id":"levelo_inurba_marseille","lat":43.31493,"lon":5.37284,"is_reserved":false,"is_disabled":false,"rental_uris":{"android":"levelo://app?vid=4ceb2271-4ec6-4b85-83ef-a2f741531b82","ios":"levelo://app?vid=4ceb2271-4ec6-4b85-83ef-a2f741531b82"},"vehicle_type_id":"4","last_reported":1743930545,"current_range_meters":15200,"station_id":"ce4bgt12rcd13ifvqcd0","pricing_plan_id":"cebpf4jnsgd1na2vs0mg"},{"bike_id":"8cfd8938-ab02-4f88-9086-591f1be1afd7","system_id":"levelo_inurba_marseille","lat":43.23055,"lon":5.35493,"is_reserved":false,"is_disabled":true,"rental_uris":{"android":"levelo://app?vid=8cfd8938-ab02-4f88-9086-591f1be1afd7","ios":"levelo://app?vid=8cfd8938-ab02-4f88-9086-591f1be1afd7"},"vehicle_type_id":"4","last_reported":1743930545,"current_range_meters":16000,"station_id":"cpo3342slgdg3j2ifvpg","pricing_plan_id":"cebpf4jnsgd1na2vs0mg"},{"bike_id":"a959694d-18ce-4d80-917f-23c91ed81065","system_id":"levelo_inurba_marseille","lat":43.299,"lon":5.4366,"is_reserved":false,"is_disabled":false,"rental_uris":{"android":"levelo://app?vid=a959694d-18ce-4d80-917f-23c91ed81065","ios":"levelo://app?vid=a959694d-18ce-4d80-917f-23c91ed81065"},"vehicle_type_id":"4","last_reported":1743930545,"current_range_meters":16000,"station_id":"ce4bhpp2rcd13ifvqhfg","pricing_plan_id":"cebpf4jnsgd1na2vs0mg"},{"bike_id":"2b22bce8-acb6-4462-8caf-5301cc4356e8","system_id":"levelo_inurba_marseille","lat":43.294302,"lon":5.375033,"is_reserved":false,"is_disabled":false,"rental_uris":{"android":"levelo://app?vid=2b22bce8-acb6-4462-8caf-5301cc4356e8","ios":"levelo://app?vid=2b22bce8-acb6-4462-8caf-5301cc4356e8"},"vehicle_type_id":"4","last_reported":1743930545,"current_range_meters":16000,"station_id":"ce4bgr92rcd13ifvqc7g","pricing_plan_id":"cebpf4jnsgd1na2vs0mg"},{"bike_id":"29cffe11-e0c1-4f86-9b4e-543bffdaf04d","system_id":"levelo_inurba_marseille","lat":43.30795,"lon":5.43508,"is_reserved":false,"is_disabled":false,"rental_uris":{"android":"levelo://app?vid=29cffe11-e0c1-4f86-9b4e-543bffdaf04d","ios":"levelo://app?vid=29cffe11-e0c1-4f86-9b4e-543bffdaf04d"},"vehicle_type_id":"4","last_reported":1743930545,"current_range_meters":16000,"station_id":"ce4bhph2rcd13ifvqheg","pricing_plan_id":"cebpf4jnsgd1na2vs0mg"},{"bike_id":"aaebb233-4b83-402c-ba65-193008c6277e","system_id":"levelo_inurba_marseille","lat":43.299,"lon":5.36528,"is_reserved":false,"is_disabled":false,"rental_uris":{"android":"levelo://app?vid=aaebb233-4b83-402c-ba65-193008c6277e","ios":"levelo://app?vid=aaebb233-4b83-402c-ba65-193008c6277e"},"vehicle_type_id":"4","last_reported":1743930545,"current_range_meters":16000,"station_id":"ce4bgm92rcd13ifvqbr0","pricing_plan_id":"cebpf4jnsgd1na2vs0mg"},{"bike_id":"f8cd1080-6c6d-4a30-90b4-6915b2f4d13d","system_id":"levelo_inurba_marseille","lat":43.26566,"lon":5.37239,"is_reserved":false,"is_disabled":false,"rental_uris":{"android":"levelo://app?vid=f8cd1080-6c6d-4a30-90b4-6915b2f4d13d","ios":"levelo://app?vid=f8cd1080-6c6d-4a30-90b4-6915b2f4d13d"},"vehicle_type_id":"4","last_reported":1743930545,"current_range_meters":16000,"station_id":"ce4bhg12rcd13ifvqf70","pricing_plan_id":"cebpf4jnsgd1na2vs0mg"},{"bike_id":"f84b956f-2981-462e-8cf6-186374de0c37","system_id":"levelo_inurba_marseille","lat":43.31716,"lon":5.43693,"is_reserved":false,"is_disabled":false,"rental_uris":{"android":"levelo://app?vid=f84b956f-2981-462e-8cf6-186374de0c37","ios":"levelo://app?vid=f84b956f-2981-462e-8cf6-186374de0c37"},"vehicle_type_id":"4","last_reported":1743930545,"current_range_meters":16000,"station_id":"ce4bhp92rcd13ifvqhcg","pricing_plan_id":"cebpf4jnsgd1na2vs0mg"},{"bike_id":"4a1cb96e-3080-483d-924e-26f54c7180d8","system_id":"levelo_inurba_marseille","lat":43.32094,"lon":5.36774,"is_reserved":false,"is_disabled":false,"rental_uris":{"android":"levelo://app?vid=4a1cb96e-3080-483d-924e-26f54c7180d8","ios":"levelo://app?vid=4a1cb96e-3080-483d-924e-26f54c7180d8"},"vehicle_type_id":"4","last_reported":1743930545,"current_range_meters":16000,"station_id":"ce4bhrh2rcd13ifvqhug","pricing_plan_id":"cebpf4jnsgd1na2vs0mg"},{"bike_id":"f95df092-7a38-43d8-b216-a3bf2a702083","system_id":"levelo_inurba_marseille","lat":43.30823,"lon":5.43527,"is_reserved":false,"is_disabled":false,"rental_uris":{"android":"levelo://app?vid=f95df092-7a38-43d8-b216-a3bf2a702083","ios":"levelo://app?vid=f95df092-7a38-43d8-b216-a3bf2a702083"},"vehicle_type_id":"4","last_reported":1743930545,"current_range_meters":16000,"station_id":"ce4bhph2rcd13ifvqheg","pricing_plan_id":"cebpf4jnsgd1na2vs0mg"},{"bike_id":"a2398cca-7398-47cd-8c82-0c200451948e","system_id":"levelo_inurba_marseille","lat":43.23156,"lon":5.43704,"is_reserved":false,"is_disabled":false,"rental_uris":{"android":"levelo://app?vid=a2398cca-7398-47cd-8c82-0c200451948e","ios":"levelo://app?vid=a2398cca-7398-47cd-8c82-0c200451948e"},"vehicle_type_id":"4","last_reported":1743930545,"current_range_meters":16000,"station_id":"ce4bhmp2rcd13ifvqgog","pricing_plan_id":"cebpf4jnsgd1na2vs0mg"},{"bike_id":"bfb3b9c0-7770-4ad8-9b29-90b489b6e811","system_id":"levelo_inurba_marseille","lat":43.271166,"lon":5.404644,"is_reserved":false,"is_disabled":false,"rental_uris":{"android":"levelo://app?vid=bfb3b9c0-7770-4ad8-9b29-90b489b6e811","ios":"levelo://app?vid=bfb3b9c0-7770-4ad8-9b29-90b489b6e811"},"vehicle_type_id":"4","last_reported":1743930545,"current_range_meters":16400,"station_id":"ce4bho12rcd13ifvqh1g","pricing_plan_id":"cebpf4jnsgd1na2vs0mg"},{"bike_id":"518ab49b-2001-45ed-a6fa-9ed5f4822bef","system_id":"levelo_inurba_marseille","lat":43.30321,"lon":5.40422,"is_reserved":false,"is_disabled":false,"rental_uris":{"android":"levelo://app?vid=518ab49b-2001-45ed-a6fa-9ed5f4822bef","ios":"levelo://app?vid=518ab49b-2001-45ed-a6fa-9ed5f4822bef"},"vehicle_type_id":"4","last_reported":1743930545,"current_range_meters":16400,"station_id":"ce4bh012rcd13ifvqd10","pricing_plan_id":"cebpf4jnsgd1na2vs0mg"},{"bike_id":"fdad6e5e-1467-4616-9d72-68b29d343e00","system_id":"levelo_inurba_marseille","lat":43.32288,"lon":5.3827,"is_reserved":false,"is_disabled":false,"rental_uris":{"android":"levelo://app?vid=fdad6e5e-1467-4616-9d72-68b29d343e00","ios":"levelo://app?vid=fdad6e5e-1467-4616-9d72-68b29d343e00"},"vehicle_type_id":"4","last_reported":1743930545,"current_range_meters":16400,"station_id":"ce4bhr12rcd13ifvqhqg","pricing_plan_id":"cebpf4jnsgd1na2vs0mg"},{"bike_id":"c2b30833-e231-4318-9d5b-5fc2c3f0dff8","system_id":"levelo_inurba_marseille","lat":43.24685,"lon":5.38137,"is_reserved":false,"is_disabled":false,"rental_uris":{"android":"levelo://app?vid=c2b30833-e231-4318-9d5b-5fc2c3f0dff8","ios":"levelo://app?vid=c2b30833-e231-4318-9d5b-5fc2c3f0dff8"},"vehicle_type_id":"4","last_reported":1743930545,"current_range_meters":16400,"station_id":"ce4bhih2rcd13ifvqfr0","pricing_plan_id":"cebpf4jnsgd1na2vs0mg"},{"bike_id":"605b81a7-082d-45fd-94ff-d5ecf56fd468","system_id":"levelo_inurba_marseille","lat":43.30832,"lon":5.38156,"is_reserved":false,"is_disabled":false,"rental_uris":{"android":"levelo://app?vid=605b81a7-082d-45fd-94ff-d5ecf56fd468","ios":"levelo://app?vid=605b81a7-082d-45fd-94ff-d5ecf56fd468"},"vehicle_type_id":"4","last_reported":1743930545,"current_range_meters":16800,"station_id":"ce4bgt12rcd13ifvqce0","pricing_plan_id":"cebpf4jnsgd1na2vs0mg"},{"bike_id":"750bc9c2-8244-4f27-a571-77c62d7d6b92","system_id":"levelo_inurba_marseille","lat":43.31285,"lon":5.37746,"is_reserved":false,"is_disabled":false,"rental_uris":{"android":"levelo://app?vid=750bc9c2-8244-4f27-a571-77c62d7d6b92","ios":"levelo://app?vid=750bc9c2-8244-4f27-a571-77c62d7d6b92"},"vehicle_type_id":"4","last_reported":1743930545,"current_range_meters":16800,"station_id":"","pricing_plan_id":"cebpf4jnsgd1na2vs0mg"},{"bike_id":"cd3531d5-7473-4967-bccc-e7bc78257317","system_id":"levelo_inurba_marseille","lat":43.30543,"lon":5.36535,"is_reserved":false,"is_disabled":false,"rental_uris":{"android":"levelo://app?vid=cd3531d5-7473-4967-bccc-e7bc78257317","ios":"levelo://app?vid=cd3531d5-7473-4967-bccc-e7bc78257317"},"vehicle_type_id":"4","last_reported":1743930545,"current_range_meters":16800,"station_id":"","pricing_plan_id":"cebpf4jnsgd1na2vs0mg"},{"bike_id":"e7c88587-6383-4296-b75b-fb8bc5500d98","system_id":"levelo_inurba_marseille","lat":43.24075,"lon":5.37684,"is_reserved":false,"is_disabled":false,"rental_uris":{"android":"levelo://app?vid=e7c88587-6383-4296-b75b-fb8bc5500d98","ios":"levelo://app?vid=e7c88587-6383-4296-b75b-fb8bc5500d98"},"vehicle_type_id":"4","last_reported":1743930545,"current_range_meters":16800,"station_id":"","pricing_plan_id":"cebpf4jnsgd1na2vs0mg"},{"bike_id":"8b60bebc-2719-4302-a640-cda4abe45362","system_id":"levelo_inurba_marseille","lat":43.27551,"lon":5.41293,"is_reserved":false,"is_disabled":false,"rental_uris":{"android":"levelo://app?vid=8b60bebc-2719-4302-a640-cda4abe45362","ios":"levelo://app?vid=8b60bebc-2719-4302-a640-cda4abe45362"},"vehicle_type_id":"4","last_reported":1743930545,"current_range_meters":16800,"station_id":"","pricing_plan_id":"cebpf4jnsgd1na2vs0mg"},{"bike_id":"ba991623-d196-4285-bb24-378dab583942","system_id":"levelo_inurba_marseille","lat":43.32309,"lon":5.38277,"is_reserved":false,"is_disabled":false,"rental_uris":{"android":"levelo://app?vid=ba991623-d196-4285-bb24-378dab583942","ios":"levelo://app?vid=ba991623-d196-4285-bb24-378dab583942"},"vehicle_type_id":"4","last_reported":1743930545,"current_range_meters":16800,"station_id":"ce4bhr12rcd13ifvqhqg","pricing_plan_id":"cebpf4jnsgd1na2vs0mg"},{"bike_id":"71582c2a-d7a3-48c9-be8c-d2314c8c07cc","system_id":"levelo_inurba_marseille","lat":43.298468,"lon":5.362604,"is_reserved":false,"is_disabled":false,"rental_uris":{"android":"levelo://app?vid=71582c2a-d7a3-48c9-be8c-d2314c8c07cc","ios":"levelo://app?vid=71582c2a-d7a3-48c9-be8c-d2314c8c07cc"},"vehicle_type_id":"4","last_reported":1743930545,"current_range_meters":16800,"station_id":"","pricing_plan_id":"cebpf4jnsgd1na2vs0mg"},{"bike_id":"33f3816c-12e7-49be-befd-aeb487ab17aa","system_id":"levelo_inurba_marseille","lat":43.30781,"lon":5.43445,"is_reserved":false,"is_disabled":false,"rental_uris":{"android":"levelo://app?vid=33f3816c-12e7-49be-befd-aeb487ab17aa","ios":"levelo://app?vid=33f3816c-12e7-49be-befd-aeb487ab17aa"},"vehicle_type_id":"4","last_reported":1743930545,"current_range_meters":16800,"station_id":"","pricing_plan_id":"cebpf4jnsgd1na2vs0mg"},{"bike_id":"26917ba2-a987-4b4c-85e2-204645024679","system_id":"levelo_inurba_marseille","lat":43.23958,"lon":5.366278,"is_reserved":false,"is_disabled":false,"rental_uris":{"android":"levelo://app?vid=26917ba2-a987-4b4c-85e2-204645024679","ios":"levelo://app?vid=26917ba2-a987-4b4c-85e2-204645024679"},"vehicle_type_id":"4","last_reported":1743930545,"current_range_meters":16800,"station_id":"ce4bhi12rcd13ifvqfp0","pricing_plan_id":"cebpf4jnsgd1na2vs0mg"},{"bike_id":"958e55f3-2a49-45f3-b3cc-031ec71d2e20","system_id":"levelo_inurba_marseille","lat":43.29845,"lon":5.36279,"is_reserved":false,"is_disabled":false,"rental_uris":{"android":"levelo://app?vid=958e55f3-2a49-45f3-b3cc-031ec71d2e20","ios":"levelo://app?vid=958e55f3-2a49-45f3-b3cc-031ec71d2e20"},"vehicle_type_id":"4","last_reported":1743930545,"current_range_meters":16800,"station_id":"ce4bgpp2rcd13ifvqc3g","pricing_plan_id":"cebpf4jnsgd1na2vs0mg"},{"bike_id":"9277b721-20e5-43a1-91f4-a949bf469478","system_id":"levelo_inurba_marseille","lat":43.28153,"lon":5.4264,"is_reserved":false,"is_disabled":false,"rental_uris":{"android":"levelo://app?vid=9277b721-20e5-43a1-91f4-a949bf469478","ios":"levelo://app?vid=9277b721-20e5-43a1-91f4-a949bf469478"},"vehicle_type_id":"4","last_reported":1743930545,"current_range_meters":17200,"station_id":"ce4bhnh2rcd13ifvqgug","pricing_plan_id":"cebpf4jnsgd1na2vs0mg"},{"bike_id":"1145dafd-2d63-45d4-95e7-cc211cf26bab","system_id":"levelo_inurba_marseille","lat":43.24384,"lon":5.37076,"is_reserved":false,"is_disabled":false,"rental_uris":{"android":"levelo://app?vid=1145dafd-2d63-45d4-95e7-cc211cf26bab","ios":"levelo://app?vid=1145dafd-2d63-45d4-95e7-cc211cf26bab"},"vehicle_type_id":"4","last_reported":1743930545,"current_range_meters":17200,"station_id":"ce4bhhh2rcd13ifvqfk0","pricing_plan_id":"cebpf4jnsgd1na2vs0mg"},{"bike_id":"81f5907e-6630-4ff1-9f63-95fbfbed681e","system_id":"levelo_inurba_marseille","lat":43.27378,"lon":5.36257,"is_reserved":false,"is_disabled":false,"rental_uris":{"android":"levelo://app?vid=81f5907e-6630-4ff1-9f63-95fbfbed681e","ios":"levelo://app?vid=81f5907e-6630-4ff1-9f63-95fbfbed681e"},"vehicle_type_id":"4","last_reported":1743930545,"current_range_meters":17200,"station_id":"ce4bhbh2rcd13ifvqeo0","pricing_plan_id":"cebpf4jnsgd1na2vs0mg"},{"bike_id":"20d11c9f-a7fd-401d-ac9c-356a8f411be7","system_id":"levelo_inurba_marseille","lat":43.284599,"lon":5.39195,"is_reserved":false,"is_disabled":false,"rental_uris":{"android":"levelo://app?vid=20d11c9f-a7fd-401d-ac9c-356a8f411be7","ios":"levelo://app?vid=20d11c9f-a7fd-401d-ac9c-356a8f411be7"},"vehicle_type_id":"4","last_reported":1743930545,"current_range_meters":17200,"station_id":"ce4bgvp2rcd13ifvqct0","pricing_plan_id":"cebpf4jnsgd1na2vs0mg"},{"bike_id":"ade0921b-e10e-4b89-a915-846b89926f24","system_id":"levelo_inurba_marseille","lat":43.243842,"lon":5.438525,"is_reserved":false,"is_disabled":false,"rental_uris":{"android":"levelo://app?vid=ade0921b-e10e-4b89-a915-846b89926f24","ios":"levelo://app?vid=ade0921b-e10e-4b89-a915-846b89926f24"},"vehicle_type_id":"4","last_reported":1743930545,"current_range_meters":17200,"station_id":"ce4bhmp2rcd13ifvqgog","pricing_plan_id":"cebpf4jnsgd1na2vs0mg"},{"bike_id":"d3940f6d-6c26-4ccb-aa36-1b12f0ca6ef4","system_id":"levelo_inurba_marseille","lat":43.31478,"lon":5.39018,"is_reserved":false,"is_disabled":false,"rental_uris":{"android":"levelo://app?vid=d3940f6d-6c26-4ccb-aa36-1b12f0ca6ef4","ios":"levelo://app?vid=d3940f6d-6c26-4ccb-aa36-1b12f0ca6ef4"},"vehicle_type_id":"4","last_reported":1743930545,"current_range_meters":17200,"station_id":"","pricing_plan_id":"cebpf4jnsgd1na2vs0mg"},{"bike_id":"4c76161a-e31d-4e4d-9951-193be050cec4","system_id":"levelo_inurba_marseille","lat":43.28156,"lon":5.42652,"is_reserved":false,"is_disabled":false,"rental_uris":{"android":"levelo://app?vid=4c76161a-e31d-4e4d-9951-193be050cec4","ios":"levelo://app?vid=4c76161a-e31d-4e4d-9951-193be050cec4"},"vehicle_type_id":"4","last_reported":1743930545,"current_range_meters":17600,"station_id":"ce4bhnh2rcd13ifvqgug","pricing_plan_id":"cebpf4jnsgd1na2vs0mg"},{"bike_id":"46057c1a-ef15-49c0-8328-133f1962cf6c","system_id":"levelo_inurba_marseille","lat":43.32268,"lon":5.36787,"is_reserved":false,"is_disabled":false,"rental_uris":{"android":"levelo://app?vid=46057c1a-ef15-49c0-8328-133f1962cf6c","ios":"levelo://app?vid=46057c1a-ef15-49c0-8328-133f1962cf6c"},"vehicle_type_id":"4","last_reported":1743930545,"current_range_meters":17600,"station_id":"","pricing_plan_id":"cebpf4jnsgd1na2vs0mg"},{"bike_id":"95d1b739-5858-4bb6-9667-1f7148d09e06","system_id":"levelo_inurba_marseille","lat":43.23152,"lon":5.43715,"is_reserved":false,"is_disabled":false,"rental_uris":{"android":"levelo://app?vid=95d1b739-5858-4bb6-9667-1f7148d09e06","ios":"levelo://app?vid=95d1b739-5858-4bb6-9667-1f7148d09e06"},"vehicle_type_id":"4","last_reported":1743930545,"current_range_meters":17600,"station_id":"ce4bhmp2rcd13ifvqgog","pricing_plan_id":"cebpf4jnsgd1na2vs0mg"},{"bike_id":"da0670c7-fedc-4cac-90fa-69b612536bd8","system_id":"levelo_inurba_marseille","lat":43.28429,"lon":5.34996,"is_reserved":false,"is_disabled":false,"rental_uris":{"android":"levelo://app?vid=da0670c7-fedc-4cac-90fa-69b612536bd8","ios":"levelo://app?vid=da0670c7-fedc-4cac-90fa-69b612536bd8"},"vehicle_type_id":"4","last_reported":1743930545,"current_range_meters":18000,"station_id":"ce4bhbh2rcd13ifvqepg","pricing_plan_id":"cebpf4jnsgd1na2vs0mg"},{"bike_id":"b66a0eaf-b5d4-4a1b-b8f7-3a9fff60a240","system_id":"levelo_inurba_marseille","lat":43.30246,"lon":5.40063,"is_reserved":false,"is_disabled":false,"rental_uris":{"android":"levelo://app?vid=b66a0eaf-b5d4-4a1b-b8f7-3a9fff60a240","ios":"levelo://app?vid=b66a0eaf-b5d4-4a1b-b8f7-3a9fff60a240"},"vehicle_type_id":"4","last_reported":1743930545,"current_range_meters":18000,"station_id":"ce4bgvh2rcd13ifvqcs0","pricing_plan_id":"cebpf4jnsgd1na2vs0mg"},{"bike_id":"42c911df-f19e-42b3-9f34-5046d0374af8","system_id":"levelo_inurba_marseille","lat":43.331,"lon":5.39281,"is_reserved":false,"is_disabled":false,"rental_uris":{"android":"levelo://app?vid=42c911df-f19e-42b3-9f34-5046d0374af8","ios":"levelo://app?vid=42c911df-f19e-42b3-9f34-5046d0374af8"},"vehicle_type_id":"4","last_reported":1743930545,"current_range_meters":18000,"station_id":"","pricing_plan_id":"cebpf4jnsgd1na2vs0mg"},{"bike_id":"f7d40d3a-a62c-4970-9c15-8fcde1b94b2b","system_id":"levelo_inurba_marseille","lat":43.28002,"lon":5.41659,"is_reserved":false,"is_disabled":false,"rental_uris":{"android":"levelo://app?vid=f7d40d3a-a62c-4970-9c15-8fcde1b94b2b","ios":"levelo://app?vid=f7d40d3a-a62c-4970-9c15-8fcde1b94b2b"},"vehicle_type_id":"4","last_reported":1743930545,"current_range_meters":18000,"station_id":"ce4bho12rcd13ifvqh1g","pricing_plan_id":"cebpf4jnsgd1na2vs0mg"},{"bike_id":"c67b4746-c1ad-4a43-af99-19ac1ed6156b","system_id":"levelo_inurba_marseille","lat":43.29875,"lon":5.383,"is_reserved":false,"is_disabled":false,"rental_uris":{"android":"levelo://app?vid=c67b4746-c1ad-4a43-af99-19ac1ed6156b","ios":"levelo://app?vid=c67b4746-c1ad-4a43-af99-19ac1ed6156b"},"vehicle_type_id":"4","last_reported":1743930545,"current_range_meters":18000,"station_id":"","pricing_plan_id":"cebpf4jnsgd1na2vs0mg"},{"bike_id":"b8d3e899-49ce-4746-b8f8-ef979a6e6db5","system_id":"levelo_inurba_marseille","lat":43.30312,"lon":5.40442,"is_reserved":false,"is_disabled":false,"rental_uris":{"android":"levelo://app?vid=b8d3e899-49ce-4746-b8f8-ef979a6e6db5","ios":"levelo://app?vid=b8d3e899-49ce-4746-b8f8-ef979a6e6db5"},"vehicle_type_id":"4","last_reported":1743930545,"current_range_meters":18000,"station_id":"ce4bh012rcd13ifvqd10","pricing_plan_id":"cebpf4jnsgd1na2vs0mg"},{"bike_id":"a3041057-a489-4338-8939-cd6b859bc4f4","system_id":"levelo_inurba_marseille","lat":43.330836,"lon":5.406934,"is_reserved":false,"is_disabled":false,"rental_uris":{"android":"levelo://app?vid=a3041057-a489-4338-8939-cd6b859bc4f4","ios":"levelo://app?vid=a3041057-a489-4338-8939-cd6b859bc4f4"},"vehicle_type_id":"4","last_reported":1743930545,"current_range_meters":18800,"station_id":"","pricing_plan_id":"cebpf4jnsgd1na2vs0mg"},{"bike_id":"87314244-9d51-4d71-a51c-8a07e3567f6c","system_id":"levelo_inurba_marseille","lat":43.28394,"lon":5.3862,"is_reserved":false,"is_disabled":false,"rental_uris":{"android":"levelo://app?vid=87314244-9d51-4d71-a51c-8a07e3567f6c","ios":"levelo://app?vid=87314244-9d51-4d71-a51c-8a07e3567f6c"},"vehicle_type_id":"4","last_reported":1743930545,"current_range_meters":18800,"station_id":"ce4bh492rcd13ifvqdvg","pricing_plan_id":"cebpf4jnsgd1na2vs0mg"},{"bike_id":"4b1c2819-6597-424e-807c-252fc44fbcb6","system_id":"levelo_inurba_marseille","lat":43.30797,"lon":5.43504,"is_reserved":false,"is_disabled":false,"rental_uris":{"android":"levelo://app?vid=4b1c2819-6597-424e-807c-252fc44fbcb6","ios":"levelo://app?vid=4b1c2819-6597-424e-807c-252fc44fbcb6"},"vehicle_type_id":"4","last_reported":1743930545,"current_range_meters":18800,"station_id":"ce4bhph2rcd13ifvqheg","pricing_plan_id":"cebpf4jnsgd1na2vs0mg"},{"bike_id":"ec5938e8-7c23-4690-a705-822a138cb669","system_id":"levelo_inurba_marseille","lat":43.28715,"lon":5.39983,"is_reserved":false,"is_disabled":false,"rental_uris":{"android":"levelo://app?vid=ec5938e8-7c23-4690-a705-822a138cb669","ios":"levelo://app?vid=ec5938e8-7c23-4690-a705-822a138cb669"},"vehicle_type_id":"4","last_reported":1743930545,"current_range_meters":18800,"station_id":"ce4bho92rcd13ifvqh3g","pricing_plan_id":"cebpf4jnsgd1na2vs0mg"},{"bike_id":"73d082e4-b356-4449-a4b5-77c4d9b13ceb","system_id":"levelo_inurba_marseille","lat":43.2815,"lon":5.42666,"is_reserved":false,"is_disabled":false,"rental_uris":{"android":"levelo://app?vid=73d082e4-b356-4449-a4b5-77c4d9b13ceb","ios":"levelo://app?vid=73d082e4-b356-4449-a4b5-77c4d9b13ceb"},"vehicle_type_id":"4","last_reported":1743930545,"current_range_meters":18800,"station_id":"ce4bhnh2rcd13ifvqgug","pricing_plan_id":"cebpf4jnsgd1na2vs0mg"},{"bike_id":"f6234bed-d96b-4e91-987b-57b8c584485f","system_id":"levelo_inurba_marseille","lat":43.31714,"lon":5.43704,"is_reserved":false,"is_disabled":true,"rental_uris":{"android":"levelo://app?vid=f6234bed-d96b-4e91-987b-57b8c584485f","ios":"levelo://app?vid=f6234bed-d96b-4e91-987b-57b8c584485f"},"vehicle_type_id":"4","last_reported":1743930545,"current_range_meters":18800,"station_id":"ce4bhp92rcd13ifvqhcg","pricing_plan_id":"cebpf4jnsgd1na2vs0mg"},{"bike_id":"806d9833-1d3d-4e1a-9624-7898ac645826","system_id":"levelo_inurba_marseille","lat":43.29862,"lon":5.36271,"is_reserved":false,"is_disabled":false,"rental_uris":{"android":"levelo://app?vid=806d9833-1d3d-4e1a-9624-7898ac645826","ios":"levelo://app?vid=806d9833-1d3d-4e1a-9624-7898ac645826"},"vehicle_type_id":"4","last_reported":1743930545,"current_range_meters":18800,"station_id":"ce4bgpp2rcd13ifvqc3g","pricing_plan_id":"cebpf4jnsgd1na2vs0mg"},{"bike_id":"d59d94e9-9758-4e70-8f6d-f720ca0e403c","system_id":"levelo_inurba_marseille","lat":43.27613,"lon":5.36124,"is_reserved":false,"is_disabled":true,"rental_uris":{"android":"levelo://app?vid=d59d94e9-9758-4e70-8f6d-f720ca0e403c","ios":"levelo://app?vid=d59d94e9-9758-4e70-8f6d-f720ca0e403c"},"vehicle_type_id":"4","last_reported":1743930545,"current_range_meters":18800,"station_id":"ce4bgj92rcd13ifvqbe0","pricing_plan_id":"cebpf4jnsgd1na2vs0mg"},{"bike_id":"b0e54f79-dbf1-4d36-8ab4-e4147c1d0991","system_id":"levelo_inurba_marseille","lat":43.290761,"lon":5.355865,"is_reserved":false,"is_disabled":false,"rental_uris":{"android":"levelo://app?vid=b0e54f79-dbf1-4d36-8ab4-e4147c1d0991","ios":"levelo://app?vid=b0e54f79-dbf1-4d36-8ab4-e4147c1d0991"},"vehicle_type_id":"4","last_reported":1743930545,"current_range_meters":18800,"station_id":"ce4bhbp2rcd13ifvqerg","pricing_plan_id":"cebpf4jnsgd1na2vs0mg"},{"bike_id":"627a26d6-78ac-415a-9988-56ed089cdf1e","system_id":"levelo_inurba_marseille","lat":43.302417,"lon":5.40048,"is_reserved":false,"is_disabled":false,"rental_uris":{"android":"levelo://app?vid=627a26d6-78ac-415a-9988-56ed089cdf1e","ios":"levelo://app?vid=627a26d6-78ac-415a-9988-56ed089cdf1e"},"vehicle_type_id":"4","last_reported":1743930545,"current_range_meters":18800,"station_id":"ce4bgvh2rcd13ifvqcs0","pricing_plan_id":"cebpf4jnsgd1na2vs0mg"},{"bike_id":"4b30d164-dfd9-4fea-9258-5fe61fe2473e","system_id":"levelo_inurba_marseille","lat":43.28656,"lon":5.39902,"is_reserved":false,"is_disabled":false,"rental_uris":{"android":"levelo://app?vid=4b30d164-dfd9-4fea-9258-5fe61fe2473e","ios":"levelo://app?vid=4b30d164-dfd9-4fea-9258-5fe61fe2473e"},"vehicle_type_id":"4","last_reported":1743930545,"current_range_meters":19200,"station_id":"ce4bho92rcd13ifvqh3g","pricing_plan_id":"cebpf4jnsgd1na2vs0mg"},{"bike_id":"f065a3d0-8f8a-4fa7-a999-84340c4ee9c9","system_id":"levelo_inurba_marseille","lat":43.25122,"lon":5.40335,"is_reserved":false,"is_disabled":false,"rental_uris":{"android":"levelo://app?vid=f065a3d0-8f8a-4fa7-a999-84340c4ee9c9","ios":"levelo://app?vid=f065a3d0-8f8a-4fa7-a999-84340c4ee9c9"},"vehicle_type_id":"4","last_reported":1743930545,"current_range_meters":19200,"station_id":"ce4bhlh2rcd13ifvqgig","pricing_plan_id":"cebpf4jnsgd1na2vs0mg"},{"bike_id":"c56f957d-00f4-406d-898e-f698851b9bc2","system_id":"levelo_inurba_marseille","lat":43.2514,"lon":5.40333,"is_reserved":false,"is_disabled":false,"rental_uris":{"android":"levelo://app?vid=c56f957d-00f4-406d-898e-f698851b9bc2","ios":"levelo://app?vid=c56f957d-00f4-406d-898e-f698851b9bc2"},"vehicle_type_id":"4","last_reported":1743930545,"current_range_meters":19200,"station_id":"ce4bhlh2rcd13ifvqgig","pricing_plan_id":"cebpf4jnsgd1na2vs0mg"},{"bike_id":"c6adade1-1328-4feb-b745-870e23a58bf5","system_id":"levelo_inurba_marseille","lat":43.2792,"lon":5.39589,"is_reserved":false,"is_disabled":false,"rental_uris":{"android":"levelo://app?vid=c6adade1-1328-4feb-b745-870e23a58bf5","ios":"levelo://app?vid=c6adade1-1328-4feb-b745-870e23a58bf5"},"vehicle_type_id":"4","last_reported":1743930545,"current_range_meters":19600,"station_id":"ce4bhf92rcd13ifvqf40","pricing_plan_id":"cebpf4jnsgd1na2vs0mg"},