{"last_updated":1685048740,"ttl":30,"version":"2.2","data":{"bikes":[{"bike_id":"f9a1a961-72d2-4be5-b737-f8483192d0f0","system_id":"levelo_inurba_marseille","lat":43.314811,"lon":5.373103,"is_reserved":false,"is_disabled":false,"rental_uris":{"android":"levelo://app?vid=f9a1a961-72d2-4be5-b737-f8483192d0f0","ios":"levelo://app?vid=f9a1a961-72d2-4be5-b737-f8483192d0f0"},"vehicle_type_id":"4","last_reported":1685048740,"current_range_meters":25600,"station_id":"ce4bgt12rcd13ifvqcd0","pricing_plan_id":"free"},{"bike_id":"ae960c81-779d-41c3-9630-1e31592acf3c","system_id":"levelo_inurba_marseille","lat":43.311131,"lon":5.377651,"is_reserved":false,"is_disabled":false,"rental_uris":{"android":"levelo://app?vid=ae960c81-779d-41c3-9630-1e31592acf3c","ios":"levelo://app?vid=ae960c81-779d-41c3-9630-1e31592acf3c"},"vehicle_type_id":"4","last_reported":1685048740,"current_range_meters":3200,"station_id":"ce4bgt92rcd13ifvqcg0","pricing_plan_id":"free"},{"bike_id":"ee020c40-41c6-48b5-ae4b-58252374eda9","system_id":"levelo_inurba_marseille","lat":43.311131,"lon":5.377651,"is_reserved":false,"is_disabled":false,"rental_uris":{"android":"levelo://app?vid=ee020c40-41c6-48b5-ae4b-58252374eda9","ios":"levelo://app?vid=ee020c40-41c6-48b5-ae4b-58252374eda9"},"vehicle_type_id":"4","last_reported":1685048740,"current_range_meters":16400,"station_id":"ce4bgt92rcd13ifvqcg0","pricing_plan_id":"free"},{"bike_id":"b653ffdb-affa-4e25-8bd8-942346fba427","system_id":"levelo_inurba_marseille","lat":43.31116,"lon":5.37778,"is_reserved":false,"is_disabled":false,"rental_uris":{"android":"levelo://app?vid=b653ffdb-affa-4e25-8bd8-942346fba427","ios":"levelo://app?vid=b653ffdb-affa-4e25-8bd8-942346fba427"},"vehicle_type_id":"4","last_reported":1685048740,"current_range_meters":18000,"station_id":"ce4bgt92rcd13ifvqcg0","pricing_plan_id":"free"},{"bike_id":"16e7282a-4eed-47c3-83b3-d7e0dee6c006","system_id":"levelo_inurba_marseille","lat":43.317075,"lon":5.377367,"is_reserved":false,"is_disabled":false,"rental_uris":{"android":"levelo://app?vid=16e7282a-4eed-47c3-83b3-d7e0dee6c006","ios":"levelo://app?vid=16e7282a-4eed-47c3-83b3-d7e0dee6c006"},"vehicle_type_id":"4","last_reported":1685048740,"current_range_meters":20800,"station_id":"ce4bgth2rcd13ifvqch0","pricing_plan_id":"free"},{"bike_id":"2ab4639f-70ee-4cae-8aea-667b4c6c63d0","system_id":"levelo_inurba_marseille","lat":43.317075,"lon":5.377367,"is_reserved":false,"is_disabled":false,"rental_uris":{"android":"levelo://app?vid=2ab4639f-70ee-4cae-8aea-667b4c6c63d0","ios":"levelo://app?vid=2ab4639f-70ee-4cae-8aea-667b4c6c63d0"},"vehicle_type_id":"4","last_reported":1685048740,"current_range_meters":16000,"station_id":"ce4bgth2rcd13ifvqch0","pricing_plan_id":"free"},{"bike_id":"b6855b1f-51d1-440e-8236-2a00d5254915","system_id":"levelo_inurba_marseille","lat":43.317075,"lon":5.377367,"is_reserved":false,"is_disabled":false,"rental_uris":{"android":"levelo://app?vid=b6855b1f-51d1-440e-8236-2a00d5254915","ios":"levelo://app?vid=b6855b1f-51d1-440e-8236-2a00d5254915"},"vehicle_type_id":"4","last_reported":1685048740,"current_range_meters":18400,"station_id":"ce4bgth2rcd13ifvqch0","pricing_plan_id":"free"},{"bike_id":"1e3654da-4ca8-4941-8c9e-d7ae66415c19","system_id":"levelo_inurba_marseille","lat":43.317075,"lon":5.377367,"is_reserved":false,"is_disabled":false,"rental_uris":{"android":"levelo://app?vid=1e3654da-4ca8-4941-8c9e-d7ae66415c19","ios":"levelo://app?vid=1e3654da-4ca8-4941-8c9e-d7ae66415c19"},"vehicle_type_id":"4","last_reported":1685048740,"current_range_meters":20000,"station_id":"ce4bgth2rcd13ifvqch0","pricing_plan_id":"free"},{"bike_id":"7b06dc8c-a57b-40ab-a84e-e88877074cf1","system_id":"levelo_inurba_marseille","lat":43.317075,"lon":5.377367,"is_reserved":false,"is_disabled":false,"rental_uris":{"android":"levelo://app?vid=7b06dc8c-a57b-40ab-a84e-e88877074cf1","ios":"levelo://app?vid=7b06dc8c-a57b-40ab-a84e-e88877074cf1"},"vehicle_type_id":"4","last_reported":1685048740,"current_range_meters":22800,"station_id":"ce4bgth2rcd13ifvqch0","pricing_plan_id":"free"},{"bike_id":"3022569d-6af5-45bd-8997-a0f8c384be8e","system_id":"levelo_inurba_marseille","lat":43.317075,"lon":5.377367,"is_reserved":false,"is_disabled":false,"rental_uris":{"android":"levelo://app?vid=3022569d-6af5-45bd-8997-a0f8c384be8e","ios":"levelo://app?vid=3022569d-6af5-45bd-8997-a0f8c384be8e"},"vehicle_type_id":"4","last_reported":1685048740,"current_range_meters":27600,"station_id":"ce4bgth2rcd13ifvqch0","pricing_plan_id":"free"},{"bike_id":"8d3b898a-41aa-4f28-b1a2-33ce656ae17f","system_id":"levelo_inurba_marseille","lat":43.317075,"lon":5.377367,"is_reserved":false,"is_disabled":false,"rental_uris":{"android":"levelo://app?vid=8d3b898a-41aa-4f28-b1a2-33ce656ae17f","ios":"levelo://app?vid=8d3b898a-41aa-4f28-b1a2-33ce656ae17f"},"vehicle_type_id":"4","last_reported":1685048740,"current_range_meters":24000,"station_id":"ce4bgth2rcd13ifvqch0","pricing_plan_id":"free"},{"bike_id":"a9c13a70-c564-49a5-81b4-c2e9b591221c","system_id":"levelo_inurba_marseille","lat":43.317075,"lon":5.377367,"is_reserved":false,"is_disabled":false,"rental_uris":{"android":"levelo://app?vid=a9c13a70-c564-49a5-81b4-c2e9b591221c","ios":"levelo://app?vid=a9c13a70-c564-49a5-81b4-c2e9b591221c"},"vehicle_type_id":"4","last_reported":1685048740,"current_range_meters":27600,"station_id":"ce4bgth2rcd13ifvqch0","pricing_plan_id":"free"},{"bike_id":"68553df9-2b4c-4244-a834-2447f191355a","system_id":"levelo_inurba_marseille","lat":43.317075,"lon":5.377367,"is_reserved":false,"is_disabled":false,"rental_uris":{"android":"levelo://app?vid=68553df9-2b4c-4244-a834-2447f191355a","ios":"levelo://app?vid=68553df9-2b4c-4244-a834-2447f191355a"},"vehicle_type_id":"4","last_reported":1685048740,"current_range_meters":5600,"station_id":"ce4bgth2rcd13ifvqch0","pricing_plan_id":"free"},{"bike_id":"fd38c318-e10c-4ea0-8386-140691495f8d","system_id":"levelo_inurba_marseille","lat":43.31713,"lon":5.37832,"is_reserved":false,"is_disabled":false,"rental_uris":{"android":"levelo://app?vid=fd38c318-e10c-4ea0-8386-140691495f8d","ios":"levelo://app?vid=fd38c318-e10c-4ea0-8386-140691495f8d"},"vehicle_type_id":"4","last_reported":1685048740,"current_range_meters":27200,"station_id":"","pricing_plan_id":"free"},{"bike_id":"c43c91fa-0fbe-46d3-847a-f996e65c960c","system_id":"levelo_inurba_marseille","lat":43.30302,"lon":5.36877,"is_reserved":false,"is_disabled":false,"rental_uris":{"android":"levelo://app?vid=c43c91fa-0fbe-46d3-847a-f996e65c960c","ios":"levelo://app?vid=c43c91fa-0fbe-46d3-847a-f996e65c960c"},"vehicle_type_id":"4","last_reported":1685048740,"current_range_meters":27600,"station_id":"ce4bgqh2rcd13ifvqc5g","pricing_plan_id":"free"},{"bike_id":"4c5ae5f9-3932-4f1e-9e4f-ebe0a11e0845","system_id":"levelo_inurba_marseille","lat":43.315289,"lon":5.380349,"is_reserved":false,"is_disabled":false,"rental_uris":{"android":"levelo://app?vid=4c5ae5f9-3932-4f1e-9e4f-ebe0a11e0845","ios":"levelo://app?vid=4c5ae5f9-3932-4f1e-9e4f-ebe0a11e0845"},"vehicle_type_id":"4","last_reported":1685048740,"current_range_meters":15600,"station_id":"ce4bhsp2rcd13ifvqi50","pricing_plan_id":"free"},{"bike_id":"5e5f9dbe-757a-4529-85f7-bfa34039dcef","system_id":"levelo_inurba_marseille","lat":43.315293,"lon":5.380349,"is_reserved":false,"is_disabled":false,"rental_uris":{"android":"levelo://app?vid=5e5f9dbe-757a-4529-85f7-bfa34039dcef","ios":"levelo://app?vid=5e5f9dbe-757a-4529-85f7-bfa34039dcef"},"vehicle_type_id":"4","last_reported":1685048740,"current_range_meters":25600,"station_id":"ce4bhsp2rcd13ifvqi50","pricing_plan_id":"free"},{"bike_id":"05dc4227-7064-4265-9871-d5b8c7f85e80","system_id":"levelo_inurba_marseille","lat":43.301939,"lon":5.366286,"is_reserved":false,"is_disabled":false,"rental_uris":{"android":"levelo://app?vid=05dc4227-7064-4265-9871-d5b8c7f85e80","ios":"levelo://app?vid=05dc4227-7064-4265-9871-d5b8c7f85e80"},"vehicle_type_id":"4","last_reported":1685048740,"current_range_meters":15600,"station_id":"ce4bgrh2rcd13ifvqc8g","pricing_plan_id":"free"},{"bike_id":"a6715504-7668-4e41-942f-64a1b8da4a63","system_id":"levelo_inurba_marseille","lat":43.301939,"lon":5.366286,"is_reserved":false,"is_disabled":false,"rental_uris":{"android":"levelo://app?vid=a6715504-7668-4e41-942f-64a1b8da4a63","ios":"levelo://app?vid=a6715504-7668-4e41-942f-64a1b8da4a63"},"vehicle_type_id":"4","last_reported":1685048740,"current_range_meters":15600,"station_id":"ce4bgrh2rcd13ifvqc8g","pricing_plan_id":"free"},{"bike_id":"36167ab5-43d5-410f-b67c-613f60e0927a","system_id":"levelo_inurba_marseille","lat":43.301939,"lon":5.366286,"is_reserved":false,"is_disabled":false,"rental_uris":{"android":"levelo://app?vid=36167ab5-43d5-410f-b67c-613f60e0927a","ios":"levelo://app?vid=36167ab5-43d5-410f-b67c-613f60e0927a"},"vehicle_type_id":"4","last_reported":1685048740,"current_range_meters":17200,"station_id":"ce4bgrh2rcd13ifvqc8g","pricing_plan_id":"free"},{"bike_id":"a06fe5f2-5a1f-49d5-943e-fc912d081c45","system_id":"levelo_inurba_marseille","lat":43.301939,"lon":5.366286,"is_reserved":false,"is_disabled":false,"rental_uris":{"android":"levelo://app?vid=a06fe5f2-5a1f-49d5-943e-fc912d081c45","ios":"levelo://app?vid=a06fe5f2-5a1f-49d5-943e-fc912d081c45"},"vehicle_type_id":"4","last_reported":1685048740,"current_range_meters":6800,"station_id":"ce4bgrh2rcd13ifvqc8g","pricing_plan_id":"free"},{"bike_id":"7d99dd19-b0bd-452f-94ba-522ad21d8e79","system_id":"levelo_inurba_marseille","lat":43.30801,"lon":5.38147,"is_reserved":false,"is_disabled":false,"rental_uris":{"android":"levelo://app?vid=7d99dd19-b0bd-452f-94ba-522ad21d8e79","ios":"levelo://app?vid=7d99dd19-b0bd-452f-94ba-522ad21d8e79"},"vehicle_type_id":"4","last_reported":1685048740,"current_range_meters":19600,"station_id":"ce4bgt12rcd13ifvqce0","pricing_plan_id":"free"},{"bike_id":"1ae0cd95-1117-434d-bb9c-a11a00ef2f7b","system_id":"levelo_inurba_marseille","lat":43.304606,"lon":5.379026,"is_reserved":false,"is_disabled":false,"rental_uris":{"android":"levelo://app?vid=1ae0cd95-1117-434d-bb9c-a11a00ef2f7b","ios":"levelo://app?vid=1ae0cd95-1117-434d-bb9c-a11a00ef2f7b"},"vehicle_type_id":"4","last_reported":1685048740,"current_range_meters":8400,"station_id":"ce4bgup2rcd13ifvqcn0","pricing_plan_id":"free"},{"bike_id":"bd3ab4fd-8ca5-419d-9caa-c2eff91213a7","system_id":"levelo_inurba_marseille","lat":43.304606,"lon":5.379026,"is_reserved":false,"is_disabled":false,"rental_uris":{"android":"levelo://app?vid=bd3ab4fd-8ca5-419d-9caa-c2eff91213a7","ios":"levelo://app?vid=bd3ab4fd-8ca5-419d-9caa-c2eff91213a7"},"vehicle_type_id":"4","last_reported":1685048740,"current_range_meters":4800,"station_id":"ce4bgup2rcd13ifvqcn0","pricing_plan_id":"free"},{"bike_id":"58b9f357-b3a3-4143-9247-dc35c70e76aa","system_id":"levelo_inurba_marseille","lat":43.30143,"lon":5.37411,"is_reserved":false,"is_disabled":false,"rental_uris":{"android":"levelo://app?vid=58b9f357-b3a3-4143-9247-dc35c70e76aa","ios":"levelo://app?vid=58b9f357-b3a3-4143-9247-dc35c70e76aa"},"vehicle_type_id":"4","last_reported":1685048740,"current_range_meters":400,"station_id":"","pricing_plan_id":"free"},{"bike_id":"bfdcad51-97fc-4fc5-8b82-c545596782cd","system_id":"levelo_inurba_marseille","lat":43.319935,"lon":5.381699,"is_reserved":false,"is_disabled":false,"rental_uris":{"android":"levelo://app?vid=bfdcad51-97fc-4fc5-8b82-c545596782cd","ios":"levelo://app?vid=bfdcad51-97fc-4fc5-8b82-c545596782cd"},"vehicle_type_id":"4","last_reported":1685048740,"current_range_meters":31200,"station_id":"ce4bhr12rcd13ifvqhpg","pricing_plan_id":"free"},{"bike_id":"ec2bf9d8-bdcd-4d00-823b-5e25cb80cc6b","system_id":"levelo_inurba_marseille","lat":43.319935,"lon":5.381699,"is_reserved":false,"is_disabled":false,"rental_uris":{"android":"levelo://app?vid=ec2bf9d8-bdcd-4d00-823b-5e25cb80cc6b","ios":"levelo://app?vid=ec2bf9d8-bdcd-4d00-823b-5e25cb80cc6b"},"vehicle_type_id":"4","last_reported":1685048740,"current_range_meters":30800,"station_id":"ce4bhr12rcd13ifvqhpg","pricing_plan_id":"free"},{"bike_id":"ed0af2c9-d311-4056-bf56-2135ca45404c","system_id":"levelo_inurba_marseille","lat":43.31998,"lon":5.38148,"is_reserved":false,"is_disabled":false,"rental_uris":{"android":"levelo://app?vid=ed0af2c9-d311-4056-bf56-2135ca45404c","ios":"levelo://app?vid=ed0af2c9-d311-4056-bf56-2135ca45404c"},"vehicle_type_id":"4","last_reported":1685048740,"current_range_meters":21600,"station_id":"ce4bhr12rcd13ifvqhpg","pricing_plan_id":"free"},{"bike_id":"530a238a-2fe4-4ada-b174-d32325afbdf2","system_id":"levelo_inurba_marseille","lat":43.32004,"lon":5.38149,"is_reserved":false,"is_disabled":false,"rental_uris":{"android":"levelo://app?vid=530a238a-2fe4-4ada-b174-d32325afbdf2","ios":"levelo://app?vid=530a238a-2fe4-4ada-b174-d32325afbdf2"},"vehicle_type_id":"4","last_reported":1685048740,"current_range_meters":28400,"station_id":"ce4bhr12rcd13ifvqhpg","pricing_plan_id":"free"},{"bike_id":"c906fdd5-8c40-4206-a3b9-d22b9704e528","system_id":"levelo_inurba_marseille","lat":43.31999,"lon":5.38154,"is_reserved":false,"is_disabled":false,"rental_uris":{"android":"levelo://app?vid=c906fdd5-8c40-4206-a3b9-d22b9704e528","ios":"levelo://app?vid=c906fdd5-8c40-4206-a3b9-d22b9704e528"},"vehicle_type_id":"4","last_reported":1685048740,"current_range_meters":13200,"station_id":"ce4bhr12rcd13ifvqhpg","pricing_plan_id":"free"},{"bike_id":"e7f9e557-7aab-43d8-8e20-32a2b55893af","system_id":"levelo_inurba_marseille","lat":43.31999,"lon":5.38154,"is_reserved":false,"is_disabled":false,"rental_uris":{"android":"levelo://app?vid=e7f9e557-7aab-43d8-8e20-32a2b55893af","ios":"levelo://app?vid=e7f9e557-7aab-43d8-8e20-32a2b55893af"},"vehicle_type_id":"4","last_reported":1685048740,"current_range_meters":7600,"station_id":"ce4bhr12rcd13ifvqhpg","pricing_plan_id":"free"},{"bike_id":"e5571f58-adb6-49b7-8c86-2d757ae8e1a0","system_id":"levelo_inurba_marseille","lat":43.319935,"lon":5.381699,"is_reserved":false,"is_disabled":false,"rental_uris":{"android":"levelo://app?vid=e5571f58-adb6-49b7-8c86-2d757ae8e1a0","ios":"levelo://app?vid=e5571f58-adb6-49b7-8c86-2d757ae8e1a0"},"vehicle_type_id":"4","last_reported":1685048740,"current_range_meters":21200,"station_id":"ce4bhr12rcd13ifvqhpg","pricing_plan_id":"free"},{"bike_id":"44901d41-a62f-42f9-8cc7-dbf3ecc8a7ac","system_id":"levelo_inurba_marseille","lat":43.32004,"lon":5.38152,"is_reserved":false,"is_disabled":false,"rental_uris":{"android":"levelo://app?vid=44901d41-a62f-42f9-8cc7-dbf3ecc8a7ac","ios":"levelo://app?vid=44901d41-a62f-42f9-8cc7-dbf3ecc8a7ac"},"vehicle_type_id":"4","last_reported":1685048740,"current_range_meters":22400,"station_id":"ce4bhr12rcd13ifvqhpg","pricing_plan_id":"free"},{"bike_id":"67d771cf-5063-4f6f-8d01-432caa748b18","system_id":"levelo_inurba_marseille","lat":43.32004,"lon":5.38155,"is_reserved":false,"is_disabled":false,"rental_uris":{"android":"levelo://app?vid=67d771cf-5063-4f6f-8d01-432caa748b18","ios":"levelo://app?vid=67d771cf-5063-4f6f-8d01-432caa748b18"},"vehicle_type_id":"4","last_reported":1685048740,"current_range_meters":9600,"station_id":"ce4bhr12rcd13ifvqhpg","pricing_plan_id":"free"},{"bike_id":"5ac2fe43-85c7-472b-b3f7-4192c6da01ce","system_id":"levelo_inurba_marseille","lat":43.320076,"lon":5.381696,"is_reserved":false,"is_disabled":false,"rental_uris":{"android":"levelo://app?vid=5ac2fe43-85c7-472b-b3f7-4192c6da01ce","ios":"levelo://app?vid=5ac2fe43-85c7-472b-b3f7-4192c6da01ce"},"vehicle_type_id":"4","last_reported":1685048740,"current_range_meters":20000,"station_id":"","pricing_plan_id":"free"},{"bike_id":"8254f6d5-980f-4f05-a73a-0ccffedf32a5","system_id":"levelo_inurba_marseille","lat":43.313571,"lon":5.384829,"is_reserved":false,"is_disabled":false,"rental_uris":{"android":"levelo://app?vid=8254f6d5-980f-4f05-a73a-0ccffedf32a5","ios":"levelo://app?vid=8254f6d5-980f-4f05-a73a-0ccffedf32a5"},"vehicle_type_id":"4","last_reported":1685048740,"current_range_meters":21600,"station_id":"ce4bgt92rcd13ifvqcf0","pricing_plan_id":"free"},{"bike_id":"7ff0cf0c-f9cb-4047-bca4-1219b301fb5d","system_id":"levelo_inurba_marseille","lat":43.313571,"lon":5.384829,"is_reserved":false,"is_disabled":false,"rental_uris":{"android":"levelo://app?vid=7ff0cf0c-f9cb-4047-bca4-1219b301fb5d","ios":"levelo://app?vid=7ff0cf0c-f9cb-4047-bca4-1219b301fb5d"},"vehicle_type_id":"4","last_reported":1685048740,"current_range_meters":32000,"station_id":"ce4bgt92rcd13ifvqcf0","pricing_plan_id":"free"},{"bike_id":"d4b0c2b6-4e7a-43aa-b1a1-ee583cc5e17a","system_id":"levelo_inurba_marseille","lat":43.313571,"lon":5.384829,"is_reserved":false,"is_disabled":false,"rental_uris":{"android":"levelo://app?vid=d4b0c2b6-4e7a-43aa-b1a1-ee583cc5e17a","ios":"levelo://app?vid=d4b0c2b6-4e7a-43aa-b1a1-ee583cc5e17a"},"vehicle_type_id":"4","last_reported":1685048740,"current_range_meters":29200,"station_id":"ce4bgt92rcd13ifvqcf0","pricing_plan_id":"free"},{"bike_id":"b2c7ae14-aa52-4f0e-a992-809008fff553","system_id":"levelo_inurba_marseille","lat":43.31356,"lon":5.38515,"is_reserved":false,"is_disabled":false,"rental_uris":{"android":"levelo://app?vid=b2c7ae14-aa52-4f0e-a992-809008fff553","ios":"levelo://app?vid=b2c7ae14-aa52-4f0e-a992-809008fff553"},"vehicle_type_id":"4","last_reported":1685048740,"current_range_meters":28400,"station_id":"ce4bgt92rcd13ifvqcf0","pricing_plan_id":"free"},{"bike_id":"0d6739ca-c2fe-4c7a-a843-4491068a992b","system_id":"levelo_inurba_marseille","lat":43.31344,"lon":5.3854,"is_reserved":false,"is_disabled":false,"rental_uris":{"android":"levelo://app?vid=0d6739ca-c2fe-4c7a-a843-4491068a992b","ios":"levelo://app?vid=0d6739ca-c2fe-4c7a-a843-4491068a992b"},"vehicle_type_id":"4","last_reported":1685048740,"current_range_meters":26800,"station_id":"","pricing_plan_id":"free"},{"bike_id":"2f6c8c3d-be76-408a-a64b-2f40738a76d5","system_id":"levelo_inurba_marseille","lat":43.299209,"lon":5.365327,"is_reserved":false,"is_disabled":false,"rental_uris":{"android":"levelo://app?vid=2f6c8c3d-be76-408a-a64b-2f40738a76d5","ios":"levelo://app?vid=2f6c8c3d-be76-408a-a64b-2f40738a76d5"},"vehicle_type_id":"4","last_reported":1685048740,"current_range_meters":15600,"station_id":"ce4bgm92rcd13ifvqbr0","pricing_plan_id":"free"},{"bike_id":"68a9d648-68c7-4360-9e0d-fa87bd0c5998","system_id":"levelo_inurba_marseille","lat":43.305364,"lon":5.384119,"is_reserved":false,"is_disabled":false,"rental_uris":{"android":"levelo://app?vid=68a9d648-68c7-4360-9e0d-fa87bd0c5998","ios":"levelo://app?vid=68a9d648-68c7-4360-9e0d-fa87bd0c5998"},"vehicle_type_id":"4","last_reported":1685048740,"current_range_meters":1200,"station_id":"ce4bgg92rcd13ifvqb30","pricing_plan_id":"free"},{"bike_id":"45ddbca9-2a62-495e-b3a1-61bcac73147e","system_id":"levelo_inurba_marseille","lat":43.311722,"lon":5.387247,"is_reserved":false,"is_disabled":false,"rental_uris":{"android":"levelo://app?vid=45ddbca9-2a62-495e-b3a1-61bcac73147e","ios":"levelo://app?vid=45ddbca9-2a62-495e-b3a1-61bcac73147e"},"vehicle_type_id":"4","last_reported":1685048740,"current_range_meters":2000,"station_id":"ce4bgv12rcd13ifvqcp0","pricing_plan_id":"free"},{"bike_id":"5f0cae1b-77e6-4ce6-bb89-60647946b588","system_id":"levelo_inurba_marseille","lat":43.29772,"lon":5.37118,"is_reserved":false,"is_disabled":false,"rental_uris":{"android":"levelo://app?vid=5f0cae1b-77e6-4ce6-bb89-60647946b588","ios":"levelo://app?vid=5f0cae1b-77e6-4ce6-bb89-60647946b588"},"vehicle_type_id":"4","last_reported":1685048740,"current_range_meters":18000,"station_id":"","pricing_plan_id":"free"},{"bike_id":"fad50468-bff6-4eb0-bc39-08e7203bec60","system_id":"levelo_inurba_marseille","lat":43.328371,"lon":5.366912,"is_reserved":false,"is_disabled":false,"rental_uris":{"android":"levelo://app?vid=fad50468-bff6-4eb0-bc39-08e7203bec60","ios":"levelo://app?vid=fad50468-bff6-4eb0-bc39-08e7203bec60"},"vehicle_type_id":"4","last_reported":1685048740,"current_range_meters":16800,"station_id":"ce4bhs92rcd13ifvqi0g","pricing_plan_id":"free"},{"bike_id":"bbf06f8d-4083-4a31-beff-723604c0f8b8","system_id":"levelo_inurba_marseille","lat":43.328371,"lon":5.366909,"is_reserved":false,"is_disabled":false,"rental_uris":{"android":"levelo://app?vid=bbf06f8d-4083-4a31-beff-723604c0f8b8","ios":"levelo://app?vid=bbf06f8d-4083-4a31-beff-723604c0f8b8"},"vehicle_type_id":"4","last_reported":1685048740,"current_range_meters":2400,"station_id":"ce4bhs92rcd13ifvqi0g","pricing_plan_id":"free"},{"bike_id":"33d64a15-7d9d-4fb0-ae0e-1b1b07ff9aea","system_id":"levelo_inurba_marseille","lat":43.328371,"lon":5.366909,"is_reserved":false,"is_disabled":false,"rental_uris":{"android":"levelo://app?vid=33d64a15-7d9d-4fb0-ae0e-1b1b07ff9aea","ios":"levelo://app?vid=33d64a15-7d9d-4fb0-ae0e-1b1b07ff9aea"},"vehicle_type_id":"4","last_reported":1685048740,"current_range_meters":30000,"station_id":"ce4bhs92rcd13ifvqi0g","pricing_plan_id":"free"},{"bike_id":"1acc9c82-a049-49b2-8802-6e37cdd32a71","system_id":"levelo_inurba_marseille","lat":43.328371,"lon":5.366912,"is_reserved":false,"is_disabled":false,"rental_uris":{"android":"levelo://app?vid=1acc9c82-a049-49b2-8802-6e37cdd32a71","ios":"levelo://app?vid=1acc9c82-a049-49b2-8802-6e37cdd32a71"},"vehicle_type_id":"4","last_reported":1685048740,"current_range_meters":25600,"station_id":"ce4bhs92rcd13ifvqi0g","pricing_plan_id":"free"},{"bike_id":"07d0f5f8-594a-4c99-bd5f-efd86e16327f","system_id":"levelo_inurba_marseille","lat":43.328371,"lon":5.366912,"is_reserved":false,"is_disabled":false,"rental_uris":{"android":"levelo://app?vid=07d0f5f8-594a-4c99-bd5f-efd86e16327f","ios":"levelo://app?vid=07d0f5f8-594a-4c99-bd5f-efd86e16327f"},"vehicle_type_id":"4","last_reported":1685048740,"current_range_meters":10800,"station_id":"ce4bhs92rcd13ifvqi0g","pricing_plan_id":"free"},{"bike_id":"beb58a24-32df-4292-805e-75c74c187706","system_id":"levelo_inurba_marseille","lat":43.328371,"lon":5.366912,"is_reserved":false,"is_disabled":false,"rental_uris":{"android":"levelo://app?vid=beb58a24-32df-4292-805e-75c74c187706","ios":"levelo://app?vid=beb58a24-32df-4292-805e-75c74c187706"},"vehicle_type_id":"4","last_reported":1685048740,"current_range_meters":30400,"station_id":"ce4bhs92rcd13ifvqi0g","pricing_plan_id":"free"},{"bike_id":"4fe812b5-a152-4f6f-a5e4-5b2d482ba70f","system_id":"levelo_inurba_marseille","lat":43.32831,"lon":5.36678,"is_reserved":false,"is_disabled":false,"rental_uris":{"android":"levelo://app?vid=4fe812b5-a152-4f6f-a5e4-5b2d482ba70f","ios":"levelo://app?vid=4fe812b5-a152-4f6f-a5e4-5b2d482ba70f"},"vehicle_type_id":"4","last_reported":1685048740,"current_range_meters":17600,"station_id":"ce4bhs92rcd13ifvqi0g","pricing_plan_id":"free"},{"bike_id":"1e390259-dfad-4d78-b328-de134bf0bf4b","system_id":"levelo_inurba_marseille","lat":43.29717,"lon":5.36607,"is_reserved":false,"is_disabled":false,"rental_uris":{"android":"levelo://app?vid=1e390259-dfad-4d78-b328-de134bf0bf4b","ios":"levelo://app?vid=1e390259-dfad-4d78-b328-de134bf0bf4b"},"vehicle_type_id":"4","last_reported":1685048740,"current_range_meters":0,"station_id":"","pricing_plan_id":"free"},{"bike_id":"cd2ff10f-681c-4c0d-b23b-ed356d56ba93","system_id":"levelo_inurba_marseille","lat":43.328371,"lon":5.366912,"is_reserved":false,"is_disabled":false,"rental_uris":{"android":"levelo://app?vid=cd2ff10f-681c-4c0d-b23b-ed356d56ba93","ios":"levelo://app?vid=cd2ff10f-681c-4c0d-b23b-ed356d56ba93"},"vehicle_type_id":"4","last_reported":1685048740,"current_range_meters":27200,"station_id":"ce4bhs92rcd13ifvqi0g","pricing_plan_id":"free"},{"bike_id":"30bf0d76-fed4-4c15-be6e-d0808aa628b4","system_id":"levelo_inurba_marseille","lat":43.29709,"lon":5.36607,"is_reserved":false,"is_disabled":false,"rental_uris":{"android":"levelo://app?vid=30bf0d76-fed4-4c15-be6e-d0808aa628b4","ios":"levelo://app?vid=30bf0d76-fed4-4c15-be6e-d0808aa628b4"},"vehicle_type_id":"4","last_reported":1685048740,"current_range_meters":22000,"station_id":"","pricing_plan_id":"free"},{"bike_id":"4a30cadb-f231-4029-8ba6-2c441e835d6c","system_id":"levelo_inurba_marseille","lat":43.29708,"lon":5.36596,"is_reserved":false,"is_disabled":false,"rental_uris":{"android":"levelo://app?vid=4a30cadb-f231-4029-8ba6-2c441e835d6c","ios":"levelo://app?vid=4a30cadb-f231-4029-8ba6-2c441e835d6c"},"vehicle_type_id":"4","last_reported":1685048740,"current_range_meters":22800,"station_id":"","pricing_plan_id":"free"},{"bike_id":"608970b7-89ba-43a3-90f8-26c50b771fa4","system_id":"levelo_inurba_marseille","lat":43.2968,"lon":5.37291,"is_reserved":false,"is_disabled":false,"rental_uris":{"android":"levelo://app?vid=608970b7-89ba-43a3-90f8-26c50b771fa4","ios":"levelo://app?vid=608970b7-89ba-43a3-90f8-26c50b771fa4"},"vehicle_type_id":"4","last_reported":1685048740,"current_range_meters":16800,"station_id":"ce4bgk12rcd13ifvqbj0","pricing_plan_id":"free"},{"bike_id":"7187ccfd-8c7a-4cc5-91e7-248a68a678e4","system_id":"levelo_inurba_marseille","lat":43.31676,"lon":5.38955,"is_reserved":false,"is_disabled":false,"rental_uris":{"android":"levelo://app?vid=7187ccfd-8c7a-4cc5-91e7-248a68a678e4","ios":"levelo://app?vid=7187ccfd-8c7a-4cc5-91e7-248a68a678e4"},"vehicle_type_id":"4","last_reported":1685048740,"current_range_meters":0,"station_id":"","pricing_plan_id":"free"},{"bike_id":"1b99efa7-cf8e-455d-85df-0bf61c4f3755","system_id":"levelo_inurba_marseille","lat":43.29906,"lon":5.3813,"is_reserved":false,"is_disabled":false,"rental_uris":{"android":"levelo://app?vid=1b99efa7-cf8e-455d-85df-0bf61c4f3755","ios":"levelo://app?vid=1b99efa7-cf8e-455d-85df-0bf61c4f3755"},"vehicle_type_id":"4","last_reported":1685048740,"current_range_meters":0,"station_id":"ce4bgj12rcd13ifvqbc0","pricing_plan_id":"free"},{"bike_id":"72006841-093d-4e55-8e8e-05167ca4ec01","system_id":"levelo_inurba_marseille","lat":43.30963,"lon":5.39027,"is_reserved":false,"is_disabled":false,"rental_uris":{"android":"levelo://app?vid=72006841-093d-4e55-8e8e-05167ca4ec01","ios":"levelo://app?vid=72006841-093d-4e55-8e8e-05167ca4ec01"},"vehicle_type_id":"4","last_reported":1685048740,"current_range_meters":5200,"station_id":"ce4bgup2rcd13ifvqco0","pricing_plan_id":"free"},{"bike_id":"0da72bc4-5715-492f-97e8-09900fb54503","system_id":"levelo_inurba_marseille","lat":43.317557,"lon":5.390173,"is_reserved":false,"is_disabled":false,"rental_uris":{"android":"levelo://app?vid=0da72bc4-5715-492f-97e8-09900fb54503","ios":"levelo://app?vid=0da72bc4-5715-492f-97e8-09900fb54503"},"vehicle_type_id":"4","last_reported":1685048740,"current_range_meters":17600,"station_id":"ce4bhqp2rcd13ifvqhng","pricing_plan_id":"free"},{"bike_id":"fcabca5a-2884-4478-9a81-19994fe86ceb","system_id":"levelo_inurba_marseille","lat":43.317557,"lon":5.390173,"is_reserved":false,"is_disabled":false,"rental_uris":{"android":"levelo://app?vid=fcabca5a-2884-4478-9a81-19994fe86ceb","ios":"levelo://app?vid=fcabca5a-2884-4478-9a81-19994fe86ceb"},"vehicle_type_id":"4","last_reported":1685048740,"current_range_meters":24400,"station_id":"ce4bhqp2rcd13ifvqhng","pricing_plan_id":"free"},{"bike_id":"2813de7a-5053-4219-8ae4-5362f9f39205","system_id":"levelo_inurba_marseille","lat":43.317557,"lon":5.390173,"is_reserved":false,"is_disabled":false,"rental_uris":{"android":"levelo://app?vid=2813de7a-5053-4219-8ae4-5362f9f39205","ios":"levelo://app?vid=2813de7a-5053-4219-8ae4-5362f9f39205"},"vehicle_type_id":"4","last_reported":1685048740,"current_range_meters":28400,"station_id":"ce4bhqp2rcd13ifvqhng","pricing_plan_id":"free"},{"bike_id":"3dbd7c9c-f111-4fec-9aad-ebd70318a4bd","system_id":"levelo_inurba_marseille","lat":43.30439,"lon":5.38897,"is_reserved":false,"is_disabled":false,"rental_uris":{"android":"levelo://app?vid=3dbd7c9c-f111-4fec-9aad-ebd70318a4bd","ios":"levelo://app?vid=3dbd7c9c-f111-4fec-9aad-ebd70318a4bd"},"vehicle_type_id":"4","last_reported":1685048740,"current_range_meters":31200,"station_id":"ce4bgk12rcd13ifvqbi0","pricing_plan_id":"free"},{"bike_id":"130f1dd6-b96a-4156-a781-345b465760f5","system_id":"levelo_inurba_marseille","lat":43.30436,"lon":5.38896,"is_reserved":false,"is_disabled":false,"rental_uris":{"android":"levelo://app?vid=130f1dd6-b96a-4156-a781-345b465760f5","ios":"levelo://app?vid=130f1dd6-b96a-4156-a781-345b465760f5"},"vehicle_type_id":"4","last_reported":1685048740,"current_range_meters":30000,"station_id":"ce4bgk12rcd13ifvqbi0","pricing_plan_id":"free"},{"bike_id":"c735ef23-d454-4edf-9e34-a8e86604b296","system_id":"levelo_inurba_marseille","lat":43.30432,"lon":5.38902,"is_reserved":false,"is_disabled":false,"rental_uris":{"android":"levelo://app?vid=c735ef23-d454-4edf-9e34-a8e86604b296","ios":"levelo://app?vid=c735ef23-d454-4edf-9e34-a8e86604b296"},"vehicle_type_id":"4","last_reported":1685048740,"current_range_meters":31200,"station_id":"ce4bgk12rcd13ifvqbi0","pricing_plan_id":"free"},{"bike_id":"0066da91-fba1-4239-adc2-c318e72f5ac9","system_id":"levelo_inurba_marseille","lat":43.299707,"lon":5.384859,"is_reserved":false,"is_disabled":false,"rental_uris":{"android":"levelo://app?vid=0066da91-fba1-4239-adc2-c318e72f5ac9","ios":"levelo://app?vid=0066da91-fba1-4239-adc2-c318e72f5ac9"},"vehicle_type_id":"4","last_reported":1685048740,"current_range_meters":20400,"station_id":"ce4bgj92rcd13ifvqbd0","pricing_plan_id":"free"},{"bike_id":"58d30d96-f815-488a-ae66-b56220f8a23a","system_id":"levelo_inurba_marseille","lat":43.299724,"lon":5.384848,"is_reserved":false,"is_disabled":false,"rental_uris":{"android":"levelo://app?vid=58d30d96-f815-488a-ae66-b56220f8a23a","ios":"levelo://app?vid=58d30d96-f815-488a-ae66-b56220f8a23a"},"vehicle_type_id":"4","last_reported":1685048740,"current_range_meters":22000,"station_id":"ce4bgj92rcd13ifvqbd0","pricing_plan_id":"free"},{"bike_id":"cf8cf4e2-6800-4619-be71-af1d6fd79459","system_id":"levelo_inurba_marseille","lat":43.299717,"lon":5.384845,"is_reserved":false,"is_disabled":false,"rental_uris":{"android":"levelo://app?vid=cf8cf4e2-6800-4619-be71-af1d6fd79459","ios":"levelo://app?vid=cf8cf4e2-6800-4619-be71-af1d6fd79459"},"vehicle_type_id":"4","last_reported":1685048740,"current_range_meters":1600,"station_id":"ce4bgj92rcd13ifvqbd0","pricing_plan_id":"free"},{"bike_id":"96c91e5e-1df6-4a07-8ff7-600bd9d1f35f","system_id":"levelo_inurba_marseille","lat":43.32367,"lon":5.388836,"is_reserved":false,"is_disabled":false,"rental_uris":{"android":"levelo://app?vid=96c91e5e-1df6-4a07-8ff7-600bd9d1f35f","ios":"levelo://app?vid=96c91e5e-1df6-4a07-8ff7-600bd9d1f35f"},"vehicle_type_id":"4","last_reported":1685048740,"current_range_meters":22400,"station_id":"ce4bhqp2rcd13ifvqhog","pricing_plan_id":"free"},{"bike_id":"ecaa7f22-bff5-4d9e-862b-6ed35b987b1b","system_id":"levelo_inurba_marseille","lat":43.32367,"lon":5.388836,"is_reserved":false,"is_disabled":false,"rental_uris":{"android":"levelo://app?vid=ecaa7f22-bff5-4d9e-862b-6ed35b987b1b","ios":"levelo://app?vid=ecaa7f22-bff5-4d9e-862b-6ed35b987b1b"},"vehicle_type_id":"4","last_reported":1685048740,"current_range_meters":20000,"station_id":"ce4bhqp2rcd13ifvqhog","pricing_plan_id":"free"},{"bike_id":"beb16068-a6ef-439e-89d1-3e7cf4b21683","system_id":"levelo_inurba_marseille","lat":43.32367,"lon":5.388836,"is_reserved":false,"is_disabled":false,"rental_uris":{"android":"levelo://app?vid=beb16068-a6ef-439e-89d1-3e7cf4b21683","ios":"levelo://app?vid=beb16068-a6ef-439e-89d1-3e7cf4b21683"},"vehicle_type_id":"4","last_reported":1685048740,"current_range_meters":7200,"station_id":"ce4bhqp2rcd13ifvqhog","pricing_plan_id":"free"},{"bike_id":"3ae89e3d-718e-49b7-bf65-8d808377262d","system_id":"levelo_inurba_marseille","lat":43.287154,"lon":5.399979,"is_reserved":false,"is_disabled":false,"rental_uris":{"android":"levelo://app?vid=3ae89e3d-718e-49b7-bf65-8d808377262d","ios":"levelo://app?vid=3ae89e3d-718e-49b7-bf65-8d808377262d"},"vehicle_type_id":"4","last_reported":1685048740,"current_range_meters":13600,"station_id":"ce4bho92rcd13ifvqh3g","pricing_plan_id":"free"},{"bike_id":"eb919dee-7924-4349-b9ec-b54f7f96aefd","system_id":"levelo_inurba_marseille","lat":43.32367,"lon":5.388836,"is_reserved":false,"is_disabled":false,"rental_uris":{"android":"levelo://app?vid=eb919dee-7924-4349-b9ec-b54f7f96aefd","ios":"levelo://app?vid=eb919dee-7924-4349-b9ec-b54f7f96aefd"},"vehicle_type_id":"4","last_reported":1685048740,"current_range_meters":22400,"station_id":"ce4bhqp2rcd13ifvqhog","pricing_plan_id":"free"},{"bike_id":"574bd7e8-fe4f-4807-aafe-8ae0d267ce19","system_id":"levelo_inurba_marseille","lat":43.29601,"lon":5.381084,"is_reserved":false,"is_disabled":false,"rental_uris":{"android":"levelo://app?vid=574bd7e8-fe4f-4807-aafe-8ae0d267ce19","ios":"levelo://app?vid=574bd7e8-fe4f-4807-aafe-8ae0d267ce19"},"vehicle_type_id":"4","last_reported":1685048740,"current_range_meters":10800,"station_id":"ce4bgl12rcd13ifvqbo0","pricing_plan_id":"free"},{"bike_id":"3f245026-7545-4924-a951-14be0bedc89e","system_id":"levelo_inurba_marseille","lat":43.31298,"lon":5.39401,"is_reserved":false,"is_disabled":false,"rental_uris":{"android":"levelo://app?vid=3f245026-7545-4924-a951-14be0bedc89e","ios":"levelo://app?vid=3f245026-7545-4924-a951-14be0bedc89e"},"vehicle_type_id":"4","last_reported":1685048740,"current_range_meters":400,"station_id":"","pricing_plan_id":"free"},{"bike_id":"9f75f17f-4eb8-4735-ad2f-a9460e1e9244","system_id":"levelo_inurba_marseille","lat":43.293249,"lon":5.371578,"is_reserved":false,"is_disabled":false,"rental_uris":{"android":"levelo://app?vid=9f75f17f-4eb8-4735-ad2f-a9460e1e9244","ios":"levelo://app?vid=9f75f17f-4eb8-4735-ad2f-a9460e1e9244"},"vehicle_type_id":"4","last_reported":1685048740,"current_range_meters":18800,"station_id":"ce4bgh92rcd13ifvqb40","pricing_plan_id":"free"},{"bike_id":"93c486d9-ec8c-4fcc-9e37-f1dae42f5885","system_id":"levelo_inurba_marseille","lat":43.300852,"lon":5.390859,"is_reserved":false,"is_disabled":false,"rental_uris":{"android":"levelo://app?vid=93c486d9-ec8c-4fcc-9e37-f1dae42f5885","ios":"levelo://app?vid=93c486d9-ec8c-4fcc-9e37-f1dae42f5885"},"vehicle_type_id":"4","last_reported":1685048740,"current_range_meters":29200,"station_id":"ce4bh192rcd13ifvqdb0","pricing_plan_id":"free"},{"bike_id":"b4e90741-c8d4-4516-a3af-a14b2ef56120","system_id":"levelo_inurba_marseille","lat":43.300852,"lon":5.390859,"is_reserved":false,"is_disabled":false,"rental_uris":{"android":"levelo://app?vid=b4e90741-c8d4-4516-a3af-a14b2ef56120","ios":"levelo://app?vid=b4e90741-c8d4-4516-a3af-a14b2ef56120"},"vehicle_type_id":"4","last_reported":1685048740,"current_range_meters":30800,"station_id":"ce4bh192rcd13ifvqdb0","pricing_plan_id":"free"},{"bike_id":"a4a54146-2861-4b73-9a56-cfe00b54d743","system_id":"levelo_inurba_marseille","lat":43.300852,"lon":5.390859,"is_reserved":false,"is_disabled":false,"rental_uris":{"android":"levelo://app?vid=a4a54146-2861-4b73-9a56-cfe00b54d743","ios":"levelo://app?vid=a4a54146-2861-4b73-9a56-cfe00b54d743"},"vehicle_type_id":"4","last_reported":1685048740,"current_range_meters":22800,"station_id":"ce4bh192rcd13ifvqdb0","pricing_plan_id":"free"},{"bike_id":"56ec626c-4243-4178-8907-0d6a1ef9840c","system_id":"levelo_inurba_marseille","lat":43.298764,"lon":5.388973,"is_reserved":false,"is_disabled":false,"rental_uris":{"android":"levelo://app?vid=56ec626c-4243-4178-8907-0d6a1ef9840c","ios":"levelo://app?vid=56ec626c-4243-4178-8907-0d6a1ef9840c"},"vehicle_type_id":"4","last_reported":1685048740,"current_range_meters":20000,"station_id":"ce4bh392rcd13ifvqdl0","pricing_plan_id":"free"},{"bike_id":"bd471d2e-fe78-4556-8763-ae21f90479d3","system_id":"levelo_inurba_marseille","lat":43.298764,"lon":5.388973,"is_reserved":false,"is_disabled":false,"rental_uris":{"android":"levelo://app?vid=bd471d2e-fe78-4556-8763-ae21f90479d3","ios":"levelo://app?vid=bd471d2e-fe78-4556-8763-ae21f90479d3"},"vehicle_type_id":"4","last_reported":1685048740,"current_range_meters":22800,"station_id":"ce4bh392rcd13ifvqdl0","pricing_plan_id":"free"},{"bike_id":"da7ee802-adb2-40e3-a6cd-5488428b9e38","system_id":"levelo_inurba_marseille","lat":43.298764,"lon":5.388973,"is_reserved":false,"is_disabled":false,"rental_uris":{"android":"levelo://app?vid=da7ee802-adb2-40e3-a6cd-5488428b9e38","ios":"levelo://app?vid=da7ee802-adb2-40e3-a6cd-5488428b9e38"},"vehicle_type_id":"4","last_reported":1685048740,"current_range_meters":0,"station_id":"ce4bh392rcd13ifvqdl0","pricing_plan_id":"free"},{"bike_id":"998e40ca-5cfd-4e4d-bc59-1fc90ee814f0","system_id":"levelo_inurba_marseille","lat":43.298764,"lon":5.388973,"is_reserved":false,"is_disabled":false,"rental_uris":{"android":"levelo://app?vid=998e40ca-5cfd-4e4d-bc59-1fc90ee814f0","ios":"levelo://app?vid=998e40ca-5cfd-4e4d-bc59-1fc90ee814f0"},"vehicle_type_id":"4","last_reported":1685048740,"current_range_meters":4000,"station_id":"ce4bh392rcd13ifvqdl0","pricing_plan_id":"free"},{"bike_id":"69db2699-50b5-4470-8ead-69640e901c96","system_id":"levelo_inurba_marseille","lat":43.291675,"lon":5.371583,"is_reserved":false,"is_disabled":false,"rental_uris":{"android":"levelo://app?vid=69db2699-50b5-4470-8ead-69640e901c96","ios":"levelo://app?vid=69db2699-50b5-4470-8ead-69640e901c96"},"vehicle_type_id":"4","last_reported":1685048740,"current_range_meters":21200,"station_id":"ce4bha92rcd13ifvqeh0","pricing_plan_id":"free"},{"bike_id":"28dd79aa-e319-4d05-b21f-f9ec2660bd3c","system_id":"levelo_inurba_marseille","lat":43.291997,"lon":5.35796,"is_reserved":false,"is_disabled":false,"rental_uris":{"android":"levelo://app?vid=28dd79aa-e319-4d05-b21f-f9ec2660bd3c","ios":"levelo://app?vid=28dd79aa-e319-4d05-b21f-f9ec2660bd3c"},"vehicle_type_id":"4","last_reported":1685048740,"current_range_meters":30800,"station_id":"ce4bhb92rcd13ifvqen0","pricing_plan_id":"free"},{"bike_id":"4d1de661-c5a0-46df-90f0-2c15e6f615a1","system_id":"levelo_inurba_marseille","lat":43.31326,"lon":5.39682,"is_reserved":false,"is_disabled":false,"rental_uris":{"android":"levelo://app?vid=4d1de661-c5a0-46df-90f0-2c15e6f615a1","ios":"levelo://app?vid=4d1de661-c5a0-46df-90f0-2c15e6f615a1"},"vehicle_type_id":"4","last_reported":1685048740,"current_range_meters":31200,"station_id":"ce4bgvp2rcd13ifvqcu0","pricing_plan_id":"free"},{"bike_id":"3994ace3-302d-4f53-aec0-3011bad29ec4","system_id":"levelo_inurba_marseille","lat":43.31327,"lon":5.39682,"is_reserved":false,"is_disabled":false,"rental_uris":{"android":"levelo://app?vid=3994ace3-302d-4f53-aec0-3011bad29ec4","ios":"levelo://app?vid=3994ace3-302d-4f53-aec0-3011bad29ec4"},"vehicle_type_id":"4","last_reported":1685048740,"current_range_meters":31200,"station_id":"ce4bgvp2rcd13ifvqcu0","pricing_plan_id":"free"},{"bike_id":"77154d2a-c6c7-4993-87f7-ee684302a65d","system_id":"levelo_inurba_marseille","lat":43.309038,"lon":5.396546,"is_reserved":false,"is_disabled":false,"rental_uris":{"android":"levelo://app?vid=77154d2a-c6c7-4993-87f7-ee684302a65d","ios":"levelo://app?vid=77154d2a-c6c7-4993-87f7-ee684302a65d"},"vehicle_type_id":"4","last_reported":1685048740,"current_range_meters":26800,"station_id":"ce4bh012rcd13ifvqcv0","pricing_plan_id":"free"},{"bike_id":"5d8bfa25-868c-4914-a81d-245d7d1d2193","system_id":"levelo_inurba_marseille","lat":43.31324,"lon":5.39687,"is_reserved":false,"is_disabled":false,"rental_uris":{"android":"levelo://app?vid=5d8bfa25-868c-4914-a81d-245d7d1d2193","ios":"levelo://app?vid=5d8bfa25-868c-4914-a81d-245d7d1d2193"},"vehicle_type_id":"4","last_reported":1685048740,"current_range_meters":31200,"station_id":"ce4bgvp2rcd13ifvqcu0","pricing_plan_id":"free"},{"bike_id":"7e40cefa-fc11-4dc3-a03a-00bafa327b52","system_id":"levelo_inurba_marseille","lat":43.31337,"lon":5.39688,"is_reserved":false,"is_disabled":false,"rental_uris":{"android":"levelo://app?vid=7e40cefa-fc11-4dc3-a03a-00bafa327b52","ios":"levelo://app?vid=7e40cefa-fc11-4dc3-a03a-00bafa327b52"},"vehicle_type_id":"4","last_reported":1685048740,"current_range_meters":0,"station_id":"","pricing_plan_id":"free"},{"bike_id":"57664484-835a-468a-be02-139f838f1d1c","system_id":"levelo_inurba_marseille","lat":43.31324,"lon":5.39691,"is_reserved":false,"is_disabled":false,"rental_uris":{"android":"levelo://app?vid=57664484-835a-468a-be02-139f838f1d1c","ios":"levelo://app?vid=57664484-835a-468a-be02-139f838f1d1c"},"vehicle_type_id":"4","last_reported":1685048740,"current_range_meters":15200,"station_id":"ce4bgvp2rcd13ifvqcu0","pricing_plan_id":"free"},{"bike_id":"8cf5a6cd-76f0-42d3-92b7-533e704533c4","system_id":"levelo_inurba_marseille","lat":43.31328,"lon":5.39692,"is_reserved":false,"is_disabled":false,"rental_uris":{"android":"levelo://app?vid=8cf5a6cd-76f0-42d3-92b7-533e704533c4","ios":"levelo://app?vid=8cf5a6cd-76f0-42d3-92b7-533e704533c4"},"vehicle_type_id":"4","last_reported":1685048740,"current_range_meters":31200,"station_id":"ce4bgvp2rcd13ifvqcu0","pricing_plan_id":"free"},{"bike_id":"7cf1645f-2c40-4585-bd36-20547c370814","system_id":"levelo_inurba_marseille","lat":43.309038,"lon":5.396546,"is_reserved":false,"is_disabled":false,"rental_uris":{"android":"levelo://app?vid=7cf1645f-2c40-4585-bd36-20547c370814","ios":"levelo://app?vid=7cf1645f-2c40-4585-bd36-20547c370814"},"vehicle_type_id":"4","last_reported":1685048740,"current_range_meters":31200,"station_id":"ce4bh012rcd13ifvqcv0","pricing_plan_id":"free"},{"bike_id":"e02f95be-d3b8-4492-af7e-5c18369a125e","system_id":"levelo_inurba_marseille","lat":43.31326,"lon":5.39693,"is_reserved":false,"is_disabled":false,"rental_uris":{"android":"levelo://app?vid=e02f95be-d3b8-4492-af7e-5c18369a125e","ios":"levelo://app?vid=e02f95be-d3b8-4492-af7e-5c18369a125e"},"vehicle_type_id":"4","last_reported":1685048740,"current_range_meters":11200,"station_id":"ce4bgvp2rcd13ifvqcu0","pricing_plan_id":"free"},{"bike_id":"c6e6e02c-dc44-4728-9e2c-a48dc35086fd","system_id":"levelo_inurba_marseille","lat":43.31331,"lon":5.39693,"is_reserved":false,"is_disabled":false,"rental_uris":{"android":"levelo://app?vid=c6e6e02c-dc44-4728-9e2c-a48dc35086fd","ios":"levelo://app?vid=c6e6e02c-dc44-4728-9e2c-a48dc35086fd"},"vehicle_type_id":"4","last_reported":1685048740,"current_range_meters":31200,"station_id":"ce4bgvp2rcd13ifvqcu0","pricing_plan_id":"free"},{"bike_id":"ce6dba37-9887-49c1-9106-bf1b39eb4f3e","system_id":"levelo_inurba_marseille","lat":43.3133,"lon":5.39695,"is_reserved":false,"is_disabled":false,"rental_uris":{"android":"levelo://app?vid=ce6dba37-9887-49c1-9106-bf1b39eb4f3e","ios":"levelo://app?vid=ce6dba37-9887-49c1-9106-bf1b39eb4f3e"},"vehicle_type_id":"4","last_reported":1685048740,"current_range_meters":31200,"station_id":"ce4bgvp2rcd13ifvqcu0","pricing_plan_id":"free"},{"bike_id":"c7c7f819-f196-43ce-9356-6bf838b2caff","system_id":"levelo_inurba_marseille","lat":43.31331,"lon":5.39696,"is_reserved":false,"is_disabled":false,"rental_uris":{"android":"levelo://app?vid=c7c7f819-f196-43ce-9356-6bf838b2caff","ios":"levelo://app?vid=c7c7f819-f196-43ce-9356-6bf838b2caff"},"vehicle_type_id":"4","last_reported":1685048740,"current_range_meters":20000,"station_id":"ce4bgvp2rcd13ifvqcu0","pricing_plan_id":"free"},{"bike_id":"a1b66c76-1925-4366-9100-03a7d6dbda05","system_id":"levelo_inurba_marseille","lat":43.309038,"lon":5.396546,"is_reserved":false,"is_disabled":false,"rental_uris":{"android":"levelo://app?vid=a1b66c76-1925-4366-9100-03a7d6dbda05","ios":"levelo://app?vid=a1b66c76-1925-4366-9100-03a7d6dbda05"},"vehicle_type_id":"4","last_reported":1685048740,"current_range_meters":29600,"station_id":"ce4bh012rcd13ifvqcv0","pricing_plan_id":"free"},{"bike_id":"b20366f8-639a-4f14-ae76-403b670e5d2c","system_id":"levelo_inurba_marseille","lat":43.31324,"lon":5.39699,"is_reserved":false,"is_disabled":false,"rental_uris":{"android":"levelo://app?vid=b20366f8-639a-4f14-ae76-403b670e5d2c","ios":"levelo://app?vid=b20366f8-639a-4f14-ae76-403b670e5d2c"},"vehicle_type_id":"4","last_reported":1685048740,"current_range_meters":21200,"station_id":"ce4bgvp2rcd13ifvqcu0","pricing_plan_id":"free"},{"bike_id":"41bbeb05-d04f-4cf1-b635-648f9030715b","system_id":"levelo_inurba_marseille","lat":43.31325,"lon":5.397,"is_reserved":false,"is_disabled":false,"rental_uris":{"android":"levelo://app?vid=41bbeb05-d04f-4cf1-b635-648f9030715b","ios":"levelo://app?vid=41bbeb05-d04f-4cf1-b635-648f9030715b"},"vehicle_type_id":"4","last_reported":1685048740,"current_range_meters":16400,"station_id":"ce4bgvp2rcd13ifvqcu0","pricing_plan_id":"free"},{"bike_id":"2672ac12-4489-4faa-9202-cf9080d4db0b","system_id":"levelo_inurba_marseille","lat":43.31322,"lon":5.39701,"is_reserved":false,"is_disabled":false,"rental_uris":{"android":"levelo://app?vid=2672ac12-4489-4faa-9202-cf9080d4db0b","ios":"levelo://app?vid=2672ac12-4489-4faa-9202-cf9080d4db0b"},"vehicle_type_id":"4","last_reported":1685048740,"current_range_meters":20800,"station_id":"ce4bgvp2rcd13ifvqcu0","pricing_plan_id":"free"},{"bike_id":"0f978702-b106-43e0-a10e-680e6d9adaad","system_id":"levelo_inurba_marseille","lat":43.30885,"lon":5.39654,"is_reserved":false,"is_disabled":false,"rental_uris":{"android":"levelo://app?vid=0f978702-b106-43e0-a10e-680e6d9adaad","ios":"levelo://app?vid=0f978702-b106-43e0-a10e-680e6d9adaad"},"vehicle_type_id":"4","last_reported":1685048740,"current_range_meters":31200,"station_id":"ce4bh012rcd13ifvqcv0","pricing_plan_id":"free"},{"bike_id":"5d46b0e3-30e5-46ed-a565-6a780f09d7f7","system_id":"levelo_inurba_marseille","lat":43.309038,"lon":5.396546,"is_reserved":false,"is_disabled":false,"rental_uris":{"android":"levelo://app?vid=5d46b0e3-30e5-46ed-a565-6a780f09d7f7","ios":"levelo://app?vid=5d46b0e3-30e5-46ed-a565-6a780f09d7f7"},"vehicle_type_id":"4","last_reported":1685048740,"current_range_meters":17200,"station_id":"ce4bh012rcd13ifvqcv0","pricing_plan_id":"free"},{"bike_id":"c937aa2c-6bb3-4485-9f4a-93f044777dc5","system_id":"levelo_inurba_marseille","lat":43.31327,"lon":5.39706,"is_reserved":false,"is_disabled":false,"rental_uris":{"android":"levelo://app?vid=c937aa2c-6bb3-4485-9f4a-93f044777dc5","ios":"levelo://app?vid=c937aa2c-6bb3-4485-9f4a-93f044777dc5"},"vehicle_type_id":"4","last_reported":1685048740,"current_range_meters":30400,"station_id":"ce4bgvp2rcd13ifvqcu0","pricing_plan_id":"free"},{"bike_id":"f7e2d2dc-8d87-4adc-8333-fdc0056080c1","system_id":"levelo_inurba_marseille","lat":43.309038,"lon":5.396546,"is_reserved":false,"is_disabled":false,"rental_uris":{"android":"levelo://app?vid=f7e2d2dc-8d87-4adc-8333-fdc0056080c1","ios":"levelo://app?vid=f7e2d2dc-8d87-4adc-8333-fdc0056080c1"},"vehicle_type_id":"4","last_reported":1685048740,"current_range_meters":31200,"station_id":"ce4bh012rcd13ifvqcv0","pricing_plan_id":"free"},{"bike_id":"b19b781f-c859-4a24-82b1-2b76977c2698","system_id":"levelo_inurba_marseille","lat":43.30889,"lon":5.39663,"is_reserved":false,"is_disabled":false,"rental_uris":{"android":"levelo://app?vid=b19b781f-c859-4a24-82b1-2b76977c2698","ios":"levelo://app?vid=b19b781f-c859-4a24-82b1-2b76977c2698"},"vehicle_type_id":"4","last_reported":1685048740,"current_range_meters":31200,"station_id":"ce4bh012rcd13ifvqcv0","pricing_plan_id":"free"},{"bike_id":"0f42c050-b921-4bc1-918a-28ee6ea40ad0","system_id":"levelo_inurba_marseille","lat":43.29529,"lon":5.385581,"is_reserved":false,"is_disabled":false,"rental_uris":{"android":"levelo://app?vid=0f42c050-b921-4bc1-918a-28ee6ea40ad0","ios":"levelo://app?vid=0f42c050-b921-4bc1-918a-28ee6ea40ad0"},"vehicle_type_id":"4","last_reported":1685048740,"current_range_meters":9600,"station_id":"ce4bgih2rcd13ifvqba0","pricing_plan_id":"free"},{"bike_id":"d9c96a85-597b-4e2a-bd57-a3293230a5d1","system_id":"levelo_inurba_marseille","lat":43.302008,"lon":5.394694,"is_reserved":false,"is_disabled":false,"rental_uris":{"android":"levelo://app?vid=d9c96a85-597b-4e2a-bd57-a3293230a5d1","ios":"levelo://app?vid=d9c96a85-597b-4e2a-bd57-a3293230a5d1"},"vehicle_type_id":"4","last_reported":1685048740,"current_range_meters":2000,"station_id":"ce4bh0p2rcd13ifvqd70","pricing_plan_id":"free"},{"bike_id":"393869fc-93c0-4c6b-95bd-5622409f39cd","system_id":"levelo_inurba_marseille","lat":43.302008,"lon":5.394694,"is_reserved":false,"is_disabled":false,"rental_uris":{"android":"levelo://app?vid=393869fc-93c0-4c6b-95bd-5622409f39cd","ios":"levelo://app?vid=393869fc-93c0-4c6b-95bd-5622409f39cd"},"vehicle_type_id":"4","last_reported":1685048740,"current_range_meters":22400,"station_id":"ce4bh0p2rcd13ifvqd70","pricing_plan_id":"free"},{"bike_id":"a07638c6-f7ee-44a3-a72a-7af3a414e26f","system_id":"levelo_inurba_marseille","lat":43.302008,"lon":5.394694,"is_reserved":false,"is_disabled":false,"rental_uris":{"android":"levelo://app?vid=a07638c6-f7ee-44a3-a72a-7af3a414e26f","ios":"levelo://app?vid=a07638c6-f7ee-44a3-a72a-7af3a414e26f"},"vehicle_type_id":"4","last_reported":1685048740,"current_range_meters":19600,"station_id":"ce4bh0p2rcd13ifvqd70","pricing_plan_id":"free"},{"bike_id":"8c8d6dc7-fb91-417c-8d64-b1103cb9b79c","system_id":"levelo_inurba_marseille","lat":43.290631,"lon":5.359244,"is_reserved":false,"is_disabled":false,"rental_uris":{"android":"levelo://app?vid=8c8d6dc7-fb91-417c-8d64-b1103cb9b79c","ios":"levelo://app?vid=8c8d6dc7-fb91-417c-8d64-b1103cb9b79c"},"vehicle_type_id":"4","last_reported":1685048740,"current_range_meters":17600,"station_id":"ce4bha92rcd13ifvqeg0","pricing_plan_id":"free"},{"bike_id":"cda0c97a-610e-464f-9630-88a7ae104ddf","system_id":"levelo_inurba_marseille","lat":43.302008,"lon":5.394694,"is_reserved":false,"is_disabled":false,"rental_uris":{"android":"levelo://app?vid=cda0c97a-610e-464f-9630-88a7ae104ddf","ios":"levelo://app?vid=cda0c97a-610e-464f-9630-88a7ae104ddf"},"vehicle_type_id":"4","last_reported":1685048740,"current_range_meters":31600,"station_id":"ce4bh0p2rcd13ifvqd70","pricing_plan_id":"free"},{"bike_id":"b7ec7cda-98c1-472d-b555-db07409eef84","system_id":"levelo_inurba_marseille","lat":43.290624,"lon":5.359245,"is_reserved":false,"is_disabled":false,"rental_uris":{"android":"levelo://app?vid=b7ec7cda-98c1-472d-b555-db07409eef84","ios":"levelo://app?vid=b7ec7cda-98c1-472d-b555-db07409eef84"},"vehicle_type_id":"4","last_reported":1685048740,"current_range_meters":10800,"station_id":"ce4bha92rcd13ifvqeg0","pricing_plan_id":"free"},{"bike_id":"23a8f1bc-0740-42c3-b34e-e7de0f103f1c","system_id":"levelo_inurba_marseille","lat":43.290631,"lon":5.359244,"is_reserved":false,"is_disabled":false,"rental_uris":{"android":"levelo://app?vid=23a8f1bc-0740-42c3-b34e-e7de0f103f1c","ios":"levelo://app?vid=23a8f1bc-0740-42c3-b34e-e7de0f103f1c"},"vehicle_type_id":"4","last_reported":1685048740,"current_range_meters":3600,"station_id":"ce4bha92rcd13ifvqeg0","pricing_plan_id":"free"},{"bike_id":"c076431b-3949-407d-979f-eb31085c912c","system_id":"levelo_inurba_marseille","lat":43.290624,"lon":5.359245,"is_reserved":false,"is_disabled":false,"rental_uris":{"android":"levelo://app?vid=c076431b-3949-407d-979f-eb31085c912c","ios":"levelo://app?vid=c076431b-3949-407d-979f-eb31085c912c"},"vehicle_type_id":"4","last_reported":1685048740,"current_range_meters":6800,"station_id":"ce4bha92rcd13ifvqeg0","pricing_plan_id":"free"},{"bike_id":"46094afd-0c11-450e-9b85-5f7881e02939","system_id":"levelo_inurba_marseille","lat":43.290624,"lon":5.359245,"is_reserved":false,"is_disabled":false,"rental_uris":{"android":"levelo://app?vid=46094afd-0c11-450e-9b85-5f7881e02939","ios":"levelo://app?vid=46094afd-0c11-450e-9b85-5f7881e02939"},"vehicle_type_id":"4","last_reported":1685048740,"current_range_meters":20000,"station_id":"ce4bha92rcd13ifvqeg0","pricing_plan_id":"free"},{"bike_id":"52c5b69a-13b1-4351-944a-26c6a2e62c52","system_id":"levelo_inurba_marseille","lat":43.294153,"lon":5.386305,"is_reserved":false,"is_disabled":false,"rental_uris":{"android":"levelo://app?vid=52c5b69a-13b1-4351-944a-26c6a2e62c52","ios":"levelo://app?vid=52c5b69a-13b1-4351-944a-26c6a2e62c52"},"vehicle_type_id":"4","last_reported":1685048740,"current_range_meters":7200,"station_id":"ce4bh2h2rcd13ifvqdh0","pricing_plan_id":"free"},{"bike_id":"d2ccf5a1-cf06-4a6e-bade-3ffb6e02ae99","system_id":"levelo_inurba_marseille","lat":43.302008,"lon":5.394694,"is_reserved":false,"is_disabled":false,"rental_uris":{"android":"levelo://app?vid=d2ccf5a1-cf06-4a6e-bade-3ffb6e02ae99","ios":"levelo://app?vid=d2ccf5a1-cf06-4a6e-bade-3ffb6e02ae99"},"vehicle_type_id":"4","last_reported":1685048740,"current_range_meters":19600,"station_id":"ce4bh0p2rcd13ifvqd70","pricing_plan_id":"free"},{"bike_id":"8e7768be-099d-41f0-9f78-ef437547b12d","system_id":"levelo_inurba_marseille","lat":43.290624,"lon":5.359245,"is_reserved":false,"is_disabled":false,"rental_uris":{"android":"levelo://app?vid=8e7768be-099d-41f0-9f78-ef437547b12d","ios":"levelo://app?vid=8e7768be-099d-41f0-9f78-ef437547b12d"},"vehicle_type_id":"4","last_reported":1685048740,"current_range_meters":0,"station_id":"ce4bha92rcd13ifvqeg0","pricing_plan_id":"free"},{"bike_id":"74718228-9eb9-4cef-80fa-62ea2febaff8","system_id":"levelo_inurba_marseille","lat":43.290631,"lon":5.359244,"is_reserved":false,"is_disabled":false,"rental_uris":{"android":"levelo://app?vid=74718228-9eb9-4cef-80fa-62ea2febaff8","ios":"levelo://app?vid=74718228-9eb9-4cef-80fa-62ea2febaff8"},"vehicle_type_id":"4","last_reported":1685048740,"current_range_meters":9200,"station_id":"ce4bha92rcd13ifvqeg0","pricing_plan_id":"free"},{"bike_id":"8aab3bd0-b136-4494-a5e1-8f297ea90606","system_id":"levelo_inurba_marseille","lat":43.29035,"lon":5.35928,"is_reserved":false,"is_disabled":false,"rental_uris":{"android":"levelo://app?vid=8aab3bd0-b136-4494-a5e1-8f297ea90606","ios":"levelo://app?vid=8aab3bd0-b136-4494-a5e1-8f297ea90606"},"vehicle_type_id":"4","last_reported":1685048740,"current_range_meters":26400,"station_id":"ce4bha92rcd13ifvqeg0","pricing_plan_id":"free"},{"bike_id":"59745cff-be60-4bdb-a342-893e54d4ff33","system_id":"levelo_inurba_marseille","lat":43.290624,"lon":5.359245,"is_reserved":false,"is_disabled":false,"rental_uris":{"android":"levelo://app?vid=59745cff-be60-4bdb-a342-893e54d4ff33","ios":"levelo://app?vid=59745cff-be60-4bdb-a342-893e54d4ff33"},"vehicle_type_id":"4","last_reported":1685048740,"current_range_meters":26800,"station_id":"ce4bha92rcd13ifvqeg0","pricing_plan_id":"free"},{"bike_id":"8e3ebb37-e478-4078-ae21-39b0b5d5b40a","system_id":"levelo_inurba_marseille","lat":43.29039,"lon":5.37585,"is_reserved":false,"is_disabled":false,"rental_uris":{"android":"levelo://app?vid=8e3ebb37-e478-4078-ae21-39b0b5d5b40a","ios":"levelo://app?vid=8e3ebb37-e478-4078-ae21-39b0b5d5b40a"},"vehicle_type_id":"4","last_reported":1685048740,"current_range_meters":31200,"station_id":"","pricing_plan_id":"free"},{"bike_id":"673a061c-d892-40c6-8b3a-3db2d2fed79c","system_id":"levelo_inurba_marseille","lat":43.28942,"lon":5.36636,"is_reserved":false,"is_disabled":false,"rental_uris":{"android":"levelo://app?vid=673a061c-d892-40c6-8b3a-3db2d2fed79c","ios":"levelo://app?vid=673a061c-d892-40c6-8b3a-3db2d2fed79c"},"vehicle_type_id":"4","last_reported":1685048740,"current_range_meters":400,"station_id":"ce4bhap2rcd13ifvqek0","pricing_plan_id":"free"},{"bike_id":"92d530e3-0827-4d94-af49-d1e07adfe5a8","system_id":"levelo_inurba_marseille","lat":43.28937,"lon":5.36387,"is_reserved":false,"is_disabled":false,"rental_uris":{"android":"levelo://app?vid=92d530e3-0827-4d94-af49-d1e07adfe5a8","ios":"levelo://app?vid=92d530e3-0827-4d94-af49-d1e07adfe5a8"},"vehicle_type_id":"4","last_reported":1685048740,"current_range_meters":18400,"station_id":"ce4bhc92rcd13ifvqetg","pricing_plan_id":"free"},{"bike_id":"529b2e76-a698-4922-9f6a-1cf0a6107b4f","system_id":"levelo_inurba_marseille","lat":43.289468,"lon":5.363719,"is_reserved":false,"is_disabled":false,"rental_uris":{"android":"levelo://app?vid=529b2e76-a698-4922-9f6a-1cf0a6107b4f","ios":"levelo://app?vid=529b2e76-a698-4922-9f6a-1cf0a6107b4f"},"vehicle_type_id":"4","last_reported":1685048740,"current_range_meters":31200,"station_id":"ce4bhc92rcd13ifvqetg","pricing_plan_id":"free"},{"bike_id":"174ec496-e863-4b99-a8d1-e78e40cd6e7c","system_id":"levelo_inurba_marseille","lat":43.28926,"lon":5.36404,"is_reserved":false,"is_disabled":false,"rental_uris":{"android":"levelo://app?vid=174ec496-e863-4b99-a8d1-e78e40cd6e7c","ios":"levelo://app?vid=174ec496-e863-4b99-a8d1-e78e40cd6e7c"},"vehicle_type_id":"4","last_reported":1685048740,"current_range_meters":7600,"station_id":"","pricing_plan_id":"free"},{"bike_id":"daef30bc-890e-494b-abb6-5e44c0a91610","system_id":"levelo_inurba_marseille","lat":43.289468,"lon":5.363719,"is_reserved":false,"is_disabled":false,"rental_uris":{"android":"levelo://app?vid=daef30bc-890e-494b-abb6-5e44c0a91610","ios":"levelo://app?vid=daef30bc-890e-494b-abb6-5e44c0a91610"},"vehicle_type_id":"4","last_reported":1685048740,"current_range_meters":31600,"station_id":"ce4bhc92rcd13ifvqetg","pricing_plan_id":"free"},{"bike_id":"3e182ba5-6f1a-4480-a2b2-6f5739020e3d","system_id":"levelo_inurba_marseille","lat":43.29262,"lon":5.38443,"is_reserved":false,"is_disabled":false,"rental_uris":{"android":"levelo://app?vid=3e182ba5-6f1a-4480-a2b2-6f5739020e3d","ios":"levelo://app?vid=3e182ba5-6f1a-4480-a2b2-6f5739020e3d"},"vehicle_type_id":"4","last_reported":1685048740,"current_range_meters":15200,"station_id":"ce4bh692rcd13ifvqea0","pricing_plan_id":"free"},{"bike_id":"6761983b-6592-4d29-9da3-376fc9768344","system_id":"levelo_inurba_marseille","lat":43.29261,"lon":5.38442,"is_reserved":false,"is_disabled":false,"rental_uris":{"android":"levelo://app?vid=6761983b-6592-4d29-9da3-376fc9768344","ios":"levelo://app?vid=6761983b-6592-4d29-9da3-376fc9768344"},"vehicle_type_id":"4","last_reported":1685048740,"current_range_meters":20400,"station_id":"ce4bh692rcd13ifvqea0","pricing_plan_id":"free"},{"bike_id":"a93470f3-f36a-40d7-9251-452dda564f68","system_id":"levelo_inurba_marseille","lat":43.29261,"lon":5.38445,"is_reserved":false,"is_disabled":false,"rental_uris":{"android":"levelo://app?vid=a93470f3-f36a-40d7-9251-452dda564f68","ios":"levelo://app?vid=a93470f3-f36a-40d7-9251-452dda564f68"},"vehicle_type_id":"4","last_reported":1685048740,"current_range_meters":3200,"station_id":"ce4bh692rcd13ifvqea0","pricing_plan_id":"free"},{"bike_id":"8af80847-f882-4b1e-bbec-ba34378e1f5c","system_id":"levelo_inurba_marseille","lat":43.292644,"lon":5.384257,"is_reserved":false,"is_disabled":false,"rental_uris":{"android":"levelo://app?vid=8af80847-f882-4b1e-bbec-ba34378e1f5c","ios":"levelo://app?vid=8af80847-f882-4b1e-bbec-ba34378e1f5c"},"vehicle_type_id":"4","last_reported":1685048740,"current_range_meters":22400,"station_id":"ce4bh692rcd13ifvqea0","pricing_plan_id":"free"},{"bike_id":"36785397-5075-48fd-91fe-f8a0f8a3d289","system_id":"levelo_inurba_marseille","lat":43.29256,"lon":5.38446,"is_reserved":false,"is_disabled":false,"rental_uris":{"android":"levelo://app?vid=36785397-5075-48fd-91fe-f8a0f8a3d289","ios":"levelo://app?vid=36785397-5075-48fd-91fe-f8a0f8a3d289"},"vehicle_type_id":"4","last_reported":1685048740,"current_range_meters":14400,"station_id":"ce4bh692rcd13ifvqea0","pricing_plan_id":"free"},{"bike_id":"2beea0a0-8cb9-4e1d-aa4d-35c01eef1580","system_id":"levelo_inurba_marseille","lat":43.292644,"lon":5.384257,"is_reserved":false,"is_disabled":false,"rental_uris":{"android":"levelo://app?vid=2beea0a0-8cb9-4e1d-aa4d-35c01eef1580","ios":"levelo://app?vid=2beea0a0-8cb9-4e1d-aa4d-35c01eef1580"},"vehicle_type_id":"4","last_reported":1685048740,"current_range_meters":10800,"station_id":"ce4bh692rcd13ifvqea0","pricing_plan_id":"free"},{"bike_id":"312a198b-67c9-4b84-88a4-79336e28779f","system_id":"levelo_inurba_marseille","lat":43.295169,"lon":5.390426,"is_reserved":false,"is_disabled":false,"rental_uris":{"android":"levelo://app?vid=312a198b-67c9-4b84-88a4-79336e28779f","ios":"levelo://app?vid=312a198b-67c9-4b84-88a4-79336e28779f"},"vehicle_type_id":"4","last_reported":1685048740,"current_range_meters":20800,"station_id":"ce4bh3p2rcd13ifvqdp0","pricing_plan_id":"free"},{"bike_id":"b9e4b862-7146-4182-b18f-9b0a41528b3f","system_id":"levelo_inurba_marseille","lat":43.295169,"lon":5.390426,"is_reserved":false,"is_disabled":false,"rental_uris":{"android":"levelo://app?vid=b9e4b862-7146-4182-b18f-9b0a41528b3f","ios":"levelo://app?vid=b9e4b862-7146-4182-b18f-9b0a41528b3f"},"vehicle_type_id":"4","last_reported":1685048740,"current_range_meters":7600,"station_id":"ce4bh3p2rcd13ifvqdp0","pricing_plan_id":"free"},{"bike_id":"bd24535c-7b70-452f-bae4-d4ad0f6e1520","system_id":"levelo_inurba_marseille","lat":43.295169,"lon":5.390426,"is_reserved":false,"is_disabled":false,"rental_uris":{"android":"levelo://app?vid=bd24535c-7b70-452f-bae4-d4ad0f6e1520","ios":"levelo://app?vid=bd24535c-7b70-452f-bae4-d4ad0f6e1520"},"vehicle_type_id":"4","last_reported":1685048740,"current_range_meters":19600,"station_id":"ce4bh3p2rcd13ifvqdp0","pricing_plan_id":"free"},{"bike_id":"49844497-03eb-41af-b8ea-2f90e1a55b07","system_id":"levelo_inurba_marseille","lat":43.295169,"lon":5.390426,"is_reserved":false,"is_disabled":false,"rental_uris":{"android":"levelo://app?vid=49844497-03eb-41af-b8ea-2f90e1a55b07","ios":"levelo://app?vid=49844497-03eb-41af-b8ea-2f90e1a55b07"},"vehicle_type_id":"4","last_reported":1685048740,"current_range_meters":6800,"station_id":"ce4bh3p2rcd13ifvqdp0","pricing_plan_id":"free"},{"bike_id":"eff5860d-1d0a-4cf7-ad05-7cf50c55a85b","system_id":"levelo_inurba_marseille","lat":43.295169,"lon":5.390426,"is_reserved":false,"is_disabled":false,"rental_uris":{"android":"levelo://app?vid=eff5860d-1d0a-4cf7-ad05-7cf50c55a85b","ios":"levelo://app?vid=eff5860d-1d0a-4cf7-ad05-7cf50c55a85b"},"vehicle_type_id":"4","last_reported":1685048740,"current_range_meters":2000,"station_id":"ce4bh3p2rcd13ifvqdp0","pricing_plan_id":"free"},{"bike_id":"f0100229-7850-4b89-8de8-899ca32a95be","system_id":"levelo_inurba_marseille","lat":43.295169,"lon":5.390426,"is_reserved":false,"is_disabled":false,"rental_uris":{"android":"levelo://app?vid=f0100229-7850-4b89-8de8-899ca32a95be","ios":"levelo://app?vid=f0100229-7850-4b89-8de8-899ca32a95be"},"vehicle_type_id":"4","last_reported":1685048740,"current_range_meters":14400,"station_id":"ce4bh3p2rcd13ifvqdp0","pricing_plan_id":"free"},{"bike_id":"4147a40b-3036-4588-824b-1e07f8bf1df9","system_id":"levelo_inurba_marseille","lat":43.295169,"lon":5.390426,"is_reserved":false,"is_disabled":false,"rental_uris":{"android":"levelo://app?vid=4147a40b-3036-4588-824b-1e07f8bf1df9","ios":"levelo://app?vid=4147a40b-3036-4588-824b-1e07f8bf1df9"},"vehicle_type_id":"4","last_reported":1685048740,"current_range_meters":11200,"station_id":"ce4bh3p2rcd13ifvqdp0","pricing_plan_id":"free"},{"bike_id":"1a9c7fc4-d172-4f36-b5ca-58391cc0e37f","system_id":"levelo_inurba_marseille","lat":43.295169,"lon":5.390426,"is_reserved":false,"is_disabled":false,"rental_uris":{"android":"levelo://app?vid=1a9c7fc4-d172-4f36-b5ca-58391cc0e37f","ios":"levelo://app?vid=1a9c7fc4-d172-4f36-b5ca-58391cc0e37f"},"vehicle_type_id":"4","last_reported":1685048740,"current_range_meters":8400,"station_id":"ce4bh3p2rcd13ifvqdp0","pricing_plan_id":"free"},{"bike_id":"eb12715d-a0cc-49b9-87d1-7dbfcf490ad7","system_id":"levelo_inurba_marseille","lat":43.295169,"lon":5.390426,"is_reserved":false,"is_disabled":false,"rental_uris":{"android":"levelo://app?vid=eb12715d-a0cc-49b9-87d1-7dbfcf490ad7","ios":"levelo://app?vid=eb12715d-a0cc-49b9-87d1-7dbfcf490ad7"},"vehicle_type_id":"4","last_reported":1685048740,"current_range_meters":6400,"station_id":"ce4bh3p2rcd13ifvqdp0","pricing_plan_id":"free"},{"bike_id":"a4b987df-c5f3-410f-b502-c3da3aa83f6a","system_id":"levelo_inurba_marseille","lat":43.295169,"lon":5.390426,"is_reserved":false,"is_disabled":false,"rental_uris":{"android":"levelo://app?vid=a4b987df-c5f3-410f-b502-c3da3aa83f6a","ios":"levelo://app?vid=a4b987df-c5f3-410f-b502-c3da3aa83f6a"},"vehicle_type_id":"4","last_reported":1685048740,"current_range_meters":26400,"station_id":"ce4bh3p2rcd13ifvqdp0","pricing_plan_id":"free"},{"bike_id":"6da79bdb-2f24-48e3-ae64-c2eec614e551","system_id":"levelo_inurba_marseille","lat":43.295169,"lon":5.390426,"is_reserved":false,"is_disabled":false,"rental_uris":{"android":"levelo://app?vid=6da79bdb-2f24-48e3-ae64-c2eec614e551","ios":"levelo://app?vid=6da79bdb-2f24-48e3-ae64-c2eec614e551"},"vehicle_type_id":"4","last_reported":1685048740,"current_range_meters":3600,"station_id":"ce4bh3p2rcd13ifvqdp0","pricing_plan_id":"free"},{"bike_id":"875b7fc7-13a6-48ee-83e7-4dd1e57aa565","system_id":"levelo_inurba_marseille","lat":43.290094,"lon":5.381264,"is_reserved":false,"is_disabled":false,"rental_uris":{"android":"levelo://app?vid=875b7fc7-13a6-48ee-83e7-4dd1e57aa565","ios":"levelo://app?vid=875b7fc7-13a6-48ee-83e7-4dd1e57aa565"},"vehicle_type_id":"4","last_reported":1685048740,"current_range_meters":14800,"station_id":"ce4bh4p2rcd13ifvqe1g","pricing_plan_id":"free"},{"bike_id":"5511e49f-40da-4a2a-b77e-52627702822e","system_id":"levelo_inurba_marseille","lat":43.28856,"lon":5.358371,"is_reserved":false,"is_disabled":false,"rental_uris":{"android":"levelo://app?vid=5511e49f-40da-4a2a-b77e-52627702822e","ios":"levelo://app?vid=5511e49f-40da-4a2a-b77e-52627702822e"},"vehicle_type_id":"4","last_reported":1685048740,"current_range_meters":19600,"station_id":"ce4bhb12rcd13ifvqem0","pricing_plan_id":"free"},{"bike_id":"5b72bf1d-a061-4eab-b0ac-429f4765d979","system_id":"levelo_inurba_marseille","lat":43.28847,"lon":5.35878,"is_reserved":false,"is_disabled":false,"rental_uris":{"android":"levelo://app?vid=5b72bf1d-a061-4eab-b0ac-429f4765d979","ios":"levelo://app?vid=5b72bf1d-a061-4eab-b0ac-429f4765d979"},"vehicle_type_id":"4","last_reported":1685048740,"current_range_meters":2400,"station_id":"","pricing_plan_id":"free"},{"bike_id":"a76ed353-a887-44e1-b0d8-5755d67e1c05","system_id":"levelo_inurba_marseille","lat":43.28856,"lon":5.358371,"is_reserved":false,"is_disabled":false,"rental_uris":{"android":"levelo://app?vid=a76ed353-a887-44e1-b0d8-5755d67e1c05","ios":"levelo://app?vid=a76ed353-a887-44e1-b0d8-5755d67e1c05"},"vehicle_type_id":"4","last_reported":1685048740,"current_range_meters":6400,"station_id":"ce4bhb12rcd13ifvqem0","pricing_plan_id":"free"},{"bike_id":"4ce0d54d-1129-4e4d-be4d-9c409a73947d","system_id":"levelo_inurba_marseille","lat":43.306521,"lon":5.400706,"is_reserved":false,"is_disabled":false,"rental_uris":{"android":"levelo://app?vid=4ce0d54d-1129-4e4d-be4d-9c409a73947d","ios":"levelo://app?vid=4ce0d54d-1129-4e4d-be4d-9c409a73947d"},"vehicle_type_id":"4","last_reported":1685048740,"current_range_meters":12800,"station_id":"ce4bh112rcd13ifvqda0","pricing_plan_id":"free"},{"bike_id":"deccdead-3a19-4eb1-a04e-30061fe6dc26","system_id":"levelo_inurba_marseille","lat":43.3375,"lon":5.37444,"is_reserved":false,"is_disabled":false,"rental_uris":{"android":"levelo://app?vid=deccdead-3a19-4eb1-a04e-30061fe6dc26","ios":"levelo://app?vid=deccdead-3a19-4eb1-a04e-30061fe6dc26"},"vehicle_type_id":"4","last_reported":1685048740,"current_range_meters":19600,"station_id":"","pricing_plan_id":"free"},{"bike_id":"556c6db1-2600-4c2b-9521-aae8453517c1","system_id":"levelo_inurba_marseille","lat":43.33752,"lon":5.37455,"is_reserved":false,"is_disabled":false,"rental_uris":{"android":"levelo://app?vid=556c6db1-2600-4c2b-9521-aae8453517c1","ios":"levelo://app?vid=556c6db1-2600-4c2b-9521-aae8453517c1"},"vehicle_type_id":"4","last_reported":1685048740,"current_range_meters":24800,"station_id":"","pricing_plan_id":"free"},{"bike_id":"d6922cbc-1cba-4ad8-ae5e-970b5c333ed0","system_id":"levelo_inurba_marseille","lat":43.30647,"lon":5.40075,"is_reserved":false,"is_disabled":false,"rental_uris":{"android":"levelo://app?vid=d6922cbc-1cba-4ad8-ae5e-970b5c333ed0","ios":"levelo://app?vid=d6922cbc-1cba-4ad8-ae5e-970b5c333ed0"},"vehicle_type_id":"4","last_reported":1685048740,"current_range_meters":26000,"station_id":"ce4bh112rcd13ifvqda0","pricing_plan_id":"free"},{"bike_id":"6fad0bd5-3c7c-4da1-bb0f-f0eef050ba54","system_id":"levelo_inurba_marseille","lat":43.30648,"lon":5.40078,"is_reserved":false,"is_disabled":false,"rental_uris":{"android":"levelo://app?vid=6fad0bd5-3c7c-4da1-bb0f-f0eef050ba54","ios":"levelo://app?vid=6fad0bd5-3c7c-4da1-bb0f-f0eef050ba54"},"vehicle_type_id":"4","last_reported":1685048740,"current_range_meters":31200,"station_id":"ce4bh112rcd13ifvqda0","pricing_plan_id":"free"},{"bike_id":"9838698d-aee1-47c7-8a64-77e3ff5ff69b","system_id":"levelo_inurba_marseille","lat":43.30642,"lon":5.401031,"is_reserved":false,"is_disabled":false,"rental_uris":{"android":"levelo://app?vid=9838698d-aee1-47c7-8a64-77e3ff5ff69b","ios":"levelo://app?vid=9838698d-aee1-47c7-8a64-77e3ff5ff69b"},"vehicle_type_id":"4","last_reported":1685048740,"current_range_meters":31200,"station_id":"ce4bh112rcd13ifvqda0","pricing_plan_id":"free"},{"bike_id":"28396706-9047-4ef5-b989-91c7bd8f7ec1","system_id":"levelo_inurba_marseille","lat":43.30645,"lon":5.40083,"is_reserved":false,"is_disabled":false,"rental_uris":{"android":"levelo://app?vid=28396706-9047-4ef5-b989-91c7bd8f7ec1","ios":"levelo://app?vid=28396706-9047-4ef5-b989-91c7bd8f7ec1"},"vehicle_type_id":"4","last_reported":1685048740,"current_range_meters":19600,"station_id":"ce4bh112rcd13ifvqda0","pricing_plan_id":"free"},{"bike_id":"5d058b52-6859-4deb-9e6f-85d1f5b0a8f9","system_id":"levelo_inurba_marseille","lat":43.30642,"lon":5.401031,"is_reserved":false,"is_disabled":false,"rental_uris":{"android":"levelo://app?vid=5d058b52-6859-4deb-9e6f-85d1f5b0a8f9","ios":"levelo://app?vid=5d058b52-6859-4deb-9e6f-85d1f5b0a8f9"},"vehicle_type_id":"4","last_reported":1685048740,"current_range_meters":31200,"station_id":"ce4bh112rcd13ifvqda0","pricing_plan_id":"free"},{"bike_id":"95d058cb-87d4-419b-b1eb-8e2b82398b0a","system_id":"levelo_inurba_marseille","lat":43.33765,"lon":5.37422,"is_reserved":false,"is_disabled":false,"rental_uris":{"android":"levelo://app?vid=95d058cb-87d4-419b-b1eb-8e2b82398b0a","ios":"levelo://app?vid=95d058cb-87d4-419b-b1eb-8e2b82398b0a"},"vehicle_type_id":"4","last_reported":1685048740,"current_range_meters":30800,"station_id":"","pricing_plan_id":"free"},{"bike_id":"f9ab7cfe-6881-4fdf-8587-16ca550c6410","system_id":"levelo_inurba_marseille","lat":43.30642,"lon":5.401031,"is_reserved":false,"is_disabled":false,"rental_uris":{"android":"levelo://app?vid=f9ab7cfe-6881-4fdf-8587-16ca550c6410","ios":"levelo://app?vid=f9ab7cfe-6881-4fdf-8587-16ca550c6410"},"vehicle_type_id":"4","last_reported":1685048740,"current_range_meters":15200,"station_id":"ce4bh112rcd13ifvqda0","pricing_plan_id":"free"},{"bike_id":"5d426313-6fcd-4148-8236-a25427fcfa94","system_id":"levelo_inurba_marseille","lat":43.301117,"lon":5.398795,"is_reserved":false,"is_disabled":false,"rental_uris":{"android":"levelo://app?vid=5d426313-6fcd-4148-8236-a25427fcfa94","ios":"levelo://app?vid=5d426313-6fcd-4148-8236-a25427fcfa94"},"vehicle_type_id":"4","last_reported":1685048740,"current_range_meters":24800,"station_id":"ce4bh0h2rcd13ifvqd40","pricing_plan_id":"free"},{"bike_id":"aa93d95b-6bfa-4d5e-914c-29d0b85e0eb8","system_id":"levelo_inurba_marseille","lat":43.301117,"lon":5.398795,"is_reserved":false,"is_disabled":false,"rental_uris":{"android":"levelo://app?vid=aa93d95b-6bfa-4d5e-914c-29d0b85e0eb8","ios":"levelo://app?vid=aa93d95b-6bfa-4d5e-914c-29d0b85e0eb8"},"vehicle_type_id":"4","last_reported":1685048740,"current_range_meters":26000,"station_id":"ce4bh0h2rcd13ifvqd40","pricing_plan_id":"free"},{"bike_id":"cdaceb85-24d4-45d1-a6be-bc9c8e64f9c6","system_id":"levelo_inurba_marseille","lat":43.301117,"lon":5.398795,"is_reserved":false,"is_disabled":false,"rental_uris":{"android":"levelo://app?vid=cdaceb85-24d4-45d1-a6be-bc9c8e64f9c6","ios":"levelo://app?vid=cdaceb85-24d4-45d1-a6be-bc9c8e64f9c6"},"vehicle_type_id":"4","last_reported":1685048740,"current_range_meters":11600,"station_id":"ce4bh0h2rcd13ifvqd40","pricing_plan_id":"free"},{"bike_id":"92f18e6e-5b4c-4aa6-b0fe-3982435282f6","system_id":"levelo_inurba_marseille","lat":43.30642,"lon":5.401031,"is_reserved":false,"is_disabled":false,"rental_uris":{"android":"levelo://app?vid=92f18e6e-5b4c-4aa6-b0fe-3982435282f6","ios":"levelo://app?vid=92f18e6e-5b4c-4aa6-b0fe-3982435282f6"},"vehicle_type_id":"4","last_reported":1685048740,"current_range_meters":13600,"station_id":"ce4bh112rcd13ifvqda0","pricing_plan_id":"free"},{"bike_id":"91727fbe-d6ac-4c08-8c7f-892def8452c7","system_id":"levelo_inurba_marseille","lat":43.30642,"lon":5.40107,"is_reserved":false,"is_disabled":false,"rental_uris":{"android":"levelo://app?vid=91727fbe-d6ac-4c08-8c7f-892def8452c7","ios":"levelo://app?vid=91727fbe-d6ac-4c08-8c7f-892def8452c7"},"vehicle_type_id":"4","last_reported":1685048740,"current_range_meters":13600,"station_id":"ce4bh112rcd13ifvqda0","pricing_plan_id":"free"},{"bike_id":"1d4371f0-fe5c-43ab-ab29-7786614e4473","system_id":"levelo_inurba_marseille","lat":43.301191,"lon":5.398634,"is_reserved":false,"is_disabled":false,"rental_uris":{"android":"levelo://app?vid=1d4371f0-fe5c-43ab-ab29-7786614e4473","ios":"levelo://app?vid=1d4371f0-fe5c-43ab-ab29-7786614e4473"},"vehicle_type_id":"4","last_reported":1685048740,"current_range_meters":23200,"station_id":"ce4bh0h2rcd13ifvqd40","pricing_plan_id":"free"},{"bike_id":"60746438-298d-4aed-b5f0-5187806d8530","system_id":"levelo_inurba_marseille","lat":43.301117,"lon":5.398795,"is_reserved":false,"is_disabled":false,"rental_uris":{"android":"levelo://app?vid=60746438-298d-4aed-b5f0-5187806d8530","ios":"levelo://app?vid=60746438-298d-4aed-b5f0-5187806d8530"},"vehicle_type_id":"4","last_reported":1685048740,"current_range_meters":17600,"station_id":"ce4bh0h2rcd13ifvqd40","pricing_plan_id":"free"},{"bike_id":"1713220b-d444-46b9-9b54-9512b7b168cf","system_id":"levelo_inurba_marseille","lat":43.30429,"lon":5.40084,"is_reserved":false,"is_disabled":false,"rental_uris":{"android":"levelo://app?vid=1713220b-d444-46b9-9b54-9512b7b168cf","ios":"levelo://app?vid=1713220b-d444-46b9-9b54-9512b7b168cf"},"vehicle_type_id":"4","last_reported":1685048740,"current_range_meters":8000,"station_id":"","pricing_plan_id":"free"},{"bike_id":"ddc6a36f-1b16-4202-a857-b31ac8fd7f4f","system_id":"levelo_inurba_marseille","lat":43.28669,"lon":5.36352,"is_reserved":false,"is_disabled":false,"rental_uris":{"android":"levelo://app?vid=ddc6a36f-1b16-4202-a857-b31ac8fd7f4f","ios":"levelo://app?vid=ddc6a36f-1b16-4202-a857-b31ac8fd7f4f"},"vehicle_type_id":"4","last_reported":1685048740,"current_range_meters":19600,"station_id":"ce4bhah2rcd13ifvqej0","pricing_plan_id":"free"},{"bike_id":"ad615c08-c8a3-4d7b-80f4-627e6069c404","system_id":"levelo_inurba_marseille","lat":43.298681,"lon":5.397225,"is_reserved":false,"is_disabled":false,"rental_uris":{"android":"levelo://app?vid=ad615c08-c8a3-4d7b-80f4-627e6069c404","ios":"levelo://app?vid=ad615c08-c8a3-4d7b-80f4-627e6069c404"},"vehicle_type_id":"4","last_reported":1685048740,"current_range_meters":12800,"station_id":"ce4bh0h2rcd13ifvqd50","pricing_plan_id":"free"},{"bike_id":"b8fb4b24-28fc-4075-9e18-7c11c56fa443","system_id":"levelo_inurba_marseille","lat":43.30425,"lon":5.40106,"is_reserved":false,"is_disabled":false,"rental_uris":{"android":"levelo://app?vid=b8fb4b24-28fc-4075-9e18-7c11c56fa443","ios":"levelo://app?vid=b8fb4b24-28fc-4075-9e18-7c11c56fa443"},"vehicle_type_id":"4","last_reported":1685048740,"current_range_meters":24800,"station_id":"","pricing_plan_id":"free"},{"bike_id":"37c92492-ff1f-4343-b867-152f85a3cb81","system_id":"levelo_inurba_marseille","lat":43.298681,"lon":5.397225,"is_reserved":false,"is_disabled":false,"rental_uris":{"android":"levelo://app?vid=37c92492-ff1f-4343-b867-152f85a3cb81","ios":"levelo://app?vid=37c92492-ff1f-4343-b867-152f85a3cb81"},"vehicle_type_id":"4","last_reported":1685048740,"current_range_meters":22400,"station_id":"ce4bh0h2rcd13ifvqd50","pricing_plan_id":"free"},{"bike_id":"0f24bda1-3bc7-47e1-94ef-a8b58660b8a8","system_id":"levelo_inurba_marseille","lat":43.295194,"lon":5.39397,"is_reserved":false,"is_disabled":false,"rental_uris":{"android":"levelo://app?vid=0f24bda1-3bc7-47e1-94ef-a8b58660b8a8","ios":"levelo://app?vid=0f24bda1-3bc7-47e1-94ef-a8b58660b8a8"},"vehicle_type_id":"4","last_reported":1685048740,"current_range_meters":25200,"station_id":"ce4bh292rcd13ifvqdf0","pricing_plan_id":"free"},{"bike_id":"26ea839f-364f-4d7b-afcf-1de3a43a0bd9","system_id":"levelo_inurba_marseille","lat":43.295194,"lon":5.39397,"is_reserved":false,"is_disabled":false,"rental_uris":{"android":"levelo://app?vid=26ea839f-364f-4d7b-afcf-1de3a43a0bd9","ios":"levelo://app?vid=26ea839f-364f-4d7b-afcf-1de3a43a0bd9"},"vehicle_type_id":"4","last_reported":1685048740,"current_range_meters":25200,"station_id":"ce4bh292rcd13ifvqdf0","pricing_plan_id":"free"},{"bike_id":"2ee21d4f-ba61-493e-ab30-1ccbbe57752f","system_id":"levelo_inurba_marseille","lat":43.29025,"lon":5.38628,"is_reserved":false,"is_disabled":false,"rental_uris":{"android":"levelo://app?vid=2ee21d4f-ba61-493e-ab30-1ccbbe57752f","ios":"levelo://app?vid=2ee21d4f-ba61-493e-ab30-1ccbbe57752f"},"vehicle_type_id":"4","last_reported":1685048740,"current_range_meters":23200,"station_id":"ce4bh4p2rcd13ifvqe0g","pricing_plan_id":"free"},{"bike_id":"6981ad19-6cde-4489-a274-56e089314bb8","system_id":"levelo_inurba_marseille","lat":43.290345,"lon":5.38646,"is_reserved":false,"is_disabled":false,"rental_uris":{"android":"levelo://app?vid=6981ad19-6cde-4489-a274-56e089314bb8","ios":"levelo://app?vid=6981ad19-6cde-4489-a274-56e089314bb8"},"vehicle_type_id":"4","last_reported":1685048740,"current_range_meters":12800,"station_id":"ce4bh4p2rcd13ifvqe0g","pricing_plan_id":"free"},{"bike_id":"3ceb41f3-ea46-4b39-b983-67ff2f659079","system_id":"levelo_inurba_marseille","lat":43.290345,"lon":5.38646,"is_reserved":false,"is_disabled":false,"rental_uris":{"android":"levelo://app?vid=3ceb41f3-ea46-4b39-b983-67ff2f659079","ios":"levelo://app?vid=3ceb41f3-ea46-4b39-b983-67ff2f659079"},"vehicle_type_id":"4","last_reported":1685048740,"current_range_meters":2000,"station_id":"ce4bh4p2rcd13ifvqe0g","pricing_plan_id":"free"},{"bike_id":"1131f9d3-83dd-4076-b420-dfa0e9f34b6d","system_id":"levelo_inurba_marseille","lat":43.29023,"lon":5.38629,"is_reserved":false,"is_disabled":false,"rental_uris":{"android":"levelo://app?vid=1131f9d3-83dd-4076-b420-dfa0e9f34b6d","ios":"levelo://app?vid=1131f9d3-83dd-4076-b420-dfa0e9f34b6d"},"vehicle_type_id":"4","last_reported":1685048740,"current_range_meters":3200,"station_id":"ce4bh4p2rcd13ifvqe0g","pricing_plan_id":"free"},{"bike_id":"0029c626-f4e9-491b-a775-5d5bee8f660d","system_id":"levelo_inurba_marseille","lat":43.290345,"lon":5.38646,"is_reserved":false,"is_disabled":false,"rental_uris":{"android":"levelo://app?vid=0029c626-f4e9-491b-a775-5d5bee8f660d","ios":"levelo://app?vid=0029c626-f4e9-491b-a775-5d5bee8f660d"},"vehicle_type_id":"4","last_reported":1685048740,"current_range_meters":5600,"station_id":"ce4bh4p2rcd13ifvqe0g","pricing_plan_id":"free"},{"bike_id":"52527153-08ca-4db8-b6a4-5826a59c48e8","system_id":"levelo_inurba_marseille","lat":43.29027,"lon":5.38649,"is_reserved":false,"is_disabled":false,"rental_uris":{"android":"levelo://app?vid=52527153-08ca-4db8-b6a4-5826a59c48e8","ios":"levelo://app?vid=52527153-08ca-4db8-b6a4-5826a59c48e8"},"vehicle_type_id":"4","last_reported":1685048740,"current_range_meters":4400,"station_id":"ce4bh4p2rcd13ifvqe0g","pricing_plan_id":"free"},{"bike_id":"1c047c45-5eed-4522-8b70-0acca91f97bb","system_id":"levelo_inurba_marseille","lat":43.302759,"lon":5.400793,"is_reserved":false,"is_disabled":false,"rental_uris":{"android":"levelo://app?vid=1c047c45-5eed-4522-8b70-0acca91f97bb","ios":"levelo://app?vid=1c047c45-5eed-4522-8b70-0acca91f97bb"},"vehicle_type_id":"4","last_reported":1685048740,"current_range_meters":7600,"station_id":"ce4bgvh2rcd13ifvqcs0","pricing_plan_id":"free"},{"bike_id":"c17323df-c696-4ff1-a446-57934d9d59cc","system_id":"levelo_inurba_marseille","lat":43.30252,"lon":5.4008,"is_reserved":false,"is_disabled":false,"rental_uris":{"android":"levelo://app?vid=c17323df-c696-4ff1-a446-57934d9d59cc","ios":"levelo://app?vid=c17323df-c696-4ff1-a446-57934d9d59cc"},"vehicle_type_id":"4","last_reported":1685048740,"current_range_meters":24400,"station_id":"ce4bgvh2rcd13ifvqcs0","pricing_plan_id":"free"},{"bike_id":"5cec2782-f9a5-43f8-96cc-64a7e6e5eb09","system_id":"levelo_inurba_marseille","lat":43.302759,"lon":5.400793,"is_reserved":false,"is_disabled":false,"rental_uris":{"android":"levelo://app?vid=5cec2782-f9a5-43f8-96cc-64a7e6e5eb09","ios":"levelo://app?vid=5cec2782-f9a5-43f8-96cc-64a7e6e5eb09"},"vehicle_type_id":"4","last_reported":1685048740,"current_range_meters":20400,"station_id":"ce4bgvh2rcd13ifvqcs0","pricing_plan_id":"free"},{"bike_id":"ebfc340f-b974-44a1-ba00-7825cc673ce8","system_id":"levelo_inurba_marseille","lat":43.286039,"lon":5.370679,"is_reserved":false,"is_disabled":false,"rental_uris":{"android":"levelo://app?vid=ebfc340f-b974-44a1-ba00-7825cc673ce8","ios":"levelo://app?vid=ebfc340f-b974-44a1-ba00-7825cc673ce8"},"vehicle_type_id":"4","last_reported":1685048740,"current_range_meters":22000,"station_id":"ce4bht12rcd13ifvqi60","pricing_plan_id":"free"},{"bike_id":"456f2474-443f-44d6-b27f-e9931733f31b","system_id":"levelo_inurba_marseille","lat":43.28725,"lon":5.37938,"is_reserved":false,"is_disabled":false,"rental_uris":{"android":"levelo://app?vid=456f2474-443f-44d6-b27f-e9931733f31b","ios":"levelo://app?vid=456f2474-443f-44d6-b27f-e9931733f31b"},"vehicle_type_id":"4","last_reported":1685048740,"current_range_meters":6400,"station_id":"ce4bh9p2rcd13ifvqec0","pricing_plan_id":"free"},{"bike_id":"001138e4-257c-4814-be1b-95ab5a3924cc","system_id":"levelo_inurba_marseille","lat":43.28721,"lon":5.37944,"is_reserved":false,"is_disabled":false,"rental_uris":{"android":"levelo://app?vid=001138e4-257c-4814-be1b-95ab5a3924cc","ios":"levelo://app?vid=001138e4-257c-4814-be1b-95ab5a3924cc"},"vehicle_type_id":"4","last_reported":1685048740,"current_range_meters":27200,"station_id":"ce4bh9p2rcd13ifvqec0","pricing_plan_id":"free"},{"bike_id":"4146e5a8-d7cb-4dd2-b47c-0f63d7dd9186","system_id":"levelo_inurba_marseille","lat":43.287184,"lon":5.37937,"is_reserved":false,"is_disabled":false,"rental_uris":{"android":"levelo://app?vid=4146e5a8-d7cb-4dd2-b47c-0f63d7dd9186","ios":"levelo://app?vid=4146e5a8-d7cb-4dd2-b47c-0f63d7dd9186"},"vehicle_type_id":"4","last_reported":1685048740,"current_range_meters":31600,"station_id":"ce4bh9p2rcd13ifvqec0","pricing_plan_id":"free"},{"bike_id":"c3549ec4-125f-4bec-bd96-4a0402c66af1","system_id":"levelo_inurba_marseille","lat":43.287184,"lon":5.37937,"is_reserved":false,"is_disabled":false,"rental_uris":{"android":"levelo://app?vid=c3549ec4-125f-4bec-bd96-4a0402c66af1","ios":"levelo://app?vid=c3549ec4-125f-4bec-bd96-4a0402c66af1"},"vehicle_type_id":"4","last_reported":1685048740,"current_range_meters":27600,"station_id":"ce4bh9p2rcd13ifvqec0","pricing_plan_id":"free"},{"bike_id":"9fcafcb0-a0ae-4e87-86df-7c868ef84f82","system_id":"levelo_inurba_marseille","lat":43.28716,"lon":5.37942,"is_reserved":false,"is_disabled":false,"rental_uris":{"android":"levelo://app?vid=9fcafcb0-a0ae-4e87-86df-7c868ef84f82","ios":"levelo://app?vid=9fcafcb0-a0ae-4e87-86df-7c868ef84f82"},"vehicle_type_id":"4","last_reported":1685048740,"current_range_meters":10400,"station_id":"ce4bh9p2rcd13ifvqec0","pricing_plan_id":"free"},{"bike_id":"adcfeaed-e4ff-4a61-895f-b15d1dbc3d97","system_id":"levelo_inurba_marseille","lat":43.28465,"lon":5.35891,"is_reserved":false,"is_disabled":false,"rental_uris":{"android":"levelo://app?vid=adcfeaed-e4ff-4a61-895f-b15d1dbc3d97","ios":"levelo://app?vid=adcfeaed-e4ff-4a61-895f-b15d1dbc3d97"},"vehicle_type_id":"4","last_reported":1685048740,"current_range_meters":12400,"station_id":"ce4bhah2rcd13ifvqei0","pricing_plan_id":"free"},{"bike_id":"152cd793-b0a0-4262-a322-00b6ad9466d8","system_id":"levelo_inurba_marseille","lat":43.2846,"lon":5.35896,"is_reserved":false,"is_disabled":false,"rental_uris":{"android":"levelo://app?vid=152cd793-b0a0-4262-a322-00b6ad9466d8","ios":"levelo://app?vid=152cd793-b0a0-4262-a322-00b6ad9466d8"},"vehicle_type_id":"4","last_reported":1685048740,"current_range_meters":400,"station_id":"ce4bhah2rcd13ifvqei0","pricing_plan_id":"free"},{"bike_id":"d2178468-d881-4598-aa23-41b88a1685fe","system_id":"levelo_inurba_marseille","lat":43.284534,"lon":5.358662,"is_reserved":false,"is_disabled":false,"rental_uris":{"android":"levelo://app?vid=d2178468-d881-4598-aa23-41b88a1685fe","ios":"levelo://app?vid=d2178468-d881-4598-aa23-41b88a1685fe"},"vehicle_type_id":"4","last_reported":1685048740,"current_range_meters":0,"station_id":"ce4bhah2rcd13ifvqei0","pricing_plan_id":"free"},{"bike_id":"759f84e5-8e82-4758-adc5-c96b586ac23b","system_id":"levelo_inurba_marseille","lat":43.284534,"lon":5.358662,"is_reserved":false,"is_disabled":false,"rental_uris":{"android":"levelo://app?vid=759f84e5-8e82-4758-adc5-c96b586ac23b","ios":"levelo://app?vid=759f84e5-8e82-4758-adc5-c96b586ac23b"},"vehicle_type_id":"4","last_reported":1685048740,"current_range_meters":1600,"station_id":"ce4bhah2rcd13ifvqei0","pricing_plan_id":"free"},{"bike_id":"3a986c88-10e0-409d-8334-15e95451b916","system_id":"levelo_inurba_marseille","lat":43.284534,"lon":5.358662,"is_reserved":false,"is_disabled":false,"rental_uris":{"android":"levelo://app?vid=3a986c88-10e0-409d-8334-15e95451b916","ios":"levelo://app?vid=3a986c88-10e0-409d-8334-15e95451b916"},"vehicle_type_id":"4","last_reported":1685048740,"current_range_meters":22000,"station_id":"ce4bhah2rcd13ifvqei0","pricing_plan_id":"free"},{"bike_id":"9692d33d-b6bf-4011-ad22-61c8db77ae77","system_id":"levelo_inurba_marseille","lat":43.28455,"lon":5.359,"is_reserved":false,"is_disabled":false,"rental_uris":{"android":"levelo://app?vid=9692d33d-b6bf-4011-ad22-61c8db77ae77","ios":"levelo://app?vid=9692d33d-b6bf-4011-ad22-61c8db77ae77"},"vehicle_type_id":"4","last_reported":1685048740,"current_range_meters":19600,"station_id":"","pricing_plan_id":"free"},{"bike_id":"e9d12227-3906-47e6-bec4-9dd5fa5036e5","system_id":"levelo_inurba_marseille","lat":43.284534,"lon":5.358662,"is_reserved":false,"is_disabled":false,"rental_uris":{"android":"levelo://app?vid=e9d12227-3906-47e6-bec4-9dd5fa5036e5","ios":"levelo://app?vid=e9d12227-3906-47e6-bec4-9dd5fa5036e5"},"vehicle_type_id":"4","last_reported":1685048740,"current_range_meters":3200,"station_id":"ce4bhah2rcd13ifvqei0","pricing_plan_id":"free"},{"bike_id":"7962ad5d-ad33-4204-9d55-4a8d329337a5","system_id":"levelo_inurba_marseille","lat":43.284534,"lon":5.358662,"is_reserved":false,"is_disabled":false,"rental_uris":{"android":"levelo://app?vid=7962ad5d-ad33-4204-9d55-4a8d329337a5","ios":"levelo://app?vid=7962ad5d-ad33-4204-9d55-4a8d329337a5"},"vehicle_type_id":"4","last_reported":1685048740,"current_range_meters":23200,"station_id":"ce4bhah2rcd13ifvqei0","pricing_plan_id":"free"},{"bike_id":"a8aa8c28-4b1b-4b96-9b63-d75cb29c5593","system_id":"levelo_inurba_marseille","lat":43.284534,"lon":5.358662,"is_reserved":false,"is_disabled":false,"rental_uris":{"android":"levelo://app?vid=a8aa8c28-4b1b-4b96-9b63-d75cb29c5593","ios":"levelo://app?vid=a8aa8c28-4b1b-4b96-9b63-d75cb29c5593"},"vehicle_type_id":"4","last_reported":1685048740,"current_range_meters":20800,"station_id":"ce4bhah2rcd13ifvqei0","pricing_plan_id":"free"},{"bike_id":"0f146516-d999-4865-bba2-133b1cbb3438","system_id":"levelo_inurba_marseille","lat":43.284534,"lon":5.358662,"is_reserved":false,"is_disabled":false,"rental_uris":{"android":"levelo://app?vid=0f146516-d999-4865-bba2-133b1cbb3438","ios":"levelo://app?vid=0f146516-d999-4865-bba2-133b1cbb3438"},"vehicle_type_id":"4","last_reported":1685048740,"current_range_meters":4800,"station_id":"ce4bhah2rcd13ifvqei0","pricing_plan_id":"free"},{"bike_id":"2f34fb67-f5b8-451e-bd1d-b8917b7de3d1","system_id":"levelo_inurba_marseille","lat":43.285848,"lon":5.350787,"is_reserved":false,"is_disabled":false,"rental_uris":{"android":"levelo://app?vid=2f34fb67-f5b8-451e-bd1d-b8917b7de3d1","ios":"levelo://app?vid=2f34fb67-f5b8-451e-bd1d-b8917b7de3d1"},"vehicle_type_id":"4","last_reported":1685048740,"current_range_meters":18800,"station_id":"ce4bhch2rcd13ifvqeug","pricing_plan_id":"free"},{"bike_id":"3bfc1e1d-dba6-4b3e-9159-7de725dff9fe","system_id":"levelo_inurba_marseille","lat":43.285856,"lon":5.350771,"is_reserved":false,"is_disabled":false,"rental_uris":{"android":"levelo://app?vid=3bfc1e1d-dba6-4b3e-9159-7de725dff9fe","ios":"levelo://app?vid=3bfc1e1d-dba6-4b3e-9159-7de725dff9fe"},"vehicle_type_id":"4","last_reported":1685048740,"current_range_meters":2800,"station_id":"ce4bhch2rcd13ifvqeug","pricing_plan_id":"free"},{"bike_id":"819528a4-f267-4c1f-9602-1cc57c315ab3","system_id":"levelo_inurba_marseille","lat":43.295713,"lon":5.399639,"is_reserved":false,"is_disabled":false,"rental_uris":{"android":"levelo://app?vid=819528a4-f267-4c1f-9602-1cc57c315ab3","ios":"levelo://app?vid=819528a4-f267-4c1f-9602-1cc57c315ab3"},"vehicle_type_id":"4","last_reported":1685048740,"current_range_meters":14400,"station_id":"ce4bh312rcd13ifvqdj0","pricing_plan_id":"free"},{"bike_id":"2b90dd1c-fee5-49ed-8aca-99a4f10e0f42","system_id":"levelo_inurba_marseille","lat":43.295713,"lon":5.399639,"is_reserved":false,"is_disabled":false,"rental_uris":{"android":"levelo://app?vid=2b90dd1c-fee5-49ed-8aca-99a4f10e0f42","ios":"levelo://app?vid=2b90dd1c-fee5-49ed-8aca-99a4f10e0f42"},"vehicle_type_id":"4","last_reported":1685048740,"current_range_meters":400,"station_id":"ce4bh312rcd13ifvqdj0","pricing_plan_id":"free"},{"bike_id":"21c9c524-eb09-43c9-a989-7ab319e30420","system_id":"levelo_inurba_marseille","lat":43.295713,"lon":5.399639,"is_reserved":false,"is_disabled":false,"rental_uris":{"android":"levelo://app?vid=21c9c524-eb09-43c9-a989-7ab319e30420","ios":"levelo://app?vid=21c9c524-eb09-43c9-a989-7ab319e30420"},"vehicle_type_id":"4","last_reported":1685048740,"current_range_meters":26400,"station_id":"ce4bh312rcd13ifvqdj0","pricing_plan_id":"free"},{"bike_id":"1bdd56dc-f6dd-475a-b983-3d2865410379","system_id":"levelo_inurba_marseille","lat":43.295713,"lon":5.399639,"is_reserved":false,"is_disabled":false,"rental_uris":{"android":"levelo://app?vid=1bdd56dc-f6dd-475a-b983-3d2865410379","ios":"levelo://app?vid=1bdd56dc-f6dd-475a-b983-3d2865410379"},"vehicle_type_id":"4","last_reported":1685048740,"current_range_meters":4800,"station_id":"ce4bh312rcd13ifvqdj0","pricing_plan_id":"free"},{"bike_id":"efbf5901-feae-4d9d-a44f-4df5d927f5eb","system_id":"levelo_inurba_marseille","lat":43.286595,"lon":5.386795,"is_reserved":false,"is_disabled":false,"rental_uris":{"android":"levelo://app?vid=efbf5901-feae-4d9d-a44f-4df5d927f5eb","ios":"levelo://app?vid=efbf5901-feae-4d9d-a44f-4df5d927f5eb"},"vehicle_type_id":"4","last_reported":1685048740,"current_range_meters":13200,"station_id":"ce4bh492rcd13ifvqdug","pricing_plan_id":"free"},{"bike_id":"f0b0c286-1c15-4d76-ab3a-acc0890194a9","system_id":"levelo_inurba_marseille","lat":43.286595,"lon":5.386795,"is_reserved":false,"is_disabled":false,"rental_uris":{"android":"levelo://app?vid=f0b0c286-1c15-4d76-ab3a-acc0890194a9","ios":"levelo://app?vid=f0b0c286-1c15-4d76-ab3a-acc0890194a9"},"vehicle_type_id":"4","last_reported":1685048740,"current_range_meters":0,"station_id":"ce4bh492rcd13ifvqdug","pricing_plan_id":"free"},{"bike_id":"ea86bc35-057c-424b-b0f7-be7bac86d125","system_id":"levelo_inurba_marseille","lat":43.286595,"lon":5.386795,"is_reserved":false,"is_disabled":false,"rental_uris":{"android":"levelo://app?vid=ea86bc35-057c-424b-b0f7-be7bac86d125","ios":"levelo://app?vid=ea86bc35-057c-424b-b0f7-be7bac86d125"},"vehicle_type_id":"4","last_reported":1685048740,"current_range_meters":15200,"station_id":"ce4bh492rcd13ifvqdug","pricing_plan_id":"free"},{"bike_id":"38674068-7060-42ac-af76-de5b53531be5","system_id":"levelo_inurba_marseille","lat":43.323464,"lon":5.406297,"is_reserved":false,"is_disabled":false,"rental_uris":{"android":"levelo://app?vid=38674068-7060-42ac-af76-de5b53531be5","ios":"levelo://app?vid=38674068-7060-42ac-af76-de5b53531be5"},"vehicle_type_id":"4","last_reported":1685048740,"current_range_meters":4800,"station_id":"ce4bhq92rcd13ifvqhjg","pricing_plan_id":"free"},{"bike_id":"c7675e98-db95-41eb-b4bb-3820e0b35d0b","system_id":"levelo_inurba_marseille","lat":43.323464,"lon":5.406297,"is_reserved":false,"is_disabled":false,"rental_uris":{"android":"levelo://app?vid=c7675e98-db95-41eb-b4bb-3820e0b35d0b","ios":"levelo://app?vid=c7675e98-db95-41eb-b4bb-3820e0b35d0b"},"vehicle_type_id":"4","last_reported":1685048740,"current_range_meters":28000,"station_id":"ce4bhq92rcd13ifvqhjg","pricing_plan_id":"free"},{"bike_id":"10a54c57-2a0a-421a-ab06-f2663cedf545","system_id":"levelo_inurba_marseille","lat":43.323464,"lon":5.406297,"is_reserved":false,"is_disabled":false,"rental_uris":{"android":"levelo://app?vid=10a54c57-2a0a-421a-ab06-f2663cedf545","ios":"levelo://app?vid=10a54c57-2a0a-421a-ab06-f2663cedf545"},"vehicle_type_id":"4","last_reported":1685048740,"current_range_meters":2400,"station_id":"ce4bhq92rcd13ifvqhjg","pricing_plan_id":"free"},{"bike_id":"d0248441-1b9c-410f-918e-bda3250b3bf5","system_id":"levelo_inurba_marseille","lat":43.323464,"lon":5.406297,"is_reserved":false,"is_disabled":false,"rental_uris":{"android":"levelo://app?vid=d0248441-1b9c-410f-918e-bda3250b3bf5","ios":"levelo://app?vid=d0248441-1b9c-410f-918e-bda3250b3bf5"},"vehicle_type_id":"4","last_reported":1685048740,"current_range_meters":32000,"station_id":"ce4bhq92rcd13ifvqhjg","pricing_plan_id":"free"},{"bike_id":"b64adef4-b88e-4bc5-80c2-c7c932363f50","system_id":"levelo_inurba_marseille","lat":43.288497,"lon":5.393089,"is_reserved":false,"is_disabled":false,"rental_uris":{"android":"levelo://app?vid=b64adef4-b88e-4bc5-80c2-c7c932363f50","ios":"levelo://app?vid=b64adef4-b88e-4bc5-80c2-c7c932363f50"},"vehicle_type_id":"4","last_reported":1685048740,"current_range_meters":4400,"station_id":"ce4bh2p2rcd13ifvqdi0","pricing_plan_id":"free"},{"bike_id":"910b7343-e14b-4991-9a4e-0f6b15d490ee","system_id":"levelo_inurba_marseille","lat":43.28845,"lon":5.39325,"is_reserved":false,"is_disabled":false,"rental_uris":{"android":"levelo://app?vid=910b7343-e14b-4991-9a4e-0f6b15d490ee","ios":"levelo://app?vid=910b7343-e14b-4991-9a4e-0f6b15d490ee"},"vehicle_type_id":"4","last_reported":1685048740,"current_range_meters":0,"station_id":"ce4bh2p2rcd13ifvqdi0","pricing_plan_id":"free"},{"bike_id":"a2b322d2-5043-47f0-aec7-d315e58e2a67","system_id":"levelo_inurba_marseille","lat":43.283494,"lon":5.380945,"is_reserved":false,"is_disabled":false,"rental_uris":{"android":"levelo://app?vid=a2b322d2-5043-47f0-aec7-d315e58e2a67","ios":"levelo://app?vid=a2b322d2-5043-47f0-aec7-d315e58e2a67"},"vehicle_type_id":"4","last_reported":1685048740,"current_range_meters":30000,"station_id":"ce4bh412rcd13ifvqdr0","pricing_plan_id":"free"},{"bike_id":"0242b5d6-fed2-4fde-8458-78d5499a19d8","system_id":"levelo_inurba_marseille","lat":43.283498,"lon":5.380948,"is_reserved":false,"is_disabled":false,"rental_uris":{"android":"levelo://app?vid=0242b5d6-fed2-4fde-8458-78d5499a19d8","ios":"levelo://app?vid=0242b5d6-fed2-4fde-8458-78d5499a19d8"},"vehicle_type_id":"4","last_reported":1685048740,"current_range_meters":18800,"station_id":"ce4bh412rcd13ifvqdr0","pricing_plan_id":"free"},{"bike_id":"df1880ac-d231-4326-8b39-c3d013dbb8ca","system_id":"levelo_inurba_marseille","lat":43.32146,"lon":5.40792,"is_reserved":false,"is_disabled":false,"rental_uris":{"android":"levelo://app?vid=df1880ac-d231-4326-8b39-c3d013dbb8ca","ios":"levelo://app?vid=df1880ac-d231-4326-8b39-c3d013dbb8ca"},"vehicle_type_id":"4","last_reported":1685048740,"current_range_meters":22000,"station_id":"","pricing_plan_id":"free"},{"bike_id":"743f7671-c26b-42e3-b63c-b8616222dba9","system_id":"levelo_inurba_marseille","lat":43.283498,"lon":5.380948,"is_reserved":false,"is_disabled":false,"rental_uris":{"android":"levelo://app?vid=743f7671-c26b-42e3-b63c-b8616222dba9","ios":"levelo://app?vid=743f7671-c26b-42e3-b63c-b8616222dba9"},"vehicle_type_id":"4","last_reported":1685048740,"current_range_meters":16400,"station_id":"ce4bh412rcd13ifvqdr0","pricing_plan_id":"free"},{"bike_id":"7be1d48e-d084-4cd4-9284-a17909ec8395","system_id":"levelo_inurba_marseille","lat":43.284217,"lon":5.349697,"is_reserved":false,"is_disabled":false,"rental_uris":{"android":"levelo://app?vid=7be1d48e-d084-4cd4-9284-a17909ec8395","ios":"levelo://app?vid=7be1d48e-d084-4cd4-9284-a17909ec8395"},"vehicle_type_id":"4","last_reported":1685048740,"current_range_meters":2000,"station_id":"ce4bhbh2rcd13ifvqepg","pricing_plan_id":"free"},{"bike_id":"e2ec6e30-3b62-47e8-8e4a-ccd53ddcee53","system_id":"levelo_inurba_marseille","lat":43.284217,"lon":5.349697,"is_reserved":false,"is_disabled":false,"rental_uris":{"android":"levelo://app?vid=e2ec6e30-3b62-47e8-8e4a-ccd53ddcee53","ios":"levelo://app?vid=e2ec6e30-3b62-47e8-8e4a-ccd53ddcee53"},"vehicle_type_id":"4","last_reported":1685048740,"current_range_meters":22800,"station_id":"ce4bhbh2rcd13ifvqepg","pricing_plan_id":"free"},{"bike_id":"926a9cf0-cded-4be4-90ff-583e708f38b7","system_id":"levelo_inurba_marseille","lat":43.289363,"lon":5.396322,"is_reserved":false,"is_disabled":false,"rental_uris":{"android":"levelo://app?vid=926a9cf0-cded-4be4-90ff-583e708f38b7","ios":"levelo://app?vid=926a9cf0-cded-4be4-90ff-583e708f38b7"},"vehicle_type_id":"4","last_reported":1685048740,"current_range_meters":30000,"station_id":"ce4bh3h2rcd13ifvqdn0","pricing_plan_id":"free"},{"bike_id":"d7829795-5fbc-44d3-ad54-2a2d2d0c7639","system_id":"levelo_inurba_marseille","lat":43.292724,"lon":5.401131,"is_reserved":false,"is_disabled":false,"rental_uris":{"android":"levelo://app?vid=d7829795-5fbc-44d3-ad54-2a2d2d0c7639","ios":"levelo://app?vid=d7829795-5fbc-44d3-ad54-2a2d2d0c7639"},"vehicle_type_id":"4","last_reported":1685048740,"current_range_meters":9600,"station_id":"ce4bh312rcd13ifvqdk0","pricing_plan_id":"free"},{"bike_id":"8bb73e37-19ab-4b24-b509-ae1254aacac7","system_id":"levelo_inurba_marseille","lat":43.29275,"lon":5.40137,"is_reserved":false,"is_disabled":false,"rental_uris":{"android":"levelo://app?vid=8bb73e37-19ab-4b24-b509-ae1254aacac7","ios":"levelo://app?vid=8bb73e37-19ab-4b24-b509-ae1254aacac7"},"vehicle_type_id":"4","last_reported":1685048740,"current_range_meters":18800,"station_id":"ce4bh312rcd13ifvqdk0","pricing_plan_id":"free"},{"bike_id":"976e41f1-ef5b-42fc-a36b-aea552eebef1","system_id":"levelo_inurba_marseille","lat":43.282744,"lon":5.350533,"is_reserved":false,"is_disabled":false,"rental_uris":{"android":"levelo://app?vid=976e41f1-ef5b-42fc-a36b-aea552eebef1","ios":"levelo://app?vid=976e41f1-ef5b-42fc-a36b-aea552eebef1"},"vehicle_type_id":"4","last_reported":1685048740,"current_range_meters":31600,"station_id":"ce4bhbp2rcd13ifvqerg","pricing_plan_id":"free"},{"bike_id":"01d5e747-6d44-4edb-a01b-73b5d992e324","system_id":"levelo_inurba_marseille","lat":43.2827,"lon":5.35075,"is_reserved":false,"is_disabled":false,"rental_uris":{"android":"levelo://app?vid=01d5e747-6d44-4edb-a01b-73b5d992e324","ios":"levelo://app?vid=01d5e747-6d44-4edb-a01b-73b5d992e324"},"vehicle_type_id":"4","last_reported":1685048740,"current_range_meters":3200,"station_id":"ce4bhbp2rcd13ifvqerg","pricing_plan_id":"free"},{"bike_id":"9201b334-58a6-4a4a-97ed-d24b6bc40345","system_id":"levelo_inurba_marseille","lat":43.2827,"lon":5.35072,"is_reserved":false,"is_disabled":false,"rental_uris":{"android":"levelo://app?vid=9201b334-58a6-4a4a-97ed-d24b6bc40345","ios":"levelo://app?vid=9201b334-58a6-4a4a-97ed-d24b6bc40345"},"vehicle_type_id":"4","last_reported":1685048740,"current_range_meters":24400,"station_id":"ce4bhbp2rcd13ifvqerg","pricing_plan_id":"free"},{"bike_id":"6050709f-f304-43ed-87e0-f9b42abe44f5","system_id":"levelo_inurba_marseille","lat":43.282754,"lon":5.350519,"is_reserved":false,"is_disabled":false,"rental_uris":{"android":"levelo://app?vid=6050709f-f304-43ed-87e0-f9b42abe44f5","ios":"levelo://app?vid=6050709f-f304-43ed-87e0-f9b42abe44f5"},"vehicle_type_id":"4","last_reported":1685048740,"current_range_meters":29200,"station_id":"ce4bhbp2rcd13ifvqerg","pricing_plan_id":"free"},{"bike_id":"0b60ef14-6a18-47f6-aeae-4296229626f1","system_id":"levelo_inurba_marseille","lat":43.28266,"lon":5.35076,"is_reserved":false,"is_disabled":false,"rental_uris":{"android":"levelo://app?vid=0b60ef14-6a18-47f6-aeae-4296229626f1","ios":"levelo://app?vid=0b60ef14-6a18-47f6-aeae-4296229626f1"},"vehicle_type_id":"4","last_reported":1685048740,"current_range_meters":30400,"station_id":"ce4bhbp2rcd13ifvqerg","pricing_plan_id":"free"},