{"last_updated":1784645652,"ttl":60,"version":"2.2","data":{"bikes":[{"bike_id":"7ef36254-6bb3-448c-8d77-979d957d54b6","system_id":"levelo_inurba_marseille","lat":43.337444,"lon":5.374475,"is_reserved":false,"is_disabled":false,"rental_uris":{"android":"levelo://app?vid=7ef36254-6bb3-448c-8d77-979d957d54b6","ios":"levelo://app?vid=7ef36254-6bb3-448c-8d77-979d957d54b6"},"vehicle_type_id":"4","last_reported":1784645653,"current_range_meters":0,"station_id":"","pricing_plan_id":"cebpf4jnsgd1na2vs0mg"},{"bike_id":"21fe2e98-0432-4b40-a81f-10dd00b0f57d","system_id":"levelo_inurba_marseille","lat":43.337444,"lon":5.374475,"is_reserved":false,"is_disabled":false,"rental_uris":{"android":"levelo://app?vid=21fe2e98-0432-4b40-a81f-10dd00b0f57d","ios":"levelo://app?vid=21fe2e98-0432-4b40-a81f-10dd00b0f57d"},"vehicle_type_id":"4","last_reported":1784645653,"current_range_meters":0,"station_id":"","pricing_plan_id":"cebpf4jnsgd1na2vs0mg"},{"bike_id":"742d461b-7afc-4575-a2dd-f581a8bde921","system_id":"levelo_inurba_marseille","lat":43.26369,"lon":5.41064,"is_reserved":false,"is_disabled":false,"rental_uris":{"android":"levelo://app?vid=742d461b-7afc-4575-a2dd-f581a8bde921","ios":"levelo://app?vid=742d461b-7afc-4575-a2dd-f581a8bde921"},"vehicle_type_id":"4","last_reported":1784645653,"current_range_meters":400,"station_id":"st_d4e5ca6na9uc73bfl5fg","pricing_plan_id":"cebpf4jnsgd1na2vs0mg"},{"bike_id":"32ed2a0f-80a9-4920-95c6-430d9c4b6acf","system_id":"levelo_inurba_marseille","lat":43.28408,"lon":5.3499,"is_reserved":false,"is_disabled":false,"rental_uris":{"android":"levelo://app?vid=32ed2a0f-80a9-4920-95c6-430d9c4b6acf","ios":"levelo://app?vid=32ed2a0f-80a9-4920-95c6-430d9c4b6acf"},"vehicle_type_id":"4","last_reported":1784645653,"current_range_meters":800,"station_id":"ce4bhbh2rcd13ifvqepg","pricing_plan_id":"cebpf4jnsgd1na2vs0mg"},{"bike_id":"ebfe9d04-d34e-4bb1-90c9-79f7b73604ae","system_id":"levelo_inurba_marseille","lat":43.27054,"lon":5.42846,"is_reserved":false,"is_disabled":false,"rental_uris":{"android":"levelo://app?vid=ebfe9d04-d34e-4bb1-90c9-79f7b73604ae","ios":"levelo://app?vid=ebfe9d04-d34e-4bb1-90c9-79f7b73604ae"},"vehicle_type_id":"4","last_reported":1784645653,"current_range_meters":1200,"station_id":"","pricing_plan_id":"cebpf4jnsgd1na2vs0mg"},{"bike_id":"e35a7b3d-d6be-4e45-8bf8-f140e099eb23","system_id":"levelo_inurba_marseille","lat":43.27459,"lon":5.3614,"is_reserved":false,"is_disabled":false,"rental_uris":{"android":"levelo://app?vid=e35a7b3d-d6be-4e45-8bf8-f140e099eb23","ios":"levelo://app?vid=e35a7b3d-d6be-4e45-8bf8-f140e099eb23"},"vehicle_type_id":"4","last_reported":1784645653,"current_range_meters":2800,"station_id":"","pricing_plan_id":"cebpf4jnsgd1na2vs0mg"},{"bike_id":"69f1eac3-5d3e-492a-991c-f19a12c7cfd3","system_id":"levelo_inurba_marseille","lat":43.28249,"lon":5.35092,"is_reserved":false,"is_disabled":false,"rental_uris":{"android":"levelo://app?vid=69f1eac3-5d3e-492a-991c-f19a12c7cfd3","ios":"levelo://app?vid=69f1eac3-5d3e-492a-991c-f19a12c7cfd3"},"vehicle_type_id":"4","last_reported":1784645653,"current_range_meters":2800,"station_id":"ce4bhbp2rcd13ifvqerg","pricing_plan_id":"cebpf4jnsgd1na2vs0mg"},{"bike_id":"c609448d-12fe-4b60-be8b-1728b7f8b1ea","system_id":"levelo_inurba_marseille","lat":43.22812,"lon":5.34964,"is_reserved":false,"is_disabled":false,"rental_uris":{"android":"levelo://app?vid=c609448d-12fe-4b60-be8b-1728b7f8b1ea","ios":"levelo://app?vid=c609448d-12fe-4b60-be8b-1728b7f8b1ea"},"vehicle_type_id":"4","last_reported":1784645653,"current_range_meters":2800,"station_id":"","pricing_plan_id":"cebpf4jnsgd1na2vs0mg"},{"bike_id":"6668df3e-07a9-488d-be4e-89948060945c","system_id":"levelo_inurba_marseille","lat":43.28273,"lon":5.35066,"is_reserved":false,"is_disabled":false,"rental_uris":{"android":"levelo://app?vid=6668df3e-07a9-488d-be4e-89948060945c","ios":"levelo://app?vid=6668df3e-07a9-488d-be4e-89948060945c"},"vehicle_type_id":"4","last_reported":1784645653,"current_range_meters":2800,"station_id":"ce4bhbp2rcd13ifvqerg","pricing_plan_id":"cebpf4jnsgd1na2vs0mg"},{"bike_id":"15151741-bfb1-4b05-a3b4-9f29cf3ea18f","system_id":"levelo_inurba_marseille","lat":43.21191,"lon":5.35075,"is_reserved":false,"is_disabled":false,"rental_uris":{"android":"levelo://app?vid=15151741-bfb1-4b05-a3b4-9f29cf3ea18f","ios":"levelo://app?vid=15151741-bfb1-4b05-a3b4-9f29cf3ea18f"},"vehicle_type_id":"4","last_reported":1784645653,"current_range_meters":2800,"station_id":"st_cvj6sg6p6f1abm77japg","pricing_plan_id":"cebpf4jnsgd1na2vs0mg"},{"bike_id":"eb5f05e7-1a9d-4316-afd8-d1e6d26f4022","system_id":"levelo_inurba_marseille","lat":43.29068,"lon":5.37163,"is_reserved":false,"is_disabled":false,"rental_uris":{"android":"levelo://app?vid=eb5f05e7-1a9d-4316-afd8-d1e6d26f4022","ios":"levelo://app?vid=eb5f05e7-1a9d-4316-afd8-d1e6d26f4022"},"vehicle_type_id":"4","last_reported":1784645653,"current_range_meters":2800,"station_id":"ce4bh5p2rcd13ifvqe4g","pricing_plan_id":"cebpf4jnsgd1na2vs0mg"},{"bike_id":"ddccfa2b-f6d5-4074-93cd-d9a1c5ca6190","system_id":"levelo_inurba_marseille","lat":43.29787,"lon":5.37667,"is_reserved":false,"is_disabled":false,"rental_uris":{"android":"levelo://app?vid=ddccfa2b-f6d5-4074-93cd-d9a1c5ca6190","ios":"levelo://app?vid=ddccfa2b-f6d5-4074-93cd-d9a1c5ca6190"},"vehicle_type_id":"4","last_reported":1784645653,"current_range_meters":2800,"station_id":"","pricing_plan_id":"cebpf4jnsgd1na2vs0mg"},{"bike_id":"06c45c1a-5c20-4411-9df7-26f00f931bf1","system_id":"levelo_inurba_marseille","lat":43.28615,"lon":5.35103,"is_reserved":false,"is_disabled":false,"rental_uris":{"android":"levelo://app?vid=06c45c1a-5c20-4411-9df7-26f00f931bf1","ios":"levelo://app?vid=06c45c1a-5c20-4411-9df7-26f00f931bf1"},"vehicle_type_id":"4","last_reported":1784645653,"current_range_meters":2800,"station_id":"ce4bhch2rcd13ifvqeug","pricing_plan_id":"cebpf4jnsgd1na2vs0mg"},{"bike_id":"d5dc499d-46fc-49a5-bb13-b345656b551d","system_id":"levelo_inurba_marseille","lat":43.28257,"lon":5.35067,"is_reserved":false,"is_disabled":false,"rental_uris":{"android":"levelo://app?vid=d5dc499d-46fc-49a5-bb13-b345656b551d","ios":"levelo://app?vid=d5dc499d-46fc-49a5-bb13-b345656b551d"},"vehicle_type_id":"4","last_reported":1784645653,"current_range_meters":2800,"station_id":"ce4bhbp2rcd13ifvqerg","pricing_plan_id":"cebpf4jnsgd1na2vs0mg"},{"bike_id":"4141a38c-20e7-4636-89c7-c29aed5d5873","system_id":"levelo_inurba_marseille","lat":43.32284,"lon":5.38282,"is_reserved":false,"is_disabled":false,"rental_uris":{"android":"levelo://app?vid=4141a38c-20e7-4636-89c7-c29aed5d5873","ios":"levelo://app?vid=4141a38c-20e7-4636-89c7-c29aed5d5873"},"vehicle_type_id":"4","last_reported":1784645653,"current_range_meters":2800,"station_id":"ce4bhr12rcd13ifvqhqg","pricing_plan_id":"cebpf4jnsgd1na2vs0mg"},{"bike_id":"fb9ef89a-160c-4140-92dc-ec5fc48889bc","system_id":"levelo_inurba_marseille","lat":43.24169,"lon":5.36403,"is_reserved":false,"is_disabled":false,"rental_uris":{"android":"levelo://app?vid=fb9ef89a-160c-4140-92dc-ec5fc48889bc","ios":"levelo://app?vid=fb9ef89a-160c-4140-92dc-ec5fc48889bc"},"vehicle_type_id":"4","last_reported":1784645653,"current_range_meters":2800,"station_id":"cpo36qri1sfpv3e86is0","pricing_plan_id":"cebpf4jnsgd1na2vs0mg"},{"bike_id":"5a51679c-bf1f-43c4-9e80-f5b99bfa4a2b","system_id":"levelo_inurba_marseille","lat":43.29909,"lon":5.38142,"is_reserved":false,"is_disabled":false,"rental_uris":{"android":"levelo://app?vid=5a51679c-bf1f-43c4-9e80-f5b99bfa4a2b","ios":"levelo://app?vid=5a51679c-bf1f-43c4-9e80-f5b99bfa4a2b"},"vehicle_type_id":"4","last_reported":1784645653,"current_range_meters":3200,"station_id":"ce4bgj12rcd13ifvqbc0","pricing_plan_id":"cebpf4jnsgd1na2vs0mg"},{"bike_id":"deab0385-0efa-4bfa-9d6c-fc9e57b19cd0","system_id":"levelo_inurba_marseille","lat":43.30067,"lon":5.3698,"is_reserved":false,"is_disabled":false,"rental_uris":{"android":"levelo://app?vid=deab0385-0efa-4bfa-9d6c-fc9e57b19cd0","ios":"levelo://app?vid=deab0385-0efa-4bfa-9d6c-fc9e57b19cd0"},"vehicle_type_id":"4","last_reported":1784645653,"current_range_meters":3200,"station_id":"","pricing_plan_id":"cebpf4jnsgd1na2vs0mg"},{"bike_id":"bbb6d84d-52b2-4523-b78b-60cb354411ef","system_id":"levelo_inurba_marseille","lat":43.32096,"lon":5.36768,"is_reserved":false,"is_disabled":false,"rental_uris":{"android":"levelo://app?vid=bbb6d84d-52b2-4523-b78b-60cb354411ef","ios":"levelo://app?vid=bbb6d84d-52b2-4523-b78b-60cb354411ef"},"vehicle_type_id":"4","last_reported":1784645653,"current_range_meters":3200,"station_id":"ce4bhrh2rcd13ifvqhug","pricing_plan_id":"cebpf4jnsgd1na2vs0mg"},{"bike_id":"5feb6120-99f3-40ac-88a0-a92ec4ec9659","system_id":"levelo_inurba_marseille","lat":43.31691,"lon":5.37595,"is_reserved":false,"is_disabled":false,"rental_uris":{"android":"levelo://app?vid=5feb6120-99f3-40ac-88a0-a92ec4ec9659","ios":"levelo://app?vid=5feb6120-99f3-40ac-88a0-a92ec4ec9659"},"vehicle_type_id":"4","last_reported":1784645653,"current_range_meters":3200,"station_id":"","pricing_plan_id":"cebpf4jnsgd1na2vs0mg"},{"bike_id":"073f10d5-979e-452e-acc8-aae60a2137f1","system_id":"levelo_inurba_marseille","lat":43.30318,"lon":5.36912,"is_reserved":false,"is_disabled":true,"rental_uris":{"android":"levelo://app?vid=073f10d5-979e-452e-acc8-aae60a2137f1","ios":"levelo://app?vid=073f10d5-979e-452e-acc8-aae60a2137f1"},"vehicle_type_id":"4","last_reported":1784645653,"current_range_meters":3200,"station_id":"ce4bgqh2rcd13ifvqc5g","pricing_plan_id":"cebpf4jnsgd1na2vs0mg"},{"bike_id":"0d309a6b-3e2c-42ee-b89f-ed34b6006a61","system_id":"levelo_inurba_marseille","lat":43.26793,"lon":5.37548,"is_reserved":false,"is_disabled":false,"rental_uris":{"android":"levelo://app?vid=0d309a6b-3e2c-42ee-b89f-ed34b6006a61","ios":"levelo://app?vid=0d309a6b-3e2c-42ee-b89f-ed34b6006a61"},"vehicle_type_id":"4","last_reported":1784645653,"current_range_meters":3200,"station_id":"","pricing_plan_id":"cebpf4jnsgd1na2vs0mg"},{"bike_id":"bdc95179-e044-4e80-a8ce-81f5dcc41918","system_id":"levelo_inurba_marseille","lat":43.29723,"lon":5.35966,"is_reserved":false,"is_disabled":false,"rental_uris":{"android":"levelo://app?vid=bdc95179-e044-4e80-a8ce-81f5dcc41918","ios":"levelo://app?vid=bdc95179-e044-4e80-a8ce-81f5dcc41918"},"vehicle_type_id":"4","last_reported":1784645653,"current_range_meters":3200,"station_id":"","pricing_plan_id":"cebpf4jnsgd1na2vs0mg"},{"bike_id":"6dc91398-d9a7-4987-8113-f602f9f1131f","system_id":"levelo_inurba_marseille","lat":43.30327,"lon":5.40433,"is_reserved":false,"is_disabled":false,"rental_uris":{"android":"levelo://app?vid=6dc91398-d9a7-4987-8113-f602f9f1131f","ios":"levelo://app?vid=6dc91398-d9a7-4987-8113-f602f9f1131f"},"vehicle_type_id":"4","last_reported":1784645653,"current_range_meters":3200,"station_id":"ce4bh012rcd13ifvqd10","pricing_plan_id":"cebpf4jnsgd1na2vs0mg"},{"bike_id":"5ab1a741-cfbd-478c-849f-acc87ccd9075","system_id":"levelo_inurba_marseille","lat":43.28579,"lon":5.39496,"is_reserved":false,"is_disabled":false,"rental_uris":{"android":"levelo://app?vid=5ab1a741-cfbd-478c-849f-acc87ccd9075","ios":"levelo://app?vid=5ab1a741-cfbd-478c-849f-acc87ccd9075"},"vehicle_type_id":"4","last_reported":1784645653,"current_range_meters":3200,"station_id":"ce4bh292rcd13ifvqdg0","pricing_plan_id":"cebpf4jnsgd1na2vs0mg"},{"bike_id":"c00ab82a-7114-49a9-a944-c8325dce148a","system_id":"levelo_inurba_marseille","lat":43.29484,"lon":5.43325,"is_reserved":false,"is_disabled":false,"rental_uris":{"android":"levelo://app?vid=c00ab82a-7114-49a9-a944-c8325dce148a","ios":"levelo://app?vid=c00ab82a-7114-49a9-a944-c8325dce148a"},"vehicle_type_id":"4","last_reported":1784645653,"current_range_meters":3200,"station_id":"st_d3j5ugp08ojc73fj9d10","pricing_plan_id":"cebpf4jnsgd1na2vs0mg"},{"bike_id":"f6d05925-1a59-4fe8-ac42-04dce874991d","system_id":"levelo_inurba_marseille","lat":43.30285,"lon":5.37689,"is_reserved":false,"is_disabled":true,"rental_uris":{"android":"levelo://app?vid=f6d05925-1a59-4fe8-ac42-04dce874991d","ios":"levelo://app?vid=f6d05925-1a59-4fe8-ac42-04dce874991d"},"vehicle_type_id":"4","last_reported":1784645653,"current_range_meters":3200,"station_id":"ce4bguh2rcd13ifvqcj0","pricing_plan_id":"cebpf4jnsgd1na2vs0mg"},{"bike_id":"5c028524-fedf-4f77-837c-bcb47acfb204","system_id":"levelo_inurba_marseille","lat":43.28167,"lon":5.375,"is_reserved":false,"is_disabled":false,"rental_uris":{"android":"levelo://app?vid=5c028524-fedf-4f77-837c-bcb47acfb204","ios":"levelo://app?vid=5c028524-fedf-4f77-837c-bcb47acfb204"},"vehicle_type_id":"4","last_reported":1784645653,"current_range_meters":3200,"station_id":"","pricing_plan_id":"cebpf4jnsgd1na2vs0mg"},{"bike_id":"ce90a121-c876-49aa-9780-a366b70fb75a","system_id":"levelo_inurba_marseille","lat":43.25939,"lon":5.38838,"is_reserved":false,"is_disabled":false,"rental_uris":{"android":"levelo://app?vid=ce90a121-c876-49aa-9780-a366b70fb75a","ios":"levelo://app?vid=ce90a121-c876-49aa-9780-a366b70fb75a"},"vehicle_type_id":"4","last_reported":1784645653,"current_range_meters":3200,"station_id":"","pricing_plan_id":"cebpf4jnsgd1na2vs0mg"},{"bike_id":"02d16f44-da36-4526-a0fe-7c73f2786c97","system_id":"levelo_inurba_marseille","lat":43.27373,"lon":5.36251,"is_reserved":false,"is_disabled":false,"rental_uris":{"android":"levelo://app?vid=02d16f44-da36-4526-a0fe-7c73f2786c97","ios":"levelo://app?vid=02d16f44-da36-4526-a0fe-7c73f2786c97"},"vehicle_type_id":"4","last_reported":1784645653,"current_range_meters":3200,"station_id":"ce4bhbh2rcd13ifvqeo0","pricing_plan_id":"cebpf4jnsgd1na2vs0mg"},{"bike_id":"d822d0ce-0c04-4efc-be5b-3f845025abcd","system_id":"levelo_inurba_marseille","lat":43.29405,"lon":5.40953,"is_reserved":false,"is_disabled":false,"rental_uris":{"android":"levelo://app?vid=d822d0ce-0c04-4efc-be5b-3f845025abcd","ios":"levelo://app?vid=d822d0ce-0c04-4efc-be5b-3f845025abcd"},"vehicle_type_id":"4","last_reported":1784645653,"current_range_meters":3200,"station_id":"","pricing_plan_id":"cebpf4jnsgd1na2vs0mg"},{"bike_id":"5a284969-f2ea-4b09-8b05-623ed15f029e","system_id":"levelo_inurba_marseille","lat":43.239399,"lon":5.366725,"is_reserved":false,"is_disabled":false,"rental_uris":{"android":"levelo://app?vid=5a284969-f2ea-4b09-8b05-623ed15f029e","ios":"levelo://app?vid=5a284969-f2ea-4b09-8b05-623ed15f029e"},"vehicle_type_id":"4","last_reported":1784645653,"current_range_meters":3600,"station_id":"ce4bhi12rcd13ifvqfp0","pricing_plan_id":"cebpf4jnsgd1na2vs0mg"},{"bike_id":"51b7a0a5-d25e-45a4-b1f1-80017dc4f2a9","system_id":"levelo_inurba_marseille","lat":43.31406,"lon":5.36647,"is_reserved":false,"is_disabled":false,"rental_uris":{"android":"levelo://app?vid=51b7a0a5-d25e-45a4-b1f1-80017dc4f2a9","ios":"levelo://app?vid=51b7a0a5-d25e-45a4-b1f1-80017dc4f2a9"},"vehicle_type_id":"4","last_reported":1784645653,"current_range_meters":3600,"station_id":"","pricing_plan_id":"cebpf4jnsgd1na2vs0mg"},{"bike_id":"425cee52-7ff4-408d-b63f-f1bb20a33257","system_id":"levelo_inurba_marseille","lat":43.27484,"lon":5.42543,"is_reserved":false,"is_disabled":false,"rental_uris":{"android":"levelo://app?vid=425cee52-7ff4-408d-b63f-f1bb20a33257","ios":"levelo://app?vid=425cee52-7ff4-408d-b63f-f1bb20a33257"},"vehicle_type_id":"4","last_reported":1784645653,"current_range_meters":3600,"station_id":"st_d8t4bh7nbrqs73arha60","pricing_plan_id":"cebpf4jnsgd1na2vs0mg"},{"bike_id":"86c92ecb-c311-4782-87f9-665af8f9dfe2","system_id":"levelo_inurba_marseille","lat":43.28846,"lon":5.39324,"is_reserved":false,"is_disabled":false,"rental_uris":{"android":"levelo://app?vid=86c92ecb-c311-4782-87f9-665af8f9dfe2","ios":"levelo://app?vid=86c92ecb-c311-4782-87f9-665af8f9dfe2"},"vehicle_type_id":"4","last_reported":1784645653,"current_range_meters":3600,"station_id":"ce4bh2p2rcd13ifvqdi0","pricing_plan_id":"cebpf4jnsgd1na2vs0mg"},{"bike_id":"ee993008-3520-4145-a892-ac51da19ce9a","system_id":"levelo_inurba_marseille","lat":43.27477,"lon":5.4254,"is_reserved":false,"is_disabled":true,"rental_uris":{"android":"levelo://app?vid=ee993008-3520-4145-a892-ac51da19ce9a","ios":"levelo://app?vid=ee993008-3520-4145-a892-ac51da19ce9a"},"vehicle_type_id":"4","last_reported":1784645653,"current_range_meters":3600,"station_id":"st_d8t4bh7nbrqs73arha60","pricing_plan_id":"cebpf4jnsgd1na2vs0mg"},{"bike_id":"d991a7e8-9d23-4446-9c57-71b54134ab8f","system_id":"levelo_inurba_marseille","lat":43.29608,"lon":5.38009,"is_reserved":false,"is_disabled":false,"rental_uris":{"android":"levelo://app?vid=d991a7e8-9d23-4446-9c57-71b54134ab8f","ios":"levelo://app?vid=d991a7e8-9d23-4446-9c57-71b54134ab8f"},"vehicle_type_id":"4","last_reported":1784645653,"current_range_meters":3600,"station_id":"","pricing_plan_id":"cebpf4jnsgd1na2vs0mg"},{"bike_id":"39a870ef-6716-4ed3-bec5-74186a5d5483","system_id":"levelo_inurba_marseille","lat":43.23781,"lon":5.3663,"is_reserved":false,"is_disabled":false,"rental_uris":{"android":"levelo://app?vid=39a870ef-6716-4ed3-bec5-74186a5d5483","ios":"levelo://app?vid=39a870ef-6716-4ed3-bec5-74186a5d5483"},"vehicle_type_id":"4","last_reported":1784645653,"current_range_meters":3600,"station_id":"st_d3nk18o9ro0c73en2l3g","pricing_plan_id":"cebpf4jnsgd1na2vs0mg"},{"bike_id":"c78588e5-e842-46d1-9397-b2b42bcbb509","system_id":"levelo_inurba_marseille","lat":43.26684,"lon":5.38742,"is_reserved":false,"is_disabled":false,"rental_uris":{"android":"levelo://app?vid=c78588e5-e842-46d1-9397-b2b42bcbb509","ios":"levelo://app?vid=c78588e5-e842-46d1-9397-b2b42bcbb509"},"vehicle_type_id":"4","last_reported":1784645653,"current_range_meters":3600,"station_id":"","pricing_plan_id":"cebpf4jnsgd1na2vs0mg"},{"bike_id":"965c213d-63c4-4cf1-9017-f661f523d87b","system_id":"levelo_inurba_marseille","lat":43.32423,"lon":5.40745,"is_reserved":false,"is_disabled":false,"rental_uris":{"android":"levelo://app?vid=965c213d-63c4-4cf1-9017-f661f523d87b","ios":"levelo://app?vid=965c213d-63c4-4cf1-9017-f661f523d87b"},"vehicle_type_id":"4","last_reported":1784645653,"current_range_meters":3600,"station_id":"","pricing_plan_id":"cebpf4jnsgd1na2vs0mg"},{"bike_id":"c95ae79e-a5cb-467e-92e3-15f676c2edbc","system_id":"levelo_inurba_marseille","lat":43.28412,"lon":5.34996,"is_reserved":false,"is_disabled":false,"rental_uris":{"android":"levelo://app?vid=c95ae79e-a5cb-467e-92e3-15f676c2edbc","ios":"levelo://app?vid=c95ae79e-a5cb-467e-92e3-15f676c2edbc"},"vehicle_type_id":"4","last_reported":1784645653,"current_range_meters":3600,"station_id":"ce4bhbh2rcd13ifvqepg","pricing_plan_id":"cebpf4jnsgd1na2vs0mg"},{"bike_id":"552c9bf9-017a-4892-ba22-1f4b8f00839a","system_id":"levelo_inurba_marseille","lat":43.248014,"lon":5.374564,"is_reserved":false,"is_disabled":false,"rental_uris":{"android":"levelo://app?vid=552c9bf9-017a-4892-ba22-1f4b8f00839a","ios":"levelo://app?vid=552c9bf9-017a-4892-ba22-1f4b8f00839a"},"vehicle_type_id":"4","last_reported":1784645653,"current_range_meters":3600,"station_id":"ce4bhgh2rcd13ifvqfb0","pricing_plan_id":"cebpf4jnsgd1na2vs0mg"},{"bike_id":"5bc72dc3-83be-4a6b-89ac-b484cf13d2ff","system_id":"levelo_inurba_marseille","lat":43.26418,"lon":5.39898,"is_reserved":false,"is_disabled":false,"rental_uris":{"android":"levelo://app?vid=5bc72dc3-83be-4a6b-89ac-b484cf13d2ff","ios":"levelo://app?vid=5bc72dc3-83be-4a6b-89ac-b484cf13d2ff"},"vehicle_type_id":"4","last_reported":1784645653,"current_range_meters":3600,"station_id":"","pricing_plan_id":"cebpf4jnsgd1na2vs0mg"},{"bike_id":"c4b3220b-acf3-4333-89b2-b3e5cf9f1944","system_id":"levelo_inurba_marseille","lat":43.30472,"lon":5.36544,"is_reserved":false,"is_disabled":false,"rental_uris":{"android":"levelo://app?vid=c4b3220b-acf3-4333-89b2-b3e5cf9f1944","ios":"levelo://app?vid=c4b3220b-acf3-4333-89b2-b3e5cf9f1944"},"vehicle_type_id":"4","last_reported":1784645653,"current_range_meters":3600,"station_id":"","pricing_plan_id":"cebpf4jnsgd1na2vs0mg"},{"bike_id":"deb9b5a2-7d0f-4e2d-88ac-a30c3441c1ac","system_id":"levelo_inurba_marseille","lat":43.23155,"lon":5.43722,"is_reserved":false,"is_disabled":false,"rental_uris":{"android":"levelo://app?vid=deb9b5a2-7d0f-4e2d-88ac-a30c3441c1ac","ios":"levelo://app?vid=deb9b5a2-7d0f-4e2d-88ac-a30c3441c1ac"},"vehicle_type_id":"4","last_reported":1784645653,"current_range_meters":3600,"station_id":"ce4bhmp2rcd13ifvqgog","pricing_plan_id":"cebpf4jnsgd1na2vs0mg"},{"bike_id":"bffb00a2-e6cf-40e4-89d1-0ad8b6a49820","system_id":"levelo_inurba_marseille","lat":43.304654,"lon":5.379203,"is_reserved":false,"is_disabled":false,"rental_uris":{"android":"levelo://app?vid=bffb00a2-e6cf-40e4-89d1-0ad8b6a49820","ios":"levelo://app?vid=bffb00a2-e6cf-40e4-89d1-0ad8b6a49820"},"vehicle_type_id":"4","last_reported":1784645653,"current_range_meters":3600,"station_id":"ce4bgup2rcd13ifvqcn0","pricing_plan_id":"cebpf4jnsgd1na2vs0mg"},{"bike_id":"93cc35e8-f4b2-44f6-9368-0de783ac45fc","system_id":"levelo_inurba_marseille","lat":43.225338,"lon":5.34829,"is_reserved":false,"is_disabled":false,"rental_uris":{"android":"levelo://app?vid=93cc35e8-f4b2-44f6-9368-0de783ac45fc","ios":"levelo://app?vid=93cc35e8-f4b2-44f6-9368-0de783ac45fc"},"vehicle_type_id":"4","last_reported":1784645653,"current_range_meters":3600,"station_id":"st_cvj5dfep6f1abm77gieg","pricing_plan_id":"cebpf4jnsgd1na2vs0mg"},{"bike_id":"143b0326-bcc2-41fe-ac94-ce3903ac509a","system_id":"levelo_inurba_marseille","lat":43.30832,"lon":5.4043,"is_reserved":false,"is_disabled":false,"rental_uris":{"android":"levelo://app?vid=143b0326-bcc2-41fe-ac94-ce3903ac509a","ios":"levelo://app?vid=143b0326-bcc2-41fe-ac94-ce3903ac509a"},"vehicle_type_id":"4","last_reported":1784645653,"current_range_meters":4000,"station_id":"","pricing_plan_id":"cebpf4jnsgd1na2vs0mg"},{"bike_id":"7bef6c0a-30f8-4782-a1f4-2dd856774910","system_id":"levelo_inurba_marseille","lat":43.26546,"lon":5.37289,"is_reserved":false,"is_disabled":false,"rental_uris":{"android":"levelo://app?vid=7bef6c0a-30f8-4782-a1f4-2dd856774910","ios":"levelo://app?vid=7bef6c0a-30f8-4782-a1f4-2dd856774910"},"vehicle_type_id":"4","last_reported":1784645653,"current_range_meters":4000,"station_id":"ce4bhg12rcd13ifvqf70","pricing_plan_id":"cebpf4jnsgd1na2vs0mg"},{"bike_id":"0887bece-2d4f-4e80-973b-13908d13331a","system_id":"levelo_inurba_marseille","lat":43.24868,"lon":5.37347,"is_reserved":false,"is_disabled":false,"rental_uris":{"android":"levelo://app?vid=0887bece-2d4f-4e80-973b-13908d13331a","ios":"levelo://app?vid=0887bece-2d4f-4e80-973b-13908d13331a"},"vehicle_type_id":"4","last_reported":1784645653,"current_range_meters":4000,"station_id":"","pricing_plan_id":"cebpf4jnsgd1na2vs0mg"},{"bike_id":"6f4d32dd-3458-40de-a570-9315593565a6","system_id":"levelo_inurba_marseille","lat":43.24054,"lon":5.3778,"is_reserved":false,"is_disabled":false,"rental_uris":{"android":"levelo://app?vid=6f4d32dd-3458-40de-a570-9315593565a6","ios":"levelo://app?vid=6f4d32dd-3458-40de-a570-9315593565a6"},"vehicle_type_id":"4","last_reported":1784645653,"current_range_meters":4000,"station_id":"ce4bhnp2rcd13ifvqgvg","pricing_plan_id":"cebpf4jnsgd1na2vs0mg"},{"bike_id":"3dc5c94a-91b9-4004-95ec-7064c9b53155","system_id":"levelo_inurba_marseille","lat":43.28706,"lon":5.46686,"is_reserved":false,"is_disabled":false,"rental_uris":{"android":"levelo://app?vid=3dc5c94a-91b9-4004-95ec-7064c9b53155","ios":"levelo://app?vid=3dc5c94a-91b9-4004-95ec-7064c9b53155"},"vehicle_type_id":"4","last_reported":1784645653,"current_range_meters":4000,"station_id":"st_d6tc3vkotcvc738tfjhg","pricing_plan_id":"cebpf4jnsgd1na2vs0mg"},{"bike_id":"c959a0d8-a43b-4b91-be9a-464342ecdbcb","system_id":"levelo_inurba_marseille","lat":43.29271,"lon":5.36839,"is_reserved":false,"is_disabled":true,"rental_uris":{"android":"levelo://app?vid=c959a0d8-a43b-4b91-be9a-464342ecdbcb","ios":"levelo://app?vid=c959a0d8-a43b-4b91-be9a-464342ecdbcb"},"vehicle_type_id":"4","last_reported":1784645653,"current_range_meters":4000,"station_id":"","pricing_plan_id":"cebpf4jnsgd1na2vs0mg"},{"bike_id":"6edf6ad6-445e-4525-9fbd-252d4cae4aca","system_id":"levelo_inurba_marseille","lat":43.29366,"lon":5.38191,"is_reserved":false,"is_disabled":false,"rental_uris":{"android":"levelo://app?vid=6edf6ad6-445e-4525-9fbd-252d4cae4aca","ios":"levelo://app?vid=6edf6ad6-445e-4525-9fbd-252d4cae4aca"},"vehicle_type_id":"4","last_reported":1784645653,"current_range_meters":4000,"station_id":"","pricing_plan_id":"cebpf4jnsgd1na2vs0mg"},{"bike_id":"d97e9252-f2ec-42b3-899a-35449d25dc7b","system_id":"levelo_inurba_marseille","lat":43.2601,"lon":5.37543,"is_reserved":false,"is_disabled":false,"rental_uris":{"android":"levelo://app?vid=d97e9252-f2ec-42b3-899a-35449d25dc7b","ios":"levelo://app?vid=d97e9252-f2ec-42b3-899a-35449d25dc7b"},"vehicle_type_id":"4","last_reported":1784645653,"current_range_meters":4000,"station_id":"ce4bhgh2rcd13ifvqfa0","pricing_plan_id":"cebpf4jnsgd1na2vs0mg"},{"bike_id":"c9ea0748-106e-40e1-aa41-01d81f5f146d","system_id":"levelo_inurba_marseille","lat":43.21755,"lon":5.34611,"is_reserved":false,"is_disabled":false,"rental_uris":{"android":"levelo://app?vid=c9ea0748-106e-40e1-aa41-01d81f5f146d","ios":"levelo://app?vid=c9ea0748-106e-40e1-aa41-01d81f5f146d"},"vehicle_type_id":"4","last_reported":1784645653,"current_range_meters":4000,"station_id":"st_cvj6r9ubvosntc0bgbag","pricing_plan_id":"cebpf4jnsgd1na2vs0mg"},{"bike_id":"c356d87f-5267-4bd2-ab01-b783e780e0b1","system_id":"levelo_inurba_marseille","lat":43.21193,"lon":5.35062,"is_reserved":false,"is_disabled":false,"rental_uris":{"android":"levelo://app?vid=c356d87f-5267-4bd2-ab01-b783e780e0b1","ios":"levelo://app?vid=c356d87f-5267-4bd2-ab01-b783e780e0b1"},"vehicle_type_id":"4","last_reported":1784645653,"current_range_meters":4000,"station_id":"st_cvj6sg6p6f1abm77japg","pricing_plan_id":"cebpf4jnsgd1na2vs0mg"},{"bike_id":"14c58f5c-5159-4f74-b24f-cc07dfc07cdb","system_id":"levelo_inurba_marseille","lat":43.2256,"lon":5.41633,"is_reserved":false,"is_disabled":false,"rental_uris":{"android":"levelo://app?vid=14c58f5c-5159-4f74-b24f-cc07dfc07cdb","ios":"levelo://app?vid=14c58f5c-5159-4f74-b24f-cc07dfc07cdb"},"vehicle_type_id":"4","last_reported":1784645653,"current_range_meters":4000,"station_id":"st_d2o4gvlbi1j2169b742g","pricing_plan_id":"cebpf4jnsgd1na2vs0mg"},{"bike_id":"0e86ed0e-c3f8-4ff0-9c42-756db0aa108a","system_id":"levelo_inurba_marseille","lat":43.24953,"lon":5.4049,"is_reserved":false,"is_disabled":false,"rental_uris":{"android":"levelo://app?vid=0e86ed0e-c3f8-4ff0-9c42-756db0aa108a","ios":"levelo://app?vid=0e86ed0e-c3f8-4ff0-9c42-756db0aa108a"},"vehicle_type_id":"4","last_reported":1784645653,"current_range_meters":4000,"station_id":"st_d2ngiaodas8pm72gd1h0","pricing_plan_id":"cebpf4jnsgd1na2vs0mg"},{"bike_id":"8bf62a82-2ebe-4631-b96f-5c38569543f4","system_id":"levelo_inurba_marseille","lat":43.29225,"lon":5.36061,"is_reserved":false,"is_disabled":false,"rental_uris":{"android":"levelo://app?vid=8bf62a82-2ebe-4631-b96f-5c38569543f4","ios":"levelo://app?vid=8bf62a82-2ebe-4631-b96f-5c38569543f4"},"vehicle_type_id":"4","last_reported":1784645653,"current_range_meters":4000,"station_id":"","pricing_plan_id":"cebpf4jnsgd1na2vs0mg"},{"bike_id":"cdc30000-65e1-4564-9ea0-9371e1291130","system_id":"levelo_inurba_marseille","lat":43.27841,"lon":5.39203,"is_reserved":false,"is_disabled":false,"rental_uris":{"android":"levelo://app?vid=cdc30000-65e1-4564-9ea0-9371e1291130","ios":"levelo://app?vid=cdc30000-65e1-4564-9ea0-9371e1291130"},"vehicle_type_id":"4","last_reported":1784645653,"current_range_meters":4400,"station_id":"ce4bhjp2rcd13ifvqga0","pricing_plan_id":"cebpf4jnsgd1na2vs0mg"},{"bike_id":"1ae20384-5ccd-4145-9a1d-f626b16c7a9e","system_id":"levelo_inurba_marseille","lat":43.31139,"lon":5.46452,"is_reserved":false,"is_disabled":false,"rental_uris":{"android":"levelo://app?vid=1ae20384-5ccd-4145-9a1d-f626b16c7a9e","ios":"levelo://app?vid=1ae20384-5ccd-4145-9a1d-f626b16c7a9e"},"vehicle_type_id":"4","last_reported":1784645653,"current_range_meters":4400,"station_id":"","pricing_plan_id":"cebpf4jnsgd1na2vs0mg"},{"bike_id":"beea9659-37de-455f-8abd-3d88a39e6fba","system_id":"levelo_inurba_marseille","lat":43.2418,"lon":5.39732,"is_reserved":false,"is_disabled":false,"rental_uris":{"android":"levelo://app?vid=beea9659-37de-455f-8abd-3d88a39e6fba","ios":"levelo://app?vid=beea9659-37de-455f-8abd-3d88a39e6fba"},"vehicle_type_id":"4","last_reported":1784645653,"current_range_meters":4400,"station_id":"ce4bhn12rcd13ifvqgpg","pricing_plan_id":"cebpf4jnsgd1na2vs0mg"},{"bike_id":"1378dd7a-8710-457a-b701-f563e82ed61f","system_id":"levelo_inurba_marseille","lat":43.27374,"lon":5.36261,"is_reserved":false,"is_disabled":false,"rental_uris":{"android":"levelo://app?vid=1378dd7a-8710-457a-b701-f563e82ed61f","ios":"levelo://app?vid=1378dd7a-8710-457a-b701-f563e82ed61f"},"vehicle_type_id":"4","last_reported":1784645653,"current_range_meters":4400,"station_id":"ce4bhbh2rcd13ifvqeo0","pricing_plan_id":"cebpf4jnsgd1na2vs0mg"},{"bike_id":"0653481e-5d3b-40c2-a722-ac9021ff5618","system_id":"levelo_inurba_marseille","lat":43.30901,"lon":5.37204,"is_reserved":false,"is_disabled":false,"rental_uris":{"android":"levelo://app?vid=0653481e-5d3b-40c2-a722-ac9021ff5618","ios":"levelo://app?vid=0653481e-5d3b-40c2-a722-ac9021ff5618"},"vehicle_type_id":"4","last_reported":1784645653,"current_range_meters":4400,"station_id":"ce4bguh2rcd13ifvqckg","pricing_plan_id":"cebpf4jnsgd1na2vs0mg"},{"bike_id":"96281119-528f-49b7-83ef-269871b67b55","system_id":"levelo_inurba_marseille","lat":43.30407,"lon":5.41272,"is_reserved":false,"is_disabled":false,"rental_uris":{"android":"levelo://app?vid=96281119-528f-49b7-83ef-269871b67b55","ios":"levelo://app?vid=96281119-528f-49b7-83ef-269871b67b55"},"vehicle_type_id":"4","last_reported":1784645653,"current_range_meters":4400,"station_id":"ce4bhop2rcd13ifvqh8g","pricing_plan_id":"cebpf4jnsgd1na2vs0mg"},{"bike_id":"472db486-7bf9-44da-865a-2d96eba81268","system_id":"levelo_inurba_marseille","lat":43.29522,"lon":5.38151,"is_reserved":false,"is_disabled":false,"rental_uris":{"android":"levelo://app?vid=472db486-7bf9-44da-865a-2d96eba81268","ios":"levelo://app?vid=472db486-7bf9-44da-865a-2d96eba81268"},"vehicle_type_id":"4","last_reported":1784645653,"current_range_meters":4400,"station_id":"","pricing_plan_id":"cebpf4jnsgd1na2vs0mg"},{"bike_id":"996aec46-887c-4c90-bfff-10977e2a64dd","system_id":"levelo_inurba_marseille","lat":43.2842,"lon":5.34985,"is_reserved":false,"is_disabled":false,"rental_uris":{"android":"levelo://app?vid=996aec46-887c-4c90-bfff-10977e2a64dd","ios":"levelo://app?vid=996aec46-887c-4c90-bfff-10977e2a64dd"},"vehicle_type_id":"4","last_reported":1784645653,"current_range_meters":4400,"station_id":"ce4bhbh2rcd13ifvqepg","pricing_plan_id":"cebpf4jnsgd1na2vs0mg"},{"bike_id":"40051253-f74f-48f6-84b1-585eac76a723","system_id":"levelo_inurba_marseille","lat":43.33593,"lon":5.41013,"is_reserved":false,"is_disabled":false,"rental_uris":{"android":"levelo://app?vid=40051253-f74f-48f6-84b1-585eac76a723","ios":"levelo://app?vid=40051253-f74f-48f6-84b1-585eac76a723"},"vehicle_type_id":"4","last_reported":1784645653,"current_range_meters":4400,"station_id":"ce4bhqh2rcd13ifvqhmg","pricing_plan_id":"cebpf4jnsgd1na2vs0mg"},{"bike_id":"3adaa436-b43b-48cb-8b46-f9ab5d9a6fa2","system_id":"levelo_inurba_marseille","lat":43.29032,"lon":5.43284,"is_reserved":false,"is_disabled":false,"rental_uris":{"android":"levelo://app?vid=3adaa436-b43b-48cb-8b46-f9ab5d9a6fa2","ios":"levelo://app?vid=3adaa436-b43b-48cb-8b46-f9ab5d9a6fa2"},"vehicle_type_id":"4","last_reported":1784645653,"current_range_meters":4400,"station_id":"","pricing_plan_id":"cebpf4jnsgd1na2vs0mg"},{"bike_id":"a9962570-c2a2-41c8-a29d-154b817fefaa","system_id":"levelo_inurba_marseille","lat":43.24475,"lon":5.41086,"is_reserved":false,"is_disabled":false,"rental_uris":{"android":"levelo://app?vid=a9962570-c2a2-41c8-a29d-154b817fefaa","ios":"levelo://app?vid=a9962570-c2a2-41c8-a29d-154b817fefaa"},"vehicle_type_id":"4","last_reported":1784645653,"current_range_meters":4800,"station_id":"","pricing_plan_id":"cebpf4jnsgd1na2vs0mg"},{"bike_id":"ad35192f-f87b-46a0-8701-d421f3c63dae","system_id":"levelo_inurba_marseille","lat":43.30141,"lon":5.38783,"is_reserved":false,"is_disabled":false,"rental_uris":{"android":"levelo://app?vid=ad35192f-f87b-46a0-8701-d421f3c63dae","ios":"levelo://app?vid=ad35192f-f87b-46a0-8701-d421f3c63dae"},"vehicle_type_id":"4","last_reported":1784645653,"current_range_meters":4800,"station_id":"ce4bghh2rcd13ifvqb60","pricing_plan_id":"cebpf4jnsgd1na2vs0mg"},{"bike_id":"e03e6219-d721-4992-8b26-a4cd161aebc9","system_id":"levelo_inurba_marseille","lat":43.24798,"lon":5.39924,"is_reserved":false,"is_disabled":false,"rental_uris":{"android":"levelo://app?vid=e03e6219-d721-4992-8b26-a4cd161aebc9","ios":"levelo://app?vid=e03e6219-d721-4992-8b26-a4cd161aebc9"},"vehicle_type_id":"4","last_reported":1784645653,"current_range_meters":4800,"station_id":"","pricing_plan_id":"cebpf4jnsgd1na2vs0mg"},{"bike_id":"e4a8b9e3-c52a-4443-b1d6-b105c6d39104","system_id":"levelo_inurba_marseille","lat":43.26438,"lon":5.37106,"is_reserved":false,"is_disabled":true,"rental_uris":{"android":"levelo://app?vid=e4a8b9e3-c52a-4443-b1d6-b105c6d39104","ios":"levelo://app?vid=e4a8b9e3-c52a-4443-b1d6-b105c6d39104"},"vehicle_type_id":"4","last_reported":1784645653,"current_range_meters":4800,"station_id":"","pricing_plan_id":"cebpf4jnsgd1na2vs0mg"},{"bike_id":"66a46e96-f3a8-4f06-9deb-f767afcc03f8","system_id":"levelo_inurba_marseille","lat":43.26206,"lon":5.37438,"is_reserved":false,"is_disabled":false,"rental_uris":{"android":"levelo://app?vid=66a46e96-f3a8-4f06-9deb-f767afcc03f8","ios":"levelo://app?vid=66a46e96-f3a8-4f06-9deb-f767afcc03f8"},"vehicle_type_id":"4","last_reported":1784645653,"current_range_meters":4800,"station_id":"ce4bhgp2rcd13ifvqfc0","pricing_plan_id":"cebpf4jnsgd1na2vs0mg"},{"bike_id":"7da8c3e4-a955-46c7-8d93-5ca4059510a4","system_id":"levelo_inurba_marseille","lat":43.30217,"lon":5.38857,"is_reserved":false,"is_disabled":false,"rental_uris":{"android":"levelo://app?vid=7da8c3e4-a955-46c7-8d93-5ca4059510a4","ios":"levelo://app?vid=7da8c3e4-a955-46c7-8d93-5ca4059510a4"},"vehicle_type_id":"4","last_reported":1784645653,"current_range_meters":4800,"station_id":"","pricing_plan_id":"cebpf4jnsgd1na2vs0mg"},{"bike_id":"fa8d3f44-2898-4555-860f-7b3f9a929035","system_id":"levelo_inurba_marseille","lat":43.26932,"lon":5.38917,"is_reserved":false,"is_disabled":false,"rental_uris":{"android":"levelo://app?vid=fa8d3f44-2898-4555-860f-7b3f9a929035","ios":"levelo://app?vid=fa8d3f44-2898-4555-860f-7b3f9a929035"},"vehicle_type_id":"4","last_reported":1784645653,"current_range_meters":4800,"station_id":"ce4bhhh2rcd13ifvqfl0","pricing_plan_id":"cebpf4jnsgd1na2vs0mg"},{"bike_id":"1d9536b0-bb9c-45fd-88cf-878234fc39a5","system_id":"levelo_inurba_marseille","lat":43.24644,"lon":5.41612,"is_reserved":false,"is_disabled":false,"rental_uris":{"android":"levelo://app?vid=1d9536b0-bb9c-45fd-88cf-878234fc39a5","ios":"levelo://app?vid=1d9536b0-bb9c-45fd-88cf-878234fc39a5"},"vehicle_type_id":"4","last_reported":1784645653,"current_range_meters":4800,"station_id":"","pricing_plan_id":"cebpf4jnsgd1na2vs0mg"},{"bike_id":"319f03c8-ea37-4b6e-87b5-d298cacfbc18","system_id":"levelo_inurba_marseille","lat":43.29026,"lon":5.38643,"is_reserved":false,"is_disabled":false,"rental_uris":{"android":"levelo://app?vid=319f03c8-ea37-4b6e-87b5-d298cacfbc18","ios":"levelo://app?vid=319f03c8-ea37-4b6e-87b5-d298cacfbc18"},"vehicle_type_id":"4","last_reported":1784645653,"current_range_meters":4800,"station_id":"ce4bh4p2rcd13ifvqe0g","pricing_plan_id":"cebpf4jnsgd1na2vs0mg"},{"bike_id":"c61b03c7-bdcc-4b43-9eb2-16cb8d8e68f6","system_id":"levelo_inurba_marseille","lat":43.33529,"lon":5.37513,"is_reserved":false,"is_disabled":false,"rental_uris":{"android":"levelo://app?vid=c61b03c7-bdcc-4b43-9eb2-16cb8d8e68f6","ios":"levelo://app?vid=c61b03c7-bdcc-4b43-9eb2-16cb8d8e68f6"},"vehicle_type_id":"4","last_reported":1784645653,"current_range_meters":5600,"station_id":"","pricing_plan_id":"cebpf4jnsgd1na2vs0mg"},{"bike_id":"97d170f8-b4d7-4c6f-bccf-c1df5a4c63f6","system_id":"levelo_inurba_marseille","lat":43.28264,"lon":5.35082,"is_reserved":false,"is_disabled":false,"rental_uris":{"android":"levelo://app?vid=97d170f8-b4d7-4c6f-bccf-c1df5a4c63f6","ios":"levelo://app?vid=97d170f8-b4d7-4c6f-bccf-c1df5a4c63f6"},"vehicle_type_id":"4","last_reported":1784645653,"current_range_meters":5600,"station_id":"ce4bhbp2rcd13ifvqerg","pricing_plan_id":"cebpf4jnsgd1na2vs0mg"},{"bike_id":"489d4e83-3aa3-449d-a2ce-274b8bbe70f0","system_id":"levelo_inurba_marseille","lat":43.30124,"lon":5.43115,"is_reserved":false,"is_disabled":false,"rental_uris":{"android":"levelo://app?vid=489d4e83-3aa3-449d-a2ce-274b8bbe70f0","ios":"levelo://app?vid=489d4e83-3aa3-449d-a2ce-274b8bbe70f0"},"vehicle_type_id":"4","last_reported":1784645653,"current_range_meters":5600,"station_id":"st_d3js3co5814s73ftftug","pricing_plan_id":"cebpf4jnsgd1na2vs0mg"},{"bike_id":"c5f2fb66-30d9-4cc8-ba12-ddf356dbdf5b","system_id":"levelo_inurba_marseille","lat":43.33139,"lon":5.37711,"is_reserved":false,"is_disabled":false,"rental_uris":{"android":"levelo://app?vid=c5f2fb66-30d9-4cc8-ba12-ddf356dbdf5b","ios":"levelo://app?vid=c5f2fb66-30d9-4cc8-ba12-ddf356dbdf5b"},"vehicle_type_id":"4","last_reported":1784645653,"current_range_meters":5600,"station_id":"st_d46cu089ee8s73dldbu0","pricing_plan_id":"cebpf4jnsgd1na2vs0mg"},{"bike_id":"f07902e8-bab7-4fab-8a5b-abe7dedcfe8a","system_id":"levelo_inurba_marseille","lat":43.22834,"lon":5.441,"is_reserved":false,"is_disabled":false,"rental_uris":{"android":"levelo://app?vid=f07902e8-bab7-4fab-8a5b-abe7dedcfe8a","ios":"levelo://app?vid=f07902e8-bab7-4fab-8a5b-abe7dedcfe8a"},"vehicle_type_id":"4","last_reported":1784645653,"current_range_meters":5600,"station_id":"","pricing_plan_id":"cebpf4jnsgd1na2vs0mg"},{"bike_id":"2579bf3d-f1f8-4484-8f57-db533dfc4340","system_id":"levelo_inurba_marseille","lat":43.29571,"lon":5.38073,"is_reserved":false,"is_disabled":false,"rental_uris":{"android":"levelo://app?vid=2579bf3d-f1f8-4484-8f57-db533dfc4340","ios":"levelo://app?vid=2579bf3d-f1f8-4484-8f57-db533dfc4340"},"vehicle_type_id":"4","last_reported":1784645653,"current_range_meters":5600,"station_id":"ce4bgl12rcd13ifvqbo0","pricing_plan_id":"cebpf4jnsgd1na2vs0mg"},{"bike_id":"f3da1450-b759-4c75-8515-28cb50f5af77","system_id":"levelo_inurba_marseille","lat":43.31586,"lon":5.40627,"is_reserved":false,"is_disabled":false,"rental_uris":{"android":"levelo://app?vid=f3da1450-b759-4c75-8515-28cb50f5af77","ios":"levelo://app?vid=f3da1450-b759-4c75-8515-28cb50f5af77"},"vehicle_type_id":"4","last_reported":1784645653,"current_range_meters":5600,"station_id":"","pricing_plan_id":"cebpf4jnsgd1na2vs0mg"},{"bike_id":"82c094ba-6621-432a-9b61-3b9614be9311","system_id":"levelo_inurba_marseille","lat":43.27536,"lon":5.40957,"is_reserved":false,"is_disabled":false,"rental_uris":{"android":"levelo://app?vid=82c094ba-6621-432a-9b61-3b9614be9311","ios":"levelo://app?vid=82c094ba-6621-432a-9b61-3b9614be9311"},"vehicle_type_id":"4","last_reported":1784645653,"current_range_meters":5600,"station_id":"","pricing_plan_id":"cebpf4jnsgd1na2vs0mg"},{"bike_id":"17b67c8f-a240-4d05-92eb-b3b205fb6264","system_id":"levelo_inurba_marseille","lat":43.29969,"lon":5.38477,"is_reserved":false,"is_disabled":false,"rental_uris":{"android":"levelo://app?vid=17b67c8f-a240-4d05-92eb-b3b205fb6264","ios":"levelo://app?vid=17b67c8f-a240-4d05-92eb-b3b205fb6264"},"vehicle_type_id":"4","last_reported":1784645653,"current_range_meters":5600,"station_id":"ce4bgj92rcd13ifvqbd0","pricing_plan_id":"cebpf4jnsgd1na2vs0mg"},{"bike_id":"cb50fffd-3666-4f08-a0f8-1ef1f6e3996c","system_id":"levelo_inurba_marseille","lat":43.29278,"lon":5.36837,"is_reserved":false,"is_disabled":false,"rental_uris":{"android":"levelo://app?vid=cb50fffd-3666-4f08-a0f8-1ef1f6e3996c","ios":"levelo://app?vid=cb50fffd-3666-4f08-a0f8-1ef1f6e3996c"},"vehicle_type_id":"4","last_reported":1784645653,"current_range_meters":5600,"station_id":"","pricing_plan_id":"cebpf4jnsgd1na2vs0mg"},{"bike_id":"4c0e132b-4538-447c-98d0-876c00bb96ef","system_id":"levelo_inurba_marseille","lat":43.2962,"lon":5.38091,"is_reserved":false,"is_disabled":false,"rental_uris":{"android":"levelo://app?vid=4c0e132b-4538-447c-98d0-876c00bb96ef","ios":"levelo://app?vid=4c0e132b-4538-447c-98d0-876c00bb96ef"},"vehicle_type_id":"4","last_reported":1784645653,"current_range_meters":5600,"station_id":"ce4bgl12rcd13ifvqbo0","pricing_plan_id":"cebpf4jnsgd1na2vs0mg"},{"bike_id":"9c4a2b7c-2e3b-44d9-ab9e-f8f3f7ec735e","system_id":"levelo_inurba_marseille","lat":43.21188,"lon":5.35076,"is_reserved":false,"is_disabled":false,"rental_uris":{"android":"levelo://app?vid=9c4a2b7c-2e3b-44d9-ab9e-f8f3f7ec735e","ios":"levelo://app?vid=9c4a2b7c-2e3b-44d9-ab9e-f8f3f7ec735e"},"vehicle_type_id":"4","last_reported":1784645653,"current_range_meters":5600,"station_id":"st_cvj6sg6p6f1abm77japg","pricing_plan_id":"cebpf4jnsgd1na2vs0mg"},{"bike_id":"203199c1-71e0-4e22-a19a-da7a8cf7c938","system_id":"levelo_inurba_marseille","lat":43.30187,"lon":5.36622,"is_reserved":false,"is_disabled":false,"rental_uris":{"android":"levelo://app?vid=203199c1-71e0-4e22-a19a-da7a8cf7c938","ios":"levelo://app?vid=203199c1-71e0-4e22-a19a-da7a8cf7c938"},"vehicle_type_id":"4","last_reported":1784645653,"current_range_meters":5600,"station_id":"ce4bgrh2rcd13ifvqc8g","pricing_plan_id":"cebpf4jnsgd1na2vs0mg"},{"bike_id":"df8f4a4d-9f13-4f28-9bf9-46b162157317","system_id":"levelo_inurba_marseille","lat":43.28616,"lon":5.35105,"is_reserved":false,"is_disabled":false,"rental_uris":{"android":"levelo://app?vid=df8f4a4d-9f13-4f28-9bf9-46b162157317","ios":"levelo://app?vid=df8f4a4d-9f13-4f28-9bf9-46b162157317"},"vehicle_type_id":"4","last_reported":1784645653,"current_range_meters":5600,"station_id":"ce4bhch2rcd13ifvqeug","pricing_plan_id":"cebpf4jnsgd1na2vs0mg"},{"bike_id":"6501867b-15c4-4a58-890c-6baad7569cb5","system_id":"levelo_inurba_marseille","lat":43.28604,"lon":5.37055,"is_reserved":false,"is_disabled":false,"rental_uris":{"android":"levelo://app?vid=6501867b-15c4-4a58-890c-6baad7569cb5","ios":"levelo://app?vid=6501867b-15c4-4a58-890c-6baad7569cb5"},"vehicle_type_id":"4","last_reported":1784645653,"current_range_meters":5600,"station_id":"ce4bht12rcd13ifvqi60","pricing_plan_id":"cebpf4jnsgd1na2vs0mg"},{"bike_id":"56e35eae-513e-40ba-a34d-368986699dd6","system_id":"levelo_inurba_marseille","lat":43.25407,"lon":5.37981,"is_reserved":false,"is_disabled":false,"rental_uris":{"android":"levelo://app?vid=56e35eae-513e-40ba-a34d-368986699dd6","ios":"levelo://app?vid=56e35eae-513e-40ba-a34d-368986699dd6"},"vehicle_type_id":"4","last_reported":1784645653,"current_range_meters":5600,"station_id":"","pricing_plan_id":"cebpf4jnsgd1na2vs0mg"},{"bike_id":"f9a4978c-66bc-414a-b059-ba0305add237","system_id":"levelo_inurba_marseille","lat":43.33091,"lon":5.43126,"is_reserved":false,"is_disabled":false,"rental_uris":{"android":"levelo://app?vid=f9a4978c-66bc-414a-b059-ba0305add237","ios":"levelo://app?vid=f9a4978c-66bc-414a-b059-ba0305add237"},"vehicle_type_id":"4","last_reported":1784645653,"current_range_meters":5600,"station_id":"","pricing_plan_id":"cebpf4jnsgd1na2vs0mg"},{"bike_id":"92f85151-daa2-43c8-9d61-8afa8d01f66f","system_id":"levelo_inurba_marseille","lat":43.27816,"lon":5.40717,"is_reserved":false,"is_disabled":false,"rental_uris":{"android":"levelo://app?vid=92f85151-daa2-43c8-9d61-8afa8d01f66f","ios":"levelo://app?vid=92f85151-daa2-43c8-9d61-8afa8d01f66f"},"vehicle_type_id":"4","last_reported":1784645653,"current_range_meters":5600,"station_id":"ce4bhnh2rcd13ifvqgtg","pricing_plan_id":"cebpf4jnsgd1na2vs0mg"},{"bike_id":"4c468adf-1d9e-45f4-9455-4a3d97321091","system_id":"levelo_inurba_marseille","lat":43.2435,"lon":5.38453,"is_reserved":false,"is_disabled":false,"rental_uris":{"android":"levelo://app?vid=4c468adf-1d9e-45f4-9455-4a3d97321091","ios":"levelo://app?vid=4c468adf-1d9e-45f4-9455-4a3d97321091"},"vehicle_type_id":"4","last_reported":1784645653,"current_range_meters":5600,"station_id":"","pricing_plan_id":"cebpf4jnsgd1na2vs0mg"},{"bike_id":"6b302058-2ddd-458c-8dde-0bee53a6f9e4","system_id":"levelo_inurba_marseille","lat":43.24468,"lon":5.42527,"is_reserved":false,"is_disabled":false,"rental_uris":{"android":"levelo://app?vid=6b302058-2ddd-458c-8dde-0bee53a6f9e4","ios":"levelo://app?vid=6b302058-2ddd-458c-8dde-0bee53a6f9e4"},"vehicle_type_id":"4","last_reported":1784645653,"current_range_meters":5600,"station_id":"st_d4a3vfp97mjs738cd8kg","pricing_plan_id":"cebpf4jnsgd1na2vs0mg"},{"bike_id":"6193b969-3961-43c9-bf7c-d68788aa0336","system_id":"levelo_inurba_marseille","lat":43.29034,"lon":5.35602,"is_reserved":false,"is_disabled":false,"rental_uris":{"android":"levelo://app?vid=6193b969-3961-43c9-bf7c-d68788aa0336","ios":"levelo://app?vid=6193b969-3961-43c9-bf7c-d68788aa0336"},"vehicle_type_id":"4","last_reported":1784645653,"current_range_meters":5600,"station_id":"ce4bhb92rcd13ifvqen0","pricing_plan_id":"cebpf4jnsgd1na2vs0mg"},{"bike_id":"61f46f00-12a6-469d-86ba-03b4c49102bd","system_id":"levelo_inurba_marseille","lat":43.31368,"lon":5.38626,"is_reserved":false,"is_disabled":false,"rental_uris":{"android":"levelo://app?vid=61f46f00-12a6-469d-86ba-03b4c49102bd","ios":"levelo://app?vid=61f46f00-12a6-469d-86ba-03b4c49102bd"},"vehicle_type_id":"4","last_reported":1784645653,"current_range_meters":5600,"station_id":"","pricing_plan_id":"cebpf4jnsgd1na2vs0mg"},{"bike_id":"47308e7b-4209-4a15-9853-c005fa69a940","system_id":"levelo_inurba_marseille","lat":43.30534,"lon":5.36529,"is_reserved":false,"is_disabled":false,"rental_uris":{"android":"levelo://app?vid=47308e7b-4209-4a15-9853-c005fa69a940","ios":"levelo://app?vid=47308e7b-4209-4a15-9853-c005fa69a940"},"vehicle_type_id":"4","last_reported":1784645653,"current_range_meters":5600,"station_id":"ce4bgs12rcd13ifvqcag","pricing_plan_id":"cebpf4jnsgd1na2vs0mg"},{"bike_id":"2d9d0803-4771-496d-8925-5b2e232b4636","system_id":"levelo_inurba_marseille","lat":43.2256,"lon":5.4162,"is_reserved":false,"is_disabled":false,"rental_uris":{"android":"levelo://app?vid=2d9d0803-4771-496d-8925-5b2e232b4636","ios":"levelo://app?vid=2d9d0803-4771-496d-8925-5b2e232b4636"},"vehicle_type_id":"4","last_reported":1784645653,"current_range_meters":5600,"station_id":"st_d2o4gvlbi1j2169b742g","pricing_plan_id":"cebpf4jnsgd1na2vs0mg"},{"bike_id":"d0ff93a2-c0dd-4565-9dfb-371695915400","system_id":"levelo_inurba_marseille","lat":43.29961,"lon":5.41325,"is_reserved":false,"is_disabled":false,"rental_uris":{"android":"levelo://app?vid=d0ff93a2-c0dd-4565-9dfb-371695915400","ios":"levelo://app?vid=d0ff93a2-c0dd-4565-9dfb-371695915400"},"vehicle_type_id":"4","last_reported":1784645653,"current_range_meters":6000,"station_id":"ce4bhp12rcd13ifvqh9g","pricing_plan_id":"cebpf4jnsgd1na2vs0mg"},{"bike_id":"65ad9de8-7135-4e55-bf82-697b44118451","system_id":"levelo_inurba_marseille","lat":43.31903,"lon":5.36856,"is_reserved":false,"is_disabled":false,"rental_uris":{"android":"levelo://app?vid=65ad9de8-7135-4e55-bf82-697b44118451","ios":"levelo://app?vid=65ad9de8-7135-4e55-bf82-697b44118451"},"vehicle_type_id":"4","last_reported":1784645653,"current_range_meters":6000,"station_id":"st_d6o2h0d0559c73evc1b0","pricing_plan_id":"cebpf4jnsgd1na2vs0mg"},{"bike_id":"be7033ce-6349-45aa-896a-387ca8ede0b4","system_id":"levelo_inurba_marseille","lat":43.2847,"lon":5.48405,"is_reserved":false,"is_disabled":false,"rental_uris":{"android":"levelo://app?vid=be7033ce-6349-45aa-896a-387ca8ede0b4","ios":"levelo://app?vid=be7033ce-6349-45aa-896a-387ca8ede0b4"},"vehicle_type_id":"4","last_reported":1784645653,"current_range_meters":6000,"station_id":"st_d3svhcjqgbts73a3dn0g","pricing_plan_id":"cebpf4jnsgd1na2vs0mg"},{"bike_id":"1fc8443c-ce65-4cef-9e27-7a7fe91135f0","system_id":"levelo_inurba_marseille","lat":43.33234,"lon":5.36454,"is_reserved":false,"is_disabled":false,"rental_uris":{"android":"levelo://app?vid=1fc8443c-ce65-4cef-9e27-7a7fe91135f0","ios":"levelo://app?vid=1fc8443c-ce65-4cef-9e27-7a7fe91135f0"},"vehicle_type_id":"4","last_reported":1784645653,"current_range_meters":6000,"station_id":"","pricing_plan_id":"cebpf4jnsgd1na2vs0mg"},{"bike_id":"300434e3-033f-4cfe-afb5-86f6b36b6890","system_id":"levelo_inurba_marseille","lat":43.31395,"lon":5.40688,"is_reserved":false,"is_disabled":false,"rental_uris":{"android":"levelo://app?vid=300434e3-033f-4cfe-afb5-86f6b36b6890","ios":"levelo://app?vid=300434e3-033f-4cfe-afb5-86f6b36b6890"},"vehicle_type_id":"4","last_reported":1784645653,"current_range_meters":6000,"station_id":"","pricing_plan_id":"cebpf4jnsgd1na2vs0mg"},{"bike_id":"3996f6c9-7d50-43e8-a5c2-4cb55658a8bf","system_id":"levelo_inurba_marseille","lat":43.30444,"lon":5.37908,"is_reserved":false,"is_disabled":false,"rental_uris":{"android":"levelo://app?vid=3996f6c9-7d50-43e8-a5c2-4cb55658a8bf","ios":"levelo://app?vid=3996f6c9-7d50-43e8-a5c2-4cb55658a8bf"},"vehicle_type_id":"4","last_reported":1784645653,"current_range_meters":6000,"station_id":"ce4bgup2rcd13ifvqcn0","pricing_plan_id":"cebpf4jnsgd1na2vs0mg"},{"bike_id":"ca1fc5a5-eb19-4806-bfa4-3e0000b411e5","system_id":"levelo_inurba_marseille","lat":43.31214,"lon":5.36837,"is_reserved":false,"is_disabled":false,"rental_uris":{"android":"levelo://app?vid=ca1fc5a5-eb19-4806-bfa4-3e0000b411e5","ios":"levelo://app?vid=ca1fc5a5-eb19-4806-bfa4-3e0000b411e5"},"vehicle_type_id":"4","last_reported":1784645653,"current_range_meters":6000,"station_id":"ce4bgl92rcd13ifvqbq0","pricing_plan_id":"cebpf4jnsgd1na2vs0mg"},{"bike_id":"d1ef5cf5-8754-40bc-be1e-38c559e312e0","system_id":"levelo_inurba_marseille","lat":43.29187,"lon":5.3579,"is_reserved":false,"is_disabled":false,"rental_uris":{"android":"levelo://app?vid=d1ef5cf5-8754-40bc-be1e-38c559e312e0","ios":"levelo://app?vid=d1ef5cf5-8754-40bc-be1e-38c559e312e0"},"vehicle_type_id":"4","last_reported":1784645653,"current_range_meters":6000,"station_id":"ce4bhb12rcd13ifvqel0","pricing_plan_id":"cebpf4jnsgd1na2vs0mg"},{"bike_id":"e043adce-eef3-482c-8d47-d20a4c32ef44","system_id":"levelo_inurba_marseille","lat":43.25515,"lon":5.37654,"is_reserved":false,"is_disabled":true,"rental_uris":{"android":"levelo://app?vid=e043adce-eef3-482c-8d47-d20a4c32ef44","ios":"levelo://app?vid=e043adce-eef3-482c-8d47-d20a4c32ef44"},"vehicle_type_id":"4","last_reported":1784645653,"current_range_meters":6000,"station_id":"ce4bhh12rcd13ifvqff0","pricing_plan_id":"cebpf4jnsgd1na2vs0mg"},{"bike_id":"3e165dbd-01dc-4736-ae3c-0cb944c2654c","system_id":"levelo_inurba_marseille","lat":43.30903,"lon":5.37205,"is_reserved":false,"is_disabled":false,"rental_uris":{"android":"levelo://app?vid=3e165dbd-01dc-4736-ae3c-0cb944c2654c","ios":"levelo://app?vid=3e165dbd-01dc-4736-ae3c-0cb944c2654c"},"vehicle_type_id":"4","last_reported":1784645653,"current_range_meters":6000,"station_id":"ce4bguh2rcd13ifvqckg","pricing_plan_id":"cebpf4jnsgd1na2vs0mg"},{"bike_id":"c643090c-965e-4d55-9c83-69147b73213b","system_id":"levelo_inurba_marseille","lat":43.28427,"lon":5.34994,"is_reserved":false,"is_disabled":false,"rental_uris":{"android":"levelo://app?vid=c643090c-965e-4d55-9c83-69147b73213b","ios":"levelo://app?vid=c643090c-965e-4d55-9c83-69147b73213b"},"vehicle_type_id":"4","last_reported":1784645653,"current_range_meters":6000,"station_id":"ce4bhbh2rcd13ifvqepg","pricing_plan_id":"cebpf4jnsgd1na2vs0mg"},{"bike_id":"ac438893-7e3a-4c3c-a5e3-9838f4574042","system_id":"levelo_inurba_marseille","lat":43.30474,"lon":5.37906,"is_reserved":false,"is_disabled":false,"rental_uris":{"android":"levelo://app?vid=ac438893-7e3a-4c3c-a5e3-9838f4574042","ios":"levelo://app?vid=ac438893-7e3a-4c3c-a5e3-9838f4574042"},"vehicle_type_id":"4","last_reported":1784645653,"current_range_meters":6000,"station_id":"ce4bgup2rcd13ifvqcn0","pricing_plan_id":"cebpf4jnsgd1na2vs0mg"},{"bike_id":"18814497-5724-46e1-ac10-ad46ebd53e18","system_id":"levelo_inurba_marseille","lat":43.32045,"lon":5.3678,"is_reserved":false,"is_disabled":false,"rental_uris":{"android":"levelo://app?vid=18814497-5724-46e1-ac10-ad46ebd53e18","ios":"levelo://app?vid=18814497-5724-46e1-ac10-ad46ebd53e18"},"vehicle_type_id":"4","last_reported":1784645653,"current_range_meters":6400,"station_id":"","pricing_plan_id":"cebpf4jnsgd1na2vs0mg"},{"bike_id":"28510ffc-cfd4-4767-bd9c-21b68da4e0a3","system_id":"levelo_inurba_marseille","lat":43.28038,"lon":5.36935,"is_reserved":false,"is_disabled":false,"rental_uris":{"android":"levelo://app?vid=28510ffc-cfd4-4767-bd9c-21b68da4e0a3","ios":"levelo://app?vid=28510ffc-cfd4-4767-bd9c-21b68da4e0a3"},"vehicle_type_id":"4","last_reported":1784645653,"current_range_meters":6400,"station_id":"ce4bha12rcd13ifvqef0","pricing_plan_id":"cebpf4jnsgd1na2vs0mg"},{"bike_id":"edbe0ca6-3c8c-48d7-8fcf-68feb43c2c8e","system_id":"levelo_inurba_marseille","lat":43.28269,"lon":5.35067,"is_reserved":false,"is_disabled":false,"rental_uris":{"android":"levelo://app?vid=edbe0ca6-3c8c-48d7-8fcf-68feb43c2c8e","ios":"levelo://app?vid=edbe0ca6-3c8c-48d7-8fcf-68feb43c2c8e"},"vehicle_type_id":"4","last_reported":1784645653,"current_range_meters":6400,"station_id":"ce4bhbp2rcd13ifvqerg","pricing_plan_id":"cebpf4jnsgd1na2vs0mg"},{"bike_id":"1823c686-e800-46ca-b2be-e259ee36b0fd","system_id":"levelo_inurba_marseille","lat":43.290087,"lon":5.356207,"is_reserved":false,"is_disabled":false,"rental_uris":{"android":"levelo://app?vid=1823c686-e800-46ca-b2be-e259ee36b0fd","ios":"levelo://app?vid=1823c686-e800-46ca-b2be-e259ee36b0fd"},"vehicle_type_id":"4","last_reported":1784645653,"current_range_meters":6400,"station_id":"ce4bhb92rcd13ifvqen0","pricing_plan_id":"cebpf4jnsgd1na2vs0mg"},{"bike_id":"c5f08406-c4e9-4abb-86ec-5f52aa8d43c6","system_id":"levelo_inurba_marseille","lat":43.28539,"lon":5.44098,"is_reserved":false,"is_disabled":false,"rental_uris":{"android":"levelo://app?vid=c5f08406-c4e9-4abb-86ec-5f52aa8d43c6","ios":"levelo://app?vid=c5f08406-c4e9-4abb-86ec-5f52aa8d43c6"},"vehicle_type_id":"4","last_reported":1784645653,"current_range_meters":6400,"station_id":"st_d3j3df2ikq2c7380ej80","pricing_plan_id":"cebpf4jnsgd1na2vs0mg"},{"bike_id":"ea3c9c7e-74a4-4582-a6c7-6c6d5b536807","system_id":"levelo_inurba_marseille","lat":43.29194,"lon":5.35806,"is_reserved":false,"is_disabled":false,"rental_uris":{"android":"levelo://app?vid=ea3c9c7e-74a4-4582-a6c7-6c6d5b536807","ios":"levelo://app?vid=ea3c9c7e-74a4-4582-a6c7-6c6d5b536807"},"vehicle_type_id":"4","last_reported":1784645653,"current_range_meters":6400,"station_id":"ce4bhb12rcd13ifvqel0","pricing_plan_id":"cebpf4jnsgd1na2vs0mg"},{"bike_id":"32f12c15-6adc-476e-b194-fbfd4d3ff8d2","system_id":"levelo_inurba_marseille","lat":43.30886,"lon":5.39627,"is_reserved":false,"is_disabled":false,"rental_uris":{"android":"levelo://app?vid=32f12c15-6adc-476e-b194-fbfd4d3ff8d2","ios":"levelo://app?vid=32f12c15-6adc-476e-b194-fbfd4d3ff8d2"},"vehicle_type_id":"4","last_reported":1784645653,"current_range_meters":6800,"station_id":"ce4bh012rcd13ifvqcv0","pricing_plan_id":"cebpf4jnsgd1na2vs0mg"},{"bike_id":"0a5ea0fc-c8a1-429f-9d8f-ecb1f7bb061c","system_id":"levelo_inurba_marseille","lat":43.2842,"lon":5.34986,"is_reserved":false,"is_disabled":false,"rental_uris":{"android":"levelo://app?vid=0a5ea0fc-c8a1-429f-9d8f-ecb1f7bb061c","ios":"levelo://app?vid=0a5ea0fc-c8a1-429f-9d8f-ecb1f7bb061c"},"vehicle_type_id":"4","last_reported":1784645653,"current_range_meters":6800,"station_id":"ce4bhbh2rcd13ifvqepg","pricing_plan_id":"cebpf4jnsgd1na2vs0mg"},{"bike_id":"0e109e68-c707-4562-9442-7cf29a8ce387","system_id":"levelo_inurba_marseille","lat":43.31069,"lon":5.37176,"is_reserved":false,"is_disabled":false,"rental_uris":{"android":"levelo://app?vid=0e109e68-c707-4562-9442-7cf29a8ce387","ios":"levelo://app?vid=0e109e68-c707-4562-9442-7cf29a8ce387"},"vehicle_type_id":"4","last_reported":1784645653,"current_range_meters":6800,"station_id":"st_d4kl2rp97mjs73e7tdfg","pricing_plan_id":"cebpf4jnsgd1na2vs0mg"},{"bike_id":"41c8a204-f686-4e21-93aa-162a030d9096","system_id":"levelo_inurba_marseille","lat":43.28603,"lon":5.3511,"is_reserved":false,"is_disabled":false,"rental_uris":{"android":"levelo://app?vid=41c8a204-f686-4e21-93aa-162a030d9096","ios":"levelo://app?vid=41c8a204-f686-4e21-93aa-162a030d9096"},"vehicle_type_id":"4","last_reported":1784645653,"current_range_meters":6800,"station_id":"ce4bhch2rcd13ifvqeug","pricing_plan_id":"cebpf4jnsgd1na2vs0mg"},{"bike_id":"3b5d17c6-c53f-478c-bf21-49dca4f6d955","system_id":"levelo_inurba_marseille","lat":43.30437,"lon":5.38897,"is_reserved":false,"is_disabled":false,"rental_uris":{"android":"levelo://app?vid=3b5d17c6-c53f-478c-bf21-49dca4f6d955","ios":"levelo://app?vid=3b5d17c6-c53f-478c-bf21-49dca4f6d955"},"vehicle_type_id":"4","last_reported":1784645653,"current_range_meters":6800,"station_id":"ce4bgk12rcd13ifvqbi0","pricing_plan_id":"cebpf4jnsgd1na2vs0mg"},{"bike_id":"1851f267-3c7a-40a0-a5ac-e447a9a29f87","system_id":"levelo_inurba_marseille","lat":43.28475,"lon":5.48402,"is_reserved":false,"is_disabled":false,"rental_uris":{"android":"levelo://app?vid=1851f267-3c7a-40a0-a5ac-e447a9a29f87","ios":"levelo://app?vid=1851f267-3c7a-40a0-a5ac-e447a9a29f87"},"vehicle_type_id":"4","last_reported":1784645653,"current_range_meters":6800,"station_id":"st_d3svhcjqgbts73a3dn0g","pricing_plan_id":"cebpf4jnsgd1na2vs0mg"},{"bike_id":"f346c717-21b3-44b2-b1ad-1bc141e6c29b","system_id":"levelo_inurba_marseille","lat":43.30505,"lon":5.36477,"is_reserved":false,"is_disabled":false,"rental_uris":{"android":"levelo://app?vid=f346c717-21b3-44b2-b1ad-1bc141e6c29b","ios":"levelo://app?vid=f346c717-21b3-44b2-b1ad-1bc141e6c29b"},"vehicle_type_id":"4","last_reported":1784645653,"current_range_meters":6800,"station_id":"","pricing_plan_id":"cebpf4jnsgd1na2vs0mg"},{"bike_id":"8f990aee-2b29-45f2-96d6-bc76023e9bd7","system_id":"levelo_inurba_marseille","lat":43.23192,"lon":5.3556,"is_reserved":false,"is_disabled":false,"rental_uris":{"android":"levelo://app?vid=8f990aee-2b29-45f2-96d6-bc76023e9bd7","ios":"levelo://app?vid=8f990aee-2b29-45f2-96d6-bc76023e9bd7"},"vehicle_type_id":"4","last_reported":1784645653,"current_range_meters":6800,"station_id":"ce4bhu92rcd13ifvqi70","pricing_plan_id":"cebpf4jnsgd1na2vs0mg"},{"bike_id":"4bf85544-84dc-4500-9552-7355996688c3","system_id":"levelo_inurba_marseille","lat":43.2913,"lon":5.3769,"is_reserved":false,"is_disabled":false,"rental_uris":{"android":"levelo://app?vid=4bf85544-84dc-4500-9552-7355996688c3","ios":"levelo://app?vid=4bf85544-84dc-4500-9552-7355996688c3"},"vehicle_type_id":"4","last_reported":1784645653,"current_range_meters":6800,"station_id":"","pricing_plan_id":"cebpf4jnsgd1na2vs0mg"},{"bike_id":"31fb090b-6d05-4938-9978-6854f13a3204","system_id":"levelo_inurba_marseille","lat":43.31365,"lon":5.38492,"is_reserved":false,"is_disabled":false,"rental_uris":{"android":"levelo://app?vid=31fb090b-6d05-4938-9978-6854f13a3204","ios":"levelo://app?vid=31fb090b-6d05-4938-9978-6854f13a3204"},"vehicle_type_id":"4","last_reported":1784645653,"current_range_meters":6800,"station_id":"ce4bgt92rcd13ifvqcf0","pricing_plan_id":"cebpf4jnsgd1na2vs0mg"},{"bike_id":"a4e15bf9-7b24-4fd8-b187-39ed75273a73","system_id":"levelo_inurba_marseille","lat":43.21728,"lon":5.34608,"is_reserved":false,"is_disabled":false,"rental_uris":{"android":"levelo://app?vid=a4e15bf9-7b24-4fd8-b187-39ed75273a73","ios":"levelo://app?vid=a4e15bf9-7b24-4fd8-b187-39ed75273a73"},"vehicle_type_id":"4","last_reported":1784645653,"current_range_meters":6800,"station_id":"st_cvj6r9ubvosntc0bgbag","pricing_plan_id":"cebpf4jnsgd1na2vs0mg"},{"bike_id":"efe1a1c6-1569-4879-accc-14f17bba8c6d","system_id":"levelo_inurba_marseille","lat":43.29737,"lon":5.35979,"is_reserved":false,"is_disabled":false,"rental_uris":{"android":"levelo://app?vid=efe1a1c6-1569-4879-accc-14f17bba8c6d","ios":"levelo://app?vid=efe1a1c6-1569-4879-accc-14f17bba8c6d"},"vehicle_type_id":"4","last_reported":1784645653,"current_range_meters":6800,"station_id":"","pricing_plan_id":"cebpf4jnsgd1na2vs0mg"},{"bike_id":"b2d800e5-3728-49d1-8ac5-c09df2267af1","system_id":"levelo_inurba_marseille","lat":43.26151,"lon":5.38177,"is_reserved":false,"is_disabled":false,"rental_uris":{"android":"levelo://app?vid=b2d800e5-3728-49d1-8ac5-c09df2267af1","ios":"levelo://app?vid=b2d800e5-3728-49d1-8ac5-c09df2267af1"},"vehicle_type_id":"4","last_reported":1784645653,"current_range_meters":6800,"station_id":"","pricing_plan_id":"cebpf4jnsgd1na2vs0mg"},{"bike_id":"fecff0c7-27ae-402e-8587-e1d002834990","system_id":"levelo_inurba_marseille","lat":43.28351,"lon":5.46011,"is_reserved":false,"is_disabled":false,"rental_uris":{"android":"levelo://app?vid=fecff0c7-27ae-402e-8587-e1d002834990","ios":"levelo://app?vid=fecff0c7-27ae-402e-8587-e1d002834990"},"vehicle_type_id":"4","last_reported":1784645653,"current_range_meters":6800,"station_id":"","pricing_plan_id":"cebpf4jnsgd1na2vs0mg"},{"bike_id":"dc208bb0-4b15-4f83-a368-9331e39d3f37","system_id":"levelo_inurba_marseille","lat":43.23153,"lon":5.437102,"is_reserved":false,"is_disabled":false,"rental_uris":{"android":"levelo://app?vid=dc208bb0-4b15-4f83-a368-9331e39d3f37","ios":"levelo://app?vid=dc208bb0-4b15-4f83-a368-9331e39d3f37"},"vehicle_type_id":"4","last_reported":1784645653,"current_range_meters":7200,"station_id":"ce4bhmp2rcd13ifvqgog","pricing_plan_id":"cebpf4jnsgd1na2vs0mg"},{"bike_id":"f1288106-a8c3-4624-ad2a-44299213b3e2","system_id":"levelo_inurba_marseille","lat":43.29577,"lon":5.3675,"is_reserved":false,"is_disabled":true,"rental_uris":{"android":"levelo://app?vid=f1288106-a8c3-4624-ad2a-44299213b3e2","ios":"levelo://app?vid=f1288106-a8c3-4624-ad2a-44299213b3e2"},"vehicle_type_id":"4","last_reported":1784645653,"current_range_meters":7200,"station_id":"","pricing_plan_id":"cebpf4jnsgd1na2vs0mg"},{"bike_id":"f33493ed-994f-4f08-a4de-95ded251e4a9","system_id":"levelo_inurba_marseille","lat":43.28422,"lon":5.34976,"is_reserved":false,"is_disabled":false,"rental_uris":{"android":"levelo://app?vid=f33493ed-994f-4f08-a4de-95ded251e4a9","ios":"levelo://app?vid=f33493ed-994f-4f08-a4de-95ded251e4a9"},"vehicle_type_id":"4","last_reported":1784645653,"current_range_meters":7200,"station_id":"ce4bhbh2rcd13ifvqepg","pricing_plan_id":"cebpf4jnsgd1na2vs0mg"},{"bike_id":"e602be87-32b9-4118-b8a1-176e1c208fe8","system_id":"levelo_inurba_marseille","lat":43.23143,"lon":5.43719,"is_reserved":false,"is_disabled":false,"rental_uris":{"android":"levelo://app?vid=e602be87-32b9-4118-b8a1-176e1c208fe8","ios":"levelo://app?vid=e602be87-32b9-4118-b8a1-176e1c208fe8"},"vehicle_type_id":"4","last_reported":1784645653,"current_range_meters":7200,"station_id":"ce4bhmp2rcd13ifvqgog","pricing_plan_id":"cebpf4jnsgd1na2vs0mg"},{"bike_id":"5f3aab80-1eb7-445c-8ee0-1acfe4e76309","system_id":"levelo_inurba_marseille","lat":43.25226,"lon":5.37281,"is_reserved":false,"is_disabled":false,"rental_uris":{"android":"levelo://app?vid=5f3aab80-1eb7-445c-8ee0-1acfe4e76309","ios":"levelo://app?vid=5f3aab80-1eb7-445c-8ee0-1acfe4e76309"},"vehicle_type_id":"4","last_reported":1784645653,"current_range_meters":7200,"station_id":"","pricing_plan_id":"cebpf4jnsgd1na2vs0mg"},{"bike_id":"47f16915-4837-4ed5-b765-ac148cf00d48","system_id":"levelo_inurba_marseille","lat":43.29931,"lon":5.37467,"is_reserved":false,"is_disabled":false,"rental_uris":{"android":"levelo://app?vid=47f16915-4837-4ed5-b765-ac148cf00d48","ios":"levelo://app?vid=47f16915-4837-4ed5-b765-ac148cf00d48"},"vehicle_type_id":"4","last_reported":1784645653,"current_range_meters":7200,"station_id":"ce4bgjh2rcd13ifvqbg0","pricing_plan_id":"cebpf4jnsgd1na2vs0mg"},{"bike_id":"210709e9-394d-45b6-a2a6-d625c288378a","system_id":"levelo_inurba_marseille","lat":43.31044,"lon":5.44599,"is_reserved":false,"is_disabled":false,"rental_uris":{"android":"levelo://app?vid=210709e9-394d-45b6-a2a6-d625c288378a","ios":"levelo://app?vid=210709e9-394d-45b6-a2a6-d625c288378a"},"vehicle_type_id":"4","last_reported":1784645653,"current_range_meters":7200,"station_id":"","pricing_plan_id":"cebpf4jnsgd1na2vs0mg"},{"bike_id":"8a867620-8625-40da-aae5-d95d7bca02e8","system_id":"levelo_inurba_marseille","lat":43.31932,"lon":5.36824,"is_reserved":false,"is_disabled":false,"rental_uris":{"android":"levelo://app?vid=8a867620-8625-40da-aae5-d95d7bca02e8","ios":"levelo://app?vid=8a867620-8625-40da-aae5-d95d7bca02e8"},"vehicle_type_id":"4","last_reported":1784645653,"current_range_meters":7200,"station_id":"st_d6o2h0d0559c73evc1b0","pricing_plan_id":"cebpf4jnsgd1na2vs0mg"},{"bike_id":"b3d629b1-168c-4183-90f3-3fdf07d3bac2","system_id":"levelo_inurba_marseille","lat":43.25588,"lon":5.38218,"is_reserved":false,"is_disabled":false,"rental_uris":{"android":"levelo://app?vid=b3d629b1-168c-4183-90f3-3fdf07d3bac2","ios":"levelo://app?vid=b3d629b1-168c-4183-90f3-3fdf07d3bac2"},"vehicle_type_id":"4","last_reported":1784645653,"current_range_meters":7200,"station_id":"ce4bhih2rcd13ifvqfs0","pricing_plan_id":"cebpf4jnsgd1na2vs0mg"},{"bike_id":"d01ba0dc-4ad0-45f8-9908-5ad2e2fdd780","system_id":"levelo_inurba_marseille","lat":43.30133,"lon":5.38783,"is_reserved":false,"is_disabled":false,"rental_uris":{"android":"levelo://app?vid=d01ba0dc-4ad0-45f8-9908-5ad2e2fdd780","ios":"levelo://app?vid=d01ba0dc-4ad0-45f8-9908-5ad2e2fdd780"},"vehicle_type_id":"4","last_reported":1784645653,"current_range_meters":7200,"station_id":"ce4bghh2rcd13ifvqb60","pricing_plan_id":"cebpf4jnsgd1na2vs0mg"},{"bike_id":"fd360852-185e-4bbb-aa1c-a552feb28cd8","system_id":"levelo_inurba_marseille","lat":43.30893,"lon":5.36839,"is_reserved":false,"is_disabled":false,"rental_uris":{"android":"levelo://app?vid=fd360852-185e-4bbb-aa1c-a552feb28cd8","ios":"levelo://app?vid=fd360852-185e-4bbb-aa1c-a552feb28cd8"},"vehicle_type_id":"4","last_reported":1784645653,"current_range_meters":7200,"station_id":"ce4bgn92rcd13ifvqbvg","pricing_plan_id":"cebpf4jnsgd1na2vs0mg"},{"bike_id":"8c95522f-296c-4289-9635-4e5fc3e75f8c","system_id":"levelo_inurba_marseille","lat":43.27628,"lon":5.361,"is_reserved":false,"is_disabled":false,"rental_uris":{"android":"levelo://app?vid=8c95522f-296c-4289-9635-4e5fc3e75f8c","ios":"levelo://app?vid=8c95522f-296c-4289-9635-4e5fc3e75f8c"},"vehicle_type_id":"4","last_reported":1784645653,"current_range_meters":7200,"station_id":"ce4bgj92rcd13ifvqbe0","pricing_plan_id":"cebpf4jnsgd1na2vs0mg"},{"bike_id":"fd445fd8-935d-432e-b8aa-a8e6bb79977f","system_id":"levelo_inurba_marseille","lat":43.28269,"lon":5.35067,"is_reserved":false,"is_disabled":false,"rental_uris":{"android":"levelo://app?vid=fd445fd8-935d-432e-b8aa-a8e6bb79977f","ios":"levelo://app?vid=fd445fd8-935d-432e-b8aa-a8e6bb79977f"},"vehicle_type_id":"4","last_reported":1784645653,"current_range_meters":7200,"station_id":"ce4bhbp2rcd13ifvqerg","pricing_plan_id":"cebpf4jnsgd1na2vs0mg"},{"bike_id":"a46eaf5a-aa92-46a4-8561-32b4899d4b3c","system_id":"levelo_inurba_marseille","lat":43.2828,"lon":5.35061,"is_reserved":false,"is_disabled":false,"rental_uris":{"android":"levelo://app?vid=a46eaf5a-aa92-46a4-8561-32b4899d4b3c","ios":"levelo://app?vid=a46eaf5a-aa92-46a4-8561-32b4899d4b3c"},"vehicle_type_id":"4","last_reported":1784645653,"current_range_meters":7200,"station_id":"ce4bhbp2rcd13ifvqerg","pricing_plan_id":"cebpf4jnsgd1na2vs0mg"},{"bike_id":"09d9ef3d-9c6f-430a-91c3-bb4831e96fd6","system_id":"levelo_inurba_marseille","lat":43.22788,"lon":5.34925,"is_reserved":false,"is_disabled":false,"rental_uris":{"android":"levelo://app?vid=09d9ef3d-9c6f-430a-91c3-bb4831e96fd6","ios":"levelo://app?vid=09d9ef3d-9c6f-430a-91c3-bb4831e96fd6"},"vehicle_type_id":"4","last_reported":1784645653,"current_range_meters":7200,"station_id":"","pricing_plan_id":"cebpf4jnsgd1na2vs0mg"},{"bike_id":"825de0d1-7be6-41f2-a58a-1dcf1a8629b3","system_id":"levelo_inurba_marseille","lat":43.28601,"lon":5.38782,"is_reserved":false,"is_disabled":false,"rental_uris":{"android":"levelo://app?vid=825de0d1-7be6-41f2-a58a-1dcf1a8629b3","ios":"levelo://app?vid=825de0d1-7be6-41f2-a58a-1dcf1a8629b3"},"vehicle_type_id":"4","last_reported":1784645653,"current_range_meters":7200,"station_id":"","pricing_plan_id":"cebpf4jnsgd1na2vs0mg"},{"bike_id":"6595a45a-0c60-4a7d-a3c4-38c899f14ff1","system_id":"levelo_inurba_marseille","lat":43.25584,"lon":5.3823,"is_reserved":false,"is_disabled":false,"rental_uris":{"android":"levelo://app?vid=6595a45a-0c60-4a7d-a3c4-38c899f14ff1","ios":"levelo://app?vid=6595a45a-0c60-4a7d-a3c4-38c899f14ff1"},"vehicle_type_id":"4","last_reported":1784645653,"current_range_meters":7200,"station_id":"ce4bhih2rcd13ifvqfs0","pricing_plan_id":"cebpf4jnsgd1na2vs0mg"},{"bike_id":"fe37d8a5-0e5c-4586-850e-a8909e062f03","system_id":"levelo_inurba_marseille","lat":43.26052,"lon":5.39399,"is_reserved":false,"is_disabled":false,"rental_uris":{"android":"levelo://app?vid=fe37d8a5-0e5c-4586-850e-a8909e062f03","ios":"levelo://app?vid=fe37d8a5-0e5c-4586-850e-a8909e062f03"},"vehicle_type_id":"4","last_reported":1784645653,"current_range_meters":7200,"station_id":"ce4bhh92rcd13ifvqfj0","pricing_plan_id":"cebpf4jnsgd1na2vs0mg"},{"bike_id":"e7ff1713-1238-4732-a2b7-908c583e178d","system_id":"levelo_inurba_marseille","lat":43.30907,"lon":5.37183,"is_reserved":false,"is_disabled":false,"rental_uris":{"android":"levelo://app?vid=e7ff1713-1238-4732-a2b7-908c583e178d","ios":"levelo://app?vid=e7ff1713-1238-4732-a2b7-908c583e178d"},"vehicle_type_id":"4","last_reported":1784645653,"current_range_meters":8000,"station_id":"ce4bguh2rcd13ifvqckg","pricing_plan_id":"cebpf4jnsgd1na2vs0mg"},{"bike_id":"1fada187-c9af-4e67-9b29-63c718fa1661","system_id":"levelo_inurba_marseille","lat":43.25494,"lon":5.37641,"is_reserved":false,"is_disabled":false,"rental_uris":{"android":"levelo://app?vid=1fada187-c9af-4e67-9b29-63c718fa1661","ios":"levelo://app?vid=1fada187-c9af-4e67-9b29-63c718fa1661"},"vehicle_type_id":"4","last_reported":1784645653,"current_range_meters":8000,"station_id":"ce4bhh12rcd13ifvqff0","pricing_plan_id":"cebpf4jnsgd1na2vs0mg"},{"bike_id":"8f9bdf45-12dd-4021-b249-580afdf03556","system_id":"levelo_inurba_marseille","lat":43.2319,"lon":5.35546,"is_reserved":false,"is_disabled":false,"rental_uris":{"android":"levelo://app?vid=8f9bdf45-12dd-4021-b249-580afdf03556","ios":"levelo://app?vid=8f9bdf45-12dd-4021-b249-580afdf03556"},"vehicle_type_id":"4","last_reported":1784645653,"current_range_meters":8000,"station_id":"ce4bhu92rcd13ifvqi70","pricing_plan_id":"cebpf4jnsgd1na2vs0mg"},{"bike_id":"42a5ca81-1491-4dac-bffd-bc99d94442db","system_id":"levelo_inurba_marseille","lat":43.294318,"lon":5.397464,"is_reserved":false,"is_disabled":false,"rental_uris":{"android":"levelo://app?vid=42a5ca81-1491-4dac-bffd-bc99d94442db","ios":"levelo://app?vid=42a5ca81-1491-4dac-bffd-bc99d94442db"},"vehicle_type_id":"4","last_reported":1784645653,"current_range_meters":8000,"station_id":"ce4bh3h2rcd13ifvqdo0","pricing_plan_id":"cebpf4jnsgd1na2vs0mg"},{"bike_id":"2740812a-4c3e-4a34-800b-4b2edcff9d3a","system_id":"levelo_inurba_marseille","lat":43.29885,"lon":5.38909,"is_reserved":false,"is_disabled":false,"rental_uris":{"android":"levelo://app?vid=2740812a-4c3e-4a34-800b-4b2edcff9d3a","ios":"levelo://app?vid=2740812a-4c3e-4a34-800b-4b2edcff9d3a"},"vehicle_type_id":"4","last_reported":1784645653,"current_range_meters":8000,"station_id":"ce4bh392rcd13ifvqdl0","pricing_plan_id":"cebpf4jnsgd1na2vs0mg"},{"bike_id":"4efcdcc6-efd9-474f-a682-ae5d375beac3","system_id":"levelo_inurba_marseille","lat":43.31534,"lon":5.38022,"is_reserved":false,"is_disabled":false,"rental_uris":{"android":"levelo://app?vid=4efcdcc6-efd9-474f-a682-ae5d375beac3","ios":"levelo://app?vid=4efcdcc6-efd9-474f-a682-ae5d375beac3"},"vehicle_type_id":"4","last_reported":1784645653,"current_range_meters":8000,"station_id":"ce4bhsp2rcd13ifvqi50","pricing_plan_id":"cebpf4jnsgd1na2vs0mg"},{"bike_id":"7006f089-44b2-4b71-b1d8-fad18c2c2d24","system_id":"levelo_inurba_marseille","lat":43.29068,"lon":5.4208,"is_reserved":false,"is_disabled":false,"rental_uris":{"android":"levelo://app?vid=7006f089-44b2-4b71-b1d8-fad18c2c2d24","ios":"levelo://app?vid=7006f089-44b2-4b71-b1d8-fad18c2c2d24"},"vehicle_type_id":"4","last_reported":1784645653,"current_range_meters":8000,"station_id":"","pricing_plan_id":"cebpf4jnsgd1na2vs0mg"},{"bike_id":"2755697c-722b-41e4-9547-16587c13d659","system_id":"levelo_inurba_marseille","lat":43.3249,"lon":5.38282,"is_reserved":false,"is_disabled":false,"rental_uris":{"android":"levelo://app?vid=2755697c-722b-41e4-9547-16587c13d659","ios":"levelo://app?vid=2755697c-722b-41e4-9547-16587c13d659"},"vehicle_type_id":"4","last_reported":1784645653,"current_range_meters":8000,"station_id":"st_d4asgbiv49dc73anf9m0","pricing_plan_id":"cebpf4jnsgd1na2vs0mg"},{"bike_id":"4cc1cfdd-70ae-4041-8eb5-cc6376043b11","system_id":"levelo_inurba_marseille","lat":43.22557,"lon":5.41628,"is_reserved":false,"is_disabled":false,"rental_uris":{"android":"levelo://app?vid=4cc1cfdd-70ae-4041-8eb5-cc6376043b11","ios":"levelo://app?vid=4cc1cfdd-70ae-4041-8eb5-cc6376043b11"},"vehicle_type_id":"4","last_reported":1784645653,"current_range_meters":8000,"station_id":"st_d2o4gvlbi1j2169b742g","pricing_plan_id":"cebpf4jnsgd1na2vs0mg"},{"bike_id":"b1f6358b-a61f-4d1e-952f-ea1ccf36fd6a","system_id":"levelo_inurba_marseille","lat":43.31517,"lon":5.37311,"is_reserved":false,"is_disabled":false,"rental_uris":{"android":"levelo://app?vid=b1f6358b-a61f-4d1e-952f-ea1ccf36fd6a","ios":"levelo://app?vid=b1f6358b-a61f-4d1e-952f-ea1ccf36fd6a"},"vehicle_type_id":"4","last_reported":1784645653,"current_range_meters":8000,"station_id":"ce4bgt12rcd13ifvqcd0","pricing_plan_id":"cebpf4jnsgd1na2vs0mg"},{"bike_id":"700d94ec-8ca6-49b5-9305-bc324b5b00bf","system_id":"levelo_inurba_marseille","lat":43.29299,"lon":5.37179,"is_reserved":false,"is_disabled":true,"rental_uris":{"android":"levelo://app?vid=700d94ec-8ca6-49b5-9305-bc324b5b00bf","ios":"levelo://app?vid=700d94ec-8ca6-49b5-9305-bc324b5b00bf"},"vehicle_type_id":"4","last_reported":1784645653,"current_range_meters":8000,"station_id":"ce4bgh92rcd13ifvqb40","pricing_plan_id":"cebpf4jnsgd1na2vs0mg"},{"bike_id":"14411d93-18ee-418c-98e4-8a12d35ce0c6","system_id":"levelo_inurba_marseille","lat":43.29182,"lon":5.37251,"is_reserved":false,"is_disabled":false,"rental_uris":{"android":"levelo://app?vid=14411d93-18ee-418c-98e4-8a12d35ce0c6","ios":"levelo://app?vid=14411d93-18ee-418c-98e4-8a12d35ce0c6"},"vehicle_type_id":"4","last_reported":1784645653,"current_range_meters":8000,"station_id":"","pricing_plan_id":"cebpf4jnsgd1na2vs0mg"},{"bike_id":"d69bc731-cd31-48ae-bdcf-3c88f3c93513","system_id":"levelo_inurba_marseille","lat":43.2305,"lon":5.35506,"is_reserved":false,"is_disabled":false,"rental_uris":{"android":"levelo://app?vid=d69bc731-cd31-48ae-bdcf-3c88f3c93513","ios":"levelo://app?vid=d69bc731-cd31-48ae-bdcf-3c88f3c93513"},"vehicle_type_id":"4","last_reported":1784645653,"current_range_meters":8000,"station_id":"cpo3342slgdg3j2ifvpg","pricing_plan_id":"cebpf4jnsgd1na2vs0mg"},{"bike_id":"694566e3-36cb-4651-bd53-5b3b321d8710","system_id":"levelo_inurba_marseille","lat":43.30467,"lon":5.37918,"is_reserved":false,"is_disabled":false,"rental_uris":{"android":"levelo://app?vid=694566e3-36cb-4651-bd53-5b3b321d8710","ios":"levelo://app?vid=694566e3-36cb-4651-bd53-5b3b321d8710"},"vehicle_type_id":"4","last_reported":1784645653,"current_range_meters":8000,"station_id":"ce4bgup2rcd13ifvqcn0","pricing_plan_id":"cebpf4jnsgd1na2vs0mg"},{"bike_id":"e2701541-cf25-4239-b843-aa7eb7669457","system_id":"levelo_inurba_marseille","lat":43.28161,"lon":5.37497,"is_reserved":false,"is_disabled":false,"rental_uris":{"android":"levelo://app?vid=e2701541-cf25-4239-b843-aa7eb7669457","ios":"levelo://app?vid=e2701541-cf25-4239-b843-aa7eb7669457"},"vehicle_type_id":"4","last_reported":1784645653,"current_range_meters":8000,"station_id":"","pricing_plan_id":"cebpf4jnsgd1na2vs0mg"},{"bike_id":"96d3f2a2-252e-48f9-8196-3081cd46e8e2","system_id":"levelo_inurba_marseille","lat":43.31107,"lon":5.37768,"is_reserved":false,"is_disabled":false,"rental_uris":{"android":"levelo://app?vid=96d3f2a2-252e-48f9-8196-3081cd46e8e2","ios":"levelo://app?vid=96d3f2a2-252e-48f9-8196-3081cd46e8e2"},"vehicle_type_id":"4","last_reported":1784645653,"current_range_meters":8000,"station_id":"ce4bgt92rcd13ifvqcg0","pricing_plan_id":"cebpf4jnsgd1na2vs0mg"},{"bike_id":"a4828b5b-bdf6-4f99-acc8-56015dcf1970","system_id":"levelo_inurba_marseille","lat":43.31723,"lon":5.42396,"is_reserved":false,"is_disabled":false,"rental_uris":{"android":"levelo://app?vid=a4828b5b-bdf6-4f99-acc8-56015dcf1970","ios":"levelo://app?vid=a4828b5b-bdf6-4f99-acc8-56015dcf1970"},"vehicle_type_id":"4","last_reported":1784645653,"current_range_meters":8000,"station_id":"ce4bhp92rcd13ifvqhbg","pricing_plan_id":"cebpf4jnsgd1na2vs0mg"},{"bike_id":"42515e5e-51d3-486d-ad16-a4dbf51fbf10","system_id":"levelo_inurba_marseille","lat":43.24934,"lon":5.38864,"is_reserved":false,"is_disabled":false,"rental_uris":{"android":"levelo://app?vid=42515e5e-51d3-486d-ad16-a4dbf51fbf10","ios":"levelo://app?vid=42515e5e-51d3-486d-ad16-a4dbf51fbf10"},"vehicle_type_id":"4","last_reported":1784645653,"current_range_meters":8000,"station_id":"","pricing_plan_id":"cebpf4jnsgd1na2vs0mg"},{"bike_id":"1a8f7e32-5d47-4694-89a5-a9089b244299","system_id":"levelo_inurba_marseille","lat":43.28095,"lon":5.38479,"is_reserved":false,"is_disabled":false,"rental_uris":{"android":"levelo://app?vid=1a8f7e32-5d47-4694-89a5-a9089b244299","ios":"levelo://app?vid=1a8f7e32-5d47-4694-89a5-a9089b244299"},"vehicle_type_id":"4","last_reported":1784645653,"current_range_meters":8400,"station_id":"","pricing_plan_id":"cebpf4jnsgd1na2vs0mg"},{"bike_id":"7d2f902a-d81c-406c-bc57-3562681fa875","system_id":"levelo_inurba_marseille","lat":43.3415,"lon":5.40904,"is_reserved":false,"is_disabled":false,"rental_uris":{"android":"levelo://app?vid=7d2f902a-d81c-406c-bc57-3562681fa875","ios":"levelo://app?vid=7d2f902a-d81c-406c-bc57-3562681fa875"},"vehicle_type_id":"4","last_reported":1784645653,"current_range_meters":8400,"station_id":"ce4bhqh2rcd13ifvqhlg","pricing_plan_id":"cebpf4jnsgd1na2vs0mg"},{"bike_id":"46a9e579-6f1b-4c69-8628-19d804629758","system_id":"levelo_inurba_marseille","lat":43.3188,"lon":5.39989,"is_reserved":false,"is_disabled":false,"rental_uris":{"android":"levelo://app?vid=46a9e579-6f1b-4c69-8628-19d804629758","ios":"levelo://app?vid=46a9e579-6f1b-4c69-8628-19d804629758"},"vehicle_type_id":"4","last_reported":1784645653,"current_range_meters":8400,"station_id":"","pricing_plan_id":"cebpf4jnsgd1na2vs0mg"},{"bike_id":"ac3c1c78-3bb5-4072-8485-2a54186bf8bb","system_id":"levelo_inurba_marseille","lat":43.27991,"lon":5.41666,"is_reserved":false,"is_disabled":false,"rental_uris":{"android":"levelo://app?vid=ac3c1c78-3bb5-4072-8485-2a54186bf8bb","ios":"levelo://app?vid=ac3c1c78-3bb5-4072-8485-2a54186bf8bb"},"vehicle_type_id":"4","last_reported":1784645653,"current_range_meters":8400,"station_id":"ce4bho12rcd13ifvqh1g","pricing_plan_id":"cebpf4jnsgd1na2vs0mg"},{"bike_id":"c2bb04de-ca83-4022-a5d0-aea9755284e8","system_id":"levelo_inurba_marseille","lat":43.26687,"lon":5.38261,"is_reserved":false,"is_disabled":false,"rental_uris":{"android":"levelo://app?vid=c2bb04de-ca83-4022-a5d0-aea9755284e8","ios":"levelo://app?vid=c2bb04de-ca83-4022-a5d0-aea9755284e8"},"vehicle_type_id":"4","last_reported":1784645653,"current_range_meters":8400,"station_id":"ce4bhg92rcd13ifvqf90","pricing_plan_id":"cebpf4jnsgd1na2vs0mg"},{"bike_id":"b11bed7a-8333-4628-ba0c-c7c251be0e84","system_id":"levelo_inurba_marseille","lat":43.30593,"lon":5.39356,"is_reserved":false,"is_disabled":false,"rental_uris":{"android":"levelo://app?vid=b11bed7a-8333-4628-ba0c-c7c251be0e84","ios":"levelo://app?vid=b11bed7a-8333-4628-ba0c-c7c251be0e84"},"vehicle_type_id":"4","last_reported":1784645653,"current_range_meters":8400,"station_id":"ce4bh0p2rcd13ifvqd80","pricing_plan_id":"cebpf4jnsgd1na2vs0mg"},{"bike_id":"710387de-02b7-4e53-84a3-d7fe958c086c","system_id":"levelo_inurba_marseille","lat":43.26225,"lon":5.40453,"is_reserved":false,"is_disabled":false,"rental_uris":{"android":"levelo://app?vid=710387de-02b7-4e53-84a3-d7fe958c086c","ios":"levelo://app?vid=710387de-02b7-4e53-84a3-d7fe958c086c"},"vehicle_type_id":"4","last_reported":1784645653,"current_range_meters":8400,"station_id":"ce4bhmh2rcd13ifvqgmg","pricing_plan_id":"cebpf4jnsgd1na2vs0mg"},{"bike_id":"f0f65092-efe9-46e8-8e63-748f9c256a92","system_id":"levelo_inurba_marseille","lat":43.29,"lon":5.3562,"is_reserved":false,"is_disabled":false,"rental_uris":{"android":"levelo://app?vid=f0f65092-efe9-46e8-8e63-748f9c256a92","ios":"levelo://app?vid=f0f65092-efe9-46e8-8e63-748f9c256a92"},"vehicle_type_id":"4","last_reported":1784645653,"current_range_meters":8400,"station_id":"ce4bhb92rcd13ifvqen0","pricing_plan_id":"cebpf4jnsgd1na2vs0mg"},{"bike_id":"c5b7b317-5387-4d0b-8a6c-bdda5f11dfc4","system_id":"levelo_inurba_marseille","lat":43.31383,"lon":5.36738,"is_reserved":false,"is_disabled":false,"rental_uris":{"android":"levelo://app?vid=c5b7b317-5387-4d0b-8a6c-bdda5f11dfc4","ios":"levelo://app?vid=c5b7b317-5387-4d0b-8a6c-bdda5f11dfc4"},"vehicle_type_id":"4","last_reported":1784645653,"current_range_meters":8400,"station_id":"","pricing_plan_id":"cebpf4jnsgd1na2vs0mg"},{"bike_id":"3106d98e-80f1-49d8-b18b-c2f354f8f1d9","system_id":"levelo_inurba_marseille","lat":43.29907,"lon":5.37476,"is_reserved":false,"is_disabled":false,"rental_uris":{"android":"levelo://app?vid=3106d98e-80f1-49d8-b18b-c2f354f8f1d9","ios":"levelo://app?vid=3106d98e-80f1-49d8-b18b-c2f354f8f1d9"},"vehicle_type_id":"4","last_reported":1784645653,"current_range_meters":8400,"station_id":"ce4bgjh2rcd13ifvqbg0","pricing_plan_id":"cebpf4jnsgd1na2vs0mg"},{"bike_id":"f4a10a50-028e-45f5-952f-48cf0af83665","system_id":"levelo_inurba_marseille","lat":43.23231,"lon":5.40371,"is_reserved":false,"is_disabled":false,"rental_uris":{"android":"levelo://app?vid=f4a10a50-028e-45f5-952f-48cf0af83665","ios":"levelo://app?vid=f4a10a50-028e-45f5-952f-48cf0af83665"},"vehicle_type_id":"4","last_reported":1784645653,"current_range_meters":8400,"station_id":"","pricing_plan_id":"cebpf4jnsgd1na2vs0mg"},{"bike_id":"fa570896-6f25-48c8-abd3-6ac2343ee8bd","system_id":"levelo_inurba_marseille","lat":43.29492,"lon":5.38308,"is_reserved":false,"is_disabled":false,"rental_uris":{"android":"levelo://app?vid=fa570896-6f25-48c8-abd3-6ac2343ee8bd","ios":"levelo://app?vid=fa570896-6f25-48c8-abd3-6ac2343ee8bd"},"vehicle_type_id":"4","last_reported":1784645653,"current_range_meters":8400,"station_id":"","pricing_plan_id":"cebpf4jnsgd1na2vs0mg"},{"bike_id":"8a75ca03-b612-4f38-952b-454477ac4eb1","system_id":"levelo_inurba_marseille","lat":43.27807,"lon":5.40716,"is_reserved":false,"is_disabled":false,"rental_uris":{"android":"levelo://app?vid=8a75ca03-b612-4f38-952b-454477ac4eb1","ios":"levelo://app?vid=8a75ca03-b612-4f38-952b-454477ac4eb1"},"vehicle_type_id":"4","last_reported":1784645653,"current_range_meters":8400,"station_id":"ce4bhnh2rcd13ifvqgtg","pricing_plan_id":"cebpf4jnsgd1na2vs0mg"},{"bike_id":"c8201564-d46a-4936-89ad-4260b8527224","system_id":"levelo_inurba_marseille","lat":43.29961,"lon":5.372,"is_reserved":false,"is_disabled":false,"rental_uris":{"android":"levelo://app?vid=c8201564-d46a-4936-89ad-4260b8527224","ios":"levelo://app?vid=c8201564-d46a-4936-89ad-4260b8527224"},"vehicle_type_id":"4","last_reported":1784645653,"current_range_meters":8400,"station_id":"ce4bgr92rcd13ifvqc7g","pricing_plan_id":"cebpf4jnsgd1na2vs0mg"},{"bike_id":"a9012715-ec62-4810-a79b-d543ac625b3b","system_id":"levelo_inurba_marseille","lat":43.22559,"lon":5.41626,"is_reserved":false,"is_disabled":false,"rental_uris":{"android":"levelo://app?vid=a9012715-ec62-4810-a79b-d543ac625b3b","ios":"levelo://app?vid=a9012715-ec62-4810-a79b-d543ac625b3b"},"vehicle_type_id":"4","last_reported":1784645653,"current_range_meters":8400,"station_id":"st_d2o4gvlbi1j2169b742g","pricing_plan_id":"cebpf4jnsgd1na2vs0mg"},{"bike_id":"568d7f2a-550d-4066-b3be-8bc590d90872","system_id":"levelo_inurba_marseille","lat":43.28416,"lon":5.34981,"is_reserved":false,"is_disabled":false,"rental_uris":{"android":"levelo://app?vid=568d7f2a-550d-4066-b3be-8bc590d90872","ios":"levelo://app?vid=568d7f2a-550d-4066-b3be-8bc590d90872"},"vehicle_type_id":"4","last_reported":1784645653,"current_range_meters":8400,"station_id":"ce4bhbh2rcd13ifvqepg","pricing_plan_id":"cebpf4jnsgd1na2vs0mg"},{"bike_id":"e1d8f18b-5150-4c83-aad0-f89889294de3","system_id":"levelo_inurba_marseille","lat":43.24647,"lon":5.38893,"is_reserved":false,"is_disabled":false,"rental_uris":{"android":"levelo://app?vid=e1d8f18b-5150-4c83-aad0-f89889294de3","ios":"levelo://app?vid=e1d8f18b-5150-4c83-aad0-f89889294de3"},"vehicle_type_id":"4","last_reported":1784645653,"current_range_meters":8400,"station_id":"ce4bhg12rcd13ifvqf60","pricing_plan_id":"cebpf4jnsgd1na2vs0mg"},{"bike_id":"b88c1f36-35a5-4dfe-8f23-10e63886bbb7","system_id":"levelo_inurba_marseille","lat":43.30079,"lon":5.40109,"is_reserved":false,"is_disabled":false,"rental_uris":{"android":"levelo://app?vid=b88c1f36-35a5-4dfe-8f23-10e63886bbb7","ios":"levelo://app?vid=b88c1f36-35a5-4dfe-8f23-10e63886bbb7"},"vehicle_type_id":"4","last_reported":1784645653,"current_range_meters":8400,"station_id":"","pricing_plan_id":"cebpf4jnsgd1na2vs0mg"},{"bike_id":"c2ffb063-eaa6-4af9-b4d4-da54a453082c","system_id":"levelo_inurba_marseille","lat":43.32686,"lon":5.40708,"is_reserved":false,"is_disabled":false,"rental_uris":{"android":"levelo://app?vid=c2ffb063-eaa6-4af9-b4d4-da54a453082c","ios":"levelo://app?vid=c2ffb063-eaa6-4af9-b4d4-da54a453082c"},"vehicle_type_id":"4","last_reported":1784645653,"current_range_meters":8400,"station_id":"","pricing_plan_id":"cebpf4jnsgd1na2vs0mg"},{"bike_id":"e3a24ecb-0942-4996-a2e2-f61ef6c56c2a","system_id":"levelo_inurba_marseille","lat":43.318816,"lon":5.407362,"is_reserved":false,"is_disabled":false,"rental_uris":{"android":"levelo://app?vid=e3a24ecb-0942-4996-a2e2-f61ef6c56c2a","ios":"levelo://app?vid=e3a24ecb-0942-4996-a2e2-f61ef6c56c2a"},"vehicle_type_id":"4","last_reported":1784645653,"current_range_meters":8400,"station_id":"ce4bhq12rcd13ifvqhig","pricing_plan_id":"cebpf4jnsgd1na2vs0mg"},{"bike_id":"3d86fa20-977d-419a-a4d6-420f2ab028f2","system_id":"levelo_inurba_marseille","lat":43.27219,"lon":5.39112,"is_reserved":false,"is_disabled":false,"rental_uris":{"android":"levelo://app?vid=3d86fa20-977d-419a-a4d6-420f2ab028f2","ios":"levelo://app?vid=3d86fa20-977d-419a-a4d6-420f2ab028f2"},"vehicle_type_id":"4","last_reported":1784645653,"current_range_meters":8400,"station_id":"","pricing_plan_id":"cebpf4jnsgd1na2vs0mg"},{"bike_id":"c0024b18-6094-4eae-bf5b-c52a4e6ef59d","system_id":"levelo_inurba_marseille","lat":43.28498,"lon":5.48388,"is_reserved":false,"is_disabled":false,"rental_uris":{"android":"levelo://app?vid=c0024b18-6094-4eae-bf5b-c52a4e6ef59d","ios":"levelo://app?vid=c0024b18-6094-4eae-bf5b-c52a4e6ef59d"},"vehicle_type_id":"4","last_reported":1784645653,"current_range_meters":8400,"station_id":"st_d3svhcjqgbts73a3dn0g","pricing_plan_id":"cebpf4jnsgd1na2vs0mg"},{"bike_id":"615f65d0-1e5b-4986-8470-ff47ef17fd88","system_id":"levelo_inurba_marseille","lat":43.32362,"lon":5.3674,"is_reserved":false,"is_disabled":false,"rental_uris":{"android":"levelo://app?vid=615f65d0-1e5b-4986-8470-ff47ef17fd88","ios":"levelo://app?vid=615f65d0-1e5b-4986-8470-ff47ef17fd88"},"vehicle_type_id":"4","last_reported":1784645653,"current_range_meters":8400,"station_id":"ce4bhsh2rcd13ifvqi2g","pricing_plan_id":"cebpf4jnsgd1na2vs0mg"},{"bike_id":"b44237f0-a72b-41d2-b2b5-bf5d652164b6","system_id":"levelo_inurba_marseille","lat":43.23634,"lon":5.36092,"is_reserved":false,"is_disabled":false,"rental_uris":{"android":"levelo://app?vid=b44237f0-a72b-41d2-b2b5-bf5d652164b6","ios":"levelo://app?vid=b44237f0-a72b-41d2-b2b5-bf5d652164b6"},"vehicle_type_id":"4","last_reported":1784645653,"current_range_meters":8400,"station_id":"","pricing_plan_id":"cebpf4jnsgd1na2vs0mg"},{"bike_id":"a7c9489a-3c37-4218-bc38-92c335aa3a8a","system_id":"levelo_inurba_marseille","lat":43.28472,"lon":5.4839,"is_reserved":false,"is_disabled":false,"rental_uris":{"android":"levelo://app?vid=a7c9489a-3c37-4218-bc38-92c335aa3a8a","ios":"levelo://app?vid=a7c9489a-3c37-4218-bc38-92c335aa3a8a"},"vehicle_type_id":"4","last_reported":1784645653,"current_range_meters":8800,"station_id":"st_d3svhcjqgbts73a3dn0g","pricing_plan_id":"cebpf4jnsgd1na2vs0mg"},{"bike_id":"4860186f-ab98-41ac-b29f-b76ec210bd96","system_id":"levelo_inurba_marseille","lat":43.29041,"lon":5.35912,"is_reserved":false,"is_disabled":false,"rental_uris":{"android":"levelo://app?vid=4860186f-ab98-41ac-b29f-b76ec210bd96","ios":"levelo://app?vid=4860186f-ab98-41ac-b29f-b76ec210bd96"},"vehicle_type_id":"4","last_reported":1784645653,"current_range_meters":8800,"station_id":"ce4bha92rcd13ifvqeg0","pricing_plan_id":"cebpf4jnsgd1na2vs0mg"},{"bike_id":"f3c22e21-850d-4bf0-b214-ae2f4fa304ab","system_id":"levelo_inurba_marseille","lat":43.28627,"lon":5.35089,"is_reserved":false,"is_disabled":false,"rental_uris":{"android":"levelo://app?vid=f3c22e21-850d-4bf0-b214-ae2f4fa304ab","ios":"levelo://app?vid=f3c22e21-850d-4bf0-b214-ae2f4fa304ab"},"vehicle_type_id":"4","last_reported":1784645653,"current_range_meters":8800,"station_id":"ce4bhch2rcd13ifvqeug","pricing_plan_id":"cebpf4jnsgd1na2vs0mg"},{"bike_id":"3d9d3ef2-d39f-40bf-a2c2-1902016ec8f9","system_id":"levelo_inurba_marseille","lat":43.25073,"lon":5.39507,"is_reserved":false,"is_disabled":false,"rental_uris":{"android":"levelo://app?vid=3d9d3ef2-d39f-40bf-a2c2-1902016ec8f9","ios":"levelo://app?vid=3d9d3ef2-d39f-40bf-a2c2-1902016ec8f9"},"vehicle_type_id":"4","last_reported":1784645653,"current_range_meters":8800,"station_id":"ce4bhm12rcd13ifvqgkg","pricing_plan_id":"cebpf4jnsgd1na2vs0mg"},{"bike_id":"a5d5d334-913d-4004-8736-e04a5c6162ae","system_id":"levelo_inurba_marseille","lat":43.28405,"lon":5.34982,"is_reserved":false,"is_disabled":false,"rental_uris":{"android":"levelo://app?vid=a5d5d334-913d-4004-8736-e04a5c6162ae","ios":"levelo://app?vid=a5d5d334-913d-4004-8736-e04a5c6162ae"},"vehicle_type_id":"4","last_reported":1784645653,"current_range_meters":8800,"station_id":"ce4bhbh2rcd13ifvqepg","pricing_plan_id":"cebpf4jnsgd1na2vs0mg"},{"bike_id":"f5efb3e7-fd08-4524-a878-afdbc8490ff0","system_id":"levelo_inurba_marseille","lat":43.24076,"lon":5.37763,"is_reserved":false,"is_disabled":false,"rental_uris":{"android":"levelo://app?vid=f5efb3e7-fd08-4524-a878-afdbc8490ff0","ios":"levelo://app?vid=f5efb3e7-fd08-4524-a878-afdbc8490ff0"},"vehicle_type_id":"4","last_reported":1784645653,"current_range_meters":8800,"station_id":"ce4bhnp2rcd13ifvqgvg","pricing_plan_id":"cebpf4jnsgd1na2vs0mg"},{"bike_id":"fba03f28-a80f-400f-90bd-f4d72c0a8641","system_id":"levelo_inurba_marseille","lat":43.295202,"lon":5.394003,"is_reserved":false,"is_disabled":false,"rental_uris":{"android":"levelo://app?vid=fba03f28-a80f-400f-90bd-f4d72c0a8641","ios":"levelo://app?vid=fba03f28-a80f-400f-90bd-f4d72c0a8641"},"vehicle_type_id":"4","last_reported":1784645653,"current_range_meters":8800,"station_id":"ce4bh292rcd13ifvqdf0","pricing_plan_id":"cebpf4jnsgd1na2vs0mg"},{"bike_id":"9cf80912-ccaf-4c19-a70b-3521b44ace00","system_id":"levelo_inurba_marseille","lat":43.30147,"lon":5.38771,"is_reserved":false,"is_disabled":false,"rental_uris":{"android":"levelo://app?vid=9cf80912-ccaf-4c19-a70b-3521b44ace00","ios":"levelo://app?vid=9cf80912-ccaf-4c19-a70b-3521b44ace00"},"vehicle_type_id":"4","last_reported":1784645653,"current_range_meters":8800,"station_id":"ce4bghh2rcd13ifvqb60","pricing_plan_id":"cebpf4jnsgd1na2vs0mg"},{"bike_id":"1a463d7f-ab42-4520-8dbe-be9f5ec1be1d","system_id":"levelo_inurba_marseille","lat":43.21207,"lon":5.35078,"is_reserved":false,"is_disabled":false,"rental_uris":{"android":"levelo://app?vid=1a463d7f-ab42-4520-8dbe-be9f5ec1be1d","ios":"levelo://app?vid=1a463d7f-ab42-4520-8dbe-be9f5ec1be1d"},"vehicle_type_id":"4","last_reported":1784645653,"current_range_meters":8800,"station_id":"st_cvj6sg6p6f1abm77japg","pricing_plan_id":"cebpf4jnsgd1na2vs0mg"},{"bike_id":"5fe4e2d3-945b-4de6-8763-f47f19b75ea1","system_id":"levelo_inurba_marseille","lat":43.23897,"lon":5.3746,"is_reserved":false,"is_disabled":false,"rental_uris":{"android":"levelo://app?vid=5fe4e2d3-945b-4de6-8763-f47f19b75ea1","ios":"levelo://app?vid=5fe4e2d3-945b-4de6-8763-f47f19b75ea1"},"vehicle_type_id":"4","last_reported":1784645653,"current_range_meters":8800,"station_id":"st_d6sm7csbq4hs73f8fpjg","pricing_plan_id":"cebpf4jnsgd1na2vs0mg"},{"bike_id":"6e40e246-568a-4533-9869-40fbea28bed7","system_id":"levelo_inurba_marseille","lat":43.24383,"lon":5.37059,"is_reserved":false,"is_disabled":false,"rental_uris":{"android":"levelo://app?vid=6e40e246-568a-4533-9869-40fbea28bed7","ios":"levelo://app?vid=6e40e246-568a-4533-9869-40fbea28bed7"},"vehicle_type_id":"4","last_reported":1784645653,"current_range_meters":8800,"station_id":"ce4bhhh2rcd13ifvqfk0","pricing_plan_id":"cebpf4jnsgd1na2vs0mg"},{"bike_id":"79dfbeda-afc3-4cb2-ab82-f2cdb427031f","system_id":"levelo_inurba_marseille","lat":43.30911,"lon":5.36838,"is_reserved":false,"is_disabled":false,"rental_uris":{"android":"levelo://app?vid=79dfbeda-afc3-4cb2-ab82-f2cdb427031f","ios":"levelo://app?vid=79dfbeda-afc3-4cb2-ab82-f2cdb427031f"},"vehicle_type_id":"4","last_reported":1784645653,"current_range_meters":8800,"station_id":"ce4bgn92rcd13ifvqbvg","pricing_plan_id":"cebpf4jnsgd1na2vs0mg"},{"bike_id":"0c4cff2d-fc30-4704-9e2b-7f17e6994860","system_id":"levelo_inurba_marseille","lat":43.26546,"lon":5.37281,"is_reserved":false,"is_disabled":false,"rental_uris":{"android":"levelo://app?vid=0c4cff2d-fc30-4704-9e2b-7f17e6994860","ios":"levelo://app?vid=0c4cff2d-fc30-4704-9e2b-7f17e6994860"},"vehicle_type_id":"4","last_reported":1784645653,"current_range_meters":8800,"station_id":"ce4bhg12rcd13ifvqf70","pricing_plan_id":"cebpf4jnsgd1na2vs0mg"},{"bike_id":"6e332e86-de15-4d4d-bca0-6fd68dd8444f","system_id":"levelo_inurba_marseille","lat":43.33304,"lon":5.43696,"is_reserved":false,"is_disabled":false,"rental_uris":{"android":"levelo://app?vid=6e332e86-de15-4d4d-bca0-6fd68dd8444f","ios":"levelo://app?vid=6e332e86-de15-4d4d-bca0-6fd68dd8444f"},"vehicle_type_id":"4","last_reported":1784645653,"current_range_meters":8800,"station_id":"","pricing_plan_id":"cebpf4jnsgd1na2vs0mg"},{"bike_id":"07edaab3-33a2-4ef3-a5f0-2c83f40c3ba9","system_id":"levelo_inurba_marseille","lat":43.27497,"lon":5.4157,"is_reserved":false,"is_disabled":true,"rental_uris":{"android":"levelo://app?vid=07edaab3-33a2-4ef3-a5f0-2c83f40c3ba9","ios":"levelo://app?vid=07edaab3-33a2-4ef3-a5f0-2c83f40c3ba9"},"vehicle_type_id":"4","last_reported":1784645653,"current_range_meters":8800,"station_id":"st_d6im8g6chgec73a5pndg","pricing_plan_id":"cebpf4jnsgd1na2vs0mg"},{"bike_id":"3c77d917-1e16-4f7d-a9fa-2030e3ffc3a3","system_id":"levelo_inurba_marseille","lat":43.27989,"lon":5.41663,"is_reserved":false,"is_disabled":true,"rental_uris":{"android":"levelo://app?vid=3c77d917-1e16-4f7d-a9fa-2030e3ffc3a3","ios":"levelo://app?vid=3c77d917-1e16-4f7d-a9fa-2030e3ffc3a3"},"vehicle_type_id":"4","last_reported":1784645653,"current_range_meters":8800,"station_id":"ce4bho12rcd13ifvqh1g","pricing_plan_id":"cebpf4jnsgd1na2vs0mg"},{"bike_id":"6422cf3d-2df7-4e60-ae6b-3ac54d248869","system_id":"levelo_inurba_marseille","lat":43.2128,"lon":5.34452,"is_reserved":false,"is_disabled":false,"rental_uris":{"android":"levelo://app?vid=6422cf3d-2df7-4e60-ae6b-3ac54d248869","ios":"levelo://app?vid=6422cf3d-2df7-4e60-ae6b-3ac54d248869"},"vehicle_type_id":"4","last_reported":1784645653,"current_range_meters":8800,"station_id":"","pricing_plan_id":"cebpf4jnsgd1na2vs0mg"},{"bike_id":"0bcadeca-069a-48f7-a576-e90c1652089b","system_id":"levelo_inurba_marseille","lat":43.29871,"lon":5.39723,"is_reserved":false,"is_disabled":false,"rental_uris":{"android":"levelo://app?vid=0bcadeca-069a-48f7-a576-e90c1652089b","ios":"levelo://app?vid=0bcadeca-069a-48f7-a576-e90c1652089b"},"vehicle_type_id":"4","last_reported":1784645653,"current_range_meters":8800,"station_id":"ce4bh0h2rcd13ifvqd50","pricing_plan_id":"cebpf4jnsgd1na2vs0mg"},{"bike_id":"5fa4fdaa-1470-4009-8996-c0bb59a25ba2","system_id":"levelo_inurba_marseille","lat":43.28792,"lon":5.39946,"is_reserved":false,"is_disabled":false,"rental_uris":{"android":"levelo://app?vid=5fa4fdaa-1470-4009-8996-c0bb59a25ba2","ios":"levelo://app?vid=5fa4fdaa-1470-4009-8996-c0bb59a25ba2"},"vehicle_type_id":"4","last_reported":1784645653,"current_range_meters":8800,"station_id":"","pricing_plan_id":"cebpf4jnsgd1na2vs0mg"},{"bike_id":"44f17f29-c4b1-44a0-8ef6-f6a6861404e2","system_id":"levelo_inurba_marseille","lat":43.27065,"lon":5.39493,"is_reserved":false,"is_disabled":false,"rental_uris":{"android":"levelo://app?vid=44f17f29-c4b1-44a0-8ef6-f6a6861404e2","ios":"levelo://app?vid=44f17f29-c4b1-44a0-8ef6-f6a6861404e2"},"vehicle_type_id":"4","last_reported":1784645653,"current_range_meters":8800,"station_id":"","pricing_plan_id":"cebpf4jnsgd1na2vs0mg"},{"bike_id":"ecd2189c-df1e-45a0-8225-c8755954ebfe","system_id":"levelo_inurba_marseille","lat":43.25226,"lon":5.42767,"is_reserved":false,"is_disabled":false,"rental_uris":{"android":"levelo://app?vid=ecd2189c-df1e-45a0-8225-c8755954ebfe","ios":"levelo://app?vid=ecd2189c-df1e-45a0-8225-c8755954ebfe"},"vehicle_type_id":"4","last_reported":1784645653,"current_range_meters":8800,"station_id":"","pricing_plan_id":"cebpf4jnsgd1na2vs0mg"},{"bike_id":"118ee540-bc00-474f-80f1-98509b714b9c","system_id":"levelo_inurba_marseille","lat":43.24578,"lon":5.37622,"is_reserved":false,"is_disabled":false,"rental_uris":{"android":"levelo://app?vid=118ee540-bc00-474f-80f1-98509b714b9c","ios":"levelo://app?vid=118ee540-bc00-474f-80f1-98509b714b9c"},"vehicle_type_id":"4","last_reported":1784645653,"current_range_meters":8800,"station_id":"","pricing_plan_id":"cebpf4jnsgd1na2vs0mg"},{"bike_id":"e5384258-5500-43b9-b8f8-03cf72e5db5c","system_id":"levelo_inurba_marseille","lat":43.33754,"lon":5.37462,"is_reserved":false,"is_disabled":false,"rental_uris":{"android":"levelo://app?vid=e5384258-5500-43b9-b8f8-03cf72e5db5c","ios":"levelo://app?vid=e5384258-5500-43b9-b8f8-03cf72e5db5c"},"vehicle_type_id":"4","last_reported":1784645653,"current_range_meters":9200,"station_id":"","pricing_plan_id":"cebpf4jnsgd1na2vs0mg"},{"bike_id":"7b8ec62a-f5d7-4f6d-8280-77a555ca81cd","system_id":"levelo_inurba_marseille","lat":43.27991,"lon":5.38248,"is_reserved":false,"is_disabled":false,"rental_uris":{"android":"levelo://app?vid=7b8ec62a-f5d7-4f6d-8280-77a555ca81cd","ios":"levelo://app?vid=7b8ec62a-f5d7-4f6d-8280-77a555ca81cd"},"vehicle_type_id":"4","last_reported":1784645653,"current_range_meters":9200,"station_id":"","pricing_plan_id":"cebpf4jnsgd1na2vs0mg"},{"bike_id":"5d336139-d335-4f3b-9aad-9804e8feb6fc","system_id":"levelo_inurba_marseille","lat":43.225369,"lon":5.348286,"is_reserved":false,"is_disabled":false,"rental_uris":{"android":"levelo://app?vid=5d336139-d335-4f3b-9aad-9804e8feb6fc","ios":"levelo://app?vid=5d336139-d335-4f3b-9aad-9804e8feb6fc"},"vehicle_type_id":"4","last_reported":1784645653,"current_range_meters":9200,"station_id":"st_cvj5dfep6f1abm77gieg","pricing_plan_id":"cebpf4jnsgd1na2vs0mg"},{"bike_id":"0d4d289e-1bd8-4d17-bbdd-20e3ced3bdf0","system_id":"levelo_inurba_marseille","lat":43.2941,"lon":5.38358,"is_reserved":false,"is_disabled":false,"rental_uris":{"android":"levelo://app?vid=0d4d289e-1bd8-4d17-bbdd-20e3ced3bdf0","ios":"levelo://app?vid=0d4d289e-1bd8-4d17-bbdd-20e3ced3bdf0"},"vehicle_type_id":"4","last_reported":1784645653,"current_range_meters":9200,"station_id":"","pricing_plan_id":"cebpf4jnsgd1na2vs0mg"},{"bike_id":"fd57dccb-2e37-4d33-b014-1dbbb3e70825","system_id":"levelo_inurba_marseille","lat":43.2861,"lon":5.35107,"is_reserved":false,"is_disabled":false,"rental_uris":{"android":"levelo://app?vid=fd57dccb-2e37-4d33-b014-1dbbb3e70825","ios":"levelo://app?vid=fd57dccb-2e37-4d33-b014-1dbbb3e70825"},"vehicle_type_id":"4","last_reported":1784645653,"current_range_meters":9200,"station_id":"ce4bhch2rcd13ifvqeug","pricing_plan_id":"cebpf4jnsgd1na2vs0mg"},