{"last_updated":1721844680,"ttl":30,"version":"2.2","data":{"bikes":[{"bike_id":"a2610bec-28cf-4e46-bfa7-b619ea248969","system_id":"levelo_inurba_marseille","lat":43.31257,"lon":5.36767,"is_reserved":false,"is_disabled":false,"rental_uris":{"android":"levelo://app?vid=a2610bec-28cf-4e46-bfa7-b619ea248969","ios":"levelo://app?vid=a2610bec-28cf-4e46-bfa7-b619ea248969"},"vehicle_type_id":"4","last_reported":1721844680,"current_range_meters":2000,"station_id":"","pricing_plan_id":"cebpf4jnsgd1na2vs0mg"},{"bike_id":"0ae9dc76-5f52-4050-bd0a-1651070ee211","system_id":"levelo_inurba_marseille","lat":43.31254,"lon":5.36816,"is_reserved":false,"is_disabled":false,"rental_uris":{"android":"levelo://app?vid=0ae9dc76-5f52-4050-bd0a-1651070ee211","ios":"levelo://app?vid=0ae9dc76-5f52-4050-bd0a-1651070ee211"},"vehicle_type_id":"4","last_reported":1721844680,"current_range_meters":6400,"station_id":"ce4bgl92rcd13ifvqbq0","pricing_plan_id":"cebpf4jnsgd1na2vs0mg"},{"bike_id":"76ce67d9-be05-4782-953f-4e6bd79ec745","system_id":"levelo_inurba_marseille","lat":43.312239,"lon":5.368562,"is_reserved":false,"is_disabled":false,"rental_uris":{"android":"levelo://app?vid=76ce67d9-be05-4782-953f-4e6bd79ec745","ios":"levelo://app?vid=76ce67d9-be05-4782-953f-4e6bd79ec745"},"vehicle_type_id":"4","last_reported":1721844680,"current_range_meters":2800,"station_id":"ce4bgl92rcd13ifvqbq0","pricing_plan_id":"cebpf4jnsgd1na2vs0mg"},{"bike_id":"2a051883-d261-41b6-8e49-a1232c238c77","system_id":"levelo_inurba_marseille","lat":43.31474,"lon":5.37304,"is_reserved":false,"is_disabled":false,"rental_uris":{"android":"levelo://app?vid=2a051883-d261-41b6-8e49-a1232c238c77","ios":"levelo://app?vid=2a051883-d261-41b6-8e49-a1232c238c77"},"vehicle_type_id":"4","last_reported":1721844680,"current_range_meters":4000,"station_id":"ce4bgt12rcd13ifvqcd0","pricing_plan_id":"cebpf4jnsgd1na2vs0mg"},{"bike_id":"c6e6714e-2ef7-4b7f-96fa-59d5b09d82db","system_id":"levelo_inurba_marseille","lat":43.314811,"lon":5.373103,"is_reserved":false,"is_disabled":false,"rental_uris":{"android":"levelo://app?vid=c6e6714e-2ef7-4b7f-96fa-59d5b09d82db","ios":"levelo://app?vid=c6e6714e-2ef7-4b7f-96fa-59d5b09d82db"},"vehicle_type_id":"4","last_reported":1721844680,"current_range_meters":8800,"station_id":"ce4bgt12rcd13ifvqcd0","pricing_plan_id":"cebpf4jnsgd1na2vs0mg"},{"bike_id":"8eb8e1f7-fe80-4f46-916c-4cb52e4d007f","system_id":"levelo_inurba_marseille","lat":43.314811,"lon":5.373103,"is_reserved":false,"is_disabled":false,"rental_uris":{"android":"levelo://app?vid=8eb8e1f7-fe80-4f46-916c-4cb52e4d007f","ios":"levelo://app?vid=8eb8e1f7-fe80-4f46-916c-4cb52e4d007f"},"vehicle_type_id":"4","last_reported":1721844680,"current_range_meters":16800,"station_id":"ce4bgt12rcd13ifvqcd0","pricing_plan_id":"cebpf4jnsgd1na2vs0mg"},{"bike_id":"43d21fb2-6781-4cb7-9e42-aff47f82bedd","system_id":"levelo_inurba_marseille","lat":43.314811,"lon":5.373103,"is_reserved":false,"is_disabled":false,"rental_uris":{"android":"levelo://app?vid=43d21fb2-6781-4cb7-9e42-aff47f82bedd","ios":"levelo://app?vid=43d21fb2-6781-4cb7-9e42-aff47f82bedd"},"vehicle_type_id":"4","last_reported":1721844680,"current_range_meters":0,"station_id":"ce4bgt12rcd13ifvqcd0","pricing_plan_id":"cebpf4jnsgd1na2vs0mg"},{"bike_id":"15b5ef40-d2b3-4692-a39d-2bd3af395e5e","system_id":"levelo_inurba_marseille","lat":43.314811,"lon":5.373104,"is_reserved":false,"is_disabled":false,"rental_uris":{"android":"levelo://app?vid=15b5ef40-d2b3-4692-a39d-2bd3af395e5e","ios":"levelo://app?vid=15b5ef40-d2b3-4692-a39d-2bd3af395e5e"},"vehicle_type_id":"4","last_reported":1721844680,"current_range_meters":11600,"station_id":"ce4bgt12rcd13ifvqcd0","pricing_plan_id":"cebpf4jnsgd1na2vs0mg"},{"bike_id":"cf9e3ea8-7fe3-4841-8be7-537e27db4ed2","system_id":"levelo_inurba_marseille","lat":43.309039,"lon":5.371797,"is_reserved":false,"is_disabled":false,"rental_uris":{"android":"levelo://app?vid=cf9e3ea8-7fe3-4841-8be7-537e27db4ed2","ios":"levelo://app?vid=cf9e3ea8-7fe3-4841-8be7-537e27db4ed2"},"vehicle_type_id":"4","last_reported":1721844680,"current_range_meters":1600,"station_id":"ce4bguh2rcd13ifvqckg","pricing_plan_id":"cebpf4jnsgd1na2vs0mg"},{"bike_id":"3748e580-4673-47ce-adc0-2e3dccf6ebeb","system_id":"levelo_inurba_marseille","lat":43.319163,"lon":5.367133,"is_reserved":false,"is_disabled":false,"rental_uris":{"android":"levelo://app?vid=3748e580-4673-47ce-adc0-2e3dccf6ebeb","ios":"levelo://app?vid=3748e580-4673-47ce-adc0-2e3dccf6ebeb"},"vehicle_type_id":"4","last_reported":1721844680,"current_range_meters":7200,"station_id":"","pricing_plan_id":"cebpf4jnsgd1na2vs0mg"},{"bike_id":"d8801d55-2731-47b0-a954-f47eeca06293","system_id":"levelo_inurba_marseille","lat":43.305714,"lon":5.365633,"is_reserved":false,"is_disabled":false,"rental_uris":{"android":"levelo://app?vid=d8801d55-2731-47b0-a954-f47eeca06293","ios":"levelo://app?vid=d8801d55-2731-47b0-a954-f47eeca06293"},"vehicle_type_id":"4","last_reported":1721844680,"current_range_meters":0,"station_id":"ce4bgs12rcd13ifvqcag","pricing_plan_id":"cebpf4jnsgd1na2vs0mg"},{"bike_id":"34015e55-4b80-40da-b81c-620fd4b4caaa","system_id":"levelo_inurba_marseille","lat":43.31121,"lon":5.37749,"is_reserved":false,"is_disabled":false,"rental_uris":{"android":"levelo://app?vid=34015e55-4b80-40da-b81c-620fd4b4caaa","ios":"levelo://app?vid=34015e55-4b80-40da-b81c-620fd4b4caaa"},"vehicle_type_id":"4","last_reported":1721844680,"current_range_meters":0,"station_id":"ce4bgt92rcd13ifvqcg0","pricing_plan_id":"cebpf4jnsgd1na2vs0mg"},{"bike_id":"9d826917-ef39-467e-8006-c1673ea956be","system_id":"levelo_inurba_marseille","lat":43.317075,"lon":5.377367,"is_reserved":false,"is_disabled":false,"rental_uris":{"android":"levelo://app?vid=9d826917-ef39-467e-8006-c1673ea956be","ios":"levelo://app?vid=9d826917-ef39-467e-8006-c1673ea956be"},"vehicle_type_id":"4","last_reported":1721844680,"current_range_meters":9200,"station_id":"ce4bgth2rcd13ifvqch0","pricing_plan_id":"cebpf4jnsgd1na2vs0mg"},{"bike_id":"c8820a8e-4854-4e22-9ecc-07f750a6461d","system_id":"levelo_inurba_marseille","lat":43.321575,"lon":5.36283,"is_reserved":false,"is_disabled":false,"rental_uris":{"android":"levelo://app?vid=c8820a8e-4854-4e22-9ecc-07f750a6461d","ios":"levelo://app?vid=c8820a8e-4854-4e22-9ecc-07f750a6461d"},"vehicle_type_id":"4","last_reported":1721844680,"current_range_meters":2000,"station_id":"","pricing_plan_id":"cebpf4jnsgd1na2vs0mg"},{"bike_id":"03d32f00-7e8a-48ab-afa5-8099170776d0","system_id":"levelo_inurba_marseille","lat":43.3151,"lon":5.3802,"is_reserved":false,"is_disabled":false,"rental_uris":{"android":"levelo://app?vid=03d32f00-7e8a-48ab-afa5-8099170776d0","ios":"levelo://app?vid=03d32f00-7e8a-48ab-afa5-8099170776d0"},"vehicle_type_id":"4","last_reported":1721844680,"current_range_meters":29600,"station_id":"","pricing_plan_id":"cebpf4jnsgd1na2vs0mg"},{"bike_id":"04424108-1316-4418-8382-f998c8abeaa2","system_id":"levelo_inurba_marseille","lat":43.315289,"lon":5.380349,"is_reserved":false,"is_disabled":false,"rental_uris":{"android":"levelo://app?vid=04424108-1316-4418-8382-f998c8abeaa2","ios":"levelo://app?vid=04424108-1316-4418-8382-f998c8abeaa2"},"vehicle_type_id":"4","last_reported":1721844680,"current_range_meters":16800,"station_id":"ce4bhsp2rcd13ifvqi50","pricing_plan_id":"cebpf4jnsgd1na2vs0mg"},{"bike_id":"79b4e534-2708-4b0f-a546-a7fa96a6503f","system_id":"levelo_inurba_marseille","lat":43.301939,"lon":5.366286,"is_reserved":false,"is_disabled":false,"rental_uris":{"android":"levelo://app?vid=79b4e534-2708-4b0f-a546-a7fa96a6503f","ios":"levelo://app?vid=79b4e534-2708-4b0f-a546-a7fa96a6503f"},"vehicle_type_id":"4","last_reported":1721844680,"current_range_meters":11600,"station_id":"ce4bgrh2rcd13ifvqc8g","pricing_plan_id":"cebpf4jnsgd1na2vs0mg"},{"bike_id":"a44692b7-92a7-4baa-9b2d-a9bb428da3ab","system_id":"levelo_inurba_marseille","lat":43.308012,"lon":5.381511,"is_reserved":false,"is_disabled":false,"rental_uris":{"android":"levelo://app?vid=a44692b7-92a7-4baa-9b2d-a9bb428da3ab","ios":"levelo://app?vid=a44692b7-92a7-4baa-9b2d-a9bb428da3ab"},"vehicle_type_id":"4","last_reported":1721844680,"current_range_meters":0,"station_id":"ce4bgt12rcd13ifvqce0","pricing_plan_id":"cebpf4jnsgd1na2vs0mg"},{"bike_id":"ec9185de-80fc-4964-ac02-56c898de82f4","system_id":"levelo_inurba_marseille","lat":43.324771,"lon":5.36557,"is_reserved":false,"is_disabled":false,"rental_uris":{"android":"levelo://app?vid=ec9185de-80fc-4964-ac02-56c898de82f4","ios":"levelo://app?vid=ec9185de-80fc-4964-ac02-56c898de82f4"},"vehicle_type_id":"4","last_reported":1721844680,"current_range_meters":24800,"station_id":"ce4bhs12rcd13ifvqhvg","pricing_plan_id":"cebpf4jnsgd1na2vs0mg"},{"bike_id":"17b82650-cd47-4fd2-96b2-e83a7feac7df","system_id":"levelo_inurba_marseille","lat":43.30143,"lon":5.37413,"is_reserved":false,"is_disabled":false,"rental_uris":{"android":"levelo://app?vid=17b82650-cd47-4fd2-96b2-e83a7feac7df","ios":"levelo://app?vid=17b82650-cd47-4fd2-96b2-e83a7feac7df"},"vehicle_type_id":"4","last_reported":1721844680,"current_range_meters":0,"station_id":"ce4bgs92rcd13ifvqcc0","pricing_plan_id":"cebpf4jnsgd1na2vs0mg"},{"bike_id":"7d21e837-9d2d-446e-95d2-4352698d4947","system_id":"levelo_inurba_marseille","lat":43.319935,"lon":5.381699,"is_reserved":false,"is_disabled":false,"rental_uris":{"android":"levelo://app?vid=7d21e837-9d2d-446e-95d2-4352698d4947","ios":"levelo://app?vid=7d21e837-9d2d-446e-95d2-4352698d4947"},"vehicle_type_id":"4","last_reported":1721844680,"current_range_meters":11200,"station_id":"ce4bhr12rcd13ifvqhpg","pricing_plan_id":"cebpf4jnsgd1na2vs0mg"},{"bike_id":"b448d0d6-c1d6-452e-a0ad-92828dc595df","system_id":"levelo_inurba_marseille","lat":43.299222,"lon":5.365554,"is_reserved":false,"is_disabled":false,"rental_uris":{"android":"levelo://app?vid=b448d0d6-c1d6-452e-a0ad-92828dc595df","ios":"levelo://app?vid=b448d0d6-c1d6-452e-a0ad-92828dc595df"},"vehicle_type_id":"4","last_reported":1721844680,"current_range_meters":17200,"station_id":"ce4bgm92rcd13ifvqbr0","pricing_plan_id":"cebpf4jnsgd1na2vs0mg"},{"bike_id":"2c7e6d3e-f845-4cf3-bf51-5cc528b7890b","system_id":"levelo_inurba_marseille","lat":43.299222,"lon":5.365554,"is_reserved":false,"is_disabled":false,"rental_uris":{"android":"levelo://app?vid=2c7e6d3e-f845-4cf3-bf51-5cc528b7890b","ios":"levelo://app?vid=2c7e6d3e-f845-4cf3-bf51-5cc528b7890b"},"vehicle_type_id":"4","last_reported":1721844680,"current_range_meters":17600,"station_id":"ce4bgm92rcd13ifvqbr0","pricing_plan_id":"cebpf4jnsgd1na2vs0mg"},{"bike_id":"01eb3ce2-c9d7-4592-bc0e-80176c8f835e","system_id":"levelo_inurba_marseille","lat":43.299222,"lon":5.365554,"is_reserved":false,"is_disabled":false,"rental_uris":{"android":"levelo://app?vid=01eb3ce2-c9d7-4592-bc0e-80176c8f835e","ios":"levelo://app?vid=01eb3ce2-c9d7-4592-bc0e-80176c8f835e"},"vehicle_type_id":"4","last_reported":1721844680,"current_range_meters":0,"station_id":"ce4bgm92rcd13ifvqbr0","pricing_plan_id":"cebpf4jnsgd1na2vs0mg"},{"bike_id":"b7a63376-efe0-403b-b9f6-8c114c813350","system_id":"levelo_inurba_marseille","lat":43.29857,"lon":5.36295,"is_reserved":false,"is_disabled":false,"rental_uris":{"android":"levelo://app?vid=b7a63376-efe0-403b-b9f6-8c114c813350","ios":"levelo://app?vid=b7a63376-efe0-403b-b9f6-8c114c813350"},"vehicle_type_id":"4","last_reported":1721844680,"current_range_meters":7600,"station_id":"ce4bgpp2rcd13ifvqc3g","pricing_plan_id":"cebpf4jnsgd1na2vs0mg"},{"bike_id":"be26297c-d83b-4be5-856f-f4f93c923644","system_id":"levelo_inurba_marseille","lat":43.29857,"lon":5.3629,"is_reserved":false,"is_disabled":false,"rental_uris":{"android":"levelo://app?vid=be26297c-d83b-4be5-856f-f4f93c923644","ios":"levelo://app?vid=be26297c-d83b-4be5-856f-f4f93c923644"},"vehicle_type_id":"4","last_reported":1721844680,"current_range_meters":30800,"station_id":"ce4bgpp2rcd13ifvqc3g","pricing_plan_id":"cebpf4jnsgd1na2vs0mg"},{"bike_id":"b3c97d5e-b6ba-43c6-af10-30c8437cef6b","system_id":"levelo_inurba_marseille","lat":43.30943,"lon":5.386291,"is_reserved":false,"is_disabled":false,"rental_uris":{"android":"levelo://app?vid=b3c97d5e-b6ba-43c6-af10-30c8437cef6b","ios":"levelo://app?vid=b3c97d5e-b6ba-43c6-af10-30c8437cef6b"},"vehicle_type_id":"4","last_reported":1721844680,"current_range_meters":1600,"station_id":"","pricing_plan_id":"cebpf4jnsgd1na2vs0mg"},{"bike_id":"819cd1a5-ad74-44ce-ba54-07f5551c8b82","system_id":"levelo_inurba_marseille","lat":43.29855,"lon":5.36288,"is_reserved":false,"is_disabled":false,"rental_uris":{"android":"levelo://app?vid=819cd1a5-ad74-44ce-ba54-07f5551c8b82","ios":"levelo://app?vid=819cd1a5-ad74-44ce-ba54-07f5551c8b82"},"vehicle_type_id":"4","last_reported":1721844680,"current_range_meters":24400,"station_id":"ce4bgpp2rcd13ifvqc3g","pricing_plan_id":"cebpf4jnsgd1na2vs0mg"},{"bike_id":"2fda33e9-8828-44ef-962c-7ddd0a4b61c0","system_id":"levelo_inurba_marseille","lat":43.29854,"lon":5.36291,"is_reserved":false,"is_disabled":false,"rental_uris":{"android":"levelo://app?vid=2fda33e9-8828-44ef-962c-7ddd0a4b61c0","ios":"levelo://app?vid=2fda33e9-8828-44ef-962c-7ddd0a4b61c0"},"vehicle_type_id":"4","last_reported":1721844680,"current_range_meters":31200,"station_id":"ce4bgpp2rcd13ifvqc3g","pricing_plan_id":"cebpf4jnsgd1na2vs0mg"},{"bike_id":"adda6741-911e-49f8-8417-538c69a6f9b7","system_id":"levelo_inurba_marseille","lat":43.29849,"lon":5.36288,"is_reserved":false,"is_disabled":false,"rental_uris":{"android":"levelo://app?vid=adda6741-911e-49f8-8417-538c69a6f9b7","ios":"levelo://app?vid=adda6741-911e-49f8-8417-538c69a6f9b7"},"vehicle_type_id":"4","last_reported":1721844680,"current_range_meters":8000,"station_id":"ce4bgpp2rcd13ifvqc3g","pricing_plan_id":"cebpf4jnsgd1na2vs0mg"},{"bike_id":"f707be22-ad79-47f9-9695-47f8fb921e6e","system_id":"levelo_inurba_marseille","lat":43.305364,"lon":5.384119,"is_reserved":false,"is_disabled":false,"rental_uris":{"android":"levelo://app?vid=f707be22-ad79-47f9-9695-47f8fb921e6e","ios":"levelo://app?vid=f707be22-ad79-47f9-9695-47f8fb921e6e"},"vehicle_type_id":"4","last_reported":1721844680,"current_range_meters":30800,"station_id":"ce4bgg92rcd13ifvqb30","pricing_plan_id":"cebpf4jnsgd1na2vs0mg"},{"bike_id":"26a44c11-70a3-4dba-b37a-78d754b0900c","system_id":"levelo_inurba_marseille","lat":43.298433,"lon":5.362774,"is_reserved":false,"is_disabled":false,"rental_uris":{"android":"levelo://app?vid=26a44c11-70a3-4dba-b37a-78d754b0900c","ios":"levelo://app?vid=26a44c11-70a3-4dba-b37a-78d754b0900c"},"vehicle_type_id":"4","last_reported":1721844680,"current_range_meters":13200,"station_id":"ce4bgpp2rcd13ifvqc3g","pricing_plan_id":"cebpf4jnsgd1na2vs0mg"},{"bike_id":"f772ccf4-aa02-463d-923c-7a0d0d4d3b42","system_id":"levelo_inurba_marseille","lat":43.298433,"lon":5.362774,"is_reserved":false,"is_disabled":false,"rental_uris":{"android":"levelo://app?vid=f772ccf4-aa02-463d-923c-7a0d0d4d3b42","ios":"levelo://app?vid=f772ccf4-aa02-463d-923c-7a0d0d4d3b42"},"vehicle_type_id":"4","last_reported":1721844680,"current_range_meters":18000,"station_id":"ce4bgpp2rcd13ifvqc3g","pricing_plan_id":"cebpf4jnsgd1na2vs0mg"},{"bike_id":"a24b35ca-99c6-455d-be80-fb0797e8511d","system_id":"levelo_inurba_marseille","lat":43.298433,"lon":5.362774,"is_reserved":false,"is_disabled":false,"rental_uris":{"android":"levelo://app?vid=a24b35ca-99c6-455d-be80-fb0797e8511d","ios":"levelo://app?vid=a24b35ca-99c6-455d-be80-fb0797e8511d"},"vehicle_type_id":"4","last_reported":1721844680,"current_range_meters":12000,"station_id":"ce4bgpp2rcd13ifvqc3g","pricing_plan_id":"cebpf4jnsgd1na2vs0mg"},{"bike_id":"5c5865b8-d001-4b73-ae87-f86ac986c649","system_id":"levelo_inurba_marseille","lat":43.305364,"lon":5.384119,"is_reserved":false,"is_disabled":false,"rental_uris":{"android":"levelo://app?vid=5c5865b8-d001-4b73-ae87-f86ac986c649","ios":"levelo://app?vid=5c5865b8-d001-4b73-ae87-f86ac986c649"},"vehicle_type_id":"4","last_reported":1721844680,"current_range_meters":18800,"station_id":"ce4bgg92rcd13ifvqb30","pricing_plan_id":"cebpf4jnsgd1na2vs0mg"},{"bike_id":"bf406ff6-7fde-4f4f-be76-572165eb1963","system_id":"levelo_inurba_marseille","lat":43.298433,"lon":5.362774,"is_reserved":false,"is_disabled":false,"rental_uris":{"android":"levelo://app?vid=bf406ff6-7fde-4f4f-be76-572165eb1963","ios":"levelo://app?vid=bf406ff6-7fde-4f4f-be76-572165eb1963"},"vehicle_type_id":"4","last_reported":1721844680,"current_range_meters":0,"station_id":"ce4bgpp2rcd13ifvqc3g","pricing_plan_id":"cebpf4jnsgd1na2vs0mg"},{"bike_id":"95f6ab04-b95b-48a0-9509-0ab9f5352dd6","system_id":"levelo_inurba_marseille","lat":43.298433,"lon":5.362774,"is_reserved":false,"is_disabled":false,"rental_uris":{"android":"levelo://app?vid=95f6ab04-b95b-48a0-9509-0ab9f5352dd6","ios":"levelo://app?vid=95f6ab04-b95b-48a0-9509-0ab9f5352dd6"},"vehicle_type_id":"4","last_reported":1721844680,"current_range_meters":13200,"station_id":"ce4bgpp2rcd13ifvqc3g","pricing_plan_id":"cebpf4jnsgd1na2vs0mg"},{"bike_id":"5243f123-932d-47a0-870e-bdf1dc633921","system_id":"levelo_inurba_marseille","lat":43.298433,"lon":5.362774,"is_reserved":false,"is_disabled":false,"rental_uris":{"android":"levelo://app?vid=5243f123-932d-47a0-870e-bdf1dc633921","ios":"levelo://app?vid=5243f123-932d-47a0-870e-bdf1dc633921"},"vehicle_type_id":"4","last_reported":1721844680,"current_range_meters":30800,"station_id":"ce4bgpp2rcd13ifvqc3g","pricing_plan_id":"cebpf4jnsgd1na2vs0mg"},{"bike_id":"7ae003da-b9aa-4e5a-a804-a02844d4489b","system_id":"levelo_inurba_marseille","lat":43.298433,"lon":5.362774,"is_reserved":false,"is_disabled":false,"rental_uris":{"android":"levelo://app?vid=7ae003da-b9aa-4e5a-a804-a02844d4489b","ios":"levelo://app?vid=7ae003da-b9aa-4e5a-a804-a02844d4489b"},"vehicle_type_id":"4","last_reported":1721844680,"current_range_meters":29600,"station_id":"ce4bgpp2rcd13ifvqc3g","pricing_plan_id":"cebpf4jnsgd1na2vs0mg"},{"bike_id":"98a5380c-edb7-4b98-99b5-fd6af2782867","system_id":"levelo_inurba_marseille","lat":43.298433,"lon":5.362774,"is_reserved":false,"is_disabled":false,"rental_uris":{"android":"levelo://app?vid=98a5380c-edb7-4b98-99b5-fd6af2782867","ios":"levelo://app?vid=98a5380c-edb7-4b98-99b5-fd6af2782867"},"vehicle_type_id":"4","last_reported":1721844680,"current_range_meters":24400,"station_id":"ce4bgpp2rcd13ifvqc3g","pricing_plan_id":"cebpf4jnsgd1na2vs0mg"},{"bike_id":"3fbc14ef-1ae9-44ed-8a4a-fbeba87f30e4","system_id":"levelo_inurba_marseille","lat":43.311722,"lon":5.387247,"is_reserved":false,"is_disabled":false,"rental_uris":{"android":"levelo://app?vid=3fbc14ef-1ae9-44ed-8a4a-fbeba87f30e4","ios":"levelo://app?vid=3fbc14ef-1ae9-44ed-8a4a-fbeba87f30e4"},"vehicle_type_id":"4","last_reported":1721844680,"current_range_meters":4400,"station_id":"ce4bgv12rcd13ifvqcp0","pricing_plan_id":"cebpf4jnsgd1na2vs0mg"},{"bike_id":"61199f37-df97-4042-8347-37e6ae7dcced","system_id":"levelo_inurba_marseille","lat":43.311722,"lon":5.387247,"is_reserved":false,"is_disabled":false,"rental_uris":{"android":"levelo://app?vid=61199f37-df97-4042-8347-37e6ae7dcced","ios":"levelo://app?vid=61199f37-df97-4042-8347-37e6ae7dcced"},"vehicle_type_id":"4","last_reported":1721844680,"current_range_meters":30400,"station_id":"ce4bgv12rcd13ifvqcp0","pricing_plan_id":"cebpf4jnsgd1na2vs0mg"},{"bike_id":"870ecf3a-6020-4cd2-853d-6a7fbf7a9f49","system_id":"levelo_inurba_marseille","lat":43.30141,"lon":5.3805,"is_reserved":false,"is_disabled":false,"rental_uris":{"android":"levelo://app?vid=870ecf3a-6020-4cd2-853d-6a7fbf7a9f49","ios":"levelo://app?vid=870ecf3a-6020-4cd2-853d-6a7fbf7a9f49"},"vehicle_type_id":"4","last_reported":1721844680,"current_range_meters":20400,"station_id":"","pricing_plan_id":"cebpf4jnsgd1na2vs0mg"},{"bike_id":"b175610a-4c59-44ad-a3af-c3e4b597556f","system_id":"levelo_inurba_marseille","lat":43.32283,"lon":5.38275,"is_reserved":false,"is_disabled":false,"rental_uris":{"android":"levelo://app?vid=b175610a-4c59-44ad-a3af-c3e4b597556f","ios":"levelo://app?vid=b175610a-4c59-44ad-a3af-c3e4b597556f"},"vehicle_type_id":"4","last_reported":1721844680,"current_range_meters":18000,"station_id":"ce4bhr12rcd13ifvqhqg","pricing_plan_id":"cebpf4jnsgd1na2vs0mg"},{"bike_id":"c35b388e-e3c9-4fcc-91b7-5672aa48325d","system_id":"levelo_inurba_marseille","lat":43.322985,"lon":5.382623,"is_reserved":false,"is_disabled":false,"rental_uris":{"android":"levelo://app?vid=c35b388e-e3c9-4fcc-91b7-5672aa48325d","ios":"levelo://app?vid=c35b388e-e3c9-4fcc-91b7-5672aa48325d"},"vehicle_type_id":"4","last_reported":1721844680,"current_range_meters":18800,"station_id":"ce4bhr12rcd13ifvqhqg","pricing_plan_id":"cebpf4jnsgd1na2vs0mg"},{"bike_id":"4ce8e85c-4bf4-46e2-809d-7743e8364abe","system_id":"levelo_inurba_marseille","lat":43.297163,"lon":5.365866,"is_reserved":false,"is_disabled":false,"rental_uris":{"android":"levelo://app?vid=4ce8e85c-4bf4-46e2-809d-7743e8364abe","ios":"levelo://app?vid=4ce8e85c-4bf4-46e2-809d-7743e8364abe"},"vehicle_type_id":"4","last_reported":1721844680,"current_range_meters":6000,"station_id":"ce4bgn12rcd13ifvqbt0","pricing_plan_id":"cebpf4jnsgd1na2vs0mg"},{"bike_id":"153ebaf7-8b97-446b-8d00-2d09966b0d21","system_id":"levelo_inurba_marseille","lat":43.297163,"lon":5.365866,"is_reserved":false,"is_disabled":false,"rental_uris":{"android":"levelo://app?vid=153ebaf7-8b97-446b-8d00-2d09966b0d21","ios":"levelo://app?vid=153ebaf7-8b97-446b-8d00-2d09966b0d21"},"vehicle_type_id":"4","last_reported":1721844680,"current_range_meters":19200,"station_id":"ce4bgn12rcd13ifvqbt0","pricing_plan_id":"cebpf4jnsgd1na2vs0mg"},{"bike_id":"0b9724ab-1dfb-48b1-bfb0-ad42d6bc3145","system_id":"levelo_inurba_marseille","lat":43.297163,"lon":5.365866,"is_reserved":false,"is_disabled":false,"rental_uris":{"android":"levelo://app?vid=0b9724ab-1dfb-48b1-bfb0-ad42d6bc3145","ios":"levelo://app?vid=0b9724ab-1dfb-48b1-bfb0-ad42d6bc3145"},"vehicle_type_id":"4","last_reported":1721844680,"current_range_meters":400,"station_id":"ce4bgn12rcd13ifvqbt0","pricing_plan_id":"cebpf4jnsgd1na2vs0mg"},{"bike_id":"14541d82-ca7b-4f40-bf1b-40c3a0eb5108","system_id":"levelo_inurba_marseille","lat":43.297163,"lon":5.365866,"is_reserved":false,"is_disabled":false,"rental_uris":{"android":"levelo://app?vid=14541d82-ca7b-4f40-bf1b-40c3a0eb5108","ios":"levelo://app?vid=14541d82-ca7b-4f40-bf1b-40c3a0eb5108"},"vehicle_type_id":"4","last_reported":1721844680,"current_range_meters":31200,"station_id":"ce4bgn12rcd13ifvqbt0","pricing_plan_id":"cebpf4jnsgd1na2vs0mg"},{"bike_id":"6eeaa4e3-bdca-4793-8c63-7ab76809daad","system_id":"levelo_inurba_marseille","lat":43.296131,"lon":5.370773,"is_reserved":false,"is_disabled":false,"rental_uris":{"android":"levelo://app?vid=6eeaa4e3-bdca-4793-8c63-7ab76809daad","ios":"levelo://app?vid=6eeaa4e3-bdca-4793-8c63-7ab76809daad"},"vehicle_type_id":"4","last_reported":1721844680,"current_range_meters":2800,"station_id":"ce4bgnh2rcd13ifvqc0g","pricing_plan_id":"cebpf4jnsgd1na2vs0mg"},{"bike_id":"476f0ff2-41d5-4a26-b493-ebafce41d36c","system_id":"levelo_inurba_marseille","lat":43.296935,"lon":5.376544,"is_reserved":false,"is_disabled":false,"rental_uris":{"android":"levelo://app?vid=476f0ff2-41d5-4a26-b493-ebafce41d36c","ios":"levelo://app?vid=476f0ff2-41d5-4a26-b493-ebafce41d36c"},"vehicle_type_id":"4","last_reported":1721844680,"current_range_meters":27200,"station_id":"ce4bgkh2rcd13ifvqbl0","pricing_plan_id":"cebpf4jnsgd1na2vs0mg"},{"bike_id":"05b664c6-1c40-428d-9320-1e00c7c96932","system_id":"levelo_inurba_marseille","lat":43.296921,"lon":5.376579,"is_reserved":false,"is_disabled":false,"rental_uris":{"android":"levelo://app?vid=05b664c6-1c40-428d-9320-1e00c7c96932","ios":"levelo://app?vid=05b664c6-1c40-428d-9320-1e00c7c96932"},"vehicle_type_id":"4","last_reported":1721844680,"current_range_meters":27600,"station_id":"ce4bgkh2rcd13ifvqbl0","pricing_plan_id":"cebpf4jnsgd1na2vs0mg"},{"bike_id":"2ce97399-6cad-4c3f-ba74-694adc09e780","system_id":"levelo_inurba_marseille","lat":43.299028,"lon":5.381509,"is_reserved":false,"is_disabled":false,"rental_uris":{"android":"levelo://app?vid=2ce97399-6cad-4c3f-ba74-694adc09e780","ios":"levelo://app?vid=2ce97399-6cad-4c3f-ba74-694adc09e780"},"vehicle_type_id":"4","last_reported":1721844680,"current_range_meters":26800,"station_id":"ce4bgj12rcd13ifvqbc0","pricing_plan_id":"cebpf4jnsgd1na2vs0mg"},{"bike_id":"c3ae888e-f79f-4569-86dc-873469c25c6c","system_id":"levelo_inurba_marseille","lat":43.30271,"lon":5.38642,"is_reserved":false,"is_disabled":false,"rental_uris":{"android":"levelo://app?vid=c3ae888e-f79f-4569-86dc-873469c25c6c","ios":"levelo://app?vid=c3ae888e-f79f-4569-86dc-873469c25c6c"},"vehicle_type_id":"4","last_reported":1721844680,"current_range_meters":19200,"station_id":"","pricing_plan_id":"cebpf4jnsgd1na2vs0mg"},{"bike_id":"7b98ac39-87b5-45e8-8e54-34cf04c35f34","system_id":"levelo_inurba_marseille","lat":43.317557,"lon":5.390173,"is_reserved":false,"is_disabled":false,"rental_uris":{"android":"levelo://app?vid=7b98ac39-87b5-45e8-8e54-34cf04c35f34","ios":"levelo://app?vid=7b98ac39-87b5-45e8-8e54-34cf04c35f34"},"vehicle_type_id":"4","last_reported":1721844680,"current_range_meters":800,"station_id":"ce4bhqp2rcd13ifvqhng","pricing_plan_id":"cebpf4jnsgd1na2vs0mg"},{"bike_id":"b57e1efd-c77b-4b17-bc06-bcbb1374d539","system_id":"levelo_inurba_marseille","lat":43.317557,"lon":5.390173,"is_reserved":false,"is_disabled":false,"rental_uris":{"android":"levelo://app?vid=b57e1efd-c77b-4b17-bc06-bcbb1374d539","ios":"levelo://app?vid=b57e1efd-c77b-4b17-bc06-bcbb1374d539"},"vehicle_type_id":"4","last_reported":1721844680,"current_range_meters":7200,"station_id":"ce4bhqp2rcd13ifvqhng","pricing_plan_id":"cebpf4jnsgd1na2vs0mg"},{"bike_id":"2bd240be-2ed9-4e14-8339-e38a92940999","system_id":"levelo_inurba_marseille","lat":43.317557,"lon":5.390173,"is_reserved":false,"is_disabled":false,"rental_uris":{"android":"levelo://app?vid=2bd240be-2ed9-4e14-8339-e38a92940999","ios":"levelo://app?vid=2bd240be-2ed9-4e14-8339-e38a92940999"},"vehicle_type_id":"4","last_reported":1721844680,"current_range_meters":15600,"station_id":"ce4bhqp2rcd13ifvqhng","pricing_plan_id":"cebpf4jnsgd1na2vs0mg"},{"bike_id":"97e54871-3b31-4aaa-ac1c-7133df257700","system_id":"levelo_inurba_marseille","lat":43.298037,"lon":5.381066,"is_reserved":false,"is_disabled":false,"rental_uris":{"android":"levelo://app?vid=97e54871-3b31-4aaa-ac1c-7133df257700","ios":"levelo://app?vid=97e54871-3b31-4aaa-ac1c-7133df257700"},"vehicle_type_id":"4","last_reported":1721844680,"current_range_meters":12400,"station_id":"ce4bgip2rcd13ifvqbb0","pricing_plan_id":"cebpf4jnsgd1na2vs0mg"},{"bike_id":"50b5bba8-61a6-4725-b3c1-0f53a8b9c683","system_id":"levelo_inurba_marseille","lat":43.298037,"lon":5.381066,"is_reserved":false,"is_disabled":false,"rental_uris":{"android":"levelo://app?vid=50b5bba8-61a6-4725-b3c1-0f53a8b9c683","ios":"levelo://app?vid=50b5bba8-61a6-4725-b3c1-0f53a8b9c683"},"vehicle_type_id":"4","last_reported":1721844680,"current_range_meters":1600,"station_id":"ce4bgip2rcd13ifvqbb0","pricing_plan_id":"cebpf4jnsgd1na2vs0mg"},{"bike_id":"05963c74-f93b-4a41-bea8-d4f5607fff0d","system_id":"levelo_inurba_marseille","lat":43.296263,"lon":5.377094,"is_reserved":false,"is_disabled":false,"rental_uris":{"android":"levelo://app?vid=05963c74-f93b-4a41-bea8-d4f5607fff0d","ios":"levelo://app?vid=05963c74-f93b-4a41-bea8-d4f5607fff0d"},"vehicle_type_id":"4","last_reported":1721844680,"current_range_meters":29200,"station_id":"ce4bgi92rcd13ifvqb90","pricing_plan_id":"cebpf4jnsgd1na2vs0mg"},{"bike_id":"4c131039-9d88-4056-9970-57c868141e43","system_id":"levelo_inurba_marseille","lat":43.296277,"lon":5.377108,"is_reserved":false,"is_disabled":false,"rental_uris":{"android":"levelo://app?vid=4c131039-9d88-4056-9970-57c868141e43","ios":"levelo://app?vid=4c131039-9d88-4056-9970-57c868141e43"},"vehicle_type_id":"4","last_reported":1721844680,"current_range_meters":15600,"station_id":"ce4bgi92rcd13ifvqb90","pricing_plan_id":"cebpf4jnsgd1na2vs0mg"},{"bike_id":"55e3a80c-02f7-480a-9569-80ea99a3ef82","system_id":"levelo_inurba_marseille","lat":43.298037,"lon":5.381066,"is_reserved":false,"is_disabled":false,"rental_uris":{"android":"levelo://app?vid=55e3a80c-02f7-480a-9569-80ea99a3ef82","ios":"levelo://app?vid=55e3a80c-02f7-480a-9569-80ea99a3ef82"},"vehicle_type_id":"4","last_reported":1721844680,"current_range_meters":0,"station_id":"ce4bgip2rcd13ifvqbb0","pricing_plan_id":"cebpf4jnsgd1na2vs0mg"},{"bike_id":"71429022-ee47-489d-adb6-a6aa40b0cebf","system_id":"levelo_inurba_marseille","lat":43.295279,"lon":5.375048,"is_reserved":false,"is_disabled":false,"rental_uris":{"android":"levelo://app?vid=71429022-ee47-489d-adb6-a6aa40b0cebf","ios":"levelo://app?vid=71429022-ee47-489d-adb6-a6aa40b0cebf"},"vehicle_type_id":"4","last_reported":1721844680,"current_range_meters":7600,"station_id":"ce4bgkp2rcd13ifvqbmg","pricing_plan_id":"cebpf4jnsgd1na2vs0mg"},{"bike_id":"25639a27-d79d-4029-989c-941ce0cbde77","system_id":"levelo_inurba_marseille","lat":43.299707,"lon":5.384859,"is_reserved":false,"is_disabled":false,"rental_uris":{"android":"levelo://app?vid=25639a27-d79d-4029-989c-941ce0cbde77","ios":"levelo://app?vid=25639a27-d79d-4029-989c-941ce0cbde77"},"vehicle_type_id":"4","last_reported":1721844680,"current_range_meters":24000,"station_id":"ce4bgj92rcd13ifvqbd0","pricing_plan_id":"cebpf4jnsgd1na2vs0mg"},{"bike_id":"0a3bfca3-b4b6-4797-a96e-3a75d2a2db84","system_id":"levelo_inurba_marseille","lat":43.31459,"lon":5.392223,"is_reserved":false,"is_disabled":false,"rental_uris":{"android":"levelo://app?vid=0a3bfca3-b4b6-4797-a96e-3a75d2a2db84","ios":"levelo://app?vid=0a3bfca3-b4b6-4797-a96e-3a75d2a2db84"},"vehicle_type_id":"4","last_reported":1721844680,"current_range_meters":800,"station_id":"","pricing_plan_id":"cebpf4jnsgd1na2vs0mg"},{"bike_id":"fb3e10ba-cb5f-4eae-b024-a71cb7aca3b8","system_id":"levelo_inurba_marseille","lat":43.32367,"lon":5.388836,"is_reserved":false,"is_disabled":false,"rental_uris":{"android":"levelo://app?vid=fb3e10ba-cb5f-4eae-b024-a71cb7aca3b8","ios":"levelo://app?vid=fb3e10ba-cb5f-4eae-b024-a71cb7aca3b8"},"vehicle_type_id":"4","last_reported":1721844680,"current_range_meters":2000,"station_id":"ce4bhqp2rcd13ifvqhog","pricing_plan_id":"cebpf4jnsgd1na2vs0mg"},{"bike_id":"4d915183-efd7-413f-a2f8-b07eee030511","system_id":"levelo_inurba_marseille","lat":43.32367,"lon":5.388836,"is_reserved":false,"is_disabled":false,"rental_uris":{"android":"levelo://app?vid=4d915183-efd7-413f-a2f8-b07eee030511","ios":"levelo://app?vid=4d915183-efd7-413f-a2f8-b07eee030511"},"vehicle_type_id":"4","last_reported":1721844680,"current_range_meters":10000,"station_id":"ce4bhqp2rcd13ifvqhog","pricing_plan_id":"cebpf4jnsgd1na2vs0mg"},{"bike_id":"aaa3b002-af25-42ea-b990-e2ab31d84b29","system_id":"levelo_inurba_marseille","lat":43.32367,"lon":5.388836,"is_reserved":false,"is_disabled":false,"rental_uris":{"android":"levelo://app?vid=aaa3b002-af25-42ea-b990-e2ab31d84b29","ios":"levelo://app?vid=aaa3b002-af25-42ea-b990-e2ab31d84b29"},"vehicle_type_id":"4","last_reported":1721844680,"current_range_meters":1600,"station_id":"ce4bhqp2rcd13ifvqhog","pricing_plan_id":"cebpf4jnsgd1na2vs0mg"},{"bike_id":"6ea82ded-e771-44ff-96b0-4adb0d64dae0","system_id":"levelo_inurba_marseille","lat":43.32367,"lon":5.388836,"is_reserved":false,"is_disabled":false,"rental_uris":{"android":"levelo://app?vid=6ea82ded-e771-44ff-96b0-4adb0d64dae0","ios":"levelo://app?vid=6ea82ded-e771-44ff-96b0-4adb0d64dae0"},"vehicle_type_id":"4","last_reported":1721844680,"current_range_meters":11600,"station_id":"ce4bhqp2rcd13ifvqhog","pricing_plan_id":"cebpf4jnsgd1na2vs0mg"},{"bike_id":"29fb84e3-2d16-454b-8de8-b84c4b718266","system_id":"levelo_inurba_marseille","lat":43.32367,"lon":5.388836,"is_reserved":false,"is_disabled":false,"rental_uris":{"android":"levelo://app?vid=29fb84e3-2d16-454b-8de8-b84c4b718266","ios":"levelo://app?vid=29fb84e3-2d16-454b-8de8-b84c4b718266"},"vehicle_type_id":"4","last_reported":1721844680,"current_range_meters":1600,"station_id":"ce4bhqp2rcd13ifvqhog","pricing_plan_id":"cebpf4jnsgd1na2vs0mg"},{"bike_id":"09bd8aae-7396-4cb8-bb40-e20d8fcf43f7","system_id":"levelo_inurba_marseille","lat":43.29602,"lon":5.381084,"is_reserved":false,"is_disabled":false,"rental_uris":{"android":"levelo://app?vid=09bd8aae-7396-4cb8-bb40-e20d8fcf43f7","ios":"levelo://app?vid=09bd8aae-7396-4cb8-bb40-e20d8fcf43f7"},"vehicle_type_id":"4","last_reported":1721844680,"current_range_meters":31600,"station_id":"ce4bgl12rcd13ifvqbo0","pricing_plan_id":"cebpf4jnsgd1na2vs0mg"},{"bike_id":"e3b86603-f80a-45f2-81d0-e7a4c486f424","system_id":"levelo_inurba_marseille","lat":43.29602,"lon":5.381084,"is_reserved":false,"is_disabled":false,"rental_uris":{"android":"levelo://app?vid=e3b86603-f80a-45f2-81d0-e7a4c486f424","ios":"levelo://app?vid=e3b86603-f80a-45f2-81d0-e7a4c486f424"},"vehicle_type_id":"4","last_reported":1721844680,"current_range_meters":23600,"station_id":"ce4bgl12rcd13ifvqbo0","pricing_plan_id":"cebpf4jnsgd1na2vs0mg"},{"bike_id":"516da57e-800d-4be7-9e8f-43f883d79b36","system_id":"levelo_inurba_marseille","lat":43.29602,"lon":5.381084,"is_reserved":false,"is_disabled":false,"rental_uris":{"android":"levelo://app?vid=516da57e-800d-4be7-9e8f-43f883d79b36","ios":"levelo://app?vid=516da57e-800d-4be7-9e8f-43f883d79b36"},"vehicle_type_id":"4","last_reported":1721844680,"current_range_meters":28400,"station_id":"ce4bgl12rcd13ifvqbo0","pricing_plan_id":"cebpf4jnsgd1na2vs0mg"},{"bike_id":"49088028-c461-4084-b6a9-b0ea815a51e8","system_id":"levelo_inurba_marseille","lat":43.293259,"lon":5.371586,"is_reserved":false,"is_disabled":false,"rental_uris":{"android":"levelo://app?vid=49088028-c461-4084-b6a9-b0ea815a51e8","ios":"levelo://app?vid=49088028-c461-4084-b6a9-b0ea815a51e8"},"vehicle_type_id":"4","last_reported":1721844680,"current_range_meters":0,"station_id":"ce4bgh92rcd13ifvqb40","pricing_plan_id":"cebpf4jnsgd1na2vs0mg"},{"bike_id":"4fdcedba-ab68-4b22-86c6-ac42ea70d1a3","system_id":"levelo_inurba_marseille","lat":43.293259,"lon":5.371586,"is_reserved":false,"is_disabled":false,"rental_uris":{"android":"levelo://app?vid=4fdcedba-ab68-4b22-86c6-ac42ea70d1a3","ios":"levelo://app?vid=4fdcedba-ab68-4b22-86c6-ac42ea70d1a3"},"vehicle_type_id":"4","last_reported":1721844680,"current_range_meters":7200,"station_id":"ce4bgh92rcd13ifvqb40","pricing_plan_id":"cebpf4jnsgd1na2vs0mg"},{"bike_id":"21f90b15-9877-40c5-8972-c3cd86d10bfa","system_id":"levelo_inurba_marseille","lat":43.292749,"lon":5.368402,"is_reserved":false,"is_disabled":false,"rental_uris":{"android":"levelo://app?vid=21f90b15-9877-40c5-8972-c3cd86d10bfa","ios":"levelo://app?vid=21f90b15-9877-40c5-8972-c3cd86d10bfa"},"vehicle_type_id":"4","last_reported":1721844680,"current_range_meters":0,"station_id":"ce4bhbp2rcd13ifvqesg","pricing_plan_id":"cebpf4jnsgd1na2vs0mg"},{"bike_id":"fa4fcddb-c99d-40c2-8d5c-b2219339c85f","system_id":"levelo_inurba_marseille","lat":43.293009,"lon":5.374584,"is_reserved":false,"is_disabled":false,"rental_uris":{"android":"levelo://app?vid=fa4fcddb-c99d-40c2-8d5c-b2219339c85f","ios":"levelo://app?vid=fa4fcddb-c99d-40c2-8d5c-b2219339c85f"},"vehicle_type_id":"4","last_reported":1721844680,"current_range_meters":0,"station_id":"ce4bgi12rcd13ifvqb70","pricing_plan_id":"cebpf4jnsgd1na2vs0mg"},{"bike_id":"bda530f3-9c84-4201-b4cf-6215112627eb","system_id":"levelo_inurba_marseille","lat":43.305994,"lon":5.393687,"is_reserved":false,"is_disabled":false,"rental_uris":{"android":"levelo://app?vid=bda530f3-9c84-4201-b4cf-6215112627eb","ios":"levelo://app?vid=bda530f3-9c84-4201-b4cf-6215112627eb"},"vehicle_type_id":"4","last_reported":1721844680,"current_range_meters":10000,"station_id":"ce4bh0p2rcd13ifvqd80","pricing_plan_id":"cebpf4jnsgd1na2vs0mg"},{"bike_id":"b66dbe62-ae57-4834-8457-9008d495c27b","system_id":"levelo_inurba_marseille","lat":43.302992,"lon":5.392136,"is_reserved":false,"is_disabled":false,"rental_uris":{"android":"levelo://app?vid=b66dbe62-ae57-4834-8457-9008d495c27b","ios":"levelo://app?vid=b66dbe62-ae57-4834-8457-9008d495c27b"},"vehicle_type_id":"4","last_reported":1721844680,"current_range_meters":31200,"station_id":"ce4bgkh2rcd13ifvqbk0","pricing_plan_id":"cebpf4jnsgd1na2vs0mg"},{"bike_id":"cdccfb31-c2d2-4508-a732-36e62e5e0e28","system_id":"levelo_inurba_marseille","lat":43.293761,"lon":5.378627,"is_reserved":false,"is_disabled":false,"rental_uris":{"android":"levelo://app?vid=cdccfb31-c2d2-4508-a732-36e62e5e0e28","ios":"levelo://app?vid=cdccfb31-c2d2-4508-a732-36e62e5e0e28"},"vehicle_type_id":"4","last_reported":1721844680,"current_range_meters":0,"station_id":"ce4bgjh2rcd13ifvqbf0","pricing_plan_id":"cebpf4jnsgd1na2vs0mg"},{"bike_id":"00c909f5-c077-46a3-a80b-3bb06c1f67b7","system_id":"levelo_inurba_marseille","lat":43.2936,"lon":5.37835,"is_reserved":false,"is_disabled":false,"rental_uris":{"android":"levelo://app?vid=00c909f5-c077-46a3-a80b-3bb06c1f67b7","ios":"levelo://app?vid=00c909f5-c077-46a3-a80b-3bb06c1f67b7"},"vehicle_type_id":"4","last_reported":1721844680,"current_range_meters":0,"station_id":"ce4bgjh2rcd13ifvqbf0","pricing_plan_id":"cebpf4jnsgd1na2vs0mg"},{"bike_id":"3226accd-03d8-462e-8991-c902e5d5d83d","system_id":"levelo_inurba_marseille","lat":43.32639,"lon":5.38867,"is_reserved":false,"is_disabled":false,"rental_uris":{"android":"levelo://app?vid=3226accd-03d8-462e-8991-c902e5d5d83d","ios":"levelo://app?vid=3226accd-03d8-462e-8991-c902e5d5d83d"},"vehicle_type_id":"4","last_reported":1721844680,"current_range_meters":22000,"station_id":"","pricing_plan_id":"cebpf4jnsgd1na2vs0mg"},{"bike_id":"09b7486b-e052-4c42-8114-69b4865d134f","system_id":"levelo_inurba_marseille","lat":43.2923,"lon":5.36063,"is_reserved":false,"is_disabled":false,"rental_uris":{"android":"levelo://app?vid=09b7486b-e052-4c42-8114-69b4865d134f","ios":"levelo://app?vid=09b7486b-e052-4c42-8114-69b4865d134f"},"vehicle_type_id":"4","last_reported":1721844680,"current_range_meters":1200,"station_id":"ce4bhbh2rcd13ifvqeqg","pricing_plan_id":"cebpf4jnsgd1na2vs0mg"},{"bike_id":"3bb7ab76-5a3f-4933-bae2-c90f20a5f61a","system_id":"levelo_inurba_marseille","lat":43.29228,"lon":5.36067,"is_reserved":false,"is_disabled":false,"rental_uris":{"android":"levelo://app?vid=3bb7ab76-5a3f-4933-bae2-c90f20a5f61a","ios":"levelo://app?vid=3bb7ab76-5a3f-4933-bae2-c90f20a5f61a"},"vehicle_type_id":"4","last_reported":1721844680,"current_range_meters":12800,"station_id":"ce4bhbh2rcd13ifvqeqg","pricing_plan_id":"cebpf4jnsgd1na2vs0mg"},{"bike_id":"079bf6ce-a311-43d6-8d6f-2d8fae716a44","system_id":"levelo_inurba_marseille","lat":43.29226,"lon":5.36073,"is_reserved":false,"is_disabled":false,"rental_uris":{"android":"levelo://app?vid=079bf6ce-a311-43d6-8d6f-2d8fae716a44","ios":"levelo://app?vid=079bf6ce-a311-43d6-8d6f-2d8fae716a44"},"vehicle_type_id":"4","last_reported":1721844680,"current_range_meters":18000,"station_id":"ce4bhbh2rcd13ifvqeqg","pricing_plan_id":"cebpf4jnsgd1na2vs0mg"},{"bike_id":"333936c2-68fd-4b17-bbdc-083d9aeed9ba","system_id":"levelo_inurba_marseille","lat":43.29221,"lon":5.36068,"is_reserved":false,"is_disabled":false,"rental_uris":{"android":"levelo://app?vid=333936c2-68fd-4b17-bbdc-083d9aeed9ba","ios":"levelo://app?vid=333936c2-68fd-4b17-bbdc-083d9aeed9ba"},"vehicle_type_id":"4","last_reported":1721844680,"current_range_meters":17600,"station_id":"ce4bhbh2rcd13ifvqeqg","pricing_plan_id":"cebpf4jnsgd1na2vs0mg"},{"bike_id":"8857702d-71a6-4ae7-a20f-96a2cc6a3571","system_id":"levelo_inurba_marseille","lat":43.29218,"lon":5.36072,"is_reserved":false,"is_disabled":false,"rental_uris":{"android":"levelo://app?vid=8857702d-71a6-4ae7-a20f-96a2cc6a3571","ios":"levelo://app?vid=8857702d-71a6-4ae7-a20f-96a2cc6a3571"},"vehicle_type_id":"4","last_reported":1721844680,"current_range_meters":0,"station_id":"ce4bhbh2rcd13ifvqeqg","pricing_plan_id":"cebpf4jnsgd1na2vs0mg"},{"bike_id":"fafa8b91-09fd-4e15-baee-dc675441859a","system_id":"levelo_inurba_marseille","lat":43.29219,"lon":5.36048,"is_reserved":false,"is_disabled":false,"rental_uris":{"android":"levelo://app?vid=fafa8b91-09fd-4e15-baee-dc675441859a","ios":"levelo://app?vid=fafa8b91-09fd-4e15-baee-dc675441859a"},"vehicle_type_id":"4","last_reported":1721844680,"current_range_meters":0,"station_id":"ce4bhbh2rcd13ifvqeqg","pricing_plan_id":"cebpf4jnsgd1na2vs0mg"},{"bike_id":"c8102d27-1883-44a1-ba5d-9943ecc02b9e","system_id":"levelo_inurba_marseille","lat":43.29215,"lon":5.36056,"is_reserved":false,"is_disabled":false,"rental_uris":{"android":"levelo://app?vid=c8102d27-1883-44a1-ba5d-9943ecc02b9e","ios":"levelo://app?vid=c8102d27-1883-44a1-ba5d-9943ecc02b9e"},"vehicle_type_id":"4","last_reported":1721844680,"current_range_meters":0,"station_id":"ce4bhbh2rcd13ifvqeqg","pricing_plan_id":"cebpf4jnsgd1na2vs0mg"},{"bike_id":"6ae4118f-32b2-41b3-92eb-5652f1f0326a","system_id":"levelo_inurba_marseille","lat":43.2921,"lon":5.36065,"is_reserved":false,"is_disabled":false,"rental_uris":{"android":"levelo://app?vid=6ae4118f-32b2-41b3-92eb-5652f1f0326a","ios":"levelo://app?vid=6ae4118f-32b2-41b3-92eb-5652f1f0326a"},"vehicle_type_id":"4","last_reported":1721844680,"current_range_meters":0,"station_id":"ce4bhbh2rcd13ifvqeqg","pricing_plan_id":"cebpf4jnsgd1na2vs0mg"},{"bike_id":"58950146-4db1-49f7-bd89-cb5c3a783174","system_id":"levelo_inurba_marseille","lat":43.30891,"lon":5.39628,"is_reserved":false,"is_disabled":false,"rental_uris":{"android":"levelo://app?vid=58950146-4db1-49f7-bd89-cb5c3a783174","ios":"levelo://app?vid=58950146-4db1-49f7-bd89-cb5c3a783174"},"vehicle_type_id":"4","last_reported":1721844680,"current_range_meters":0,"station_id":"ce4bh012rcd13ifvqcv0","pricing_plan_id":"cebpf4jnsgd1na2vs0mg"},{"bike_id":"d2e8b289-470f-4b6d-810f-1ee91a736933","system_id":"levelo_inurba_marseille","lat":43.292005,"lon":5.357875,"is_reserved":false,"is_disabled":false,"rental_uris":{"android":"levelo://app?vid=d2e8b289-470f-4b6d-810f-1ee91a736933","ios":"levelo://app?vid=d2e8b289-470f-4b6d-810f-1ee91a736933"},"vehicle_type_id":"4","last_reported":1721844680,"current_range_meters":12800,"station_id":"ce4bhb12rcd13ifvqel0","pricing_plan_id":"cebpf4jnsgd1na2vs0mg"},{"bike_id":"f482c8aa-9db1-425b-b45e-3f069629ec61","system_id":"levelo_inurba_marseille","lat":43.30889,"lon":5.39632,"is_reserved":false,"is_disabled":false,"rental_uris":{"android":"levelo://app?vid=f482c8aa-9db1-425b-b45e-3f069629ec61","ios":"levelo://app?vid=f482c8aa-9db1-425b-b45e-3f069629ec61"},"vehicle_type_id":"4","last_reported":1721844680,"current_range_meters":0,"station_id":"ce4bh012rcd13ifvqcv0","pricing_plan_id":"cebpf4jnsgd1na2vs0mg"},{"bike_id":"60a8ea61-2f24-4464-acc6-dc082ddcd718","system_id":"levelo_inurba_marseille","lat":43.309038,"lon":5.396546,"is_reserved":false,"is_disabled":false,"rental_uris":{"android":"levelo://app?vid=60a8ea61-2f24-4464-acc6-dc082ddcd718","ios":"levelo://app?vid=60a8ea61-2f24-4464-acc6-dc082ddcd718"},"vehicle_type_id":"4","last_reported":1721844680,"current_range_meters":7200,"station_id":"ce4bh012rcd13ifvqcv0","pricing_plan_id":"cebpf4jnsgd1na2vs0mg"},{"bike_id":"0274bb79-4ffb-4030-ace6-1e819c6dc670","system_id":"levelo_inurba_marseille","lat":43.29197,"lon":5.35803,"is_reserved":false,"is_disabled":false,"rental_uris":{"android":"levelo://app?vid=0274bb79-4ffb-4030-ace6-1e819c6dc670","ios":"levelo://app?vid=0274bb79-4ffb-4030-ace6-1e819c6dc670"},"vehicle_type_id":"4","last_reported":1721844680,"current_range_meters":0,"station_id":"ce4bhb12rcd13ifvqel0","pricing_plan_id":"cebpf4jnsgd1na2vs0mg"},{"bike_id":"c8e36940-195f-431c-8a9a-d579872169c2","system_id":"levelo_inurba_marseille","lat":43.309047,"lon":5.396551,"is_reserved":false,"is_disabled":false,"rental_uris":{"android":"levelo://app?vid=c8e36940-195f-431c-8a9a-d579872169c2","ios":"levelo://app?vid=c8e36940-195f-431c-8a9a-d579872169c2"},"vehicle_type_id":"4","last_reported":1721844680,"current_range_meters":0,"station_id":"ce4bh012rcd13ifvqcv0","pricing_plan_id":"cebpf4jnsgd1na2vs0mg"},{"bike_id":"07e8fbf1-7254-424a-850a-06b3210d1745","system_id":"levelo_inurba_marseille","lat":43.313291,"lon":5.396838,"is_reserved":false,"is_disabled":false,"rental_uris":{"android":"levelo://app?vid=07e8fbf1-7254-424a-850a-06b3210d1745","ios":"levelo://app?vid=07e8fbf1-7254-424a-850a-06b3210d1745"},"vehicle_type_id":"4","last_reported":1721844680,"current_range_meters":0,"station_id":"ce4bgvp2rcd13ifvqcu0","pricing_plan_id":"cebpf4jnsgd1na2vs0mg"},{"bike_id":"84c0825f-5965-46a2-a957-a8b31b27d5e7","system_id":"levelo_inurba_marseille","lat":43.313291,"lon":5.396838,"is_reserved":false,"is_disabled":false,"rental_uris":{"android":"levelo://app?vid=84c0825f-5965-46a2-a957-a8b31b27d5e7","ios":"levelo://app?vid=84c0825f-5965-46a2-a957-a8b31b27d5e7"},"vehicle_type_id":"4","last_reported":1721844680,"current_range_meters":12000,"station_id":"ce4bgvp2rcd13ifvqcu0","pricing_plan_id":"cebpf4jnsgd1na2vs0mg"},{"bike_id":"32be1288-03f7-49eb-a85b-cdba81405852","system_id":"levelo_inurba_marseille","lat":43.313291,"lon":5.396838,"is_reserved":false,"is_disabled":false,"rental_uris":{"android":"levelo://app?vid=32be1288-03f7-49eb-a85b-cdba81405852","ios":"levelo://app?vid=32be1288-03f7-49eb-a85b-cdba81405852"},"vehicle_type_id":"4","last_reported":1721844680,"current_range_meters":6000,"station_id":"ce4bgvp2rcd13ifvqcu0","pricing_plan_id":"cebpf4jnsgd1na2vs0mg"},{"bike_id":"67b18d3e-3276-424d-8558-434ca76d5bbf","system_id":"levelo_inurba_marseille","lat":43.309038,"lon":5.396546,"is_reserved":false,"is_disabled":false,"rental_uris":{"android":"levelo://app?vid=67b18d3e-3276-424d-8558-434ca76d5bbf","ios":"levelo://app?vid=67b18d3e-3276-424d-8558-434ca76d5bbf"},"vehicle_type_id":"4","last_reported":1721844680,"current_range_meters":6400,"station_id":"ce4bh012rcd13ifvqcv0","pricing_plan_id":"cebpf4jnsgd1na2vs0mg"},{"bike_id":"0f999a99-60ac-4639-8aa1-b2a6816da79a","system_id":"levelo_inurba_marseille","lat":43.313291,"lon":5.396838,"is_reserved":false,"is_disabled":false,"rental_uris":{"android":"levelo://app?vid=0f999a99-60ac-4639-8aa1-b2a6816da79a","ios":"levelo://app?vid=0f999a99-60ac-4639-8aa1-b2a6816da79a"},"vehicle_type_id":"4","last_reported":1721844680,"current_range_meters":12400,"station_id":"ce4bgvp2rcd13ifvqcu0","pricing_plan_id":"cebpf4jnsgd1na2vs0mg"},{"bike_id":"030eb0bf-c8a0-45f4-9ff0-a4235bca7c28","system_id":"levelo_inurba_marseille","lat":43.313291,"lon":5.396838,"is_reserved":false,"is_disabled":false,"rental_uris":{"android":"levelo://app?vid=030eb0bf-c8a0-45f4-9ff0-a4235bca7c28","ios":"levelo://app?vid=030eb0bf-c8a0-45f4-9ff0-a4235bca7c28"},"vehicle_type_id":"4","last_reported":1721844680,"current_range_meters":8400,"station_id":"ce4bgvp2rcd13ifvqcu0","pricing_plan_id":"cebpf4jnsgd1na2vs0mg"},{"bike_id":"9536ba07-d8ed-449e-8d75-5a1b4d90cf89","system_id":"levelo_inurba_marseille","lat":43.313291,"lon":5.396838,"is_reserved":false,"is_disabled":false,"rental_uris":{"android":"levelo://app?vid=9536ba07-d8ed-449e-8d75-5a1b4d90cf89","ios":"levelo://app?vid=9536ba07-d8ed-449e-8d75-5a1b4d90cf89"},"vehicle_type_id":"4","last_reported":1721844680,"current_range_meters":3200,"station_id":"ce4bgvp2rcd13ifvqcu0","pricing_plan_id":"cebpf4jnsgd1na2vs0mg"},{"bike_id":"c6dd6b5d-003c-4e25-bda4-3ba03cb53447","system_id":"levelo_inurba_marseille","lat":43.30885,"lon":5.3965,"is_reserved":false,"is_disabled":false,"rental_uris":{"android":"levelo://app?vid=c6dd6b5d-003c-4e25-bda4-3ba03cb53447","ios":"levelo://app?vid=c6dd6b5d-003c-4e25-bda4-3ba03cb53447"},"vehicle_type_id":"4","last_reported":1721844680,"current_range_meters":16800,"station_id":"ce4bh012rcd13ifvqcv0","pricing_plan_id":"cebpf4jnsgd1na2vs0mg"},{"bike_id":"12cb9b7a-263e-4ae0-928a-6b9d906a3f44","system_id":"levelo_inurba_marseille","lat":43.309047,"lon":5.396551,"is_reserved":false,"is_disabled":false,"rental_uris":{"android":"levelo://app?vid=12cb9b7a-263e-4ae0-928a-6b9d906a3f44","ios":"levelo://app?vid=12cb9b7a-263e-4ae0-928a-6b9d906a3f44"},"vehicle_type_id":"4","last_reported":1721844680,"current_range_meters":1600,"station_id":"ce4bh012rcd13ifvqcv0","pricing_plan_id":"cebpf4jnsgd1na2vs0mg"},{"bike_id":"b038b803-ef2a-4166-8755-5ef2ba731ca8","system_id":"levelo_inurba_marseille","lat":43.29529,"lon":5.385581,"is_reserved":false,"is_disabled":false,"rental_uris":{"android":"levelo://app?vid=b038b803-ef2a-4166-8755-5ef2ba731ca8","ios":"levelo://app?vid=b038b803-ef2a-4166-8755-5ef2ba731ca8"},"vehicle_type_id":"4","last_reported":1721844680,"current_range_meters":31200,"station_id":"ce4bgih2rcd13ifvqba0","pricing_plan_id":"cebpf4jnsgd1na2vs0mg"},{"bike_id":"63b2cf9e-230b-4bf8-99ab-d40206b7230d","system_id":"levelo_inurba_marseille","lat":43.29529,"lon":5.385581,"is_reserved":false,"is_disabled":false,"rental_uris":{"android":"levelo://app?vid=63b2cf9e-230b-4bf8-99ab-d40206b7230d","ios":"levelo://app?vid=63b2cf9e-230b-4bf8-99ab-d40206b7230d"},"vehicle_type_id":"4","last_reported":1721844680,"current_range_meters":31200,"station_id":"ce4bgih2rcd13ifvqba0","pricing_plan_id":"cebpf4jnsgd1na2vs0mg"},{"bike_id":"6be4fc21-ba23-47c0-8fdf-941747621d8d","system_id":"levelo_inurba_marseille","lat":43.29529,"lon":5.385581,"is_reserved":false,"is_disabled":false,"rental_uris":{"android":"levelo://app?vid=6be4fc21-ba23-47c0-8fdf-941747621d8d","ios":"levelo://app?vid=6be4fc21-ba23-47c0-8fdf-941747621d8d"},"vehicle_type_id":"4","last_reported":1721844680,"current_range_meters":27600,"station_id":"ce4bgih2rcd13ifvqba0","pricing_plan_id":"cebpf4jnsgd1na2vs0mg"},{"bike_id":"b9fe1d25-7512-43aa-ad4a-b4ec76ef29c0","system_id":"levelo_inurba_marseille","lat":43.29529,"lon":5.385581,"is_reserved":false,"is_disabled":false,"rental_uris":{"android":"levelo://app?vid=b9fe1d25-7512-43aa-ad4a-b4ec76ef29c0","ios":"levelo://app?vid=b9fe1d25-7512-43aa-ad4a-b4ec76ef29c0"},"vehicle_type_id":"4","last_reported":1721844680,"current_range_meters":31200,"station_id":"ce4bgih2rcd13ifvqba0","pricing_plan_id":"cebpf4jnsgd1na2vs0mg"},{"bike_id":"fd99cce5-40a8-4d3b-bdc3-907b80135a64","system_id":"levelo_inurba_marseille","lat":43.292263,"lon":5.379987,"is_reserved":false,"is_disabled":false,"rental_uris":{"android":"levelo://app?vid=fd99cce5-40a8-4d3b-bdc3-907b80135a64","ios":"levelo://app?vid=fd99cce5-40a8-4d3b-bdc3-907b80135a64"},"vehicle_type_id":"4","last_reported":1721844680,"current_range_meters":1200,"station_id":"","pricing_plan_id":"cebpf4jnsgd1na2vs0mg"},{"bike_id":"c6b01c6e-4199-4dbf-bd8a-505c4e3abbb9","system_id":"levelo_inurba_marseille","lat":43.314503,"lon":5.398346,"is_reserved":false,"is_disabled":false,"rental_uris":{"android":"levelo://app?vid=c6b01c6e-4199-4dbf-bd8a-505c4e3abbb9","ios":"levelo://app?vid=c6b01c6e-4199-4dbf-bd8a-505c4e3abbb9"},"vehicle_type_id":"4","last_reported":1721844680,"current_range_meters":9600,"station_id":"","pricing_plan_id":"cebpf4jnsgd1na2vs0mg"},{"bike_id":"d2a8abfd-a4e7-4803-84ae-93d40ee66b86","system_id":"levelo_inurba_marseille","lat":43.290624,"lon":5.359245,"is_reserved":false,"is_disabled":false,"rental_uris":{"android":"levelo://app?vid=d2a8abfd-a4e7-4803-84ae-93d40ee66b86","ios":"levelo://app?vid=d2a8abfd-a4e7-4803-84ae-93d40ee66b86"},"vehicle_type_id":"4","last_reported":1721844680,"current_range_meters":0,"station_id":"ce4bha92rcd13ifvqeg0","pricing_plan_id":"cebpf4jnsgd1na2vs0mg"},{"bike_id":"d4033f83-9ee8-445c-b045-1da6b961b3cf","system_id":"levelo_inurba_marseille","lat":43.294153,"lon":5.386305,"is_reserved":false,"is_disabled":false,"rental_uris":{"android":"levelo://app?vid=d4033f83-9ee8-445c-b045-1da6b961b3cf","ios":"levelo://app?vid=d4033f83-9ee8-445c-b045-1da6b961b3cf"},"vehicle_type_id":"4","last_reported":1721844680,"current_range_meters":15600,"station_id":"ce4bh2h2rcd13ifvqdh0","pricing_plan_id":"cebpf4jnsgd1na2vs0mg"},{"bike_id":"db4b2d19-40e7-480c-8e01-c882cca4944d","system_id":"levelo_inurba_marseille","lat":43.29421,"lon":5.38619,"is_reserved":false,"is_disabled":false,"rental_uris":{"android":"levelo://app?vid=db4b2d19-40e7-480c-8e01-c882cca4944d","ios":"levelo://app?vid=db4b2d19-40e7-480c-8e01-c882cca4944d"},"vehicle_type_id":"4","last_reported":1721844680,"current_range_meters":0,"station_id":"ce4bh2h2rcd13ifvqdh0","pricing_plan_id":"cebpf4jnsgd1na2vs0mg"},{"bike_id":"fc34847d-3bfb-4b93-8402-e3690ac2fb9a","system_id":"levelo_inurba_marseille","lat":43.29013,"lon":5.37444,"is_reserved":false,"is_disabled":false,"rental_uris":{"android":"levelo://app?vid=fc34847d-3bfb-4b93-8402-e3690ac2fb9a","ios":"levelo://app?vid=fc34847d-3bfb-4b93-8402-e3690ac2fb9a"},"vehicle_type_id":"4","last_reported":1721844680,"current_range_meters":10000,"station_id":"","pricing_plan_id":"cebpf4jnsgd1na2vs0mg"},{"bike_id":"0af43e9a-c1d0-4b81-aa7d-0849dbe1a46f","system_id":"levelo_inurba_marseille","lat":43.294162,"lon":5.386292,"is_reserved":false,"is_disabled":false,"rental_uris":{"android":"levelo://app?vid=0af43e9a-c1d0-4b81-aa7d-0849dbe1a46f","ios":"levelo://app?vid=0af43e9a-c1d0-4b81-aa7d-0849dbe1a46f"},"vehicle_type_id":"4","last_reported":1721844680,"current_range_meters":0,"station_id":"ce4bh2h2rcd13ifvqdh0","pricing_plan_id":"cebpf4jnsgd1na2vs0mg"},{"bike_id":"77993c7c-0d3f-49fd-91f4-32d0cf51c1c1","system_id":"levelo_inurba_marseille","lat":43.29415,"lon":5.3862,"is_reserved":false,"is_disabled":false,"rental_uris":{"android":"levelo://app?vid=77993c7c-0d3f-49fd-91f4-32d0cf51c1c1","ios":"levelo://app?vid=77993c7c-0d3f-49fd-91f4-32d0cf51c1c1"},"vehicle_type_id":"4","last_reported":1721844680,"current_range_meters":8400,"station_id":"ce4bh2h2rcd13ifvqdh0","pricing_plan_id":"cebpf4jnsgd1na2vs0mg"},{"bike_id":"a45ffa05-dbb9-49ac-9076-bec3d8b0ad41","system_id":"levelo_inurba_marseille","lat":43.294162,"lon":5.386292,"is_reserved":false,"is_disabled":false,"rental_uris":{"android":"levelo://app?vid=a45ffa05-dbb9-49ac-9076-bec3d8b0ad41","ios":"levelo://app?vid=a45ffa05-dbb9-49ac-9076-bec3d8b0ad41"},"vehicle_type_id":"4","last_reported":1721844680,"current_range_meters":22800,"station_id":"ce4bh2h2rcd13ifvqdh0","pricing_plan_id":"cebpf4jnsgd1na2vs0mg"},{"bike_id":"ae4e5374-0a53-47e8-95a3-1f5fc45c3c73","system_id":"levelo_inurba_marseille","lat":43.29418,"lon":5.38628,"is_reserved":false,"is_disabled":false,"rental_uris":{"android":"levelo://app?vid=ae4e5374-0a53-47e8-95a3-1f5fc45c3c73","ios":"levelo://app?vid=ae4e5374-0a53-47e8-95a3-1f5fc45c3c73"},"vehicle_type_id":"4","last_reported":1721844680,"current_range_meters":0,"station_id":"ce4bh2h2rcd13ifvqdh0","pricing_plan_id":"cebpf4jnsgd1na2vs0mg"},{"bike_id":"48a0c646-eb23-48ac-9120-dcc57d70dda6","system_id":"levelo_inurba_marseille","lat":43.294162,"lon":5.386292,"is_reserved":false,"is_disabled":false,"rental_uris":{"android":"levelo://app?vid=48a0c646-eb23-48ac-9120-dcc57d70dda6","ios":"levelo://app?vid=48a0c646-eb23-48ac-9120-dcc57d70dda6"},"vehicle_type_id":"4","last_reported":1721844680,"current_range_meters":28400,"station_id":"ce4bh2h2rcd13ifvqdh0","pricing_plan_id":"cebpf4jnsgd1na2vs0mg"},{"bike_id":"763f43b9-5da4-4be8-8d7b-19d26591b17b","system_id":"levelo_inurba_marseille","lat":43.294162,"lon":5.386292,"is_reserved":false,"is_disabled":false,"rental_uris":{"android":"levelo://app?vid=763f43b9-5da4-4be8-8d7b-19d26591b17b","ios":"levelo://app?vid=763f43b9-5da4-4be8-8d7b-19d26591b17b"},"vehicle_type_id":"4","last_reported":1721844680,"current_range_meters":5600,"station_id":"ce4bh2h2rcd13ifvqdh0","pricing_plan_id":"cebpf4jnsgd1na2vs0mg"},{"bike_id":"d892bd8f-721e-43a6-aa9a-92506130372a","system_id":"levelo_inurba_marseille","lat":43.294162,"lon":5.386292,"is_reserved":false,"is_disabled":false,"rental_uris":{"android":"levelo://app?vid=d892bd8f-721e-43a6-aa9a-92506130372a","ios":"levelo://app?vid=d892bd8f-721e-43a6-aa9a-92506130372a"},"vehicle_type_id":"4","last_reported":1721844680,"current_range_meters":0,"station_id":"ce4bh2h2rcd13ifvqdh0","pricing_plan_id":"cebpf4jnsgd1na2vs0mg"},{"bike_id":"36d38776-d247-430f-b04e-c2ceeee3b793","system_id":"levelo_inurba_marseille","lat":43.294162,"lon":5.386292,"is_reserved":false,"is_disabled":false,"rental_uris":{"android":"levelo://app?vid=36d38776-d247-430f-b04e-c2ceeee3b793","ios":"levelo://app?vid=36d38776-d247-430f-b04e-c2ceeee3b793"},"vehicle_type_id":"4","last_reported":1721844680,"current_range_meters":0,"station_id":"ce4bh2h2rcd13ifvqdh0","pricing_plan_id":"cebpf4jnsgd1na2vs0mg"},{"bike_id":"effff523-8e2e-49a6-9e4a-9d18e540e2cf","system_id":"levelo_inurba_marseille","lat":43.294153,"lon":5.386305,"is_reserved":false,"is_disabled":false,"rental_uris":{"android":"levelo://app?vid=effff523-8e2e-49a6-9e4a-9d18e540e2cf","ios":"levelo://app?vid=effff523-8e2e-49a6-9e4a-9d18e540e2cf"},"vehicle_type_id":"4","last_reported":1721844680,"current_range_meters":30000,"station_id":"ce4bh2h2rcd13ifvqdh0","pricing_plan_id":"cebpf4jnsgd1na2vs0mg"},{"bike_id":"f8d2c53c-4340-4185-9468-3ca382dae4bf","system_id":"levelo_inurba_marseille","lat":43.289385,"lon":5.366373,"is_reserved":false,"is_disabled":false,"rental_uris":{"android":"levelo://app?vid=f8d2c53c-4340-4185-9468-3ca382dae4bf","ios":"levelo://app?vid=f8d2c53c-4340-4185-9468-3ca382dae4bf"},"vehicle_type_id":"4","last_reported":1721844680,"current_range_meters":5200,"station_id":"ce4bhap2rcd13ifvqek0","pricing_plan_id":"cebpf4jnsgd1na2vs0mg"},{"bike_id":"84a920c1-452b-416c-8ce2-54facd74c4db","system_id":"levelo_inurba_marseille","lat":43.289409,"lon":5.363951,"is_reserved":false,"is_disabled":false,"rental_uris":{"android":"levelo://app?vid=84a920c1-452b-416c-8ce2-54facd74c4db","ios":"levelo://app?vid=84a920c1-452b-416c-8ce2-54facd74c4db"},"vehicle_type_id":"4","last_reported":1721844680,"current_range_meters":0,"station_id":"ce4bhc92rcd13ifvqetg","pricing_plan_id":"cebpf4jnsgd1na2vs0mg"},{"bike_id":"31bb2d77-ab53-4b17-9686-bba0df21f61f","system_id":"levelo_inurba_marseille","lat":43.289305,"lon":5.364,"is_reserved":false,"is_disabled":false,"rental_uris":{"android":"levelo://app?vid=31bb2d77-ab53-4b17-9686-bba0df21f61f","ios":"levelo://app?vid=31bb2d77-ab53-4b17-9686-bba0df21f61f"},"vehicle_type_id":"4","last_reported":1721844680,"current_range_meters":0,"station_id":"ce4bhc92rcd13ifvqetg","pricing_plan_id":"cebpf4jnsgd1na2vs0mg"},{"bike_id":"1c68a6dd-9fe7-4930-addb-07898f1dffb6","system_id":"levelo_inurba_marseille","lat":43.292644,"lon":5.384257,"is_reserved":false,"is_disabled":false,"rental_uris":{"android":"levelo://app?vid=1c68a6dd-9fe7-4930-addb-07898f1dffb6","ios":"levelo://app?vid=1c68a6dd-9fe7-4930-addb-07898f1dffb6"},"vehicle_type_id":"4","last_reported":1721844680,"current_range_meters":24400,"station_id":"ce4bh692rcd13ifvqea0","pricing_plan_id":"cebpf4jnsgd1na2vs0mg"},{"bike_id":"9ea472c8-9dfd-46b5-953e-2d88c9cd96a3","system_id":"levelo_inurba_marseille","lat":43.292644,"lon":5.384257,"is_reserved":false,"is_disabled":false,"rental_uris":{"android":"levelo://app?vid=9ea472c8-9dfd-46b5-953e-2d88c9cd96a3","ios":"levelo://app?vid=9ea472c8-9dfd-46b5-953e-2d88c9cd96a3"},"vehicle_type_id":"4","last_reported":1721844680,"current_range_meters":27200,"station_id":"ce4bh692rcd13ifvqea0","pricing_plan_id":"cebpf4jnsgd1na2vs0mg"},{"bike_id":"5554e164-2191-4cf0-b2c3-6af56d65438c","system_id":"levelo_inurba_marseille","lat":43.292642,"lon":5.384254,"is_reserved":false,"is_disabled":false,"rental_uris":{"android":"levelo://app?vid=5554e164-2191-4cf0-b2c3-6af56d65438c","ios":"levelo://app?vid=5554e164-2191-4cf0-b2c3-6af56d65438c"},"vehicle_type_id":"4","last_reported":1721844680,"current_range_meters":0,"station_id":"ce4bh692rcd13ifvqea0","pricing_plan_id":"cebpf4jnsgd1na2vs0mg"},{"bike_id":"196c9775-f904-4b70-b096-57b6d457b8e9","system_id":"levelo_inurba_marseille","lat":43.292644,"lon":5.384257,"is_reserved":false,"is_disabled":false,"rental_uris":{"android":"levelo://app?vid=196c9775-f904-4b70-b096-57b6d457b8e9","ios":"levelo://app?vid=196c9775-f904-4b70-b096-57b6d457b8e9"},"vehicle_type_id":"4","last_reported":1721844680,"current_range_meters":14800,"station_id":"ce4bh692rcd13ifvqea0","pricing_plan_id":"cebpf4jnsgd1na2vs0mg"},{"bike_id":"dd24335c-d140-480b-82f0-11c4fe70c82b","system_id":"levelo_inurba_marseille","lat":43.292644,"lon":5.384257,"is_reserved":false,"is_disabled":false,"rental_uris":{"android":"levelo://app?vid=dd24335c-d140-480b-82f0-11c4fe70c82b","ios":"levelo://app?vid=dd24335c-d140-480b-82f0-11c4fe70c82b"},"vehicle_type_id":"4","last_reported":1721844680,"current_range_meters":0,"station_id":"ce4bh692rcd13ifvqea0","pricing_plan_id":"cebpf4jnsgd1na2vs0mg"},{"bike_id":"0df34089-a520-4722-93f2-5f2f0aacf907","system_id":"levelo_inurba_marseille","lat":43.292642,"lon":5.384254,"is_reserved":false,"is_disabled":false,"rental_uris":{"android":"levelo://app?vid=0df34089-a520-4722-93f2-5f2f0aacf907","ios":"levelo://app?vid=0df34089-a520-4722-93f2-5f2f0aacf907"},"vehicle_type_id":"4","last_reported":1721844680,"current_range_meters":0,"station_id":"ce4bh692rcd13ifvqea0","pricing_plan_id":"cebpf4jnsgd1na2vs0mg"},{"bike_id":"d3fa3dd7-8bcb-4dfc-9f41-e2bc1326e986","system_id":"levelo_inurba_marseille","lat":43.292642,"lon":5.384254,"is_reserved":false,"is_disabled":false,"rental_uris":{"android":"levelo://app?vid=d3fa3dd7-8bcb-4dfc-9f41-e2bc1326e986","ios":"levelo://app?vid=d3fa3dd7-8bcb-4dfc-9f41-e2bc1326e986"},"vehicle_type_id":"4","last_reported":1721844680,"current_range_meters":15600,"station_id":"ce4bh692rcd13ifvqea0","pricing_plan_id":"cebpf4jnsgd1na2vs0mg"},{"bike_id":"e89d9be2-52d1-4c5a-b3db-c367daddd614","system_id":"levelo_inurba_marseille","lat":43.289468,"lon":5.363719,"is_reserved":false,"is_disabled":false,"rental_uris":{"android":"levelo://app?vid=e89d9be2-52d1-4c5a-b3db-c367daddd614","ios":"levelo://app?vid=e89d9be2-52d1-4c5a-b3db-c367daddd614"},"vehicle_type_id":"4","last_reported":1721844680,"current_range_meters":25600,"station_id":"ce4bhc92rcd13ifvqetg","pricing_plan_id":"cebpf4jnsgd1na2vs0mg"},{"bike_id":"3de1633d-2177-4ab7-83e3-683aabfcb6d2","system_id":"levelo_inurba_marseille","lat":43.290104,"lon":5.356111,"is_reserved":false,"is_disabled":false,"rental_uris":{"android":"levelo://app?vid=3de1633d-2177-4ab7-83e3-683aabfcb6d2","ios":"levelo://app?vid=3de1633d-2177-4ab7-83e3-683aabfcb6d2"},"vehicle_type_id":"4","last_reported":1721844680,"current_range_meters":28800,"station_id":"ce4bhb92rcd13ifvqen0","pricing_plan_id":"cebpf4jnsgd1na2vs0mg"},{"bike_id":"1829e019-b9bb-47d6-be84-482ddac58edd","system_id":"levelo_inurba_marseille","lat":43.290103,"lon":5.356114,"is_reserved":false,"is_disabled":false,"rental_uris":{"android":"levelo://app?vid=1829e019-b9bb-47d6-be84-482ddac58edd","ios":"levelo://app?vid=1829e019-b9bb-47d6-be84-482ddac58edd"},"vehicle_type_id":"4","last_reported":1721844680,"current_range_meters":5600,"station_id":"ce4bhb92rcd13ifvqen0","pricing_plan_id":"cebpf4jnsgd1na2vs0mg"},{"bike_id":"50c9f3db-3ce0-4a96-8bd5-8b9eb93e261a","system_id":"levelo_inurba_marseille","lat":43.290104,"lon":5.356111,"is_reserved":false,"is_disabled":false,"rental_uris":{"android":"levelo://app?vid=50c9f3db-3ce0-4a96-8bd5-8b9eb93e261a","ios":"levelo://app?vid=50c9f3db-3ce0-4a96-8bd5-8b9eb93e261a"},"vehicle_type_id":"4","last_reported":1721844680,"current_range_meters":0,"station_id":"ce4bhb92rcd13ifvqen0","pricing_plan_id":"cebpf4jnsgd1na2vs0mg"},{"bike_id":"25e24ac0-95db-46d3-a5d0-03aaa6e47060","system_id":"levelo_inurba_marseille","lat":43.290104,"lon":5.356111,"is_reserved":false,"is_disabled":false,"rental_uris":{"android":"levelo://app?vid=25e24ac0-95db-46d3-a5d0-03aaa6e47060","ios":"levelo://app?vid=25e24ac0-95db-46d3-a5d0-03aaa6e47060"},"vehicle_type_id":"4","last_reported":1721844680,"current_range_meters":0,"station_id":"ce4bhb92rcd13ifvqen0","pricing_plan_id":"cebpf4jnsgd1na2vs0mg"},{"bike_id":"e1ba7814-0291-4448-bdc9-d5fd1da3e1f2","system_id":"levelo_inurba_marseille","lat":43.290995,"lon":5.381361,"is_reserved":false,"is_disabled":false,"rental_uris":{"android":"levelo://app?vid=e1ba7814-0291-4448-bdc9-d5fd1da3e1f2","ios":"levelo://app?vid=e1ba7814-0291-4448-bdc9-d5fd1da3e1f2"},"vehicle_type_id":"4","last_reported":1721844680,"current_range_meters":0,"station_id":"ce4bh512rcd13ifvqe2g","pricing_plan_id":"cebpf4jnsgd1na2vs0mg"},{"bike_id":"878f4f8f-a787-4785-a4aa-60b5d8d9bae3","system_id":"levelo_inurba_marseille","lat":43.29097,"lon":5.38143,"is_reserved":false,"is_disabled":false,"rental_uris":{"android":"levelo://app?vid=878f4f8f-a787-4785-a4aa-60b5d8d9bae3","ios":"levelo://app?vid=878f4f8f-a787-4785-a4aa-60b5d8d9bae3"},"vehicle_type_id":"4","last_reported":1721844680,"current_range_meters":0,"station_id":"ce4bh512rcd13ifvqe2g","pricing_plan_id":"cebpf4jnsgd1na2vs0mg"},{"bike_id":"ddcf22a3-f534-482f-a971-8f862565c476","system_id":"levelo_inurba_marseille","lat":43.330442,"lon":5.389148,"is_reserved":false,"is_disabled":false,"rental_uris":{"android":"levelo://app?vid=ddcf22a3-f534-482f-a971-8f862565c476","ios":"levelo://app?vid=ddcf22a3-f534-482f-a971-8f862565c476"},"vehicle_type_id":"4","last_reported":1721844680,"current_range_meters":18400,"station_id":"ce4bhr92rcd13ifvqhrg","pricing_plan_id":"cebpf4jnsgd1na2vs0mg"},{"bike_id":"4b0ed977-14c3-4f8b-b7c1-89ecee9bd03e","system_id":"levelo_inurba_marseille","lat":43.295169,"lon":5.390426,"is_reserved":false,"is_disabled":false,"rental_uris":{"android":"levelo://app?vid=4b0ed977-14c3-4f8b-b7c1-89ecee9bd03e","ios":"levelo://app?vid=4b0ed977-14c3-4f8b-b7c1-89ecee9bd03e"},"vehicle_type_id":"4","last_reported":1721844680,"current_range_meters":0,"station_id":"ce4bh3p2rcd13ifvqdp0","pricing_plan_id":"cebpf4jnsgd1na2vs0mg"},{"bike_id":"b77551c8-7e86-42bd-b9bb-45d5bd9f406c","system_id":"levelo_inurba_marseille","lat":43.29518,"lon":5.39033,"is_reserved":false,"is_disabled":false,"rental_uris":{"android":"levelo://app?vid=b77551c8-7e86-42bd-b9bb-45d5bd9f406c","ios":"levelo://app?vid=b77551c8-7e86-42bd-b9bb-45d5bd9f406c"},"vehicle_type_id":"4","last_reported":1721844680,"current_range_meters":0,"station_id":"ce4bh3p2rcd13ifvqdp0","pricing_plan_id":"cebpf4jnsgd1na2vs0mg"},{"bike_id":"9d97693e-831f-46cc-bebe-7eee61064e24","system_id":"levelo_inurba_marseille","lat":43.289741,"lon":5.378306,"is_reserved":false,"is_disabled":false,"rental_uris":{"android":"levelo://app?vid=9d97693e-831f-46cc-bebe-7eee61064e24","ios":"levelo://app?vid=9d97693e-831f-46cc-bebe-7eee61064e24"},"vehicle_type_id":"4","last_reported":1721844680,"current_range_meters":4400,"station_id":"ce4bh9p2rcd13ifvqed0","pricing_plan_id":"cebpf4jnsgd1na2vs0mg"},{"bike_id":"c2d7d98f-750f-41d2-bbe6-6e8f28e71164","system_id":"levelo_inurba_marseille","lat":43.28969,"lon":5.37836,"is_reserved":false,"is_disabled":false,"rental_uris":{"android":"levelo://app?vid=c2d7d98f-750f-41d2-bbe6-6e8f28e71164","ios":"levelo://app?vid=c2d7d98f-750f-41d2-bbe6-6e8f28e71164"},"vehicle_type_id":"4","last_reported":1721844680,"current_range_meters":0,"station_id":"ce4bh9p2rcd13ifvqed0","pricing_plan_id":"cebpf4jnsgd1na2vs0mg"},{"bike_id":"a4f98eae-bda4-48ce-ad1e-98205eea6cd3","system_id":"levelo_inurba_marseille","lat":43.295169,"lon":5.390426,"is_reserved":false,"is_disabled":false,"rental_uris":{"android":"levelo://app?vid=a4f98eae-bda4-48ce-ad1e-98205eea6cd3","ios":"levelo://app?vid=a4f98eae-bda4-48ce-ad1e-98205eea6cd3"},"vehicle_type_id":"4","last_reported":1721844680,"current_range_meters":18400,"station_id":"ce4bh3p2rcd13ifvqdp0","pricing_plan_id":"cebpf4jnsgd1na2vs0mg"},{"bike_id":"6da1bc5f-cd4b-44eb-9394-ee126fdd2731","system_id":"levelo_inurba_marseille","lat":43.295169,"lon":5.390426,"is_reserved":false,"is_disabled":false,"rental_uris":{"android":"levelo://app?vid=6da1bc5f-cd4b-44eb-9394-ee126fdd2731","ios":"levelo://app?vid=6da1bc5f-cd4b-44eb-9394-ee126fdd2731"},"vehicle_type_id":"4","last_reported":1721844680,"current_range_meters":4800,"station_id":"ce4bh3p2rcd13ifvqdp0","pricing_plan_id":"cebpf4jnsgd1na2vs0mg"},{"bike_id":"2b93046a-8fd8-4dee-a7d9-f42adf6fa9e1","system_id":"levelo_inurba_marseille","lat":43.295169,"lon":5.390426,"is_reserved":false,"is_disabled":false,"rental_uris":{"android":"levelo://app?vid=2b93046a-8fd8-4dee-a7d9-f42adf6fa9e1","ios":"levelo://app?vid=2b93046a-8fd8-4dee-a7d9-f42adf6fa9e1"},"vehicle_type_id":"4","last_reported":1721844680,"current_range_meters":1200,"station_id":"ce4bh3p2rcd13ifvqdp0","pricing_plan_id":"cebpf4jnsgd1na2vs0mg"},{"bike_id":"149ad317-2977-4c2d-b9af-065d2c29d5b4","system_id":"levelo_inurba_marseille","lat":43.309737,"lon":5.400651,"is_reserved":false,"is_disabled":false,"rental_uris":{"android":"levelo://app?vid=149ad317-2977-4c2d-b9af-065d2c29d5b4","ios":"levelo://app?vid=149ad317-2977-4c2d-b9af-065d2c29d5b4"},"vehicle_type_id":"4","last_reported":1721844680,"current_range_meters":16800,"station_id":"","pricing_plan_id":"cebpf4jnsgd1na2vs0mg"},{"bike_id":"b73d8c91-c2d1-4270-ae25-b0e31c1c6c36","system_id":"levelo_inurba_marseille","lat":43.312609,"lon":5.401662,"is_reserved":false,"is_disabled":false,"rental_uris":{"android":"levelo://app?vid=b73d8c91-c2d1-4270-ae25-b0e31c1c6c36","ios":"levelo://app?vid=b73d8c91-c2d1-4270-ae25-b0e31c1c6c36"},"vehicle_type_id":"4","last_reported":1721844680,"current_range_meters":21200,"station_id":"ce4bh092rcd13ifvqd30","pricing_plan_id":"cebpf4jnsgd1na2vs0mg"},{"bike_id":"0b5a0753-3dc8-4488-88cf-f2c5213eb146","system_id":"levelo_inurba_marseille","lat":43.309371,"lon":5.401449,"is_reserved":false,"is_disabled":false,"rental_uris":{"android":"levelo://app?vid=0b5a0753-3dc8-4488-88cf-f2c5213eb146","ios":"levelo://app?vid=0b5a0753-3dc8-4488-88cf-f2c5213eb146"},"vehicle_type_id":"4","last_reported":1721844680,"current_range_meters":0,"station_id":"ce4bgvp2rcd13ifvqct0","pricing_plan_id":"cebpf4jnsgd1na2vs0mg"},{"bike_id":"8c963968-4362-4288-b08a-9ba7c924d718","system_id":"levelo_inurba_marseille","lat":43.31283,"lon":5.40169,"is_reserved":false,"is_disabled":false,"rental_uris":{"android":"levelo://app?vid=8c963968-4362-4288-b08a-9ba7c924d718","ios":"levelo://app?vid=8c963968-4362-4288-b08a-9ba7c924d718"},"vehicle_type_id":"4","last_reported":1721844680,"current_range_meters":0,"station_id":"ce4bh092rcd13ifvqd30","pricing_plan_id":"cebpf4jnsgd1na2vs0mg"},{"bike_id":"37f44347-a0aa-4c1c-8bdd-83ef59019687","system_id":"levelo_inurba_marseille","lat":43.301117,"lon":5.398795,"is_reserved":false,"is_disabled":false,"rental_uris":{"android":"levelo://app?vid=37f44347-a0aa-4c1c-8bdd-83ef59019687","ios":"levelo://app?vid=37f44347-a0aa-4c1c-8bdd-83ef59019687"},"vehicle_type_id":"4","last_reported":1721844680,"current_range_meters":0,"station_id":"ce4bh0h2rcd13ifvqd40","pricing_plan_id":"cebpf4jnsgd1na2vs0mg"},{"bike_id":"8496244a-e2d4-4fec-8c5d-d20734e71575","system_id":"levelo_inurba_marseille","lat":43.286961,"lon":5.373785,"is_reserved":false,"is_disabled":false,"rental_uris":{"android":"levelo://app?vid=8496244a-e2d4-4fec-8c5d-d20734e71575","ios":"levelo://app?vid=8496244a-e2d4-4fec-8c5d-d20734e71575"},"vehicle_type_id":"4","last_reported":1721844680,"current_range_meters":12400,"station_id":"ce4bh3p2rcd13ifvqdq0","pricing_plan_id":"cebpf4jnsgd1na2vs0mg"},{"bike_id":"0db75cb9-dd8f-46da-bb49-2be5aa96338a","system_id":"levelo_inurba_marseille","lat":43.286961,"lon":5.373785,"is_reserved":false,"is_disabled":false,"rental_uris":{"android":"levelo://app?vid=0db75cb9-dd8f-46da-bb49-2be5aa96338a","ios":"levelo://app?vid=0db75cb9-dd8f-46da-bb49-2be5aa96338a"},"vehicle_type_id":"4","last_reported":1721844680,"current_range_meters":0,"station_id":"ce4bh3p2rcd13ifvqdq0","pricing_plan_id":"cebpf4jnsgd1na2vs0mg"},{"bike_id":"96f7a605-6529-4ffa-8ad0-e9ece32332ab","system_id":"levelo_inurba_marseille","lat":43.298698,"lon":5.397343,"is_reserved":false,"is_disabled":false,"rental_uris":{"android":"levelo://app?vid=96f7a605-6529-4ffa-8ad0-e9ece32332ab","ios":"levelo://app?vid=96f7a605-6529-4ffa-8ad0-e9ece32332ab"},"vehicle_type_id":"4","last_reported":1721844680,"current_range_meters":29600,"station_id":"","pricing_plan_id":"cebpf4jnsgd1na2vs0mg"},{"bike_id":"4d7ff75f-a5c8-4c51-b4a7-82d919404835","system_id":"levelo_inurba_marseille","lat":43.286961,"lon":5.373785,"is_reserved":false,"is_disabled":false,"rental_uris":{"android":"levelo://app?vid=4d7ff75f-a5c8-4c51-b4a7-82d919404835","ios":"levelo://app?vid=4d7ff75f-a5c8-4c51-b4a7-82d919404835"},"vehicle_type_id":"4","last_reported":1721844680,"current_range_meters":0,"station_id":"ce4bh3p2rcd13ifvqdq0","pricing_plan_id":"cebpf4jnsgd1na2vs0mg"},{"bike_id":"87454083-1a25-442c-8fbc-4b94dddb061d","system_id":"levelo_inurba_marseille","lat":43.286961,"lon":5.373785,"is_reserved":false,"is_disabled":false,"rental_uris":{"android":"levelo://app?vid=87454083-1a25-442c-8fbc-4b94dddb061d","ios":"levelo://app?vid=87454083-1a25-442c-8fbc-4b94dddb061d"},"vehicle_type_id":"4","last_reported":1721844680,"current_range_meters":29600,"station_id":"ce4bh3p2rcd13ifvqdq0","pricing_plan_id":"cebpf4jnsgd1na2vs0mg"},{"bike_id":"0b2e52ce-4328-458a-8402-e322cf09322a","system_id":"levelo_inurba_marseille","lat":43.286911,"lon":5.373846,"is_reserved":false,"is_disabled":false,"rental_uris":{"android":"levelo://app?vid=0b2e52ce-4328-458a-8402-e322cf09322a","ios":"levelo://app?vid=0b2e52ce-4328-458a-8402-e322cf09322a"},"vehicle_type_id":"4","last_reported":1721844680,"current_range_meters":0,"station_id":"","pricing_plan_id":"cebpf4jnsgd1na2vs0mg"},{"bike_id":"a3182aae-9468-4f32-af5f-bd44f4e2fc0d","system_id":"levelo_inurba_marseille","lat":43.28931,"lon":5.38398,"is_reserved":false,"is_disabled":false,"rental_uris":{"android":"levelo://app?vid=a3182aae-9468-4f32-af5f-bd44f4e2fc0d","ios":"levelo://app?vid=a3182aae-9468-4f32-af5f-bd44f4e2fc0d"},"vehicle_type_id":"4","last_reported":1721844680,"current_range_meters":0,"station_id":"ce4bh612rcd13ifvqe6g","pricing_plan_id":"cebpf4jnsgd1na2vs0mg"},{"bike_id":"cc7dab12-dc97-4f23-bd62-18d1baaea576","system_id":"levelo_inurba_marseille","lat":43.28929,"lon":5.38393,"is_reserved":false,"is_disabled":false,"rental_uris":{"android":"levelo://app?vid=cc7dab12-dc97-4f23-bd62-18d1baaea576","ios":"levelo://app?vid=cc7dab12-dc97-4f23-bd62-18d1baaea576"},"vehicle_type_id":"4","last_reported":1721844680,"current_range_meters":0,"station_id":"ce4bh612rcd13ifvqe6g","pricing_plan_id":"cebpf4jnsgd1na2vs0mg"},{"bike_id":"bbdfaaab-492e-4fd9-9d6e-4d4a72bac663","system_id":"levelo_inurba_marseille","lat":43.289307,"lon":5.38406,"is_reserved":false,"is_disabled":false,"rental_uris":{"android":"levelo://app?vid=bbdfaaab-492e-4fd9-9d6e-4d4a72bac663","ios":"levelo://app?vid=bbdfaaab-492e-4fd9-9d6e-4d4a72bac663"},"vehicle_type_id":"4","last_reported":1721844680,"current_range_meters":26000,"station_id":"ce4bh612rcd13ifvqe6g","pricing_plan_id":"cebpf4jnsgd1na2vs0mg"},{"bike_id":"cd4d936b-d39f-472a-8e74-4f4bac90e012","system_id":"levelo_inurba_marseille","lat":43.290291,"lon":5.386443,"is_reserved":false,"is_disabled":false,"rental_uris":{"android":"levelo://app?vid=cd4d936b-d39f-472a-8e74-4f4bac90e012","ios":"levelo://app?vid=cd4d936b-d39f-472a-8e74-4f4bac90e012"},"vehicle_type_id":"4","last_reported":1721844680,"current_range_meters":0,"station_id":"ce4bh4p2rcd13ifvqe0g","pricing_plan_id":"cebpf4jnsgd1na2vs0mg"},{"bike_id":"742b49c6-0c07-423c-b3ad-2301f74dfa68","system_id":"levelo_inurba_marseille","lat":43.28921,"lon":5.3839,"is_reserved":false,"is_disabled":false,"rental_uris":{"android":"levelo://app?vid=742b49c6-0c07-423c-b3ad-2301f74dfa68","ios":"levelo://app?vid=742b49c6-0c07-423c-b3ad-2301f74dfa68"},"vehicle_type_id":"4","last_reported":1721844680,"current_range_meters":0,"station_id":"ce4bh612rcd13ifvqe6g","pricing_plan_id":"cebpf4jnsgd1na2vs0mg"},{"bike_id":"f13c02fd-acac-4d94-86dd-0aeb9b9c320a","system_id":"levelo_inurba_marseille","lat":43.29024,"lon":5.38641,"is_reserved":false,"is_disabled":false,"rental_uris":{"android":"levelo://app?vid=f13c02fd-acac-4d94-86dd-0aeb9b9c320a","ios":"levelo://app?vid=f13c02fd-acac-4d94-86dd-0aeb9b9c320a"},"vehicle_type_id":"4","last_reported":1721844680,"current_range_meters":0,"station_id":"ce4bh4p2rcd13ifvqe0g","pricing_plan_id":"cebpf4jnsgd1na2vs0mg"},{"bike_id":"94d845db-23c9-4349-8bac-a7cc08c1f72e","system_id":"levelo_inurba_marseille","lat":43.302759,"lon":5.400793,"is_reserved":false,"is_disabled":false,"rental_uris":{"android":"levelo://app?vid=94d845db-23c9-4349-8bac-a7cc08c1f72e","ios":"levelo://app?vid=94d845db-23c9-4349-8bac-a7cc08c1f72e"},"vehicle_type_id":"4","last_reported":1721844680,"current_range_meters":1600,"station_id":"ce4bgvh2rcd13ifvqcs0","pricing_plan_id":"cebpf4jnsgd1na2vs0mg"},{"bike_id":"dfe2c39b-cc99-4431-bd3b-f08093010f23","system_id":"levelo_inurba_marseille","lat":43.290336,"lon":5.386425,"is_reserved":false,"is_disabled":false,"rental_uris":{"android":"levelo://app?vid=dfe2c39b-cc99-4431-bd3b-f08093010f23","ios":"levelo://app?vid=dfe2c39b-cc99-4431-bd3b-f08093010f23"},"vehicle_type_id":"4","last_reported":1721844680,"current_range_meters":0,"station_id":"ce4bh4p2rcd13ifvqe0g","pricing_plan_id":"cebpf4jnsgd1na2vs0mg"},{"bike_id":"45617159-e5e5-49c5-815d-59387767048a","system_id":"levelo_inurba_marseille","lat":43.302759,"lon":5.400793,"is_reserved":false,"is_disabled":false,"rental_uris":{"android":"levelo://app?vid=45617159-e5e5-49c5-815d-59387767048a","ios":"levelo://app?vid=45617159-e5e5-49c5-815d-59387767048a"},"vehicle_type_id":"4","last_reported":1721844680,"current_range_meters":4800,"station_id":"ce4bgvh2rcd13ifvqcs0","pricing_plan_id":"cebpf4jnsgd1na2vs0mg"},{"bike_id":"794676e2-1389-4796-8611-d8ef79257a7a","system_id":"levelo_inurba_marseille","lat":43.316828,"lon":5.404723,"is_reserved":false,"is_disabled":false,"rental_uris":{"android":"levelo://app?vid=794676e2-1389-4796-8611-d8ef79257a7a","ios":"levelo://app?vid=794676e2-1389-4796-8611-d8ef79257a7a"},"vehicle_type_id":"4","last_reported":1721844680,"current_range_meters":1200,"station_id":"ce4bh012rcd13ifvqd00","pricing_plan_id":"cebpf4jnsgd1na2vs0mg"},{"bike_id":"d56812fe-2e55-4c84-a5c8-c6d9c10ff642","system_id":"levelo_inurba_marseille","lat":43.286722,"lon":5.380466,"is_reserved":false,"is_disabled":false,"rental_uris":{"android":"levelo://app?vid=d56812fe-2e55-4c84-a5c8-c6d9c10ff642","ios":"levelo://app?vid=d56812fe-2e55-4c84-a5c8-c6d9c10ff642"},"vehicle_type_id":"4","last_reported":1721844680,"current_range_meters":26000,"station_id":"","pricing_plan_id":"cebpf4jnsgd1na2vs0mg"},{"bike_id":"a34df47f-a870-4fbb-9790-467e40e66b41","system_id":"levelo_inurba_marseille","lat":43.316821,"lon":5.404737,"is_reserved":false,"is_disabled":false,"rental_uris":{"android":"levelo://app?vid=a34df47f-a870-4fbb-9790-467e40e66b41","ios":"levelo://app?vid=a34df47f-a870-4fbb-9790-467e40e66b41"},"vehicle_type_id":"4","last_reported":1721844680,"current_range_meters":0,"station_id":"ce4bh012rcd13ifvqd00","pricing_plan_id":"cebpf4jnsgd1na2vs0mg"},{"bike_id":"f0d7c021-4541-4bff-a8f3-6d37a94d1ea2","system_id":"levelo_inurba_marseille","lat":43.291994,"lon":5.392907,"is_reserved":false,"is_disabled":false,"rental_uris":{"android":"levelo://app?vid=f0d7c021-4541-4bff-a8f3-6d37a94d1ea2","ios":"levelo://app?vid=f0d7c021-4541-4bff-a8f3-6d37a94d1ea2"},"vehicle_type_id":"4","last_reported":1721844680,"current_range_meters":0,"station_id":"ce4bh192rcd13ifvqdd0","pricing_plan_id":"cebpf4jnsgd1na2vs0mg"},{"bike_id":"feeae971-39b7-4cbb-8657-aae38d727ba5","system_id":"levelo_inurba_marseille","lat":43.291994,"lon":5.392907,"is_reserved":false,"is_disabled":false,"rental_uris":{"android":"levelo://app?vid=feeae971-39b7-4cbb-8657-aae38d727ba5","ios":"levelo://app?vid=feeae971-39b7-4cbb-8657-aae38d727ba5"},"vehicle_type_id":"4","last_reported":1721844680,"current_range_meters":0,"station_id":"ce4bh192rcd13ifvqdd0","pricing_plan_id":"cebpf4jnsgd1na2vs0mg"},{"bike_id":"56b47d2a-4025-4c82-9746-84335a7be54f","system_id":"levelo_inurba_marseille","lat":43.291994,"lon":5.392907,"is_reserved":false,"is_disabled":false,"rental_uris":{"android":"levelo://app?vid=56b47d2a-4025-4c82-9746-84335a7be54f","ios":"levelo://app?vid=56b47d2a-4025-4c82-9746-84335a7be54f"},"vehicle_type_id":"4","last_reported":1721844680,"current_range_meters":0,"station_id":"ce4bh192rcd13ifvqdd0","pricing_plan_id":"cebpf4jnsgd1na2vs0mg"},{"bike_id":"e3bc6fe5-993e-4cdc-93df-143ba8598600","system_id":"levelo_inurba_marseille","lat":43.28463,"lon":5.35891,"is_reserved":false,"is_disabled":false,"rental_uris":{"android":"levelo://app?vid=e3bc6fe5-993e-4cdc-93df-143ba8598600","ios":"levelo://app?vid=e3bc6fe5-993e-4cdc-93df-143ba8598600"},"vehicle_type_id":"4","last_reported":1721844680,"current_range_meters":0,"station_id":"ce4bhah2rcd13ifvqei0","pricing_plan_id":"cebpf4jnsgd1na2vs0mg"},{"bike_id":"fff880e2-c7b2-4dad-991e-96440d4cf513","system_id":"levelo_inurba_marseille","lat":43.28461,"lon":5.359,"is_reserved":false,"is_disabled":false,"rental_uris":{"android":"levelo://app?vid=fff880e2-c7b2-4dad-991e-96440d4cf513","ios":"levelo://app?vid=fff880e2-c7b2-4dad-991e-96440d4cf513"},"vehicle_type_id":"4","last_reported":1721844680,"current_range_meters":19600,"station_id":"ce4bhah2rcd13ifvqei0","pricing_plan_id":"cebpf4jnsgd1na2vs0mg"},{"bike_id":"c5b0bbc4-b666-47bc-9712-d20a157d62f7","system_id":"levelo_inurba_marseille","lat":43.28459,"lon":5.35886,"is_reserved":false,"is_disabled":false,"rental_uris":{"android":"levelo://app?vid=c5b0bbc4-b666-47bc-9712-d20a157d62f7","ios":"levelo://app?vid=c5b0bbc4-b666-47bc-9712-d20a157d62f7"},"vehicle_type_id":"4","last_reported":1721844680,"current_range_meters":0,"station_id":"ce4bhah2rcd13ifvqei0","pricing_plan_id":"cebpf4jnsgd1na2vs0mg"},{"bike_id":"2cd861ac-f269-40ea-9ce8-6e9fbf25eaf2","system_id":"levelo_inurba_marseille","lat":43.28455,"lon":5.35884,"is_reserved":false,"is_disabled":false,"rental_uris":{"android":"levelo://app?vid=2cd861ac-f269-40ea-9ce8-6e9fbf25eaf2","ios":"levelo://app?vid=2cd861ac-f269-40ea-9ce8-6e9fbf25eaf2"},"vehicle_type_id":"4","last_reported":1721844680,"current_range_meters":0,"station_id":"ce4bhah2rcd13ifvqei0","pricing_plan_id":"cebpf4jnsgd1na2vs0mg"},{"bike_id":"6795650a-e0a3-4730-97fe-c63eddbde8bd","system_id":"levelo_inurba_marseille","lat":43.285848,"lon":5.350787,"is_reserved":false,"is_disabled":false,"rental_uris":{"android":"levelo://app?vid=6795650a-e0a3-4730-97fe-c63eddbde8bd","ios":"levelo://app?vid=6795650a-e0a3-4730-97fe-c63eddbde8bd"},"vehicle_type_id":"4","last_reported":1721844680,"current_range_meters":25200,"station_id":"ce4bhch2rcd13ifvqeug","pricing_plan_id":"cebpf4jnsgd1na2vs0mg"},{"bike_id":"0b8d018d-74aa-421d-8e55-12bebafbe814","system_id":"levelo_inurba_marseille","lat":43.2862,"lon":5.3511,"is_reserved":false,"is_disabled":false,"rental_uris":{"android":"levelo://app?vid=0b8d018d-74aa-421d-8e55-12bebafbe814","ios":"levelo://app?vid=0b8d018d-74aa-421d-8e55-12bebafbe814"},"vehicle_type_id":"4","last_reported":1721844680,"current_range_meters":8000,"station_id":"ce4bhch2rcd13ifvqeug","pricing_plan_id":"cebpf4jnsgd1na2vs0mg"},{"bike_id":"453dfb71-e5d5-44f3-8e4a-405b63886319","system_id":"levelo_inurba_marseille","lat":43.2862,"lon":5.3511,"is_reserved":false,"is_disabled":false,"rental_uris":{"android":"levelo://app?vid=453dfb71-e5d5-44f3-8e4a-405b63886319","ios":"levelo://app?vid=453dfb71-e5d5-44f3-8e4a-405b63886319"},"vehicle_type_id":"4","last_reported":1721844680,"current_range_meters":31200,"station_id":"ce4bhch2rcd13ifvqeug","pricing_plan_id":"cebpf4jnsgd1na2vs0mg"},{"bike_id":"04827f15-af74-46d3-bd5a-3c4534b38d2f","system_id":"levelo_inurba_marseille","lat":43.286186,"lon":5.351122,"is_reserved":false,"is_disabled":false,"rental_uris":{"android":"levelo://app?vid=04827f15-af74-46d3-bd5a-3c4534b38d2f","ios":"levelo://app?vid=04827f15-af74-46d3-bd5a-3c4534b38d2f"},"vehicle_type_id":"4","last_reported":1721844680,"current_range_meters":1200,"station_id":"ce4bha92rcd13ifvqeg0","pricing_plan_id":"cebpf4jnsgd1na2vs0mg"},{"bike_id":"d420d931-2b50-41dc-8ecd-f27b6d2f2bdb","system_id":"levelo_inurba_marseille","lat":43.28619,"lon":5.35107,"is_reserved":false,"is_disabled":false,"rental_uris":{"android":"levelo://app?vid=d420d931-2b50-41dc-8ecd-f27b6d2f2bdb","ios":"levelo://app?vid=d420d931-2b50-41dc-8ecd-f27b6d2f2bdb"},"vehicle_type_id":"4","last_reported":1721844680,"current_range_meters":6800,"station_id":"ce4bhch2rcd13ifvqeug","pricing_plan_id":"cebpf4jnsgd1na2vs0mg"},{"bike_id":"690f79e1-5874-4f0b-bf8d-88501cef4d21","system_id":"levelo_inurba_marseille","lat":43.28619,"lon":5.35104,"is_reserved":false,"is_disabled":false,"rental_uris":{"android":"levelo://app?vid=690f79e1-5874-4f0b-bf8d-88501cef4d21","ios":"levelo://app?vid=690f79e1-5874-4f0b-bf8d-88501cef4d21"},"vehicle_type_id":"4","last_reported":1721844680,"current_range_meters":24000,"station_id":"ce4bhch2rcd13ifvqeug","pricing_plan_id":"cebpf4jnsgd1na2vs0mg"},{"bike_id":"72edaba6-0339-4e98-abaf-31a65ad9383a","system_id":"levelo_inurba_marseille","lat":43.28617,"lon":5.35109,"is_reserved":false,"is_disabled":false,"rental_uris":{"android":"levelo://app?vid=72edaba6-0339-4e98-abaf-31a65ad9383a","ios":"levelo://app?vid=72edaba6-0339-4e98-abaf-31a65ad9383a"},"vehicle_type_id":"4","last_reported":1721844680,"current_range_meters":15200,"station_id":"ce4bhch2rcd13ifvqeug","pricing_plan_id":"cebpf4jnsgd1na2vs0mg"},{"bike_id":"8953a488-2799-44bf-a870-1e54586c3216","system_id":"levelo_inurba_marseille","lat":43.28618,"lon":5.35104,"is_reserved":false,"is_disabled":false,"rental_uris":{"android":"levelo://app?vid=8953a488-2799-44bf-a870-1e54586c3216","ios":"levelo://app?vid=8953a488-2799-44bf-a870-1e54586c3216"},"vehicle_type_id":"4","last_reported":1721844680,"current_range_meters":18400,"station_id":"ce4bhch2rcd13ifvqeug","pricing_plan_id":"cebpf4jnsgd1na2vs0mg"},{"bike_id":"3560dd01-d999-4b17-b00b-3e03c083bff7","system_id":"levelo_inurba_marseille","lat":43.28618,"lon":5.35104,"is_reserved":false,"is_disabled":false,"rental_uris":{"android":"levelo://app?vid=3560dd01-d999-4b17-b00b-3e03c083bff7","ios":"levelo://app?vid=3560dd01-d999-4b17-b00b-3e03c083bff7"},"vehicle_type_id":"4","last_reported":1721844680,"current_range_meters":22800,"station_id":"ce4bhch2rcd13ifvqeug","pricing_plan_id":"cebpf4jnsgd1na2vs0mg"},{"bike_id":"ab44b2e7-ffea-48f6-93a6-780b14205925","system_id":"levelo_inurba_marseille","lat":43.28617,"lon":5.35107,"is_reserved":false,"is_disabled":false,"rental_uris":{"android":"levelo://app?vid=ab44b2e7-ffea-48f6-93a6-780b14205925","ios":"levelo://app?vid=ab44b2e7-ffea-48f6-93a6-780b14205925"},"vehicle_type_id":"4","last_reported":1721844680,"current_range_meters":23600,"station_id":"ce4bhch2rcd13ifvqeug","pricing_plan_id":"cebpf4jnsgd1na2vs0mg"},{"bike_id":"6f061303-2c4a-4294-aedd-e3ae6c4c136a","system_id":"levelo_inurba_marseille","lat":43.286178,"lon":5.351041,"is_reserved":false,"is_disabled":false,"rental_uris":{"android":"levelo://app?vid=6f061303-2c4a-4294-aedd-e3ae6c4c136a","ios":"levelo://app?vid=6f061303-2c4a-4294-aedd-e3ae6c4c136a"},"vehicle_type_id":"4","last_reported":1721844680,"current_range_meters":0,"station_id":"","pricing_plan_id":"cebpf4jnsgd1na2vs0mg"},{"bike_id":"ee966998-f497-45eb-9fbf-d3052db215cd","system_id":"levelo_inurba_marseille","lat":43.28617,"lon":5.35106,"is_reserved":false,"is_disabled":false,"rental_uris":{"android":"levelo://app?vid=ee966998-f497-45eb-9fbf-d3052db215cd","ios":"levelo://app?vid=ee966998-f497-45eb-9fbf-d3052db215cd"},"vehicle_type_id":"4","last_reported":1721844680,"current_range_meters":28400,"station_id":"ce4bhch2rcd13ifvqeug","pricing_plan_id":"cebpf4jnsgd1na2vs0mg"},{"bike_id":"78c29226-d7e5-4b11-968c-b027458c71f5","system_id":"levelo_inurba_marseille","lat":43.28617,"lon":5.35106,"is_reserved":false,"is_disabled":false,"rental_uris":{"android":"levelo://app?vid=78c29226-d7e5-4b11-968c-b027458c71f5","ios":"levelo://app?vid=78c29226-d7e5-4b11-968c-b027458c71f5"},"vehicle_type_id":"4","last_reported":1721844680,"current_range_meters":28000,"station_id":"ce4bhch2rcd13ifvqeug","pricing_plan_id":"cebpf4jnsgd1na2vs0mg"},{"bike_id":"5862d44e-d49f-4c80-b712-0fe720766e49","system_id":"levelo_inurba_marseille","lat":43.28618,"lon":5.35102,"is_reserved":false,"is_disabled":false,"rental_uris":{"android":"levelo://app?vid=5862d44e-d49f-4c80-b712-0fe720766e49","ios":"levelo://app?vid=5862d44e-d49f-4c80-b712-0fe720766e49"},"vehicle_type_id":"4","last_reported":1721844680,"current_range_meters":14000,"station_id":"ce4bhch2rcd13ifvqeug","pricing_plan_id":"cebpf4jnsgd1na2vs0mg"},{"bike_id":"cc7e4416-1b56-48cc-87ab-3b1ab7e1605c","system_id":"levelo_inurba_marseille","lat":43.28616,"lon":5.35108,"is_reserved":false,"is_disabled":false,"rental_uris":{"android":"levelo://app?vid=cc7e4416-1b56-48cc-87ab-3b1ab7e1605c","ios":"levelo://app?vid=cc7e4416-1b56-48cc-87ab-3b1ab7e1605c"},"vehicle_type_id":"4","last_reported":1721844680,"current_range_meters":0,"station_id":"ce4bhch2rcd13ifvqeug","pricing_plan_id":"cebpf4jnsgd1na2vs0mg"},{"bike_id":"59c0719f-253f-4cd8-9973-61cd443aded5","system_id":"levelo_inurba_marseille","lat":43.285848,"lon":5.350787,"is_reserved":false,"is_disabled":false,"rental_uris":{"android":"levelo://app?vid=59c0719f-253f-4cd8-9973-61cd443aded5","ios":"levelo://app?vid=59c0719f-253f-4cd8-9973-61cd443aded5"},"vehicle_type_id":"4","last_reported":1721844680,"current_range_meters":16000,"station_id":"ce4bhch2rcd13ifvqeug","pricing_plan_id":"cebpf4jnsgd1na2vs0mg"},{"bike_id":"ea6bab61-5086-42d8-b8a0-08206b9444e1","system_id":"levelo_inurba_marseille","lat":43.28616,"lon":5.35108,"is_reserved":false,"is_disabled":false,"rental_uris":{"android":"levelo://app?vid=ea6bab61-5086-42d8-b8a0-08206b9444e1","ios":"levelo://app?vid=ea6bab61-5086-42d8-b8a0-08206b9444e1"},"vehicle_type_id":"4","last_reported":1721844680,"current_range_meters":26000,"station_id":"ce4bhch2rcd13ifvqeug","pricing_plan_id":"cebpf4jnsgd1na2vs0mg"},{"bike_id":"a8be2ad2-d508-40b6-af0e-734d3f1b8dfb","system_id":"levelo_inurba_marseille","lat":43.28615,"lon":5.35107,"is_reserved":false,"is_disabled":false,"rental_uris":{"android":"levelo://app?vid=a8be2ad2-d508-40b6-af0e-734d3f1b8dfb","ios":"levelo://app?vid=a8be2ad2-d508-40b6-af0e-734d3f1b8dfb"},"vehicle_type_id":"4","last_reported":1721844680,"current_range_meters":5600,"station_id":"ce4bhch2rcd13ifvqeug","pricing_plan_id":"cebpf4jnsgd1na2vs0mg"},{"bike_id":"29fa3516-7b50-4173-b54c-6b558753b101","system_id":"levelo_inurba_marseille","lat":43.28615,"lon":5.35107,"is_reserved":false,"is_disabled":false,"rental_uris":{"android":"levelo://app?vid=29fa3516-7b50-4173-b54c-6b558753b101","ios":"levelo://app?vid=29fa3516-7b50-4173-b54c-6b558753b101"},"vehicle_type_id":"4","last_reported":1721844680,"current_range_meters":7200,"station_id":"ce4bhch2rcd13ifvqeug","pricing_plan_id":"cebpf4jnsgd1na2vs0mg"},{"bike_id":"e76bd22e-5ede-46fa-878b-3b243f853219","system_id":"levelo_inurba_marseille","lat":43.28617,"lon":5.351,"is_reserved":false,"is_disabled":false,"rental_uris":{"android":"levelo://app?vid=e76bd22e-5ede-46fa-878b-3b243f853219","ios":"levelo://app?vid=e76bd22e-5ede-46fa-878b-3b243f853219"},"vehicle_type_id":"4","last_reported":1721844680,"current_range_meters":19600,"station_id":"ce4bhch2rcd13ifvqeug","pricing_plan_id":"cebpf4jnsgd1na2vs0mg"},{"bike_id":"c727f625-b83e-4ab6-84e6-7492ac66973a","system_id":"levelo_inurba_marseille","lat":43.28614,"lon":5.35105,"is_reserved":false,"is_disabled":false,"rental_uris":{"android":"levelo://app?vid=c727f625-b83e-4ab6-84e6-7492ac66973a","ios":"levelo://app?vid=c727f625-b83e-4ab6-84e6-7492ac66973a"},"vehicle_type_id":"4","last_reported":1721844680,"current_range_meters":14000,"station_id":"ce4bhch2rcd13ifvqeug","pricing_plan_id":"cebpf4jnsgd1na2vs0mg"},{"bike_id":"2ebfaf61-6a53-48b2-ae24-60cfa8fdb10c","system_id":"levelo_inurba_marseille","lat":43.28613,"lon":5.35107,"is_reserved":false,"is_disabled":false,"rental_uris":{"android":"levelo://app?vid=2ebfaf61-6a53-48b2-ae24-60cfa8fdb10c","ios":"levelo://app?vid=2ebfaf61-6a53-48b2-ae24-60cfa8fdb10c"},"vehicle_type_id":"4","last_reported":1721844680,"current_range_meters":0,"station_id":"ce4bhch2rcd13ifvqeug","pricing_plan_id":"cebpf4jnsgd1na2vs0mg"},{"bike_id":"23e53962-5e89-418e-b00b-0e30c6d8b9a4","system_id":"levelo_inurba_marseille","lat":43.285856,"lon":5.350771,"is_reserved":false,"is_disabled":false,"rental_uris":{"android":"levelo://app?vid=23e53962-5e89-418e-b00b-0e30c6d8b9a4","ios":"levelo://app?vid=23e53962-5e89-418e-b00b-0e30c6d8b9a4"},"vehicle_type_id":"4","last_reported":1721844680,"current_range_meters":31200,"station_id":"ce4bhch2rcd13ifvqeug","pricing_plan_id":"cebpf4jnsgd1na2vs0mg"},{"bike_id":"dd579a96-db29-4992-b0c8-cdca5ce0bbe2","system_id":"levelo_inurba_marseille","lat":43.28613,"lon":5.35105,"is_reserved":false,"is_disabled":false,"rental_uris":{"android":"levelo://app?vid=dd579a96-db29-4992-b0c8-cdca5ce0bbe2","ios":"levelo://app?vid=dd579a96-db29-4992-b0c8-cdca5ce0bbe2"},"vehicle_type_id":"4","last_reported":1721844680,"current_range_meters":16000,"station_id":"ce4bhch2rcd13ifvqeug","pricing_plan_id":"cebpf4jnsgd1na2vs0mg"},{"bike_id":"910e81e3-e3c0-4d87-81b2-65cb4356fbf7","system_id":"levelo_inurba_marseille","lat":43.285848,"lon":5.350787,"is_reserved":false,"is_disabled":false,"rental_uris":{"android":"levelo://app?vid=910e81e3-e3c0-4d87-81b2-65cb4356fbf7","ios":"levelo://app?vid=910e81e3-e3c0-4d87-81b2-65cb4356fbf7"},"vehicle_type_id":"4","last_reported":1721844680,"current_range_meters":15600,"station_id":"ce4bhch2rcd13ifvqeug","pricing_plan_id":"cebpf4jnsgd1na2vs0mg"},{"bike_id":"9694fb5e-0455-4dfc-b392-004ded5a8d75","system_id":"levelo_inurba_marseille","lat":43.28614,"lon":5.35101,"is_reserved":false,"is_disabled":false,"rental_uris":{"android":"levelo://app?vid=9694fb5e-0455-4dfc-b392-004ded5a8d75","ios":"levelo://app?vid=9694fb5e-0455-4dfc-b392-004ded5a8d75"},"vehicle_type_id":"4","last_reported":1721844680,"current_range_meters":22400,"station_id":"ce4bhch2rcd13ifvqeug","pricing_plan_id":"cebpf4jnsgd1na2vs0mg"},{"bike_id":"60b78faf-9d38-485b-b4c9-7a6f50196695","system_id":"levelo_inurba_marseille","lat":43.285856,"lon":5.350771,"is_reserved":false,"is_disabled":false,"rental_uris":{"android":"levelo://app?vid=60b78faf-9d38-485b-b4c9-7a6f50196695","ios":"levelo://app?vid=60b78faf-9d38-485b-b4c9-7a6f50196695"},"vehicle_type_id":"4","last_reported":1721844680,"current_range_meters":6400,"station_id":"ce4bhch2rcd13ifvqeug","pricing_plan_id":"cebpf4jnsgd1na2vs0mg"},{"bike_id":"e9d35a8b-df51-4670-8a90-dcf2cc47b089","system_id":"levelo_inurba_marseille","lat":43.286097,"lon":5.351042,"is_reserved":false,"is_disabled":false,"rental_uris":{"android":"levelo://app?vid=e9d35a8b-df51-4670-8a90-dcf2cc47b089","ios":"levelo://app?vid=e9d35a8b-df51-4670-8a90-dcf2cc47b089"},"vehicle_type_id":"4","last_reported":1721844680,"current_range_meters":27600,"station_id":"","pricing_plan_id":"cebpf4jnsgd1na2vs0mg"},{"bike_id":"5689cd21-72d9-46c5-a410-74e3b25838e5","system_id":"levelo_inurba_marseille","lat":43.283998,"lon":5.375062,"is_reserved":false,"is_disabled":false,"rental_uris":{"android":"levelo://app?vid=5689cd21-72d9-46c5-a410-74e3b25838e5","ios":"levelo://app?vid=5689cd21-72d9-46c5-a410-74e3b25838e5"},"vehicle_type_id":"4","last_reported":1721844680,"current_range_meters":0,"station_id":"ce4bh412rcd13ifvqds0","pricing_plan_id":"cebpf4jnsgd1na2vs0mg"},{"bike_id":"d6c88cae-30d1-4664-a464-e8c6aaef38e3","system_id":"levelo_inurba_marseille","lat":43.28656,"lon":5.38664,"is_reserved":false,"is_disabled":false,"rental_uris":{"android":"levelo://app?vid=d6c88cae-30d1-4664-a464-e8c6aaef38e3","ios":"levelo://app?vid=d6c88cae-30d1-4664-a464-e8c6aaef38e3"},"vehicle_type_id":"4","last_reported":1721844680,"current_range_meters":0,"station_id":"ce4bh492rcd13ifvqdug","pricing_plan_id":"cebpf4jnsgd1na2vs0mg"},{"bike_id":"336b3dcc-02cd-4811-9b1d-a25103b14b19","system_id":"levelo_inurba_marseille","lat":43.33717,"lon":5.391857,"is_reserved":false,"is_disabled":false,"rental_uris":{"android":"levelo://app?vid=336b3dcc-02cd-4811-9b1d-a25103b14b19","ios":"levelo://app?vid=336b3dcc-02cd-4811-9b1d-a25103b14b19"},"vehicle_type_id":"4","last_reported":1721844680,"current_range_meters":27200,"station_id":"ce4bhr92rcd13ifvqhsg","pricing_plan_id":"cebpf4jnsgd1na2vs0mg"},{"bike_id":"ba876268-ae7b-48fa-9a46-68895901d1de","system_id":"levelo_inurba_marseille","lat":43.323464,"lon":5.406297,"is_reserved":false,"is_disabled":false,"rental_uris":{"android":"levelo://app?vid=ba876268-ae7b-48fa-9a46-68895901d1de","ios":"levelo://app?vid=ba876268-ae7b-48fa-9a46-68895901d1de"},"vehicle_type_id":"4","last_reported":1721844680,"current_range_meters":7200,"station_id":"ce4bhq92rcd13ifvqhjg","pricing_plan_id":"cebpf4jnsgd1na2vs0mg"},{"bike_id":"fae0cedf-ae2b-4cbb-a2a5-3a196a6465d9","system_id":"levelo_inurba_marseille","lat":43.337168,"lon":5.391825,"is_reserved":false,"is_disabled":false,"rental_uris":{"android":"levelo://app?vid=fae0cedf-ae2b-4cbb-a2a5-3a196a6465d9","ios":"levelo://app?vid=fae0cedf-ae2b-4cbb-a2a5-3a196a6465d9"},"vehicle_type_id":"4","last_reported":1721844680,"current_range_meters":5600,"station_id":"ce4bhr92rcd13ifvqhsg","pricing_plan_id":"cebpf4jnsgd1na2vs0mg"},{"bike_id":"217f9630-14bc-43b2-adce-0680da6e299c","system_id":"levelo_inurba_marseille","lat":43.32336,"lon":5.40625,"is_reserved":false,"is_disabled":false,"rental_uris":{"android":"levelo://app?vid=217f9630-14bc-43b2-adce-0680da6e299c","ios":"levelo://app?vid=217f9630-14bc-43b2-adce-0680da6e299c"},"vehicle_type_id":"4","last_reported":1721844680,"current_range_meters":3200,"station_id":"ce4bhq92rcd13ifvqhjg","pricing_plan_id":"cebpf4jnsgd1na2vs0mg"},{"bike_id":"9ae8eee1-e7dc-4c62-838e-a3c273268112","system_id":"levelo_inurba_marseille","lat":43.284904,"lon":5.38421,"is_reserved":false,"is_disabled":false,"rental_uris":{"android":"levelo://app?vid=9ae8eee1-e7dc-4c62-838e-a3c273268112","ios":"levelo://app?vid=9ae8eee1-e7dc-4c62-838e-a3c273268112"},"vehicle_type_id":"4","last_reported":1721844680,"current_range_meters":0,"station_id":"ce4bh512rcd13ifvqe3g","pricing_plan_id":"cebpf4jnsgd1na2vs0mg"},{"bike_id":"73bd4a1d-e3dc-439f-8ca8-5bee70aed885","system_id":"levelo_inurba_marseille","lat":43.33717,"lon":5.391857,"is_reserved":false,"is_disabled":false,"rental_uris":{"android":"levelo://app?vid=73bd4a1d-e3dc-439f-8ca8-5bee70aed885","ios":"levelo://app?vid=73bd4a1d-e3dc-439f-8ca8-5bee70aed885"},"vehicle_type_id":"4","last_reported":1721844680,"current_range_meters":28400,"station_id":"ce4bhr92rcd13ifvqhsg","pricing_plan_id":"cebpf4jnsgd1na2vs0mg"},{"bike_id":"aa76140d-0509-4f0b-af40-6a36422dca97","system_id":"levelo_inurba_marseille","lat":43.284793,"lon":5.384113,"is_reserved":false,"is_disabled":false,"rental_uris":{"android":"levelo://app?vid=aa76140d-0509-4f0b-af40-6a36422dca97","ios":"levelo://app?vid=aa76140d-0509-4f0b-af40-6a36422dca97"},"vehicle_type_id":"4","last_reported":1721844680,"current_range_meters":0,"station_id":"ce4bh512rcd13ifvqe3g","pricing_plan_id":"cebpf4jnsgd1na2vs0mg"},{"bike_id":"9fde06cf-4bd3-4e33-aab4-9a176b35cae7","system_id":"levelo_inurba_marseille","lat":43.284793,"lon":5.384113,"is_reserved":false,"is_disabled":false,"rental_uris":{"android":"levelo://app?vid=9fde06cf-4bd3-4e33-aab4-9a176b35cae7","ios":"levelo://app?vid=9fde06cf-4bd3-4e33-aab4-9a176b35cae7"},"vehicle_type_id":"4","last_reported":1721844680,"current_range_meters":0,"station_id":"ce4bh512rcd13ifvqe3g","pricing_plan_id":"cebpf4jnsgd1na2vs0mg"},{"bike_id":"e70544f0-c643-45df-948d-67a1254d1cb1","system_id":"levelo_inurba_marseille","lat":43.297946,"lon":5.404063,"is_reserved":false,"is_disabled":false,"rental_uris":{"android":"levelo://app?vid=e70544f0-c643-45df-948d-67a1254d1cb1","ios":"levelo://app?vid=e70544f0-c643-45df-948d-67a1254d1cb1"},"vehicle_type_id":"4","last_reported":1721844680,"current_range_meters":7600,"station_id":"ce4bh112rcd13ifvqd90","pricing_plan_id":"cebpf4jnsgd1na2vs0mg"},{"bike_id":"25d66352-f66f-4cdc-af43-5113f02d19eb","system_id":"levelo_inurba_marseille","lat":43.297946,"lon":5.404063,"is_reserved":false,"is_disabled":false,"rental_uris":{"android":"levelo://app?vid=25d66352-f66f-4cdc-af43-5113f02d19eb","ios":"levelo://app?vid=25d66352-f66f-4cdc-af43-5113f02d19eb"},"vehicle_type_id":"4","last_reported":1721844680,"current_range_meters":31200,"station_id":"ce4bh112rcd13ifvqd90","pricing_plan_id":"cebpf4jnsgd1na2vs0mg"},