{"last_updated":1727824117,"ttl":60,"version":"2.2","data":{"bikes":[{"bike_id":"46d62a9e-b23f-4533-8ce9-97abef6f09a7","system_id":"levelo_inurba_marseille","lat":43.3032,"lon":5.40451,"is_reserved":false,"is_disabled":false,"rental_uris":{"android":"levelo://app?vid=46d62a9e-b23f-4533-8ce9-97abef6f09a7","ios":"levelo://app?vid=46d62a9e-b23f-4533-8ce9-97abef6f09a7"},"vehicle_type_id":"4","last_reported":1727824117,"current_range_meters":38800,"station_id":"ce4bh012rcd13ifvqd10","pricing_plan_id":"cebpf4jnsgd1na2vs0mg"},{"bike_id":"497e4a65-88df-4362-ab75-e59a1f8c6d24","system_id":"levelo_inurba_marseille","lat":43.305511,"lon":5.372799,"is_reserved":false,"is_disabled":false,"rental_uris":{"android":"levelo://app?vid=497e4a65-88df-4362-ab75-e59a1f8c6d24","ios":"levelo://app?vid=497e4a65-88df-4362-ab75-e59a1f8c6d24"},"vehicle_type_id":"4","last_reported":1727824117,"current_range_meters":25600,"station_id":"ce4bgqh2rcd13ifvqc4g","pricing_plan_id":"cebpf4jnsgd1na2vs0mg"},{"bike_id":"fbc4b367-7bbb-43b3-ba51-7142eb83236b","system_id":"levelo_inurba_marseille","lat":43.30008,"lon":5.3771,"is_reserved":false,"is_disabled":false,"rental_uris":{"android":"levelo://app?vid=fbc4b367-7bbb-43b3-ba51-7142eb83236b","ios":"levelo://app?vid=fbc4b367-7bbb-43b3-ba51-7142eb83236b"},"vehicle_type_id":"4","last_reported":1727824117,"current_range_meters":27600,"station_id":"","pricing_plan_id":"cebpf4jnsgd1na2vs0mg"},{"bike_id":"d97196d4-185e-4916-bd86-5eb6fdf18447","system_id":"levelo_inurba_marseille","lat":43.33033,"lon":5.39038,"is_reserved":false,"is_disabled":false,"rental_uris":{"android":"levelo://app?vid=d97196d4-185e-4916-bd86-5eb6fdf18447","ios":"levelo://app?vid=d97196d4-185e-4916-bd86-5eb6fdf18447"},"vehicle_type_id":"4","last_reported":1727824117,"current_range_meters":24000,"station_id":"ce4bhr92rcd13ifvqhrg","pricing_plan_id":"cebpf4jnsgd1na2vs0mg"},{"bike_id":"c1f8fd95-7047-428b-8805-d2bc5bdc3363","system_id":"levelo_inurba_marseille","lat":43.33025,"lon":5.39036,"is_reserved":false,"is_disabled":false,"rental_uris":{"android":"levelo://app?vid=c1f8fd95-7047-428b-8805-d2bc5bdc3363","ios":"levelo://app?vid=c1f8fd95-7047-428b-8805-d2bc5bdc3363"},"vehicle_type_id":"4","last_reported":1727824117,"current_range_meters":37600,"station_id":"ce4bhr92rcd13ifvqhrg","pricing_plan_id":"cebpf4jnsgd1na2vs0mg"},{"bike_id":"590a8d58-4170-45bf-9ac5-837bd3ff5b81","system_id":"levelo_inurba_marseille","lat":43.27074,"lon":5.42268,"is_reserved":false,"is_disabled":false,"rental_uris":{"android":"levelo://app?vid=590a8d58-4170-45bf-9ac5-837bd3ff5b81","ios":"levelo://app?vid=590a8d58-4170-45bf-9ac5-837bd3ff5b81"},"vehicle_type_id":"4","last_reported":1727824117,"current_range_meters":25600,"station_id":"ce4bhk92rcd13ifvqgb0","pricing_plan_id":"cebpf4jnsgd1na2vs0mg"},{"bike_id":"44cefc2e-25d9-4040-b45f-14956c78c679","system_id":"levelo_inurba_marseille","lat":43.27061,"lon":5.42267,"is_reserved":false,"is_disabled":false,"rental_uris":{"android":"levelo://app?vid=44cefc2e-25d9-4040-b45f-14956c78c679","ios":"levelo://app?vid=44cefc2e-25d9-4040-b45f-14956c78c679"},"vehicle_type_id":"4","last_reported":1727824117,"current_range_meters":38800,"station_id":"ce4bhk92rcd13ifvqgb0","pricing_plan_id":"cebpf4jnsgd1na2vs0mg"},{"bike_id":"a814215c-f3f0-4b2e-be81-e83f4e5a2fd2","system_id":"levelo_inurba_marseille","lat":43.2407,"lon":5.37756,"is_reserved":false,"is_disabled":false,"rental_uris":{"android":"levelo://app?vid=a814215c-f3f0-4b2e-be81-e83f4e5a2fd2","ios":"levelo://app?vid=a814215c-f3f0-4b2e-be81-e83f4e5a2fd2"},"vehicle_type_id":"4","last_reported":1727824117,"current_range_meters":32800,"station_id":"ce4bhnp2rcd13ifvqgvg","pricing_plan_id":"cebpf4jnsgd1na2vs0mg"},{"bike_id":"83e07b7c-5a31-4eac-92e4-4f0fe5973f81","system_id":"levelo_inurba_marseille","lat":43.246571,"lon":5.388838,"is_reserved":false,"is_disabled":false,"rental_uris":{"android":"levelo://app?vid=83e07b7c-5a31-4eac-92e4-4f0fe5973f81","ios":"levelo://app?vid=83e07b7c-5a31-4eac-92e4-4f0fe5973f81"},"vehicle_type_id":"4","last_reported":1727824117,"current_range_meters":17600,"station_id":"ce4bhg12rcd13ifvqf60","pricing_plan_id":"cebpf4jnsgd1na2vs0mg"},{"bike_id":"ad8c1535-1479-4469-8c26-216b720cbebb","system_id":"levelo_inurba_marseille","lat":43.27579,"lon":5.38425,"is_reserved":false,"is_disabled":false,"rental_uris":{"android":"levelo://app?vid=ad8c1535-1479-4469-8c26-216b720cbebb","ios":"levelo://app?vid=ad8c1535-1479-4469-8c26-216b720cbebb"},"vehicle_type_id":"4","last_reported":1727824117,"current_range_meters":25200,"station_id":"ce4bhh92rcd13ifvqfi0","pricing_plan_id":"cebpf4jnsgd1na2vs0mg"},{"bike_id":"eed7e329-6797-484d-911e-085f4531d31b","system_id":"levelo_inurba_marseille","lat":43.2558,"lon":5.38242,"is_reserved":false,"is_disabled":false,"rental_uris":{"android":"levelo://app?vid=eed7e329-6797-484d-911e-085f4531d31b","ios":"levelo://app?vid=eed7e329-6797-484d-911e-085f4531d31b"},"vehicle_type_id":"4","last_reported":1727824117,"current_range_meters":8000,"station_id":"ce4bhih2rcd13ifvqfs0","pricing_plan_id":"cebpf4jnsgd1na2vs0mg"},{"bike_id":"1a3ec3a1-7767-4940-a140-a358655f8458","system_id":"levelo_inurba_marseille","lat":43.29549,"lon":5.42277,"is_reserved":false,"is_disabled":false,"rental_uris":{"android":"levelo://app?vid=1a3ec3a1-7767-4940-a140-a358655f8458","ios":"levelo://app?vid=1a3ec3a1-7767-4940-a140-a358655f8458"},"vehicle_type_id":"4","last_reported":1727824117,"current_range_meters":37600,"station_id":"ce4bhph2rcd13ifvqhdg","pricing_plan_id":"cebpf4jnsgd1na2vs0mg"},{"bike_id":"c92a38d9-de10-477a-8e6d-a4f5631ecb8e","system_id":"levelo_inurba_marseille","lat":43.24652,"lon":5.38891,"is_reserved":false,"is_disabled":false,"rental_uris":{"android":"levelo://app?vid=c92a38d9-de10-477a-8e6d-a4f5631ecb8e","ios":"levelo://app?vid=c92a38d9-de10-477a-8e6d-a4f5631ecb8e"},"vehicle_type_id":"4","last_reported":1727824117,"current_range_meters":28800,"station_id":"ce4bhg12rcd13ifvqf60","pricing_plan_id":"cebpf4jnsgd1na2vs0mg"},{"bike_id":"acec0df2-76a5-4e08-bd34-e0b2de725b1b","system_id":"levelo_inurba_marseille","lat":43.28413,"lon":5.37519,"is_reserved":false,"is_disabled":false,"rental_uris":{"android":"levelo://app?vid=acec0df2-76a5-4e08-bd34-e0b2de725b1b","ios":"levelo://app?vid=acec0df2-76a5-4e08-bd34-e0b2de725b1b"},"vehicle_type_id":"4","last_reported":1727824117,"current_range_meters":38400,"station_id":"ce4bh412rcd13ifvqds0","pricing_plan_id":"cebpf4jnsgd1na2vs0mg"},{"bike_id":"09ae8c03-4961-49ed-b29a-bf4a8ba84722","system_id":"levelo_inurba_marseille","lat":43.25107,"lon":5.40327,"is_reserved":false,"is_disabled":false,"rental_uris":{"android":"levelo://app?vid=09ae8c03-4961-49ed-b29a-bf4a8ba84722","ios":"levelo://app?vid=09ae8c03-4961-49ed-b29a-bf4a8ba84722"},"vehicle_type_id":"4","last_reported":1727824117,"current_range_meters":5600,"station_id":"ce4bhlh2rcd13ifvqgig","pricing_plan_id":"cebpf4jnsgd1na2vs0mg"},{"bike_id":"1435c970-49d1-4f79-bdf4-3029475f39fb","system_id":"levelo_inurba_marseille","lat":43.29201,"lon":5.35812,"is_reserved":false,"is_disabled":false,"rental_uris":{"android":"levelo://app?vid=1435c970-49d1-4f79-bdf4-3029475f39fb","ios":"levelo://app?vid=1435c970-49d1-4f79-bdf4-3029475f39fb"},"vehicle_type_id":"4","last_reported":1727824117,"current_range_meters":16000,"station_id":"ce4bhb12rcd13ifvqel0","pricing_plan_id":"cebpf4jnsgd1na2vs0mg"},{"bike_id":"a213483b-0747-4221-a9b2-2551cb9f0226","system_id":"levelo_inurba_marseille","lat":43.30803,"lon":5.38151,"is_reserved":false,"is_disabled":false,"rental_uris":{"android":"levelo://app?vid=a213483b-0747-4221-a9b2-2551cb9f0226","ios":"levelo://app?vid=a213483b-0747-4221-a9b2-2551cb9f0226"},"vehicle_type_id":"4","last_reported":1727824117,"current_range_meters":37600,"station_id":"ce4bgt12rcd13ifvqce0","pricing_plan_id":"cebpf4jnsgd1na2vs0mg"},{"bike_id":"f139bc38-1ba2-4d42-a550-2a060e4202e5","system_id":"levelo_inurba_marseille","lat":43.27808,"lon":5.40708,"is_reserved":false,"is_disabled":false,"rental_uris":{"android":"levelo://app?vid=f139bc38-1ba2-4d42-a550-2a060e4202e5","ios":"levelo://app?vid=f139bc38-1ba2-4d42-a550-2a060e4202e5"},"vehicle_type_id":"4","last_reported":1727824117,"current_range_meters":38800,"station_id":"ce4bhnh2rcd13ifvqgtg","pricing_plan_id":"cebpf4jnsgd1na2vs0mg"},{"bike_id":"2a62678b-7307-4fb5-9cbc-d335087ba1ad","system_id":"levelo_inurba_marseille","lat":43.28441,"lon":5.392,"is_reserved":false,"is_disabled":false,"rental_uris":{"android":"levelo://app?vid=2a62678b-7307-4fb5-9cbc-d335087ba1ad","ios":"levelo://app?vid=2a62678b-7307-4fb5-9cbc-d335087ba1ad"},"vehicle_type_id":"4","last_reported":1727824117,"current_range_meters":16400,"station_id":"ce4bhoh2rcd13ifvqh5g","pricing_plan_id":"cebpf4jnsgd1na2vs0mg"},{"bike_id":"fb54197c-bcfe-4fae-91f5-5917564b6317","system_id":"levelo_inurba_marseille","lat":43.30894,"lon":5.39648,"is_reserved":false,"is_disabled":false,"rental_uris":{"android":"levelo://app?vid=fb54197c-bcfe-4fae-91f5-5917564b6317","ios":"levelo://app?vid=fb54197c-bcfe-4fae-91f5-5917564b6317"},"vehicle_type_id":"4","last_reported":1727824117,"current_range_meters":16400,"station_id":"ce4bh012rcd13ifvqcv0","pricing_plan_id":"cebpf4jnsgd1na2vs0mg"},{"bike_id":"e7c090c4-a395-497f-aafe-dafdf7011f5d","system_id":"levelo_inurba_marseille","lat":43.31175,"lon":5.38712,"is_reserved":false,"is_disabled":false,"rental_uris":{"android":"levelo://app?vid=e7c090c4-a395-497f-aafe-dafdf7011f5d","ios":"levelo://app?vid=e7c090c4-a395-497f-aafe-dafdf7011f5d"},"vehicle_type_id":"4","last_reported":1727824117,"current_range_meters":38000,"station_id":"ce4bgv12rcd13ifvqcp0","pricing_plan_id":"cebpf4jnsgd1na2vs0mg"},{"bike_id":"bcd3d28a-ea65-4172-8f36-03236c255f65","system_id":"levelo_inurba_marseille","lat":43.3033,"lon":5.40448,"is_reserved":false,"is_disabled":false,"rental_uris":{"android":"levelo://app?vid=bcd3d28a-ea65-4172-8f36-03236c255f65","ios":"levelo://app?vid=bcd3d28a-ea65-4172-8f36-03236c255f65"},"vehicle_type_id":"4","last_reported":1727824117,"current_range_meters":38800,"station_id":"ce4bh012rcd13ifvqd10","pricing_plan_id":"cebpf4jnsgd1na2vs0mg"},{"bike_id":"a4224d16-b792-43d4-bccc-ee1385fa6dad","system_id":"levelo_inurba_marseille","lat":43.32545,"lon":5.41453,"is_reserved":false,"is_disabled":false,"rental_uris":{"android":"levelo://app?vid=a4224d16-b792-43d4-bccc-ee1385fa6dad","ios":"levelo://app?vid=a4224d16-b792-43d4-bccc-ee1385fa6dad"},"vehicle_type_id":"4","last_reported":1727824117,"current_range_meters":29600,"station_id":"ce4bhq12rcd13ifvqhhg","pricing_plan_id":"cebpf4jnsgd1na2vs0mg"},{"bike_id":"9ea65383-a0de-4a50-8614-6075feadc120","system_id":"levelo_inurba_marseille","lat":43.31331,"lon":5.397,"is_reserved":false,"is_disabled":false,"rental_uris":{"android":"levelo://app?vid=9ea65383-a0de-4a50-8614-6075feadc120","ios":"levelo://app?vid=9ea65383-a0de-4a50-8614-6075feadc120"},"vehicle_type_id":"4","last_reported":1727824117,"current_range_meters":36400,"station_id":"ce4bgvp2rcd13ifvqcu0","pricing_plan_id":"cebpf4jnsgd1na2vs0mg"},{"bike_id":"5a3a7372-89db-462e-a21e-008482c7ec13","system_id":"levelo_inurba_marseille","lat":43.30894,"lon":5.39645,"is_reserved":false,"is_disabled":false,"rental_uris":{"android":"levelo://app?vid=5a3a7372-89db-462e-a21e-008482c7ec13","ios":"levelo://app?vid=5a3a7372-89db-462e-a21e-008482c7ec13"},"vehicle_type_id":"4","last_reported":1727824117,"current_range_meters":33200,"station_id":"ce4bh012rcd13ifvqcv0","pricing_plan_id":"cebpf4jnsgd1na2vs0mg"},{"bike_id":"202e0f5d-a2cc-4f86-93f0-5e300189a421","system_id":"levelo_inurba_marseille","lat":43.31238,"lon":5.36864,"is_reserved":false,"is_disabled":false,"rental_uris":{"android":"levelo://app?vid=202e0f5d-a2cc-4f86-93f0-5e300189a421","ios":"levelo://app?vid=202e0f5d-a2cc-4f86-93f0-5e300189a421"},"vehicle_type_id":"4","last_reported":1727824117,"current_range_meters":16800,"station_id":"ce4bgl92rcd13ifvqbq0","pricing_plan_id":"cebpf4jnsgd1na2vs0mg"},{"bike_id":"554d7a73-3b40-4dac-9894-f5eadfdc26ff","system_id":"levelo_inurba_marseille","lat":43.28156,"lon":5.42643,"is_reserved":false,"is_disabled":false,"rental_uris":{"android":"levelo://app?vid=554d7a73-3b40-4dac-9894-f5eadfdc26ff","ios":"levelo://app?vid=554d7a73-3b40-4dac-9894-f5eadfdc26ff"},"vehicle_type_id":"4","last_reported":1727824117,"current_range_meters":38800,"station_id":"ce4bhnh2rcd13ifvqgug","pricing_plan_id":"cebpf4jnsgd1na2vs0mg"},{"bike_id":"43c1e5a4-b8d0-43e7-82b5-8d7b9ca74bff","system_id":"levelo_inurba_marseille","lat":43.31369,"lon":5.38501,"is_reserved":false,"is_disabled":false,"rental_uris":{"android":"levelo://app?vid=43c1e5a4-b8d0-43e7-82b5-8d7b9ca74bff","ios":"levelo://app?vid=43c1e5a4-b8d0-43e7-82b5-8d7b9ca74bff"},"vehicle_type_id":"4","last_reported":1727824117,"current_range_meters":22800,"station_id":"ce4bgt92rcd13ifvqcf0","pricing_plan_id":"cebpf4jnsgd1na2vs0mg"},{"bike_id":"7e76f61d-1104-460b-895f-03b2abf7da39","system_id":"levelo_inurba_marseille","lat":43.24076,"lon":5.37754,"is_reserved":false,"is_disabled":false,"rental_uris":{"android":"levelo://app?vid=7e76f61d-1104-460b-895f-03b2abf7da39","ios":"levelo://app?vid=7e76f61d-1104-460b-895f-03b2abf7da39"},"vehicle_type_id":"4","last_reported":1727824117,"current_range_meters":15200,"station_id":"ce4bhnp2rcd13ifvqgvg","pricing_plan_id":"cebpf4jnsgd1na2vs0mg"},{"bike_id":"bc33db4a-e3c9-4718-b2b1-11c0fecddb09","system_id":"levelo_inurba_marseille","lat":43.30264,"lon":5.3769,"is_reserved":false,"is_disabled":false,"rental_uris":{"android":"levelo://app?vid=bc33db4a-e3c9-4718-b2b1-11c0fecddb09","ios":"levelo://app?vid=bc33db4a-e3c9-4718-b2b1-11c0fecddb09"},"vehicle_type_id":"4","last_reported":1727824117,"current_range_meters":37600,"station_id":"ce4bguh2rcd13ifvqcj0","pricing_plan_id":"cebpf4jnsgd1na2vs0mg"},{"bike_id":"60566f3e-8e89-4ab7-87b4-a4570925c8eb","system_id":"levelo_inurba_marseille","lat":43.28358,"lon":5.38109,"is_reserved":false,"is_disabled":false,"rental_uris":{"android":"levelo://app?vid=60566f3e-8e89-4ab7-87b4-a4570925c8eb","ios":"levelo://app?vid=60566f3e-8e89-4ab7-87b4-a4570925c8eb"},"vehicle_type_id":"4","last_reported":1727824117,"current_range_meters":30000,"station_id":"ce4bh412rcd13ifvqdr0","pricing_plan_id":"cebpf4jnsgd1na2vs0mg"},{"bike_id":"6a9f3fd4-6b9c-4ffe-93e8-b38b5c517806","system_id":"levelo_inurba_marseille","lat":43.307961,"lon":5.435358,"is_reserved":false,"is_disabled":false,"rental_uris":{"android":"levelo://app?vid=6a9f3fd4-6b9c-4ffe-93e8-b38b5c517806","ios":"levelo://app?vid=6a9f3fd4-6b9c-4ffe-93e8-b38b5c517806"},"vehicle_type_id":"4","last_reported":1727824117,"current_range_meters":38000,"station_id":"ce4bhph2rcd13ifvqheg","pricing_plan_id":"cebpf4jnsgd1na2vs0mg"},{"bike_id":"857a4f54-b09e-427f-89a4-f8ebb75f9e7f","system_id":"levelo_inurba_marseille","lat":43.3089,"lon":5.39644,"is_reserved":false,"is_disabled":false,"rental_uris":{"android":"levelo://app?vid=857a4f54-b09e-427f-89a4-f8ebb75f9e7f","ios":"levelo://app?vid=857a4f54-b09e-427f-89a4-f8ebb75f9e7f"},"vehicle_type_id":"4","last_reported":1727824117,"current_range_meters":37600,"station_id":"ce4bh012rcd13ifvqcv0","pricing_plan_id":"cebpf4jnsgd1na2vs0mg"},{"bike_id":"f2832095-e7fd-4b0a-9937-b9657b859693","system_id":"levelo_inurba_marseille","lat":43.2695,"lon":5.40246,"is_reserved":false,"is_disabled":false,"rental_uris":{"android":"levelo://app?vid=f2832095-e7fd-4b0a-9937-b9657b859693","ios":"levelo://app?vid=f2832095-e7fd-4b0a-9937-b9657b859693"},"vehicle_type_id":"4","last_reported":1727824117,"current_range_meters":38800,"station_id":"cjm6bp8fraef2m0cb0m0","pricing_plan_id":"cebpf4jnsgd1na2vs0mg"},{"bike_id":"c32d92b6-7ce5-4d09-bf38-7781f66ad1d1","system_id":"levelo_inurba_marseille","lat":43.25722,"lon":5.4112,"is_reserved":false,"is_disabled":false,"rental_uris":{"android":"levelo://app?vid=c32d92b6-7ce5-4d09-bf38-7781f66ad1d1","ios":"levelo://app?vid=c32d92b6-7ce5-4d09-bf38-7781f66ad1d1"},"vehicle_type_id":"4","last_reported":1727824117,"current_range_meters":7200,"station_id":"ce4bhkp2rcd13ifvqgd0","pricing_plan_id":"cebpf4jnsgd1na2vs0mg"},{"bike_id":"ba3cacc8-cd4b-4c5e-a478-c3ee2f93fee9","system_id":"levelo_inurba_marseille","lat":43.28722,"lon":5.37951,"is_reserved":false,"is_disabled":false,"rental_uris":{"android":"levelo://app?vid=ba3cacc8-cd4b-4c5e-a478-c3ee2f93fee9","ios":"levelo://app?vid=ba3cacc8-cd4b-4c5e-a478-c3ee2f93fee9"},"vehicle_type_id":"4","last_reported":1727824117,"current_range_meters":32800,"station_id":"ce4bh9p2rcd13ifvqec0","pricing_plan_id":"cebpf4jnsgd1na2vs0mg"},{"bike_id":"2028cdfd-a15b-43cc-980f-9ab89ecb686c","system_id":"levelo_inurba_marseille","lat":43.25867,"lon":5.39903,"is_reserved":false,"is_disabled":false,"rental_uris":{"android":"levelo://app?vid=2028cdfd-a15b-43cc-980f-9ab89ecb686c","ios":"levelo://app?vid=2028cdfd-a15b-43cc-980f-9ab89ecb686c"},"vehicle_type_id":"4","last_reported":1727824117,"current_range_meters":12800,"station_id":"ce4bhl92rcd13ifvqghg","pricing_plan_id":"cebpf4jnsgd1na2vs0mg"},{"bike_id":"259eaa39-41cd-49da-afdf-9b857b269a04","system_id":"levelo_inurba_marseille","lat":43.31067,"lon":5.38345,"is_reserved":false,"is_disabled":false,"rental_uris":{"android":"levelo://app?vid=259eaa39-41cd-49da-afdf-9b857b269a04","ios":"levelo://app?vid=259eaa39-41cd-49da-afdf-9b857b269a04"},"vehicle_type_id":"4","last_reported":1727824117,"current_range_meters":38800,"station_id":"ce4bgv92rcd13ifvqcr0","pricing_plan_id":"cebpf4jnsgd1na2vs0mg"},{"bike_id":"e24c17eb-50c5-4f74-8372-e38785c54118","system_id":"levelo_inurba_marseille","lat":43.33031,"lon":5.3905,"is_reserved":false,"is_disabled":false,"rental_uris":{"android":"levelo://app?vid=e24c17eb-50c5-4f74-8372-e38785c54118","ios":"levelo://app?vid=e24c17eb-50c5-4f74-8372-e38785c54118"},"vehicle_type_id":"4","last_reported":1727824117,"current_range_meters":30400,"station_id":"ce4bhr92rcd13ifvqhrg","pricing_plan_id":"cebpf4jnsgd1na2vs0mg"},{"bike_id":"d8aca88c-2b37-438e-a894-303d677e2f8e","system_id":"levelo_inurba_marseille","lat":43.30786,"lon":5.37651,"is_reserved":false,"is_disabled":false,"rental_uris":{"android":"levelo://app?vid=d8aca88c-2b37-438e-a894-303d677e2f8e","ios":"levelo://app?vid=d8aca88c-2b37-438e-a894-303d677e2f8e"},"vehicle_type_id":"4","last_reported":1727824117,"current_range_meters":9200,"station_id":"ce4bgv92rcd13ifvqcq0","pricing_plan_id":"cebpf4jnsgd1na2vs0mg"},{"bike_id":"0f9b29c8-861b-47b2-9988-3a99314bf183","system_id":"levelo_inurba_marseille","lat":43.28714,"lon":5.37371,"is_reserved":false,"is_disabled":false,"rental_uris":{"android":"levelo://app?vid=0f9b29c8-861b-47b2-9988-3a99314bf183","ios":"levelo://app?vid=0f9b29c8-861b-47b2-9988-3a99314bf183"},"vehicle_type_id":"4","last_reported":1727824117,"current_range_meters":24800,"station_id":"ce4bh3p2rcd13ifvqdq0","pricing_plan_id":"cebpf4jnsgd1na2vs0mg"},{"bike_id":"e33f8a79-4b8f-428d-917a-d0abba2a4c62","system_id":"levelo_inurba_marseille","lat":43.31691,"lon":5.40461,"is_reserved":false,"is_disabled":false,"rental_uris":{"android":"levelo://app?vid=e33f8a79-4b8f-428d-917a-d0abba2a4c62","ios":"levelo://app?vid=e33f8a79-4b8f-428d-917a-d0abba2a4c62"},"vehicle_type_id":"4","last_reported":1727824117,"current_range_meters":32000,"station_id":"ce4bh012rcd13ifvqd00","pricing_plan_id":"cebpf4jnsgd1na2vs0mg"},{"bike_id":"2ba4df84-6ac1-4c1e-aa3f-febc43438d20","system_id":"levelo_inurba_marseille","lat":43.2857,"lon":5.39502,"is_reserved":false,"is_disabled":false,"rental_uris":{"android":"levelo://app?vid=2ba4df84-6ac1-4c1e-aa3f-febc43438d20","ios":"levelo://app?vid=2ba4df84-6ac1-4c1e-aa3f-febc43438d20"},"vehicle_type_id":"4","last_reported":1727824117,"current_range_meters":6800,"station_id":"ce4bh292rcd13ifvqdg0","pricing_plan_id":"cebpf4jnsgd1na2vs0mg"},{"bike_id":"81750190-39ad-463e-969c-0a74da3c78de","system_id":"levelo_inurba_marseille","lat":43.29254,"lon":5.40909,"is_reserved":false,"is_disabled":false,"rental_uris":{"android":"levelo://app?vid=81750190-39ad-463e-969c-0a74da3c78de","ios":"levelo://app?vid=81750190-39ad-463e-969c-0a74da3c78de"},"vehicle_type_id":"4","last_reported":1727824117,"current_range_meters":8400,"station_id":"ce4bh192rcd13ifvqdc0","pricing_plan_id":"cebpf4jnsgd1na2vs0mg"},{"bike_id":"205cc5f6-52f3-4805-bfcd-4e372f6a7196","system_id":"levelo_inurba_marseille","lat":43.25098,"lon":5.3952,"is_reserved":false,"is_disabled":false,"rental_uris":{"android":"levelo://app?vid=205cc5f6-52f3-4805-bfcd-4e372f6a7196","ios":"levelo://app?vid=205cc5f6-52f3-4805-bfcd-4e372f6a7196"},"vehicle_type_id":"4","last_reported":1727824117,"current_range_meters":25600,"station_id":"ce4bhm12rcd13ifvqgkg","pricing_plan_id":"cebpf4jnsgd1na2vs0mg"},{"bike_id":"cc348d5e-b637-44b1-84a4-6c92ec751a0c","system_id":"levelo_inurba_marseille","lat":43.31175,"lon":5.38707,"is_reserved":false,"is_disabled":false,"rental_uris":{"android":"levelo://app?vid=cc348d5e-b637-44b1-84a4-6c92ec751a0c","ios":"levelo://app?vid=cc348d5e-b637-44b1-84a4-6c92ec751a0c"},"vehicle_type_id":"4","last_reported":1727824117,"current_range_meters":30800,"station_id":"ce4bgv12rcd13ifvqcp0","pricing_plan_id":"cebpf4jnsgd1na2vs0mg"},{"bike_id":"a04731c6-9dab-4d02-b2a0-f4602547326d","system_id":"levelo_inurba_marseille","lat":43.28457,"lon":5.35883,"is_reserved":false,"is_disabled":false,"rental_uris":{"android":"levelo://app?vid=a04731c6-9dab-4d02-b2a0-f4602547326d","ios":"levelo://app?vid=a04731c6-9dab-4d02-b2a0-f4602547326d"},"vehicle_type_id":"4","last_reported":1727824117,"current_range_meters":38800,"station_id":"ce4bhah2rcd13ifvqei0","pricing_plan_id":"cebpf4jnsgd1na2vs0mg"},{"bike_id":"1707d12d-dbcd-4cb6-93a5-2b328c9bed87","system_id":"levelo_inurba_marseille","lat":43.25864,"lon":5.39909,"is_reserved":false,"is_disabled":false,"rental_uris":{"android":"levelo://app?vid=1707d12d-dbcd-4cb6-93a5-2b328c9bed87","ios":"levelo://app?vid=1707d12d-dbcd-4cb6-93a5-2b328c9bed87"},"vehicle_type_id":"4","last_reported":1727824117,"current_range_meters":38800,"station_id":"ce4bhl92rcd13ifvqghg","pricing_plan_id":"cebpf4jnsgd1na2vs0mg"},{"bike_id":"6f145e4b-a2f1-447b-ae74-c4e533f7e679","system_id":"levelo_inurba_marseille","lat":43.32662,"lon":5.40987,"is_reserved":false,"is_disabled":false,"rental_uris":{"android":"levelo://app?vid=6f145e4b-a2f1-447b-ae74-c4e533f7e679","ios":"levelo://app?vid=6f145e4b-a2f1-447b-ae74-c4e533f7e679"},"vehicle_type_id":"4","last_reported":1727824117,"current_range_meters":38800,"station_id":"ce4bhpp2rcd13ifvqhgg","pricing_plan_id":"cebpf4jnsgd1na2vs0mg"},{"bike_id":"8884666a-6177-4a7b-b0cb-8adad2eb0450","system_id":"levelo_inurba_marseille","lat":43.30605,"lon":5.37217,"is_reserved":false,"is_disabled":false,"rental_uris":{"android":"levelo://app?vid=8884666a-6177-4a7b-b0cb-8adad2eb0450","ios":"levelo://app?vid=8884666a-6177-4a7b-b0cb-8adad2eb0450"},"vehicle_type_id":"4","last_reported":1727824117,"current_range_meters":38800,"station_id":"ce4bgqh2rcd13ifvqc4g","pricing_plan_id":"cebpf4jnsgd1na2vs0mg"},{"bike_id":"d616de3c-fdcc-449b-aaab-950f4c46fdd3","system_id":"levelo_inurba_marseille","lat":43.32114,"lon":5.36773,"is_reserved":false,"is_disabled":false,"rental_uris":{"android":"levelo://app?vid=d616de3c-fdcc-449b-aaab-950f4c46fdd3","ios":"levelo://app?vid=d616de3c-fdcc-449b-aaab-950f4c46fdd3"},"vehicle_type_id":"4","last_reported":1727824117,"current_range_meters":11200,"station_id":"ce4bhrh2rcd13ifvqhug","pricing_plan_id":"cebpf4jnsgd1na2vs0mg"},{"bike_id":"ce7fbd85-3674-49ab-af79-52cc945fe35d","system_id":"levelo_inurba_marseille","lat":43.307888,"lon":5.376478,"is_reserved":false,"is_disabled":false,"rental_uris":{"android":"levelo://app?vid=ce7fbd85-3674-49ab-af79-52cc945fe35d","ios":"levelo://app?vid=ce7fbd85-3674-49ab-af79-52cc945fe35d"},"vehicle_type_id":"4","last_reported":1727824117,"current_range_meters":27200,"station_id":"ce4bgv92rcd13ifvqcq0","pricing_plan_id":"cebpf4jnsgd1na2vs0mg"},{"bike_id":"bcf1f236-ab9a-4337-83f1-ee59277cb654","system_id":"levelo_inurba_marseille","lat":43.29257,"lon":5.40908,"is_reserved":false,"is_disabled":false,"rental_uris":{"android":"levelo://app?vid=bcf1f236-ab9a-4337-83f1-ee59277cb654","ios":"levelo://app?vid=bcf1f236-ab9a-4337-83f1-ee59277cb654"},"vehicle_type_id":"4","last_reported":1727824117,"current_range_meters":24000,"station_id":"ce4bh192rcd13ifvqdc0","pricing_plan_id":"cebpf4jnsgd1na2vs0mg"},{"bike_id":"c4de65d2-7403-43de-bc09-fa4387fba21e","system_id":"levelo_inurba_marseille","lat":43.29802,"lon":5.38092,"is_reserved":false,"is_disabled":false,"rental_uris":{"android":"levelo://app?vid=c4de65d2-7403-43de-bc09-fa4387fba21e","ios":"levelo://app?vid=c4de65d2-7403-43de-bc09-fa4387fba21e"},"vehicle_type_id":"4","last_reported":1727824117,"current_range_meters":38800,"station_id":"ce4bgip2rcd13ifvqbb0","pricing_plan_id":"cebpf4jnsgd1na2vs0mg"},{"bike_id":"196d312b-4c3a-4864-9b4b-d156fba48afb","system_id":"levelo_inurba_marseille","lat":43.29874,"lon":5.39735,"is_reserved":false,"is_disabled":false,"rental_uris":{"android":"levelo://app?vid=196d312b-4c3a-4864-9b4b-d156fba48afb","ios":"levelo://app?vid=196d312b-4c3a-4864-9b4b-d156fba48afb"},"vehicle_type_id":"4","last_reported":1727824117,"current_range_meters":39200,"station_id":"ce4bh0h2rcd13ifvqd50","pricing_plan_id":"cebpf4jnsgd1na2vs0mg"},{"bike_id":"df780b36-1bd7-4ee0-a23e-812efc385c51","system_id":"levelo_inurba_marseille","lat":43.28406,"lon":5.37516,"is_reserved":false,"is_disabled":false,"rental_uris":{"android":"levelo://app?vid=df780b36-1bd7-4ee0-a23e-812efc385c51","ios":"levelo://app?vid=df780b36-1bd7-4ee0-a23e-812efc385c51"},"vehicle_type_id":"4","last_reported":1727824117,"current_range_meters":38800,"station_id":"ce4bh412rcd13ifvqds0","pricing_plan_id":"cebpf4jnsgd1na2vs0mg"},{"bike_id":"c3bd477f-1cfd-4699-95b7-bd853a8e55cb","system_id":"levelo_inurba_marseille","lat":43.31338,"lon":5.39709,"is_reserved":false,"is_disabled":false,"rental_uris":{"android":"levelo://app?vid=c3bd477f-1cfd-4699-95b7-bd853a8e55cb","ios":"levelo://app?vid=c3bd477f-1cfd-4699-95b7-bd853a8e55cb"},"vehicle_type_id":"4","last_reported":1727824117,"current_range_meters":38800,"station_id":"ce4bgvp2rcd13ifvqcu0","pricing_plan_id":"cebpf4jnsgd1na2vs0mg"},{"bike_id":"d9935980-1a1e-417b-9dde-bc0953e2ec18","system_id":"levelo_inurba_marseille","lat":43.26201,"lon":5.37924,"is_reserved":false,"is_disabled":false,"rental_uris":{"android":"levelo://app?vid=d9935980-1a1e-417b-9dde-bc0953e2ec18","ios":"levelo://app?vid=d9935980-1a1e-417b-9dde-bc0953e2ec18"},"vehicle_type_id":"4","last_reported":1727824117,"current_range_meters":38400,"station_id":"ce4bhjp2rcd13ifvqg90","pricing_plan_id":"cebpf4jnsgd1na2vs0mg"},{"bike_id":"e61b0e2b-f600-47ed-a252-8caf712f924c","system_id":"levelo_inurba_marseille","lat":43.24552,"lon":5.39532,"is_reserved":false,"is_disabled":false,"rental_uris":{"android":"levelo://app?vid=e61b0e2b-f600-47ed-a252-8caf712f924c","ios":"levelo://app?vid=e61b0e2b-f600-47ed-a252-8caf712f924c"},"vehicle_type_id":"4","last_reported":1727824117,"current_range_meters":34000,"station_id":"ce4bhlp2rcd13ifvqgjg","pricing_plan_id":"cebpf4jnsgd1na2vs0mg"},{"bike_id":"736bcb89-3fa5-4423-83ab-c46b1faa6d18","system_id":"levelo_inurba_marseille","lat":43.34499,"lon":5.41635,"is_reserved":false,"is_disabled":false,"rental_uris":{"android":"levelo://app?vid=736bcb89-3fa5-4423-83ab-c46b1faa6d18","ios":"levelo://app?vid=736bcb89-3fa5-4423-83ab-c46b1faa6d18"},"vehicle_type_id":"4","last_reported":1727824117,"current_range_meters":8400,"station_id":"","pricing_plan_id":"cebpf4jnsgd1na2vs0mg"},{"bike_id":"c87cbcf6-5323-4613-b4d0-9266fc83505c","system_id":"levelo_inurba_marseille","lat":43.27818,"lon":5.40726,"is_reserved":false,"is_disabled":false,"rental_uris":{"android":"levelo://app?vid=c87cbcf6-5323-4613-b4d0-9266fc83505c","ios":"levelo://app?vid=c87cbcf6-5323-4613-b4d0-9266fc83505c"},"vehicle_type_id":"4","last_reported":1727824117,"current_range_meters":18000,"station_id":"ce4bhnh2rcd13ifvqgtg","pricing_plan_id":"cebpf4jnsgd1na2vs0mg"},{"bike_id":"a2b2e7ec-9291-4e2e-99f8-400018f4dc70","system_id":"levelo_inurba_marseille","lat":43.30538,"lon":5.36698,"is_reserved":false,"is_disabled":false,"rental_uris":{"android":"levelo://app?vid=a2b2e7ec-9291-4e2e-99f8-400018f4dc70","ios":"levelo://app?vid=a2b2e7ec-9291-4e2e-99f8-400018f4dc70"},"vehicle_type_id":"4","last_reported":1727824117,"current_range_meters":8800,"station_id":"ce4bgrp2rcd13ifvqc9g","pricing_plan_id":"cebpf4jnsgd1na2vs0mg"},{"bike_id":"1b3337b2-dd7e-48de-8610-05b0d914bc13","system_id":"levelo_inurba_marseille","lat":43.23962,"lon":5.36639,"is_reserved":false,"is_disabled":false,"rental_uris":{"android":"levelo://app?vid=1b3337b2-dd7e-48de-8610-05b0d914bc13","ios":"levelo://app?vid=1b3337b2-dd7e-48de-8610-05b0d914bc13"},"vehicle_type_id":"4","last_reported":1727824117,"current_range_meters":22000,"station_id":"ce4bhi12rcd13ifvqfp0","pricing_plan_id":"cebpf4jnsgd1na2vs0mg"},{"bike_id":"2cb0e818-0cd7-4b14-b3e2-a4fe86b5667b","system_id":"levelo_inurba_marseille","lat":43.27926,"lon":5.39586,"is_reserved":false,"is_disabled":false,"rental_uris":{"android":"levelo://app?vid=2cb0e818-0cd7-4b14-b3e2-a4fe86b5667b","ios":"levelo://app?vid=2cb0e818-0cd7-4b14-b3e2-a4fe86b5667b"},"vehicle_type_id":"4","last_reported":1727824117,"current_range_meters":38000,"station_id":"ce4bhf92rcd13ifvqf40","pricing_plan_id":"cebpf4jnsgd1na2vs0mg"},{"bike_id":"b02ce4ff-39f7-4817-a21b-8246f8c8e6c1","system_id":"levelo_inurba_marseille","lat":43.31118,"lon":5.37764,"is_reserved":false,"is_disabled":false,"rental_uris":{"android":"levelo://app?vid=b02ce4ff-39f7-4817-a21b-8246f8c8e6c1","ios":"levelo://app?vid=b02ce4ff-39f7-4817-a21b-8246f8c8e6c1"},"vehicle_type_id":"4","last_reported":1727824117,"current_range_meters":38800,"station_id":"ce4bgt92rcd13ifvqcg0","pricing_plan_id":"cebpf4jnsgd1na2vs0mg"},{"bike_id":"8e0ee0d6-72fa-4006-90aa-68211f78ca72","system_id":"levelo_inurba_marseille","lat":43.2781,"lon":5.40712,"is_reserved":false,"is_disabled":false,"rental_uris":{"android":"levelo://app?vid=8e0ee0d6-72fa-4006-90aa-68211f78ca72","ios":"levelo://app?vid=8e0ee0d6-72fa-4006-90aa-68211f78ca72"},"vehicle_type_id":"4","last_reported":1727824117,"current_range_meters":38800,"station_id":"ce4bhnh2rcd13ifvqgtg","pricing_plan_id":"cebpf4jnsgd1na2vs0mg"},{"bike_id":"609844d3-402e-4c83-8b7f-d2093120cb67","system_id":"levelo_inurba_marseille","lat":43.32545,"lon":5.41456,"is_reserved":false,"is_disabled":false,"rental_uris":{"android":"levelo://app?vid=609844d3-402e-4c83-8b7f-d2093120cb67","ios":"levelo://app?vid=609844d3-402e-4c83-8b7f-d2093120cb67"},"vehicle_type_id":"4","last_reported":1727824117,"current_range_meters":37600,"station_id":"ce4bhq12rcd13ifvqhhg","pricing_plan_id":"cebpf4jnsgd1na2vs0mg"},{"bike_id":"649b0ebd-72c1-4ccb-bdb5-0127394604e7","system_id":"levelo_inurba_marseille","lat":43.33613,"lon":5.41015,"is_reserved":false,"is_disabled":false,"rental_uris":{"android":"levelo://app?vid=649b0ebd-72c1-4ccb-bdb5-0127394604e7","ios":"levelo://app?vid=649b0ebd-72c1-4ccb-bdb5-0127394604e7"},"vehicle_type_id":"4","last_reported":1727824117,"current_range_meters":38800,"station_id":"ce4bhqh2rcd13ifvqhmg","pricing_plan_id":"cebpf4jnsgd1na2vs0mg"},{"bike_id":"342d6839-168e-4c4b-9389-b1f4214b5099","system_id":"levelo_inurba_marseille","lat":43.28715,"lon":5.39987,"is_reserved":false,"is_disabled":false,"rental_uris":{"android":"levelo://app?vid=342d6839-168e-4c4b-9389-b1f4214b5099","ios":"levelo://app?vid=342d6839-168e-4c4b-9389-b1f4214b5099"},"vehicle_type_id":"4","last_reported":1727824117,"current_range_meters":14400,"station_id":"ce4bho92rcd13ifvqh3g","pricing_plan_id":"cebpf4jnsgd1na2vs0mg"},{"bike_id":"3bcc095d-700a-4eb9-9793-f2e50d9b626e","system_id":"levelo_inurba_marseille","lat":43.29554,"lon":5.4229,"is_reserved":false,"is_disabled":false,"rental_uris":{"android":"levelo://app?vid=3bcc095d-700a-4eb9-9793-f2e50d9b626e","ios":"levelo://app?vid=3bcc095d-700a-4eb9-9793-f2e50d9b626e"},"vehicle_type_id":"4","last_reported":1727824117,"current_range_meters":38400,"station_id":"ce4bhph2rcd13ifvqhdg","pricing_plan_id":"cebpf4jnsgd1na2vs0mg"},{"bike_id":"3997dd27-fc07-42d9-8b50-a60e20400007","system_id":"levelo_inurba_marseille","lat":43.27992,"lon":5.41665,"is_reserved":false,"is_disabled":false,"rental_uris":{"android":"levelo://app?vid=3997dd27-fc07-42d9-8b50-a60e20400007","ios":"levelo://app?vid=3997dd27-fc07-42d9-8b50-a60e20400007"},"vehicle_type_id":"4","last_reported":1727824117,"current_range_meters":38800,"station_id":"ce4bho12rcd13ifvqh1g","pricing_plan_id":"cebpf4jnsgd1na2vs0mg"},{"bike_id":"2efe889c-d7f9-441d-afae-d38011cb4d35","system_id":"levelo_inurba_marseille","lat":43.28454,"lon":5.35883,"is_reserved":false,"is_disabled":false,"rental_uris":{"android":"levelo://app?vid=2efe889c-d7f9-441d-afae-d38011cb4d35","ios":"levelo://app?vid=2efe889c-d7f9-441d-afae-d38011cb4d35"},"vehicle_type_id":"4","last_reported":1727824117,"current_range_meters":38800,"station_id":"ce4bhah2rcd13ifvqei0","pricing_plan_id":"cebpf4jnsgd1na2vs0mg"},{"bike_id":"05fea5b6-168c-4aec-ae13-ba3e0d274323","system_id":"levelo_inurba_marseille","lat":43.24191,"lon":5.39737,"is_reserved":false,"is_disabled":false,"rental_uris":{"android":"levelo://app?vid=05fea5b6-168c-4aec-ae13-ba3e0d274323","ios":"levelo://app?vid=05fea5b6-168c-4aec-ae13-ba3e0d274323"},"vehicle_type_id":"4","last_reported":1727824117,"current_range_meters":20400,"station_id":"ce4bhn12rcd13ifvqgpg","pricing_plan_id":"cebpf4jnsgd1na2vs0mg"},{"bike_id":"d633adbf-c648-466b-8c2c-9563678ba4d6","system_id":"levelo_inurba_marseille","lat":43.31504,"lon":5.373,"is_reserved":false,"is_disabled":false,"rental_uris":{"android":"levelo://app?vid=d633adbf-c648-466b-8c2c-9563678ba4d6","ios":"levelo://app?vid=d633adbf-c648-466b-8c2c-9563678ba4d6"},"vehicle_type_id":"4","last_reported":1727824117,"current_range_meters":15200,"station_id":"ce4bgt12rcd13ifvqcd0","pricing_plan_id":"cebpf4jnsgd1na2vs0mg"},{"bike_id":"cc4d67ad-30d6-4ec4-9225-0aea9258758d","system_id":"levelo_inurba_marseille","lat":43.29192,"lon":5.35808,"is_reserved":false,"is_disabled":false,"rental_uris":{"android":"levelo://app?vid=cc4d67ad-30d6-4ec4-9225-0aea9258758d","ios":"levelo://app?vid=cc4d67ad-30d6-4ec4-9225-0aea9258758d"},"vehicle_type_id":"4","last_reported":1727824117,"current_range_meters":38800,"station_id":"ce4bhb12rcd13ifvqel0","pricing_plan_id":"cebpf4jnsgd1na2vs0mg"},{"bike_id":"c0930808-f56f-44c0-832d-f564381e4521","system_id":"levelo_inurba_marseille","lat":43.27813,"lon":5.40707,"is_reserved":false,"is_disabled":false,"rental_uris":{"android":"levelo://app?vid=c0930808-f56f-44c0-832d-f564381e4521","ios":"levelo://app?vid=c0930808-f56f-44c0-832d-f564381e4521"},"vehicle_type_id":"4","last_reported":1727824117,"current_range_meters":38800,"station_id":"ce4bhnh2rcd13ifvqgtg","pricing_plan_id":"cebpf4jnsgd1na2vs0mg"},{"bike_id":"8e160c7f-3a0b-4d22-9d6b-fd33004f5e98","system_id":"levelo_inurba_marseille","lat":43.24193,"lon":5.39737,"is_reserved":false,"is_disabled":false,"rental_uris":{"android":"levelo://app?vid=8e160c7f-3a0b-4d22-9d6b-fd33004f5e98","ios":"levelo://app?vid=8e160c7f-3a0b-4d22-9d6b-fd33004f5e98"},"vehicle_type_id":"4","last_reported":1727824117,"current_range_meters":27200,"station_id":"ce4bhn12rcd13ifvqgpg","pricing_plan_id":"cebpf4jnsgd1na2vs0mg"},{"bike_id":"6c05f302-12d0-4100-b4f1-ff2bc6f80530","system_id":"levelo_inurba_marseille","lat":43.306043,"lon":5.372231,"is_reserved":false,"is_disabled":false,"rental_uris":{"android":"levelo://app?vid=6c05f302-12d0-4100-b4f1-ff2bc6f80530","ios":"levelo://app?vid=6c05f302-12d0-4100-b4f1-ff2bc6f80530"},"vehicle_type_id":"4","last_reported":1727824117,"current_range_meters":19600,"station_id":"ce4bgqh2rcd13ifvqc4g","pricing_plan_id":"cebpf4jnsgd1na2vs0mg"},{"bike_id":"8087968d-3566-4acc-85fc-5c9fccf3ef88","system_id":"levelo_inurba_marseille","lat":43.27568,"lon":5.3841,"is_reserved":false,"is_disabled":false,"rental_uris":{"android":"levelo://app?vid=8087968d-3566-4acc-85fc-5c9fccf3ef88","ios":"levelo://app?vid=8087968d-3566-4acc-85fc-5c9fccf3ef88"},"vehicle_type_id":"4","last_reported":1727824117,"current_range_meters":18800,"station_id":"ce4bhh92rcd13ifvqfi0","pricing_plan_id":"cebpf4jnsgd1na2vs0mg"},{"bike_id":"de1e7b09-ca4b-4b48-a3fd-23a534e7333f","system_id":"levelo_inurba_marseille","lat":43.31758,"lon":5.39017,"is_reserved":false,"is_disabled":false,"rental_uris":{"android":"levelo://app?vid=de1e7b09-ca4b-4b48-a3fd-23a534e7333f","ios":"levelo://app?vid=de1e7b09-ca4b-4b48-a3fd-23a534e7333f"},"vehicle_type_id":"4","last_reported":1727824117,"current_range_meters":39200,"station_id":"ce4bhqp2rcd13ifvqhng","pricing_plan_id":"cebpf4jnsgd1na2vs0mg"},{"bike_id":"43f4205d-320b-41db-91a2-d22651866ea2","system_id":"levelo_inurba_marseille","lat":43.30422,"lon":5.41284,"is_reserved":false,"is_disabled":false,"rental_uris":{"android":"levelo://app?vid=43f4205d-320b-41db-91a2-d22651866ea2","ios":"levelo://app?vid=43f4205d-320b-41db-91a2-d22651866ea2"},"vehicle_type_id":"4","last_reported":1727824117,"current_range_meters":6400,"station_id":"ce4bhop2rcd13ifvqh8g","pricing_plan_id":"cebpf4jnsgd1na2vs0mg"},{"bike_id":"db254dac-45f5-4132-9ca6-b0673a65c2b8","system_id":"levelo_inurba_marseille","lat":43.26495,"lon":5.39532,"is_reserved":false,"is_disabled":false,"rental_uris":{"android":"levelo://app?vid=db254dac-45f5-4132-9ca6-b0673a65c2b8","ios":"levelo://app?vid=db254dac-45f5-4132-9ca6-b0673a65c2b8"},"vehicle_type_id":"4","last_reported":1727824117,"current_range_meters":38000,"station_id":"ce4bhi12rcd13ifvqfq0","pricing_plan_id":"cebpf4jnsgd1na2vs0mg"},{"bike_id":"d4ee366f-491d-4484-8ef6-3ee33462286b","system_id":"levelo_inurba_marseille","lat":43.30972,"lon":5.39006,"is_reserved":false,"is_disabled":false,"rental_uris":{"android":"levelo://app?vid=d4ee366f-491d-4484-8ef6-3ee33462286b","ios":"levelo://app?vid=d4ee366f-491d-4484-8ef6-3ee33462286b"},"vehicle_type_id":"4","last_reported":1727824117,"current_range_meters":17200,"station_id":"","pricing_plan_id":"cebpf4jnsgd1na2vs0mg"},{"bike_id":"62f75944-ee95-45e1-971d-bf57d5768e91","system_id":"levelo_inurba_marseille","lat":43.3019,"lon":5.36611,"is_reserved":false,"is_disabled":false,"rental_uris":{"android":"levelo://app?vid=62f75944-ee95-45e1-971d-bf57d5768e91","ios":"levelo://app?vid=62f75944-ee95-45e1-971d-bf57d5768e91"},"vehicle_type_id":"4","last_reported":1727824117,"current_range_meters":37600,"station_id":"ce4bgrh2rcd13ifvqc8g","pricing_plan_id":"cebpf4jnsgd1na2vs0mg"},{"bike_id":"d74fb2ef-f814-4ca8-94df-c647e77cc523","system_id":"levelo_inurba_marseille","lat":43.28155,"lon":5.42648,"is_reserved":false,"is_disabled":false,"rental_uris":{"android":"levelo://app?vid=d74fb2ef-f814-4ca8-94df-c647e77cc523","ios":"levelo://app?vid=d74fb2ef-f814-4ca8-94df-c647e77cc523"},"vehicle_type_id":"4","last_reported":1727824117,"current_range_meters":38800,"station_id":"ce4bhnh2rcd13ifvqgug","pricing_plan_id":"cebpf4jnsgd1na2vs0mg"},{"bike_id":"d763cad4-66cb-461f-93aa-ab4cbaa6a897","system_id":"levelo_inurba_marseille","lat":43.28847,"lon":5.39313,"is_reserved":false,"is_disabled":false,"rental_uris":{"android":"levelo://app?vid=d763cad4-66cb-461f-93aa-ab4cbaa6a897","ios":"levelo://app?vid=d763cad4-66cb-461f-93aa-ab4cbaa6a897"},"vehicle_type_id":"4","last_reported":1727824117,"current_range_meters":32400,"station_id":"ce4bh2p2rcd13ifvqdi0","pricing_plan_id":"cebpf4jnsgd1na2vs0mg"},{"bike_id":"2ae79f09-d280-47e8-864e-c5ffdd4f6c88","system_id":"levelo_inurba_marseille","lat":43.28572,"lon":5.39498,"is_reserved":false,"is_disabled":false,"rental_uris":{"android":"levelo://app?vid=2ae79f09-d280-47e8-864e-c5ffdd4f6c88","ios":"levelo://app?vid=2ae79f09-d280-47e8-864e-c5ffdd4f6c88"},"vehicle_type_id":"4","last_reported":1727824117,"current_range_meters":24800,"station_id":"ce4bh292rcd13ifvqdg0","pricing_plan_id":"cebpf4jnsgd1na2vs0mg"},{"bike_id":"98796747-ed9b-4562-a96c-8ab785ac535f","system_id":"levelo_inurba_marseille","lat":43.31069,"lon":5.38353,"is_reserved":false,"is_disabled":false,"rental_uris":{"android":"levelo://app?vid=98796747-ed9b-4562-a96c-8ab785ac535f","ios":"levelo://app?vid=98796747-ed9b-4562-a96c-8ab785ac535f"},"vehicle_type_id":"4","last_reported":1727824117,"current_range_meters":27200,"station_id":"ce4bgv92rcd13ifvqcr0","pricing_plan_id":"cebpf4jnsgd1na2vs0mg"},{"bike_id":"ca903a14-a01e-4576-bbf8-bb497a06cc75","system_id":"levelo_inurba_marseille","lat":43.28668,"lon":5.36353,"is_reserved":false,"is_disabled":false,"rental_uris":{"android":"levelo://app?vid=ca903a14-a01e-4576-bbf8-bb497a06cc75","ios":"levelo://app?vid=ca903a14-a01e-4576-bbf8-bb497a06cc75"},"vehicle_type_id":"4","last_reported":1727824117,"current_range_meters":4000,"station_id":"ce4bhah2rcd13ifvqej0","pricing_plan_id":"cebpf4jnsgd1na2vs0mg"},{"bike_id":"5ddf1f11-9ddf-403c-bd21-3d390710921d","system_id":"levelo_inurba_marseille","lat":43.28855,"lon":5.39307,"is_reserved":false,"is_disabled":false,"rental_uris":{"android":"levelo://app?vid=5ddf1f11-9ddf-403c-bd21-3d390710921d","ios":"levelo://app?vid=5ddf1f11-9ddf-403c-bd21-3d390710921d"},"vehicle_type_id":"4","last_reported":1727824117,"current_range_meters":16800,"station_id":"ce4bh2p2rcd13ifvqdi0","pricing_plan_id":"cebpf4jnsgd1na2vs0mg"},{"bike_id":"52f96dfb-9ddf-4085-ac6a-650cf2c85d4b","system_id":"levelo_inurba_marseille","lat":43.25124,"lon":5.4032,"is_reserved":false,"is_disabled":false,"rental_uris":{"android":"levelo://app?vid=52f96dfb-9ddf-4085-ac6a-650cf2c85d4b","ios":"levelo://app?vid=52f96dfb-9ddf-4085-ac6a-650cf2c85d4b"},"vehicle_type_id":"4","last_reported":1727824117,"current_range_meters":36800,"station_id":"ce4bhlh2rcd13ifvqgig","pricing_plan_id":"cebpf4jnsgd1na2vs0mg"},{"bike_id":"e39cd6f1-548c-400d-9f96-bf8b0c294a2d","system_id":"levelo_inurba_marseille","lat":43.24084,"lon":5.37751,"is_reserved":false,"is_disabled":false,"rental_uris":{"android":"levelo://app?vid=e39cd6f1-548c-400d-9f96-bf8b0c294a2d","ios":"levelo://app?vid=e39cd6f1-548c-400d-9f96-bf8b0c294a2d"},"vehicle_type_id":"4","last_reported":1727824117,"current_range_meters":10000,"station_id":"ce4bhnp2rcd13ifvqgvg","pricing_plan_id":"cebpf4jnsgd1na2vs0mg"},{"bike_id":"fdea5bfa-15eb-4746-9162-46b5986608e3","system_id":"levelo_inurba_marseille","lat":43.27949,"lon":5.41038,"is_reserved":false,"is_disabled":false,"rental_uris":{"android":"levelo://app?vid=fdea5bfa-15eb-4746-9162-46b5986608e3","ios":"levelo://app?vid=fdea5bfa-15eb-4746-9162-46b5986608e3"},"vehicle_type_id":"4","last_reported":1727824117,"current_range_meters":38000,"station_id":"ce4bhnp2rcd13ifvqh0g","pricing_plan_id":"cebpf4jnsgd1na2vs0mg"},{"bike_id":"3baa6935-96c4-4261-90b6-046b87419675","system_id":"levelo_inurba_marseille","lat":43.31067,"lon":5.38346,"is_reserved":false,"is_disabled":false,"rental_uris":{"android":"levelo://app?vid=3baa6935-96c4-4261-90b6-046b87419675","ios":"levelo://app?vid=3baa6935-96c4-4261-90b6-046b87419675"},"vehicle_type_id":"4","last_reported":1727824117,"current_range_meters":38800,"station_id":"ce4bgv92rcd13ifvqcr0","pricing_plan_id":"cebpf4jnsgd1na2vs0mg"},{"bike_id":"97e51c0e-64f8-4ffc-97e9-8ff5d02f96b0","system_id":"levelo_inurba_marseille","lat":43.28711,"lon":5.39984,"is_reserved":false,"is_disabled":false,"rental_uris":{"android":"levelo://app?vid=97e51c0e-64f8-4ffc-97e9-8ff5d02f96b0","ios":"levelo://app?vid=97e51c0e-64f8-4ffc-97e9-8ff5d02f96b0"},"vehicle_type_id":"4","last_reported":1727824117,"current_range_meters":30000,"station_id":"ce4bho92rcd13ifvqh3g","pricing_plan_id":"cebpf4jnsgd1na2vs0mg"},{"bike_id":"f09c731c-5c02-47d4-ad6f-4b608712d763","system_id":"levelo_inurba_marseille","lat":43.27173,"lon":5.40993,"is_reserved":false,"is_disabled":false,"rental_uris":{"android":"levelo://app?vid=f09c731c-5c02-47d4-ad6f-4b608712d763","ios":"levelo://app?vid=f09c731c-5c02-47d4-ad6f-4b608712d763"},"vehicle_type_id":"4","last_reported":1727824117,"current_range_meters":25600,"station_id":"ce4bhl12rcd13ifvqgf0","pricing_plan_id":"cebpf4jnsgd1na2vs0mg"},{"bike_id":"134a88fb-c4a2-4650-a0e7-749ffca99de4","system_id":"levelo_inurba_marseille","lat":43.27921,"lon":5.39579,"is_reserved":false,"is_disabled":false,"rental_uris":{"android":"levelo://app?vid=134a88fb-c4a2-4650-a0e7-749ffca99de4","ios":"levelo://app?vid=134a88fb-c4a2-4650-a0e7-749ffca99de4"},"vehicle_type_id":"4","last_reported":1727824117,"current_range_meters":38400,"station_id":"ce4bhf92rcd13ifvqf40","pricing_plan_id":"cebpf4jnsgd1na2vs0mg"},{"bike_id":"f8f518e3-bd48-40f5-801a-4ead88758ee2","system_id":"levelo_inurba_marseille","lat":43.32113,"lon":5.36772,"is_reserved":false,"is_disabled":false,"rental_uris":{"android":"levelo://app?vid=f8f518e3-bd48-40f5-801a-4ead88758ee2","ios":"levelo://app?vid=f8f518e3-bd48-40f5-801a-4ead88758ee2"},"vehicle_type_id":"4","last_reported":1727824117,"current_range_meters":12400,"station_id":"ce4bhrh2rcd13ifvqhug","pricing_plan_id":"cebpf4jnsgd1na2vs0mg"},{"bike_id":"6a45f6fd-9fea-4138-9229-bd8600390f1a","system_id":"levelo_inurba_marseille","lat":43.29633,"lon":5.40598,"is_reserved":false,"is_disabled":false,"rental_uris":{"android":"levelo://app?vid=6a45f6fd-9fea-4138-9229-bd8600390f1a","ios":"levelo://app?vid=6a45f6fd-9fea-4138-9229-bd8600390f1a"},"vehicle_type_id":"4","last_reported":1727824117,"current_range_meters":38800,"station_id":"ce4bh0h2rcd13ifvqd60","pricing_plan_id":"cebpf4jnsgd1na2vs0mg"},{"bike_id":"2def81ca-9886-4391-9ee8-c6ea94127750","system_id":"levelo_inurba_marseille","lat":43.27077,"lon":5.42278,"is_reserved":false,"is_disabled":false,"rental_uris":{"android":"levelo://app?vid=2def81ca-9886-4391-9ee8-c6ea94127750","ios":"levelo://app?vid=2def81ca-9886-4391-9ee8-c6ea94127750"},"vehicle_type_id":"4","last_reported":1727824117,"current_range_meters":38800,"station_id":"ce4bhk92rcd13ifvqgb0","pricing_plan_id":"cebpf4jnsgd1na2vs0mg"},{"bike_id":"b971c7b6-3f0f-4dfe-8dcb-ddb4955877ed","system_id":"levelo_inurba_marseille","lat":43.2959,"lon":5.38099,"is_reserved":false,"is_disabled":false,"rental_uris":{"android":"levelo://app?vid=b971c7b6-3f0f-4dfe-8dcb-ddb4955877ed","ios":"levelo://app?vid=b971c7b6-3f0f-4dfe-8dcb-ddb4955877ed"},"vehicle_type_id":"4","last_reported":1727824117,"current_range_meters":26800,"station_id":"ce4bgl12rcd13ifvqbo0","pricing_plan_id":"cebpf4jnsgd1na2vs0mg"},{"bike_id":"ea93fcf4-b5e9-40c1-b370-a567f9b54856","system_id":"levelo_inurba_marseille","lat":43.28953,"lon":5.39714,"is_reserved":false,"is_disabled":false,"rental_uris":{"android":"levelo://app?vid=ea93fcf4-b5e9-40c1-b370-a567f9b54856","ios":"levelo://app?vid=ea93fcf4-b5e9-40c1-b370-a567f9b54856"},"vehicle_type_id":"4","last_reported":1727824117,"current_range_meters":31200,"station_id":"","pricing_plan_id":"cebpf4jnsgd1na2vs0mg"},{"bike_id":"364c1297-b2bd-4bf6-ac6d-3b9694b62af6","system_id":"levelo_inurba_marseille","lat":43.26809,"lon":5.40265,"is_reserved":false,"is_disabled":false,"rental_uris":{"android":"levelo://app?vid=364c1297-b2bd-4bf6-ac6d-3b9694b62af6","ios":"levelo://app?vid=364c1297-b2bd-4bf6-ac6d-3b9694b62af6"},"vehicle_type_id":"4","last_reported":1727824117,"current_range_meters":38800,"station_id":"ce501612rcd8frsf0b60","pricing_plan_id":"cebpf4jnsgd1na2vs0mg"},{"bike_id":"d1fd22c9-724e-4047-974b-0b6e64659788","system_id":"levelo_inurba_marseille","lat":43.30783,"lon":5.37652,"is_reserved":false,"is_disabled":false,"rental_uris":{"android":"levelo://app?vid=d1fd22c9-724e-4047-974b-0b6e64659788","ios":"levelo://app?vid=d1fd22c9-724e-4047-974b-0b6e64659788"},"vehicle_type_id":"4","last_reported":1727824117,"current_range_meters":12400,"station_id":"ce4bgv92rcd13ifvqcq0","pricing_plan_id":"cebpf4jnsgd1na2vs0mg"},{"bike_id":"18f0ebb9-80ba-4131-b0ed-701fab87af48","system_id":"levelo_inurba_marseille","lat":43.31163,"lon":5.38731,"is_reserved":false,"is_disabled":false,"rental_uris":{"android":"levelo://app?vid=18f0ebb9-80ba-4131-b0ed-701fab87af48","ios":"levelo://app?vid=18f0ebb9-80ba-4131-b0ed-701fab87af48"},"vehicle_type_id":"4","last_reported":1727824117,"current_range_meters":38800,"station_id":"ce4bgv12rcd13ifvqcp0","pricing_plan_id":"cebpf4jnsgd1na2vs0mg"},{"bike_id":"ff0c3ffe-a45a-4d7c-a518-9099eb9d2e67","system_id":"levelo_inurba_marseille","lat":43.29255,"lon":5.40909,"is_reserved":false,"is_disabled":false,"rental_uris":{"android":"levelo://app?vid=ff0c3ffe-a45a-4d7c-a518-9099eb9d2e67","ios":"levelo://app?vid=ff0c3ffe-a45a-4d7c-a518-9099eb9d2e67"},"vehicle_type_id":"4","last_reported":1727824117,"current_range_meters":36800,"station_id":"ce4bh192rcd13ifvqdc0","pricing_plan_id":"cebpf4jnsgd1na2vs0mg"},{"bike_id":"c93f410b-f930-47a0-ac39-acca8834b648","system_id":"levelo_inurba_marseille","lat":43.26513,"lon":5.39539,"is_reserved":false,"is_disabled":false,"rental_uris":{"android":"levelo://app?vid=c93f410b-f930-47a0-ac39-acca8834b648","ios":"levelo://app?vid=c93f410b-f930-47a0-ac39-acca8834b648"},"vehicle_type_id":"4","last_reported":1727824117,"current_range_meters":39200,"station_id":"ce4bhi12rcd13ifvqfq0","pricing_plan_id":"cebpf4jnsgd1na2vs0mg"},{"bike_id":"0a98ccd5-f1c1-4ff5-abd8-a001b5d21446","system_id":"levelo_inurba_marseille","lat":43.28701,"lon":5.39978,"is_reserved":false,"is_disabled":false,"rental_uris":{"android":"levelo://app?vid=0a98ccd5-f1c1-4ff5-abd8-a001b5d21446","ios":"levelo://app?vid=0a98ccd5-f1c1-4ff5-abd8-a001b5d21446"},"vehicle_type_id":"4","last_reported":1727824117,"current_range_meters":37600,"station_id":"ce4bho92rcd13ifvqh3g","pricing_plan_id":"cebpf4jnsgd1na2vs0mg"},{"bike_id":"c0726d95-92ce-4d02-ad3e-566e7d2b5f43","system_id":"levelo_inurba_marseille","lat":43.28117,"lon":5.37844,"is_reserved":false,"is_disabled":false,"rental_uris":{"android":"levelo://app?vid=c0726d95-92ce-4d02-ad3e-566e7d2b5f43","ios":"levelo://app?vid=c0726d95-92ce-4d02-ad3e-566e7d2b5f43"},"vehicle_type_id":"4","last_reported":1727824117,"current_range_meters":8000,"station_id":"ce4bha12rcd13ifvqee0","pricing_plan_id":"cebpf4jnsgd1na2vs0mg"},{"bike_id":"10fdb2ef-da30-4738-98d9-b852e6a7d83a","system_id":"levelo_inurba_marseille","lat":43.29906,"lon":5.38146,"is_reserved":false,"is_disabled":false,"rental_uris":{"android":"levelo://app?vid=10fdb2ef-da30-4738-98d9-b852e6a7d83a","ios":"levelo://app?vid=10fdb2ef-da30-4738-98d9-b852e6a7d83a"},"vehicle_type_id":"4","last_reported":1727824117,"current_range_meters":32400,"station_id":"ce4bgj12rcd13ifvqbc0","pricing_plan_id":"cebpf4jnsgd1na2vs0mg"},{"bike_id":"3375e05b-1315-4c90-a181-1bef544bd0c4","system_id":"levelo_inurba_marseille","lat":43.31542,"lon":5.38022,"is_reserved":false,"is_disabled":false,"rental_uris":{"android":"levelo://app?vid=3375e05b-1315-4c90-a181-1bef544bd0c4","ios":"levelo://app?vid=3375e05b-1315-4c90-a181-1bef544bd0c4"},"vehicle_type_id":"4","last_reported":1727824117,"current_range_meters":27200,"station_id":"ce4bhsp2rcd13ifvqi50","pricing_plan_id":"cebpf4jnsgd1na2vs0mg"},{"bike_id":"78863aa1-ed71-4955-9c54-509cc7bf9e19","system_id":"levelo_inurba_marseille","lat":43.30724,"lon":5.38054,"is_reserved":false,"is_disabled":false,"rental_uris":{"android":"levelo://app?vid=78863aa1-ed71-4955-9c54-509cc7bf9e19","ios":"levelo://app?vid=78863aa1-ed71-4955-9c54-509cc7bf9e19"},"vehicle_type_id":"4","last_reported":1727824117,"current_range_meters":22800,"station_id":"","pricing_plan_id":"cebpf4jnsgd1na2vs0mg"},{"bike_id":"dc03e946-be64-435d-a6e2-304d0c9f3ef5","system_id":"levelo_inurba_marseille","lat":43.31528,"lon":5.38036,"is_reserved":false,"is_disabled":false,"rental_uris":{"android":"levelo://app?vid=dc03e946-be64-435d-a6e2-304d0c9f3ef5","ios":"levelo://app?vid=dc03e946-be64-435d-a6e2-304d0c9f3ef5"},"vehicle_type_id":"4","last_reported":1727824117,"current_range_meters":39200,"station_id":"ce4bhsp2rcd13ifvqi50","pricing_plan_id":"cebpf4jnsgd1na2vs0mg"},{"bike_id":"bf7ae5ba-7674-46bf-8c61-9ffd920fd771","system_id":"levelo_inurba_marseille","lat":43.30324,"lon":5.40449,"is_reserved":false,"is_disabled":false,"rental_uris":{"android":"levelo://app?vid=bf7ae5ba-7674-46bf-8c61-9ffd920fd771","ios":"levelo://app?vid=bf7ae5ba-7674-46bf-8c61-9ffd920fd771"},"vehicle_type_id":"4","last_reported":1727824117,"current_range_meters":36400,"station_id":"ce4bh012rcd13ifvqd10","pricing_plan_id":"cebpf4jnsgd1na2vs0mg"},{"bike_id":"0e5dae4c-a7a8-4e18-94bb-35a364a15051","system_id":"levelo_inurba_marseille","lat":43.30637,"lon":5.40079,"is_reserved":false,"is_disabled":false,"rental_uris":{"android":"levelo://app?vid=0e5dae4c-a7a8-4e18-94bb-35a364a15051","ios":"levelo://app?vid=0e5dae4c-a7a8-4e18-94bb-35a364a15051"},"vehicle_type_id":"4","last_reported":1727824117,"current_range_meters":12800,"station_id":"ce4bh112rcd13ifvqda0","pricing_plan_id":"cebpf4jnsgd1na2vs0mg"},{"bike_id":"d995d233-d2fe-4db9-b69b-baa1337469bf","system_id":"levelo_inurba_marseille","lat":43.26742,"lon":5.40256,"is_reserved":false,"is_disabled":false,"rental_uris":{"android":"levelo://app?vid=d995d233-d2fe-4db9-b69b-baa1337469bf","ios":"levelo://app?vid=d995d233-d2fe-4db9-b69b-baa1337469bf"},"vehicle_type_id":"4","last_reported":1727824117,"current_range_meters":11600,"station_id":"ce4bhm92rcd13ifvqglg","pricing_plan_id":"cebpf4jnsgd1na2vs0mg"},{"bike_id":"10b5bc1b-8fcd-4351-a287-94bccb43fe35","system_id":"levelo_inurba_marseille","lat":43.29529,"lon":5.39028,"is_reserved":false,"is_disabled":false,"rental_uris":{"android":"levelo://app?vid=10b5bc1b-8fcd-4351-a287-94bccb43fe35","ios":"levelo://app?vid=10b5bc1b-8fcd-4351-a287-94bccb43fe35"},"vehicle_type_id":"4","last_reported":1727824117,"current_range_meters":38400,"station_id":"ce4bh3p2rcd13ifvqdp0","pricing_plan_id":"cebpf4jnsgd1na2vs0mg"},{"bike_id":"3ddf769c-c1f4-4c07-a643-d89d6207fa69","system_id":"levelo_inurba_marseille","lat":43.26686,"lon":5.38267,"is_reserved":false,"is_disabled":false,"rental_uris":{"android":"levelo://app?vid=3ddf769c-c1f4-4c07-a643-d89d6207fa69","ios":"levelo://app?vid=3ddf769c-c1f4-4c07-a643-d89d6207fa69"},"vehicle_type_id":"4","last_reported":1727824117,"current_range_meters":36000,"station_id":"ce4bhg92rcd13ifvqf90","pricing_plan_id":"cebpf4jnsgd1na2vs0mg"},{"bike_id":"9ae55583-61da-4955-afe0-934f7c2a6fdd","system_id":"levelo_inurba_marseille","lat":43.24652,"lon":5.389,"is_reserved":false,"is_disabled":false,"rental_uris":{"android":"levelo://app?vid=9ae55583-61da-4955-afe0-934f7c2a6fdd","ios":"levelo://app?vid=9ae55583-61da-4955-afe0-934f7c2a6fdd"},"vehicle_type_id":"4","last_reported":1727824117,"current_range_meters":39200,"station_id":"ce4bhg12rcd13ifvqf60","pricing_plan_id":"cebpf4jnsgd1na2vs0mg"},{"bike_id":"a7934a1b-77fa-496a-bdf8-25ba72f53f81","system_id":"levelo_inurba_marseille","lat":43.291989,"lon":5.393317,"is_reserved":false,"is_disabled":false,"rental_uris":{"android":"levelo://app?vid=a7934a1b-77fa-496a-bdf8-25ba72f53f81","ios":"levelo://app?vid=a7934a1b-77fa-496a-bdf8-25ba72f53f81"},"vehicle_type_id":"4","last_reported":1727824117,"current_range_meters":10000,"station_id":"ce4bhg12rcd13ifvqf80","pricing_plan_id":"cebpf4jnsgd1na2vs0mg"},{"bike_id":"fb9d1e21-03e6-4c8b-820e-16d4a1ba982a","system_id":"levelo_inurba_marseille","lat":43.28419,"lon":5.37514,"is_reserved":false,"is_disabled":false,"rental_uris":{"android":"levelo://app?vid=fb9d1e21-03e6-4c8b-820e-16d4a1ba982a","ios":"levelo://app?vid=fb9d1e21-03e6-4c8b-820e-16d4a1ba982a"},"vehicle_type_id":"4","last_reported":1727824117,"current_range_meters":30800,"station_id":"ce4bh412rcd13ifvqds0","pricing_plan_id":"cebpf4jnsgd1na2vs0mg"},{"bike_id":"c5eb70be-602f-4124-93c5-6e2097d0a344","system_id":"levelo_inurba_marseille","lat":43.31367,"lon":5.38505,"is_reserved":false,"is_disabled":false,"rental_uris":{"android":"levelo://app?vid=c5eb70be-602f-4124-93c5-6e2097d0a344","ios":"levelo://app?vid=c5eb70be-602f-4124-93c5-6e2097d0a344"},"vehicle_type_id":"4","last_reported":1727824117,"current_range_meters":37600,"station_id":"ce4bgt92rcd13ifvqcf0","pricing_plan_id":"cebpf4jnsgd1na2vs0mg"},{"bike_id":"a60f0517-85c2-44d2-a05a-f10b13b579e5","system_id":"levelo_inurba_marseille","lat":43.28932,"lon":5.3963,"is_reserved":false,"is_disabled":false,"rental_uris":{"android":"levelo://app?vid=a60f0517-85c2-44d2-a05a-f10b13b579e5","ios":"levelo://app?vid=a60f0517-85c2-44d2-a05a-f10b13b579e5"},"vehicle_type_id":"4","last_reported":1727824117,"current_range_meters":30400,"station_id":"ce4bh3h2rcd13ifvqdn0","pricing_plan_id":"cebpf4jnsgd1na2vs0mg"},{"bike_id":"7c8e102b-8729-45dd-a2e0-c8af2fc278ec","system_id":"levelo_inurba_marseille","lat":43.2512,"lon":5.40316,"is_reserved":false,"is_disabled":false,"rental_uris":{"android":"levelo://app?vid=7c8e102b-8729-45dd-a2e0-c8af2fc278ec","ios":"levelo://app?vid=7c8e102b-8729-45dd-a2e0-c8af2fc278ec"},"vehicle_type_id":"4","last_reported":1727824117,"current_range_meters":6000,"station_id":"ce4bhlh2rcd13ifvqgig","pricing_plan_id":"cebpf4jnsgd1na2vs0mg"},{"bike_id":"63df1070-907d-4ecd-8835-81d9ac996235","system_id":"levelo_inurba_marseille","lat":43.31179,"lon":5.38711,"is_reserved":false,"is_disabled":false,"rental_uris":{"android":"levelo://app?vid=63df1070-907d-4ecd-8835-81d9ac996235","ios":"levelo://app?vid=63df1070-907d-4ecd-8835-81d9ac996235"},"vehicle_type_id":"4","last_reported":1727824117,"current_range_meters":12800,"station_id":"ce4bgv12rcd13ifvqcp0","pricing_plan_id":"cebpf4jnsgd1na2vs0mg"},{"bike_id":"b652f429-09b8-4697-9c1b-3b9adc3c55d8","system_id":"levelo_inurba_marseille","lat":43.26871,"lon":5.39135,"is_reserved":false,"is_disabled":false,"rental_uris":{"android":"levelo://app?vid=b652f429-09b8-4697-9c1b-3b9adc3c55d8","ios":"levelo://app?vid=b652f429-09b8-4697-9c1b-3b9adc3c55d8"},"vehicle_type_id":"4","last_reported":1727824117,"current_range_meters":5600,"station_id":"","pricing_plan_id":"cebpf4jnsgd1na2vs0mg"},{"bike_id":"61a947e1-a421-40aa-a820-d6e19a6f0fe4","system_id":"levelo_inurba_marseille","lat":43.31724,"lon":5.42413,"is_reserved":false,"is_disabled":false,"rental_uris":{"android":"levelo://app?vid=61a947e1-a421-40aa-a820-d6e19a6f0fe4","ios":"levelo://app?vid=61a947e1-a421-40aa-a820-d6e19a6f0fe4"},"vehicle_type_id":"4","last_reported":1727824117,"current_range_meters":32000,"station_id":"ce4bhp92rcd13ifvqhbg","pricing_plan_id":"cebpf4jnsgd1na2vs0mg"},{"bike_id":"f63a0315-66c7-431d-9b04-c6d43fc0cc07","system_id":"levelo_inurba_marseille","lat":43.26498,"lon":5.39542,"is_reserved":false,"is_disabled":false,"rental_uris":{"android":"levelo://app?vid=f63a0315-66c7-431d-9b04-c6d43fc0cc07","ios":"levelo://app?vid=f63a0315-66c7-431d-9b04-c6d43fc0cc07"},"vehicle_type_id":"4","last_reported":1727824117,"current_range_meters":38800,"station_id":"ce4bhi12rcd13ifvqfq0","pricing_plan_id":"cebpf4jnsgd1na2vs0mg"},{"bike_id":"37623181-9101-4c73-bb6a-5aa8fec97674","system_id":"levelo_inurba_marseille","lat":43.28416,"lon":5.37508,"is_reserved":false,"is_disabled":false,"rental_uris":{"android":"levelo://app?vid=37623181-9101-4c73-bb6a-5aa8fec97674","ios":"levelo://app?vid=37623181-9101-4c73-bb6a-5aa8fec97674"},"vehicle_type_id":"4","last_reported":1727824117,"current_range_meters":8800,"station_id":"ce4bhah2rcd13ifvqei0","pricing_plan_id":"cebpf4jnsgd1na2vs0mg"},{"bike_id":"1cbb5b9f-27fd-4647-944e-96013dabaee7","system_id":"levelo_inurba_marseille","lat":43.31758,"lon":5.39009,"is_reserved":false,"is_disabled":false,"rental_uris":{"android":"levelo://app?vid=1cbb5b9f-27fd-4647-944e-96013dabaee7","ios":"levelo://app?vid=1cbb5b9f-27fd-4647-944e-96013dabaee7"},"vehicle_type_id":"4","last_reported":1727824117,"current_range_meters":38800,"station_id":"ce4bhqp2rcd13ifvqhng","pricing_plan_id":"cebpf4jnsgd1na2vs0mg"},{"bike_id":"cc334f47-266c-4194-bd67-059ec0658e9f","system_id":"levelo_inurba_marseille","lat":43.31273,"lon":5.40171,"is_reserved":false,"is_disabled":false,"rental_uris":{"android":"levelo://app?vid=cc334f47-266c-4194-bd67-059ec0658e9f","ios":"levelo://app?vid=cc334f47-266c-4194-bd67-059ec0658e9f"},"vehicle_type_id":"4","last_reported":1727824117,"current_range_meters":38800,"station_id":"ce4bh092rcd13ifvqd30","pricing_plan_id":"cebpf4jnsgd1na2vs0mg"},{"bike_id":"0826deca-84b1-48a9-9bed-8ce956ed492f","system_id":"levelo_inurba_marseille","lat":43.29438,"lon":5.39742,"is_reserved":false,"is_disabled":false,"rental_uris":{"android":"levelo://app?vid=0826deca-84b1-48a9-9bed-8ce956ed492f","ios":"levelo://app?vid=0826deca-84b1-48a9-9bed-8ce956ed492f"},"vehicle_type_id":"4","last_reported":1727824117,"current_range_meters":35600,"station_id":"ce4bh3h2rcd13ifvqdo0","pricing_plan_id":"cebpf4jnsgd1na2vs0mg"},{"bike_id":"d4c26f9a-1080-4999-bf2c-e944fa58d3ff","system_id":"levelo_inurba_marseille","lat":43.28696,"lon":5.3998,"is_reserved":false,"is_disabled":false,"rental_uris":{"android":"levelo://app?vid=d4c26f9a-1080-4999-bf2c-e944fa58d3ff","ios":"levelo://app?vid=d4c26f9a-1080-4999-bf2c-e944fa58d3ff"},"vehicle_type_id":"4","last_reported":1727824117,"current_range_meters":29600,"station_id":"ce4bho92rcd13ifvqh3g","pricing_plan_id":"cebpf4jnsgd1na2vs0mg"},{"bike_id":"ba6a8e03-62d8-4e9c-a9d8-8b12d14b0ee8","system_id":"levelo_inurba_marseille","lat":43.28607,"lon":5.35099,"is_reserved":false,"is_disabled":false,"rental_uris":{"android":"levelo://app?vid=ba6a8e03-62d8-4e9c-a9d8-8b12d14b0ee8","ios":"levelo://app?vid=ba6a8e03-62d8-4e9c-a9d8-8b12d14b0ee8"},"vehicle_type_id":"4","last_reported":1727824117,"current_range_meters":38800,"station_id":"ce4bhch2rcd13ifvqeug","pricing_plan_id":"cebpf4jnsgd1na2vs0mg"},{"bike_id":"43ec8304-b11c-44d9-9f47-bc865890f14a","system_id":"levelo_inurba_marseille","lat":43.25092,"lon":5.39514,"is_reserved":false,"is_disabled":false,"rental_uris":{"android":"levelo://app?vid=43ec8304-b11c-44d9-9f47-bc865890f14a","ios":"levelo://app?vid=43ec8304-b11c-44d9-9f47-bc865890f14a"},"vehicle_type_id":"4","last_reported":1727824117,"current_range_meters":15200,"station_id":"ce4bhm12rcd13ifvqgkg","pricing_plan_id":"cebpf4jnsgd1na2vs0mg"},{"bike_id":"0726aaf9-3448-465a-8d21-944ad6140277","system_id":"levelo_inurba_marseille","lat":43.31371,"lon":5.385,"is_reserved":false,"is_disabled":false,"rental_uris":{"android":"levelo://app?vid=0726aaf9-3448-465a-8d21-944ad6140277","ios":"levelo://app?vid=0726aaf9-3448-465a-8d21-944ad6140277"},"vehicle_type_id":"4","last_reported":1727824117,"current_range_meters":17600,"station_id":"ce4bgt92rcd13ifvqcf0","pricing_plan_id":"cebpf4jnsgd1na2vs0mg"},{"bike_id":"e5f61d33-8415-4a03-ae60-f12eae9e325c","system_id":"levelo_inurba_marseille","lat":43.28041,"lon":5.36954,"is_reserved":false,"is_disabled":false,"rental_uris":{"android":"levelo://app?vid=e5f61d33-8415-4a03-ae60-f12eae9e325c","ios":"levelo://app?vid=e5f61d33-8415-4a03-ae60-f12eae9e325c"},"vehicle_type_id":"4","last_reported":1727824117,"current_range_meters":33200,"station_id":"ce4bha12rcd13ifvqef0","pricing_plan_id":"cebpf4jnsgd1na2vs0mg"},{"bike_id":"382a442a-a2da-4ef2-bb13-81937cd21851","system_id":"levelo_inurba_marseille","lat":43.28446,"lon":5.39195,"is_reserved":false,"is_disabled":false,"rental_uris":{"android":"levelo://app?vid=382a442a-a2da-4ef2-bb13-81937cd21851","ios":"levelo://app?vid=382a442a-a2da-4ef2-bb13-81937cd21851"},"vehicle_type_id":"4","last_reported":1727824117,"current_range_meters":33600,"station_id":"ce4bhoh2rcd13ifvqh5g","pricing_plan_id":"cebpf4jnsgd1na2vs0mg"},{"bike_id":"152be7fe-903a-4137-9bfe-6e779d55c33f","system_id":"levelo_inurba_marseille","lat":43.26806,"lon":5.40261,"is_reserved":false,"is_disabled":false,"rental_uris":{"android":"levelo://app?vid=152be7fe-903a-4137-9bfe-6e779d55c33f","ios":"levelo://app?vid=152be7fe-903a-4137-9bfe-6e779d55c33f"},"vehicle_type_id":"4","last_reported":1727824117,"current_range_meters":23200,"station_id":"ce501612rcd8frsf0b60","pricing_plan_id":"cebpf4jnsgd1na2vs0mg"},{"bike_id":"bc27e502-5a68-4b19-abd4-272ff453ba6e","system_id":"levelo_inurba_marseille","lat":43.30144,"lon":5.39886,"is_reserved":false,"is_disabled":false,"rental_uris":{"android":"levelo://app?vid=bc27e502-5a68-4b19-abd4-272ff453ba6e","ios":"levelo://app?vid=bc27e502-5a68-4b19-abd4-272ff453ba6e"},"vehicle_type_id":"4","last_reported":1727824117,"current_range_meters":12400,"station_id":"ce4bh0h2rcd13ifvqd40","pricing_plan_id":"cebpf4jnsgd1na2vs0mg"},{"bike_id":"0385b8aa-f99f-4f2f-a4a1-989fe579f52f","system_id":"levelo_inurba_marseille","lat":43.32044,"lon":5.41576,"is_reserved":false,"is_disabled":false,"rental_uris":{"android":"levelo://app?vid=0385b8aa-f99f-4f2f-a4a1-989fe579f52f","ios":"levelo://app?vid=0385b8aa-f99f-4f2f-a4a1-989fe579f52f"},"vehicle_type_id":"4","last_reported":1727824117,"current_range_meters":18000,"station_id":"ce4bhq92rcd13ifvqhkg","pricing_plan_id":"cebpf4jnsgd1na2vs0mg"},{"bike_id":"e602d960-7762-4556-87f3-7ca7eb9e1588","system_id":"levelo_inurba_marseille","lat":43.31888,"lon":5.40731,"is_reserved":false,"is_disabled":false,"rental_uris":{"android":"levelo://app?vid=e602d960-7762-4556-87f3-7ca7eb9e1588","ios":"levelo://app?vid=e602d960-7762-4556-87f3-7ca7eb9e1588"},"vehicle_type_id":"4","last_reported":1727824117,"current_range_meters":37600,"station_id":"ce4bhq12rcd13ifvqhig","pricing_plan_id":"cebpf4jnsgd1na2vs0mg"},{"bike_id":"6fd13259-3116-404c-92cb-683c3b491724","system_id":"levelo_inurba_marseille","lat":43.31172,"lon":5.3871,"is_reserved":false,"is_disabled":false,"rental_uris":{"android":"levelo://app?vid=6fd13259-3116-404c-92cb-683c3b491724","ios":"levelo://app?vid=6fd13259-3116-404c-92cb-683c3b491724"},"vehicle_type_id":"4","last_reported":1727824117,"current_range_meters":22400,"station_id":"ce4bgv12rcd13ifvqcp0","pricing_plan_id":"cebpf4jnsgd1na2vs0mg"},{"bike_id":"5cedae51-eea5-4235-bd02-1451c712e4b0","system_id":"levelo_inurba_marseille","lat":43.31688,"lon":5.40475,"is_reserved":false,"is_disabled":false,"rental_uris":{"android":"levelo://app?vid=5cedae51-eea5-4235-bd02-1451c712e4b0","ios":"levelo://app?vid=5cedae51-eea5-4235-bd02-1451c712e4b0"},"vehicle_type_id":"4","last_reported":1727824117,"current_range_meters":39200,"station_id":"ce4bh012rcd13ifvqd00","pricing_plan_id":"cebpf4jnsgd1na2vs0mg"},{"bike_id":"89b9dfd5-0dc9-4197-bb8d-be7f07ee51ff","system_id":"levelo_inurba_marseille","lat":43.31531,"lon":5.38035,"is_reserved":false,"is_disabled":false,"rental_uris":{"android":"levelo://app?vid=89b9dfd5-0dc9-4197-bb8d-be7f07ee51ff","ios":"levelo://app?vid=89b9dfd5-0dc9-4197-bb8d-be7f07ee51ff"},"vehicle_type_id":"4","last_reported":1727824117,"current_range_meters":38800,"station_id":"ce4bhsp2rcd13ifvqi50","pricing_plan_id":"cebpf4jnsgd1na2vs0mg"},{"bike_id":"6ae20033-92da-495d-9743-905496a75472","system_id":"levelo_inurba_marseille","lat":43.33601,"lon":5.41013,"is_reserved":false,"is_disabled":false,"rental_uris":{"android":"levelo://app?vid=6ae20033-92da-495d-9743-905496a75472","ios":"levelo://app?vid=6ae20033-92da-495d-9743-905496a75472"},"vehicle_type_id":"4","last_reported":1727824117,"current_range_meters":38800,"station_id":"ce4bhqh2rcd13ifvqhmg","pricing_plan_id":"cebpf4jnsgd1na2vs0mg"},{"bike_id":"ff324f9f-4d8f-4d7e-a0c5-274cf470f26e","system_id":"levelo_inurba_marseille","lat":43.27183,"lon":5.4099,"is_reserved":false,"is_disabled":false,"rental_uris":{"android":"levelo://app?vid=ff324f9f-4d8f-4d7e-a0c5-274cf470f26e","ios":"levelo://app?vid=ff324f9f-4d8f-4d7e-a0c5-274cf470f26e"},"vehicle_type_id":"4","last_reported":1727824117,"current_range_meters":38800,"station_id":"ce4bhl12rcd13ifvqgf0","pricing_plan_id":"cebpf4jnsgd1na2vs0mg"},{"bike_id":"6ff016f9-d31d-4e50-9002-5dee01876d27","system_id":"levelo_inurba_marseille","lat":43.31331,"lon":5.396933,"is_reserved":false,"is_disabled":false,"rental_uris":{"android":"levelo://app?vid=6ff016f9-d31d-4e50-9002-5dee01876d27","ios":"levelo://app?vid=6ff016f9-d31d-4e50-9002-5dee01876d27"},"vehicle_type_id":"4","last_reported":1727824117,"current_range_meters":15200,"station_id":"ce4bgvp2rcd13ifvqcu0","pricing_plan_id":"cebpf4jnsgd1na2vs0mg"},{"bike_id":"8a365355-ab8e-447d-9226-04ce0e53d73d","system_id":"levelo_inurba_marseille","lat":43.30089,"lon":5.39078,"is_reserved":false,"is_disabled":false,"rental_uris":{"android":"levelo://app?vid=8a365355-ab8e-447d-9226-04ce0e53d73d","ios":"levelo://app?vid=8a365355-ab8e-447d-9226-04ce0e53d73d"},"vehicle_type_id":"4","last_reported":1727824117,"current_range_meters":24000,"station_id":"ce4bh192rcd13ifvqdb0","pricing_plan_id":"cebpf4jnsgd1na2vs0mg"},{"bike_id":"972f0298-3b6a-4a5a-9a88-2b3812e933f5","system_id":"levelo_inurba_marseille","lat":43.27922,"lon":5.3959,"is_reserved":false,"is_disabled":false,"rental_uris":{"android":"levelo://app?vid=972f0298-3b6a-4a5a-9a88-2b3812e933f5","ios":"levelo://app?vid=972f0298-3b6a-4a5a-9a88-2b3812e933f5"},"vehicle_type_id":"4","last_reported":1727824117,"current_range_meters":6400,"station_id":"ce4bhf92rcd13ifvqf40","pricing_plan_id":"cebpf4jnsgd1na2vs0mg"},{"bike_id":"3c198645-7bb3-45cc-b268-6328bd432778","system_id":"levelo_inurba_marseille","lat":43.30883,"lon":5.37182,"is_reserved":false,"is_disabled":false,"rental_uris":{"android":"levelo://app?vid=3c198645-7bb3-45cc-b268-6328bd432778","ios":"levelo://app?vid=3c198645-7bb3-45cc-b268-6328bd432778"},"vehicle_type_id":"4","last_reported":1727824117,"current_range_meters":23200,"station_id":"ce4bguh2rcd13ifvqckg","pricing_plan_id":"cebpf4jnsgd1na2vs0mg"},{"bike_id":"7c0a7e9a-274d-4edb-a5f4-3ab54445f147","system_id":"levelo_inurba_marseille","lat":43.26487,"lon":5.39552,"is_reserved":false,"is_disabled":false,"rental_uris":{"android":"levelo://app?vid=7c0a7e9a-274d-4edb-a5f4-3ab54445f147","ios":"levelo://app?vid=7c0a7e9a-274d-4edb-a5f4-3ab54445f147"},"vehicle_type_id":"4","last_reported":1727824117,"current_range_meters":38800,"station_id":"ce4bhi12rcd13ifvqfq0","pricing_plan_id":"cebpf4jnsgd1na2vs0mg"},{"bike_id":"9d98c167-ce53-4a4d-871d-1c099d57722c","system_id":"levelo_inurba_marseille","lat":43.30619,"lon":5.37227,"is_reserved":false,"is_disabled":false,"rental_uris":{"android":"levelo://app?vid=9d98c167-ce53-4a4d-871d-1c099d57722c","ios":"levelo://app?vid=9d98c167-ce53-4a4d-871d-1c099d57722c"},"vehicle_type_id":"4","last_reported":1727824117,"current_range_meters":33600,"station_id":"ce4bgqh2rcd13ifvqc4g","pricing_plan_id":"cebpf4jnsgd1na2vs0mg"},{"bike_id":"93a809df-392c-4004-b27b-fa468f9e6c07","system_id":"levelo_inurba_marseille","lat":43.31111,"lon":5.37774,"is_reserved":false,"is_disabled":false,"rental_uris":{"android":"levelo://app?vid=93a809df-392c-4004-b27b-fa468f9e6c07","ios":"levelo://app?vid=93a809df-392c-4004-b27b-fa468f9e6c07"},"vehicle_type_id":"4","last_reported":1727824117,"current_range_meters":32800,"station_id":"ce4bgt92rcd13ifvqcg0","pricing_plan_id":"cebpf4jnsgd1na2vs0mg"},{"bike_id":"5c48585c-f809-4fb1-af51-f7111af0c173","system_id":"levelo_inurba_marseille","lat":43.28458,"lon":5.3588,"is_reserved":false,"is_disabled":false,"rental_uris":{"android":"levelo://app?vid=5c48585c-f809-4fb1-af51-f7111af0c173","ios":"levelo://app?vid=5c48585c-f809-4fb1-af51-f7111af0c173"},"vehicle_type_id":"4","last_reported":1727824117,"current_range_meters":3600,"station_id":"ce4bhah2rcd13ifvqei0","pricing_plan_id":"cebpf4jnsgd1na2vs0mg"},{"bike_id":"82c2475c-c35b-4b23-a470-b125ed8a5409","system_id":"levelo_inurba_marseille","lat":43.30352,"lon":5.41878,"is_reserved":false,"is_disabled":false,"rental_uris":{"android":"levelo://app?vid=82c2475c-c35b-4b23-a470-b125ed8a5409","ios":"levelo://app?vid=82c2475c-c35b-4b23-a470-b125ed8a5409"},"vehicle_type_id":"4","last_reported":1727824117,"current_range_meters":8400,"station_id":"ce4bhop2rcd13ifvqh7g","pricing_plan_id":"cebpf4jnsgd1na2vs0mg"},{"bike_id":"36ba55be-55c0-4d75-9db6-d5e0c0cd66af","system_id":"levelo_inurba_marseille","lat":43.313,"lon":5.384955,"is_reserved":false,"is_disabled":false,"rental_uris":{"android":"levelo://app?vid=36ba55be-55c0-4d75-9db6-d5e0c0cd66af","ios":"levelo://app?vid=36ba55be-55c0-4d75-9db6-d5e0c0cd66af"},"vehicle_type_id":"4","last_reported":1727824117,"current_range_meters":37600,"station_id":"ce4bgt92rcd13ifvqcf0","pricing_plan_id":"cebpf4jnsgd1na2vs0mg"},{"bike_id":"78b1dac7-5bed-47e2-8698-6f2dc96554bd","system_id":"levelo_inurba_marseille","lat":43.31543,"lon":5.38023,"is_reserved":false,"is_disabled":false,"rental_uris":{"android":"levelo://app?vid=78b1dac7-5bed-47e2-8698-6f2dc96554bd","ios":"levelo://app?vid=78b1dac7-5bed-47e2-8698-6f2dc96554bd"},"vehicle_type_id":"4","last_reported":1727824117,"current_range_meters":32400,"station_id":"ce4bhsp2rcd13ifvqi50","pricing_plan_id":"cebpf4jnsgd1na2vs0mg"},{"bike_id":"2b889d16-9dfb-4234-b9cd-a1f18c4d7543","system_id":"levelo_inurba_marseille","lat":43.28037,"lon":5.36947,"is_reserved":false,"is_disabled":false,"rental_uris":{"android":"levelo://app?vid=2b889d16-9dfb-4234-b9cd-a1f18c4d7543","ios":"levelo://app?vid=2b889d16-9dfb-4234-b9cd-a1f18c4d7543"},"vehicle_type_id":"4","last_reported":1727824117,"current_range_meters":25200,"station_id":"ce4bha12rcd13ifvqef0","pricing_plan_id":"cebpf4jnsgd1na2vs0mg"},{"bike_id":"b2b90e47-3d23-4cf8-aed1-cf7c1c2a0002","system_id":"levelo_inurba_marseille","lat":43.31175,"lon":5.38716,"is_reserved":false,"is_disabled":false,"rental_uris":{"android":"levelo://app?vid=b2b90e47-3d23-4cf8-aed1-cf7c1c2a0002","ios":"levelo://app?vid=b2b90e47-3d23-4cf8-aed1-cf7c1c2a0002"},"vehicle_type_id":"4","last_reported":1727824117,"current_range_meters":33600,"station_id":"ce4bgv12rcd13ifvqcp0","pricing_plan_id":"cebpf4jnsgd1na2vs0mg"},{"bike_id":"75f7d3bd-f2a1-4d79-867f-cd81045ec393","system_id":"levelo_inurba_marseille","lat":43.30328,"lon":5.40439,"is_reserved":false,"is_disabled":false,"rental_uris":{"android":"levelo://app?vid=75f7d3bd-f2a1-4d79-867f-cd81045ec393","ios":"levelo://app?vid=75f7d3bd-f2a1-4d79-867f-cd81045ec393"},"vehicle_type_id":"4","last_reported":1727824117,"current_range_meters":30400,"station_id":"ce4bh012rcd13ifvqd10","pricing_plan_id":"cebpf4jnsgd1na2vs0mg"},{"bike_id":"1b0da400-df7f-46cf-a71b-f878e1e3bfe9","system_id":"levelo_inurba_marseille","lat":43.24074,"lon":5.37761,"is_reserved":false,"is_disabled":false,"rental_uris":{"android":"levelo://app?vid=1b0da400-df7f-46cf-a71b-f878e1e3bfe9","ios":"levelo://app?vid=1b0da400-df7f-46cf-a71b-f878e1e3bfe9"},"vehicle_type_id":"4","last_reported":1727824117,"current_range_meters":28400,"station_id":"ce4bhnp2rcd13ifvqgvg","pricing_plan_id":"cebpf4jnsgd1na2vs0mg"},{"bike_id":"304eea07-ca6d-4788-a05c-a46512228cf5","system_id":"levelo_inurba_marseille","lat":43.31275,"lon":5.40167,"is_reserved":false,"is_disabled":false,"rental_uris":{"android":"levelo://app?vid=304eea07-ca6d-4788-a05c-a46512228cf5","ios":"levelo://app?vid=304eea07-ca6d-4788-a05c-a46512228cf5"},"vehicle_type_id":"4","last_reported":1727824117,"current_range_meters":16800,"station_id":"ce4bh092rcd13ifvqd30","pricing_plan_id":"cebpf4jnsgd1na2vs0mg"},{"bike_id":"aae274d4-174b-48df-8d7a-32f65846d636","system_id":"levelo_inurba_marseille","lat":43.27837,"lon":5.39212,"is_reserved":false,"is_disabled":false,"rental_uris":{"android":"levelo://app?vid=aae274d4-174b-48df-8d7a-32f65846d636","ios":"levelo://app?vid=aae274d4-174b-48df-8d7a-32f65846d636"},"vehicle_type_id":"4","last_reported":1727824117,"current_range_meters":38400,"station_id":"ce4bhjp2rcd13ifvqga0","pricing_plan_id":"cebpf4jnsgd1na2vs0mg"},{"bike_id":"d22ae321-847f-4577-8563-9e21e8a7db72","system_id":"levelo_inurba_marseille","lat":43.30781,"lon":5.37649,"is_reserved":false,"is_disabled":false,"rental_uris":{"android":"levelo://app?vid=d22ae321-847f-4577-8563-9e21e8a7db72","ios":"levelo://app?vid=d22ae321-847f-4577-8563-9e21e8a7db72"},"vehicle_type_id":"4","last_reported":1727824117,"current_range_meters":26000,"station_id":"ce4bgv92rcd13ifvqcq0","pricing_plan_id":"cebpf4jnsgd1na2vs0mg"},{"bike_id":"2ad48f66-d496-4774-9d3a-071b3547565a","system_id":"levelo_inurba_marseille","lat":43.30327,"lon":5.40437,"is_reserved":false,"is_disabled":false,"rental_uris":{"android":"levelo://app?vid=2ad48f66-d496-4774-9d3a-071b3547565a","ios":"levelo://app?vid=2ad48f66-d496-4774-9d3a-071b3547565a"},"vehicle_type_id":"4","last_reported":1727824117,"current_range_meters":4800,"station_id":"ce4bh012rcd13ifvqd10","pricing_plan_id":"cebpf4jnsgd1na2vs0mg"},{"bike_id":"6153c6e4-d604-478e-8e06-72f20b035027","system_id":"levelo_inurba_marseille","lat":43.28155,"lon":5.42656,"is_reserved":false,"is_disabled":false,"rental_uris":{"android":"levelo://app?vid=6153c6e4-d604-478e-8e06-72f20b035027","ios":"levelo://app?vid=6153c6e4-d604-478e-8e06-72f20b035027"},"vehicle_type_id":"4","last_reported":1727824117,"current_range_meters":38000,"station_id":"ce4bhnh2rcd13ifvqgug","pricing_plan_id":"cebpf4jnsgd1na2vs0mg"},{"bike_id":"8a9a5a88-54ba-43dc-8df1-8efce13be32e","system_id":"levelo_inurba_marseille","lat":43.27915,"lon":5.39583,"is_reserved":false,"is_disabled":false,"rental_uris":{"android":"levelo://app?vid=8a9a5a88-54ba-43dc-8df1-8efce13be32e","ios":"levelo://app?vid=8a9a5a88-54ba-43dc-8df1-8efce13be32e"},"vehicle_type_id":"4","last_reported":1727824117,"current_range_meters":38800,"station_id":"ce4bhf92rcd13ifvqf40","pricing_plan_id":"cebpf4jnsgd1na2vs0mg"},{"bike_id":"c070c241-857d-41ab-837e-b7196074f68c","system_id":"levelo_inurba_marseille","lat":43.292633,"lon":5.409069,"is_reserved":false,"is_disabled":false,"rental_uris":{"android":"levelo://app?vid=c070c241-857d-41ab-837e-b7196074f68c","ios":"levelo://app?vid=c070c241-857d-41ab-837e-b7196074f68c"},"vehicle_type_id":"4","last_reported":1727824117,"current_range_meters":39200,"station_id":"ce4bh192rcd13ifvqdc0","pricing_plan_id":"cebpf4jnsgd1na2vs0mg"},{"bike_id":"060a1bfa-2e51-45b7-8d05-0e7fbf1a2b7d","system_id":"levelo_inurba_marseille","lat":43.28371,"lon":5.38634,"is_reserved":false,"is_disabled":false,"rental_uris":{"android":"levelo://app?vid=060a1bfa-2e51-45b7-8d05-0e7fbf1a2b7d","ios":"levelo://app?vid=060a1bfa-2e51-45b7-8d05-0e7fbf1a2b7d"},"vehicle_type_id":"4","last_reported":1727824117,"current_range_meters":20000,"station_id":"ce4bh492rcd13ifvqdvg","pricing_plan_id":"cebpf4jnsgd1na2vs0mg"},{"bike_id":"98f1a612-88d8-478b-ad87-9b7a044bda5e","system_id":"levelo_inurba_marseille","lat":43.30229,"lon":5.36521,"is_reserved":false,"is_disabled":false,"rental_uris":{"android":"levelo://app?vid=98f1a612-88d8-478b-ad87-9b7a044bda5e","ios":"levelo://app?vid=98f1a612-88d8-478b-ad87-9b7a044bda5e"},"vehicle_type_id":"4","last_reported":1727824117,"current_range_meters":11200,"station_id":"","pricing_plan_id":"cebpf4jnsgd1na2vs0mg"},{"bike_id":"f8cabb24-b291-43a7-b863-b2f6c298db17","system_id":"levelo_inurba_marseille","lat":43.3089,"lon":5.39648,"is_reserved":false,"is_disabled":false,"rental_uris":{"android":"levelo://app?vid=f8cabb24-b291-43a7-b863-b2f6c298db17","ios":"levelo://app?vid=f8cabb24-b291-43a7-b863-b2f6c298db17"},"vehicle_type_id":"4","last_reported":1727824117,"current_range_meters":8800,"station_id":"ce4bh012rcd13ifvqcv0","pricing_plan_id":"cebpf4jnsgd1na2vs0mg"},{"bike_id":"9e293ca7-6bf9-444f-b38f-f33855779b8c","system_id":"levelo_inurba_marseille","lat":43.26211,"lon":5.37445,"is_reserved":false,"is_disabled":false,"rental_uris":{"android":"levelo://app?vid=9e293ca7-6bf9-444f-b38f-f33855779b8c","ios":"levelo://app?vid=9e293ca7-6bf9-444f-b38f-f33855779b8c"},"vehicle_type_id":"4","last_reported":1727824117,"current_range_meters":22000,"station_id":"ce4bhgp2rcd13ifvqfc0","pricing_plan_id":"cebpf4jnsgd1na2vs0mg"},{"bike_id":"8ceb96fe-a74c-49c6-8577-bc4076ef5c3c","system_id":"levelo_inurba_marseille","lat":43.32292,"lon":5.38277,"is_reserved":false,"is_disabled":false,"rental_uris":{"android":"levelo://app?vid=8ceb96fe-a74c-49c6-8577-bc4076ef5c3c","ios":"levelo://app?vid=8ceb96fe-a74c-49c6-8577-bc4076ef5c3c"},"vehicle_type_id":"4","last_reported":1727824117,"current_range_meters":8400,"station_id":"ce4bhr12rcd13ifvqhqg","pricing_plan_id":"cebpf4jnsgd1na2vs0mg"},{"bike_id":"b6291581-2ff7-490c-bf63-5c7ac8cc3675","system_id":"levelo_inurba_marseille","lat":43.30649,"lon":5.40078,"is_reserved":false,"is_disabled":false,"rental_uris":{"android":"levelo://app?vid=b6291581-2ff7-490c-bf63-5c7ac8cc3675","ios":"levelo://app?vid=b6291581-2ff7-490c-bf63-5c7ac8cc3675"},"vehicle_type_id":"4","last_reported":1727824117,"current_range_meters":38800,"station_id":"ce4bh112rcd13ifvqda0","pricing_plan_id":"cebpf4jnsgd1na2vs0mg"},{"bike_id":"b337bd20-f5ab-4d71-a842-ea60a4480d01","system_id":"levelo_inurba_marseille","lat":43.33752,"lon":5.37462,"is_reserved":false,"is_disabled":false,"rental_uris":{"android":"levelo://app?vid=b337bd20-f5ab-4d71-a842-ea60a4480d01","ios":"levelo://app?vid=b337bd20-f5ab-4d71-a842-ea60a4480d01"},"vehicle_type_id":"4","last_reported":1727824117,"current_range_meters":36000,"station_id":"","pricing_plan_id":"cebpf4jnsgd1na2vs0mg"},{"bike_id":"6c1cfd53-6570-49ff-9900-dbc15086be93","system_id":"levelo_inurba_marseille","lat":43.284568,"lon":5.35897,"is_reserved":false,"is_disabled":false,"rental_uris":{"android":"levelo://app?vid=6c1cfd53-6570-49ff-9900-dbc15086be93","ios":"levelo://app?vid=6c1cfd53-6570-49ff-9900-dbc15086be93"},"vehicle_type_id":"4","last_reported":1727824117,"current_range_meters":38800,"station_id":"ce4bhah2rcd13ifvqei0","pricing_plan_id":"cebpf4jnsgd1na2vs0mg"},{"bike_id":"2d1e394b-c65c-48dd-8f6c-7fbd688f784e","system_id":"levelo_inurba_marseille","lat":43.31652,"lon":5.38802,"is_reserved":false,"is_disabled":false,"rental_uris":{"android":"levelo://app?vid=2d1e394b-c65c-48dd-8f6c-7fbd688f784e","ios":"levelo://app?vid=2d1e394b-c65c-48dd-8f6c-7fbd688f784e"},"vehicle_type_id":"4","last_reported":1727824117,"current_range_meters":10000,"station_id":"ce4bhqp2rcd13ifvqhng","pricing_plan_id":"cebpf4jnsgd1na2vs0mg"},{"bike_id":"5b7a131a-dc18-4121-b4f2-b1d01298b714","system_id":"levelo_inurba_marseille","lat":43.301262,"lon":5.38784,"is_reserved":false,"is_disabled":false,"rental_uris":{"android":"levelo://app?vid=5b7a131a-dc18-4121-b4f2-b1d01298b714","ios":"levelo://app?vid=5b7a131a-dc18-4121-b4f2-b1d01298b714"},"vehicle_type_id":"4","last_reported":1727824117,"current_range_meters":31200,"station_id":"ce4bghh2rcd13ifvqb60","pricing_plan_id":"cebpf4jnsgd1na2vs0mg"},{"bike_id":"737387ba-9b3a-423e-82d6-7f2519af15e7","system_id":"levelo_inurba_marseille","lat":43.32661,"lon":5.40989,"is_reserved":false,"is_disabled":false,"rental_uris":{"android":"levelo://app?vid=737387ba-9b3a-423e-82d6-7f2519af15e7","ios":"levelo://app?vid=737387ba-9b3a-423e-82d6-7f2519af15e7"},"vehicle_type_id":"4","last_reported":1727824117,"current_range_meters":38000,"station_id":"ce4bhpp2rcd13ifvqhgg","pricing_plan_id":"cebpf4jnsgd1na2vs0mg"},{"bike_id":"a839f8c2-1f19-41c9-b661-130324e30c0f","system_id":"levelo_inurba_marseille","lat":43.3229,"lon":5.38268,"is_reserved":false,"is_disabled":false,"rental_uris":{"android":"levelo://app?vid=a839f8c2-1f19-41c9-b661-130324e30c0f","ios":"levelo://app?vid=a839f8c2-1f19-41c9-b661-130324e30c0f"},"vehicle_type_id":"4","last_reported":1727824117,"current_range_meters":38800,"station_id":"ce4bhr12rcd13ifvqhqg","pricing_plan_id":"cebpf4jnsgd1na2vs0mg"},{"bike_id":"a08fb8e3-178d-48a6-81dd-3d2b604c8945","system_id":"levelo_inurba_marseille","lat":43.29931,"lon":5.36519,"is_reserved":false,"is_disabled":false,"rental_uris":{"android":"levelo://app?vid=a08fb8e3-178d-48a6-81dd-3d2b604c8945","ios":"levelo://app?vid=a08fb8e3-178d-48a6-81dd-3d2b604c8945"},"vehicle_type_id":"4","last_reported":1727824117,"current_range_meters":38800,"station_id":"ce4bgm92rcd13ifvqbr0","pricing_plan_id":"cebpf4jnsgd1na2vs0mg"},{"bike_id":"3ee5ae9c-e38a-45da-9cd8-384ff26e083e","system_id":"levelo_inurba_marseille","lat":43.28937,"lon":5.36643,"is_reserved":false,"is_disabled":false,"rental_uris":{"android":"levelo://app?vid=3ee5ae9c-e38a-45da-9cd8-384ff26e083e","ios":"levelo://app?vid=3ee5ae9c-e38a-45da-9cd8-384ff26e083e"},"vehicle_type_id":"4","last_reported":1727824117,"current_range_meters":14800,"station_id":"ce4bhap2rcd13ifvqek0","pricing_plan_id":"cebpf4jnsgd1na2vs0mg"},{"bike_id":"42b39daf-2a0c-403d-81df-ff40365bdd87","system_id":"levelo_inurba_marseille","lat":43.32657,"lon":5.40991,"is_reserved":false,"is_disabled":false,"rental_uris":{"android":"levelo://app?vid=42b39daf-2a0c-403d-81df-ff40365bdd87","ios":"levelo://app?vid=42b39daf-2a0c-403d-81df-ff40365bdd87"},"vehicle_type_id":"4","last_reported":1727824117,"current_range_meters":36400,"station_id":"ce4bhpp2rcd13ifvqhgg","pricing_plan_id":"cebpf4jnsgd1na2vs0mg"},{"bike_id":"7c447bf8-71c6-4f4f-b6ab-71c625ee8bab","system_id":"levelo_inurba_marseille","lat":43.29779,"lon":5.371,"is_reserved":false,"is_disabled":false,"rental_uris":{"android":"levelo://app?vid=7c447bf8-71c6-4f4f-b6ab-71c625ee8bab","ios":"levelo://app?vid=7c447bf8-71c6-4f4f-b6ab-71c625ee8bab"},"vehicle_type_id":"4","last_reported":1727824117,"current_range_meters":38800,"station_id":"ce4bgn12rcd13ifvqbt0","pricing_plan_id":"cebpf4jnsgd1na2vs0mg"},{"bike_id":"64aa91d5-8321-4944-9ff4-784f4b999f84","system_id":"levelo_inurba_marseille","lat":43.2928,"lon":5.40117,"is_reserved":false,"is_disabled":false,"rental_uris":{"android":"levelo://app?vid=64aa91d5-8321-4944-9ff4-784f4b999f84","ios":"levelo://app?vid=64aa91d5-8321-4944-9ff4-784f4b999f84"},"vehicle_type_id":"4","last_reported":1727824117,"current_range_meters":9200,"station_id":"ce4bh312rcd13ifvqdk0","pricing_plan_id":"cebpf4jnsgd1na2vs0mg"},{"bike_id":"f493192b-13c6-47a1-9573-739dd32e633f","system_id":"levelo_inurba_marseille","lat":43.337444,"lon":5.374475,"is_reserved":false,"is_disabled":false,"rental_uris":{"android":"levelo://app?vid=f493192b-13c6-47a1-9573-739dd32e633f","ios":"levelo://app?vid=f493192b-13c6-47a1-9573-739dd32e633f"},"vehicle_type_id":"4","last_reported":1727824117,"current_range_meters":15200,"station_id":"","pricing_plan_id":"cebpf4jnsgd1na2vs0mg"},{"bike_id":"82629651-f3f6-4e9b-971d-0a40fe1449ba","system_id":"levelo_inurba_marseille","lat":43.28157,"lon":5.42643,"is_reserved":false,"is_disabled":false,"rental_uris":{"android":"levelo://app?vid=82629651-f3f6-4e9b-971d-0a40fe1449ba","ios":"levelo://app?vid=82629651-f3f6-4e9b-971d-0a40fe1449ba"},"vehicle_type_id":"4","last_reported":1727824117,"current_range_meters":38800,"station_id":"ce4bhnh2rcd13ifvqgug","pricing_plan_id":"cebpf4jnsgd1na2vs0mg"},{"bike_id":"0f7fdd5a-4d59-4d55-9253-a66e0f223643","system_id":"levelo_inurba_marseille","lat":43.296347,"lon":5.377549,"is_reserved":false,"is_disabled":false,"rental_uris":{"android":"levelo://app?vid=0f7fdd5a-4d59-4d55-9253-a66e0f223643","ios":"levelo://app?vid=0f7fdd5a-4d59-4d55-9253-a66e0f223643"},"vehicle_type_id":"4","last_reported":1727824117,"current_range_meters":25200,"station_id":"ce4bgkh2rcd13ifvqbl0","pricing_plan_id":"cebpf4jnsgd1na2vs0mg"},{"bike_id":"b745a6a5-e64d-4248-ab03-88b109c26ee7","system_id":"levelo_inurba_marseille","lat":43.29848,"lon":5.36283,"is_reserved":false,"is_disabled":false,"rental_uris":{"android":"levelo://app?vid=b745a6a5-e64d-4248-ab03-88b109c26ee7","ios":"levelo://app?vid=b745a6a5-e64d-4248-ab03-88b109c26ee7"},"vehicle_type_id":"4","last_reported":1727824117,"current_range_meters":30000,"station_id":"ce4bgpp2rcd13ifvqc3g","pricing_plan_id":"cebpf4jnsgd1na2vs0mg"},{"bike_id":"aab4210c-0fc9-43af-983b-cc13c19a5d64","system_id":"levelo_inurba_marseille","lat":43.27183,"lon":5.40985,"is_reserved":false,"is_disabled":false,"rental_uris":{"android":"levelo://app?vid=aab4210c-0fc9-43af-983b-cc13c19a5d64","ios":"levelo://app?vid=aab4210c-0fc9-43af-983b-cc13c19a5d64"},"vehicle_type_id":"4","last_reported":1727824117,"current_range_meters":14000,"station_id":"ce4bhl12rcd13ifvqgf0","pricing_plan_id":"cebpf4jnsgd1na2vs0mg"},{"bike_id":"441f094e-6466-462e-98bf-9aeceeeab288","system_id":"levelo_inurba_marseille","lat":43.27815,"lon":5.40713,"is_reserved":false,"is_disabled":false,"rental_uris":{"android":"levelo://app?vid=441f094e-6466-462e-98bf-9aeceeeab288","ios":"levelo://app?vid=441f094e-6466-462e-98bf-9aeceeeab288"},"vehicle_type_id":"4","last_reported":1727824117,"current_range_meters":38800,"station_id":"ce4bhnh2rcd13ifvqgtg","pricing_plan_id":"cebpf4jnsgd1na2vs0mg"},{"bike_id":"77f4d60e-8fce-42bf-87a6-fba55031adb0","system_id":"levelo_inurba_marseille","lat":43.29552,"lon":5.42289,"is_reserved":false,"is_disabled":false,"rental_uris":{"android":"levelo://app?vid=77f4d60e-8fce-42bf-87a6-fba55031adb0","ios":"levelo://app?vid=77f4d60e-8fce-42bf-87a6-fba55031adb0"},"vehicle_type_id":"4","last_reported":1727824117,"current_range_meters":37600,"station_id":"ce4bhph2rcd13ifvqhdg","pricing_plan_id":"cebpf4jnsgd1na2vs0mg"},{"bike_id":"dc3289b7-5397-463d-b8ee-3f7e34403a59","system_id":"levelo_inurba_marseille","lat":43.28461,"lon":5.35887,"is_reserved":false,"is_disabled":false,"rental_uris":{"android":"levelo://app?vid=dc3289b7-5397-463d-b8ee-3f7e34403a59","ios":"levelo://app?vid=dc3289b7-5397-463d-b8ee-3f7e34403a59"},"vehicle_type_id":"4","last_reported":1727824117,"current_range_meters":26800,"station_id":"ce4bhah2rcd13ifvqei0","pricing_plan_id":"cebpf4jnsgd1na2vs0mg"},{"bike_id":"d0f3ba74-2db6-4276-a970-d6d9e934005a","system_id":"levelo_inurba_marseille","lat":43.33721,"lon":5.3918,"is_reserved":false,"is_disabled":false,"rental_uris":{"android":"levelo://app?vid=d0f3ba74-2db6-4276-a970-d6d9e934005a","ios":"levelo://app?vid=d0f3ba74-2db6-4276-a970-d6d9e934005a"},"vehicle_type_id":"4","last_reported":1727824117,"current_range_meters":38800,"station_id":"ce4bhr92rcd13ifvqhsg","pricing_plan_id":"cebpf4jnsgd1na2vs0mg"},{"bike_id":"27ff15c2-602e-4fb3-b4e3-3f271bc5b364","system_id":"levelo_inurba_marseille","lat":43.28571,"lon":5.39495,"is_reserved":false,"is_disabled":false,"rental_uris":{"android":"levelo://app?vid=27ff15c2-602e-4fb3-b4e3-3f271bc5b364","ios":"levelo://app?vid=27ff15c2-602e-4fb3-b4e3-3f271bc5b364"},"vehicle_type_id":"4","last_reported":1727824117,"current_range_meters":28400,"station_id":"ce4bh292rcd13ifvqdg0","pricing_plan_id":"cebpf4jnsgd1na2vs0mg"},{"bike_id":"a2ba7602-9b90-45c6-8d5a-66c0710e2f94","system_id":"levelo_inurba_marseille","lat":43.33604,"lon":5.41032,"is_reserved":false,"is_disabled":false,"rental_uris":{"android":"levelo://app?vid=a2ba7602-9b90-45c6-8d5a-66c0710e2f94","ios":"levelo://app?vid=a2ba7602-9b90-45c6-8d5a-66c0710e2f94"},"vehicle_type_id":"4","last_reported":1727824117,"current_range_meters":26000,"station_id":"ce4bhqh2rcd13ifvqhmg","pricing_plan_id":"cebpf4jnsgd1na2vs0mg"},{"bike_id":"17ee59c7-c589-44cb-955e-150eab13e353","system_id":"levelo_inurba_marseille","lat":43.29982,"lon":5.37174,"is_reserved":false,"is_disabled":false,"rental_uris":{"android":"levelo://app?vid=17ee59c7-c589-44cb-955e-150eab13e353","ios":"levelo://app?vid=17ee59c7-c589-44cb-955e-150eab13e353"},"vehicle_type_id":"4","last_reported":1727824117,"current_range_meters":24800,"station_id":"ce4bgr92rcd13ifvqc7g","pricing_plan_id":"cebpf4jnsgd1na2vs0mg"},{"bike_id":"7d719436-d69c-4d48-8fe9-74cb17994169","system_id":"levelo_inurba_marseille","lat":43.28726,"lon":5.36088,"is_reserved":false,"is_disabled":false,"rental_uris":{"android":"levelo://app?vid=7d719436-d69c-4d48-8fe9-74cb17994169","ios":"levelo://app?vid=7d719436-d69c-4d48-8fe9-74cb17994169"},"vehicle_type_id":"4","last_reported":1727824117,"current_range_meters":38800,"station_id":"cki0cbj6b192h4jlfktg","pricing_plan_id":"cebpf4jnsgd1na2vs0mg"},{"bike_id":"1a43b97b-d31d-4b82-bef2-d826714d3ba7","system_id":"levelo_inurba_marseille","lat":43.307906,"lon":5.435168,"is_reserved":false,"is_disabled":false,"rental_uris":{"android":"levelo://app?vid=1a43b97b-d31d-4b82-bef2-d826714d3ba7","ios":"levelo://app?vid=1a43b97b-d31d-4b82-bef2-d826714d3ba7"},"vehicle_type_id":"4","last_reported":1727824117,"current_range_meters":38400,"station_id":"ce4bhph2rcd13ifvqheg","pricing_plan_id":"cebpf4jnsgd1na2vs0mg"},{"bike_id":"e81cef68-ecc8-4fe9-a400-7c4a2a76b1ec","system_id":"levelo_inurba_marseille","lat":43.2721,"lon":5.39191,"is_reserved":false,"is_disabled":false,"rental_uris":{"android":"levelo://app?vid=e81cef68-ecc8-4fe9-a400-7c4a2a76b1ec","ios":"levelo://app?vid=e81cef68-ecc8-4fe9-a400-7c4a2a76b1ec"},"vehicle_type_id":"4","last_reported":1727824117,"current_range_meters":39200,"station_id":"ce4bhhp2rcd13ifvqfm0","pricing_plan_id":"cebpf4jnsgd1na2vs0mg"},{"bike_id":"f1dd1acd-6ae2-46a7-8d62-c777e527ff0c","system_id":"levelo_inurba_marseille","lat":43.28458,"lon":5.35886,"is_reserved":false,"is_disabled":false,"rental_uris":{"android":"levelo://app?vid=f1dd1acd-6ae2-46a7-8d62-c777e527ff0c","ios":"levelo://app?vid=f1dd1acd-6ae2-46a7-8d62-c777e527ff0c"},"vehicle_type_id":"4","last_reported":1727824117,"current_range_meters":38800,"station_id":"ce4bhah2rcd13ifvqei0","pricing_plan_id":"cebpf4jnsgd1na2vs0mg"},{"bike_id":"4c4f3085-7816-4fff-97e5-4cd36e0a2328","system_id":"levelo_inurba_marseille","lat":43.26559,"lon":5.37287,"is_reserved":false,"is_disabled":false,"rental_uris":{"android":"levelo://app?vid=4c4f3085-7816-4fff-97e5-4cd36e0a2328","ios":"levelo://app?vid=4c4f3085-7816-4fff-97e5-4cd36e0a2328"},"vehicle_type_id":"4","last_reported":1727824117,"current_range_meters":38800,"station_id":"ce4bhg12rcd13ifvqf70","pricing_plan_id":"cebpf4jnsgd1na2vs0mg"},{"bike_id":"939d903e-bb0b-40ec-a54d-42ff44705aef","system_id":"levelo_inurba_marseille","lat":43.24545,"lon":5.39518,"is_reserved":false,"is_disabled":false,"rental_uris":{"android":"levelo://app?vid=939d903e-bb0b-40ec-a54d-42ff44705aef","ios":"levelo://app?vid=939d903e-bb0b-40ec-a54d-42ff44705aef"},"vehicle_type_id":"4","last_reported":1727824117,"current_range_meters":32000,"station_id":"ce4bhlp2rcd13ifvqgjg","pricing_plan_id":"cebpf4jnsgd1na2vs0mg"},{"bike_id":"c90b62d9-56ee-4c39-b816-7c92e6759ba5","system_id":"levelo_inurba_marseille","lat":43.26952,"lon":5.38631,"is_reserved":false,"is_disabled":false,"rental_uris":{"android":"levelo://app?vid=c90b62d9-56ee-4c39-b816-7c92e6759ba5","ios":"levelo://app?vid=c90b62d9-56ee-4c39-b816-7c92e6759ba5"},"vehicle_type_id":"4","last_reported":1727824117,"current_range_meters":9600,"station_id":"ce4bhh92rcd13ifvqfh0","pricing_plan_id":"cebpf4jnsgd1na2vs0mg"},{"bike_id":"e1a22575-397e-4cd2-9953-1ff35d4fc195","system_id":"levelo_inurba_marseille","lat":43.26559,"lon":5.37292,"is_reserved":false,"is_disabled":false,"rental_uris":{"android":"levelo://app?vid=e1a22575-397e-4cd2-9953-1ff35d4fc195","ios":"levelo://app?vid=e1a22575-397e-4cd2-9953-1ff35d4fc195"},"vehicle_type_id":"4","last_reported":1727824117,"current_range_meters":38800,"station_id":"ce4bhg12rcd13ifvqf70","pricing_plan_id":"cebpf4jnsgd1na2vs0mg"},{"bike_id":"e3789a53-30ff-404c-bf99-457ed15f9ab2","system_id":"levelo_inurba_marseille","lat":43.28455,"lon":5.35888,"is_reserved":false,"is_disabled":false,"rental_uris":{"android":"levelo://app?vid=e3789a53-30ff-404c-bf99-457ed15f9ab2","ios":"levelo://app?vid=e3789a53-30ff-404c-bf99-457ed15f9ab2"},"vehicle_type_id":"4","last_reported":1727824117,"current_range_meters":38800,"station_id":"ce4bhah2rcd13ifvqei0","pricing_plan_id":"cebpf4jnsgd1na2vs0mg"},{"bike_id":"c21885d0-f98b-408a-b33e-348332f887e9","system_id":"levelo_inurba_marseille","lat":43.25578,"lon":5.38239,"is_reserved":false,"is_disabled":false,"rental_uris":{"android":"levelo://app?vid=c21885d0-f98b-408a-b33e-348332f887e9","ios":"levelo://app?vid=c21885d0-f98b-408a-b33e-348332f887e9"},"vehicle_type_id":"4","last_reported":1727824117,"current_range_meters":27600,"station_id":"ce4bhih2rcd13ifvqfs0","pricing_plan_id":"cebpf4jnsgd1na2vs0mg"},{"bike_id":"7acc4f54-6a14-4172-91fe-2ee65d4056a4","system_id":"levelo_inurba_marseille","lat":43.31891,"lon":5.40735,"is_reserved":false,"is_disabled":false,"rental_uris":{"android":"levelo://app?vid=7acc4f54-6a14-4172-91fe-2ee65d4056a4","ios":"levelo://app?vid=7acc4f54-6a14-4172-91fe-2ee65d4056a4"},"vehicle_type_id":"4","last_reported":1727824117,"current_range_meters":9200,"station_id":"ce4bhq12rcd13ifvqhig","pricing_plan_id":"cebpf4jnsgd1na2vs0mg"},{"bike_id":"9adfda9a-86c8-44b8-818a-d7b8f84238b8","system_id":"levelo_inurba_marseille","lat":43.25868,"lon":5.39899,"is_reserved":false,"is_disabled":false,"rental_uris":{"android":"levelo://app?vid=9adfda9a-86c8-44b8-818a-d7b8f84238b8","ios":"levelo://app?vid=9adfda9a-86c8-44b8-818a-d7b8f84238b8"},"vehicle_type_id":"4","last_reported":1727824117,"current_range_meters":23200,"station_id":"ce4bhl92rcd13ifvqghg","pricing_plan_id":"cebpf4jnsgd1na2vs0mg"},{"bike_id":"9501c630-0ef6-483f-91e4-e177bcc46701","system_id":"levelo_inurba_marseille","lat":43.28702,"lon":5.3739,"is_reserved":false,"is_disabled":false,"rental_uris":{"android":"levelo://app?vid=9501c630-0ef6-483f-91e4-e177bcc46701","ios":"levelo://app?vid=9501c630-0ef6-483f-91e4-e177bcc46701"},"vehicle_type_id":"4","last_reported":1727824117,"current_range_meters":39200,"station_id":"ce4bh3p2rcd13ifvqdq0","pricing_plan_id":"cebpf4jnsgd1na2vs0mg"},{"bike_id":"2bf7e306-f8f9-4dd3-b221-2dc4bd7dabc2","system_id":"levelo_inurba_marseille","lat":43.28458,"lon":5.35901,"is_reserved":false,"is_disabled":false,"rental_uris":{"android":"levelo://app?vid=2bf7e306-f8f9-4dd3-b221-2dc4bd7dabc2","ios":"levelo://app?vid=2bf7e306-f8f9-4dd3-b221-2dc4bd7dabc2"},"vehicle_type_id":"4","last_reported":1727824117,"current_range_meters":24000,"station_id":"ce4bhah2rcd13ifvqei0","pricing_plan_id":"cebpf4jnsgd1na2vs0mg"},{"bike_id":"43bfceaf-5615-4c89-a9c7-1588e6315ed2","system_id":"levelo_inurba_marseille","lat":43.23155,"lon":5.43704,"is_reserved":false,"is_disabled":false,"rental_uris":{"android":"levelo://app?vid=43bfceaf-5615-4c89-a9c7-1588e6315ed2","ios":"levelo://app?vid=43bfceaf-5615-4c89-a9c7-1588e6315ed2"},"vehicle_type_id":"4","last_reported":1727824117,"current_range_meters":4000,"station_id":"ce4bhmp2rcd13ifvqgog","pricing_plan_id":"cebpf4jnsgd1na2vs0mg"},{"bike_id":"2f0d810c-3ca1-42d9-86f0-966955c3ecb9","system_id":"levelo_inurba_marseille","lat":43.27832,"lon":5.39205,"is_reserved":false,"is_disabled":false,"rental_uris":{"android":"levelo://app?vid=2f0d810c-3ca1-42d9-86f0-966955c3ecb9","ios":"levelo://app?vid=2f0d810c-3ca1-42d9-86f0-966955c3ecb9"},"vehicle_type_id":"4","last_reported":1727824117,"current_range_meters":17600,"station_id":"ce4bhjp2rcd13ifvqga0","pricing_plan_id":"cebpf4jnsgd1na2vs0mg"},{"bike_id":"b16faf2b-e28a-4e43-ae29-a1fe3ed2f546","system_id":"levelo_inurba_marseille","lat":43.30145,"lon":5.39875,"is_reserved":false,"is_disabled":false,"rental_uris":{"android":"levelo://app?vid=b16faf2b-e28a-4e43-ae29-a1fe3ed2f546","ios":"levelo://app?vid=b16faf2b-e28a-4e43-ae29-a1fe3ed2f546"},"vehicle_type_id":"4","last_reported":1727824117,"current_range_meters":14800,"station_id":"ce4bh0h2rcd13ifvqd40","pricing_plan_id":"cebpf4jnsgd1na2vs0mg"},{"bike_id":"a2ae8adb-cbe8-4c0b-89c0-a433c1504522","system_id":"levelo_inurba_marseille","lat":43.31283,"lon":5.40162,"is_reserved":false,"is_disabled":false,"rental_uris":{"android":"levelo://app?vid=a2ae8adb-cbe8-4c0b-89c0-a433c1504522","ios":"levelo://app?vid=a2ae8adb-cbe8-4c0b-89c0-a433c1504522"},"vehicle_type_id":"4","last_reported":1727824117,"current_range_meters":27600,"station_id":"ce4bh092rcd13ifvqd30","pricing_plan_id":"cebpf4jnsgd1na2vs0mg"},{"bike_id":"5bf52619-7ce6-4cac-8408-b1bcf64ac36e","system_id":"levelo_inurba_marseille","lat":43.27432,"lon":5.39417,"is_reserved":false,"is_disabled":false,"rental_uris":{"android":"levelo://app?vid=5bf52619-7ce6-4cac-8408-b1bcf64ac36e","ios":"levelo://app?vid=5bf52619-7ce6-4cac-8408-b1bcf64ac36e"},"vehicle_type_id":"4","last_reported":1727824117,"current_range_meters":11600,"station_id":"ce4bhdp2rcd13ifvqf20","pricing_plan_id":"cebpf4jnsgd1na2vs0mg"},{"bike_id":"0b7a5177-7bc1-4350-bceb-f8d35eb45312","system_id":"levelo_inurba_marseille","lat":43.29261,"lon":5.40916,"is_reserved":false,"is_disabled":false,"rental_uris":{"android":"levelo://app?vid=0b7a5177-7bc1-4350-bceb-f8d35eb45312","ios":"levelo://app?vid=0b7a5177-7bc1-4350-bceb-f8d35eb45312"},"vehicle_type_id":"4","last_reported":1727824117,"current_range_meters":26000,"station_id":"ce4bh192rcd13ifvqdc0","pricing_plan_id":"cebpf4jnsgd1na2vs0mg"},{"bike_id":"849785e9-3354-451b-a4b8-9dfecd3e3883","system_id":"levelo_inurba_marseille","lat":43.26689,"lon":5.38268,"is_reserved":false,"is_disabled":false,"rental_uris":{"android":"levelo://app?vid=849785e9-3354-451b-a4b8-9dfecd3e3883","ios":"levelo://app?vid=849785e9-3354-451b-a4b8-9dfecd3e3883"},"vehicle_type_id":"4","last_reported":1727824117,"current_range_meters":38800,"station_id":"ce4bhg92rcd13ifvqf90","pricing_plan_id":"cebpf4jnsgd1na2vs0mg"},