{"last_updated":1702177652,"ttl":30,"version":"2.2","data":{"bikes":[{"bike_id":"28cef7fc-69a5-469a-a4c8-84ff47e04462","system_id":"levelo_inurba_marseille","lat":43.31341,"lon":5.367098,"is_reserved":false,"is_disabled":false,"rental_uris":{"android":"levelo://app?vid=28cef7fc-69a5-469a-a4c8-84ff47e04462","ios":"levelo://app?vid=28cef7fc-69a5-469a-a4c8-84ff47e04462"},"vehicle_type_id":"4","last_reported":1702177652,"current_range_meters":30000,"station_id":"ce4bgr92rcd13ifvqc6g","pricing_plan_id":"free"},{"bike_id":"0fe40999-5a08-472f-9c0e-b9ab62e54a02","system_id":"levelo_inurba_marseille","lat":43.30905,"lon":5.36856,"is_reserved":false,"is_disabled":false,"rental_uris":{"android":"levelo://app?vid=0fe40999-5a08-472f-9c0e-b9ab62e54a02","ios":"levelo://app?vid=0fe40999-5a08-472f-9c0e-b9ab62e54a02"},"vehicle_type_id":"4","last_reported":1702177652,"current_range_meters":26000,"station_id":"ce4bgn92rcd13ifvqbvg","pricing_plan_id":"free"},{"bike_id":"cef46863-3893-4f44-ada5-a58ec22d38e6","system_id":"levelo_inurba_marseille","lat":43.311131,"lon":5.377651,"is_reserved":false,"is_disabled":false,"rental_uris":{"android":"levelo://app?vid=cef46863-3893-4f44-ada5-a58ec22d38e6","ios":"levelo://app?vid=cef46863-3893-4f44-ada5-a58ec22d38e6"},"vehicle_type_id":"4","last_reported":1702177652,"current_range_meters":0,"station_id":"ce4bgt92rcd13ifvqcg0","pricing_plan_id":"free"},{"bike_id":"9acd56a4-a7e5-4d3c-a878-301030793438","system_id":"levelo_inurba_marseille","lat":43.311131,"lon":5.377651,"is_reserved":false,"is_disabled":false,"rental_uris":{"android":"levelo://app?vid=9acd56a4-a7e5-4d3c-a878-301030793438","ios":"levelo://app?vid=9acd56a4-a7e5-4d3c-a878-301030793438"},"vehicle_type_id":"4","last_reported":1702177652,"current_range_meters":19600,"station_id":"ce4bgt92rcd13ifvqcg0","pricing_plan_id":"free"},{"bike_id":"a78a3e5a-fe6a-4dc4-81a4-e04fb123343a","system_id":"levelo_inurba_marseille","lat":43.31108,"lon":5.37768,"is_reserved":false,"is_disabled":false,"rental_uris":{"android":"levelo://app?vid=a78a3e5a-fe6a-4dc4-81a4-e04fb123343a","ios":"levelo://app?vid=a78a3e5a-fe6a-4dc4-81a4-e04fb123343a"},"vehicle_type_id":"4","last_reported":1702177652,"current_range_meters":0,"station_id":"ce4bgt92rcd13ifvqcg0","pricing_plan_id":"free"},{"bike_id":"9ae367b1-a4f3-47aa-ab3b-c8db2ef55fdd","system_id":"levelo_inurba_marseille","lat":43.317075,"lon":5.377367,"is_reserved":false,"is_disabled":false,"rental_uris":{"android":"levelo://app?vid=9ae367b1-a4f3-47aa-ab3b-c8db2ef55fdd","ios":"levelo://app?vid=9ae367b1-a4f3-47aa-ab3b-c8db2ef55fdd"},"vehicle_type_id":"4","last_reported":1702177652,"current_range_meters":27600,"station_id":"ce4bgth2rcd13ifvqch0","pricing_plan_id":"free"},{"bike_id":"cf63ca16-724c-4922-b38a-e44c883d7d49","system_id":"levelo_inurba_marseille","lat":43.315338,"lon":5.380286,"is_reserved":false,"is_disabled":false,"rental_uris":{"android":"levelo://app?vid=cf63ca16-724c-4922-b38a-e44c883d7d49","ios":"levelo://app?vid=cf63ca16-724c-4922-b38a-e44c883d7d49"},"vehicle_type_id":"4","last_reported":1702177652,"current_range_meters":24000,"station_id":"ce4bhsp2rcd13ifvqi50","pricing_plan_id":"free"},{"bike_id":"658606a2-fcb3-4748-bb06-b205c527a749","system_id":"levelo_inurba_marseille","lat":43.31534,"lon":5.380297,"is_reserved":false,"is_disabled":false,"rental_uris":{"android":"levelo://app?vid=658606a2-fcb3-4748-bb06-b205c527a749","ios":"levelo://app?vid=658606a2-fcb3-4748-bb06-b205c527a749"},"vehicle_type_id":"4","last_reported":1702177652,"current_range_meters":8000,"station_id":"ce4bhsp2rcd13ifvqi50","pricing_plan_id":"free"},{"bike_id":"e226f3d9-7b34-42c6-8510-999f4bdae60d","system_id":"levelo_inurba_marseille","lat":43.304606,"lon":5.379026,"is_reserved":false,"is_disabled":false,"rental_uris":{"android":"levelo://app?vid=e226f3d9-7b34-42c6-8510-999f4bdae60d","ios":"levelo://app?vid=e226f3d9-7b34-42c6-8510-999f4bdae60d"},"vehicle_type_id":"4","last_reported":1702177652,"current_range_meters":20800,"station_id":"ce4bgup2rcd13ifvqcn0","pricing_plan_id":"free"},{"bike_id":"72cc15b3-7327-4232-9380-08226ebb199f","system_id":"levelo_inurba_marseille","lat":43.302784,"lon":5.377158,"is_reserved":false,"is_disabled":false,"rental_uris":{"android":"levelo://app?vid=72cc15b3-7327-4232-9380-08226ebb199f","ios":"levelo://app?vid=72cc15b3-7327-4232-9380-08226ebb199f"},"vehicle_type_id":"4","last_reported":1702177652,"current_range_meters":13200,"station_id":"ce4bguh2rcd13ifvqcj0","pricing_plan_id":"free"},{"bike_id":"e606102b-a630-4793-8c67-412e6b33c3ae","system_id":"levelo_inurba_marseille","lat":43.319935,"lon":5.381699,"is_reserved":false,"is_disabled":false,"rental_uris":{"android":"levelo://app?vid=e606102b-a630-4793-8c67-412e6b33c3ae","ios":"levelo://app?vid=e606102b-a630-4793-8c67-412e6b33c3ae"},"vehicle_type_id":"4","last_reported":1702177652,"current_range_meters":12000,"station_id":"ce4bhr12rcd13ifvqhpg","pricing_plan_id":"free"},{"bike_id":"d8be298e-f4c0-4479-a66b-e307c680d7cc","system_id":"levelo_inurba_marseille","lat":43.31356,"lon":5.38493,"is_reserved":false,"is_disabled":false,"rental_uris":{"android":"levelo://app?vid=d8be298e-f4c0-4479-a66b-e307c680d7cc","ios":"levelo://app?vid=d8be298e-f4c0-4479-a66b-e307c680d7cc"},"vehicle_type_id":"4","last_reported":1702177652,"current_range_meters":22000,"station_id":"ce4bgt92rcd13ifvqcf0","pricing_plan_id":"free"},{"bike_id":"c0a64277-f5dd-4691-8acb-5c084fb0cfac","system_id":"levelo_inurba_marseille","lat":43.298433,"lon":5.362774,"is_reserved":false,"is_disabled":false,"rental_uris":{"android":"levelo://app?vid=c0a64277-f5dd-4691-8acb-5c084fb0cfac","ios":"levelo://app?vid=c0a64277-f5dd-4691-8acb-5c084fb0cfac"},"vehicle_type_id":"4","last_reported":1702177652,"current_range_meters":26400,"station_id":"ce4bgpp2rcd13ifvqc3g","pricing_plan_id":"free"},{"bike_id":"bbd2ff55-b4eb-46c2-b1b1-11df9760b54b","system_id":"levelo_inurba_marseille","lat":43.31163,"lon":5.38712,"is_reserved":false,"is_disabled":false,"rental_uris":{"android":"levelo://app?vid=bbd2ff55-b4eb-46c2-b1b1-11df9760b54b","ios":"levelo://app?vid=bbd2ff55-b4eb-46c2-b1b1-11df9760b54b"},"vehicle_type_id":"4","last_reported":1702177652,"current_range_meters":6000,"station_id":"ce4bgv12rcd13ifvqcp0","pricing_plan_id":"free"},{"bike_id":"c60cbb7e-9382-450f-b819-5c2450f4f643","system_id":"levelo_inurba_marseille","lat":43.32286,"lon":5.38251,"is_reserved":false,"is_disabled":false,"rental_uris":{"android":"levelo://app?vid=c60cbb7e-9382-450f-b819-5c2450f4f643","ios":"levelo://app?vid=c60cbb7e-9382-450f-b819-5c2450f4f643"},"vehicle_type_id":"4","last_reported":1702177652,"current_range_meters":2800,"station_id":"ce4bhr12rcd13ifvqhqg","pricing_plan_id":"free"},{"bike_id":"0370f0dd-02e1-44c3-b626-7cdd11d7ffac","system_id":"levelo_inurba_marseille","lat":43.32287,"lon":5.38266,"is_reserved":false,"is_disabled":false,"rental_uris":{"android":"levelo://app?vid=0370f0dd-02e1-44c3-b626-7cdd11d7ffac","ios":"levelo://app?vid=0370f0dd-02e1-44c3-b626-7cdd11d7ffac"},"vehicle_type_id":"4","last_reported":1702177652,"current_range_meters":31200,"station_id":"ce4bhr12rcd13ifvqhqg","pricing_plan_id":"free"},{"bike_id":"6ac675f1-e0be-498c-ad2f-b742a949d4b0","system_id":"levelo_inurba_marseille","lat":43.298218,"lon":5.374416,"is_reserved":false,"is_disabled":false,"rental_uris":{"android":"levelo://app?vid=6ac675f1-e0be-498c-ad2f-b742a949d4b0","ios":"levelo://app?vid=6ac675f1-e0be-498c-ad2f-b742a949d4b0"},"vehicle_type_id":"4","last_reported":1702177652,"current_range_meters":0,"station_id":"","pricing_plan_id":"free"},{"bike_id":"616e8526-5b38-4994-9814-0ba76b59228f","system_id":"levelo_inurba_marseille","lat":43.2968,"lon":5.37291,"is_reserved":false,"is_disabled":false,"rental_uris":{"android":"levelo://app?vid=616e8526-5b38-4994-9814-0ba76b59228f","ios":"levelo://app?vid=616e8526-5b38-4994-9814-0ba76b59228f"},"vehicle_type_id":"4","last_reported":1702177652,"current_range_meters":29200,"station_id":"ce4bgk12rcd13ifvqbj0","pricing_plan_id":"free"},{"bike_id":"92dc65d6-6823-4de3-93d4-056f738f090c","system_id":"levelo_inurba_marseille","lat":43.316538,"lon":5.38954,"is_reserved":false,"is_disabled":false,"rental_uris":{"android":"levelo://app?vid=92dc65d6-6823-4de3-93d4-056f738f090c","ios":"levelo://app?vid=92dc65d6-6823-4de3-93d4-056f738f090c"},"vehicle_type_id":"4","last_reported":1702177652,"current_range_meters":0,"station_id":"","pricing_plan_id":"free"},{"bike_id":"5ae68c8f-83a2-432a-bfb9-a99d9d2cc866","system_id":"levelo_inurba_marseille","lat":43.309589,"lon":5.390258,"is_reserved":false,"is_disabled":false,"rental_uris":{"android":"levelo://app?vid=5ae68c8f-83a2-432a-bfb9-a99d9d2cc866","ios":"levelo://app?vid=5ae68c8f-83a2-432a-bfb9-a99d9d2cc866"},"vehicle_type_id":"4","last_reported":1702177652,"current_range_meters":22400,"station_id":"ce4bgup2rcd13ifvqco0","pricing_plan_id":"free"},{"bike_id":"35068c78-4c9e-4bdf-a34b-ce4185f83def","system_id":"levelo_inurba_marseille","lat":43.309589,"lon":5.390258,"is_reserved":false,"is_disabled":false,"rental_uris":{"android":"levelo://app?vid=35068c78-4c9e-4bdf-a34b-ce4185f83def","ios":"levelo://app?vid=35068c78-4c9e-4bdf-a34b-ce4185f83def"},"vehicle_type_id":"4","last_reported":1702177652,"current_range_meters":28400,"station_id":"ce4bgup2rcd13ifvqco0","pricing_plan_id":"free"},{"bike_id":"1391f894-b835-4388-a938-963d2b7904b8","system_id":"levelo_inurba_marseille","lat":43.317557,"lon":5.390173,"is_reserved":false,"is_disabled":false,"rental_uris":{"android":"levelo://app?vid=1391f894-b835-4388-a938-963d2b7904b8","ios":"levelo://app?vid=1391f894-b835-4388-a938-963d2b7904b8"},"vehicle_type_id":"4","last_reported":1702177652,"current_range_meters":29600,"station_id":"ce4bhqp2rcd13ifvqhng","pricing_plan_id":"free"},{"bike_id":"d69f04d9-84df-4f26-bc64-9f532752e790","system_id":"levelo_inurba_marseille","lat":43.317568,"lon":5.390198,"is_reserved":false,"is_disabled":false,"rental_uris":{"android":"levelo://app?vid=d69f04d9-84df-4f26-bc64-9f532752e790","ios":"levelo://app?vid=d69f04d9-84df-4f26-bc64-9f532752e790"},"vehicle_type_id":"4","last_reported":1702177652,"current_range_meters":7600,"station_id":"ce4bhqp2rcd13ifvqhng","pricing_plan_id":"free"},{"bike_id":"cba4b429-f726-4cdc-8cc7-5afb9171f120","system_id":"levelo_inurba_marseille","lat":43.32367,"lon":5.388836,"is_reserved":false,"is_disabled":false,"rental_uris":{"android":"levelo://app?vid=cba4b429-f726-4cdc-8cc7-5afb9171f120","ios":"levelo://app?vid=cba4b429-f726-4cdc-8cc7-5afb9171f120"},"vehicle_type_id":"4","last_reported":1702177652,"current_range_meters":11600,"station_id":"ce4bhqp2rcd13ifvqhog","pricing_plan_id":"free"},{"bike_id":"f7ad86a7-5cd8-4b78-a3df-0e0181042f18","system_id":"levelo_inurba_marseille","lat":43.305994,"lon":5.393687,"is_reserved":false,"is_disabled":false,"rental_uris":{"android":"levelo://app?vid=f7ad86a7-5cd8-4b78-a3df-0e0181042f18","ios":"levelo://app?vid=f7ad86a7-5cd8-4b78-a3df-0e0181042f18"},"vehicle_type_id":"4","last_reported":1702177652,"current_range_meters":29200,"station_id":"ce4bh0p2rcd13ifvqd80","pricing_plan_id":"free"},{"bike_id":"9ae1a00a-b4da-4f10-84cc-e0f2df85745c","system_id":"levelo_inurba_marseille","lat":43.305994,"lon":5.393687,"is_reserved":false,"is_disabled":false,"rental_uris":{"android":"levelo://app?vid=9ae1a00a-b4da-4f10-84cc-e0f2df85745c","ios":"levelo://app?vid=9ae1a00a-b4da-4f10-84cc-e0f2df85745c"},"vehicle_type_id":"4","last_reported":1702177652,"current_range_meters":20400,"station_id":"ce4bh0p2rcd13ifvqd80","pricing_plan_id":"free"},{"bike_id":"12254971-6f18-4736-91cb-f61b0de64a8a","system_id":"levelo_inurba_marseille","lat":43.292311,"lon":5.360731,"is_reserved":false,"is_disabled":false,"rental_uris":{"android":"levelo://app?vid=12254971-6f18-4736-91cb-f61b0de64a8a","ios":"levelo://app?vid=12254971-6f18-4736-91cb-f61b0de64a8a"},"vehicle_type_id":"4","last_reported":1702177652,"current_range_meters":26400,"station_id":"ce4bhbh2rcd13ifvqeqg","pricing_plan_id":"free"},{"bike_id":"fd25a0e6-bcdd-49be-ad78-d33a3f898c6f","system_id":"levelo_inurba_marseille","lat":43.292311,"lon":5.360731,"is_reserved":false,"is_disabled":false,"rental_uris":{"android":"levelo://app?vid=fd25a0e6-bcdd-49be-ad78-d33a3f898c6f","ios":"levelo://app?vid=fd25a0e6-bcdd-49be-ad78-d33a3f898c6f"},"vehicle_type_id":"4","last_reported":1702177652,"current_range_meters":11200,"station_id":"ce4bhbh2rcd13ifvqeqg","pricing_plan_id":"free"},{"bike_id":"ffe8e861-9583-46be-9da3-462d5c1037ee","system_id":"levelo_inurba_marseille","lat":43.29264,"lon":5.37614,"is_reserved":false,"is_disabled":false,"rental_uris":{"android":"levelo://app?vid=ffe8e861-9583-46be-9da3-462d5c1037ee","ios":"levelo://app?vid=ffe8e861-9583-46be-9da3-462d5c1037ee"},"vehicle_type_id":"4","last_reported":1702177652,"current_range_meters":8800,"station_id":"ce4bgi12rcd13ifvqb80","pricing_plan_id":"free"},{"bike_id":"5c79bc93-8f13-4c40-8a8c-8f35d3902245","system_id":"levelo_inurba_marseille","lat":43.332286,"lon":5.379824,"is_reserved":false,"is_disabled":false,"rental_uris":{"android":"levelo://app?vid=5c79bc93-8f13-4c40-8a8c-8f35d3902245","ios":"levelo://app?vid=5c79bc93-8f13-4c40-8a8c-8f35d3902245"},"vehicle_type_id":"4","last_reported":1702177652,"current_range_meters":12800,"station_id":"","pricing_plan_id":"free"},{"bike_id":"5ed66215-e812-4934-8bd8-05fa06e2778c","system_id":"levelo_inurba_marseille","lat":43.332415,"lon":5.379774,"is_reserved":false,"is_disabled":false,"rental_uris":{"android":"levelo://app?vid=5ed66215-e812-4934-8bd8-05fa06e2778c","ios":"levelo://app?vid=5ed66215-e812-4934-8bd8-05fa06e2778c"},"vehicle_type_id":"4","last_reported":1702177652,"current_range_meters":28000,"station_id":"","pricing_plan_id":"free"},{"bike_id":"8bc9351a-2a2e-42b3-a651-fd9226da845a","system_id":"levelo_inurba_marseille","lat":43.313291,"lon":5.396838,"is_reserved":false,"is_disabled":false,"rental_uris":{"android":"levelo://app?vid=8bc9351a-2a2e-42b3-a651-fd9226da845a","ios":"levelo://app?vid=8bc9351a-2a2e-42b3-a651-fd9226da845a"},"vehicle_type_id":"4","last_reported":1702177652,"current_range_meters":23600,"station_id":"ce4bgvp2rcd13ifvqcu0","pricing_plan_id":"free"},{"bike_id":"bb377e0c-b390-4041-a2ac-ca7c2a2c0dfe","system_id":"levelo_inurba_marseille","lat":43.291899,"lon":5.357984,"is_reserved":false,"is_disabled":false,"rental_uris":{"android":"levelo://app?vid=bb377e0c-b390-4041-a2ac-ca7c2a2c0dfe","ios":"levelo://app?vid=bb377e0c-b390-4041-a2ac-ca7c2a2c0dfe"},"vehicle_type_id":"4","last_reported":1702177652,"current_range_meters":14400,"station_id":"ce4bhb12rcd13ifvqel0","pricing_plan_id":"free"},{"bike_id":"401fe086-2828-4d63-bd6b-53603201f345","system_id":"levelo_inurba_marseille","lat":43.313291,"lon":5.396838,"is_reserved":false,"is_disabled":false,"rental_uris":{"android":"levelo://app?vid=401fe086-2828-4d63-bd6b-53603201f345","ios":"levelo://app?vid=401fe086-2828-4d63-bd6b-53603201f345"},"vehicle_type_id":"4","last_reported":1702177652,"current_range_meters":3200,"station_id":"ce4bgvp2rcd13ifvqcu0","pricing_plan_id":"free"},{"bike_id":"946c553e-df8f-4ce9-b6ae-027997ed4451","system_id":"levelo_inurba_marseille","lat":43.29187,"lon":5.35797,"is_reserved":false,"is_disabled":false,"rental_uris":{"android":"levelo://app?vid=946c553e-df8f-4ce9-b6ae-027997ed4451","ios":"levelo://app?vid=946c553e-df8f-4ce9-b6ae-027997ed4451"},"vehicle_type_id":"4","last_reported":1702177652,"current_range_meters":14400,"station_id":"ce4bhb12rcd13ifvqel0","pricing_plan_id":"free"},{"bike_id":"e5e1556d-54f6-4de3-a906-092c27b81b2d","system_id":"levelo_inurba_marseille","lat":43.309038,"lon":5.396546,"is_reserved":false,"is_disabled":false,"rental_uris":{"android":"levelo://app?vid=e5e1556d-54f6-4de3-a906-092c27b81b2d","ios":"levelo://app?vid=e5e1556d-54f6-4de3-a906-092c27b81b2d"},"vehicle_type_id":"4","last_reported":1702177652,"current_range_meters":31200,"station_id":"ce4bh012rcd13ifvqcv0","pricing_plan_id":"free"},{"bike_id":"c0630aab-3bb0-43d3-8b9d-674ab7344152","system_id":"levelo_inurba_marseille","lat":43.31323,"lon":5.3971,"is_reserved":false,"is_disabled":false,"rental_uris":{"android":"levelo://app?vid=c0630aab-3bb0-43d3-8b9d-674ab7344152","ios":"levelo://app?vid=c0630aab-3bb0-43d3-8b9d-674ab7344152"},"vehicle_type_id":"4","last_reported":1702177652,"current_range_meters":10400,"station_id":"ce4bgvp2rcd13ifvqcu0","pricing_plan_id":"free"},{"bike_id":"6e3c27cd-9053-4f06-bb91-1ec0711bfaeb","system_id":"levelo_inurba_marseille","lat":43.290779,"lon":5.371482,"is_reserved":false,"is_disabled":false,"rental_uris":{"android":"levelo://app?vid=6e3c27cd-9053-4f06-bb91-1ec0711bfaeb","ios":"levelo://app?vid=6e3c27cd-9053-4f06-bb91-1ec0711bfaeb"},"vehicle_type_id":"4","last_reported":1702177652,"current_range_meters":20800,"station_id":"ce4bh5p2rcd13ifvqe4g","pricing_plan_id":"free"},{"bike_id":"0d55287e-6324-4a21-96f1-2aa124f5d1a5","system_id":"levelo_inurba_marseille","lat":43.290161,"lon":5.375651,"is_reserved":false,"is_disabled":false,"rental_uris":{"android":"levelo://app?vid=0d55287e-6324-4a21-96f1-2aa124f5d1a5","ios":"levelo://app?vid=0d55287e-6324-4a21-96f1-2aa124f5d1a5"},"vehicle_type_id":"4","last_reported":1702177652,"current_range_meters":11200,"station_id":"","pricing_plan_id":"free"},{"bike_id":"a02a1b20-1fb1-4951-988a-77389649024d","system_id":"levelo_inurba_marseille","lat":43.289259,"lon":5.366364,"is_reserved":false,"is_disabled":false,"rental_uris":{"android":"levelo://app?vid=a02a1b20-1fb1-4951-988a-77389649024d","ios":"levelo://app?vid=a02a1b20-1fb1-4951-988a-77389649024d"},"vehicle_type_id":"4","last_reported":1702177652,"current_range_meters":10000,"station_id":"","pricing_plan_id":"free"},{"bike_id":"0f99708d-ff3f-4eba-a877-088abd3430ef","system_id":"levelo_inurba_marseille","lat":43.330455,"lon":5.38917,"is_reserved":false,"is_disabled":false,"rental_uris":{"android":"levelo://app?vid=0f99708d-ff3f-4eba-a877-088abd3430ef","ios":"levelo://app?vid=0f99708d-ff3f-4eba-a877-088abd3430ef"},"vehicle_type_id":"4","last_reported":1702177652,"current_range_meters":18000,"station_id":"ce4bhr92rcd13ifvqhrg","pricing_plan_id":"free"},{"bike_id":"4e6bb94b-0562-4e38-b4f7-169fcd0860a1","system_id":"levelo_inurba_marseille","lat":43.2901,"lon":5.381269,"is_reserved":false,"is_disabled":false,"rental_uris":{"android":"levelo://app?vid=4e6bb94b-0562-4e38-b4f7-169fcd0860a1","ios":"levelo://app?vid=4e6bb94b-0562-4e38-b4f7-169fcd0860a1"},"vehicle_type_id":"4","last_reported":1702177652,"current_range_meters":25600,"station_id":"ce4bh4p2rcd13ifvqe1g","pricing_plan_id":"free"},{"bike_id":"6fd881ef-fe4e-4790-8987-f4498052e126","system_id":"levelo_inurba_marseille","lat":43.30937,"lon":5.40141,"is_reserved":false,"is_disabled":false,"rental_uris":{"android":"levelo://app?vid=6fd881ef-fe4e-4790-8987-f4498052e126","ios":"levelo://app?vid=6fd881ef-fe4e-4790-8987-f4498052e126"},"vehicle_type_id":"4","last_reported":1702177652,"current_range_meters":27200,"station_id":"ce4bgvp2rcd13ifvqct0","pricing_plan_id":"free"},{"bike_id":"0fc0de32-7fe8-417e-ac6a-7a132a3f4627","system_id":"levelo_inurba_marseille","lat":43.309371,"lon":5.401449,"is_reserved":false,"is_disabled":false,"rental_uris":{"android":"levelo://app?vid=0fc0de32-7fe8-417e-ac6a-7a132a3f4627","ios":"levelo://app?vid=0fc0de32-7fe8-417e-ac6a-7a132a3f4627"},"vehicle_type_id":"4","last_reported":1702177652,"current_range_meters":15600,"station_id":"ce4bgvp2rcd13ifvqct0","pricing_plan_id":"free"},{"bike_id":"6bdf5736-d2e7-4812-ae5b-655b69deb87b","system_id":"levelo_inurba_marseille","lat":43.309371,"lon":5.401449,"is_reserved":false,"is_disabled":false,"rental_uris":{"android":"levelo://app?vid=6bdf5736-d2e7-4812-ae5b-655b69deb87b","ios":"levelo://app?vid=6bdf5736-d2e7-4812-ae5b-655b69deb87b"},"vehicle_type_id":"4","last_reported":1702177652,"current_range_meters":14000,"station_id":"ce4bgvp2rcd13ifvqct0","pricing_plan_id":"free"},{"bike_id":"40d0ad98-e7a3-4142-bb7f-75101f4c8a92","system_id":"levelo_inurba_marseille","lat":43.309371,"lon":5.401449,"is_reserved":false,"is_disabled":false,"rental_uris":{"android":"levelo://app?vid=40d0ad98-e7a3-4142-bb7f-75101f4c8a92","ios":"levelo://app?vid=40d0ad98-e7a3-4142-bb7f-75101f4c8a92"},"vehicle_type_id":"4","last_reported":1702177652,"current_range_meters":3200,"station_id":"ce4bgvp2rcd13ifvqct0","pricing_plan_id":"free"},{"bike_id":"c360b38a-bf33-4b8a-8ea4-d61e6f402605","system_id":"levelo_inurba_marseille","lat":43.309371,"lon":5.401449,"is_reserved":false,"is_disabled":false,"rental_uris":{"android":"levelo://app?vid=c360b38a-bf33-4b8a-8ea4-d61e6f402605","ios":"levelo://app?vid=c360b38a-bf33-4b8a-8ea4-d61e6f402605"},"vehicle_type_id":"4","last_reported":1702177652,"current_range_meters":18800,"station_id":"ce4bgvp2rcd13ifvqct0","pricing_plan_id":"free"},{"bike_id":"88bc11cb-ec8b-433e-8d01-0e6788e4a0a2","system_id":"levelo_inurba_marseille","lat":43.306412,"lon":5.401035,"is_reserved":false,"is_disabled":false,"rental_uris":{"android":"levelo://app?vid=88bc11cb-ec8b-433e-8d01-0e6788e4a0a2","ios":"levelo://app?vid=88bc11cb-ec8b-433e-8d01-0e6788e4a0a2"},"vehicle_type_id":"4","last_reported":1702177652,"current_range_meters":13600,"station_id":"ce4bh112rcd13ifvqda0","pricing_plan_id":"free"},{"bike_id":"7f74d568-daff-4519-a10f-98a82e5783d2","system_id":"levelo_inurba_marseille","lat":43.287145,"lon":5.363801,"is_reserved":false,"is_disabled":false,"rental_uris":{"android":"levelo://app?vid=7f74d568-daff-4519-a10f-98a82e5783d2","ios":"levelo://app?vid=7f74d568-daff-4519-a10f-98a82e5783d2"},"vehicle_type_id":"4","last_reported":1702177652,"current_range_meters":4400,"station_id":"","pricing_plan_id":"free"},{"bike_id":"4015c590-8b74-4dec-b47c-b86a2d5c5771","system_id":"levelo_inurba_marseille","lat":43.28727,"lon":5.36078,"is_reserved":false,"is_disabled":false,"rental_uris":{"android":"levelo://app?vid=4015c590-8b74-4dec-b47c-b86a2d5c5771","ios":"levelo://app?vid=4015c590-8b74-4dec-b47c-b86a2d5c5771"},"vehicle_type_id":"4","last_reported":1702177652,"current_range_meters":25200,"station_id":"cki0cbj6b192h4jlfktg","pricing_plan_id":"free"},{"bike_id":"207b7844-d80d-40a5-969e-f7e3836216cc","system_id":"levelo_inurba_marseille","lat":43.289307,"lon":5.38406,"is_reserved":false,"is_disabled":false,"rental_uris":{"android":"levelo://app?vid=207b7844-d80d-40a5-969e-f7e3836216cc","ios":"levelo://app?vid=207b7844-d80d-40a5-969e-f7e3836216cc"},"vehicle_type_id":"4","last_reported":1702177652,"current_range_meters":23200,"station_id":"ce4bh612rcd13ifvqe6g","pricing_plan_id":"free"},{"bike_id":"6f16da02-226d-48b3-86e8-c7238be41fbe","system_id":"levelo_inurba_marseille","lat":43.302759,"lon":5.400793,"is_reserved":false,"is_disabled":false,"rental_uris":{"android":"levelo://app?vid=6f16da02-226d-48b3-86e8-c7238be41fbe","ios":"levelo://app?vid=6f16da02-226d-48b3-86e8-c7238be41fbe"},"vehicle_type_id":"4","last_reported":1702177652,"current_range_meters":11200,"station_id":"ce4bgvh2rcd13ifvqcs0","pricing_plan_id":"free"},{"bike_id":"6d2f5aaa-02d9-4d62-900b-a02308fb1d1c","system_id":"levelo_inurba_marseille","lat":43.302759,"lon":5.400793,"is_reserved":false,"is_disabled":false,"rental_uris":{"android":"levelo://app?vid=6d2f5aaa-02d9-4d62-900b-a02308fb1d1c","ios":"levelo://app?vid=6d2f5aaa-02d9-4d62-900b-a02308fb1d1c"},"vehicle_type_id":"4","last_reported":1702177652,"current_range_meters":16000,"station_id":"ce4bgvh2rcd13ifvqcs0","pricing_plan_id":"free"},{"bike_id":"d3b94379-b2aa-4cd5-aebc-857639d65bbc","system_id":"levelo_inurba_marseille","lat":43.286039,"lon":5.370681,"is_reserved":false,"is_disabled":false,"rental_uris":{"android":"levelo://app?vid=d3b94379-b2aa-4cd5-aebc-857639d65bbc","ios":"levelo://app?vid=d3b94379-b2aa-4cd5-aebc-857639d65bbc"},"vehicle_type_id":"4","last_reported":1702177652,"current_range_meters":13200,"station_id":"ce4bht12rcd13ifvqi60","pricing_plan_id":"free"},{"bike_id":"2498862a-a85c-4163-a941-3b0655310e6b","system_id":"levelo_inurba_marseille","lat":43.31687,"lon":5.40472,"is_reserved":false,"is_disabled":false,"rental_uris":{"android":"levelo://app?vid=2498862a-a85c-4163-a941-3b0655310e6b","ios":"levelo://app?vid=2498862a-a85c-4163-a941-3b0655310e6b"},"vehicle_type_id":"4","last_reported":1702177652,"current_range_meters":7200,"station_id":"ce4bh012rcd13ifvqd00","pricing_plan_id":"free"},{"bike_id":"4d17a2bb-e4e6-45b2-a338-aa0f878f5bfb","system_id":"levelo_inurba_marseille","lat":43.284538,"lon":5.358657,"is_reserved":false,"is_disabled":false,"rental_uris":{"android":"levelo://app?vid=4d17a2bb-e4e6-45b2-a338-aa0f878f5bfb","ios":"levelo://app?vid=4d17a2bb-e4e6-45b2-a338-aa0f878f5bfb"},"vehicle_type_id":"4","last_reported":1702177652,"current_range_meters":17600,"station_id":"ce4bhah2rcd13ifvqei0","pricing_plan_id":"free"},{"bike_id":"24d4fc44-6b94-4dea-b54f-fd6a8c3678bb","system_id":"levelo_inurba_marseille","lat":43.284538,"lon":5.358657,"is_reserved":false,"is_disabled":false,"rental_uris":{"android":"levelo://app?vid=24d4fc44-6b94-4dea-b54f-fd6a8c3678bb","ios":"levelo://app?vid=24d4fc44-6b94-4dea-b54f-fd6a8c3678bb"},"vehicle_type_id":"4","last_reported":1702177652,"current_range_meters":11600,"station_id":"ce4bhah2rcd13ifvqei0","pricing_plan_id":"free"},{"bike_id":"8c426643-5820-4b72-ad7e-17694fdd482f","system_id":"levelo_inurba_marseille","lat":43.284538,"lon":5.358657,"is_reserved":false,"is_disabled":false,"rental_uris":{"android":"levelo://app?vid=8c426643-5820-4b72-ad7e-17694fdd482f","ios":"levelo://app?vid=8c426643-5820-4b72-ad7e-17694fdd482f"},"vehicle_type_id":"4","last_reported":1702177652,"current_range_meters":26400,"station_id":"ce4bhah2rcd13ifvqei0","pricing_plan_id":"free"},{"bike_id":"aca2608e-e86a-4577-94f0-a5c5e96261bb","system_id":"levelo_inurba_marseille","lat":43.294314,"lon":5.397498,"is_reserved":false,"is_disabled":false,"rental_uris":{"android":"levelo://app?vid=aca2608e-e86a-4577-94f0-a5c5e96261bb","ios":"levelo://app?vid=aca2608e-e86a-4577-94f0-a5c5e96261bb"},"vehicle_type_id":"4","last_reported":1702177652,"current_range_meters":29200,"station_id":"ce4bh3h2rcd13ifvqdo0","pricing_plan_id":"free"},{"bike_id":"0c6b54c4-aed4-42b6-a064-000fda1eea36","system_id":"levelo_inurba_marseille","lat":43.294314,"lon":5.397498,"is_reserved":false,"is_disabled":false,"rental_uris":{"android":"levelo://app?vid=0c6b54c4-aed4-42b6-a064-000fda1eea36","ios":"levelo://app?vid=0c6b54c4-aed4-42b6-a064-000fda1eea36"},"vehicle_type_id":"4","last_reported":1702177652,"current_range_meters":5600,"station_id":"ce4bh3h2rcd13ifvqdo0","pricing_plan_id":"free"},{"bike_id":"ed500275-818a-4865-8236-806f5101581a","system_id":"levelo_inurba_marseille","lat":43.284227,"lon":5.3751,"is_reserved":false,"is_disabled":false,"rental_uris":{"android":"levelo://app?vid=ed500275-818a-4865-8236-806f5101581a","ios":"levelo://app?vid=ed500275-818a-4865-8236-806f5101581a"},"vehicle_type_id":"4","last_reported":1702177652,"current_range_meters":16800,"station_id":"ce4bh412rcd13ifvqds0","pricing_plan_id":"free"},{"bike_id":"4da7061c-0a7d-407c-8ed7-5b8d45e64490","system_id":"levelo_inurba_marseille","lat":43.323464,"lon":5.406297,"is_reserved":false,"is_disabled":false,"rental_uris":{"android":"levelo://app?vid=4da7061c-0a7d-407c-8ed7-5b8d45e64490","ios":"levelo://app?vid=4da7061c-0a7d-407c-8ed7-5b8d45e64490"},"vehicle_type_id":"4","last_reported":1702177652,"current_range_meters":30400,"station_id":"ce4bhq92rcd13ifvqhjg","pricing_plan_id":"free"},{"bike_id":"06b3aba6-9d1c-4e37-9a84-95de7cc08875","system_id":"levelo_inurba_marseille","lat":43.323464,"lon":5.406297,"is_reserved":false,"is_disabled":false,"rental_uris":{"android":"levelo://app?vid=06b3aba6-9d1c-4e37-9a84-95de7cc08875","ios":"levelo://app?vid=06b3aba6-9d1c-4e37-9a84-95de7cc08875"},"vehicle_type_id":"4","last_reported":1702177652,"current_range_meters":30800,"station_id":"ce4bhq92rcd13ifvqhjg","pricing_plan_id":"free"},{"bike_id":"2e3f5d1b-7227-4fd1-a3be-fcff682e2738","system_id":"levelo_inurba_marseille","lat":43.323464,"lon":5.406297,"is_reserved":false,"is_disabled":false,"rental_uris":{"android":"levelo://app?vid=2e3f5d1b-7227-4fd1-a3be-fcff682e2738","ios":"levelo://app?vid=2e3f5d1b-7227-4fd1-a3be-fcff682e2738"},"vehicle_type_id":"4","last_reported":1702177652,"current_range_meters":31600,"station_id":"ce4bhq92rcd13ifvqhjg","pricing_plan_id":"free"},{"bike_id":"33d78b75-41af-4f7b-ad4a-0b93d22b7176","system_id":"levelo_inurba_marseille","lat":43.323464,"lon":5.406297,"is_reserved":false,"is_disabled":false,"rental_uris":{"android":"levelo://app?vid=33d78b75-41af-4f7b-ad4a-0b93d22b7176","ios":"levelo://app?vid=33d78b75-41af-4f7b-ad4a-0b93d22b7176"},"vehicle_type_id":"4","last_reported":1702177652,"current_range_meters":29200,"station_id":"ce4bhq92rcd13ifvqhjg","pricing_plan_id":"free"},{"bike_id":"e459c0a4-7239-43b8-969c-b16f831310e9","system_id":"levelo_inurba_marseille","lat":43.323464,"lon":5.406297,"is_reserved":false,"is_disabled":false,"rental_uris":{"android":"levelo://app?vid=e459c0a4-7239-43b8-969c-b16f831310e9","ios":"levelo://app?vid=e459c0a4-7239-43b8-969c-b16f831310e9"},"vehicle_type_id":"4","last_reported":1702177652,"current_range_meters":8800,"station_id":"ce4bhq92rcd13ifvqhjg","pricing_plan_id":"free"},{"bike_id":"b0d87cfe-42c0-4c3c-b2c4-5807d9abafa2","system_id":"levelo_inurba_marseille","lat":43.2849,"lon":5.38432,"is_reserved":false,"is_disabled":false,"rental_uris":{"android":"levelo://app?vid=b0d87cfe-42c0-4c3c-b2c4-5807d9abafa2","ios":"levelo://app?vid=b0d87cfe-42c0-4c3c-b2c4-5807d9abafa2"},"vehicle_type_id":"4","last_reported":1702177652,"current_range_meters":20400,"station_id":"ce4bh512rcd13ifvqe3g","pricing_plan_id":"free"},{"bike_id":"04ea0db6-64fe-489b-8130-dafd142542e4","system_id":"levelo_inurba_marseille","lat":43.284219,"lon":5.3497,"is_reserved":false,"is_disabled":false,"rental_uris":{"android":"levelo://app?vid=04ea0db6-64fe-489b-8130-dafd142542e4","ios":"levelo://app?vid=04ea0db6-64fe-489b-8130-dafd142542e4"},"vehicle_type_id":"4","last_reported":1702177652,"current_range_meters":11200,"station_id":"ce4bhbh2rcd13ifvqepg","pricing_plan_id":"free"},{"bike_id":"d5ac6c84-1024-4ae1-815a-2bf0370c3c74","system_id":"levelo_inurba_marseille","lat":43.283498,"lon":5.380948,"is_reserved":false,"is_disabled":false,"rental_uris":{"android":"levelo://app?vid=d5ac6c84-1024-4ae1-815a-2bf0370c3c74","ios":"levelo://app?vid=d5ac6c84-1024-4ae1-815a-2bf0370c3c74"},"vehicle_type_id":"4","last_reported":1702177652,"current_range_meters":31200,"station_id":"ce4bh412rcd13ifvqdr0","pricing_plan_id":"free"},{"bike_id":"9437c46d-ce81-4ac7-bff0-9f4ab14408ad","system_id":"levelo_inurba_marseille","lat":43.292724,"lon":5.401131,"is_reserved":false,"is_disabled":false,"rental_uris":{"android":"levelo://app?vid=9437c46d-ce81-4ac7-bff0-9f4ab14408ad","ios":"levelo://app?vid=9437c46d-ce81-4ac7-bff0-9f4ab14408ad"},"vehicle_type_id":"4","last_reported":1702177652,"current_range_meters":28400,"station_id":"ce4bh312rcd13ifvqdk0","pricing_plan_id":"free"},{"bike_id":"da7308ed-70f6-4eab-b9f3-027e03aa6c1f","system_id":"levelo_inurba_marseille","lat":43.282744,"lon":5.350533,"is_reserved":false,"is_disabled":false,"rental_uris":{"android":"levelo://app?vid=da7308ed-70f6-4eab-b9f3-027e03aa6c1f","ios":"levelo://app?vid=da7308ed-70f6-4eab-b9f3-027e03aa6c1f"},"vehicle_type_id":"4","last_reported":1702177652,"current_range_meters":7200,"station_id":"ce4bhbp2rcd13ifvqerg","pricing_plan_id":"free"},{"bike_id":"40f46808-15df-44b3-9d79-2cce369b2641","system_id":"levelo_inurba_marseille","lat":43.28573,"lon":5.394992,"is_reserved":false,"is_disabled":false,"rental_uris":{"android":"levelo://app?vid=40f46808-15df-44b3-9d79-2cce369b2641","ios":"levelo://app?vid=40f46808-15df-44b3-9d79-2cce369b2641"},"vehicle_type_id":"4","last_reported":1702177652,"current_range_meters":23600,"station_id":"ce4bh292rcd13ifvqdg0","pricing_plan_id":"free"},{"bike_id":"f95a19e9-7b32-49ce-a457-a2df8fc69118","system_id":"levelo_inurba_marseille","lat":43.304188,"lon":5.412904,"is_reserved":false,"is_disabled":false,"rental_uris":{"android":"levelo://app?vid=f95a19e9-7b32-49ce-a457-a2df8fc69118","ios":"levelo://app?vid=f95a19e9-7b32-49ce-a457-a2df8fc69118"},"vehicle_type_id":"4","last_reported":1702177652,"current_range_meters":5200,"station_id":"ce4bhop2rcd13ifvqh8g","pricing_plan_id":"free"},{"bike_id":"130f4392-f78a-4479-b25d-58a7d67aabe1","system_id":"levelo_inurba_marseille","lat":43.304188,"lon":5.412904,"is_reserved":false,"is_disabled":false,"rental_uris":{"android":"levelo://app?vid=130f4392-f78a-4479-b25d-58a7d67aabe1","ios":"levelo://app?vid=130f4392-f78a-4479-b25d-58a7d67aabe1"},"vehicle_type_id":"4","last_reported":1702177652,"current_range_meters":29600,"station_id":"ce4bhop2rcd13ifvqh8g","pricing_plan_id":"free"},{"bike_id":"31a033fb-76c1-4d90-acaa-e61f8f9e2008","system_id":"levelo_inurba_marseille","lat":43.304188,"lon":5.412904,"is_reserved":false,"is_disabled":false,"rental_uris":{"android":"levelo://app?vid=31a033fb-76c1-4d90-acaa-e61f8f9e2008","ios":"levelo://app?vid=31a033fb-76c1-4d90-acaa-e61f8f9e2008"},"vehicle_type_id":"4","last_reported":1702177652,"current_range_meters":25600,"station_id":"ce4bhop2rcd13ifvqh8g","pricing_plan_id":"free"},{"bike_id":"0bc1eb45-a665-44a3-8a8b-d748ef95b051","system_id":"levelo_inurba_marseille","lat":43.304188,"lon":5.412904,"is_reserved":false,"is_disabled":false,"rental_uris":{"android":"levelo://app?vid=0bc1eb45-a665-44a3-8a8b-d748ef95b051","ios":"levelo://app?vid=0bc1eb45-a665-44a3-8a8b-d748ef95b051"},"vehicle_type_id":"4","last_reported":1702177652,"current_range_meters":24800,"station_id":"ce4bhop2rcd13ifvqh8g","pricing_plan_id":"free"},{"bike_id":"6d5eea45-cfa3-42f4-87d0-d0eb8e3b495e","system_id":"levelo_inurba_marseille","lat":43.279087,"lon":5.380114,"is_reserved":false,"is_disabled":false,"rental_uris":{"android":"levelo://app?vid=6d5eea45-cfa3-42f4-87d0-d0eb8e3b495e","ios":"levelo://app?vid=6d5eea45-cfa3-42f4-87d0-d0eb8e3b495e"},"vehicle_type_id":"4","last_reported":1702177652,"current_range_meters":24800,"station_id":"ce4bhf92rcd13ifvqf50","pricing_plan_id":"free"},{"bike_id":"e13da240-b979-40a8-bced-c55269ed8fc1","system_id":"levelo_inurba_marseille","lat":43.279087,"lon":5.380114,"is_reserved":false,"is_disabled":false,"rental_uris":{"android":"levelo://app?vid=e13da240-b979-40a8-bced-c55269ed8fc1","ios":"levelo://app?vid=e13da240-b979-40a8-bced-c55269ed8fc1"},"vehicle_type_id":"4","last_reported":1702177652,"current_range_meters":30000,"station_id":"ce4bhf92rcd13ifvqf50","pricing_plan_id":"free"},{"bike_id":"f115866a-7c5e-4ad9-b62b-36d14d61cc48","system_id":"levelo_inurba_marseille","lat":43.287154,"lon":5.399979,"is_reserved":false,"is_disabled":false,"rental_uris":{"android":"levelo://app?vid=f115866a-7c5e-4ad9-b62b-36d14d61cc48","ios":"levelo://app?vid=f115866a-7c5e-4ad9-b62b-36d14d61cc48"},"vehicle_type_id":"4","last_reported":1702177652,"current_range_meters":24400,"station_id":"ce4bho92rcd13ifvqh3g","pricing_plan_id":"free"},{"bike_id":"94ca42a9-d3aa-4793-8712-33d871befd50","system_id":"levelo_inurba_marseille","lat":43.287154,"lon":5.399979,"is_reserved":false,"is_disabled":false,"rental_uris":{"android":"levelo://app?vid=94ca42a9-d3aa-4793-8712-33d871befd50","ios":"levelo://app?vid=94ca42a9-d3aa-4793-8712-33d871befd50"},"vehicle_type_id":"4","last_reported":1702177652,"current_range_meters":11600,"station_id":"ce4bho92rcd13ifvqh3g","pricing_plan_id":"free"},{"bike_id":"58f52f1b-f682-43f9-888f-474549184cf8","system_id":"levelo_inurba_marseille","lat":43.32215,"lon":5.41467,"is_reserved":false,"is_disabled":false,"rental_uris":{"android":"levelo://app?vid=58f52f1b-f682-43f9-888f-474549184cf8","ios":"levelo://app?vid=58f52f1b-f682-43f9-888f-474549184cf8"},"vehicle_type_id":"4","last_reported":1702177652,"current_range_meters":15200,"station_id":"","pricing_plan_id":"free"},{"bike_id":"9f21e0ed-d02b-4077-9b74-4c1a19846dba","system_id":"levelo_inurba_marseille","lat":43.320045,"lon":5.415046,"is_reserved":false,"is_disabled":false,"rental_uris":{"android":"levelo://app?vid=9f21e0ed-d02b-4077-9b74-4c1a19846dba","ios":"levelo://app?vid=9f21e0ed-d02b-4077-9b74-4c1a19846dba"},"vehicle_type_id":"4","last_reported":1702177652,"current_range_meters":28400,"station_id":"ce4bhq92rcd13ifvqhkg","pricing_plan_id":"free"},{"bike_id":"84520233-7c1d-425e-b28d-d323f0b15b3b","system_id":"levelo_inurba_marseille","lat":43.299579,"lon":5.413255,"is_reserved":false,"is_disabled":false,"rental_uris":{"android":"levelo://app?vid=84520233-7c1d-425e-b28d-d323f0b15b3b","ios":"levelo://app?vid=84520233-7c1d-425e-b28d-d323f0b15b3b"},"vehicle_type_id":"4","last_reported":1702177652,"current_range_meters":30000,"station_id":"ce4bhp12rcd13ifvqh9g","pricing_plan_id":"free"},{"bike_id":"1ae047ec-9761-4939-97fc-a17bf2fe6c47","system_id":"levelo_inurba_marseille","lat":43.320045,"lon":5.415046,"is_reserved":false,"is_disabled":false,"rental_uris":{"android":"levelo://app?vid=1ae047ec-9761-4939-97fc-a17bf2fe6c47","ios":"levelo://app?vid=1ae047ec-9761-4939-97fc-a17bf2fe6c47"},"vehicle_type_id":"4","last_reported":1702177652,"current_range_meters":30000,"station_id":"ce4bhq92rcd13ifvqhkg","pricing_plan_id":"free"},{"bike_id":"44c8100c-f6fa-4a5b-9224-234e6380e89c","system_id":"levelo_inurba_marseille","lat":43.320045,"lon":5.415048,"is_reserved":false,"is_disabled":false,"rental_uris":{"android":"levelo://app?vid=44c8100c-f6fa-4a5b-9224-234e6380e89c","ios":"levelo://app?vid=44c8100c-f6fa-4a5b-9224-234e6380e89c"},"vehicle_type_id":"4","last_reported":1702177652,"current_range_meters":27600,"station_id":"ce4bhq92rcd13ifvqhkg","pricing_plan_id":"free"},{"bike_id":"b6b5a374-b5cc-463c-8476-f747f6769864","system_id":"levelo_inurba_marseille","lat":43.292571,"lon":5.409107,"is_reserved":false,"is_disabled":false,"rental_uris":{"android":"levelo://app?vid=b6b5a374-b5cc-463c-8476-f747f6769864","ios":"levelo://app?vid=b6b5a374-b5cc-463c-8476-f747f6769864"},"vehicle_type_id":"4","last_reported":1702177652,"current_range_meters":29600,"station_id":"ce4bh192rcd13ifvqdc0","pricing_plan_id":"free"},{"bike_id":"4bfd864f-a596-4c56-9c2a-ab0fbb53783a","system_id":"levelo_inurba_marseille","lat":43.276179,"lon":5.361009,"is_reserved":false,"is_disabled":false,"rental_uris":{"android":"levelo://app?vid=4bfd864f-a596-4c56-9c2a-ab0fbb53783a","ios":"levelo://app?vid=4bfd864f-a596-4c56-9c2a-ab0fbb53783a"},"vehicle_type_id":"4","last_reported":1702177652,"current_range_meters":21600,"station_id":"ce4bgj92rcd13ifvqbe0","pricing_plan_id":"free"},{"bike_id":"60acf5ee-5101-4a63-9e84-8f1eb397caa4","system_id":"levelo_inurba_marseille","lat":43.325243,"lon":5.414326,"is_reserved":false,"is_disabled":false,"rental_uris":{"android":"levelo://app?vid=60acf5ee-5101-4a63-9e84-8f1eb397caa4","ios":"levelo://app?vid=60acf5ee-5101-4a63-9e84-8f1eb397caa4"},"vehicle_type_id":"4","last_reported":1702177652,"current_range_meters":24800,"station_id":"ce4bhq12rcd13ifvqhhg","pricing_plan_id":"free"},{"bike_id":"dfa92ed6-65e2-4d7b-afad-926463d2b88b","system_id":"levelo_inurba_marseille","lat":43.303837,"lon":5.418724,"is_reserved":false,"is_disabled":false,"rental_uris":{"android":"levelo://app?vid=dfa92ed6-65e2-4d7b-afad-926463d2b88b","ios":"levelo://app?vid=dfa92ed6-65e2-4d7b-afad-926463d2b88b"},"vehicle_type_id":"4","last_reported":1702177652,"current_range_meters":26400,"station_id":"ce4bhop2rcd13ifvqh7g","pricing_plan_id":"free"},{"bike_id":"1b3cd507-c4d1-401b-9b23-755b513551b2","system_id":"levelo_inurba_marseille","lat":43.275625,"lon":5.384392,"is_reserved":false,"is_disabled":false,"rental_uris":{"android":"levelo://app?vid=1b3cd507-c4d1-401b-9b23-755b513551b2","ios":"levelo://app?vid=1b3cd507-c4d1-401b-9b23-755b513551b2"},"vehicle_type_id":"4","last_reported":1702177652,"current_range_meters":31200,"station_id":"ce4bhh92rcd13ifvqfi0","pricing_plan_id":"free"},{"bike_id":"4796beb2-3a14-49b4-bf74-72347a2a8caf","system_id":"levelo_inurba_marseille","lat":43.27569,"lon":5.38421,"is_reserved":false,"is_disabled":false,"rental_uris":{"android":"levelo://app?vid=4796beb2-3a14-49b4-bf74-72347a2a8caf","ios":"levelo://app?vid=4796beb2-3a14-49b4-bf74-72347a2a8caf"},"vehicle_type_id":"4","last_reported":1702177652,"current_range_meters":0,"station_id":"ce4bhh92rcd13ifvqfi0","pricing_plan_id":"free"},{"bike_id":"b5de21ff-8c9e-4a08-9721-be2d2815cb4d","system_id":"levelo_inurba_marseille","lat":43.275625,"lon":5.384392,"is_reserved":false,"is_disabled":false,"rental_uris":{"android":"levelo://app?vid=b5de21ff-8c9e-4a08-9721-be2d2815cb4d","ios":"levelo://app?vid=b5de21ff-8c9e-4a08-9721-be2d2815cb4d"},"vehicle_type_id":"4","last_reported":1702177652,"current_range_meters":14800,"station_id":"ce4bhh92rcd13ifvqfi0","pricing_plan_id":"free"},{"bike_id":"ad64e0ff-8925-4e6a-b0db-751256cb562d","system_id":"levelo_inurba_marseille","lat":43.336148,"lon":5.410349,"is_reserved":false,"is_disabled":false,"rental_uris":{"android":"levelo://app?vid=ad64e0ff-8925-4e6a-b0db-751256cb562d","ios":"levelo://app?vid=ad64e0ff-8925-4e6a-b0db-751256cb562d"},"vehicle_type_id":"4","last_reported":1702177652,"current_range_meters":9200,"station_id":"ce4bhqh2rcd13ifvqhmg","pricing_plan_id":"free"},{"bike_id":"6653323c-ce52-45ab-b010-5e270f0c1b09","system_id":"levelo_inurba_marseille","lat":43.336148,"lon":5.410349,"is_reserved":false,"is_disabled":false,"rental_uris":{"android":"levelo://app?vid=6653323c-ce52-45ab-b010-5e270f0c1b09","ios":"levelo://app?vid=6653323c-ce52-45ab-b010-5e270f0c1b09"},"vehicle_type_id":"4","last_reported":1702177652,"current_range_meters":27200,"station_id":"ce4bhqh2rcd13ifvqhmg","pricing_plan_id":"free"},{"bike_id":"980ce821-5a5f-4dfb-a895-9c119d96e24a","system_id":"levelo_inurba_marseille","lat":43.336148,"lon":5.410349,"is_reserved":false,"is_disabled":false,"rental_uris":{"android":"levelo://app?vid=980ce821-5a5f-4dfb-a895-9c119d96e24a","ios":"levelo://app?vid=980ce821-5a5f-4dfb-a895-9c119d96e24a"},"vehicle_type_id":"4","last_reported":1702177652,"current_range_meters":28000,"station_id":"ce4bhqh2rcd13ifvqhmg","pricing_plan_id":"free"},{"bike_id":"88e59060-d458-48a8-8abe-8a1913097d92","system_id":"levelo_inurba_marseille","lat":43.317151,"lon":5.424007,"is_reserved":false,"is_disabled":false,"rental_uris":{"android":"levelo://app?vid=88e59060-d458-48a8-8abe-8a1913097d92","ios":"levelo://app?vid=88e59060-d458-48a8-8abe-8a1913097d92"},"vehicle_type_id":"4","last_reported":1702177652,"current_range_meters":22000,"station_id":"ce4bhp92rcd13ifvqhbg","pricing_plan_id":"free"},{"bike_id":"affb4f45-d821-4c0f-b637-138a01e9a1ab","system_id":"levelo_inurba_marseille","lat":43.310785,"lon":5.424305,"is_reserved":false,"is_disabled":false,"rental_uris":{"android":"levelo://app?vid=affb4f45-d821-4c0f-b637-138a01e9a1ab","ios":"levelo://app?vid=affb4f45-d821-4c0f-b637-138a01e9a1ab"},"vehicle_type_id":"4","last_reported":1702177652,"current_range_meters":8800,"station_id":"ce4bhp92rcd13ifvqhag","pricing_plan_id":"free"},{"bike_id":"02791883-a925-42a0-9dd3-b7193f6a574b","system_id":"levelo_inurba_marseille","lat":43.31713,"lon":5.42404,"is_reserved":false,"is_disabled":false,"rental_uris":{"android":"levelo://app?vid=02791883-a925-42a0-9dd3-b7193f6a574b","ios":"levelo://app?vid=02791883-a925-42a0-9dd3-b7193f6a574b"},"vehicle_type_id":"4","last_reported":1702177652,"current_range_meters":28400,"station_id":"ce4bhp92rcd13ifvqhbg","pricing_plan_id":"free"},{"bike_id":"e7bd1e73-4f86-473d-905c-a7b0f3d6ad8a","system_id":"levelo_inurba_marseille","lat":43.31723,"lon":5.42405,"is_reserved":false,"is_disabled":false,"rental_uris":{"android":"levelo://app?vid=e7bd1e73-4f86-473d-905c-a7b0f3d6ad8a","ios":"levelo://app?vid=e7bd1e73-4f86-473d-905c-a7b0f3d6ad8a"},"vehicle_type_id":"4","last_reported":1702177652,"current_range_meters":14800,"station_id":"ce4bhp92rcd13ifvqhbg","pricing_plan_id":"free"},{"bike_id":"80038031-3601-4c51-b66a-c6c9131d41d1","system_id":"levelo_inurba_marseille","lat":43.310785,"lon":5.424305,"is_reserved":false,"is_disabled":false,"rental_uris":{"android":"levelo://app?vid=80038031-3601-4c51-b66a-c6c9131d41d1","ios":"levelo://app?vid=80038031-3601-4c51-b66a-c6c9131d41d1"},"vehicle_type_id":"4","last_reported":1702177652,"current_range_meters":30400,"station_id":"ce4bhp92rcd13ifvqhag","pricing_plan_id":"free"},{"bike_id":"5e846a49-28a7-48fe-8d3c-0c53874a1a5b","system_id":"levelo_inurba_marseille","lat":43.340804,"lon":5.410219,"is_reserved":false,"is_disabled":false,"rental_uris":{"android":"levelo://app?vid=5e846a49-28a7-48fe-8d3c-0c53874a1a5b","ios":"levelo://app?vid=5e846a49-28a7-48fe-8d3c-0c53874a1a5b"},"vehicle_type_id":"4","last_reported":1702177652,"current_range_meters":12400,"station_id":"ce4bhqh2rcd13ifvqhlg","pricing_plan_id":"free"},{"bike_id":"12d9e6c5-8093-4626-a4c2-d964ff0400f8","system_id":"levelo_inurba_marseille","lat":43.340804,"lon":5.410219,"is_reserved":false,"is_disabled":false,"rental_uris":{"android":"levelo://app?vid=12d9e6c5-8093-4626-a4c2-d964ff0400f8","ios":"levelo://app?vid=12d9e6c5-8093-4626-a4c2-d964ff0400f8"},"vehicle_type_id":"4","last_reported":1702177652,"current_range_meters":20000,"station_id":"ce4bhqh2rcd13ifvqhlg","pricing_plan_id":"free"},{"bike_id":"63133364-316e-458e-b234-bbd4926c63fc","system_id":"levelo_inurba_marseille","lat":43.27583,"lon":5.39474,"is_reserved":false,"is_disabled":false,"rental_uris":{"android":"levelo://app?vid=63133364-316e-458e-b234-bbd4926c63fc","ios":"levelo://app?vid=63133364-316e-458e-b234-bbd4926c63fc"},"vehicle_type_id":"4","last_reported":1702177652,"current_range_meters":5200,"station_id":"","pricing_plan_id":"free"},{"bike_id":"8f021145-48f8-459b-aef0-f8921e18b0a0","system_id":"levelo_inurba_marseille","lat":43.27214,"lon":5.3925,"is_reserved":false,"is_disabled":false,"rental_uris":{"android":"levelo://app?vid=8f021145-48f8-459b-aef0-f8921e18b0a0","ios":"levelo://app?vid=8f021145-48f8-459b-aef0-f8921e18b0a0"},"vehicle_type_id":"4","last_reported":1702177652,"current_range_meters":0,"station_id":"","pricing_plan_id":"free"},{"bike_id":"f0ebddec-d6cc-4cea-9205-f0ce292b2962","system_id":"levelo_inurba_marseille","lat":43.278128,"lon":5.407195,"is_reserved":false,"is_disabled":false,"rental_uris":{"android":"levelo://app?vid=f0ebddec-d6cc-4cea-9205-f0ce292b2962","ios":"levelo://app?vid=f0ebddec-d6cc-4cea-9205-f0ce292b2962"},"vehicle_type_id":"4","last_reported":1702177652,"current_range_meters":26400,"station_id":"ce4bhnh2rcd13ifvqgtg","pricing_plan_id":"free"},{"bike_id":"7db036fd-cf02-4cff-98a0-94f05f5342bd","system_id":"levelo_inurba_marseille","lat":43.279441,"lon":5.410355,"is_reserved":false,"is_disabled":false,"rental_uris":{"android":"levelo://app?vid=7db036fd-cf02-4cff-98a0-94f05f5342bd","ios":"levelo://app?vid=7db036fd-cf02-4cff-98a0-94f05f5342bd"},"vehicle_type_id":"4","last_reported":1702177652,"current_range_meters":0,"station_id":"ce4bhnp2rcd13ifvqh0g","pricing_plan_id":"free"},{"bike_id":"19cc942f-ece9-40d3-8083-cccfba7fe5b1","system_id":"levelo_inurba_marseille","lat":43.279881,"lon":5.416579,"is_reserved":false,"is_disabled":false,"rental_uris":{"android":"levelo://app?vid=19cc942f-ece9-40d3-8083-cccfba7fe5b1","ios":"levelo://app?vid=19cc942f-ece9-40d3-8083-cccfba7fe5b1"},"vehicle_type_id":"4","last_reported":1702177652,"current_range_meters":800,"station_id":"ce4bho12rcd13ifvqh1g","pricing_plan_id":"free"},{"bike_id":"74945471-49c2-4e6d-a307-30ade296f3ca","system_id":"levelo_inurba_marseille","lat":43.26361,"lon":5.37539,"is_reserved":false,"is_disabled":false,"rental_uris":{"android":"levelo://app?vid=74945471-49c2-4e6d-a307-30ade296f3ca","ios":"levelo://app?vid=74945471-49c2-4e6d-a307-30ade296f3ca"},"vehicle_type_id":"4","last_reported":1702177652,"current_range_meters":12000,"station_id":"","pricing_plan_id":"free"},{"bike_id":"983ed045-1f7b-4579-b9d1-f93588aba3b1","system_id":"levelo_inurba_marseille","lat":43.308051,"lon":5.43527,"is_reserved":false,"is_disabled":false,"rental_uris":{"android":"levelo://app?vid=983ed045-1f7b-4579-b9d1-f93588aba3b1","ios":"levelo://app?vid=983ed045-1f7b-4579-b9d1-f93588aba3b1"},"vehicle_type_id":"4","last_reported":1702177652,"current_range_meters":28800,"station_id":"ce4bhph2rcd13ifvqheg","pricing_plan_id":"free"},{"bike_id":"dbacbb4a-9e99-4a7a-9713-43dac221ae4c","system_id":"levelo_inurba_marseille","lat":43.317104,"lon":5.436818,"is_reserved":false,"is_disabled":false,"rental_uris":{"android":"levelo://app?vid=dbacbb4a-9e99-4a7a-9713-43dac221ae4c","ios":"levelo://app?vid=dbacbb4a-9e99-4a7a-9713-43dac221ae4c"},"vehicle_type_id":"4","last_reported":1702177652,"current_range_meters":31200,"station_id":"ce4bhp92rcd13ifvqhcg","pricing_plan_id":"free"},{"bike_id":"6e4ef9a4-8ece-4932-b43b-b3a60d61a2ca","system_id":"levelo_inurba_marseille","lat":43.317104,"lon":5.436818,"is_reserved":false,"is_disabled":false,"rental_uris":{"android":"levelo://app?vid=6e4ef9a4-8ece-4932-b43b-b3a60d61a2ca","ios":"levelo://app?vid=6e4ef9a4-8ece-4932-b43b-b3a60d61a2ca"},"vehicle_type_id":"4","last_reported":1702177652,"current_range_meters":2400,"station_id":"ce4bhp92rcd13ifvqhcg","pricing_plan_id":"free"},{"bike_id":"e2a5fdfb-8206-4159-81d6-1ab96fe4d7e7","system_id":"levelo_inurba_marseille","lat":43.262012,"lon":5.379307,"is_reserved":false,"is_disabled":false,"rental_uris":{"android":"levelo://app?vid=e2a5fdfb-8206-4159-81d6-1ab96fe4d7e7","ios":"levelo://app?vid=e2a5fdfb-8206-4159-81d6-1ab96fe4d7e7"},"vehicle_type_id":"4","last_reported":1702177652,"current_range_meters":26800,"station_id":"ce4bhjp2rcd13ifvqg90","pricing_plan_id":"free"},{"bike_id":"d14fddf3-3638-41ff-a2e7-5c41cc7e7327","system_id":"levelo_inurba_marseille","lat":43.271368,"lon":5.40928,"is_reserved":false,"is_disabled":false,"rental_uris":{"android":"levelo://app?vid=d14fddf3-3638-41ff-a2e7-5c41cc7e7327","ios":"levelo://app?vid=d14fddf3-3638-41ff-a2e7-5c41cc7e7327"},"vehicle_type_id":"4","last_reported":1702177652,"current_range_meters":28000,"station_id":"ce4bhl12rcd13ifvqgf0","pricing_plan_id":"free"},{"bike_id":"3ef100ae-f89f-44f5-89e8-967b4acd17f5","system_id":"levelo_inurba_marseille","lat":43.26202,"lon":5.379299,"is_reserved":false,"is_disabled":false,"rental_uris":{"android":"levelo://app?vid=3ef100ae-f89f-44f5-89e8-967b4acd17f5","ios":"levelo://app?vid=3ef100ae-f89f-44f5-89e8-967b4acd17f5"},"vehicle_type_id":"4","last_reported":1702177652,"current_range_meters":27200,"station_id":"ce4bhjp2rcd13ifvqg90","pricing_plan_id":"free"},{"bike_id":"4f68f183-a711-4386-a731-e8ea8e2f115e","system_id":"levelo_inurba_marseille","lat":43.298768,"lon":5.43643,"is_reserved":false,"is_disabled":false,"rental_uris":{"android":"levelo://app?vid=4f68f183-a711-4386-a731-e8ea8e2f115e","ios":"levelo://app?vid=4f68f183-a711-4386-a731-e8ea8e2f115e"},"vehicle_type_id":"4","last_reported":1702177652,"current_range_meters":25600,"station_id":"ce4bhpp2rcd13ifvqhfg","pricing_plan_id":"free"},{"bike_id":"c4a32d8b-8a0b-4189-aa9f-2983a413dfe8","system_id":"levelo_inurba_marseille","lat":43.299007,"lon":5.436621,"is_reserved":false,"is_disabled":false,"rental_uris":{"android":"levelo://app?vid=c4a32d8b-8a0b-4189-aa9f-2983a413dfe8","ios":"levelo://app?vid=c4a32d8b-8a0b-4189-aa9f-2983a413dfe8"},"vehicle_type_id":"4","last_reported":1702177652,"current_range_meters":28000,"station_id":"ce4bhpp2rcd13ifvqhfg","pricing_plan_id":"free"},{"bike_id":"83e2018e-7127-4415-8bbf-2e347a9c6750","system_id":"levelo_inurba_marseille","lat":43.298946,"lon":5.436599,"is_reserved":false,"is_disabled":false,"rental_uris":{"android":"levelo://app?vid=83e2018e-7127-4415-8bbf-2e347a9c6750","ios":"levelo://app?vid=83e2018e-7127-4415-8bbf-2e347a9c6750"},"vehicle_type_id":"4","last_reported":1702177652,"current_range_meters":27200,"station_id":"ce4bhpp2rcd13ifvqhfg","pricing_plan_id":"free"},{"bike_id":"6b17b896-99f2-456b-929e-df3811eeb274","system_id":"levelo_inurba_marseille","lat":43.298768,"lon":5.43643,"is_reserved":false,"is_disabled":false,"rental_uris":{"android":"levelo://app?vid=6b17b896-99f2-456b-929e-df3811eeb274","ios":"levelo://app?vid=6b17b896-99f2-456b-929e-df3811eeb274"},"vehicle_type_id":"4","last_reported":1702177652,"current_range_meters":28000,"station_id":"ce4bhpp2rcd13ifvqhfg","pricing_plan_id":"free"},{"bike_id":"5f2d3882-2773-4d5c-828c-4c3c96bb97f7","system_id":"levelo_inurba_marseille","lat":43.298768,"lon":5.43643,"is_reserved":false,"is_disabled":false,"rental_uris":{"android":"levelo://app?vid=5f2d3882-2773-4d5c-828c-4c3c96bb97f7","ios":"levelo://app?vid=5f2d3882-2773-4d5c-828c-4c3c96bb97f7"},"vehicle_type_id":"4","last_reported":1702177652,"current_range_meters":30400,"station_id":"ce4bhpp2rcd13ifvqhfg","pricing_plan_id":"free"},{"bike_id":"70c52fa1-91be-4fbd-9217-7a0c668f9310","system_id":"levelo_inurba_marseille","lat":43.298997,"lon":5.43665,"is_reserved":false,"is_disabled":false,"rental_uris":{"android":"levelo://app?vid=70c52fa1-91be-4fbd-9217-7a0c668f9310","ios":"levelo://app?vid=70c52fa1-91be-4fbd-9217-7a0c668f9310"},"vehicle_type_id":"4","last_reported":1702177652,"current_range_meters":22800,"station_id":"ce4bhpp2rcd13ifvqhfg","pricing_plan_id":"free"},{"bike_id":"571189d9-1aa6-4660-b785-d8f0d693eb50","system_id":"levelo_inurba_marseille","lat":43.281548,"lon":5.42643,"is_reserved":false,"is_disabled":false,"rental_uris":{"android":"levelo://app?vid=571189d9-1aa6-4660-b785-d8f0d693eb50","ios":"levelo://app?vid=571189d9-1aa6-4660-b785-d8f0d693eb50"},"vehicle_type_id":"4","last_reported":1702177652,"current_range_meters":28000,"station_id":"ce4bhnh2rcd13ifvqgug","pricing_plan_id":"free"},{"bike_id":"ced98caa-8305-48e5-ae90-b812f3200f31","system_id":"levelo_inurba_marseille","lat":43.281548,"lon":5.42643,"is_reserved":false,"is_disabled":false,"rental_uris":{"android":"levelo://app?vid=ced98caa-8305-48e5-ae90-b812f3200f31","ios":"levelo://app?vid=ced98caa-8305-48e5-ae90-b812f3200f31"},"vehicle_type_id":"4","last_reported":1702177652,"current_range_meters":26800,"station_id":"ce4bhnh2rcd13ifvqgug","pricing_plan_id":"free"},{"bike_id":"ae2ee4ec-e0be-4650-a25d-ad306c6973d5","system_id":"levelo_inurba_marseille","lat":43.281548,"lon":5.42643,"is_reserved":false,"is_disabled":false,"rental_uris":{"android":"levelo://app?vid=ae2ee4ec-e0be-4650-a25d-ad306c6973d5","ios":"levelo://app?vid=ae2ee4ec-e0be-4650-a25d-ad306c6973d5"},"vehicle_type_id":"4","last_reported":1702177652,"current_range_meters":27600,"station_id":"ce4bhnh2rcd13ifvqgug","pricing_plan_id":"free"},{"bike_id":"c03e7c65-94ee-4f51-bb31-7322ab7baa32","system_id":"levelo_inurba_marseille","lat":43.281548,"lon":5.42643,"is_reserved":false,"is_disabled":false,"rental_uris":{"android":"levelo://app?vid=c03e7c65-94ee-4f51-bb31-7322ab7baa32","ios":"levelo://app?vid=c03e7c65-94ee-4f51-bb31-7322ab7baa32"},"vehicle_type_id":"4","last_reported":1702177652,"current_range_meters":0,"station_id":"ce4bhnh2rcd13ifvqgug","pricing_plan_id":"free"},{"bike_id":"971d63c2-83dd-41d1-be29-18106b6fda3e","system_id":"levelo_inurba_marseille","lat":43.281548,"lon":5.42643,"is_reserved":false,"is_disabled":false,"rental_uris":{"android":"levelo://app?vid=971d63c2-83dd-41d1-be29-18106b6fda3e","ios":"levelo://app?vid=971d63c2-83dd-41d1-be29-18106b6fda3e"},"vehicle_type_id":"4","last_reported":1702177652,"current_range_meters":4800,"station_id":"ce4bhnh2rcd13ifvqgug","pricing_plan_id":"free"},{"bike_id":"5525a139-c8f9-4163-ad42-51992063b245","system_id":"levelo_inurba_marseille","lat":43.281548,"lon":5.42643,"is_reserved":false,"is_disabled":false,"rental_uris":{"android":"levelo://app?vid=5525a139-c8f9-4163-ad42-51992063b245","ios":"levelo://app?vid=5525a139-c8f9-4163-ad42-51992063b245"},"vehicle_type_id":"4","last_reported":1702177652,"current_range_meters":22800,"station_id":"ce4bhnh2rcd13ifvqgug","pricing_plan_id":"free"},{"bike_id":"a7b35256-5fbf-430f-9cf0-9272f7f5b3c7","system_id":"levelo_inurba_marseille","lat":43.281548,"lon":5.42643,"is_reserved":false,"is_disabled":false,"rental_uris":{"android":"levelo://app?vid=a7b35256-5fbf-430f-9cf0-9272f7f5b3c7","ios":"levelo://app?vid=a7b35256-5fbf-430f-9cf0-9272f7f5b3c7"},"vehicle_type_id":"4","last_reported":1702177652,"current_range_meters":6400,"station_id":"ce4bhnh2rcd13ifvqgug","pricing_plan_id":"free"},{"bike_id":"139a27c7-f3ae-47e4-b585-f0759b6ba5b6","system_id":"levelo_inurba_marseille","lat":43.281548,"lon":5.42643,"is_reserved":false,"is_disabled":false,"rental_uris":{"android":"levelo://app?vid=139a27c7-f3ae-47e4-b585-f0759b6ba5b6","ios":"levelo://app?vid=139a27c7-f3ae-47e4-b585-f0759b6ba5b6"},"vehicle_type_id":"4","last_reported":1702177652,"current_range_meters":21200,"station_id":"ce4bhnh2rcd13ifvqgug","pricing_plan_id":"free"},{"bike_id":"b9063a33-13b5-4cca-826c-3f51be03f8ec","system_id":"levelo_inurba_marseille","lat":43.281548,"lon":5.42643,"is_reserved":false,"is_disabled":false,"rental_uris":{"android":"levelo://app?vid=b9063a33-13b5-4cca-826c-3f51be03f8ec","ios":"levelo://app?vid=b9063a33-13b5-4cca-826c-3f51be03f8ec"},"vehicle_type_id":"4","last_reported":1702177652,"current_range_meters":31200,"station_id":"ce4bhnh2rcd13ifvqgug","pricing_plan_id":"free"},{"bike_id":"8381b6c0-a970-418d-b394-9f8eb4bf2cb5","system_id":"levelo_inurba_marseille","lat":43.281548,"lon":5.42643,"is_reserved":false,"is_disabled":false,"rental_uris":{"android":"levelo://app?vid=8381b6c0-a970-418d-b394-9f8eb4bf2cb5","ios":"levelo://app?vid=8381b6c0-a970-418d-b394-9f8eb4bf2cb5"},"vehicle_type_id":"4","last_reported":1702177652,"current_range_meters":13600,"station_id":"ce4bhnh2rcd13ifvqgug","pricing_plan_id":"free"},{"bike_id":"0341a2e7-04a4-4d8e-b96d-44e5882da047","system_id":"levelo_inurba_marseille","lat":43.275028,"lon":5.424534,"is_reserved":false,"is_disabled":false,"rental_uris":{"android":"levelo://app?vid=0341a2e7-04a4-4d8e-b96d-44e5882da047","ios":"levelo://app?vid=0341a2e7-04a4-4d8e-b96d-44e5882da047"},"vehicle_type_id":"4","last_reported":1702177652,"current_range_meters":27600,"station_id":"ce4bhn92rcd13ifvqgrg","pricing_plan_id":"free"},{"bike_id":"71e4f32e-ccb2-4c9d-ad16-d9b4cb1405d0","system_id":"levelo_inurba_marseille","lat":43.254947,"lon":5.376454,"is_reserved":false,"is_disabled":false,"rental_uris":{"android":"levelo://app?vid=71e4f32e-ccb2-4c9d-ad16-d9b4cb1405d0","ios":"levelo://app?vid=71e4f32e-ccb2-4c9d-ad16-d9b4cb1405d0"},"vehicle_type_id":"4","last_reported":1702177652,"current_range_meters":16400,"station_id":"ce4bhh12rcd13ifvqff0","pricing_plan_id":"free"},{"bike_id":"9403a47c-9166-4906-a009-e96cb999ffef","system_id":"levelo_inurba_marseille","lat":43.254947,"lon":5.376454,"is_reserved":false,"is_disabled":false,"rental_uris":{"android":"levelo://app?vid=9403a47c-9166-4906-a009-e96cb999ffef","ios":"levelo://app?vid=9403a47c-9166-4906-a009-e96cb999ffef"},"vehicle_type_id":"4","last_reported":1702177652,"current_range_meters":21200,"station_id":"ce4bhh12rcd13ifvqff0","pricing_plan_id":"free"},{"bike_id":"46488328-c339-4346-9280-ec5f809f328b","system_id":"levelo_inurba_marseille","lat":43.270721,"lon":5.422764,"is_reserved":false,"is_disabled":false,"rental_uris":{"android":"levelo://app?vid=46488328-c339-4346-9280-ec5f809f328b","ios":"levelo://app?vid=46488328-c339-4346-9280-ec5f809f328b"},"vehicle_type_id":"4","last_reported":1702177652,"current_range_meters":22000,"station_id":"ce4bhk92rcd13ifvqgb0","pricing_plan_id":"free"},{"bike_id":"d7389dfc-e0b8-468d-9cf6-2db040fd468b","system_id":"levelo_inurba_marseille","lat":43.258658,"lon":5.398935,"is_reserved":false,"is_disabled":false,"rental_uris":{"android":"levelo://app?vid=d7389dfc-e0b8-468d-9cf6-2db040fd468b","ios":"levelo://app?vid=d7389dfc-e0b8-468d-9cf6-2db040fd468b"},"vehicle_type_id":"4","last_reported":1702177652,"current_range_meters":27200,"station_id":"ce4bhl92rcd13ifvqghg","pricing_plan_id":"free"},{"bike_id":"84d2787f-fa52-48db-8cc7-7da61e6dd23e","system_id":"levelo_inurba_marseille","lat":43.257079,"lon":5.411051,"is_reserved":false,"is_disabled":false,"rental_uris":{"android":"levelo://app?vid=84d2787f-fa52-48db-8cc7-7da61e6dd23e","ios":"levelo://app?vid=84d2787f-fa52-48db-8cc7-7da61e6dd23e"},"vehicle_type_id":"4","last_reported":1702177652,"current_range_meters":30000,"station_id":"ce4bhkp2rcd13ifvqgd0","pricing_plan_id":"free"},{"bike_id":"ec7e0f25-2b57-406c-9174-5c941d354982","system_id":"levelo_inurba_marseille","lat":43.250009,"lon":5.389195,"is_reserved":false,"is_disabled":false,"rental_uris":{"android":"levelo://app?vid=ec7e0f25-2b57-406c-9174-5c941d354982","ios":"levelo://app?vid=ec7e0f25-2b57-406c-9174-5c941d354982"},"vehicle_type_id":"4","last_reported":1702177652,"current_range_meters":26800,"station_id":"ce4bhgp2rcd13ifvqfd0","pricing_plan_id":"free"},{"bike_id":"deeabba4-3efb-4ead-8f41-4e9c61bc0f7c","system_id":"levelo_inurba_marseille","lat":43.250023,"lon":5.38919,"is_reserved":false,"is_disabled":false,"rental_uris":{"android":"levelo://app?vid=deeabba4-3efb-4ead-8f41-4e9c61bc0f7c","ios":"levelo://app?vid=deeabba4-3efb-4ead-8f41-4e9c61bc0f7c"},"vehicle_type_id":"4","last_reported":1702177652,"current_range_meters":25600,"station_id":"ce4bhgp2rcd13ifvqfd0","pricing_plan_id":"free"},{"bike_id":"b6576ee4-2f7f-4310-b857-13c49295b39e","system_id":"levelo_inurba_marseille","lat":43.2479,"lon":5.374457,"is_reserved":false,"is_disabled":false,"rental_uris":{"android":"levelo://app?vid=b6576ee4-2f7f-4310-b857-13c49295b39e","ios":"levelo://app?vid=b6576ee4-2f7f-4310-b857-13c49295b39e"},"vehicle_type_id":"4","last_reported":1702177652,"current_range_meters":30000,"station_id":"ce4bhgh2rcd13ifvqfb0","pricing_plan_id":"free"},{"bike_id":"1ce69da6-03d1-4d60-a985-a8a09de81e79","system_id":"levelo_inurba_marseille","lat":43.250966,"lon":5.395186,"is_reserved":false,"is_disabled":false,"rental_uris":{"android":"levelo://app?vid=1ce69da6-03d1-4d60-a985-a8a09de81e79","ios":"levelo://app?vid=1ce69da6-03d1-4d60-a985-a8a09de81e79"},"vehicle_type_id":"4","last_reported":1702177652,"current_range_meters":31200,"station_id":"ce4bhm12rcd13ifvqgkg","pricing_plan_id":"free"},{"bike_id":"b04c5ddf-1555-4c24-b09f-1ae76a9a84c9","system_id":"levelo_inurba_marseille","lat":43.250966,"lon":5.395186,"is_reserved":false,"is_disabled":false,"rental_uris":{"android":"levelo://app?vid=b04c5ddf-1555-4c24-b09f-1ae76a9a84c9","ios":"levelo://app?vid=b04c5ddf-1555-4c24-b09f-1ae76a9a84c9"},"vehicle_type_id":"4","last_reported":1702177652,"current_range_meters":24400,"station_id":"ce4bhm12rcd13ifvqgkg","pricing_plan_id":"free"},{"bike_id":"89f6b9c7-2e47-467d-a5da-27592e88272c","system_id":"levelo_inurba_marseille","lat":43.250966,"lon":5.395186,"is_reserved":false,"is_disabled":false,"rental_uris":{"android":"levelo://app?vid=89f6b9c7-2e47-467d-a5da-27592e88272c","ios":"levelo://app?vid=89f6b9c7-2e47-467d-a5da-27592e88272c"},"vehicle_type_id":"4","last_reported":1702177652,"current_range_meters":31600,"station_id":"ce4bhm12rcd13ifvqgkg","pricing_plan_id":"free"},{"bike_id":"b22231f4-482d-4c32-aebb-e689c78d98cc","system_id":"levelo_inurba_marseille","lat":43.24693,"lon":5.382096,"is_reserved":false,"is_disabled":false,"rental_uris":{"android":"levelo://app?vid=b22231f4-482d-4c32-aebb-e689c78d98cc","ios":"levelo://app?vid=b22231f4-482d-4c32-aebb-e689c78d98cc"},"vehicle_type_id":"4","last_reported":1702177652,"current_range_meters":20400,"station_id":"ce4bhih2rcd13ifvqfr0","pricing_plan_id":"free"},{"bike_id":"4882b1c8-26d4-4074-9b4b-03dee7457e5d","system_id":"levelo_inurba_marseille","lat":43.24693,"lon":5.382096,"is_reserved":false,"is_disabled":false,"rental_uris":{"android":"levelo://app?vid=4882b1c8-26d4-4074-9b4b-03dee7457e5d","ios":"levelo://app?vid=4882b1c8-26d4-4074-9b4b-03dee7457e5d"},"vehicle_type_id":"4","last_reported":1702177652,"current_range_meters":26800,"station_id":"ce4bhih2rcd13ifvqfr0","pricing_plan_id":"free"},{"bike_id":"312e2cea-f904-48a8-b935-fb3c2c38e35f","system_id":"levelo_inurba_marseille","lat":43.24664,"lon":5.381696,"is_reserved":false,"is_disabled":false,"rental_uris":{"android":"levelo://app?vid=312e2cea-f904-48a8-b935-fb3c2c38e35f","ios":"levelo://app?vid=312e2cea-f904-48a8-b935-fb3c2c38e35f"},"vehicle_type_id":"4","last_reported":1702177652,"current_range_meters":18400,"station_id":"ce4bhih2rcd13ifvqfr0","pricing_plan_id":"free"},{"bike_id":"a8920d8d-5ea0-4643-b10d-8e8ab5bf009a","system_id":"levelo_inurba_marseille","lat":43.24693,"lon":5.382096,"is_reserved":false,"is_disabled":false,"rental_uris":{"android":"levelo://app?vid=a8920d8d-5ea0-4643-b10d-8e8ab5bf009a","ios":"levelo://app?vid=a8920d8d-5ea0-4643-b10d-8e8ab5bf009a"},"vehicle_type_id":"4","last_reported":1702177652,"current_range_meters":0,"station_id":"ce4bhih2rcd13ifvqfr0","pricing_plan_id":"free"},{"bike_id":"90a88fa8-bad0-4c1d-b3c8-2c6a6034040d","system_id":"levelo_inurba_marseille","lat":43.24693,"lon":5.382096,"is_reserved":false,"is_disabled":false,"rental_uris":{"android":"levelo://app?vid=90a88fa8-bad0-4c1d-b3c8-2c6a6034040d","ios":"levelo://app?vid=90a88fa8-bad0-4c1d-b3c8-2c6a6034040d"},"vehicle_type_id":"4","last_reported":1702177652,"current_range_meters":28400,"station_id":"ce4bhih2rcd13ifvqfr0","pricing_plan_id":"free"},{"bike_id":"3f2977c7-2d3e-4b05-813b-c8cad00b1d30","system_id":"levelo_inurba_marseille","lat":43.25102,"lon":5.403214,"is_reserved":false,"is_disabled":false,"rental_uris":{"android":"levelo://app?vid=3f2977c7-2d3e-4b05-813b-c8cad00b1d30","ios":"levelo://app?vid=3f2977c7-2d3e-4b05-813b-c8cad00b1d30"},"vehicle_type_id":"4","last_reported":1702177652,"current_range_meters":4800,"station_id":"ce4bhlh2rcd13ifvqgig","pricing_plan_id":"free"},{"bike_id":"0d1213a3-e784-41d4-aebb-4f491d90bbd2","system_id":"levelo_inurba_marseille","lat":43.25112,"lon":5.40323,"is_reserved":false,"is_disabled":false,"rental_uris":{"android":"levelo://app?vid=0d1213a3-e784-41d4-aebb-4f491d90bbd2","ios":"levelo://app?vid=0d1213a3-e784-41d4-aebb-4f491d90bbd2"},"vehicle_type_id":"4","last_reported":1702177652,"current_range_meters":22000,"station_id":"ce4bhlh2rcd13ifvqgig","pricing_plan_id":"free"},{"bike_id":"9dc6e68a-3233-4e75-b32d-e08b4c53470d","system_id":"levelo_inurba_marseille","lat":43.25109,"lon":5.40324,"is_reserved":false,"is_disabled":false,"rental_uris":{"android":"levelo://app?vid=9dc6e68a-3233-4e75-b32d-e08b4c53470d","ios":"levelo://app?vid=9dc6e68a-3233-4e75-b32d-e08b4c53470d"},"vehicle_type_id":"4","last_reported":1702177652,"current_range_meters":18800,"station_id":"ce4bhlh2rcd13ifvqgig","pricing_plan_id":"free"},{"bike_id":"d608bd2a-1e64-45d8-8604-2f7a0c32cafc","system_id":"levelo_inurba_marseille","lat":43.25105,"lon":5.40322,"is_reserved":false,"is_disabled":false,"rental_uris":{"android":"levelo://app?vid=d608bd2a-1e64-45d8-8604-2f7a0c32cafc","ios":"levelo://app?vid=d608bd2a-1e64-45d8-8604-2f7a0c32cafc"},"vehicle_type_id":"4","last_reported":1702177652,"current_range_meters":19200,"station_id":"ce4bhlh2rcd13ifvqgig","pricing_plan_id":"free"},{"bike_id":"1a23636c-273b-427e-ba3a-4cc57a24dce9","system_id":"levelo_inurba_marseille","lat":43.246467,"lon":5.388984,"is_reserved":false,"is_disabled":false,"rental_uris":{"android":"levelo://app?vid=1a23636c-273b-427e-ba3a-4cc57a24dce9","ios":"levelo://app?vid=1a23636c-273b-427e-ba3a-4cc57a24dce9"},"vehicle_type_id":"4","last_reported":1702177652,"current_range_meters":27200,"station_id":"ce4bhg12rcd13ifvqf60","pricing_plan_id":"free"},{"bike_id":"d66641e6-78f2-4e47-8b40-cd8655dd05c7","system_id":"levelo_inurba_marseille","lat":43.243884,"lon":5.370737,"is_reserved":false,"is_disabled":false,"rental_uris":{"android":"levelo://app?vid=d66641e6-78f2-4e47-8b40-cd8655dd05c7","ios":"levelo://app?vid=d66641e6-78f2-4e47-8b40-cd8655dd05c7"},"vehicle_type_id":"4","last_reported":1702177652,"current_range_meters":26000,"station_id":"ce4bhhh2rcd13ifvqfk0","pricing_plan_id":"free"},{"bike_id":"295b22b4-f231-4e9b-9581-6c371b8c9254","system_id":"levelo_inurba_marseille","lat":43.240623,"lon":5.377642,"is_reserved":false,"is_disabled":false,"rental_uris":{"android":"levelo://app?vid=295b22b4-f231-4e9b-9581-6c371b8c9254","ios":"levelo://app?vid=295b22b4-f231-4e9b-9581-6c371b8c9254"},"vehicle_type_id":"4","last_reported":1702177652,"current_range_meters":8800,"station_id":"ce4bhnp2rcd13ifvqgvg","pricing_plan_id":"free"},{"bike_id":"4957a337-3ca2-4e57-9d2b-f7ca1f659f14","system_id":"levelo_inurba_marseille","lat":43.240618,"lon":5.377636,"is_reserved":false,"is_disabled":false,"rental_uris":{"android":"levelo://app?vid=4957a337-3ca2-4e57-9d2b-f7ca1f659f14","ios":"levelo://app?vid=4957a337-3ca2-4e57-9d2b-f7ca1f659f14"},"vehicle_type_id":"4","last_reported":1702177652,"current_range_meters":14400,"station_id":"ce4bhnp2rcd13ifvqgvg","pricing_plan_id":"free"},{"bike_id":"aca0fc38-4f98-40a3-af99-c4a472034476","system_id":"levelo_inurba_marseille","lat":43.240623,"lon":5.377642,"is_reserved":false,"is_disabled":false,"rental_uris":{"android":"levelo://app?vid=aca0fc38-4f98-40a3-af99-c4a472034476","ios":"levelo://app?vid=aca0fc38-4f98-40a3-af99-c4a472034476"},"vehicle_type_id":"4","last_reported":1702177652,"current_range_meters":7600,"station_id":"ce4bhnp2rcd13ifvqgvg","pricing_plan_id":"free"},{"bike_id":"01e67547-c4ad-4fab-a1b7-ff80b23c104d","system_id":"levelo_inurba_marseille","lat":43.240623,"lon":5.377642,"is_reserved":false,"is_disabled":false,"rental_uris":{"android":"levelo://app?vid=01e67547-c4ad-4fab-a1b7-ff80b23c104d","ios":"levelo://app?vid=01e67547-c4ad-4fab-a1b7-ff80b23c104d"},"vehicle_type_id":"4","last_reported":1702177652,"current_range_meters":7600,"station_id":"ce4bhnp2rcd13ifvqgvg","pricing_plan_id":"free"},{"bike_id":"e23e6f4c-b4a9-4b45-8d2d-3376b5cc5c6a","system_id":"levelo_inurba_marseille","lat":43.240623,"lon":5.377642,"is_reserved":false,"is_disabled":false,"rental_uris":{"android":"levelo://app?vid=e23e6f4c-b4a9-4b45-8d2d-3376b5cc5c6a","ios":"levelo://app?vid=e23e6f4c-b4a9-4b45-8d2d-3376b5cc5c6a"},"vehicle_type_id":"4","last_reported":1702177652,"current_range_meters":30800,"station_id":"ce4bhnp2rcd13ifvqgvg","pricing_plan_id":"free"},{"bike_id":"e0027151-3876-4e17-8b4a-b5c8f5b31988","system_id":"levelo_inurba_marseille","lat":43.240618,"lon":5.377636,"is_reserved":false,"is_disabled":false,"rental_uris":{"android":"levelo://app?vid=e0027151-3876-4e17-8b4a-b5c8f5b31988","ios":"levelo://app?vid=e0027151-3876-4e17-8b4a-b5c8f5b31988"},"vehicle_type_id":"4","last_reported":1702177652,"current_range_meters":15600,"station_id":"ce4bhnp2rcd13ifvqgvg","pricing_plan_id":"free"},{"bike_id":"6e6af7c2-2883-4f24-8ff3-61fd29bdf317","system_id":"levelo_inurba_marseille","lat":43.2418,"lon":5.39719,"is_reserved":false,"is_disabled":false,"rental_uris":{"android":"levelo://app?vid=6e6af7c2-2883-4f24-8ff3-61fd29bdf317","ios":"levelo://app?vid=6e6af7c2-2883-4f24-8ff3-61fd29bdf317"},"vehicle_type_id":"4","last_reported":1702177652,"current_range_meters":12000,"station_id":"ce4bhn12rcd13ifvqgpg","pricing_plan_id":"free"},{"bike_id":"dd51e42e-76c5-4a71-b86f-36ea61792ecb","system_id":"levelo_inurba_marseille","lat":43.241782,"lon":5.397261,"is_reserved":false,"is_disabled":false,"rental_uris":{"android":"levelo://app?vid=dd51e42e-76c5-4a71-b86f-36ea61792ecb","ios":"levelo://app?vid=dd51e42e-76c5-4a71-b86f-36ea61792ecb"},"vehicle_type_id":"4","last_reported":1702177652,"current_range_meters":14000,"station_id":"ce4bhn12rcd13ifvqgpg","pricing_plan_id":"free"},{"bike_id":"77ff2e74-dd46-4c2a-95b8-5c28a2c2f2c9","system_id":"levelo_inurba_marseille","lat":43.231923,"lon":5.355545,"is_reserved":false,"is_disabled":false,"rental_uris":{"android":"levelo://app?vid=77ff2e74-dd46-4c2a-95b8-5c28a2c2f2c9","ios":"levelo://app?vid=77ff2e74-dd46-4c2a-95b8-5c28a2c2f2c9"},"vehicle_type_id":"4","last_reported":1702177652,"current_range_meters":12800,"station_id":"ce4bhu92rcd13ifvqi70","pricing_plan_id":"free"},{"bike_id":"ab17fc38-eb79-448d-9157-5f64e2805185","system_id":"levelo_inurba_marseille","lat":43.232,"lon":5.355517,"is_reserved":false,"is_disabled":false,"rental_uris":{"android":"levelo://app?vid=ab17fc38-eb79-448d-9157-5f64e2805185","ios":"levelo://app?vid=ab17fc38-eb79-448d-9157-5f64e2805185"},"vehicle_type_id":"4","last_reported":1702177652,"current_range_meters":12000,"station_id":"ce4bhu92rcd13ifvqi70","pricing_plan_id":"free"},{"bike_id":"db837267-81e3-439e-98cb-2684c730942d","system_id":"levelo_inurba_marseille","lat":43.231974,"lon":5.355506,"is_reserved":false,"is_disabled":false,"rental_uris":{"android":"levelo://app?vid=db837267-81e3-439e-98cb-2684c730942d","ios":"levelo://app?vid=db837267-81e3-439e-98cb-2684c730942d"},"vehicle_type_id":"4","last_reported":1702177652,"current_range_meters":18000,"station_id":"ce4bhu92rcd13ifvqi70","pricing_plan_id":"free"},{"bike_id":"446663db-0ff0-41b4-80f1-111b68ced5a4","system_id":"levelo_inurba_marseille","lat":43.23196,"lon":5.35545,"is_reserved":false,"is_disabled":false,"rental_uris":{"android":"levelo://app?vid=446663db-0ff0-41b4-80f1-111b68ced5a4","ios":"levelo://app?vid=446663db-0ff0-41b4-80f1-111b68ced5a4"},"vehicle_type_id":"4","last_reported":1702177652,"current_range_meters":16400,"station_id":"ce4bhu92rcd13ifvqi70","pricing_plan_id":"free"},{"bike_id":"88360225-83fa-42a7-aa9d-04d6e2f27256","system_id":"levelo_inurba_marseille","lat":43.231919,"lon":5.355532,"is_reserved":false,"is_disabled":false,"rental_uris":{"android":"levelo://app?vid=88360225-83fa-42a7-aa9d-04d6e2f27256","ios":"levelo://app?vid=88360225-83fa-42a7-aa9d-04d6e2f27256"},"vehicle_type_id":"4","last_reported":1702177652,"current_range_meters":31200,"station_id":"ce4bhu92rcd13ifvqi70","pricing_plan_id":"free"},{"bike_id":"8b55a09a-4145-4ec5-a5e4-2721ec70ed5c","system_id":"levelo_inurba_marseille","lat":43.23195,"lon":5.3555,"is_reserved":false,"is_disabled":false,"rental_uris":{"android":"levelo://app?vid=8b55a09a-4145-4ec5-a5e4-2721ec70ed5c","ios":"levelo://app?vid=8b55a09a-4145-4ec5-a5e4-2721ec70ed5c"},"vehicle_type_id":"4","last_reported":1702177652,"current_range_meters":12800,"station_id":"ce4bhu92rcd13ifvqi70","pricing_plan_id":"free"},{"bike_id":"bb7bc747-ded6-4030-8110-5ea800f6fe96","system_id":"levelo_inurba_marseille","lat":43.231919,"lon":5.355532,"is_reserved":false,"is_disabled":false,"rental_uris":{"android":"levelo://app?vid=bb7bc747-ded6-4030-8110-5ea800f6fe96","ios":"levelo://app?vid=bb7bc747-ded6-4030-8110-5ea800f6fe96"},"vehicle_type_id":"4","last_reported":1702177652,"current_range_meters":6400,"station_id":"ce4bhu92rcd13ifvqi70","pricing_plan_id":"free"},{"bike_id":"a8c501f0-1f0c-4126-b8d3-0e787022ce6a","system_id":"levelo_inurba_marseille","lat":43.231919,"lon":5.355532,"is_reserved":false,"is_disabled":false,"rental_uris":{"android":"levelo://app?vid=a8c501f0-1f0c-4126-b8d3-0e787022ce6a","ios":"levelo://app?vid=a8c501f0-1f0c-4126-b8d3-0e787022ce6a"},"vehicle_type_id":"4","last_reported":1702177652,"current_range_meters":31200,"station_id":"ce4bhu92rcd13ifvqi70","pricing_plan_id":"free"},{"bike_id":"efdf0b62-a012-45f2-a093-48aedd562b0c","system_id":"levelo_inurba_marseille","lat":43.231919,"lon":5.355532,"is_reserved":false,"is_disabled":false,"rental_uris":{"android":"levelo://app?vid=efdf0b62-a012-45f2-a093-48aedd562b0c","ios":"levelo://app?vid=efdf0b62-a012-45f2-a093-48aedd562b0c"},"vehicle_type_id":"4","last_reported":1702177652,"current_range_meters":19600,"station_id":"ce4bhu92rcd13ifvqi70","pricing_plan_id":"free"},{"bike_id":"bf6071ec-6f6f-44cb-a34f-a35e0ed40cbc","system_id":"levelo_inurba_marseille","lat":43.231919,"lon":5.355532,"is_reserved":false,"is_disabled":false,"rental_uris":{"android":"levelo://app?vid=bf6071ec-6f6f-44cb-a34f-a35e0ed40cbc","ios":"levelo://app?vid=bf6071ec-6f6f-44cb-a34f-a35e0ed40cbc"},"vehicle_type_id":"4","last_reported":1702177652,"current_range_meters":2800,"station_id":"ce4bhu92rcd13ifvqi70","pricing_plan_id":"free"},{"bike_id":"529449ae-9bd0-4a42-b2ad-b913b1c62c25","system_id":"levelo_inurba_marseille","lat":43.231919,"lon":5.355532,"is_reserved":false,"is_disabled":false,"rental_uris":{"android":"levelo://app?vid=529449ae-9bd0-4a42-b2ad-b913b1c62c25","ios":"levelo://app?vid=529449ae-9bd0-4a42-b2ad-b913b1c62c25"},"vehicle_type_id":"4","last_reported":1702177652,"current_range_meters":29600,"station_id":"ce4bhu92rcd13ifvqi70","pricing_plan_id":"free"},{"bike_id":"80019cd3-e779-4c71-b181-3cecb4aeecdb","system_id":"levelo_inurba_marseille","lat":43.231794,"lon":5.400052,"is_reserved":false,"is_disabled":false,"rental_uris":{"android":"levelo://app?vid=80019cd3-e779-4c71-b181-3cecb4aeecdb","ios":"levelo://app?vid=80019cd3-e779-4c71-b181-3cecb4aeecdb"},"vehicle_type_id":"4","last_reported":1702177652,"current_range_meters":12000,"station_id":"ce4bhn12rcd13ifvqgqg","pricing_plan_id":"free"},{"bike_id":"bfbb4102-66c5-4281-8850-ca35098b4665","system_id":"levelo_inurba_marseille","lat":43.231794,"lon":5.400052,"is_reserved":false,"is_disabled":false,"rental_uris":{"android":"levelo://app?vid=bfbb4102-66c5-4281-8850-ca35098b4665","ios":"levelo://app?vid=bfbb4102-66c5-4281-8850-ca35098b4665"},"vehicle_type_id":"4","last_reported":1702177652,"current_range_meters":24000,"station_id":"ce4bhn12rcd13ifvqgqg","pricing_plan_id":"free"},{"bike_id":"92e5148d-4fb4-4386-8a07-4b4b7dd6e12c","system_id":"levelo_inurba_marseille","lat":43.231793,"lon":5.400044,"is_reserved":false,"is_disabled":false,"rental_uris":{"android":"levelo://app?vid=92e5148d-4fb4-4386-8a07-4b4b7dd6e12c","ios":"levelo://app?vid=92e5148d-4fb4-4386-8a07-4b4b7dd6e12c"},"vehicle_type_id":"4","last_reported":1702177652,"current_range_meters":29200,"station_id":"ce4bhn12rcd13ifvqgqg","pricing_plan_id":"free"},{"bike_id":"22cd89f2-b023-439e-829d-c2731be2db27","system_id":"levelo_inurba_marseille","lat":43.231794,"lon":5.400052,"is_reserved":false,"is_disabled":false,"rental_uris":{"android":"levelo://app?vid=22cd89f2-b023-439e-829d-c2731be2db27","ios":"levelo://app?vid=22cd89f2-b023-439e-829d-c2731be2db27"},"vehicle_type_id":"4","last_reported":1702177652,"current_range_meters":4400,"station_id":"ce4bhn12rcd13ifvqgqg","pricing_plan_id":"free"},{"bike_id":"291500d0-9d8c-4548-9a9d-9a7f79b46317","system_id":"levelo_inurba_marseille","lat":43.231794,"lon":5.400052,"is_reserved":false,"is_disabled":false,"rental_uris":{"android":"levelo://app?vid=291500d0-9d8c-4548-9a9d-9a7f79b46317","ios":"levelo://app?vid=291500d0-9d8c-4548-9a9d-9a7f79b46317"},"vehicle_type_id":"4","last_reported":1702177652,"current_range_meters":30800,"station_id":"ce4bhn12rcd13ifvqgqg","pricing_plan_id":"free"},{"bike_id":"0c4daa76-20b2-44aa-8f00-39adef08a916","system_id":"levelo_inurba_marseille","lat":43.231562,"lon":5.436933,"is_reserved":false,"is_disabled":false,"rental_uris":{"android":"levelo://app?vid=0c4daa76-20b2-44aa-8f00-39adef08a916","ios":"levelo://app?vid=0c4daa76-20b2-44aa-8f00-39adef08a916"},"vehicle_type_id":"4","last_reported":1702177652,"current_range_meters":24400,"station_id":"ce4bhmp2rcd13ifvqgog","pricing_plan_id":"free"}]}}