{"last_updated":1743617627,"ttl":60,"version":"2.2","data":{"bikes":[{"bike_id":"71511c37-059a-44fc-bf2e-999278b1fc7c","system_id":"levelo_inurba_marseille","lat":43.31709,"lon":5.405,"is_reserved":false,"is_disabled":false,"rental_uris":{"android":"levelo://app?vid=71511c37-059a-44fc-bf2e-999278b1fc7c","ios":"levelo://app?vid=71511c37-059a-44fc-bf2e-999278b1fc7c"},"vehicle_type_id":"4","last_reported":1743617627,"current_range_meters":2000,"station_id":"ce4bh012rcd13ifvqd00","pricing_plan_id":"cebpf4jnsgd1na2vs0mg"},{"bike_id":"f9a8b8ac-c283-477e-b518-38eb5171bc94","system_id":"levelo_inurba_marseille","lat":43.32367,"lon":5.38895,"is_reserved":false,"is_disabled":false,"rental_uris":{"android":"levelo://app?vid=f9a8b8ac-c283-477e-b518-38eb5171bc94","ios":"levelo://app?vid=f9a8b8ac-c283-477e-b518-38eb5171bc94"},"vehicle_type_id":"4","last_reported":1743617627,"current_range_meters":2800,"station_id":"ce4bhqp2rcd13ifvqhog","pricing_plan_id":"cebpf4jnsgd1na2vs0mg"},{"bike_id":"dbf3c75e-0586-4eeb-9e96-226758bd4d11","system_id":"levelo_inurba_marseille","lat":43.24998,"lon":5.38931,"is_reserved":false,"is_disabled":false,"rental_uris":{"android":"levelo://app?vid=dbf3c75e-0586-4eeb-9e96-226758bd4d11","ios":"levelo://app?vid=dbf3c75e-0586-4eeb-9e96-226758bd4d11"},"vehicle_type_id":"4","last_reported":1743617627,"current_range_meters":2000,"station_id":"ce4bhgp2rcd13ifvqfd0","pricing_plan_id":"cebpf4jnsgd1na2vs0mg"},{"bike_id":"b49135f6-0210-4b45-b104-786edca7a061","system_id":"levelo_inurba_marseille","lat":43.25869,"lon":5.39902,"is_reserved":false,"is_disabled":false,"rental_uris":{"android":"levelo://app?vid=b49135f6-0210-4b45-b104-786edca7a061","ios":"levelo://app?vid=b49135f6-0210-4b45-b104-786edca7a061"},"vehicle_type_id":"4","last_reported":1743617627,"current_range_meters":2800,"station_id":"ce4bhl92rcd13ifvqghg","pricing_plan_id":"cebpf4jnsgd1na2vs0mg"},{"bike_id":"33716f76-5b25-426c-bfc4-ff3bbc628e7e","system_id":"levelo_inurba_marseille","lat":43.29287,"lon":5.40921,"is_reserved":false,"is_disabled":false,"rental_uris":{"android":"levelo://app?vid=33716f76-5b25-426c-bfc4-ff3bbc628e7e","ios":"levelo://app?vid=33716f76-5b25-426c-bfc4-ff3bbc628e7e"},"vehicle_type_id":"4","last_reported":1743617627,"current_range_meters":2800,"station_id":"ce4bh192rcd13ifvqdc0","pricing_plan_id":"cebpf4jnsgd1na2vs0mg"},{"bike_id":"dc2940d2-8bbf-4af3-a3bf-14408b28fcdf","system_id":"levelo_inurba_marseille","lat":43.265731,"lon":5.390423,"is_reserved":false,"is_disabled":true,"rental_uris":{"android":"levelo://app?vid=dc2940d2-8bbf-4af3-a3bf-14408b28fcdf","ios":"levelo://app?vid=dc2940d2-8bbf-4af3-a3bf-14408b28fcdf"},"vehicle_type_id":"4","last_reported":1743617627,"current_range_meters":3200,"station_id":"ce4bhe12rcd13ifvqf30","pricing_plan_id":"cebpf4jnsgd1na2vs0mg"},{"bike_id":"5e6c3a84-834c-4d83-a2d3-580b827057a1","system_id":"levelo_inurba_marseille","lat":43.23201,"lon":5.43704,"is_reserved":false,"is_disabled":false,"rental_uris":{"android":"levelo://app?vid=5e6c3a84-834c-4d83-a2d3-580b827057a1","ios":"levelo://app?vid=5e6c3a84-834c-4d83-a2d3-580b827057a1"},"vehicle_type_id":"4","last_reported":1743617627,"current_range_meters":3200,"station_id":"","pricing_plan_id":"cebpf4jnsgd1na2vs0mg"},{"bike_id":"26a6be4e-9c71-4305-8866-c10aa7a9595b","system_id":"levelo_inurba_marseille","lat":43.26769,"lon":5.38327,"is_reserved":false,"is_disabled":false,"rental_uris":{"android":"levelo://app?vid=26a6be4e-9c71-4305-8866-c10aa7a9595b","ios":"levelo://app?vid=26a6be4e-9c71-4305-8866-c10aa7a9595b"},"vehicle_type_id":"4","last_reported":1743617627,"current_range_meters":3200,"station_id":"","pricing_plan_id":"cebpf4jnsgd1na2vs0mg"},{"bike_id":"67162c31-b374-4069-995c-3c8d53e2ddc8","system_id":"levelo_inurba_marseille","lat":43.23962,"lon":5.3664,"is_reserved":false,"is_disabled":false,"rental_uris":{"android":"levelo://app?vid=67162c31-b374-4069-995c-3c8d53e2ddc8","ios":"levelo://app?vid=67162c31-b374-4069-995c-3c8d53e2ddc8"},"vehicle_type_id":"4","last_reported":1743617627,"current_range_meters":3200,"station_id":"ce4bhi12rcd13ifvqfp0","pricing_plan_id":"cebpf4jnsgd1na2vs0mg"},{"bike_id":"cfe6d173-476a-4db5-94f2-713dde6981df","system_id":"levelo_inurba_marseille","lat":43.31535,"lon":5.3804,"is_reserved":false,"is_disabled":false,"rental_uris":{"android":"levelo://app?vid=cfe6d173-476a-4db5-94f2-713dde6981df","ios":"levelo://app?vid=cfe6d173-476a-4db5-94f2-713dde6981df"},"vehicle_type_id":"4","last_reported":1743617627,"current_range_meters":3600,"station_id":"ce4bhsp2rcd13ifvqi50","pricing_plan_id":"cebpf4jnsgd1na2vs0mg"},{"bike_id":"9aa2396c-cf44-4f57-b912-002230e52c07","system_id":"levelo_inurba_marseille","lat":43.27684,"lon":5.39605,"is_reserved":false,"is_disabled":false,"rental_uris":{"android":"levelo://app?vid=9aa2396c-cf44-4f57-b912-002230e52c07","ios":"levelo://app?vid=9aa2396c-cf44-4f57-b912-002230e52c07"},"vehicle_type_id":"4","last_reported":1743617627,"current_range_meters":3600,"station_id":"","pricing_plan_id":"cebpf4jnsgd1na2vs0mg"},{"bike_id":"d10bd936-2fca-4607-82d0-6e154162cbfd","system_id":"levelo_inurba_marseille","lat":43.30905,"lon":5.3964,"is_reserved":false,"is_disabled":true,"rental_uris":{"android":"levelo://app?vid=d10bd936-2fca-4607-82d0-6e154162cbfd","ios":"levelo://app?vid=d10bd936-2fca-4607-82d0-6e154162cbfd"},"vehicle_type_id":"4","last_reported":1743617627,"current_range_meters":4000,"station_id":"ce4bh012rcd13ifvqcv0","pricing_plan_id":"cebpf4jnsgd1na2vs0mg"},{"bike_id":"77a83e64-6de5-4fae-8124-450396c41a21","system_id":"levelo_inurba_marseille","lat":43.29552,"lon":5.42293,"is_reserved":false,"is_disabled":false,"rental_uris":{"android":"levelo://app?vid=77a83e64-6de5-4fae-8124-450396c41a21","ios":"levelo://app?vid=77a83e64-6de5-4fae-8124-450396c41a21"},"vehicle_type_id":"4","last_reported":1743617627,"current_range_meters":4000,"station_id":"ce4bhph2rcd13ifvqhdg","pricing_plan_id":"cebpf4jnsgd1na2vs0mg"},{"bike_id":"f8d38969-44c4-4f12-8e0f-a4b2e7deaabb","system_id":"levelo_inurba_marseille","lat":43.29554,"lon":5.42294,"is_reserved":false,"is_disabled":false,"rental_uris":{"android":"levelo://app?vid=f8d38969-44c4-4f12-8e0f-a4b2e7deaabb","ios":"levelo://app?vid=f8d38969-44c4-4f12-8e0f-a4b2e7deaabb"},"vehicle_type_id":"4","last_reported":1743617627,"current_range_meters":4000,"station_id":"ce4bhph2rcd13ifvqhdg","pricing_plan_id":"cebpf4jnsgd1na2vs0mg"},{"bike_id":"48d4cf57-3802-4e82-866f-6c55e8ebfd77","system_id":"levelo_inurba_marseille","lat":43.27948,"lon":5.41047,"is_reserved":false,"is_disabled":false,"rental_uris":{"android":"levelo://app?vid=48d4cf57-3802-4e82-866f-6c55e8ebfd77","ios":"levelo://app?vid=48d4cf57-3802-4e82-866f-6c55e8ebfd77"},"vehicle_type_id":"4","last_reported":1743617627,"current_range_meters":4000,"station_id":"ce4bhnp2rcd13ifvqh0g","pricing_plan_id":"cebpf4jnsgd1na2vs0mg"},{"bike_id":"e09ce0d7-1979-4bad-826f-d4b28d73a7f7","system_id":"levelo_inurba_marseille","lat":43.27668,"lon":5.38883,"is_reserved":false,"is_disabled":false,"rental_uris":{"android":"levelo://app?vid=e09ce0d7-1979-4bad-826f-d4b28d73a7f7","ios":"levelo://app?vid=e09ce0d7-1979-4bad-826f-d4b28d73a7f7"},"vehicle_type_id":"4","last_reported":1743617627,"current_range_meters":3600,"station_id":"ce4bhi12rcd13ifvqfo0","pricing_plan_id":"cebpf4jnsgd1na2vs0mg"},{"bike_id":"a6b08dca-0839-4bd2-8465-4b9257f28fd5","system_id":"levelo_inurba_marseille","lat":43.29554,"lon":5.42296,"is_reserved":false,"is_disabled":false,"rental_uris":{"android":"levelo://app?vid=a6b08dca-0839-4bd2-8465-4b9257f28fd5","ios":"levelo://app?vid=a6b08dca-0839-4bd2-8465-4b9257f28fd5"},"vehicle_type_id":"4","last_reported":1743617627,"current_range_meters":4000,"station_id":"ce4bhph2rcd13ifvqhdg","pricing_plan_id":"cebpf4jnsgd1na2vs0mg"},{"bike_id":"98ae1526-2336-41e4-94df-8b18a506d0e5","system_id":"levelo_inurba_marseille","lat":43.277583,"lon":5.388119,"is_reserved":false,"is_disabled":false,"rental_uris":{"android":"levelo://app?vid=98ae1526-2336-41e4-94df-8b18a506d0e5","ios":"levelo://app?vid=98ae1526-2336-41e4-94df-8b18a506d0e5"},"vehicle_type_id":"4","last_reported":1743617627,"current_range_meters":3600,"station_id":"ce4bhi12rcd13ifvqfo0","pricing_plan_id":"cebpf4jnsgd1na2vs0mg"},{"bike_id":"7549bd43-15b2-4001-a4c7-d590c7fffdef","system_id":"levelo_inurba_marseille","lat":43.32093,"lon":5.36802,"is_reserved":false,"is_disabled":false,"rental_uris":{"android":"levelo://app?vid=7549bd43-15b2-4001-a4c7-d590c7fffdef","ios":"levelo://app?vid=7549bd43-15b2-4001-a4c7-d590c7fffdef"},"vehicle_type_id":"4","last_reported":1743617627,"current_range_meters":4400,"station_id":"ce4bhrh2rcd13ifvqhug","pricing_plan_id":"cebpf4jnsgd1na2vs0mg"},{"bike_id":"8b3d5f1f-2264-45b7-a893-e7144bd9f8da","system_id":"levelo_inurba_marseille","lat":43.28614,"lon":5.35106,"is_reserved":false,"is_disabled":false,"rental_uris":{"android":"levelo://app?vid=8b3d5f1f-2264-45b7-a893-e7144bd9f8da","ios":"levelo://app?vid=8b3d5f1f-2264-45b7-a893-e7144bd9f8da"},"vehicle_type_id":"4","last_reported":1743617627,"current_range_meters":4400,"station_id":"ce4bhch2rcd13ifvqeug","pricing_plan_id":"cebpf4jnsgd1na2vs0mg"},{"bike_id":"72a59223-7fbc-4af7-a727-ebdf00595f3e","system_id":"levelo_inurba_marseille","lat":43.2417,"lon":5.36398,"is_reserved":false,"is_disabled":false,"rental_uris":{"android":"levelo://app?vid=72a59223-7fbc-4af7-a727-ebdf00595f3e","ios":"levelo://app?vid=72a59223-7fbc-4af7-a727-ebdf00595f3e"},"vehicle_type_id":"4","last_reported":1743617627,"current_range_meters":4400,"station_id":"cpo36qri1sfpv3e86is0","pricing_plan_id":"cebpf4jnsgd1na2vs0mg"},{"bike_id":"718de5db-e0ea-42e2-af01-d5e9f6c817a2","system_id":"levelo_inurba_marseille","lat":43.299,"lon":5.43656,"is_reserved":false,"is_disabled":false,"rental_uris":{"android":"levelo://app?vid=718de5db-e0ea-42e2-af01-d5e9f6c817a2","ios":"levelo://app?vid=718de5db-e0ea-42e2-af01-d5e9f6c817a2"},"vehicle_type_id":"4","last_reported":1743617627,"current_range_meters":4400,"station_id":"ce4bhpp2rcd13ifvqhfg","pricing_plan_id":"cebpf4jnsgd1na2vs0mg"},{"bike_id":"9f8d5a5f-7ca9-4868-a4ab-ccae74d7b83e","system_id":"levelo_inurba_marseille","lat":43.29005,"lon":5.35609,"is_reserved":false,"is_disabled":false,"rental_uris":{"android":"levelo://app?vid=9f8d5a5f-7ca9-4868-a4ab-ccae74d7b83e","ios":"levelo://app?vid=9f8d5a5f-7ca9-4868-a4ab-ccae74d7b83e"},"vehicle_type_id":"4","last_reported":1743617627,"current_range_meters":4800,"station_id":"ce4bhb92rcd13ifvqen0","pricing_plan_id":"cebpf4jnsgd1na2vs0mg"},{"bike_id":"1167d76f-0701-42ca-9566-e6b8288b4501","system_id":"levelo_inurba_marseille","lat":43.28293,"lon":5.37873,"is_reserved":false,"is_disabled":false,"rental_uris":{"android":"levelo://app?vid=1167d76f-0701-42ca-9566-e6b8288b4501","ios":"levelo://app?vid=1167d76f-0701-42ca-9566-e6b8288b4501"},"vehicle_type_id":"4","last_reported":1743617627,"current_range_meters":4800,"station_id":"","pricing_plan_id":"cebpf4jnsgd1na2vs0mg"},{"bike_id":"c5b61614-1a18-4698-a31f-63056a2f64b1","system_id":"levelo_inurba_marseille","lat":43.25113,"lon":5.4032,"is_reserved":false,"is_disabled":false,"rental_uris":{"android":"levelo://app?vid=c5b61614-1a18-4698-a31f-63056a2f64b1","ios":"levelo://app?vid=c5b61614-1a18-4698-a31f-63056a2f64b1"},"vehicle_type_id":"4","last_reported":1743617627,"current_range_meters":4800,"station_id":"ce4bhlh2rcd13ifvqgig","pricing_plan_id":"cebpf4jnsgd1na2vs0mg"},{"bike_id":"ebaa89eb-9cf3-4ffa-91a5-8e3eb8931bec","system_id":"levelo_inurba_marseille","lat":43.24661,"lon":5.38175,"is_reserved":false,"is_disabled":true,"rental_uris":{"android":"levelo://app?vid=ebaa89eb-9cf3-4ffa-91a5-8e3eb8931bec","ios":"levelo://app?vid=ebaa89eb-9cf3-4ffa-91a5-8e3eb8931bec"},"vehicle_type_id":"4","last_reported":1743617627,"current_range_meters":4800,"station_id":"ce4bhih2rcd13ifvqfr0","pricing_plan_id":"cebpf4jnsgd1na2vs0mg"},{"bike_id":"c6c438e8-d3ab-4770-968b-7a1a93e8a8c6","system_id":"levelo_inurba_marseille","lat":43.28907,"lon":5.45877,"is_reserved":false,"is_disabled":false,"rental_uris":{"android":"levelo://app?vid=c6c438e8-d3ab-4770-968b-7a1a93e8a8c6","ios":"levelo://app?vid=c6c438e8-d3ab-4770-968b-7a1a93e8a8c6"},"vehicle_type_id":"4","last_reported":1743617627,"current_range_meters":4800,"station_id":"","pricing_plan_id":"cebpf4jnsgd1na2vs0mg"},{"bike_id":"b005837c-9d6b-4656-9687-91c09330801d","system_id":"levelo_inurba_marseille","lat":43.28667,"lon":5.36367,"is_reserved":false,"is_disabled":false,"rental_uris":{"android":"levelo://app?vid=b005837c-9d6b-4656-9687-91c09330801d","ios":"levelo://app?vid=b005837c-9d6b-4656-9687-91c09330801d"},"vehicle_type_id":"4","last_reported":1743617627,"current_range_meters":4400,"station_id":"ce4bhah2rcd13ifvqej0","pricing_plan_id":"cebpf4jnsgd1na2vs0mg"},{"bike_id":"f2070fb8-962f-488c-8275-7ac2c7c97a5a","system_id":"levelo_inurba_marseille","lat":43.29312,"lon":5.37191,"is_reserved":false,"is_disabled":false,"rental_uris":{"android":"levelo://app?vid=f2070fb8-962f-488c-8275-7ac2c7c97a5a","ios":"levelo://app?vid=f2070fb8-962f-488c-8275-7ac2c7c97a5a"},"vehicle_type_id":"4","last_reported":1743617627,"current_range_meters":5600,"station_id":"ce4bgh92rcd13ifvqb40","pricing_plan_id":"cebpf4jnsgd1na2vs0mg"},{"bike_id":"ec3b08fc-ea84-4eb9-a695-3b11912fae96","system_id":"levelo_inurba_marseille","lat":43.29522,"lon":5.39082,"is_reserved":false,"is_disabled":false,"rental_uris":{"android":"levelo://app?vid=ec3b08fc-ea84-4eb9-a695-3b11912fae96","ios":"levelo://app?vid=ec3b08fc-ea84-4eb9-a695-3b11912fae96"},"vehicle_type_id":"4","last_reported":1743617627,"current_range_meters":5600,"station_id":"ce4bh3p2rcd13ifvqdp0","pricing_plan_id":"cebpf4jnsgd1na2vs0mg"},{"bike_id":"dbc8d08e-68f7-4190-bb53-ac451439f37a","system_id":"levelo_inurba_marseille","lat":43.33052,"lon":5.3905,"is_reserved":false,"is_disabled":false,"rental_uris":{"android":"levelo://app?vid=dbc8d08e-68f7-4190-bb53-ac451439f37a","ios":"levelo://app?vid=dbc8d08e-68f7-4190-bb53-ac451439f37a"},"vehicle_type_id":"4","last_reported":1743617627,"current_range_meters":5600,"station_id":"ce4bhr92rcd13ifvqhrg","pricing_plan_id":"cebpf4jnsgd1na2vs0mg"},{"bike_id":"a2a07a95-fad3-4ed6-a5e8-f02c9a2ba43a","system_id":"levelo_inurba_marseille","lat":43.29553,"lon":5.42282,"is_reserved":false,"is_disabled":false,"rental_uris":{"android":"levelo://app?vid=a2a07a95-fad3-4ed6-a5e8-f02c9a2ba43a","ios":"levelo://app?vid=a2a07a95-fad3-4ed6-a5e8-f02c9a2ba43a"},"vehicle_type_id":"4","last_reported":1743617627,"current_range_meters":5600,"station_id":"ce4bhph2rcd13ifvqhdg","pricing_plan_id":"cebpf4jnsgd1na2vs0mg"},{"bike_id":"c23e64f7-d2d1-44ca-9f85-31084e5f6d97","system_id":"levelo_inurba_marseille","lat":43.32289,"lon":5.38277,"is_reserved":false,"is_disabled":false,"rental_uris":{"android":"levelo://app?vid=c23e64f7-d2d1-44ca-9f85-31084e5f6d97","ios":"levelo://app?vid=c23e64f7-d2d1-44ca-9f85-31084e5f6d97"},"vehicle_type_id":"4","last_reported":1743617627,"current_range_meters":5600,"station_id":"ce4bhr12rcd13ifvqhqg","pricing_plan_id":"cebpf4jnsgd1na2vs0mg"},{"bike_id":"6167d4f8-9b46-4b20-baa1-4588e0c1cd4b","system_id":"levelo_inurba_marseille","lat":43.25,"lon":5.38935,"is_reserved":false,"is_disabled":false,"rental_uris":{"android":"levelo://app?vid=6167d4f8-9b46-4b20-baa1-4588e0c1cd4b","ios":"levelo://app?vid=6167d4f8-9b46-4b20-baa1-4588e0c1cd4b"},"vehicle_type_id":"4","last_reported":1743617627,"current_range_meters":6000,"station_id":"ce4bhgp2rcd13ifvqfd0","pricing_plan_id":"cebpf4jnsgd1na2vs0mg"},{"bike_id":"e47bc61d-df2d-41b3-b26b-dd94e6e5e301","system_id":"levelo_inurba_marseille","lat":43.26245,"lon":5.42128,"is_reserved":false,"is_disabled":false,"rental_uris":{"android":"levelo://app?vid=e47bc61d-df2d-41b3-b26b-dd94e6e5e301","ios":"levelo://app?vid=e47bc61d-df2d-41b3-b26b-dd94e6e5e301"},"vehicle_type_id":"4","last_reported":1743617627,"current_range_meters":6000,"station_id":"","pricing_plan_id":"cebpf4jnsgd1na2vs0mg"},{"bike_id":"6293244a-a5ac-4bd3-abcc-130806d24645","system_id":"levelo_inurba_marseille","lat":43.26196,"lon":5.37417,"is_reserved":false,"is_disabled":false,"rental_uris":{"android":"levelo://app?vid=6293244a-a5ac-4bd3-abcc-130806d24645","ios":"levelo://app?vid=6293244a-a5ac-4bd3-abcc-130806d24645"},"vehicle_type_id":"4","last_reported":1743617627,"current_range_meters":6000,"station_id":"ce4bhgp2rcd13ifvqfc0","pricing_plan_id":"cebpf4jnsgd1na2vs0mg"},{"bike_id":"20d46cb9-4747-427d-ad4a-f3e54044044f","system_id":"levelo_inurba_marseille","lat":43.30434,"lon":5.39757,"is_reserved":false,"is_disabled":false,"rental_uris":{"android":"levelo://app?vid=20d46cb9-4747-427d-ad4a-f3e54044044f","ios":"levelo://app?vid=20d46cb9-4747-427d-ad4a-f3e54044044f"},"vehicle_type_id":"4","last_reported":1743617627,"current_range_meters":6000,"station_id":"ce4bh092rcd13ifvqd20","pricing_plan_id":"cebpf4jnsgd1na2vs0mg"},{"bike_id":"66a6759f-f104-404f-ba35-7dd5d87e6d0b","system_id":"levelo_inurba_marseille","lat":43.3014,"lon":5.37685,"is_reserved":false,"is_disabled":false,"rental_uris":{"android":"levelo://app?vid=66a6759f-f104-404f-ba35-7dd5d87e6d0b","ios":"levelo://app?vid=66a6759f-f104-404f-ba35-7dd5d87e6d0b"},"vehicle_type_id":"4","last_reported":1743617627,"current_range_meters":6000,"station_id":"","pricing_plan_id":"cebpf4jnsgd1na2vs0mg"},{"bike_id":"ae142869-4645-44a3-a00e-d85b9b2de509","system_id":"levelo_inurba_marseille","lat":43.28483,"lon":5.38489,"is_reserved":false,"is_disabled":false,"rental_uris":{"android":"levelo://app?vid=ae142869-4645-44a3-a00e-d85b9b2de509","ios":"levelo://app?vid=ae142869-4645-44a3-a00e-d85b9b2de509"},"vehicle_type_id":"4","last_reported":1743617627,"current_range_meters":6400,"station_id":"ce4bh8p2rcd13ifvqeb0","pricing_plan_id":"cebpf4jnsgd1na2vs0mg"},{"bike_id":"5ef6b633-cf2f-42de-995a-43dea0a55a29","system_id":"levelo_inurba_marseille","lat":43.32107,"lon":5.36834,"is_reserved":false,"is_disabled":false,"rental_uris":{"android":"levelo://app?vid=5ef6b633-cf2f-42de-995a-43dea0a55a29","ios":"levelo://app?vid=5ef6b633-cf2f-42de-995a-43dea0a55a29"},"vehicle_type_id":"4","last_reported":1743617627,"current_range_meters":6400,"station_id":"ce4bhrh2rcd13ifvqhug","pricing_plan_id":"cebpf4jnsgd1na2vs0mg"},{"bike_id":"46140361-f09a-427e-adfa-d7653ab4888a","system_id":"levelo_inurba_marseille","lat":43.28936,"lon":5.3664,"is_reserved":false,"is_disabled":false,"rental_uris":{"android":"levelo://app?vid=46140361-f09a-427e-adfa-d7653ab4888a","ios":"levelo://app?vid=46140361-f09a-427e-adfa-d7653ab4888a"},"vehicle_type_id":"4","last_reported":1743617627,"current_range_meters":2000,"station_id":"ce4bhap2rcd13ifvqek0","pricing_plan_id":"cebpf4jnsgd1na2vs0mg"},{"bike_id":"fdd74cea-2420-4f5e-97f2-a48b67190c4e","system_id":"levelo_inurba_marseille","lat":43.337444,"lon":5.374475,"is_reserved":false,"is_disabled":false,"rental_uris":{"android":"levelo://app?vid=fdd74cea-2420-4f5e-97f2-a48b67190c4e","ios":"levelo://app?vid=fdd74cea-2420-4f5e-97f2-a48b67190c4e"},"vehicle_type_id":"4","last_reported":1743617627,"current_range_meters":6400,"station_id":"","pricing_plan_id":"cebpf4jnsgd1na2vs0mg"},{"bike_id":"f4b3c781-c46b-42d3-9ff9-fac436734dd4","system_id":"levelo_inurba_marseille","lat":43.30887,"lon":5.3965,"is_reserved":false,"is_disabled":false,"rental_uris":{"android":"levelo://app?vid=f4b3c781-c46b-42d3-9ff9-fac436734dd4","ios":"levelo://app?vid=f4b3c781-c46b-42d3-9ff9-fac436734dd4"},"vehicle_type_id":"4","last_reported":1743617627,"current_range_meters":6400,"station_id":"ce4bh012rcd13ifvqcv0","pricing_plan_id":"cebpf4jnsgd1na2vs0mg"},{"bike_id":"40130dc7-9d23-44a0-aaeb-1c173c3b81b9","system_id":"levelo_inurba_marseille","lat":43.29272,"lon":5.36845,"is_reserved":false,"is_disabled":false,"rental_uris":{"android":"levelo://app?vid=40130dc7-9d23-44a0-aaeb-1c173c3b81b9","ios":"levelo://app?vid=40130dc7-9d23-44a0-aaeb-1c173c3b81b9"},"vehicle_type_id":"4","last_reported":1743617627,"current_range_meters":6400,"station_id":"ce4bhbp2rcd13ifvqesg","pricing_plan_id":"cebpf4jnsgd1na2vs0mg"},{"bike_id":"7bdf0d60-3026-4723-ac07-ebb25b9cf79f","system_id":"levelo_inurba_marseille","lat":43.28779,"lon":5.38688,"is_reserved":false,"is_disabled":false,"rental_uris":{"android":"levelo://app?vid=7bdf0d60-3026-4723-ac07-ebb25b9cf79f","ios":"levelo://app?vid=7bdf0d60-3026-4723-ac07-ebb25b9cf79f"},"vehicle_type_id":"4","last_reported":1743617627,"current_range_meters":6400,"station_id":"","pricing_plan_id":"cebpf4jnsgd1na2vs0mg"},{"bike_id":"d3b80fdb-d82b-49fb-8540-55c363b9bffd","system_id":"levelo_inurba_marseille","lat":43.27389,"lon":5.36261,"is_reserved":false,"is_disabled":false,"rental_uris":{"android":"levelo://app?vid=d3b80fdb-d82b-49fb-8540-55c363b9bffd","ios":"levelo://app?vid=d3b80fdb-d82b-49fb-8540-55c363b9bffd"},"vehicle_type_id":"4","last_reported":1743617627,"current_range_meters":6400,"station_id":"ce4bhbh2rcd13ifvqeo0","pricing_plan_id":"cebpf4jnsgd1na2vs0mg"},{"bike_id":"7b1b0630-0451-4674-bcc4-4d107d259b91","system_id":"levelo_inurba_marseille","lat":43.301222,"lon":5.398606,"is_reserved":false,"is_disabled":false,"rental_uris":{"android":"levelo://app?vid=7b1b0630-0451-4674-bcc4-4d107d259b91","ios":"levelo://app?vid=7b1b0630-0451-4674-bcc4-4d107d259b91"},"vehicle_type_id":"4","last_reported":1743617627,"current_range_meters":6400,"station_id":"ce4bh2h2rcd13ifvqdh0","pricing_plan_id":"cebpf4jnsgd1na2vs0mg"},{"bike_id":"5cb1e2f0-8015-44b2-ab19-cc0c1566e972","system_id":"levelo_inurba_marseille","lat":43.29573,"lon":5.42264,"is_reserved":false,"is_disabled":false,"rental_uris":{"android":"levelo://app?vid=5cb1e2f0-8015-44b2-ab19-cc0c1566e972","ios":"levelo://app?vid=5cb1e2f0-8015-44b2-ab19-cc0c1566e972"},"vehicle_type_id":"4","last_reported":1743617627,"current_range_meters":6400,"station_id":"ce4bhph2rcd13ifvqhdg","pricing_plan_id":"cebpf4jnsgd1na2vs0mg"},{"bike_id":"d9dd3b00-4d04-49bd-9df4-f6bef16440bd","system_id":"levelo_inurba_marseille","lat":43.275673,"lon":5.384379,"is_reserved":false,"is_disabled":false,"rental_uris":{"android":"levelo://app?vid=d9dd3b00-4d04-49bd-9df4-f6bef16440bd","ios":"levelo://app?vid=d9dd3b00-4d04-49bd-9df4-f6bef16440bd"},"vehicle_type_id":"4","last_reported":1743617627,"current_range_meters":6800,"station_id":"ce4bhh92rcd13ifvqfi0","pricing_plan_id":"cebpf4jnsgd1na2vs0mg"},{"bike_id":"4f1fb305-fdac-49af-98f8-e5ebaa4429a4","system_id":"levelo_inurba_marseille","lat":43.22932,"lon":5.35385,"is_reserved":false,"is_disabled":false,"rental_uris":{"android":"levelo://app?vid=4f1fb305-fdac-49af-98f8-e5ebaa4429a4","ios":"levelo://app?vid=4f1fb305-fdac-49af-98f8-e5ebaa4429a4"},"vehicle_type_id":"4","last_reported":1743617627,"current_range_meters":6800,"station_id":"cpo3532slgdg3j2ikp40","pricing_plan_id":"cebpf4jnsgd1na2vs0mg"},{"bike_id":"e84bef4c-cced-4cd0-b180-0053717ac75e","system_id":"levelo_inurba_marseille","lat":43.28703,"lon":5.39994,"is_reserved":false,"is_disabled":true,"rental_uris":{"android":"levelo://app?vid=e84bef4c-cced-4cd0-b180-0053717ac75e","ios":"levelo://app?vid=e84bef4c-cced-4cd0-b180-0053717ac75e"},"vehicle_type_id":"4","last_reported":1743617627,"current_range_meters":6800,"station_id":"ce4bho92rcd13ifvqh3g","pricing_plan_id":"cebpf4jnsgd1na2vs0mg"},{"bike_id":"f06067fe-c409-49ce-b995-b28658dd37fb","system_id":"levelo_inurba_marseille","lat":43.28655,"lon":5.37373,"is_reserved":false,"is_disabled":true,"rental_uris":{"android":"levelo://app?vid=f06067fe-c409-49ce-b995-b28658dd37fb","ios":"levelo://app?vid=f06067fe-c409-49ce-b995-b28658dd37fb"},"vehicle_type_id":"4","last_reported":1743617627,"current_range_meters":7200,"station_id":"ce4bh3p2rcd13ifvqdq0","pricing_plan_id":"cebpf4jnsgd1na2vs0mg"},{"bike_id":"05cca541-53a4-4112-800f-a474957b9dac","system_id":"levelo_inurba_marseille","lat":43.284223,"lon":5.349831,"is_reserved":false,"is_disabled":false,"rental_uris":{"android":"levelo://app?vid=05cca541-53a4-4112-800f-a474957b9dac","ios":"levelo://app?vid=05cca541-53a4-4112-800f-a474957b9dac"},"vehicle_type_id":"4","last_reported":1743617627,"current_range_meters":7200,"station_id":"ce4bhbp2rcd13ifvqesg","pricing_plan_id":"cebpf4jnsgd1na2vs0mg"},{"bike_id":"ef687fa4-2ab7-4012-b079-bb949fdc09c7","system_id":"levelo_inurba_marseille","lat":43.2799,"lon":5.40019,"is_reserved":false,"is_disabled":false,"rental_uris":{"android":"levelo://app?vid=ef687fa4-2ab7-4012-b079-bb949fdc09c7","ios":"levelo://app?vid=ef687fa4-2ab7-4012-b079-bb949fdc09c7"},"vehicle_type_id":"4","last_reported":1743617627,"current_range_meters":7200,"station_id":"ce4bho92rcd13ifvqh4g","pricing_plan_id":"cebpf4jnsgd1na2vs0mg"},{"bike_id":"fa7876d0-e5b2-4ce6-9cbc-68f925a4f67e","system_id":"levelo_inurba_marseille","lat":43.286957,"lon":5.373925,"is_reserved":false,"is_disabled":false,"rental_uris":{"android":"levelo://app?vid=fa7876d0-e5b2-4ce6-9cbc-68f925a4f67e","ios":"levelo://app?vid=fa7876d0-e5b2-4ce6-9cbc-68f925a4f67e"},"vehicle_type_id":"4","last_reported":1743617627,"current_range_meters":8000,"station_id":"ce4bh3p2rcd13ifvqdq0","pricing_plan_id":"cebpf4jnsgd1na2vs0mg"},{"bike_id":"4d4f417d-1aec-4aba-986d-ef7a62743725","system_id":"levelo_inurba_marseille","lat":43.29557,"lon":5.42294,"is_reserved":false,"is_disabled":false,"rental_uris":{"android":"levelo://app?vid=4d4f417d-1aec-4aba-986d-ef7a62743725","ios":"levelo://app?vid=4d4f417d-1aec-4aba-986d-ef7a62743725"},"vehicle_type_id":"4","last_reported":1743617627,"current_range_meters":8000,"station_id":"ce4bhph2rcd13ifvqhdg","pricing_plan_id":"cebpf4jnsgd1na2vs0mg"},{"bike_id":"6aac89d2-18c2-4358-b965-12be08b60b63","system_id":"levelo_inurba_marseille","lat":43.29305,"lon":5.37182,"is_reserved":false,"is_disabled":true,"rental_uris":{"android":"levelo://app?vid=6aac89d2-18c2-4358-b965-12be08b60b63","ios":"levelo://app?vid=6aac89d2-18c2-4358-b965-12be08b60b63"},"vehicle_type_id":"4","last_reported":1743617627,"current_range_meters":8000,"station_id":"ce4bgh92rcd13ifvqb40","pricing_plan_id":"cebpf4jnsgd1na2vs0mg"},{"bike_id":"1f1218d9-ebac-4975-84ee-2ba3e4d4bcb4","system_id":"levelo_inurba_marseille","lat":43.308763,"lon":5.377988,"is_reserved":false,"is_disabled":false,"rental_uris":{"android":"levelo://app?vid=1f1218d9-ebac-4975-84ee-2ba3e4d4bcb4","ios":"levelo://app?vid=1f1218d9-ebac-4975-84ee-2ba3e4d4bcb4"},"vehicle_type_id":"4","last_reported":1743617627,"current_range_meters":8000,"station_id":"","pricing_plan_id":"cebpf4jnsgd1na2vs0mg"},{"bike_id":"3e5329f3-c0cd-422c-afb1-2f46242590da","system_id":"levelo_inurba_marseille","lat":43.31934,"lon":5.37556,"is_reserved":false,"is_disabled":false,"rental_uris":{"android":"levelo://app?vid=3e5329f3-c0cd-422c-afb1-2f46242590da","ios":"levelo://app?vid=3e5329f3-c0cd-422c-afb1-2f46242590da"},"vehicle_type_id":"4","last_reported":1743617627,"current_range_meters":8000,"station_id":"","pricing_plan_id":"cebpf4jnsgd1na2vs0mg"},{"bike_id":"4f1c00e5-a79d-4f0b-ab4e-3bd2b06e7d2e","system_id":"levelo_inurba_marseille","lat":43.2306,"lon":5.35489,"is_reserved":false,"is_disabled":false,"rental_uris":{"android":"levelo://app?vid=4f1c00e5-a79d-4f0b-ab4e-3bd2b06e7d2e","ios":"levelo://app?vid=4f1c00e5-a79d-4f0b-ab4e-3bd2b06e7d2e"},"vehicle_type_id":"4","last_reported":1743617627,"current_range_meters":8000,"station_id":"cpo3342slgdg3j2ifvpg","pricing_plan_id":"cebpf4jnsgd1na2vs0mg"},{"bike_id":"5c42c75f-2eb9-4a2e-99bc-1f4da727f3d8","system_id":"levelo_inurba_marseille","lat":43.24094,"lon":5.37731,"is_reserved":false,"is_disabled":false,"rental_uris":{"android":"levelo://app?vid=5c42c75f-2eb9-4a2e-99bc-1f4da727f3d8","ios":"levelo://app?vid=5c42c75f-2eb9-4a2e-99bc-1f4da727f3d8"},"vehicle_type_id":"4","last_reported":1743617627,"current_range_meters":8000,"station_id":"ce4bhnp2rcd13ifvqgvg","pricing_plan_id":"cebpf4jnsgd1na2vs0mg"},{"bike_id":"c77ae4a5-e298-4248-912e-73aa8bacf8c3","system_id":"levelo_inurba_marseille","lat":43.2886,"lon":5.35863,"is_reserved":false,"is_disabled":false,"rental_uris":{"android":"levelo://app?vid=c77ae4a5-e298-4248-912e-73aa8bacf8c3","ios":"levelo://app?vid=c77ae4a5-e298-4248-912e-73aa8bacf8c3"},"vehicle_type_id":"4","last_reported":1743617627,"current_range_meters":8000,"station_id":"ce4bhb12rcd13ifvqem0","pricing_plan_id":"cebpf4jnsgd1na2vs0mg"},{"bike_id":"8c246830-ff13-49a5-81b9-ccc85d971f92","system_id":"levelo_inurba_marseille","lat":43.305939,"lon":5.393595,"is_reserved":false,"is_disabled":false,"rental_uris":{"android":"levelo://app?vid=8c246830-ff13-49a5-81b9-ccc85d971f92","ios":"levelo://app?vid=8c246830-ff13-49a5-81b9-ccc85d971f92"},"vehicle_type_id":"4","last_reported":1743617627,"current_range_meters":8000,"station_id":"ce4bgvp2rcd13ifvqct0","pricing_plan_id":"cebpf4jnsgd1na2vs0mg"},{"bike_id":"3ba6ccff-1eda-46d4-acbd-01dbdd65bb76","system_id":"levelo_inurba_marseille","lat":43.29905,"lon":5.43691,"is_reserved":false,"is_disabled":false,"rental_uris":{"android":"levelo://app?vid=3ba6ccff-1eda-46d4-acbd-01dbdd65bb76","ios":"levelo://app?vid=3ba6ccff-1eda-46d4-acbd-01dbdd65bb76"},"vehicle_type_id":"4","last_reported":1743617627,"current_range_meters":8000,"station_id":"ce4bhpp2rcd13ifvqhfg","pricing_plan_id":"cebpf4jnsgd1na2vs0mg"},{"bike_id":"827f02b2-a0a7-40ca-ac68-64972f196f42","system_id":"levelo_inurba_marseille","lat":43.29533,"lon":5.38547,"is_reserved":false,"is_disabled":false,"rental_uris":{"android":"levelo://app?vid=827f02b2-a0a7-40ca-ac68-64972f196f42","ios":"levelo://app?vid=827f02b2-a0a7-40ca-ac68-64972f196f42"},"vehicle_type_id":"4","last_reported":1743617627,"current_range_meters":8400,"station_id":"ce4bgih2rcd13ifvqba0","pricing_plan_id":"cebpf4jnsgd1na2vs0mg"},{"bike_id":"80e1cea3-1bbc-44a9-bf93-62277ab86138","system_id":"levelo_inurba_marseille","lat":43.30551,"lon":5.38427,"is_reserved":false,"is_disabled":false,"rental_uris":{"android":"levelo://app?vid=80e1cea3-1bbc-44a9-bf93-62277ab86138","ios":"levelo://app?vid=80e1cea3-1bbc-44a9-bf93-62277ab86138"},"vehicle_type_id":"4","last_reported":1743617627,"current_range_meters":8000,"station_id":"ce4bgg92rcd13ifvqb30","pricing_plan_id":"cebpf4jnsgd1na2vs0mg"},{"bike_id":"edbb5026-7092-42e3-b160-e8af571ca967","system_id":"levelo_inurba_marseille","lat":43.28164,"lon":5.42678,"is_reserved":false,"is_disabled":false,"rental_uris":{"android":"levelo://app?vid=edbb5026-7092-42e3-b160-e8af571ca967","ios":"levelo://app?vid=edbb5026-7092-42e3-b160-e8af571ca967"},"vehicle_type_id":"4","last_reported":1743617627,"current_range_meters":8400,"station_id":"ce4bhnh2rcd13ifvqgug","pricing_plan_id":"cebpf4jnsgd1na2vs0mg"},{"bike_id":"d3345442-2654-4ddc-b869-fce22decea38","system_id":"levelo_inurba_marseille","lat":43.2308,"lon":5.35488,"is_reserved":false,"is_disabled":false,"rental_uris":{"android":"levelo://app?vid=d3345442-2654-4ddc-b869-fce22decea38","ios":"levelo://app?vid=d3345442-2654-4ddc-b869-fce22decea38"},"vehicle_type_id":"4","last_reported":1743617627,"current_range_meters":8400,"station_id":"cpo3342slgdg3j2ifvpg","pricing_plan_id":"cebpf4jnsgd1na2vs0mg"},{"bike_id":"1c7ea303-0f0b-477c-a6b0-56cc00a9de10","system_id":"levelo_inurba_marseille","lat":43.32383,"lon":5.38895,"is_reserved":false,"is_disabled":false,"rental_uris":{"android":"levelo://app?vid=1c7ea303-0f0b-477c-a6b0-56cc00a9de10","ios":"levelo://app?vid=1c7ea303-0f0b-477c-a6b0-56cc00a9de10"},"vehicle_type_id":"4","last_reported":1743617627,"current_range_meters":8400,"station_id":"ce4bhqp2rcd13ifvqhog","pricing_plan_id":"cebpf4jnsgd1na2vs0mg"},{"bike_id":"7aa08c36-ee27-4e8e-996a-fcb4923ecbbb","system_id":"levelo_inurba_marseille","lat":43.28274,"lon":5.35047,"is_reserved":false,"is_disabled":true,"rental_uris":{"android":"levelo://app?vid=7aa08c36-ee27-4e8e-996a-fcb4923ecbbb","ios":"levelo://app?vid=7aa08c36-ee27-4e8e-996a-fcb4923ecbbb"},"vehicle_type_id":"4","last_reported":1743617627,"current_range_meters":8800,"station_id":"ce4bhbp2rcd13ifvqerg","pricing_plan_id":"cebpf4jnsgd1na2vs0mg"},{"bike_id":"4e8e0366-ced4-4bd3-8559-c7b58fbb6e6e","system_id":"levelo_inurba_marseille","lat":43.30317,"lon":5.40431,"is_reserved":false,"is_disabled":false,"rental_uris":{"android":"levelo://app?vid=4e8e0366-ced4-4bd3-8559-c7b58fbb6e6e","ios":"levelo://app?vid=4e8e0366-ced4-4bd3-8559-c7b58fbb6e6e"},"vehicle_type_id":"4","last_reported":1743617627,"current_range_meters":8800,"station_id":"ce4bh012rcd13ifvqd10","pricing_plan_id":"cebpf4jnsgd1na2vs0mg"},{"bike_id":"d95697ce-eb61-4237-997e-ce97956aff13","system_id":"levelo_inurba_marseille","lat":43.22943,"lon":5.354,"is_reserved":false,"is_disabled":false,"rental_uris":{"android":"levelo://app?vid=d95697ce-eb61-4237-997e-ce97956aff13","ios":"levelo://app?vid=d95697ce-eb61-4237-997e-ce97956aff13"},"vehicle_type_id":"4","last_reported":1743617627,"current_range_meters":8800,"station_id":"cpo3532slgdg3j2ikp40","pricing_plan_id":"cebpf4jnsgd1na2vs0mg"},{"bike_id":"13daecda-0bcc-40b2-bbb7-5669c81f9481","system_id":"levelo_inurba_marseille","lat":43.2958,"lon":5.36743,"is_reserved":false,"is_disabled":false,"rental_uris":{"android":"levelo://app?vid=13daecda-0bcc-40b2-bbb7-5669c81f9481","ios":"levelo://app?vid=13daecda-0bcc-40b2-bbb7-5669c81f9481"},"vehicle_type_id":"4","last_reported":1743617627,"current_range_meters":8800,"station_id":"ce4bgph2rcd13ifvqc2g","pricing_plan_id":"cebpf4jnsgd1na2vs0mg"},{"bike_id":"8d5b971e-28a3-40d2-975a-686cbf6dfadd","system_id":"levelo_inurba_marseille","lat":43.29551,"lon":5.42282,"is_reserved":false,"is_disabled":false,"rental_uris":{"android":"levelo://app?vid=8d5b971e-28a3-40d2-975a-686cbf6dfadd","ios":"levelo://app?vid=8d5b971e-28a3-40d2-975a-686cbf6dfadd"},"vehicle_type_id":"4","last_reported":1743617627,"current_range_meters":8800,"station_id":"ce4bhph2rcd13ifvqhdg","pricing_plan_id":"cebpf4jnsgd1na2vs0mg"},{"bike_id":"a4d6c0ce-d5fd-4ac9-98cc-4bef6acfd763","system_id":"levelo_inurba_marseille","lat":43.30883,"lon":5.39662,"is_reserved":false,"is_disabled":false,"rental_uris":{"android":"levelo://app?vid=a4d6c0ce-d5fd-4ac9-98cc-4bef6acfd763","ios":"levelo://app?vid=a4d6c0ce-d5fd-4ac9-98cc-4bef6acfd763"},"vehicle_type_id":"4","last_reported":1743617627,"current_range_meters":8800,"station_id":"ce4bh012rcd13ifvqcv0","pricing_plan_id":"cebpf4jnsgd1na2vs0mg"},{"bike_id":"18af200d-2170-450e-8731-04401b479ac0","system_id":"levelo_inurba_marseille","lat":43.27263,"lon":5.39281,"is_reserved":false,"is_disabled":false,"rental_uris":{"android":"levelo://app?vid=18af200d-2170-450e-8731-04401b479ac0","ios":"levelo://app?vid=18af200d-2170-450e-8731-04401b479ac0"},"vehicle_type_id":"4","last_reported":1743617627,"current_range_meters":8800,"station_id":"","pricing_plan_id":"cebpf4jnsgd1na2vs0mg"},{"bike_id":"1e56f8b0-0569-43fd-956b-7c3d45c8ba02","system_id":"levelo_inurba_marseille","lat":43.29306,"lon":5.41155,"is_reserved":false,"is_disabled":false,"rental_uris":{"android":"levelo://app?vid=1e56f8b0-0569-43fd-956b-7c3d45c8ba02","ios":"levelo://app?vid=1e56f8b0-0569-43fd-956b-7c3d45c8ba02"},"vehicle_type_id":"4","last_reported":1743617627,"current_range_meters":8800,"station_id":"","pricing_plan_id":"cebpf4jnsgd1na2vs0mg"},{"bike_id":"f55695a6-b65f-4a30-99ab-94b2bfa63268","system_id":"levelo_inurba_marseille","lat":43.23241,"lon":5.35589,"is_reserved":false,"is_disabled":false,"rental_uris":{"android":"levelo://app?vid=f55695a6-b65f-4a30-99ab-94b2bfa63268","ios":"levelo://app?vid=f55695a6-b65f-4a30-99ab-94b2bfa63268"},"vehicle_type_id":"4","last_reported":1743617627,"current_range_meters":8800,"station_id":"","pricing_plan_id":"cebpf4jnsgd1na2vs0mg"},{"bike_id":"d2f7c8f4-0524-4c24-a74a-ce8f6003c97d","system_id":"levelo_inurba_marseille","lat":43.28941,"lon":5.35977,"is_reserved":false,"is_disabled":false,"rental_uris":{"android":"levelo://app?vid=d2f7c8f4-0524-4c24-a74a-ce8f6003c97d","ios":"levelo://app?vid=d2f7c8f4-0524-4c24-a74a-ce8f6003c97d"},"vehicle_type_id":"4","last_reported":1743617627,"current_range_meters":8800,"station_id":"ce4bh412rcd13ifvqdr0","pricing_plan_id":"cebpf4jnsgd1na2vs0mg"},{"bike_id":"e89ce354-4dc9-4db2-9eee-94596afa2a12","system_id":"levelo_inurba_marseille","lat":43.29258,"lon":5.40907,"is_reserved":false,"is_disabled":false,"rental_uris":{"android":"levelo://app?vid=e89ce354-4dc9-4db2-9eee-94596afa2a12","ios":"levelo://app?vid=e89ce354-4dc9-4db2-9eee-94596afa2a12"},"vehicle_type_id":"4","last_reported":1743617627,"current_range_meters":8800,"station_id":"ce4bh192rcd13ifvqdc0","pricing_plan_id":"cebpf4jnsgd1na2vs0mg"},{"bike_id":"010f9395-18eb-4dc6-8de9-72c2a611c2d4","system_id":"levelo_inurba_marseille","lat":43.29414,"lon":5.37388,"is_reserved":false,"is_disabled":false,"rental_uris":{"android":"levelo://app?vid=010f9395-18eb-4dc6-8de9-72c2a611c2d4","ios":"levelo://app?vid=010f9395-18eb-4dc6-8de9-72c2a611c2d4"},"vehicle_type_id":"4","last_reported":1743617627,"current_range_meters":9200,"station_id":"","pricing_plan_id":"cebpf4jnsgd1na2vs0mg"},{"bike_id":"7b869cea-1d61-42d2-b04b-29df5bd7497f","system_id":"levelo_inurba_marseille","lat":43.32093,"lon":5.36823,"is_reserved":false,"is_disabled":false,"rental_uris":{"android":"levelo://app?vid=7b869cea-1d61-42d2-b04b-29df5bd7497f","ios":"levelo://app?vid=7b869cea-1d61-42d2-b04b-29df5bd7497f"},"vehicle_type_id":"4","last_reported":1743617627,"current_range_meters":9200,"station_id":"ce4bhrh2rcd13ifvqhug","pricing_plan_id":"cebpf4jnsgd1na2vs0mg"},{"bike_id":"b80ee275-2592-4659-b2e9-175feb839700","system_id":"levelo_inurba_marseille","lat":43.23207,"lon":5.3554,"is_reserved":false,"is_disabled":false,"rental_uris":{"android":"levelo://app?vid=b80ee275-2592-4659-b2e9-175feb839700","ios":"levelo://app?vid=b80ee275-2592-4659-b2e9-175feb839700"},"vehicle_type_id":"4","last_reported":1743617627,"current_range_meters":9200,"station_id":"ce4bhu92rcd13ifvqi70","pricing_plan_id":"cebpf4jnsgd1na2vs0mg"},{"bike_id":"09a8a7dc-25ab-48a6-ac8b-5ee88a884479","system_id":"levelo_inurba_marseille","lat":43.28635,"lon":5.38418,"is_reserved":false,"is_disabled":false,"rental_uris":{"android":"levelo://app?vid=09a8a7dc-25ab-48a6-ac8b-5ee88a884479","ios":"levelo://app?vid=09a8a7dc-25ab-48a6-ac8b-5ee88a884479"},"vehicle_type_id":"4","last_reported":1743617627,"current_range_meters":9200,"station_id":"","pricing_plan_id":"cebpf4jnsgd1na2vs0mg"},{"bike_id":"a37ba079-4ccc-43bf-b918-b876a550e8db","system_id":"levelo_inurba_marseille","lat":43.25581,"lon":5.38259,"is_reserved":false,"is_disabled":false,"rental_uris":{"android":"levelo://app?vid=a37ba079-4ccc-43bf-b918-b876a550e8db","ios":"levelo://app?vid=a37ba079-4ccc-43bf-b918-b876a550e8db"},"vehicle_type_id":"4","last_reported":1743617627,"current_range_meters":9200,"station_id":"ce4bhih2rcd13ifvqfs0","pricing_plan_id":"cebpf4jnsgd1na2vs0mg"},{"bike_id":"6e6a66e5-58ca-4db1-9695-b46ed5c28827","system_id":"levelo_inurba_marseille","lat":43.31688,"lon":5.36384,"is_reserved":false,"is_disabled":false,"rental_uris":{"android":"levelo://app?vid=6e6a66e5-58ca-4db1-9695-b46ed5c28827","ios":"levelo://app?vid=6e6a66e5-58ca-4db1-9695-b46ed5c28827"},"vehicle_type_id":"4","last_reported":1743617627,"current_range_meters":9200,"station_id":"","pricing_plan_id":"cebpf4jnsgd1na2vs0mg"},{"bike_id":"25c9da1a-b5c2-481b-a59e-5c1900e213f6","system_id":"levelo_inurba_marseille","lat":43.2557,"lon":5.38253,"is_reserved":false,"is_disabled":false,"rental_uris":{"android":"levelo://app?vid=25c9da1a-b5c2-481b-a59e-5c1900e213f6","ios":"levelo://app?vid=25c9da1a-b5c2-481b-a59e-5c1900e213f6"},"vehicle_type_id":"4","last_reported":1743617627,"current_range_meters":9200,"station_id":"ce4bhih2rcd13ifvqfs0","pricing_plan_id":"cebpf4jnsgd1na2vs0mg"},{"bike_id":"2e1d0491-8046-4a1c-910c-6d230f4ca468","system_id":"levelo_inurba_marseille","lat":43.30665,"lon":5.37369,"is_reserved":false,"is_disabled":false,"rental_uris":{"android":"levelo://app?vid=2e1d0491-8046-4a1c-910c-6d230f4ca468","ios":"levelo://app?vid=2e1d0491-8046-4a1c-910c-6d230f4ca468"},"vehicle_type_id":"4","last_reported":1743617627,"current_range_meters":9200,"station_id":"","pricing_plan_id":"cebpf4jnsgd1na2vs0mg"},{"bike_id":"de4d848a-ff2a-42ed-9d48-0f0a316bcb8e","system_id":"levelo_inurba_marseille","lat":43.295396,"lon":5.385672,"is_reserved":false,"is_disabled":false,"rental_uris":{"android":"levelo://app?vid=de4d848a-ff2a-42ed-9d48-0f0a316bcb8e","ios":"levelo://app?vid=de4d848a-ff2a-42ed-9d48-0f0a316bcb8e"},"vehicle_type_id":"4","last_reported":1743617627,"current_range_meters":9600,"station_id":"ce4bgih2rcd13ifvqba0","pricing_plan_id":"cebpf4jnsgd1na2vs0mg"},{"bike_id":"04556df8-715f-45d8-b288-9c8fd51282f9","system_id":"levelo_inurba_marseille","lat":43.23214,"lon":5.35578,"is_reserved":false,"is_disabled":false,"rental_uris":{"android":"levelo://app?vid=04556df8-715f-45d8-b288-9c8fd51282f9","ios":"levelo://app?vid=04556df8-715f-45d8-b288-9c8fd51282f9"},"vehicle_type_id":"4","last_reported":1743617627,"current_range_meters":9600,"station_id":"ce4bhu92rcd13ifvqi70","pricing_plan_id":"cebpf4jnsgd1na2vs0mg"},{"bike_id":"988a4b2a-1fca-4561-9342-57ad8b6adb1c","system_id":"levelo_inurba_marseille","lat":43.22927,"lon":5.3539,"is_reserved":false,"is_disabled":false,"rental_uris":{"android":"levelo://app?vid=988a4b2a-1fca-4561-9342-57ad8b6adb1c","ios":"levelo://app?vid=988a4b2a-1fca-4561-9342-57ad8b6adb1c"},"vehicle_type_id":"4","last_reported":1743617627,"current_range_meters":9600,"station_id":"cpo3532slgdg3j2ikp40","pricing_plan_id":"cebpf4jnsgd1na2vs0mg"},{"bike_id":"b52eafbb-0fdc-487b-b3ce-3a3f8cf7e638","system_id":"levelo_inurba_marseille","lat":43.33106,"lon":5.39247,"is_reserved":false,"is_disabled":false,"rental_uris":{"android":"levelo://app?vid=b52eafbb-0fdc-487b-b3ce-3a3f8cf7e638","ios":"levelo://app?vid=b52eafbb-0fdc-487b-b3ce-3a3f8cf7e638"},"vehicle_type_id":"4","last_reported":1743617627,"current_range_meters":9600,"station_id":"","pricing_plan_id":"cebpf4jnsgd1na2vs0mg"},{"bike_id":"d157a8ac-f1ea-480a-a1ee-9ac00962bb01","system_id":"levelo_inurba_marseille","lat":43.29549,"lon":5.42297,"is_reserved":false,"is_disabled":false,"rental_uris":{"android":"levelo://app?vid=d157a8ac-f1ea-480a-a1ee-9ac00962bb01","ios":"levelo://app?vid=d157a8ac-f1ea-480a-a1ee-9ac00962bb01"},"vehicle_type_id":"4","last_reported":1743617627,"current_range_meters":9600,"station_id":"ce4bhph2rcd13ifvqhdg","pricing_plan_id":"cebpf4jnsgd1na2vs0mg"},{"bike_id":"f87e996c-206a-47d9-8697-84a2d463fdc3","system_id":"levelo_inurba_marseille","lat":43.231696,"lon":5.355864,"is_reserved":false,"is_disabled":false,"rental_uris":{"android":"levelo://app?vid=f87e996c-206a-47d9-8697-84a2d463fdc3","ios":"levelo://app?vid=f87e996c-206a-47d9-8697-84a2d463fdc3"},"vehicle_type_id":"4","last_reported":1743617627,"current_range_meters":9600,"station_id":"ce4bhu92rcd13ifvqi70","pricing_plan_id":"cebpf4jnsgd1na2vs0mg"},{"bike_id":"36a4dc75-cd6b-417b-95e0-81768f433df4","system_id":"levelo_inurba_marseille","lat":43.281633,"lon":5.426548,"is_reserved":false,"is_disabled":false,"rental_uris":{"android":"levelo://app?vid=36a4dc75-cd6b-417b-95e0-81768f433df4","ios":"levelo://app?vid=36a4dc75-cd6b-417b-95e0-81768f433df4"},"vehicle_type_id":"4","last_reported":1743617627,"current_range_meters":9600,"station_id":"ce4bhnh2rcd13ifvqgug","pricing_plan_id":"cebpf4jnsgd1na2vs0mg"},{"bike_id":"5898c0b5-7f9f-496f-b6b8-814ea7d25629","system_id":"levelo_inurba_marseille","lat":43.26213,"lon":5.3744,"is_reserved":false,"is_disabled":false,"rental_uris":{"android":"levelo://app?vid=5898c0b5-7f9f-496f-b6b8-814ea7d25629","ios":"levelo://app?vid=5898c0b5-7f9f-496f-b6b8-814ea7d25629"},"vehicle_type_id":"4","last_reported":1743617627,"current_range_meters":9600,"station_id":"ce4bhgp2rcd13ifvqfc0","pricing_plan_id":"cebpf4jnsgd1na2vs0mg"},{"bike_id":"5bc89c9d-235f-4956-aaa4-6143b2018826","system_id":"levelo_inurba_marseille","lat":43.29273,"lon":5.38449,"is_reserved":false,"is_disabled":false,"rental_uris":{"android":"levelo://app?vid=5bc89c9d-235f-4956-aaa4-6143b2018826","ios":"levelo://app?vid=5bc89c9d-235f-4956-aaa4-6143b2018826"},"vehicle_type_id":"4","last_reported":1743617627,"current_range_meters":9200,"station_id":"ce4bh692rcd13ifvqea0","pricing_plan_id":"cebpf4jnsgd1na2vs0mg"},{"bike_id":"a112ce08-6f4e-41f2-873e-94895f2e1506","system_id":"levelo_inurba_marseille","lat":43.27697,"lon":5.38844,"is_reserved":false,"is_disabled":true,"rental_uris":{"android":"levelo://app?vid=a112ce08-6f4e-41f2-873e-94895f2e1506","ios":"levelo://app?vid=a112ce08-6f4e-41f2-873e-94895f2e1506"},"vehicle_type_id":"4","last_reported":1743617627,"current_range_meters":9600,"station_id":"ce4bhi12rcd13ifvqfo0","pricing_plan_id":"cebpf4jnsgd1na2vs0mg"},{"bike_id":"23ce10e6-d59b-4161-b3a6-b985028430f9","system_id":"levelo_inurba_marseille","lat":43.297974,"lon":5.380978,"is_reserved":false,"is_disabled":false,"rental_uris":{"android":"levelo://app?vid=23ce10e6-d59b-4161-b3a6-b985028430f9","ios":"levelo://app?vid=23ce10e6-d59b-4161-b3a6-b985028430f9"},"vehicle_type_id":"4","last_reported":1743617627,"current_range_meters":9600,"station_id":"ce4bgip2rcd13ifvqbb0","pricing_plan_id":"cebpf4jnsgd1na2vs0mg"},{"bike_id":"1cc56aae-45a2-4fff-b1a7-9e957e7043f2","system_id":"levelo_inurba_marseille","lat":43.28716,"lon":5.37413,"is_reserved":false,"is_disabled":false,"rental_uris":{"android":"levelo://app?vid=1cc56aae-45a2-4fff-b1a7-9e957e7043f2","ios":"levelo://app?vid=1cc56aae-45a2-4fff-b1a7-9e957e7043f2"},"vehicle_type_id":"4","last_reported":1743617627,"current_range_meters":9600,"station_id":"ce4bh3p2rcd13ifvqdq0","pricing_plan_id":"cebpf4jnsgd1na2vs0mg"},{"bike_id":"49428efe-bbd8-4963-9aaf-ed822fd5c61b","system_id":"levelo_inurba_marseille","lat":43.2919,"lon":5.44402,"is_reserved":false,"is_disabled":false,"rental_uris":{"android":"levelo://app?vid=49428efe-bbd8-4963-9aaf-ed822fd5c61b","ios":"levelo://app?vid=49428efe-bbd8-4963-9aaf-ed822fd5c61b"},"vehicle_type_id":"4","last_reported":1743617627,"current_range_meters":9600,"station_id":"","pricing_plan_id":"cebpf4jnsgd1na2vs0mg"},{"bike_id":"4b44f39c-5bb2-424a-891d-855ab4adfcfa","system_id":"levelo_inurba_marseille","lat":43.3014,"lon":5.38782,"is_reserved":false,"is_disabled":true,"rental_uris":{"android":"levelo://app?vid=4b44f39c-5bb2-424a-891d-855ab4adfcfa","ios":"levelo://app?vid=4b44f39c-5bb2-424a-891d-855ab4adfcfa"},"vehicle_type_id":"4","last_reported":1743617627,"current_range_meters":9600,"station_id":"ce4bghh2rcd13ifvqb60","pricing_plan_id":"cebpf4jnsgd1na2vs0mg"},{"bike_id":"e44bd9b4-de2e-4f52-ab32-767c7d24b0da","system_id":"levelo_inurba_marseille","lat":43.30947,"lon":5.39017,"is_reserved":false,"is_disabled":false,"rental_uris":{"android":"levelo://app?vid=e44bd9b4-de2e-4f52-ab32-767c7d24b0da","ios":"levelo://app?vid=e44bd9b4-de2e-4f52-ab32-767c7d24b0da"},"vehicle_type_id":"4","last_reported":1743617627,"current_range_meters":10000,"station_id":"ce4bgup2rcd13ifvqco0","pricing_plan_id":"cebpf4jnsgd1na2vs0mg"},{"bike_id":"1006235b-1c25-4d94-97c7-b9bd84d28baf","system_id":"levelo_inurba_marseille","lat":43.31184,"lon":5.38244,"is_reserved":false,"is_disabled":false,"rental_uris":{"android":"levelo://app?vid=1006235b-1c25-4d94-97c7-b9bd84d28baf","ios":"levelo://app?vid=1006235b-1c25-4d94-97c7-b9bd84d28baf"},"vehicle_type_id":"4","last_reported":1743617627,"current_range_meters":10000,"station_id":"","pricing_plan_id":"cebpf4jnsgd1na2vs0mg"},{"bike_id":"9c14f324-ae47-4b7f-bb1f-ed7f4b5a827a","system_id":"levelo_inurba_marseille","lat":43.29907,"lon":5.38133,"is_reserved":false,"is_disabled":false,"rental_uris":{"android":"levelo://app?vid=9c14f324-ae47-4b7f-bb1f-ed7f4b5a827a","ios":"levelo://app?vid=9c14f324-ae47-4b7f-bb1f-ed7f4b5a827a"},"vehicle_type_id":"4","last_reported":1743617627,"current_range_meters":10000,"station_id":"ce4bgj12rcd13ifvqbc0","pricing_plan_id":"cebpf4jnsgd1na2vs0mg"},{"bike_id":"d5b78c1b-fd6f-4c78-8faa-542c7f62e78e","system_id":"levelo_inurba_marseille","lat":43.30175,"lon":5.36616,"is_reserved":false,"is_disabled":false,"rental_uris":{"android":"levelo://app?vid=d5b78c1b-fd6f-4c78-8faa-542c7f62e78e","ios":"levelo://app?vid=d5b78c1b-fd6f-4c78-8faa-542c7f62e78e"},"vehicle_type_id":"4","last_reported":1743617627,"current_range_meters":10000,"station_id":"ce4bgrh2rcd13ifvqc8g","pricing_plan_id":"cebpf4jnsgd1na2vs0mg"},{"bike_id":"e389f031-3fe7-4b5e-91dc-1dff05117a0a","system_id":"levelo_inurba_marseille","lat":43.2886,"lon":5.39329,"is_reserved":false,"is_disabled":false,"rental_uris":{"android":"levelo://app?vid=e389f031-3fe7-4b5e-91dc-1dff05117a0a","ios":"levelo://app?vid=e389f031-3fe7-4b5e-91dc-1dff05117a0a"},"vehicle_type_id":"4","last_reported":1743617627,"current_range_meters":10000,"station_id":"ce4bh2p2rcd13ifvqdi0","pricing_plan_id":"cebpf4jnsgd1na2vs0mg"},{"bike_id":"2b809bc0-2534-4770-a34b-009260ae96c0","system_id":"levelo_inurba_marseille","lat":43.30599,"lon":5.3723,"is_reserved":false,"is_disabled":false,"rental_uris":{"android":"levelo://app?vid=2b809bc0-2534-4770-a34b-009260ae96c0","ios":"levelo://app?vid=2b809bc0-2534-4770-a34b-009260ae96c0"},"vehicle_type_id":"4","last_reported":1743617627,"current_range_meters":9600,"station_id":"ce4bgqh2rcd13ifvqc4g","pricing_plan_id":"cebpf4jnsgd1na2vs0mg"},{"bike_id":"2cf61775-cb21-4b86-a7af-7925ef8f8bd8","system_id":"levelo_inurba_marseille","lat":43.22948,"lon":5.3537,"is_reserved":false,"is_disabled":false,"rental_uris":{"android":"levelo://app?vid=2cf61775-cb21-4b86-a7af-7925ef8f8bd8","ios":"levelo://app?vid=2cf61775-cb21-4b86-a7af-7925ef8f8bd8"},"vehicle_type_id":"4","last_reported":1743617627,"current_range_meters":10000,"station_id":"cpo3532slgdg3j2ikp40","pricing_plan_id":"cebpf4jnsgd1na2vs0mg"},{"bike_id":"480c72ca-2756-4d24-93de-06bb02c2d8e3","system_id":"levelo_inurba_marseille","lat":43.261946,"lon":5.378926,"is_reserved":false,"is_disabled":false,"rental_uris":{"android":"levelo://app?vid=480c72ca-2756-4d24-93de-06bb02c2d8e3","ios":"levelo://app?vid=480c72ca-2756-4d24-93de-06bb02c2d8e3"},"vehicle_type_id":"4","last_reported":1743617627,"current_range_meters":9600,"station_id":"ce4bhjp2rcd13ifvqg90","pricing_plan_id":"cebpf4jnsgd1na2vs0mg"},{"bike_id":"03606d41-ab54-48de-8620-3c978ff91e18","system_id":"levelo_inurba_marseille","lat":43.284197,"lon":5.34989,"is_reserved":false,"is_disabled":false,"rental_uris":{"android":"levelo://app?vid=03606d41-ab54-48de-8620-3c978ff91e18","ios":"levelo://app?vid=03606d41-ab54-48de-8620-3c978ff91e18"},"vehicle_type_id":"4","last_reported":1743617627,"current_range_meters":10000,"station_id":"ce4bhbh2rcd13ifvqepg","pricing_plan_id":"cebpf4jnsgd1na2vs0mg"},{"bike_id":"f8dc6029-025c-47cd-8921-5ce023e19c20","system_id":"levelo_inurba_marseille","lat":43.31992,"lon":5.38141,"is_reserved":false,"is_disabled":false,"rental_uris":{"android":"levelo://app?vid=f8dc6029-025c-47cd-8921-5ce023e19c20","ios":"levelo://app?vid=f8dc6029-025c-47cd-8921-5ce023e19c20"},"vehicle_type_id":"4","last_reported":1743617627,"current_range_meters":10000,"station_id":"ce4bhr12rcd13ifvqhpg","pricing_plan_id":"cebpf4jnsgd1na2vs0mg"},{"bike_id":"e2f25362-451d-4212-bfbe-e3fa67581bc7","system_id":"levelo_inurba_marseille","lat":43.29272,"lon":5.38418,"is_reserved":false,"is_disabled":false,"rental_uris":{"android":"levelo://app?vid=e2f25362-451d-4212-bfbe-e3fa67581bc7","ios":"levelo://app?vid=e2f25362-451d-4212-bfbe-e3fa67581bc7"},"vehicle_type_id":"4","last_reported":1743617627,"current_range_meters":10000,"station_id":"ce4bh692rcd13ifvqea0","pricing_plan_id":"cebpf4jnsgd1na2vs0mg"},{"bike_id":"b5ec7cb2-f7f1-47f6-8022-c0d048ebfbe5","system_id":"levelo_inurba_marseille","lat":43.3301,"lon":5.39025,"is_reserved":false,"is_disabled":false,"rental_uris":{"android":"levelo://app?vid=b5ec7cb2-f7f1-47f6-8022-c0d048ebfbe5","ios":"levelo://app?vid=b5ec7cb2-f7f1-47f6-8022-c0d048ebfbe5"},"vehicle_type_id":"4","last_reported":1743617627,"current_range_meters":10000,"station_id":"ce4bhr92rcd13ifvqhrg","pricing_plan_id":"cebpf4jnsgd1na2vs0mg"},{"bike_id":"75dae32f-059a-4b5b-a5e8-963c6eda2f66","system_id":"levelo_inurba_marseille","lat":43.27539,"lon":5.41006,"is_reserved":false,"is_disabled":false,"rental_uris":{"android":"levelo://app?vid=75dae32f-059a-4b5b-a5e8-963c6eda2f66","ios":"levelo://app?vid=75dae32f-059a-4b5b-a5e8-963c6eda2f66"},"vehicle_type_id":"4","last_reported":1743617627,"current_range_meters":10000,"station_id":"","pricing_plan_id":"cebpf4jnsgd1na2vs0mg"},{"bike_id":"4fe68082-e486-40ee-a1d2-d62788ae4d1b","system_id":"levelo_inurba_marseille","lat":43.29554,"lon":5.42291,"is_reserved":false,"is_disabled":false,"rental_uris":{"android":"levelo://app?vid=4fe68082-e486-40ee-a1d2-d62788ae4d1b","ios":"levelo://app?vid=4fe68082-e486-40ee-a1d2-d62788ae4d1b"},"vehicle_type_id":"4","last_reported":1743617627,"current_range_meters":10800,"station_id":"ce4bhph2rcd13ifvqhdg","pricing_plan_id":"cebpf4jnsgd1na2vs0mg"},{"bike_id":"a4c9ec7f-c1e0-490d-b666-9d21d7d30b6f","system_id":"levelo_inurba_marseille","lat":43.24816,"lon":5.37436,"is_reserved":false,"is_disabled":false,"rental_uris":{"android":"levelo://app?vid=a4c9ec7f-c1e0-490d-b666-9d21d7d30b6f","ios":"levelo://app?vid=a4c9ec7f-c1e0-490d-b666-9d21d7d30b6f"},"vehicle_type_id":"4","last_reported":1743617627,"current_range_meters":10800,"station_id":"ce4bhgh2rcd13ifvqfb0","pricing_plan_id":"cebpf4jnsgd1na2vs0mg"},{"bike_id":"7ba67d0a-4dd2-434e-9233-c217be617343","system_id":"levelo_inurba_marseille","lat":43.33831,"lon":5.37458,"is_reserved":false,"is_disabled":false,"rental_uris":{"android":"levelo://app?vid=7ba67d0a-4dd2-434e-9233-c217be617343","ios":"levelo://app?vid=7ba67d0a-4dd2-434e-9233-c217be617343"},"vehicle_type_id":"4","last_reported":1743617627,"current_range_meters":10800,"station_id":"","pricing_plan_id":"cebpf4jnsgd1na2vs0mg"},{"bike_id":"f9e68cae-714f-4c23-815c-8393be44f654","system_id":"levelo_inurba_marseille","lat":43.33026,"lon":5.39041,"is_reserved":false,"is_disabled":false,"rental_uris":{"android":"levelo://app?vid=f9e68cae-714f-4c23-815c-8393be44f654","ios":"levelo://app?vid=f9e68cae-714f-4c23-815c-8393be44f654"},"vehicle_type_id":"4","last_reported":1743617627,"current_range_meters":10800,"station_id":"ce4bhr92rcd13ifvqhrg","pricing_plan_id":"cebpf4jnsgd1na2vs0mg"},{"bike_id":"be7abc7a-2474-4517-9091-bdaf3a780398","system_id":"levelo_inurba_marseille","lat":43.28982,"lon":5.37852,"is_reserved":false,"is_disabled":false,"rental_uris":{"android":"levelo://app?vid=be7abc7a-2474-4517-9091-bdaf3a780398","ios":"levelo://app?vid=be7abc7a-2474-4517-9091-bdaf3a780398"},"vehicle_type_id":"4","last_reported":1743617627,"current_range_meters":10800,"station_id":"ce4bh9p2rcd13ifvqed0","pricing_plan_id":"cebpf4jnsgd1na2vs0mg"},{"bike_id":"b82f18f3-e7af-497e-b4b0-7faa3e310983","system_id":"levelo_inurba_marseille","lat":43.27561,"lon":5.38422,"is_reserved":false,"is_disabled":false,"rental_uris":{"android":"levelo://app?vid=b82f18f3-e7af-497e-b4b0-7faa3e310983","ios":"levelo://app?vid=b82f18f3-e7af-497e-b4b0-7faa3e310983"},"vehicle_type_id":"4","last_reported":1743617627,"current_range_meters":10000,"station_id":"ce4bhh92rcd13ifvqfi0","pricing_plan_id":"cebpf4jnsgd1na2vs0mg"},{"bike_id":"82be00d7-07cd-447f-a119-c8efb6be13a1","system_id":"levelo_inurba_marseille","lat":43.32371,"lon":5.38873,"is_reserved":false,"is_disabled":false,"rental_uris":{"android":"levelo://app?vid=82be00d7-07cd-447f-a119-c8efb6be13a1","ios":"levelo://app?vid=82be00d7-07cd-447f-a119-c8efb6be13a1"},"vehicle_type_id":"4","last_reported":1743617627,"current_range_meters":10800,"station_id":"ce4bhqp2rcd13ifvqhog","pricing_plan_id":"cebpf4jnsgd1na2vs0mg"},{"bike_id":"429b3b30-cc48-462a-bd30-7000df14b918","system_id":"levelo_inurba_marseille","lat":43.33024,"lon":5.3903,"is_reserved":false,"is_disabled":false,"rental_uris":{"android":"levelo://app?vid=429b3b30-cc48-462a-bd30-7000df14b918","ios":"levelo://app?vid=429b3b30-cc48-462a-bd30-7000df14b918"},"vehicle_type_id":"4","last_reported":1743617627,"current_range_meters":10800,"station_id":"ce4bhr92rcd13ifvqhrg","pricing_plan_id":"cebpf4jnsgd1na2vs0mg"},{"bike_id":"ea464bc9-6baf-477f-8592-2d7142958a22","system_id":"levelo_inurba_marseille","lat":43.266914,"lon":5.382851,"is_reserved":false,"is_disabled":true,"rental_uris":{"android":"levelo://app?vid=ea464bc9-6baf-477f-8592-2d7142958a22","ios":"levelo://app?vid=ea464bc9-6baf-477f-8592-2d7142958a22"},"vehicle_type_id":"4","last_reported":1743617627,"current_range_meters":10800,"station_id":"ce4bhg92rcd13ifvqf90","pricing_plan_id":"cebpf4jnsgd1na2vs0mg"},{"bike_id":"1f6bc5dc-7054-4b95-bf7f-a9c705dff9da","system_id":"levelo_inurba_marseille","lat":43.27386,"lon":5.3627,"is_reserved":false,"is_disabled":false,"rental_uris":{"android":"levelo://app?vid=1f6bc5dc-7054-4b95-bf7f-a9c705dff9da","ios":"levelo://app?vid=1f6bc5dc-7054-4b95-bf7f-a9c705dff9da"},"vehicle_type_id":"4","last_reported":1743617627,"current_range_meters":10800,"station_id":"ce4bhbh2rcd13ifvqeo0","pricing_plan_id":"cebpf4jnsgd1na2vs0mg"},{"bike_id":"c2e6881a-04a3-4a38-9cc0-75cacf165e78","system_id":"levelo_inurba_marseille","lat":43.28832,"lon":5.364645,"is_reserved":false,"is_disabled":false,"rental_uris":{"android":"levelo://app?vid=c2e6881a-04a3-4a38-9cc0-75cacf165e78","ios":"levelo://app?vid=c2e6881a-04a3-4a38-9cc0-75cacf165e78"},"vehicle_type_id":"4","last_reported":1743617627,"current_range_meters":11200,"station_id":"","pricing_plan_id":"cebpf4jnsgd1na2vs0mg"},{"bike_id":"cd85d27c-d72a-4cb7-a2e9-1564ccca00da","system_id":"levelo_inurba_marseille","lat":43.298096,"lon":5.381023,"is_reserved":false,"is_disabled":false,"rental_uris":{"android":"levelo://app?vid=cd85d27c-d72a-4cb7-a2e9-1564ccca00da","ios":"levelo://app?vid=cd85d27c-d72a-4cb7-a2e9-1564ccca00da"},"vehicle_type_id":"4","last_reported":1743617627,"current_range_meters":11200,"station_id":"ce4bgip2rcd13ifvqbb0","pricing_plan_id":"cebpf4jnsgd1na2vs0mg"},{"bike_id":"7e518bd1-a3c5-4718-b257-c0d50b977d20","system_id":"levelo_inurba_marseille","lat":43.25849,"lon":5.39886,"is_reserved":false,"is_disabled":true,"rental_uris":{"android":"levelo://app?vid=7e518bd1-a3c5-4718-b257-c0d50b977d20","ios":"levelo://app?vid=7e518bd1-a3c5-4718-b257-c0d50b977d20"},"vehicle_type_id":"4","last_reported":1743617627,"current_range_meters":11200,"station_id":"ce4bhl92rcd13ifvqghg","pricing_plan_id":"cebpf4jnsgd1na2vs0mg"},{"bike_id":"b5fa61b4-55c0-4d0f-b518-f0583e71aca3","system_id":"levelo_inurba_marseille","lat":43.22927,"lon":5.35392,"is_reserved":false,"is_disabled":false,"rental_uris":{"android":"levelo://app?vid=b5fa61b4-55c0-4d0f-b518-f0583e71aca3","ios":"levelo://app?vid=b5fa61b4-55c0-4d0f-b518-f0583e71aca3"},"vehicle_type_id":"4","last_reported":1743617627,"current_range_meters":11200,"station_id":"cpo3532slgdg3j2ikp40","pricing_plan_id":"cebpf4jnsgd1na2vs0mg"},{"bike_id":"9c7c43d0-e830-4895-beb2-cb4882b8b24e","system_id":"levelo_inurba_marseille","lat":43.29418,"lon":5.38623,"is_reserved":false,"is_disabled":false,"rental_uris":{"android":"levelo://app?vid=9c7c43d0-e830-4895-beb2-cb4882b8b24e","ios":"levelo://app?vid=9c7c43d0-e830-4895-beb2-cb4882b8b24e"},"vehicle_type_id":"4","last_reported":1743617627,"current_range_meters":11200,"station_id":"ce4bh2h2rcd13ifvqdh0","pricing_plan_id":"cebpf4jnsgd1na2vs0mg"},{"bike_id":"b6c9f5f1-960a-4997-b012-8ab1bce425f2","system_id":"levelo_inurba_marseille","lat":43.273773,"lon":5.362533,"is_reserved":false,"is_disabled":false,"rental_uris":{"android":"levelo://app?vid=b6c9f5f1-960a-4997-b012-8ab1bce425f2","ios":"levelo://app?vid=b6c9f5f1-960a-4997-b012-8ab1bce425f2"},"vehicle_type_id":"4","last_reported":1743617627,"current_range_meters":11200,"station_id":"ce4bhbh2rcd13ifvqeo0","pricing_plan_id":"cebpf4jnsgd1na2vs0mg"},{"bike_id":"6fd3d18f-c3b5-4d07-8160-12fc5c26448c","system_id":"levelo_inurba_marseille","lat":43.32365,"lon":5.38884,"is_reserved":false,"is_disabled":false,"rental_uris":{"android":"levelo://app?vid=6fd3d18f-c3b5-4d07-8160-12fc5c26448c","ios":"levelo://app?vid=6fd3d18f-c3b5-4d07-8160-12fc5c26448c"},"vehicle_type_id":"4","last_reported":1743617627,"current_range_meters":11200,"station_id":"ce4bhqp2rcd13ifvqhog","pricing_plan_id":"cebpf4jnsgd1na2vs0mg"},{"bike_id":"b6c83da9-b3c4-4843-9a1d-36871e12515b","system_id":"levelo_inurba_marseille","lat":43.26122,"lon":5.41466,"is_reserved":false,"is_disabled":false,"rental_uris":{"android":"levelo://app?vid=b6c83da9-b3c4-4843-9a1d-36871e12515b","ios":"levelo://app?vid=b6c83da9-b3c4-4843-9a1d-36871e12515b"},"vehicle_type_id":"4","last_reported":1743617627,"current_range_meters":11200,"station_id":"","pricing_plan_id":"cebpf4jnsgd1na2vs0mg"},{"bike_id":"c89f14d9-c4ab-408e-ad23-e7b73656006e","system_id":"levelo_inurba_marseille","lat":43.30378,"lon":5.42493,"is_reserved":false,"is_disabled":false,"rental_uris":{"android":"levelo://app?vid=c89f14d9-c4ab-408e-ad23-e7b73656006e","ios":"levelo://app?vid=c89f14d9-c4ab-408e-ad23-e7b73656006e"},"vehicle_type_id":"4","last_reported":1743617627,"current_range_meters":11200,"station_id":"ce4bhoh2rcd13ifvqh6g","pricing_plan_id":"cebpf4jnsgd1na2vs0mg"},{"bike_id":"e7aaabc6-3e93-49a9-b7aa-828d40dce516","system_id":"levelo_inurba_marseille","lat":43.29118,"lon":5.38395,"is_reserved":false,"is_disabled":false,"rental_uris":{"android":"levelo://app?vid=e7aaabc6-3e93-49a9-b7aa-828d40dce516","ios":"levelo://app?vid=e7aaabc6-3e93-49a9-b7aa-828d40dce516"},"vehicle_type_id":"4","last_reported":1743617627,"current_range_meters":11600,"station_id":"ce4bh692rcd13ifvqea0","pricing_plan_id":"cebpf4jnsgd1na2vs0mg"},{"bike_id":"f19bac04-bf29-4dcd-8f90-a3461db87fa6","system_id":"levelo_inurba_marseille","lat":43.27377,"lon":5.36256,"is_reserved":false,"is_disabled":false,"rental_uris":{"android":"levelo://app?vid=f19bac04-bf29-4dcd-8f90-a3461db87fa6","ios":"levelo://app?vid=f19bac04-bf29-4dcd-8f90-a3461db87fa6"},"vehicle_type_id":"4","last_reported":1743617627,"current_range_meters":11600,"station_id":"ce4bhbh2rcd13ifvqeo0","pricing_plan_id":"cebpf4jnsgd1na2vs0mg"},{"bike_id":"1318b6fd-dd50-441c-a6e3-d0c66221598e","system_id":"levelo_inurba_marseille","lat":43.24661,"lon":5.38164,"is_reserved":false,"is_disabled":false,"rental_uris":{"android":"levelo://app?vid=1318b6fd-dd50-441c-a6e3-d0c66221598e","ios":"levelo://app?vid=1318b6fd-dd50-441c-a6e3-d0c66221598e"},"vehicle_type_id":"4","last_reported":1743617627,"current_range_meters":11200,"station_id":"ce4bhih2rcd13ifvqfr0","pricing_plan_id":"cebpf4jnsgd1na2vs0mg"},{"bike_id":"61c89c49-d1b9-410b-b70c-a4504c0c212d","system_id":"levelo_inurba_marseille","lat":43.28464,"lon":5.35877,"is_reserved":false,"is_disabled":false,"rental_uris":{"android":"levelo://app?vid=61c89c49-d1b9-410b-b70c-a4504c0c212d","ios":"levelo://app?vid=61c89c49-d1b9-410b-b70c-a4504c0c212d"},"vehicle_type_id":"4","last_reported":1743617627,"current_range_meters":11600,"station_id":"ce4bhah2rcd13ifvqei0","pricing_plan_id":"cebpf4jnsgd1na2vs0mg"},{"bike_id":"054bd084-de56-414f-9ea4-2892c7a1f3f1","system_id":"levelo_inurba_marseille","lat":43.28177,"lon":5.42631,"is_reserved":false,"is_disabled":false,"rental_uris":{"android":"levelo://app?vid=054bd084-de56-414f-9ea4-2892c7a1f3f1","ios":"levelo://app?vid=054bd084-de56-414f-9ea4-2892c7a1f3f1"},"vehicle_type_id":"4","last_reported":1743617627,"current_range_meters":11600,"station_id":"ce4bhnh2rcd13ifvqgug","pricing_plan_id":"cebpf4jnsgd1na2vs0mg"},{"bike_id":"9c6f0f75-a528-427e-a88e-ef81244921c7","system_id":"levelo_inurba_marseille","lat":43.24805,"lon":5.37447,"is_reserved":false,"is_disabled":false,"rental_uris":{"android":"levelo://app?vid=9c6f0f75-a528-427e-a88e-ef81244921c7","ios":"levelo://app?vid=9c6f0f75-a528-427e-a88e-ef81244921c7"},"vehicle_type_id":"4","last_reported":1743617627,"current_range_meters":11600,"station_id":"ce4bhgh2rcd13ifvqfb0","pricing_plan_id":"cebpf4jnsgd1na2vs0mg"},{"bike_id":"e1b03b21-5eb0-483c-b4ac-ea8a29304382","system_id":"levelo_inurba_marseille","lat":43.23073,"lon":5.35491,"is_reserved":false,"is_disabled":false,"rental_uris":{"android":"levelo://app?vid=e1b03b21-5eb0-483c-b4ac-ea8a29304382","ios":"levelo://app?vid=e1b03b21-5eb0-483c-b4ac-ea8a29304382"},"vehicle_type_id":"4","last_reported":1743617627,"current_range_meters":12000,"station_id":"cpo3342slgdg3j2ifvpg","pricing_plan_id":"cebpf4jnsgd1na2vs0mg"},{"bike_id":"7ca7a6b3-8568-4bc3-a238-7fe4649fc2af","system_id":"levelo_inurba_marseille","lat":43.29257,"lon":5.38442,"is_reserved":false,"is_disabled":false,"rental_uris":{"android":"levelo://app?vid=7ca7a6b3-8568-4bc3-a238-7fe4649fc2af","ios":"levelo://app?vid=7ca7a6b3-8568-4bc3-a238-7fe4649fc2af"},"vehicle_type_id":"4","last_reported":1743617627,"current_range_meters":12000,"station_id":"ce4bh692rcd13ifvqea0","pricing_plan_id":"cebpf4jnsgd1na2vs0mg"},{"bike_id":"45b05dd1-44da-4ef1-8408-bfe9c62c0924","system_id":"levelo_inurba_marseille","lat":43.29558,"lon":5.42289,"is_reserved":false,"is_disabled":false,"rental_uris":{"android":"levelo://app?vid=45b05dd1-44da-4ef1-8408-bfe9c62c0924","ios":"levelo://app?vid=45b05dd1-44da-4ef1-8408-bfe9c62c0924"},"vehicle_type_id":"4","last_reported":1743617627,"current_range_meters":12000,"station_id":"ce4bhph2rcd13ifvqhdg","pricing_plan_id":"cebpf4jnsgd1na2vs0mg"},{"bike_id":"2be94212-600c-4c4f-ba3b-fe750ec2d558","system_id":"levelo_inurba_marseille","lat":43.28101,"lon":5.37832,"is_reserved":false,"is_disabled":false,"rental_uris":{"android":"levelo://app?vid=2be94212-600c-4c4f-ba3b-fe750ec2d558","ios":"levelo://app?vid=2be94212-600c-4c4f-ba3b-fe750ec2d558"},"vehicle_type_id":"4","last_reported":1743617627,"current_range_meters":12000,"station_id":"ce4bha12rcd13ifvqee0","pricing_plan_id":"cebpf4jnsgd1na2vs0mg"},{"bike_id":"b94d8ad4-28c2-4f93-91f5-6a387125d444","system_id":"levelo_inurba_marseille","lat":43.28268,"lon":5.35059,"is_reserved":false,"is_disabled":false,"rental_uris":{"android":"levelo://app?vid=b94d8ad4-28c2-4f93-91f5-6a387125d444","ios":"levelo://app?vid=b94d8ad4-28c2-4f93-91f5-6a387125d444"},"vehicle_type_id":"4","last_reported":1743617627,"current_range_meters":12000,"station_id":"ce4bhbp2rcd13ifvqerg","pricing_plan_id":"cebpf4jnsgd1na2vs0mg"},{"bike_id":"82c6d2b4-4c3c-4c43-9d5f-5f1c70402f9d","system_id":"levelo_inurba_marseille","lat":43.28346,"lon":5.38109,"is_reserved":false,"is_disabled":false,"rental_uris":{"android":"levelo://app?vid=82c6d2b4-4c3c-4c43-9d5f-5f1c70402f9d","ios":"levelo://app?vid=82c6d2b4-4c3c-4c43-9d5f-5f1c70402f9d"},"vehicle_type_id":"4","last_reported":1743617627,"current_range_meters":7200,"station_id":"ce4bh412rcd13ifvqdr0","pricing_plan_id":"cebpf4jnsgd1na2vs0mg"},{"bike_id":"7d49898d-4c6e-4131-9fdb-37de62f2c79c","system_id":"levelo_inurba_marseille","lat":43.28896,"lon":5.37159,"is_reserved":false,"is_disabled":false,"rental_uris":{"android":"levelo://app?vid=7d49898d-4c6e-4131-9fdb-37de62f2c79c","ios":"levelo://app?vid=7d49898d-4c6e-4131-9fdb-37de62f2c79c"},"vehicle_type_id":"4","last_reported":1743617627,"current_range_meters":12000,"station_id":"","pricing_plan_id":"cebpf4jnsgd1na2vs0mg"},{"bike_id":"70e5b39f-29e3-4ea9-aa83-5a60a8eec6f8","system_id":"levelo_inurba_marseille","lat":43.25069,"lon":5.41681,"is_reserved":false,"is_disabled":false,"rental_uris":{"android":"levelo://app?vid=70e5b39f-29e3-4ea9-aa83-5a60a8eec6f8","ios":"levelo://app?vid=70e5b39f-29e3-4ea9-aa83-5a60a8eec6f8"},"vehicle_type_id":"4","last_reported":1743617627,"current_range_meters":12000,"station_id":"","pricing_plan_id":"cebpf4jnsgd1na2vs0mg"},{"bike_id":"2b5edd7e-54df-4382-8d69-daaa850165ec","system_id":"levelo_inurba_marseille","lat":43.24795,"lon":5.37447,"is_reserved":false,"is_disabled":false,"rental_uris":{"android":"levelo://app?vid=2b5edd7e-54df-4382-8d69-daaa850165ec","ios":"levelo://app?vid=2b5edd7e-54df-4382-8d69-daaa850165ec"},"vehicle_type_id":"4","last_reported":1743617627,"current_range_meters":12400,"station_id":"ce4bhgh2rcd13ifvqfb0","pricing_plan_id":"cebpf4jnsgd1na2vs0mg"},{"bike_id":"cd83c8ac-ed09-4369-9279-b6f36f2bbd3c","system_id":"levelo_inurba_marseille","lat":43.30802,"lon":5.38229,"is_reserved":false,"is_disabled":false,"rental_uris":{"android":"levelo://app?vid=cd83c8ac-ed09-4369-9279-b6f36f2bbd3c","ios":"levelo://app?vid=cd83c8ac-ed09-4369-9279-b6f36f2bbd3c"},"vehicle_type_id":"4","last_reported":1743617627,"current_range_meters":12400,"station_id":"","pricing_plan_id":"cebpf4jnsgd1na2vs0mg"},{"bike_id":"73fd1dce-a506-4d29-95f5-a54f09b46245","system_id":"levelo_inurba_marseille","lat":43.3035,"lon":5.41876,"is_reserved":false,"is_disabled":false,"rental_uris":{"android":"levelo://app?vid=73fd1dce-a506-4d29-95f5-a54f09b46245","ios":"levelo://app?vid=73fd1dce-a506-4d29-95f5-a54f09b46245"},"vehicle_type_id":"4","last_reported":1743617627,"current_range_meters":12400,"station_id":"ce4bhop2rcd13ifvqh7g","pricing_plan_id":"cebpf4jnsgd1na2vs0mg"},{"bike_id":"9f2a9143-c352-429c-8210-8121d80da8c0","system_id":"levelo_inurba_marseille","lat":43.29366,"lon":5.37831,"is_reserved":false,"is_disabled":false,"rental_uris":{"android":"levelo://app?vid=9f2a9143-c352-429c-8210-8121d80da8c0","ios":"levelo://app?vid=9f2a9143-c352-429c-8210-8121d80da8c0"},"vehicle_type_id":"4","last_reported":1743617627,"current_range_meters":12000,"station_id":"ce4bgjh2rcd13ifvqbf0","pricing_plan_id":"cebpf4jnsgd1na2vs0mg"},{"bike_id":"1925d2eb-79cc-4495-ac55-0d86108c91ee","system_id":"levelo_inurba_marseille","lat":43.23784,"lon":5.39608,"is_reserved":false,"is_disabled":false,"rental_uris":{"android":"levelo://app?vid=1925d2eb-79cc-4495-ac55-0d86108c91ee","ios":"levelo://app?vid=1925d2eb-79cc-4495-ac55-0d86108c91ee"},"vehicle_type_id":"4","last_reported":1743617627,"current_range_meters":12400,"station_id":"","pricing_plan_id":"cebpf4jnsgd1na2vs0mg"},{"bike_id":"eca000f3-7adb-462c-b7ed-61fb5b2098fc","system_id":"levelo_inurba_marseille","lat":43.22941,"lon":5.35389,"is_reserved":false,"is_disabled":false,"rental_uris":{"android":"levelo://app?vid=eca000f3-7adb-462c-b7ed-61fb5b2098fc","ios":"levelo://app?vid=eca000f3-7adb-462c-b7ed-61fb5b2098fc"},"vehicle_type_id":"4","last_reported":1743617627,"current_range_meters":12400,"station_id":"cpo3532slgdg3j2ikp40","pricing_plan_id":"cebpf4jnsgd1na2vs0mg"},{"bike_id":"566db4ec-525c-4fe2-9c24-1aa1f8dd4cac","system_id":"levelo_inurba_marseille","lat":43.30324,"lon":5.4044,"is_reserved":false,"is_disabled":false,"rental_uris":{"android":"levelo://app?vid=566db4ec-525c-4fe2-9c24-1aa1f8dd4cac","ios":"levelo://app?vid=566db4ec-525c-4fe2-9c24-1aa1f8dd4cac"},"vehicle_type_id":"4","last_reported":1743617627,"current_range_meters":12800,"station_id":"ce4bh012rcd13ifvqd10","pricing_plan_id":"cebpf4jnsgd1na2vs0mg"},{"bike_id":"8597e814-58d3-4f59-a767-60fb67397e15","system_id":"levelo_inurba_marseille","lat":43.24067,"lon":5.37759,"is_reserved":false,"is_disabled":false,"rental_uris":{"android":"levelo://app?vid=8597e814-58d3-4f59-a767-60fb67397e15","ios":"levelo://app?vid=8597e814-58d3-4f59-a767-60fb67397e15"},"vehicle_type_id":"4","last_reported":1743617627,"current_range_meters":12400,"station_id":"ce4bhnp2rcd13ifvqgvg","pricing_plan_id":"cebpf4jnsgd1na2vs0mg"},{"bike_id":"6e05811e-06e7-4304-8ce9-6c25e6bc01dd","system_id":"levelo_inurba_marseille","lat":43.32094,"lon":5.3679,"is_reserved":false,"is_disabled":false,"rental_uris":{"android":"levelo://app?vid=6e05811e-06e7-4304-8ce9-6c25e6bc01dd","ios":"levelo://app?vid=6e05811e-06e7-4304-8ce9-6c25e6bc01dd"},"vehicle_type_id":"4","last_reported":1743617627,"current_range_meters":12800,"station_id":"ce4bhrh2rcd13ifvqhug","pricing_plan_id":"cebpf4jnsgd1na2vs0mg"},{"bike_id":"2c87c56a-a8a5-4bb5-b2ec-7e89101b976f","system_id":"levelo_inurba_marseille","lat":43.24809,"lon":5.37456,"is_reserved":false,"is_disabled":false,"rental_uris":{"android":"levelo://app?vid=2c87c56a-a8a5-4bb5-b2ec-7e89101b976f","ios":"levelo://app?vid=2c87c56a-a8a5-4bb5-b2ec-7e89101b976f"},"vehicle_type_id":"4","last_reported":1743617627,"current_range_meters":12800,"station_id":"ce4bhgh2rcd13ifvqfb0","pricing_plan_id":"cebpf4jnsgd1na2vs0mg"},{"bike_id":"c8eba3d6-61eb-4404-916a-d87ca8116e80","system_id":"levelo_inurba_marseille","lat":43.31073,"lon":5.38358,"is_reserved":false,"is_disabled":false,"rental_uris":{"android":"levelo://app?vid=c8eba3d6-61eb-4404-916a-d87ca8116e80","ios":"levelo://app?vid=c8eba3d6-61eb-4404-916a-d87ca8116e80"},"vehicle_type_id":"4","last_reported":1743617627,"current_range_meters":12800,"station_id":"ce4bgv92rcd13ifvqcr0","pricing_plan_id":"cebpf4jnsgd1na2vs0mg"},{"bike_id":"c03c3446-1cc9-44e4-81b7-003dc35ee68e","system_id":"levelo_inurba_marseille","lat":43.29537,"lon":5.38546,"is_reserved":false,"is_disabled":false,"rental_uris":{"android":"levelo://app?vid=c03c3446-1cc9-44e4-81b7-003dc35ee68e","ios":"levelo://app?vid=c03c3446-1cc9-44e4-81b7-003dc35ee68e"},"vehicle_type_id":"4","last_reported":1743617627,"current_range_meters":12800,"station_id":"ce4bgih2rcd13ifvqba0","pricing_plan_id":"cebpf4jnsgd1na2vs0mg"},{"bike_id":"a4ba3f04-fadd-44ae-9594-7cc6c9fa56bb","system_id":"levelo_inurba_marseille","lat":43.29557,"lon":5.42278,"is_reserved":false,"is_disabled":false,"rental_uris":{"android":"levelo://app?vid=a4ba3f04-fadd-44ae-9594-7cc6c9fa56bb","ios":"levelo://app?vid=a4ba3f04-fadd-44ae-9594-7cc6c9fa56bb"},"vehicle_type_id":"4","last_reported":1743617627,"current_range_meters":12800,"station_id":"ce4bhph2rcd13ifvqhdg","pricing_plan_id":"cebpf4jnsgd1na2vs0mg"},{"bike_id":"e79d9265-b0ea-435c-a9f3-761bb969deb6","system_id":"levelo_inurba_marseille","lat":43.26062,"lon":5.39394,"is_reserved":false,"is_disabled":false,"rental_uris":{"android":"levelo://app?vid=e79d9265-b0ea-435c-a9f3-761bb969deb6","ios":"levelo://app?vid=e79d9265-b0ea-435c-a9f3-761bb969deb6"},"vehicle_type_id":"4","last_reported":1743617627,"current_range_meters":12800,"station_id":"ce4bhh92rcd13ifvqfj0","pricing_plan_id":"cebpf4jnsgd1na2vs0mg"},{"bike_id":"7178dff6-ba72-4e18-8e63-58a35ca86c59","system_id":"levelo_inurba_marseille","lat":43.27495,"lon":5.42446,"is_reserved":false,"is_disabled":false,"rental_uris":{"android":"levelo://app?vid=7178dff6-ba72-4e18-8e63-58a35ca86c59","ios":"levelo://app?vid=7178dff6-ba72-4e18-8e63-58a35ca86c59"},"vehicle_type_id":"4","last_reported":1743617627,"current_range_meters":12800,"station_id":"ce4bhn92rcd13ifvqgrg","pricing_plan_id":"cebpf4jnsgd1na2vs0mg"},{"bike_id":"9f62f29e-b083-4314-9e82-a49e79ecd17d","system_id":"levelo_inurba_marseille","lat":43.2296,"lon":5.35369,"is_reserved":false,"is_disabled":false,"rental_uris":{"android":"levelo://app?vid=9f62f29e-b083-4314-9e82-a49e79ecd17d","ios":"levelo://app?vid=9f62f29e-b083-4314-9e82-a49e79ecd17d"},"vehicle_type_id":"4","last_reported":1743617627,"current_range_meters":12800,"station_id":"cpo3532slgdg3j2ikp40","pricing_plan_id":"cebpf4jnsgd1na2vs0mg"},{"bike_id":"a76a25e2-1937-406e-b8a1-c2caf56a7c2f","system_id":"levelo_inurba_marseille","lat":43.2872,"lon":5.37938,"is_reserved":false,"is_disabled":false,"rental_uris":{"android":"levelo://app?vid=a76a25e2-1937-406e-b8a1-c2caf56a7c2f","ios":"levelo://app?vid=a76a25e2-1937-406e-b8a1-c2caf56a7c2f"},"vehicle_type_id":"4","last_reported":1743617627,"current_range_meters":13600,"station_id":"ce4bh9p2rcd13ifvqec0","pricing_plan_id":"cebpf4jnsgd1na2vs0mg"},{"bike_id":"70c28f83-b1e4-4ab5-89ea-34ff67306c4d","system_id":"levelo_inurba_marseille","lat":43.28347,"lon":5.38104,"is_reserved":false,"is_disabled":false,"rental_uris":{"android":"levelo://app?vid=70c28f83-b1e4-4ab5-89ea-34ff67306c4d","ios":"levelo://app?vid=70c28f83-b1e4-4ab5-89ea-34ff67306c4d"},"vehicle_type_id":"4","last_reported":1743617627,"current_range_meters":13600,"station_id":"ce4bh412rcd13ifvqdr0","pricing_plan_id":"cebpf4jnsgd1na2vs0mg"},{"bike_id":"da86576b-c701-4b47-8412-8bd77886d712","system_id":"levelo_inurba_marseille","lat":43.27896,"lon":5.38015,"is_reserved":false,"is_disabled":false,"rental_uris":{"android":"levelo://app?vid=da86576b-c701-4b47-8412-8bd77886d712","ios":"levelo://app?vid=da86576b-c701-4b47-8412-8bd77886d712"},"vehicle_type_id":"4","last_reported":1743617627,"current_range_meters":12800,"station_id":"ce4bhf92rcd13ifvqf50","pricing_plan_id":"cebpf4jnsgd1na2vs0mg"},{"bike_id":"08ce6d36-9b41-4e5b-8b64-7a15020595b5","system_id":"levelo_inurba_marseille","lat":43.31707,"lon":5.43727,"is_reserved":false,"is_disabled":false,"rental_uris":{"android":"levelo://app?vid=08ce6d36-9b41-4e5b-8b64-7a15020595b5","ios":"levelo://app?vid=08ce6d36-9b41-4e5b-8b64-7a15020595b5"},"vehicle_type_id":"4","last_reported":1743617627,"current_range_meters":12800,"station_id":"ce4bhp92rcd13ifvqhcg","pricing_plan_id":"cebpf4jnsgd1na2vs0mg"},{"bike_id":"2c1b962c-5437-417f-a06d-d90e67a40b65","system_id":"levelo_inurba_marseille","lat":43.31278,"lon":5.40184,"is_reserved":false,"is_disabled":false,"rental_uris":{"android":"levelo://app?vid=2c1b962c-5437-417f-a06d-d90e67a40b65","ios":"levelo://app?vid=2c1b962c-5437-417f-a06d-d90e67a40b65"},"vehicle_type_id":"4","last_reported":1743617627,"current_range_meters":13600,"station_id":"ce4bh092rcd13ifvqd30","pricing_plan_id":"cebpf4jnsgd1na2vs0mg"},{"bike_id":"14377d28-8c18-4595-af91-aec1327da43b","system_id":"levelo_inurba_marseille","lat":43.31166,"lon":5.38694,"is_reserved":false,"is_disabled":false,"rental_uris":{"android":"levelo://app?vid=14377d28-8c18-4595-af91-aec1327da43b","ios":"levelo://app?vid=14377d28-8c18-4595-af91-aec1327da43b"},"vehicle_type_id":"4","last_reported":1743617627,"current_range_meters":14000,"station_id":"ce4bgv12rcd13ifvqcp0","pricing_plan_id":"cebpf4jnsgd1na2vs0mg"},{"bike_id":"62221d93-2a6a-4792-8828-2b502cec27fe","system_id":"levelo_inurba_marseille","lat":43.31701,"lon":5.37757,"is_reserved":false,"is_disabled":false,"rental_uris":{"android":"levelo://app?vid=62221d93-2a6a-4792-8828-2b502cec27fe","ios":"levelo://app?vid=62221d93-2a6a-4792-8828-2b502cec27fe"},"vehicle_type_id":"4","last_reported":1743617627,"current_range_meters":14000,"station_id":"ce4bgth2rcd13ifvqch0","pricing_plan_id":"cebpf4jnsgd1na2vs0mg"},{"bike_id":"b86b5b87-f029-48ac-aa00-3a50d7e2c1d2","system_id":"levelo_inurba_marseille","lat":43.32365,"lon":5.36757,"is_reserved":false,"is_disabled":true,"rental_uris":{"android":"levelo://app?vid=b86b5b87-f029-48ac-aa00-3a50d7e2c1d2","ios":"levelo://app?vid=b86b5b87-f029-48ac-aa00-3a50d7e2c1d2"},"vehicle_type_id":"4","last_reported":1743617627,"current_range_meters":14000,"station_id":"ce4bhsh2rcd13ifvqi2g","pricing_plan_id":"cebpf4jnsgd1na2vs0mg"},{"bike_id":"7a4fed96-189a-43a3-8c74-51bc6c160567","system_id":"levelo_inurba_marseille","lat":43.28725,"lon":5.37946,"is_reserved":false,"is_disabled":false,"rental_uris":{"android":"levelo://app?vid=7a4fed96-189a-43a3-8c74-51bc6c160567","ios":"levelo://app?vid=7a4fed96-189a-43a3-8c74-51bc6c160567"},"vehicle_type_id":"4","last_reported":1743617627,"current_range_meters":13600,"station_id":"ce4bh9p2rcd13ifvqec0","pricing_plan_id":"cebpf4jnsgd1na2vs0mg"},{"bike_id":"7f961190-5cbc-4ecb-a9f8-5a6f9252eca2","system_id":"levelo_inurba_marseille","lat":43.29534,"lon":5.38545,"is_reserved":false,"is_disabled":false,"rental_uris":{"android":"levelo://app?vid=7f961190-5cbc-4ecb-a9f8-5a6f9252eca2","ios":"levelo://app?vid=7f961190-5cbc-4ecb-a9f8-5a6f9252eca2"},"vehicle_type_id":"4","last_reported":1743617627,"current_range_meters":15200,"station_id":"ce4bgih2rcd13ifvqba0","pricing_plan_id":"cebpf4jnsgd1na2vs0mg"},{"bike_id":"e699a15f-114f-4b23-964a-04858d60934b","system_id":"levelo_inurba_marseille","lat":43.29253,"lon":5.38432,"is_reserved":false,"is_disabled":false,"rental_uris":{"android":"levelo://app?vid=e699a15f-114f-4b23-964a-04858d60934b","ios":"levelo://app?vid=e699a15f-114f-4b23-964a-04858d60934b"},"vehicle_type_id":"4","last_reported":1743617627,"current_range_meters":14400,"station_id":"ce4bh692rcd13ifvqea0","pricing_plan_id":"cebpf4jnsgd1na2vs0mg"},{"bike_id":"fb9e0e7b-35f0-48b1-8dfb-91d2fd0ac2f0","system_id":"levelo_inurba_marseille","lat":43.25828,"lon":5.39437,"is_reserved":false,"is_disabled":false,"rental_uris":{"android":"levelo://app?vid=fb9e0e7b-35f0-48b1-8dfb-91d2fd0ac2f0","ios":"levelo://app?vid=fb9e0e7b-35f0-48b1-8dfb-91d2fd0ac2f0"},"vehicle_type_id":"4","last_reported":1743617627,"current_range_meters":14400,"station_id":"ce4bhip2rcd13ifvqft0","pricing_plan_id":"cebpf4jnsgd1na2vs0mg"},{"bike_id":"22d47046-8bb1-41ae-9bb4-96eb088b2e63","system_id":"levelo_inurba_marseille","lat":43.32112,"lon":5.36789,"is_reserved":false,"is_disabled":false,"rental_uris":{"android":"levelo://app?vid=22d47046-8bb1-41ae-9bb4-96eb088b2e63","ios":"levelo://app?vid=22d47046-8bb1-41ae-9bb4-96eb088b2e63"},"vehicle_type_id":"4","last_reported":1743617627,"current_range_meters":14400,"station_id":"ce4bhrh2rcd13ifvqhug","pricing_plan_id":"cebpf4jnsgd1na2vs0mg"},{"bike_id":"2b7563bf-72ce-4546-bdfe-0681f54925e9","system_id":"levelo_inurba_marseille","lat":43.29272,"lon":5.38442,"is_reserved":false,"is_disabled":true,"rental_uris":{"android":"levelo://app?vid=2b7563bf-72ce-4546-bdfe-0681f54925e9","ios":"levelo://app?vid=2b7563bf-72ce-4546-bdfe-0681f54925e9"},"vehicle_type_id":"4","last_reported":1743617627,"current_range_meters":14400,"station_id":"ce4bh692rcd13ifvqea0","pricing_plan_id":"cebpf4jnsgd1na2vs0mg"},{"bike_id":"da251a56-677d-4605-9532-0a4f5e9e0a21","system_id":"levelo_inurba_marseille","lat":43.28493,"lon":5.38422,"is_reserved":false,"is_disabled":false,"rental_uris":{"android":"levelo://app?vid=da251a56-677d-4605-9532-0a4f5e9e0a21","ios":"levelo://app?vid=da251a56-677d-4605-9532-0a4f5e9e0a21"},"vehicle_type_id":"4","last_reported":1743617627,"current_range_meters":14400,"station_id":"ce4bh512rcd13ifvqe3g","pricing_plan_id":"cebpf4jnsgd1na2vs0mg"},{"bike_id":"9d0457ef-48ad-4186-a488-7c51d10d0f62","system_id":"levelo_inurba_marseille","lat":43.31763,"lon":5.39017,"is_reserved":false,"is_disabled":false,"rental_uris":{"android":"levelo://app?vid=9d0457ef-48ad-4186-a488-7c51d10d0f62","ios":"levelo://app?vid=9d0457ef-48ad-4186-a488-7c51d10d0f62"},"vehicle_type_id":"4","last_reported":1743617627,"current_range_meters":14400,"station_id":"ce4bhqp2rcd13ifvqhng","pricing_plan_id":"cebpf4jnsgd1na2vs0mg"},{"bike_id":"ddacc778-3175-4c50-94bf-bd4fcc0ef987","system_id":"levelo_inurba_marseille","lat":43.286999,"lon":5.373853,"is_reserved":false,"is_disabled":false,"rental_uris":{"android":"levelo://app?vid=ddacc778-3175-4c50-94bf-bd4fcc0ef987","ios":"levelo://app?vid=ddacc778-3175-4c50-94bf-bd4fcc0ef987"},"vehicle_type_id":"4","last_reported":1743617627,"current_range_meters":14800,"station_id":"ce4bh3p2rcd13ifvqdq0","pricing_plan_id":"cebpf4jnsgd1na2vs0mg"},{"bike_id":"6fd15896-5697-470b-8f07-45b11106795c","system_id":"levelo_inurba_marseille","lat":43.32104,"lon":5.36789,"is_reserved":false,"is_disabled":false,"rental_uris":{"android":"levelo://app?vid=6fd15896-5697-470b-8f07-45b11106795c","ios":"levelo://app?vid=6fd15896-5697-470b-8f07-45b11106795c"},"vehicle_type_id":"4","last_reported":1743617627,"current_range_meters":14800,"station_id":"ce4bhrh2rcd13ifvqhug","pricing_plan_id":"cebpf4jnsgd1na2vs0mg"},{"bike_id":"97aa5e6f-e45b-4e21-a47e-52761ee9cdb1","system_id":"levelo_inurba_marseille","lat":43.32111,"lon":5.36775,"is_reserved":false,"is_disabled":false,"rental_uris":{"android":"levelo://app?vid=97aa5e6f-e45b-4e21-a47e-52761ee9cdb1","ios":"levelo://app?vid=97aa5e6f-e45b-4e21-a47e-52761ee9cdb1"},"vehicle_type_id":"4","last_reported":1743617627,"current_range_meters":14800,"station_id":"ce4bhrh2rcd13ifvqhug","pricing_plan_id":"cebpf4jnsgd1na2vs0mg"},{"bike_id":"4e181279-1b64-4518-93b7-d6b57ffd0a0a","system_id":"levelo_inurba_marseille","lat":43.31174,"lon":5.38717,"is_reserved":false,"is_disabled":false,"rental_uris":{"android":"levelo://app?vid=4e181279-1b64-4518-93b7-d6b57ffd0a0a","ios":"levelo://app?vid=4e181279-1b64-4518-93b7-d6b57ffd0a0a"},"vehicle_type_id":"4","last_reported":1743617627,"current_range_meters":14400,"station_id":"ce4bgv12rcd13ifvqcp0","pricing_plan_id":"cebpf4jnsgd1na2vs0mg"},{"bike_id":"e6f02e74-383c-4bae-b8c4-037430863270","system_id":"levelo_inurba_marseille","lat":43.230591,"lon":5.354919,"is_reserved":false,"is_disabled":false,"rental_uris":{"android":"levelo://app?vid=e6f02e74-383c-4bae-b8c4-037430863270","ios":"levelo://app?vid=e6f02e74-383c-4bae-b8c4-037430863270"},"vehicle_type_id":"4","last_reported":1743617627,"current_range_meters":14800,"station_id":"cpo3342slgdg3j2ifvpg","pricing_plan_id":"cebpf4jnsgd1na2vs0mg"},{"bike_id":"ef80e7af-d248-4af4-a56d-1b6299211eec","system_id":"levelo_inurba_marseille","lat":43.28099,"lon":5.37842,"is_reserved":false,"is_disabled":false,"rental_uris":{"android":"levelo://app?vid=ef80e7af-d248-4af4-a56d-1b6299211eec","ios":"levelo://app?vid=ef80e7af-d248-4af4-a56d-1b6299211eec"},"vehicle_type_id":"4","last_reported":1743617627,"current_range_meters":14400,"station_id":"ce4bha12rcd13ifvqee0","pricing_plan_id":"cebpf4jnsgd1na2vs0mg"},{"bike_id":"bb745ff7-e372-47cd-8e7a-5658e3435a0c","system_id":"levelo_inurba_marseille","lat":43.30261,"lon":5.400794,"is_reserved":false,"is_disabled":false,"rental_uris":{"android":"levelo://app?vid=bb745ff7-e372-47cd-8e7a-5658e3435a0c","ios":"levelo://app?vid=bb745ff7-e372-47cd-8e7a-5658e3435a0c"},"vehicle_type_id":"4","last_reported":1743617627,"current_range_meters":14800,"station_id":"","pricing_plan_id":"cebpf4jnsgd1na2vs0mg"},{"bike_id":"cac39d1b-62da-4f8b-be1f-825707cca184","system_id":"levelo_inurba_marseille","lat":43.27618,"lon":5.36116,"is_reserved":false,"is_disabled":false,"rental_uris":{"android":"levelo://app?vid=cac39d1b-62da-4f8b-be1f-825707cca184","ios":"levelo://app?vid=cac39d1b-62da-4f8b-be1f-825707cca184"},"vehicle_type_id":"4","last_reported":1743617627,"current_range_meters":14800,"station_id":"ce4bgj92rcd13ifvqbe0","pricing_plan_id":"cebpf4jnsgd1na2vs0mg"},{"bike_id":"a84a519d-862a-4785-9f83-f9c3ae058aad","system_id":"levelo_inurba_marseille","lat":43.26932,"lon":5.38922,"is_reserved":false,"is_disabled":false,"rental_uris":{"android":"levelo://app?vid=a84a519d-862a-4785-9f83-f9c3ae058aad","ios":"levelo://app?vid=a84a519d-862a-4785-9f83-f9c3ae058aad"},"vehicle_type_id":"4","last_reported":1743617627,"current_range_meters":14400,"station_id":"ce4bhhh2rcd13ifvqfl0","pricing_plan_id":"cebpf4jnsgd1na2vs0mg"},{"bike_id":"5dd64a15-321d-42c8-94ec-4ad54307fa6e","system_id":"levelo_inurba_marseille","lat":43.29311,"lon":5.37183,"is_reserved":false,"is_disabled":false,"rental_uris":{"android":"levelo://app?vid=5dd64a15-321d-42c8-94ec-4ad54307fa6e","ios":"levelo://app?vid=5dd64a15-321d-42c8-94ec-4ad54307fa6e"},"vehicle_type_id":"4","last_reported":1743617627,"current_range_meters":14800,"station_id":"ce4bgh92rcd13ifvqb40","pricing_plan_id":"cebpf4jnsgd1na2vs0mg"},{"bike_id":"796fb93d-36f3-4097-8657-bab3e98db2d0","system_id":"levelo_inurba_marseille","lat":43.29185,"lon":5.35813,"is_reserved":false,"is_disabled":false,"rental_uris":{"android":"levelo://app?vid=796fb93d-36f3-4097-8657-bab3e98db2d0","ios":"levelo://app?vid=796fb93d-36f3-4097-8657-bab3e98db2d0"},"vehicle_type_id":"4","last_reported":1743617627,"current_range_meters":15200,"station_id":"ce4bhb12rcd13ifvqel0","pricing_plan_id":"cebpf4jnsgd1na2vs0mg"},{"bike_id":"78419450-7453-4389-9f42-052108beae71","system_id":"levelo_inurba_marseille","lat":43.29249,"lon":5.409,"is_reserved":false,"is_disabled":false,"rental_uris":{"android":"levelo://app?vid=78419450-7453-4389-9f42-052108beae71","ios":"levelo://app?vid=78419450-7453-4389-9f42-052108beae71"},"vehicle_type_id":"4","last_reported":1743617627,"current_range_meters":15200,"station_id":"ce4bh192rcd13ifvqdc0","pricing_plan_id":"cebpf4jnsgd1na2vs0mg"},{"bike_id":"0cfd3fd2-d703-47ff-9dea-8f4a337d85bc","system_id":"levelo_inurba_marseille","lat":43.29044,"lon":5.35936,"is_reserved":false,"is_disabled":false,"rental_uris":{"android":"levelo://app?vid=0cfd3fd2-d703-47ff-9dea-8f4a337d85bc","ios":"levelo://app?vid=0cfd3fd2-d703-47ff-9dea-8f4a337d85bc"},"vehicle_type_id":"4","last_reported":1743617627,"current_range_meters":15200,"station_id":"ce4bha92rcd13ifvqeg0","pricing_plan_id":"cebpf4jnsgd1na2vs0mg"},{"bike_id":"01c5a85d-6f23-493e-b18d-7a45210b1088","system_id":"levelo_inurba_marseille","lat":43.282652,"lon":5.350605,"is_reserved":false,"is_disabled":false,"rental_uris":{"android":"levelo://app?vid=01c5a85d-6f23-493e-b18d-7a45210b1088","ios":"levelo://app?vid=01c5a85d-6f23-493e-b18d-7a45210b1088"},"vehicle_type_id":"4","last_reported":1743617627,"current_range_meters":15200,"station_id":"ce4bhbp2rcd13ifvqerg","pricing_plan_id":"cebpf4jnsgd1na2vs0mg"},{"bike_id":"c24d4f83-fb41-48e9-a7c2-a21a6944f369","system_id":"levelo_inurba_marseille","lat":43.33024,"lon":5.39033,"is_reserved":false,"is_disabled":false,"rental_uris":{"android":"levelo://app?vid=c24d4f83-fb41-48e9-a7c2-a21a6944f369","ios":"levelo://app?vid=c24d4f83-fb41-48e9-a7c2-a21a6944f369"},"vehicle_type_id":"4","last_reported":1743617627,"current_range_meters":15200,"station_id":"ce4bhr92rcd13ifvqhrg","pricing_plan_id":"cebpf4jnsgd1na2vs0mg"},{"bike_id":"66157e1f-aea0-4160-90ba-64571f2b11bb","system_id":"levelo_inurba_marseille","lat":43.29526,"lon":5.39019,"is_reserved":false,"is_disabled":false,"rental_uris":{"android":"levelo://app?vid=66157e1f-aea0-4160-90ba-64571f2b11bb","ios":"levelo://app?vid=66157e1f-aea0-4160-90ba-64571f2b11bb"},"vehicle_type_id":"4","last_reported":1743617627,"current_range_meters":15200,"station_id":"ce4bh3p2rcd13ifvqdp0","pricing_plan_id":"cebpf4jnsgd1na2vs0mg"},{"bike_id":"97c0eecc-8787-4395-b6d9-f622fd6dd4ee","system_id":"levelo_inurba_marseille","lat":43.26133,"lon":5.40914,"is_reserved":false,"is_disabled":true,"rental_uris":{"android":"levelo://app?vid=97c0eecc-8787-4395-b6d9-f622fd6dd4ee","ios":"levelo://app?vid=97c0eecc-8787-4395-b6d9-f622fd6dd4ee"},"vehicle_type_id":"4","last_reported":1743617627,"current_range_meters":15200,"station_id":"","pricing_plan_id":"cebpf4jnsgd1na2vs0mg"},{"bike_id":"e3a29d38-a611-4b12-87ef-2fb8a21c41d5","system_id":"levelo_inurba_marseille","lat":43.229265,"lon":5.353704,"is_reserved":false,"is_disabled":false,"rental_uris":{"android":"levelo://app?vid=e3a29d38-a611-4b12-87ef-2fb8a21c41d5","ios":"levelo://app?vid=e3a29d38-a611-4b12-87ef-2fb8a21c41d5"},"vehicle_type_id":"4","last_reported":1743617627,"current_range_meters":15200,"station_id":"cpo3532slgdg3j2ikp40","pricing_plan_id":"cebpf4jnsgd1na2vs0mg"},{"bike_id":"78ca934a-98c9-4dbc-b5b6-c2ca906050d2","system_id":"levelo_inurba_marseille","lat":43.29757,"lon":5.38921,"is_reserved":false,"is_disabled":false,"rental_uris":{"android":"levelo://app?vid=78ca934a-98c9-4dbc-b5b6-c2ca906050d2","ios":"levelo://app?vid=78ca934a-98c9-4dbc-b5b6-c2ca906050d2"},"vehicle_type_id":"4","last_reported":1743617627,"current_range_meters":15200,"station_id":"","pricing_plan_id":"cebpf4jnsgd1na2vs0mg"},{"bike_id":"c1c63035-c83b-4419-8cbf-133778d95125","system_id":"levelo_inurba_marseille","lat":43.29782,"lon":5.39357,"is_reserved":false,"is_disabled":true,"rental_uris":{"android":"levelo://app?vid=c1c63035-c83b-4419-8cbf-133778d95125","ios":"levelo://app?vid=c1c63035-c83b-4419-8cbf-133778d95125"},"vehicle_type_id":"4","last_reported":1743617627,"current_range_meters":15200,"station_id":"chh1huq6cuj3fo74tm60","pricing_plan_id":"cebpf4jnsgd1na2vs0mg"},{"bike_id":"b1186899-2646-42ed-a7d4-f0923b68d385","system_id":"levelo_inurba_marseille","lat":43.30205,"lon":5.39457,"is_reserved":false,"is_disabled":false,"rental_uris":{"android":"levelo://app?vid=b1186899-2646-42ed-a7d4-f0923b68d385","ios":"levelo://app?vid=b1186899-2646-42ed-a7d4-f0923b68d385"},"vehicle_type_id":"4","last_reported":1743617627,"current_range_meters":15200,"station_id":"ce4bh0p2rcd13ifvqd70","pricing_plan_id":"cebpf4jnsgd1na2vs0mg"},{"bike_id":"eb483021-ac11-4f84-a62d-1d23ad07dbad","system_id":"levelo_inurba_marseille","lat":43.29251,"lon":5.40916,"is_reserved":false,"is_disabled":false,"rental_uris":{"android":"levelo://app?vid=eb483021-ac11-4f84-a62d-1d23ad07dbad","ios":"levelo://app?vid=eb483021-ac11-4f84-a62d-1d23ad07dbad"},"vehicle_type_id":"4","last_reported":1743617627,"current_range_meters":15200,"station_id":"ce4bh192rcd13ifvqdc0","pricing_plan_id":"cebpf4jnsgd1na2vs0mg"},{"bike_id":"c2ddb254-94b9-4479-ae35-280bdce16d3e","system_id":"levelo_inurba_marseille","lat":43.29424,"lon":5.38624,"is_reserved":false,"is_disabled":false,"rental_uris":{"android":"levelo://app?vid=c2ddb254-94b9-4479-ae35-280bdce16d3e","ios":"levelo://app?vid=c2ddb254-94b9-4479-ae35-280bdce16d3e"},"vehicle_type_id":"4","last_reported":1743617627,"current_range_meters":15200,"station_id":"ce4bh2h2rcd13ifvqdh0","pricing_plan_id":"cebpf4jnsgd1na2vs0mg"},{"bike_id":"95019719-c74f-41a1-a986-f0fc3550d793","system_id":"levelo_inurba_marseille","lat":43.250042,"lon":5.389268,"is_reserved":false,"is_disabled":false,"rental_uris":{"android":"levelo://app?vid=95019719-c74f-41a1-a986-f0fc3550d793","ios":"levelo://app?vid=95019719-c74f-41a1-a986-f0fc3550d793"},"vehicle_type_id":"4","last_reported":1743617627,"current_range_meters":16000,"station_id":"ce4bhgp2rcd13ifvqfd0","pricing_plan_id":"cebpf4jnsgd1na2vs0mg"},{"bike_id":"417ae464-5f45-43b2-97c7-ea874c40c779","system_id":"levelo_inurba_marseille","lat":43.293,"lon":5.37157,"is_reserved":false,"is_disabled":false,"rental_uris":{"android":"levelo://app?vid=417ae464-5f45-43b2-97c7-ea874c40c779","ios":"levelo://app?vid=417ae464-5f45-43b2-97c7-ea874c40c779"},"vehicle_type_id":"4","last_reported":1743617627,"current_range_meters":16000,"station_id":"ce4bgh92rcd13ifvqb40","pricing_plan_id":"cebpf4jnsgd1na2vs0mg"},{"bike_id":"4d39103e-e00f-4333-aaaa-25e6c64610c3","system_id":"levelo_inurba_marseille","lat":43.30291,"lon":5.39202,"is_reserved":false,"is_disabled":false,"rental_uris":{"android":"levelo://app?vid=4d39103e-e00f-4333-aaaa-25e6c64610c3","ios":"levelo://app?vid=4d39103e-e00f-4333-aaaa-25e6c64610c3"},"vehicle_type_id":"4","last_reported":1743617627,"current_range_meters":16000,"station_id":"ce4bgkh2rcd13ifvqbk0","pricing_plan_id":"cebpf4jnsgd1na2vs0mg"},{"bike_id":"3dbc3d46-7777-4ee1-abe2-41ae010c9497","system_id":"levelo_inurba_marseille","lat":43.29564,"lon":5.39084,"is_reserved":false,"is_disabled":true,"rental_uris":{"android":"levelo://app?vid=3dbc3d46-7777-4ee1-abe2-41ae010c9497","ios":"levelo://app?vid=3dbc3d46-7777-4ee1-abe2-41ae010c9497"},"vehicle_type_id":"4","last_reported":1743617627,"current_range_meters":16000,"station_id":"","pricing_plan_id":"cebpf4jnsgd1na2vs0mg"},{"bike_id":"1bd4c5e9-3479-4a34-bfb9-e556a3bbe8ed","system_id":"levelo_inurba_marseille","lat":43.2307,"lon":5.35501,"is_reserved":false,"is_disabled":false,"rental_uris":{"android":"levelo://app?vid=1bd4c5e9-3479-4a34-bfb9-e556a3bbe8ed","ios":"levelo://app?vid=1bd4c5e9-3479-4a34-bfb9-e556a3bbe8ed"},"vehicle_type_id":"4","last_reported":1743617627,"current_range_meters":16000,"station_id":"cpo3342slgdg3j2ifvpg","pricing_plan_id":"cebpf4jnsgd1na2vs0mg"},{"bike_id":"35aee38d-08b5-4f68-a761-5ae834199bae","system_id":"levelo_inurba_marseille","lat":43.29419,"lon":5.38626,"is_reserved":false,"is_disabled":false,"rental_uris":{"android":"levelo://app?vid=35aee38d-08b5-4f68-a761-5ae834199bae","ios":"levelo://app?vid=35aee38d-08b5-4f68-a761-5ae834199bae"},"vehicle_type_id":"4","last_reported":1743617627,"current_range_meters":16000,"station_id":"ce4bh2h2rcd13ifvqdh0","pricing_plan_id":"cebpf4jnsgd1na2vs0mg"},{"bike_id":"c65d88dc-f61d-4672-ab50-bb89c71c31b9","system_id":"levelo_inurba_marseille","lat":43.243895,"lon":5.37056,"is_reserved":false,"is_disabled":false,"rental_uris":{"android":"levelo://app?vid=c65d88dc-f61d-4672-ab50-bb89c71c31b9","ios":"levelo://app?vid=c65d88dc-f61d-4672-ab50-bb89c71c31b9"},"vehicle_type_id":"4","last_reported":1743617627,"current_range_meters":15200,"station_id":"ce4bhhh2rcd13ifvqfk0","pricing_plan_id":"cebpf4jnsgd1na2vs0mg"},{"bike_id":"b61a33fe-6372-4bd4-9589-3bc407f2f2e1","system_id":"levelo_inurba_marseille","lat":43.2929,"lon":5.37453,"is_reserved":false,"is_disabled":true,"rental_uris":{"android":"levelo://app?vid=b61a33fe-6372-4bd4-9589-3bc407f2f2e1","ios":"levelo://app?vid=b61a33fe-6372-4bd4-9589-3bc407f2f2e1"},"vehicle_type_id":"4","last_reported":1743617627,"current_range_meters":16000,"station_id":"ce4bgi12rcd13ifvqb70","pricing_plan_id":"cebpf4jnsgd1na2vs0mg"},{"bike_id":"63972247-577b-46bc-bfb6-26ff9bd19702","system_id":"levelo_inurba_marseille","lat":43.25587,"lon":5.38234,"is_reserved":false,"is_disabled":false,"rental_uris":{"android":"levelo://app?vid=63972247-577b-46bc-bfb6-26ff9bd19702","ios":"levelo://app?vid=63972247-577b-46bc-bfb6-26ff9bd19702"},"vehicle_type_id":"4","last_reported":1743617627,"current_range_meters":16000,"station_id":"ce4bhih2rcd13ifvqfs0","pricing_plan_id":"cebpf4jnsgd1na2vs0mg"},{"bike_id":"005283db-9aca-49eb-ae41-cbf0dc140b6c","system_id":"levelo_inurba_marseille","lat":43.30124,"lon":5.37301,"is_reserved":false,"is_disabled":false,"rental_uris":{"android":"levelo://app?vid=005283db-9aca-49eb-ae41-cbf0dc140b6c","ios":"levelo://app?vid=005283db-9aca-49eb-ae41-cbf0dc140b6c"},"vehicle_type_id":"4","last_reported":1743617627,"current_range_meters":16400,"station_id":"","pricing_plan_id":"cebpf4jnsgd1na2vs0mg"},{"bike_id":"7aec07e5-7161-46ad-b6b8-d5694d5efc5a","system_id":"levelo_inurba_marseille","lat":43.24077,"lon":5.37768,"is_reserved":false,"is_disabled":false,"rental_uris":{"android":"levelo://app?vid=7aec07e5-7161-46ad-b6b8-d5694d5efc5a","ios":"levelo://app?vid=7aec07e5-7161-46ad-b6b8-d5694d5efc5a"},"vehicle_type_id":"4","last_reported":1743617627,"current_range_meters":16400,"station_id":"ce4bhnp2rcd13ifvqgvg","pricing_plan_id":"cebpf4jnsgd1na2vs0mg"},{"bike_id":"73760b39-f171-4af1-8e1e-a56b88ec6f05","system_id":"levelo_inurba_marseille","lat":43.25574,"lon":5.3823,"is_reserved":false,"is_disabled":false,"rental_uris":{"android":"levelo://app?vid=73760b39-f171-4af1-8e1e-a56b88ec6f05","ios":"levelo://app?vid=73760b39-f171-4af1-8e1e-a56b88ec6f05"},"vehicle_type_id":"4","last_reported":1743617627,"current_range_meters":16400,"station_id":"ce4bhih2rcd13ifvqfs0","pricing_plan_id":"cebpf4jnsgd1na2vs0mg"},{"bike_id":"c010083c-3d37-442b-bb01-af5ace56ca85","system_id":"levelo_inurba_marseille","lat":43.2884,"lon":5.35852,"is_reserved":false,"is_disabled":false,"rental_uris":{"android":"levelo://app?vid=c010083c-3d37-442b-bb01-af5ace56ca85","ios":"levelo://app?vid=c010083c-3d37-442b-bb01-af5ace56ca85"},"vehicle_type_id":"4","last_reported":1743617627,"current_range_meters":16400,"station_id":"ce4bhb12rcd13ifvqem0","pricing_plan_id":"cebpf4jnsgd1na2vs0mg"},{"bike_id":"f5f842e9-fbe5-45fd-8ab8-ce42135acef6","system_id":"levelo_inurba_marseille","lat":43.28933,"lon":5.38395,"is_reserved":false,"is_disabled":false,"rental_uris":{"android":"levelo://app?vid=f5f842e9-fbe5-45fd-8ab8-ce42135acef6","ios":"levelo://app?vid=f5f842e9-fbe5-45fd-8ab8-ce42135acef6"},"vehicle_type_id":"4","last_reported":1743617627,"current_range_meters":16000,"station_id":"ce4bh612rcd13ifvqe6g","pricing_plan_id":"cebpf4jnsgd1na2vs0mg"},{"bike_id":"410888e6-b7ca-4188-99d7-d776b5e9bf00","system_id":"levelo_inurba_marseille","lat":43.29557,"lon":5.42275,"is_reserved":false,"is_disabled":false,"rental_uris":{"android":"levelo://app?vid=410888e6-b7ca-4188-99d7-d776b5e9bf00","ios":"levelo://app?vid=410888e6-b7ca-4188-99d7-d776b5e9bf00"},"vehicle_type_id":"4","last_reported":1743617627,"current_range_meters":16400,"station_id":"ce4bhph2rcd13ifvqhdg","pricing_plan_id":"cebpf4jnsgd1na2vs0mg"},{"bike_id":"f2b3382c-8be3-40af-902f-047806900599","system_id":"levelo_inurba_marseille","lat":43.29257,"lon":5.38443,"is_reserved":false,"is_disabled":false,"rental_uris":{"android":"levelo://app?vid=f2b3382c-8be3-40af-902f-047806900599","ios":"levelo://app?vid=f2b3382c-8be3-40af-902f-047806900599"},"vehicle_type_id":"4","last_reported":1743617627,"current_range_meters":16400,"station_id":"ce4bh692rcd13ifvqea0","pricing_plan_id":"cebpf4jnsgd1na2vs0mg"},{"bike_id":"0d3694d1-a50e-4f13-b556-b9facb12a357","system_id":"levelo_inurba_marseille","lat":43.312747,"lon":5.401757,"is_reserved":false,"is_disabled":false,"rental_uris":{"android":"levelo://app?vid=0d3694d1-a50e-4f13-b556-b9facb12a357","ios":"levelo://app?vid=0d3694d1-a50e-4f13-b556-b9facb12a357"},"vehicle_type_id":"4","last_reported":1743617627,"current_range_meters":16800,"station_id":"ce4bh092rcd13ifvqd30","pricing_plan_id":"cebpf4jnsgd1na2vs0mg"},