{"last_updated":1700931935,"ttl":30,"version":"2.2","data":{"bikes":[{"bike_id":"247cc49d-e988-4b18-942e-65bd0ac284a2","system_id":"levelo_inurba_marseille","lat":43.309039,"lon":5.371797,"is_reserved":false,"is_disabled":false,"rental_uris":{"android":"levelo://app?vid=247cc49d-e988-4b18-942e-65bd0ac284a2","ios":"levelo://app?vid=247cc49d-e988-4b18-942e-65bd0ac284a2"},"vehicle_type_id":"4","last_reported":1700931935,"current_range_meters":6000,"station_id":"ce4bguh2rcd13ifvqckg","pricing_plan_id":"free"},{"bike_id":"2c4e2ab4-2bc9-4e71-8e28-b7f9c78b7444","system_id":"levelo_inurba_marseille","lat":43.305714,"lon":5.365633,"is_reserved":false,"is_disabled":false,"rental_uris":{"android":"levelo://app?vid=2c4e2ab4-2bc9-4e71-8e28-b7f9c78b7444","ios":"levelo://app?vid=2c4e2ab4-2bc9-4e71-8e28-b7f9c78b7444"},"vehicle_type_id":"4","last_reported":1700931935,"current_range_meters":3200,"station_id":"ce4bgs12rcd13ifvqcag","pricing_plan_id":"free"},{"bike_id":"dbeba11c-6a6c-4ad3-80cf-d740905dee02","system_id":"levelo_inurba_marseille","lat":43.305453,"lon":5.367325,"is_reserved":false,"is_disabled":false,"rental_uris":{"android":"levelo://app?vid=dbeba11c-6a6c-4ad3-80cf-d740905dee02","ios":"levelo://app?vid=dbeba11c-6a6c-4ad3-80cf-d740905dee02"},"vehicle_type_id":"4","last_reported":1700931935,"current_range_meters":19200,"station_id":"ce4bgrp2rcd13ifvqc9g","pricing_plan_id":"free"},{"bike_id":"c0125fa2-c754-461d-9b04-c488b4f122bb","system_id":"levelo_inurba_marseille","lat":43.305706,"lon":5.365654,"is_reserved":false,"is_disabled":false,"rental_uris":{"android":"levelo://app?vid=c0125fa2-c754-461d-9b04-c488b4f122bb","ios":"levelo://app?vid=c0125fa2-c754-461d-9b04-c488b4f122bb"},"vehicle_type_id":"4","last_reported":1700931935,"current_range_meters":19600,"station_id":"ce4bgs12rcd13ifvqcag","pricing_plan_id":"free"},{"bike_id":"f9ef0397-1ceb-49bd-a27e-2e09fce7dfc4","system_id":"levelo_inurba_marseille","lat":43.305714,"lon":5.365633,"is_reserved":false,"is_disabled":false,"rental_uris":{"android":"levelo://app?vid=f9ef0397-1ceb-49bd-a27e-2e09fce7dfc4","ios":"levelo://app?vid=f9ef0397-1ceb-49bd-a27e-2e09fce7dfc4"},"vehicle_type_id":"4","last_reported":1700931935,"current_range_meters":0,"station_id":"ce4bgs12rcd13ifvqcag","pricing_plan_id":"free"},{"bike_id":"ea4b1985-f2fc-4254-a12d-45774b2f3a53","system_id":"levelo_inurba_marseille","lat":43.31118,"lon":5.37753,"is_reserved":false,"is_disabled":false,"rental_uris":{"android":"levelo://app?vid=ea4b1985-f2fc-4254-a12d-45774b2f3a53","ios":"levelo://app?vid=ea4b1985-f2fc-4254-a12d-45774b2f3a53"},"vehicle_type_id":"4","last_reported":1700931935,"current_range_meters":16800,"station_id":"ce4bgt92rcd13ifvqcg0","pricing_plan_id":"free"},{"bike_id":"573a870a-b6c4-429d-8587-8103772b84bc","system_id":"levelo_inurba_marseille","lat":43.308163,"lon":5.376606,"is_reserved":false,"is_disabled":false,"rental_uris":{"android":"levelo://app?vid=573a870a-b6c4-429d-8587-8103772b84bc","ios":"levelo://app?vid=573a870a-b6c4-429d-8587-8103772b84bc"},"vehicle_type_id":"4","last_reported":1700931935,"current_range_meters":4400,"station_id":"ce4bgv92rcd13ifvqcq0","pricing_plan_id":"free"},{"bike_id":"f427a2c3-6e4a-446b-ae2f-9be8aa7f4122","system_id":"levelo_inurba_marseille","lat":43.31719,"lon":5.376813,"is_reserved":false,"is_disabled":false,"rental_uris":{"android":"levelo://app?vid=f427a2c3-6e4a-446b-ae2f-9be8aa7f4122","ios":"levelo://app?vid=f427a2c3-6e4a-446b-ae2f-9be8aa7f4122"},"vehicle_type_id":"4","last_reported":1700931935,"current_range_meters":24400,"station_id":"ce4bgth2rcd13ifvqch0","pricing_plan_id":"free"},{"bike_id":"b898b018-f57d-4901-bab2-fdd15d391de9","system_id":"levelo_inurba_marseille","lat":43.317168,"lon":5.376883,"is_reserved":false,"is_disabled":false,"rental_uris":{"android":"levelo://app?vid=b898b018-f57d-4901-bab2-fdd15d391de9","ios":"levelo://app?vid=b898b018-f57d-4901-bab2-fdd15d391de9"},"vehicle_type_id":"4","last_reported":1700931935,"current_range_meters":26400,"station_id":"ce4bgth2rcd13ifvqch0","pricing_plan_id":"free"},{"bike_id":"9efdf5ac-6ace-44bc-8d78-0465b5818fe8","system_id":"levelo_inurba_marseille","lat":43.31531,"lon":5.38038,"is_reserved":false,"is_disabled":false,"rental_uris":{"android":"levelo://app?vid=9efdf5ac-6ace-44bc-8d78-0465b5818fe8","ios":"levelo://app?vid=9efdf5ac-6ace-44bc-8d78-0465b5818fe8"},"vehicle_type_id":"4","last_reported":1700931935,"current_range_meters":24800,"station_id":"ce4bhsp2rcd13ifvqi50","pricing_plan_id":"free"},{"bike_id":"85a1b2e7-1092-41dc-8fea-b07cb6175595","system_id":"levelo_inurba_marseille","lat":43.32,"lon":5.3817,"is_reserved":false,"is_disabled":false,"rental_uris":{"android":"levelo://app?vid=85a1b2e7-1092-41dc-8fea-b07cb6175595","ios":"levelo://app?vid=85a1b2e7-1092-41dc-8fea-b07cb6175595"},"vehicle_type_id":"4","last_reported":1700931935,"current_range_meters":21200,"station_id":"ce4bhr12rcd13ifvqhpg","pricing_plan_id":"free"},{"bike_id":"24744296-f40e-48f5-a6aa-71a5b5794896","system_id":"levelo_inurba_marseille","lat":43.313571,"lon":5.384829,"is_reserved":false,"is_disabled":false,"rental_uris":{"android":"levelo://app?vid=24744296-f40e-48f5-a6aa-71a5b5794896","ios":"levelo://app?vid=24744296-f40e-48f5-a6aa-71a5b5794896"},"vehicle_type_id":"4","last_reported":1700931935,"current_range_meters":16800,"station_id":"ce4bgt92rcd13ifvqcf0","pricing_plan_id":"free"},{"bike_id":"a7958689-79ad-4f21-a3a8-969bb7ff00b8","system_id":"levelo_inurba_marseille","lat":43.299222,"lon":5.365554,"is_reserved":false,"is_disabled":false,"rental_uris":{"android":"levelo://app?vid=a7958689-79ad-4f21-a3a8-969bb7ff00b8","ios":"levelo://app?vid=a7958689-79ad-4f21-a3a8-969bb7ff00b8"},"vehicle_type_id":"4","last_reported":1700931935,"current_range_meters":20400,"station_id":"ce4bgm92rcd13ifvqbr0","pricing_plan_id":"free"},{"bike_id":"3532deaf-20d1-4d3a-ba36-ed08c39571a0","system_id":"levelo_inurba_marseille","lat":43.298433,"lon":5.362774,"is_reserved":false,"is_disabled":false,"rental_uris":{"android":"levelo://app?vid=3532deaf-20d1-4d3a-ba36-ed08c39571a0","ios":"levelo://app?vid=3532deaf-20d1-4d3a-ba36-ed08c39571a0"},"vehicle_type_id":"4","last_reported":1700931935,"current_range_meters":22000,"station_id":"ce4bgpp2rcd13ifvqc3g","pricing_plan_id":"free"},{"bike_id":"209bb963-25ac-469c-bc39-abddb1fac86f","system_id":"levelo_inurba_marseille","lat":43.305364,"lon":5.384119,"is_reserved":false,"is_disabled":false,"rental_uris":{"android":"levelo://app?vid=209bb963-25ac-469c-bc39-abddb1fac86f","ios":"levelo://app?vid=209bb963-25ac-469c-bc39-abddb1fac86f"},"vehicle_type_id":"4","last_reported":1700931935,"current_range_meters":24800,"station_id":"ce4bgg92rcd13ifvqb30","pricing_plan_id":"free"},{"bike_id":"487cb37d-12da-488a-a419-2995890b6459","system_id":"levelo_inurba_marseille","lat":43.298433,"lon":5.362774,"is_reserved":false,"is_disabled":false,"rental_uris":{"android":"levelo://app?vid=487cb37d-12da-488a-a419-2995890b6459","ios":"levelo://app?vid=487cb37d-12da-488a-a419-2995890b6459"},"vehicle_type_id":"4","last_reported":1700931935,"current_range_meters":7600,"station_id":"ce4bgpp2rcd13ifvqc3g","pricing_plan_id":"free"},{"bike_id":"5a1baf68-f9af-496c-ab26-e428d44bc382","system_id":"levelo_inurba_marseille","lat":43.322872,"lon":5.382756,"is_reserved":false,"is_disabled":false,"rental_uris":{"android":"levelo://app?vid=5a1baf68-f9af-496c-ab26-e428d44bc382","ios":"levelo://app?vid=5a1baf68-f9af-496c-ab26-e428d44bc382"},"vehicle_type_id":"4","last_reported":1700931935,"current_range_meters":26800,"station_id":"ce4bhr12rcd13ifvqhqg","pricing_plan_id":"free"},{"bike_id":"95825c38-6c59-4753-b43e-2f944bdb26b9","system_id":"levelo_inurba_marseille","lat":43.32819,"lon":5.36694,"is_reserved":false,"is_disabled":false,"rental_uris":{"android":"levelo://app?vid=95825c38-6c59-4753-b43e-2f944bdb26b9","ios":"levelo://app?vid=95825c38-6c59-4753-b43e-2f944bdb26b9"},"vehicle_type_id":"4","last_reported":1700931935,"current_range_meters":15200,"station_id":"ce4bhs92rcd13ifvqi0g","pricing_plan_id":"free"},{"bike_id":"8791a58e-e3a0-43a8-b083-b15b0d3679b4","system_id":"levelo_inurba_marseille","lat":43.328371,"lon":5.366909,"is_reserved":false,"is_disabled":false,"rental_uris":{"android":"levelo://app?vid=8791a58e-e3a0-43a8-b083-b15b0d3679b4","ios":"levelo://app?vid=8791a58e-e3a0-43a8-b083-b15b0d3679b4"},"vehicle_type_id":"4","last_reported":1700931935,"current_range_meters":7600,"station_id":"ce4bhs92rcd13ifvqi0g","pricing_plan_id":"free"},{"bike_id":"07a03e0e-e12b-474e-a940-8baf07c98432","system_id":"levelo_inurba_marseille","lat":43.32829,"lon":5.3668,"is_reserved":false,"is_disabled":false,"rental_uris":{"android":"levelo://app?vid=07a03e0e-e12b-474e-a940-8baf07c98432","ios":"levelo://app?vid=07a03e0e-e12b-474e-a940-8baf07c98432"},"vehicle_type_id":"4","last_reported":1700931935,"current_range_meters":14800,"station_id":"ce4bhs92rcd13ifvqi0g","pricing_plan_id":"free"},{"bike_id":"a7156c28-1946-468b-9e64-3365962b5f30","system_id":"levelo_inurba_marseille","lat":43.328371,"lon":5.366909,"is_reserved":false,"is_disabled":false,"rental_uris":{"android":"levelo://app?vid=a7156c28-1946-468b-9e64-3365962b5f30","ios":"levelo://app?vid=a7156c28-1946-468b-9e64-3365962b5f30"},"vehicle_type_id":"4","last_reported":1700931935,"current_range_meters":12400,"station_id":"ce4bhs92rcd13ifvqi0g","pricing_plan_id":"free"},{"bike_id":"999b0328-23de-43cf-8f81-7d15863ffe3b","system_id":"levelo_inurba_marseille","lat":43.297163,"lon":5.365866,"is_reserved":false,"is_disabled":false,"rental_uris":{"android":"levelo://app?vid=999b0328-23de-43cf-8f81-7d15863ffe3b","ios":"levelo://app?vid=999b0328-23de-43cf-8f81-7d15863ffe3b"},"vehicle_type_id":"4","last_reported":1700931935,"current_range_meters":29600,"station_id":"ce4bgn12rcd13ifvqbt0","pricing_plan_id":"free"},{"bike_id":"8d576a43-59ad-467c-beaf-c77db02e73d9","system_id":"levelo_inurba_marseille","lat":43.2968,"lon":5.37291,"is_reserved":false,"is_disabled":false,"rental_uris":{"android":"levelo://app?vid=8d576a43-59ad-467c-beaf-c77db02e73d9","ios":"levelo://app?vid=8d576a43-59ad-467c-beaf-c77db02e73d9"},"vehicle_type_id":"4","last_reported":1700931935,"current_range_meters":21600,"station_id":"ce4bgk12rcd13ifvqbj0","pricing_plan_id":"free"},{"bike_id":"65592411-0329-4676-9170-bdb161d9f3d5","system_id":"levelo_inurba_marseille","lat":43.296921,"lon":5.376579,"is_reserved":false,"is_disabled":false,"rental_uris":{"android":"levelo://app?vid=65592411-0329-4676-9170-bdb161d9f3d5","ios":"levelo://app?vid=65592411-0329-4676-9170-bdb161d9f3d5"},"vehicle_type_id":"4","last_reported":1700931935,"current_range_meters":7600,"station_id":"ce4bgkh2rcd13ifvqbl0","pricing_plan_id":"free"},{"bike_id":"7af96c23-12c1-4c95-8606-52ca076b3e89","system_id":"levelo_inurba_marseille","lat":43.296921,"lon":5.376579,"is_reserved":false,"is_disabled":false,"rental_uris":{"android":"levelo://app?vid=7af96c23-12c1-4c95-8606-52ca076b3e89","ios":"levelo://app?vid=7af96c23-12c1-4c95-8606-52ca076b3e89"},"vehicle_type_id":"4","last_reported":1700931935,"current_range_meters":12400,"station_id":"ce4bgkh2rcd13ifvqbl0","pricing_plan_id":"free"},{"bike_id":"c39625a7-914c-4cf3-a833-3154542adda3","system_id":"levelo_inurba_marseille","lat":43.299028,"lon":5.381509,"is_reserved":false,"is_disabled":false,"rental_uris":{"android":"levelo://app?vid=c39625a7-914c-4cf3-a833-3154542adda3","ios":"levelo://app?vid=c39625a7-914c-4cf3-a833-3154542adda3"},"vehicle_type_id":"4","last_reported":1700931935,"current_range_meters":2000,"station_id":"ce4bgj12rcd13ifvqbc0","pricing_plan_id":"free"},{"bike_id":"8336e615-85ef-4dc6-b00d-8400c9ba88e5","system_id":"levelo_inurba_marseille","lat":43.298037,"lon":5.381066,"is_reserved":false,"is_disabled":false,"rental_uris":{"android":"levelo://app?vid=8336e615-85ef-4dc6-b00d-8400c9ba88e5","ios":"levelo://app?vid=8336e615-85ef-4dc6-b00d-8400c9ba88e5"},"vehicle_type_id":"4","last_reported":1700931935,"current_range_meters":7600,"station_id":"ce4bgip2rcd13ifvqbb0","pricing_plan_id":"free"},{"bike_id":"f63cc923-dd86-4fbe-83c5-7f5fc56dc96d","system_id":"levelo_inurba_marseille","lat":43.295748,"lon":5.37522,"is_reserved":false,"is_disabled":false,"rental_uris":{"android":"levelo://app?vid=f63cc923-dd86-4fbe-83c5-7f5fc56dc96d","ios":"levelo://app?vid=f63cc923-dd86-4fbe-83c5-7f5fc56dc96d"},"vehicle_type_id":"4","last_reported":1700931935,"current_range_meters":2800,"station_id":"ce4bgh92rcd13ifvqb50","pricing_plan_id":"free"},{"bike_id":"97e46894-f4c3-453d-9b32-785d272b7652","system_id":"levelo_inurba_marseille","lat":43.295748,"lon":5.37522,"is_reserved":false,"is_disabled":false,"rental_uris":{"android":"levelo://app?vid=97e46894-f4c3-453d-9b32-785d272b7652","ios":"levelo://app?vid=97e46894-f4c3-453d-9b32-785d272b7652"},"vehicle_type_id":"4","last_reported":1700931935,"current_range_meters":24400,"station_id":"ce4bgh92rcd13ifvqb50","pricing_plan_id":"free"},{"bike_id":"8ed28506-b88e-4a56-b2f9-34ab75a10073","system_id":"levelo_inurba_marseille","lat":43.295748,"lon":5.37522,"is_reserved":false,"is_disabled":false,"rental_uris":{"android":"levelo://app?vid=8ed28506-b88e-4a56-b2f9-34ab75a10073","ios":"levelo://app?vid=8ed28506-b88e-4a56-b2f9-34ab75a10073"},"vehicle_type_id":"4","last_reported":1700931935,"current_range_meters":15600,"station_id":"ce4bgh92rcd13ifvqb50","pricing_plan_id":"free"},{"bike_id":"b10f7dd6-864f-4e35-9b5a-776f5ff15dd2","system_id":"levelo_inurba_marseille","lat":43.296263,"lon":5.377094,"is_reserved":false,"is_disabled":false,"rental_uris":{"android":"levelo://app?vid=b10f7dd6-864f-4e35-9b5a-776f5ff15dd2","ios":"levelo://app?vid=b10f7dd6-864f-4e35-9b5a-776f5ff15dd2"},"vehicle_type_id":"4","last_reported":1700931935,"current_range_meters":11600,"station_id":"ce4bgi92rcd13ifvqb90","pricing_plan_id":"free"},{"bike_id":"06d827a2-ac28-4006-8bbc-3e3666947fb3","system_id":"levelo_inurba_marseille","lat":43.29609,"lon":5.37721,"is_reserved":false,"is_disabled":false,"rental_uris":{"android":"levelo://app?vid=06d827a2-ac28-4006-8bbc-3e3666947fb3","ios":"levelo://app?vid=06d827a2-ac28-4006-8bbc-3e3666947fb3"},"vehicle_type_id":"4","last_reported":1700931935,"current_range_meters":0,"station_id":"ce4bgi92rcd13ifvqb90","pricing_plan_id":"free"},{"bike_id":"a9bb9018-414e-4a05-9bde-dd3530270b19","system_id":"levelo_inurba_marseille","lat":43.295279,"lon":5.375048,"is_reserved":false,"is_disabled":false,"rental_uris":{"android":"levelo://app?vid=a9bb9018-414e-4a05-9bde-dd3530270b19","ios":"levelo://app?vid=a9bb9018-414e-4a05-9bde-dd3530270b19"},"vehicle_type_id":"4","last_reported":1700931935,"current_range_meters":17600,"station_id":"ce4bgkp2rcd13ifvqbmg","pricing_plan_id":"free"},{"bike_id":"6b621983-5e9e-42f7-990d-ad5a093820d2","system_id":"levelo_inurba_marseille","lat":43.293801,"lon":5.363066,"is_reserved":false,"is_disabled":false,"rental_uris":{"android":"levelo://app?vid=6b621983-5e9e-42f7-990d-ad5a093820d2","ios":"levelo://app?vid=6b621983-5e9e-42f7-990d-ad5a093820d2"},"vehicle_type_id":"4","last_reported":1700931935,"current_range_meters":0,"station_id":"","pricing_plan_id":"free"},{"bike_id":"70a6ace1-d595-4f17-a8d1-9fc4007b6517","system_id":"levelo_inurba_marseille","lat":43.32365,"lon":5.38877,"is_reserved":false,"is_disabled":false,"rental_uris":{"android":"levelo://app?vid=70a6ace1-d595-4f17-a8d1-9fc4007b6517","ios":"levelo://app?vid=70a6ace1-d595-4f17-a8d1-9fc4007b6517"},"vehicle_type_id":"4","last_reported":1700931935,"current_range_meters":7600,"station_id":"ce4bhqp2rcd13ifvqhog","pricing_plan_id":"free"},{"bike_id":"73556ea6-9575-43b9-896e-bed26648f0e4","system_id":"levelo_inurba_marseille","lat":43.32367,"lon":5.388836,"is_reserved":false,"is_disabled":false,"rental_uris":{"android":"levelo://app?vid=73556ea6-9575-43b9-896e-bed26648f0e4","ios":"levelo://app?vid=73556ea6-9575-43b9-896e-bed26648f0e4"},"vehicle_type_id":"4","last_reported":1700931935,"current_range_meters":26800,"station_id":"ce4bhqp2rcd13ifvqhog","pricing_plan_id":"free"},{"bike_id":"c34d3802-7b38-4e64-a66d-ab676432d12f","system_id":"levelo_inurba_marseille","lat":43.29601,"lon":5.381084,"is_reserved":false,"is_disabled":false,"rental_uris":{"android":"levelo://app?vid=c34d3802-7b38-4e64-a66d-ab676432d12f","ios":"levelo://app?vid=c34d3802-7b38-4e64-a66d-ab676432d12f"},"vehicle_type_id":"4","last_reported":1700931935,"current_range_meters":9600,"station_id":"ce4bgl12rcd13ifvqbo0","pricing_plan_id":"free"},{"bike_id":"c08692de-893b-4842-ac6a-624a77fd78ec","system_id":"levelo_inurba_marseille","lat":43.32379,"lon":5.3897,"is_reserved":false,"is_disabled":false,"rental_uris":{"android":"levelo://app?vid=c08692de-893b-4842-ac6a-624a77fd78ec","ios":"levelo://app?vid=c08692de-893b-4842-ac6a-624a77fd78ec"},"vehicle_type_id":"4","last_reported":1700931935,"current_range_meters":2800,"station_id":"","pricing_plan_id":"free"},{"bike_id":"8fe523ab-bb5c-4840-8bd3-25ab4fa048e3","system_id":"levelo_inurba_marseille","lat":43.29311,"lon":5.37172,"is_reserved":false,"is_disabled":false,"rental_uris":{"android":"levelo://app?vid=8fe523ab-bb5c-4840-8bd3-25ab4fa048e3","ios":"levelo://app?vid=8fe523ab-bb5c-4840-8bd3-25ab4fa048e3"},"vehicle_type_id":"4","last_reported":1700931935,"current_range_meters":1200,"station_id":"ce4bgh92rcd13ifvqb40","pricing_plan_id":"free"},{"bike_id":"a2c1cb2a-1964-4d3c-89d4-0e0891a991b7","system_id":"levelo_inurba_marseille","lat":43.305994,"lon":5.393687,"is_reserved":false,"is_disabled":false,"rental_uris":{"android":"levelo://app?vid=a2c1cb2a-1964-4d3c-89d4-0e0891a991b7","ios":"levelo://app?vid=a2c1cb2a-1964-4d3c-89d4-0e0891a991b7"},"vehicle_type_id":"4","last_reported":1700931935,"current_range_meters":22000,"station_id":"ce4bh0p2rcd13ifvqd80","pricing_plan_id":"free"},{"bike_id":"8f03a6bd-8571-4927-908b-cebca1ad1818","system_id":"levelo_inurba_marseille","lat":43.292749,"lon":5.368402,"is_reserved":false,"is_disabled":false,"rental_uris":{"android":"levelo://app?vid=8f03a6bd-8571-4927-908b-cebca1ad1818","ios":"levelo://app?vid=8f03a6bd-8571-4927-908b-cebca1ad1818"},"vehicle_type_id":"4","last_reported":1700931935,"current_range_meters":800,"station_id":"ce4bhbp2rcd13ifvqesg","pricing_plan_id":"free"},{"bike_id":"70468326-75d1-4f7a-a2a2-882c10b316bd","system_id":"levelo_inurba_marseille","lat":43.30641,"lon":5.39325,"is_reserved":false,"is_disabled":false,"rental_uris":{"android":"levelo://app?vid=70468326-75d1-4f7a-a2a2-882c10b316bd","ios":"levelo://app?vid=70468326-75d1-4f7a-a2a2-882c10b316bd"},"vehicle_type_id":"4","last_reported":1700931935,"current_range_meters":17200,"station_id":"ce4bh0p2rcd13ifvqd80","pricing_plan_id":"free"},{"bike_id":"4c992c6c-d54e-4962-9d9c-19678bac1cbc","system_id":"levelo_inurba_marseille","lat":43.29312,"lon":5.3746,"is_reserved":false,"is_disabled":false,"rental_uris":{"android":"levelo://app?vid=4c992c6c-d54e-4962-9d9c-19678bac1cbc","ios":"levelo://app?vid=4c992c6c-d54e-4962-9d9c-19678bac1cbc"},"vehicle_type_id":"4","last_reported":1700931935,"current_range_meters":0,"station_id":"ce4bgi12rcd13ifvqb70","pricing_plan_id":"free"},{"bike_id":"bfc54471-9090-4755-ac59-3b0b2d261e4c","system_id":"levelo_inurba_marseille","lat":43.2936,"lon":5.37835,"is_reserved":false,"is_disabled":false,"rental_uris":{"android":"levelo://app?vid=bfc54471-9090-4755-ac59-3b0b2d261e4c","ios":"levelo://app?vid=bfc54471-9090-4755-ac59-3b0b2d261e4c"},"vehicle_type_id":"4","last_reported":1700931935,"current_range_meters":10000,"station_id":"ce4bgjh2rcd13ifvqbf0","pricing_plan_id":"free"},{"bike_id":"8184a34d-eea7-4e82-bc84-b7db5e65aeea","system_id":"levelo_inurba_marseille","lat":43.292663,"lon":5.376394,"is_reserved":false,"is_disabled":false,"rental_uris":{"android":"levelo://app?vid=8184a34d-eea7-4e82-bc84-b7db5e65aeea","ios":"levelo://app?vid=8184a34d-eea7-4e82-bc84-b7db5e65aeea"},"vehicle_type_id":"4","last_reported":1700931935,"current_range_meters":16800,"station_id":"ce4bgi12rcd13ifvqb80","pricing_plan_id":"free"},{"bike_id":"e9789152-5fb8-48ef-b6f2-9ce36c027021","system_id":"levelo_inurba_marseille","lat":43.292311,"lon":5.360731,"is_reserved":false,"is_disabled":false,"rental_uris":{"android":"levelo://app?vid=e9789152-5fb8-48ef-b6f2-9ce36c027021","ios":"levelo://app?vid=e9789152-5fb8-48ef-b6f2-9ce36c027021"},"vehicle_type_id":"4","last_reported":1700931935,"current_range_meters":27600,"station_id":"ce4bhbh2rcd13ifvqeqg","pricing_plan_id":"free"},{"bike_id":"bedaba56-c40b-440d-9a0a-1b18f3cdb658","system_id":"levelo_inurba_marseille","lat":43.29192,"lon":5.35802,"is_reserved":false,"is_disabled":false,"rental_uris":{"android":"levelo://app?vid=bedaba56-c40b-440d-9a0a-1b18f3cdb658","ios":"levelo://app?vid=bedaba56-c40b-440d-9a0a-1b18f3cdb658"},"vehicle_type_id":"4","last_reported":1700931935,"current_range_meters":22400,"station_id":"ce4bhb12rcd13ifvqel0","pricing_plan_id":"free"},{"bike_id":"ab89b44e-f03f-4f55-b635-6842e1281a66","system_id":"levelo_inurba_marseille","lat":43.29192,"lon":5.35795,"is_reserved":false,"is_disabled":false,"rental_uris":{"android":"levelo://app?vid=ab89b44e-f03f-4f55-b635-6842e1281a66","ios":"levelo://app?vid=ab89b44e-f03f-4f55-b635-6842e1281a66"},"vehicle_type_id":"4","last_reported":1700931935,"current_range_meters":3200,"station_id":"ce4bhb12rcd13ifvqel0","pricing_plan_id":"free"},{"bike_id":"1166cdfe-112d-4527-8420-ef6778d983b5","system_id":"levelo_inurba_marseille","lat":43.313291,"lon":5.396838,"is_reserved":false,"is_disabled":false,"rental_uris":{"android":"levelo://app?vid=1166cdfe-112d-4527-8420-ef6778d983b5","ios":"levelo://app?vid=1166cdfe-112d-4527-8420-ef6778d983b5"},"vehicle_type_id":"4","last_reported":1700931935,"current_range_meters":6800,"station_id":"ce4bgvp2rcd13ifvqcu0","pricing_plan_id":"free"},{"bike_id":"784a140b-0985-422c-a691-67c0730326bb","system_id":"levelo_inurba_marseille","lat":43.313291,"lon":5.396838,"is_reserved":false,"is_disabled":false,"rental_uris":{"android":"levelo://app?vid=784a140b-0985-422c-a691-67c0730326bb","ios":"levelo://app?vid=784a140b-0985-422c-a691-67c0730326bb"},"vehicle_type_id":"4","last_reported":1700931935,"current_range_meters":6000,"station_id":"ce4bgvp2rcd13ifvqcu0","pricing_plan_id":"free"},{"bike_id":"5f04c544-50f5-4c96-913a-d02cf5684d87","system_id":"levelo_inurba_marseille","lat":43.29529,"lon":5.385581,"is_reserved":false,"is_disabled":false,"rental_uris":{"android":"levelo://app?vid=5f04c544-50f5-4c96-913a-d02cf5684d87","ios":"levelo://app?vid=5f04c544-50f5-4c96-913a-d02cf5684d87"},"vehicle_type_id":"4","last_reported":1700931935,"current_range_meters":800,"station_id":"ce4bgih2rcd13ifvqba0","pricing_plan_id":"free"},{"bike_id":"932f8cd5-a78e-4e7c-ae20-73e717719194","system_id":"levelo_inurba_marseille","lat":43.309038,"lon":5.396546,"is_reserved":false,"is_disabled":false,"rental_uris":{"android":"levelo://app?vid=932f8cd5-a78e-4e7c-ae20-73e717719194","ios":"levelo://app?vid=932f8cd5-a78e-4e7c-ae20-73e717719194"},"vehicle_type_id":"4","last_reported":1700931935,"current_range_meters":11600,"station_id":"ce4bh012rcd13ifvqcv0","pricing_plan_id":"free"},{"bike_id":"536d0db1-a72f-48ee-8fd8-1f5eec43a857","system_id":"levelo_inurba_marseille","lat":43.294162,"lon":5.386292,"is_reserved":false,"is_disabled":false,"rental_uris":{"android":"levelo://app?vid=536d0db1-a72f-48ee-8fd8-1f5eec43a857","ios":"levelo://app?vid=536d0db1-a72f-48ee-8fd8-1f5eec43a857"},"vehicle_type_id":"4","last_reported":1700931935,"current_range_meters":22000,"station_id":"ce4bh2h2rcd13ifvqdh0","pricing_plan_id":"free"},{"bike_id":"77f472a5-d8d7-429c-be76-0301e9e08d76","system_id":"levelo_inurba_marseille","lat":43.289468,"lon":5.363719,"is_reserved":false,"is_disabled":false,"rental_uris":{"android":"levelo://app?vid=77f472a5-d8d7-429c-be76-0301e9e08d76","ios":"levelo://app?vid=77f472a5-d8d7-429c-be76-0301e9e08d76"},"vehicle_type_id":"4","last_reported":1700931935,"current_range_meters":23200,"station_id":"ce4bhc92rcd13ifvqetg","pricing_plan_id":"free"},{"bike_id":"75421eba-09ef-4bfb-8f54-3c86251a2b0e","system_id":"levelo_inurba_marseille","lat":43.28944,"lon":5.36404,"is_reserved":false,"is_disabled":false,"rental_uris":{"android":"levelo://app?vid=75421eba-09ef-4bfb-8f54-3c86251a2b0e","ios":"levelo://app?vid=75421eba-09ef-4bfb-8f54-3c86251a2b0e"},"vehicle_type_id":"4","last_reported":1700931935,"current_range_meters":12000,"station_id":"ce4bhc92rcd13ifvqetg","pricing_plan_id":"free"},{"bike_id":"6f09a966-6571-483a-b832-72b25770f81f","system_id":"levelo_inurba_marseille","lat":43.28938,"lon":5.36416,"is_reserved":false,"is_disabled":false,"rental_uris":{"android":"levelo://app?vid=6f09a966-6571-483a-b832-72b25770f81f","ios":"levelo://app?vid=6f09a966-6571-483a-b832-72b25770f81f"},"vehicle_type_id":"4","last_reported":1700931935,"current_range_meters":14800,"station_id":"ce4bhc92rcd13ifvqetg","pricing_plan_id":"free"},{"bike_id":"ed9a2fc6-9452-4d2e-8fb6-681cf17f8983","system_id":"levelo_inurba_marseille","lat":43.292642,"lon":5.384254,"is_reserved":false,"is_disabled":false,"rental_uris":{"android":"levelo://app?vid=ed9a2fc6-9452-4d2e-8fb6-681cf17f8983","ios":"levelo://app?vid=ed9a2fc6-9452-4d2e-8fb6-681cf17f8983"},"vehicle_type_id":"4","last_reported":1700931935,"current_range_meters":17600,"station_id":"ce4bh692rcd13ifvqea0","pricing_plan_id":"free"},{"bike_id":"035e7266-5dea-42d8-8a20-a04efa289cbc","system_id":"levelo_inurba_marseille","lat":43.292644,"lon":5.384257,"is_reserved":false,"is_disabled":false,"rental_uris":{"android":"levelo://app?vid=035e7266-5dea-42d8-8a20-a04efa289cbc","ios":"levelo://app?vid=035e7266-5dea-42d8-8a20-a04efa289cbc"},"vehicle_type_id":"4","last_reported":1700931935,"current_range_meters":30000,"station_id":"ce4bh692rcd13ifvqea0","pricing_plan_id":"free"},{"bike_id":"889fddbd-0ff8-45eb-bd32-3c3a56e224b4","system_id":"levelo_inurba_marseille","lat":43.292642,"lon":5.384254,"is_reserved":false,"is_disabled":false,"rental_uris":{"android":"levelo://app?vid=889fddbd-0ff8-45eb-bd32-3c3a56e224b4","ios":"levelo://app?vid=889fddbd-0ff8-45eb-bd32-3c3a56e224b4"},"vehicle_type_id":"4","last_reported":1700931935,"current_range_meters":20000,"station_id":"ce4bh692rcd13ifvqea0","pricing_plan_id":"free"},{"bike_id":"f898a6e7-5322-4503-863a-9806a76635b0","system_id":"levelo_inurba_marseille","lat":43.292642,"lon":5.384254,"is_reserved":false,"is_disabled":false,"rental_uris":{"android":"levelo://app?vid=f898a6e7-5322-4503-863a-9806a76635b0","ios":"levelo://app?vid=f898a6e7-5322-4503-863a-9806a76635b0"},"vehicle_type_id":"4","last_reported":1700931935,"current_range_meters":11600,"station_id":"ce4bh692rcd13ifvqea0","pricing_plan_id":"free"},{"bike_id":"fc893ef4-7c50-4ba6-aa3c-31abe57f81e2","system_id":"levelo_inurba_marseille","lat":43.292644,"lon":5.384257,"is_reserved":false,"is_disabled":false,"rental_uris":{"android":"levelo://app?vid=fc893ef4-7c50-4ba6-aa3c-31abe57f81e2","ios":"levelo://app?vid=fc893ef4-7c50-4ba6-aa3c-31abe57f81e2"},"vehicle_type_id":"4","last_reported":1700931935,"current_range_meters":18800,"station_id":"ce4bh692rcd13ifvqea0","pricing_plan_id":"free"},{"bike_id":"85ab63e1-5471-43b1-9baa-2d1a87319dab","system_id":"levelo_inurba_marseille","lat":43.290104,"lon":5.356111,"is_reserved":false,"is_disabled":false,"rental_uris":{"android":"levelo://app?vid=85ab63e1-5471-43b1-9baa-2d1a87319dab","ios":"levelo://app?vid=85ab63e1-5471-43b1-9baa-2d1a87319dab"},"vehicle_type_id":"4","last_reported":1700931935,"current_range_meters":23600,"station_id":"ce4bhb92rcd13ifvqen0","pricing_plan_id":"free"},{"bike_id":"e571b9fe-61fa-4951-a67c-5ff85138bf61","system_id":"levelo_inurba_marseille","lat":43.290104,"lon":5.356111,"is_reserved":false,"is_disabled":false,"rental_uris":{"android":"levelo://app?vid=e571b9fe-61fa-4951-a67c-5ff85138bf61","ios":"levelo://app?vid=e571b9fe-61fa-4951-a67c-5ff85138bf61"},"vehicle_type_id":"4","last_reported":1700931935,"current_range_meters":19200,"station_id":"ce4bhb92rcd13ifvqen0","pricing_plan_id":"free"},{"bike_id":"91cf0107-1ffb-42ae-965a-d14b71cd3cbe","system_id":"levelo_inurba_marseille","lat":43.290995,"lon":5.381361,"is_reserved":false,"is_disabled":false,"rental_uris":{"android":"levelo://app?vid=91cf0107-1ffb-42ae-965a-d14b71cd3cbe","ios":"levelo://app?vid=91cf0107-1ffb-42ae-965a-d14b71cd3cbe"},"vehicle_type_id":"4","last_reported":1700931935,"current_range_meters":19600,"station_id":"ce4bh512rcd13ifvqe2g","pricing_plan_id":"free"},{"bike_id":"fd518e3d-e82e-4d11-b733-9d6897de948b","system_id":"levelo_inurba_marseille","lat":43.289743,"lon":5.378304,"is_reserved":false,"is_disabled":false,"rental_uris":{"android":"levelo://app?vid=fd518e3d-e82e-4d11-b733-9d6897de948b","ios":"levelo://app?vid=fd518e3d-e82e-4d11-b733-9d6897de948b"},"vehicle_type_id":"4","last_reported":1700931935,"current_range_meters":22800,"station_id":"ce4bh9p2rcd13ifvqed0","pricing_plan_id":"free"},{"bike_id":"7fbad627-9299-444d-b58f-495279d762be","system_id":"levelo_inurba_marseille","lat":43.29783,"lon":5.39339,"is_reserved":false,"is_disabled":false,"rental_uris":{"android":"levelo://app?vid=7fbad627-9299-444d-b58f-495279d762be","ios":"levelo://app?vid=7fbad627-9299-444d-b58f-495279d762be"},"vehicle_type_id":"4","last_reported":1700931935,"current_range_meters":8000,"station_id":"chh1huq6cuj3fo74tm60","pricing_plan_id":"free"},{"bike_id":"1c57bf9c-9cdf-4339-a8d8-2d3817491bb5","system_id":"levelo_inurba_marseille","lat":43.297815,"lon":5.393548,"is_reserved":false,"is_disabled":false,"rental_uris":{"android":"levelo://app?vid=1c57bf9c-9cdf-4339-a8d8-2d3817491bb5","ios":"levelo://app?vid=1c57bf9c-9cdf-4339-a8d8-2d3817491bb5"},"vehicle_type_id":"4","last_reported":1700931935,"current_range_meters":22000,"station_id":"chh1huq6cuj3fo74tm60","pricing_plan_id":"free"},{"bike_id":"e3d422d4-0fbb-4d98-9663-6a92b21143af","system_id":"levelo_inurba_marseille","lat":43.295169,"lon":5.390426,"is_reserved":false,"is_disabled":false,"rental_uris":{"android":"levelo://app?vid=e3d422d4-0fbb-4d98-9663-6a92b21143af","ios":"levelo://app?vid=e3d422d4-0fbb-4d98-9663-6a92b21143af"},"vehicle_type_id":"4","last_reported":1700931935,"current_range_meters":11600,"station_id":"ce4bh3p2rcd13ifvqdp0","pricing_plan_id":"free"},{"bike_id":"31622836-b8d2-4351-bfd7-dfa0acc3e422","system_id":"levelo_inurba_marseille","lat":43.2901,"lon":5.381269,"is_reserved":false,"is_disabled":false,"rental_uris":{"android":"levelo://app?vid=31622836-b8d2-4351-bfd7-dfa0acc3e422","ios":"levelo://app?vid=31622836-b8d2-4351-bfd7-dfa0acc3e422"},"vehicle_type_id":"4","last_reported":1700931935,"current_range_meters":2400,"station_id":"ce4bh4p2rcd13ifvqe1g","pricing_plan_id":"free"},{"bike_id":"9c9bd7db-a71c-419c-ba42-83618cc977b4","system_id":"levelo_inurba_marseille","lat":43.30955,"lon":5.40081,"is_reserved":false,"is_disabled":false,"rental_uris":{"android":"levelo://app?vid=9c9bd7db-a71c-419c-ba42-83618cc977b4","ios":"levelo://app?vid=9c9bd7db-a71c-419c-ba42-83618cc977b4"},"vehicle_type_id":"4","last_reported":1700931935,"current_range_meters":800,"station_id":"","pricing_plan_id":"free"},{"bike_id":"82c7f85b-cad7-438d-a63c-1f20d7e93f02","system_id":"levelo_inurba_marseille","lat":43.2901,"lon":5.381269,"is_reserved":false,"is_disabled":false,"rental_uris":{"android":"levelo://app?vid=82c7f85b-cad7-438d-a63c-1f20d7e93f02","ios":"levelo://app?vid=82c7f85b-cad7-438d-a63c-1f20d7e93f02"},"vehicle_type_id":"4","last_reported":1700931935,"current_range_meters":2400,"station_id":"ce4bh4p2rcd13ifvqe1g","pricing_plan_id":"free"},{"bike_id":"ac285e26-46ab-4b23-8672-d078d8fed511","system_id":"levelo_inurba_marseille","lat":43.33751,"lon":5.37452,"is_reserved":false,"is_disabled":false,"rental_uris":{"android":"levelo://app?vid=ac285e26-46ab-4b23-8672-d078d8fed511","ios":"levelo://app?vid=ac285e26-46ab-4b23-8672-d078d8fed511"},"vehicle_type_id":"4","last_reported":1700931935,"current_range_meters":26400,"station_id":"","pricing_plan_id":"free"},{"bike_id":"2b23f38a-1831-49fe-a943-86c9ec15f136","system_id":"levelo_inurba_marseille","lat":43.33751,"lon":5.37464,"is_reserved":false,"is_disabled":false,"rental_uris":{"android":"levelo://app?vid=2b23f38a-1831-49fe-a943-86c9ec15f136","ios":"levelo://app?vid=2b23f38a-1831-49fe-a943-86c9ec15f136"},"vehicle_type_id":"4","last_reported":1700931935,"current_range_meters":1200,"station_id":"","pricing_plan_id":"free"},{"bike_id":"596e6e7d-16bc-478b-b128-f0d2d4e107dd","system_id":"levelo_inurba_marseille","lat":43.30642,"lon":5.401031,"is_reserved":false,"is_disabled":false,"rental_uris":{"android":"levelo://app?vid=596e6e7d-16bc-478b-b128-f0d2d4e107dd","ios":"levelo://app?vid=596e6e7d-16bc-478b-b128-f0d2d4e107dd"},"vehicle_type_id":"4","last_reported":1700931935,"current_range_meters":20800,"station_id":"ce4bh112rcd13ifvqda0","pricing_plan_id":"free"},{"bike_id":"2e2f4470-4d6d-4af7-88b1-6055cb5a5f2a","system_id":"levelo_inurba_marseille","lat":43.286961,"lon":5.373785,"is_reserved":false,"is_disabled":false,"rental_uris":{"android":"levelo://app?vid=2e2f4470-4d6d-4af7-88b1-6055cb5a5f2a","ios":"levelo://app?vid=2e2f4470-4d6d-4af7-88b1-6055cb5a5f2a"},"vehicle_type_id":"4","last_reported":1700931935,"current_range_meters":0,"station_id":"ce4bh3p2rcd13ifvqdq0","pricing_plan_id":"free"},{"bike_id":"cb670189-c215-4449-b61d-1df1ff0a6020","system_id":"levelo_inurba_marseille","lat":43.28727,"lon":5.36078,"is_reserved":false,"is_disabled":false,"rental_uris":{"android":"levelo://app?vid=cb670189-c215-4449-b61d-1df1ff0a6020","ios":"levelo://app?vid=cb670189-c215-4449-b61d-1df1ff0a6020"},"vehicle_type_id":"4","last_reported":1700931935,"current_range_meters":26400,"station_id":"cki0cbj6b192h4jlfktg","pricing_plan_id":"free"},{"bike_id":"70a1d3df-7186-4354-a5ff-5567d1384335","system_id":"levelo_inurba_marseille","lat":43.286591,"lon":5.363346,"is_reserved":false,"is_disabled":false,"rental_uris":{"android":"levelo://app?vid=70a1d3df-7186-4354-a5ff-5567d1384335","ios":"levelo://app?vid=70a1d3df-7186-4354-a5ff-5567d1384335"},"vehicle_type_id":"4","last_reported":1700931935,"current_range_meters":27200,"station_id":"ce4bhah2rcd13ifvqej0","pricing_plan_id":"free"},{"bike_id":"c73b4907-b74c-48c7-9c16-ebc8f1d1fcaf","system_id":"levelo_inurba_marseille","lat":43.286593,"lon":5.363346,"is_reserved":false,"is_disabled":false,"rental_uris":{"android":"levelo://app?vid=c73b4907-b74c-48c7-9c16-ebc8f1d1fcaf","ios":"levelo://app?vid=c73b4907-b74c-48c7-9c16-ebc8f1d1fcaf"},"vehicle_type_id":"4","last_reported":1700931935,"current_range_meters":13600,"station_id":"ce4bhah2rcd13ifvqej0","pricing_plan_id":"free"},{"bike_id":"420801cf-1e82-4451-8edb-bb377205b179","system_id":"levelo_inurba_marseille","lat":43.286961,"lon":5.373785,"is_reserved":false,"is_disabled":false,"rental_uris":{"android":"levelo://app?vid=420801cf-1e82-4451-8edb-bb377205b179","ios":"levelo://app?vid=420801cf-1e82-4451-8edb-bb377205b179"},"vehicle_type_id":"4","last_reported":1700931935,"current_range_meters":18400,"station_id":"ce4bh3p2rcd13ifvqdq0","pricing_plan_id":"free"},{"bike_id":"c43fb760-8b9c-49b0-8e82-2a6582f16157","system_id":"levelo_inurba_marseille","lat":43.29033,"lon":5.3865,"is_reserved":false,"is_disabled":false,"rental_uris":{"android":"levelo://app?vid=c43fb760-8b9c-49b0-8e82-2a6582f16157","ios":"levelo://app?vid=c43fb760-8b9c-49b0-8e82-2a6582f16157"},"vehicle_type_id":"4","last_reported":1700931935,"current_range_meters":25200,"station_id":"ce4bh4p2rcd13ifvqe0g","pricing_plan_id":"free"},{"bike_id":"4fefdf16-7656-4c1a-b065-472cfdb57451","system_id":"levelo_inurba_marseille","lat":43.302759,"lon":5.400793,"is_reserved":false,"is_disabled":false,"rental_uris":{"android":"levelo://app?vid=4fefdf16-7656-4c1a-b065-472cfdb57451","ios":"levelo://app?vid=4fefdf16-7656-4c1a-b065-472cfdb57451"},"vehicle_type_id":"4","last_reported":1700931935,"current_range_meters":24800,"station_id":"ce4bgvh2rcd13ifvqcs0","pricing_plan_id":"free"},{"bike_id":"0f56fa0f-1117-4140-8fde-612592dc4d4f","system_id":"levelo_inurba_marseille","lat":43.286127,"lon":5.37061,"is_reserved":false,"is_disabled":false,"rental_uris":{"android":"levelo://app?vid=0f56fa0f-1117-4140-8fde-612592dc4d4f","ios":"levelo://app?vid=0f56fa0f-1117-4140-8fde-612592dc4d4f"},"vehicle_type_id":"4","last_reported":1700931935,"current_range_meters":21200,"station_id":"ce4bht12rcd13ifvqi60","pricing_plan_id":"free"},{"bike_id":"e5fd8b84-ddac-4764-93b0-5deb414035f4","system_id":"levelo_inurba_marseille","lat":43.30242,"lon":5.400843,"is_reserved":false,"is_disabled":false,"rental_uris":{"android":"levelo://app?vid=e5fd8b84-ddac-4764-93b0-5deb414035f4","ios":"levelo://app?vid=e5fd8b84-ddac-4764-93b0-5deb414035f4"},"vehicle_type_id":"4","last_reported":1700931935,"current_range_meters":8400,"station_id":"ce4bgvh2rcd13ifvqcs0","pricing_plan_id":"free"},{"bike_id":"c1a52bc4-ecc9-4c00-b9d9-7f7fed50b5f9","system_id":"levelo_inurba_marseille","lat":43.287184,"lon":5.37937,"is_reserved":false,"is_disabled":false,"rental_uris":{"android":"levelo://app?vid=c1a52bc4-ecc9-4c00-b9d9-7f7fed50b5f9","ios":"levelo://app?vid=c1a52bc4-ecc9-4c00-b9d9-7f7fed50b5f9"},"vehicle_type_id":"4","last_reported":1700931935,"current_range_meters":28800,"station_id":"ce4bh9p2rcd13ifvqec0","pricing_plan_id":"free"},{"bike_id":"f8d03bd0-0730-4479-a9eb-b8d81bcc6551","system_id":"levelo_inurba_marseille","lat":43.294314,"lon":5.397498,"is_reserved":false,"is_disabled":false,"rental_uris":{"android":"levelo://app?vid=f8d03bd0-0730-4479-a9eb-b8d81bcc6551","ios":"levelo://app?vid=f8d03bd0-0730-4479-a9eb-b8d81bcc6551"},"vehicle_type_id":"4","last_reported":1700931935,"current_range_meters":12800,"station_id":"ce4bh3h2rcd13ifvqdo0","pricing_plan_id":"free"},{"bike_id":"16f73f92-ce34-4a6e-bedf-2dddd3ceb696","system_id":"levelo_inurba_marseille","lat":43.294314,"lon":5.397498,"is_reserved":false,"is_disabled":false,"rental_uris":{"android":"levelo://app?vid=16f73f92-ce34-4a6e-bedf-2dddd3ceb696","ios":"levelo://app?vid=16f73f92-ce34-4a6e-bedf-2dddd3ceb696"},"vehicle_type_id":"4","last_reported":1700931935,"current_range_meters":16800,"station_id":"ce4bh3h2rcd13ifvqdo0","pricing_plan_id":"free"},{"bike_id":"e6cb5d47-16e9-4679-915e-0665fa769d20","system_id":"levelo_inurba_marseille","lat":43.294314,"lon":5.397498,"is_reserved":false,"is_disabled":false,"rental_uris":{"android":"levelo://app?vid=e6cb5d47-16e9-4679-915e-0665fa769d20","ios":"levelo://app?vid=e6cb5d47-16e9-4679-915e-0665fa769d20"},"vehicle_type_id":"4","last_reported":1700931935,"current_range_meters":25200,"station_id":"ce4bh3h2rcd13ifvqdo0","pricing_plan_id":"free"},{"bike_id":"8b199f4a-2990-4f41-9f7e-2155e616e563","system_id":"levelo_inurba_marseille","lat":43.295713,"lon":5.399639,"is_reserved":false,"is_disabled":false,"rental_uris":{"android":"levelo://app?vid=8b199f4a-2990-4f41-9f7e-2155e616e563","ios":"levelo://app?vid=8b199f4a-2990-4f41-9f7e-2155e616e563"},"vehicle_type_id":"4","last_reported":1700931935,"current_range_meters":26800,"station_id":"ce4bh312rcd13ifvqdj0","pricing_plan_id":"free"},{"bike_id":"7375b40d-1ff2-44be-835b-7d5850dc032d","system_id":"levelo_inurba_marseille","lat":43.283998,"lon":5.375062,"is_reserved":false,"is_disabled":false,"rental_uris":{"android":"levelo://app?vid=7375b40d-1ff2-44be-835b-7d5850dc032d","ios":"levelo://app?vid=7375b40d-1ff2-44be-835b-7d5850dc032d"},"vehicle_type_id":"4","last_reported":1700931935,"current_range_meters":6800,"station_id":"ce4bh412rcd13ifvqds0","pricing_plan_id":"free"},{"bike_id":"a7f3395c-9c1f-48d9-94c6-7b9f511f37a7","system_id":"levelo_inurba_marseille","lat":43.283998,"lon":5.375062,"is_reserved":false,"is_disabled":false,"rental_uris":{"android":"levelo://app?vid=a7f3395c-9c1f-48d9-94c6-7b9f511f37a7","ios":"levelo://app?vid=a7f3395c-9c1f-48d9-94c6-7b9f511f37a7"},"vehicle_type_id":"4","last_reported":1700931935,"current_range_meters":0,"station_id":"ce4bh412rcd13ifvqds0","pricing_plan_id":"free"},{"bike_id":"00226c1f-f9c7-4717-bef1-123d14105322","system_id":"levelo_inurba_marseille","lat":43.283998,"lon":5.375062,"is_reserved":false,"is_disabled":false,"rental_uris":{"android":"levelo://app?vid=00226c1f-f9c7-4717-bef1-123d14105322","ios":"levelo://app?vid=00226c1f-f9c7-4717-bef1-123d14105322"},"vehicle_type_id":"4","last_reported":1700931935,"current_range_meters":0,"station_id":"ce4bh412rcd13ifvqds0","pricing_plan_id":"free"},{"bike_id":"523c0934-5156-45ba-a5a2-59227b3f034a","system_id":"levelo_inurba_marseille","lat":43.283998,"lon":5.375062,"is_reserved":false,"is_disabled":false,"rental_uris":{"android":"levelo://app?vid=523c0934-5156-45ba-a5a2-59227b3f034a","ios":"levelo://app?vid=523c0934-5156-45ba-a5a2-59227b3f034a"},"vehicle_type_id":"4","last_reported":1700931935,"current_range_meters":21200,"station_id":"ce4bh412rcd13ifvqds0","pricing_plan_id":"free"},{"bike_id":"21389baf-c559-4d23-9515-e24457c2c186","system_id":"levelo_inurba_marseille","lat":43.283998,"lon":5.375062,"is_reserved":false,"is_disabled":false,"rental_uris":{"android":"levelo://app?vid=21389baf-c559-4d23-9515-e24457c2c186","ios":"levelo://app?vid=21389baf-c559-4d23-9515-e24457c2c186"},"vehicle_type_id":"4","last_reported":1700931935,"current_range_meters":7600,"station_id":"ce4bh412rcd13ifvqds0","pricing_plan_id":"free"},{"bike_id":"38be87ce-41ef-4a88-9bd8-db3f470e784a","system_id":"levelo_inurba_marseille","lat":43.283998,"lon":5.375062,"is_reserved":false,"is_disabled":false,"rental_uris":{"android":"levelo://app?vid=38be87ce-41ef-4a88-9bd8-db3f470e784a","ios":"levelo://app?vid=38be87ce-41ef-4a88-9bd8-db3f470e784a"},"vehicle_type_id":"4","last_reported":1700931935,"current_range_meters":0,"station_id":"ce4bh412rcd13ifvqds0","pricing_plan_id":"free"},{"bike_id":"8e5f6056-d5ce-4163-9d1f-29462bb31643","system_id":"levelo_inurba_marseille","lat":43.295713,"lon":5.399639,"is_reserved":false,"is_disabled":false,"rental_uris":{"android":"levelo://app?vid=8e5f6056-d5ce-4163-9d1f-29462bb31643","ios":"levelo://app?vid=8e5f6056-d5ce-4163-9d1f-29462bb31643"},"vehicle_type_id":"4","last_reported":1700931935,"current_range_meters":16000,"station_id":"ce4bh312rcd13ifvqdj0","pricing_plan_id":"free"},{"bike_id":"c6361024-5c9a-4c32-98bb-3f3c7a0043cd","system_id":"levelo_inurba_marseille","lat":43.295713,"lon":5.399639,"is_reserved":false,"is_disabled":false,"rental_uris":{"android":"levelo://app?vid=c6361024-5c9a-4c32-98bb-3f3c7a0043cd","ios":"levelo://app?vid=c6361024-5c9a-4c32-98bb-3f3c7a0043cd"},"vehicle_type_id":"4","last_reported":1700931935,"current_range_meters":800,"station_id":"ce4bh312rcd13ifvqdj0","pricing_plan_id":"free"},{"bike_id":"3ec7c8a2-f851-44fe-a66c-55be2ab224d4","system_id":"levelo_inurba_marseille","lat":43.283998,"lon":5.375062,"is_reserved":false,"is_disabled":false,"rental_uris":{"android":"levelo://app?vid=3ec7c8a2-f851-44fe-a66c-55be2ab224d4","ios":"levelo://app?vid=3ec7c8a2-f851-44fe-a66c-55be2ab224d4"},"vehicle_type_id":"4","last_reported":1700931935,"current_range_meters":14000,"station_id":"ce4bh412rcd13ifvqds0","pricing_plan_id":"free"},{"bike_id":"6252d31e-e606-4838-9d9f-caa8fff55137","system_id":"levelo_inurba_marseille","lat":43.284793,"lon":5.384113,"is_reserved":false,"is_disabled":false,"rental_uris":{"android":"levelo://app?vid=6252d31e-e606-4838-9d9f-caa8fff55137","ios":"levelo://app?vid=6252d31e-e606-4838-9d9f-caa8fff55137"},"vehicle_type_id":"4","last_reported":1700931935,"current_range_meters":14800,"station_id":"ce4bh512rcd13ifvqe3g","pricing_plan_id":"free"},{"bike_id":"75c7939c-6a45-4071-a9b8-cd8ade471986","system_id":"levelo_inurba_marseille","lat":43.28472,"lon":5.38401,"is_reserved":false,"is_disabled":false,"rental_uris":{"android":"levelo://app?vid=75c7939c-6a45-4071-a9b8-cd8ade471986","ios":"levelo://app?vid=75c7939c-6a45-4071-a9b8-cd8ade471986"},"vehicle_type_id":"4","last_reported":1700931935,"current_range_meters":0,"station_id":"ce4bh512rcd13ifvqe3g","pricing_plan_id":"free"},{"bike_id":"6de2cc41-c8fe-46db-9dfe-99d8c0d3fa7b","system_id":"levelo_inurba_marseille","lat":43.29795,"lon":5.404086,"is_reserved":false,"is_disabled":false,"rental_uris":{"android":"levelo://app?vid=6de2cc41-c8fe-46db-9dfe-99d8c0d3fa7b","ios":"levelo://app?vid=6de2cc41-c8fe-46db-9dfe-99d8c0d3fa7b"},"vehicle_type_id":"4","last_reported":1700931935,"current_range_meters":26000,"station_id":"ce4bh112rcd13ifvqd90","pricing_plan_id":"free"},{"bike_id":"ae66af32-c88b-47a2-8c4e-c95156af5880","system_id":"levelo_inurba_marseille","lat":43.297946,"lon":5.404063,"is_reserved":false,"is_disabled":false,"rental_uris":{"android":"levelo://app?vid=ae66af32-c88b-47a2-8c4e-c95156af5880","ios":"levelo://app?vid=ae66af32-c88b-47a2-8c4e-c95156af5880"},"vehicle_type_id":"4","last_reported":1700931935,"current_range_meters":15600,"station_id":"ce4bh112rcd13ifvqd90","pricing_plan_id":"free"},{"bike_id":"bc7cba10-3781-45de-8781-30ec383d6e42","system_id":"levelo_inurba_marseille","lat":43.284219,"lon":5.3497,"is_reserved":false,"is_disabled":false,"rental_uris":{"android":"levelo://app?vid=bc7cba10-3781-45de-8781-30ec383d6e42","ios":"levelo://app?vid=bc7cba10-3781-45de-8781-30ec383d6e42"},"vehicle_type_id":"4","last_reported":1700931935,"current_range_meters":28000,"station_id":"ce4bhbh2rcd13ifvqepg","pricing_plan_id":"free"},{"bike_id":"b4071418-b248-4705-aaf5-d81439feae5f","system_id":"levelo_inurba_marseille","lat":43.284217,"lon":5.349697,"is_reserved":false,"is_disabled":false,"rental_uris":{"android":"levelo://app?vid=b4071418-b248-4705-aaf5-d81439feae5f","ios":"levelo://app?vid=b4071418-b248-4705-aaf5-d81439feae5f"},"vehicle_type_id":"4","last_reported":1700931935,"current_range_meters":26400,"station_id":"ce4bhbh2rcd13ifvqepg","pricing_plan_id":"free"},{"bike_id":"e2284003-4e46-4e0a-93e7-73d05c3666d9","system_id":"levelo_inurba_marseille","lat":43.33508,"lon":5.397755,"is_reserved":false,"is_disabled":false,"rental_uris":{"android":"levelo://app?vid=e2284003-4e46-4e0a-93e7-73d05c3666d9","ios":"levelo://app?vid=e2284003-4e46-4e0a-93e7-73d05c3666d9"},"vehicle_type_id":"4","last_reported":1700931935,"current_range_meters":22000,"station_id":"","pricing_plan_id":"free"},{"bike_id":"e035c535-5753-4833-b6a0-f39d1bdca1ff","system_id":"levelo_inurba_marseille","lat":43.292724,"lon":5.401131,"is_reserved":false,"is_disabled":false,"rental_uris":{"android":"levelo://app?vid=e035c535-5753-4833-b6a0-f39d1bdca1ff","ios":"levelo://app?vid=e035c535-5753-4833-b6a0-f39d1bdca1ff"},"vehicle_type_id":"4","last_reported":1700931935,"current_range_meters":9200,"station_id":"ce4bh312rcd13ifvqdk0","pricing_plan_id":"free"},{"bike_id":"8da3632c-b4cb-45fe-adaa-01eb253e3889","system_id":"levelo_inurba_marseille","lat":43.282754,"lon":5.350519,"is_reserved":false,"is_disabled":false,"rental_uris":{"android":"levelo://app?vid=8da3632c-b4cb-45fe-adaa-01eb253e3889","ios":"levelo://app?vid=8da3632c-b4cb-45fe-adaa-01eb253e3889"},"vehicle_type_id":"4","last_reported":1700931935,"current_range_meters":16000,"station_id":"ce4bhbp2rcd13ifvqerg","pricing_plan_id":"free"},{"bike_id":"9b5c094e-5cb7-40f2-9192-81839deaf755","system_id":"levelo_inurba_marseille","lat":43.28036,"lon":5.369436,"is_reserved":false,"is_disabled":false,"rental_uris":{"android":"levelo://app?vid=9b5c094e-5cb7-40f2-9192-81839deaf755","ios":"levelo://app?vid=9b5c094e-5cb7-40f2-9192-81839deaf755"},"vehicle_type_id":"4","last_reported":1700931935,"current_range_meters":1200,"station_id":"ce4bha12rcd13ifvqef0","pricing_plan_id":"free"},{"bike_id":"1ec99c68-dee0-4213-8e16-b90c3d10b2b4","system_id":"levelo_inurba_marseille","lat":43.296263,"lon":5.40601,"is_reserved":false,"is_disabled":false,"rental_uris":{"android":"levelo://app?vid=1ec99c68-dee0-4213-8e16-b90c3d10b2b4","ios":"levelo://app?vid=1ec99c68-dee0-4213-8e16-b90c3d10b2b4"},"vehicle_type_id":"4","last_reported":1700931935,"current_range_meters":20400,"station_id":"ce4bh0h2rcd13ifvqd60","pricing_plan_id":"free"},{"bike_id":"d518a33b-6858-4e87-a734-14a892a328e0","system_id":"levelo_inurba_marseille","lat":43.304188,"lon":5.412904,"is_reserved":false,"is_disabled":false,"rental_uris":{"android":"levelo://app?vid=d518a33b-6858-4e87-a734-14a892a328e0","ios":"levelo://app?vid=d518a33b-6858-4e87-a734-14a892a328e0"},"vehicle_type_id":"4","last_reported":1700931935,"current_range_meters":22000,"station_id":"ce4bhop2rcd13ifvqh8g","pricing_plan_id":"free"},{"bike_id":"0616da87-3bbd-4800-9878-6d5c45ace960","system_id":"levelo_inurba_marseille","lat":43.279087,"lon":5.380114,"is_reserved":false,"is_disabled":false,"rental_uris":{"android":"levelo://app?vid=0616da87-3bbd-4800-9878-6d5c45ace960","ios":"levelo://app?vid=0616da87-3bbd-4800-9878-6d5c45ace960"},"vehicle_type_id":"4","last_reported":1700931935,"current_range_meters":28000,"station_id":"ce4bhf92rcd13ifvqf50","pricing_plan_id":"free"},{"bike_id":"d9c18ad0-381f-4109-a539-3eb5e6e8d11c","system_id":"levelo_inurba_marseille","lat":43.279087,"lon":5.380114,"is_reserved":false,"is_disabled":false,"rental_uris":{"android":"levelo://app?vid=d9c18ad0-381f-4109-a539-3eb5e6e8d11c","ios":"levelo://app?vid=d9c18ad0-381f-4109-a539-3eb5e6e8d11c"},"vehicle_type_id":"4","last_reported":1700931935,"current_range_meters":4000,"station_id":"ce4bhf92rcd13ifvqf50","pricing_plan_id":"free"},{"bike_id":"9fedd3dd-4e80-4824-ac2c-7d42bc0d2622","system_id":"levelo_inurba_marseille","lat":43.279087,"lon":5.380114,"is_reserved":false,"is_disabled":false,"rental_uris":{"android":"levelo://app?vid=9fedd3dd-4e80-4824-ac2c-7d42bc0d2622","ios":"levelo://app?vid=9fedd3dd-4e80-4824-ac2c-7d42bc0d2622"},"vehicle_type_id":"4","last_reported":1700931935,"current_range_meters":31200,"station_id":"ce4bhf92rcd13ifvqf50","pricing_plan_id":"free"},{"bike_id":"363f2ae4-2b32-454f-8f89-76483a2ead65","system_id":"levelo_inurba_marseille","lat":43.299579,"lon":5.413255,"is_reserved":false,"is_disabled":false,"rental_uris":{"android":"levelo://app?vid=363f2ae4-2b32-454f-8f89-76483a2ead65","ios":"levelo://app?vid=363f2ae4-2b32-454f-8f89-76483a2ead65"},"vehicle_type_id":"4","last_reported":1700931935,"current_range_meters":26400,"station_id":"ce4bhp12rcd13ifvqh9g","pricing_plan_id":"free"},{"bike_id":"f6ec4122-6e52-49f2-819e-3a208399e374","system_id":"levelo_inurba_marseille","lat":43.320045,"lon":5.415048,"is_reserved":false,"is_disabled":false,"rental_uris":{"android":"levelo://app?vid=f6ec4122-6e52-49f2-819e-3a208399e374","ios":"levelo://app?vid=f6ec4122-6e52-49f2-819e-3a208399e374"},"vehicle_type_id":"4","last_reported":1700931935,"current_range_meters":26800,"station_id":"ce4bhq92rcd13ifvqhkg","pricing_plan_id":"free"},{"bike_id":"21a041e3-b83d-4ee7-95df-89748a3cdb94","system_id":"levelo_inurba_marseille","lat":43.29263,"lon":5.40899,"is_reserved":false,"is_disabled":false,"rental_uris":{"android":"levelo://app?vid=21a041e3-b83d-4ee7-95df-89748a3cdb94","ios":"levelo://app?vid=21a041e3-b83d-4ee7-95df-89748a3cdb94"},"vehicle_type_id":"4","last_reported":1700931935,"current_range_meters":22000,"station_id":"ce4bh192rcd13ifvqdc0","pricing_plan_id":"free"},{"bike_id":"94bf1c67-8f61-45bd-8c7a-9564b680f04b","system_id":"levelo_inurba_marseille","lat":43.29257,"lon":5.40904,"is_reserved":false,"is_disabled":false,"rental_uris":{"android":"levelo://app?vid=94bf1c67-8f61-45bd-8c7a-9564b680f04b","ios":"levelo://app?vid=94bf1c67-8f61-45bd-8c7a-9564b680f04b"},"vehicle_type_id":"4","last_reported":1700931935,"current_range_meters":15600,"station_id":"ce4bh192rcd13ifvqdc0","pricing_plan_id":"free"},{"bike_id":"6cdcbd17-ef90-446e-9271-f676bda6d592","system_id":"levelo_inurba_marseille","lat":43.292569,"lon":5.409107,"is_reserved":false,"is_disabled":false,"rental_uris":{"android":"levelo://app?vid=6cdcbd17-ef90-446e-9271-f676bda6d592","ios":"levelo://app?vid=6cdcbd17-ef90-446e-9271-f676bda6d592"},"vehicle_type_id":"4","last_reported":1700931935,"current_range_meters":0,"station_id":"ce4bh192rcd13ifvqdc0","pricing_plan_id":"free"},{"bike_id":"e9333e17-ea63-4942-a642-cb0a1ba22a55","system_id":"levelo_inurba_marseille","lat":43.325243,"lon":5.414326,"is_reserved":false,"is_disabled":false,"rental_uris":{"android":"levelo://app?vid=e9333e17-ea63-4942-a642-cb0a1ba22a55","ios":"levelo://app?vid=e9333e17-ea63-4942-a642-cb0a1ba22a55"},"vehicle_type_id":"4","last_reported":1700931935,"current_range_meters":13600,"station_id":"ce4bhq12rcd13ifvqhhg","pricing_plan_id":"free"},{"bike_id":"f6da4c34-2b5d-4e0c-8898-88691915f4cc","system_id":"levelo_inurba_marseille","lat":43.27621,"lon":5.36107,"is_reserved":false,"is_disabled":false,"rental_uris":{"android":"levelo://app?vid=f6da4c34-2b5d-4e0c-8898-88691915f4cc","ios":"levelo://app?vid=f6da4c34-2b5d-4e0c-8898-88691915f4cc"},"vehicle_type_id":"4","last_reported":1700931935,"current_range_meters":30800,"station_id":"ce4bgj92rcd13ifvqbe0","pricing_plan_id":"free"},{"bike_id":"1239042e-69f0-4305-b7ed-e482ed229840","system_id":"levelo_inurba_marseille","lat":43.325243,"lon":5.414326,"is_reserved":false,"is_disabled":false,"rental_uris":{"android":"levelo://app?vid=1239042e-69f0-4305-b7ed-e482ed229840","ios":"levelo://app?vid=1239042e-69f0-4305-b7ed-e482ed229840"},"vehicle_type_id":"4","last_reported":1700931935,"current_range_meters":24000,"station_id":"ce4bhq12rcd13ifvqhhg","pricing_plan_id":"free"},{"bike_id":"a3c6def1-5296-4c7a-9eea-c8d4b330c208","system_id":"levelo_inurba_marseille","lat":43.27618,"lon":5.361009,"is_reserved":false,"is_disabled":false,"rental_uris":{"android":"levelo://app?vid=a3c6def1-5296-4c7a-9eea-c8d4b330c208","ios":"levelo://app?vid=a3c6def1-5296-4c7a-9eea-c8d4b330c208"},"vehicle_type_id":"4","last_reported":1700931935,"current_range_meters":31200,"station_id":"ce4bgj92rcd13ifvqbe0","pricing_plan_id":"free"},{"bike_id":"513098f0-5141-4a34-81d2-2d326258ef02","system_id":"levelo_inurba_marseille","lat":43.2761,"lon":5.36118,"is_reserved":false,"is_disabled":false,"rental_uris":{"android":"levelo://app?vid=513098f0-5141-4a34-81d2-2d326258ef02","ios":"levelo://app?vid=513098f0-5141-4a34-81d2-2d326258ef02"},"vehicle_type_id":"4","last_reported":1700931935,"current_range_meters":31200,"station_id":"ce4bgj92rcd13ifvqbe0","pricing_plan_id":"free"},{"bike_id":"b6bd24e6-943a-4566-9f51-569035dc9592","system_id":"levelo_inurba_marseille","lat":43.325243,"lon":5.414326,"is_reserved":false,"is_disabled":false,"rental_uris":{"android":"levelo://app?vid=b6bd24e6-943a-4566-9f51-569035dc9592","ios":"levelo://app?vid=b6bd24e6-943a-4566-9f51-569035dc9592"},"vehicle_type_id":"4","last_reported":1700931935,"current_range_meters":4800,"station_id":"ce4bhq12rcd13ifvqhhg","pricing_plan_id":"free"},{"bike_id":"c25ea147-e804-4786-9d25-91f61a8ed59a","system_id":"levelo_inurba_marseille","lat":43.293651,"lon":5.41268,"is_reserved":false,"is_disabled":false,"rental_uris":{"android":"levelo://app?vid=c25ea147-e804-4786-9d25-91f61a8ed59a","ios":"levelo://app?vid=c25ea147-e804-4786-9d25-91f61a8ed59a"},"vehicle_type_id":"4","last_reported":1700931935,"current_range_meters":0,"station_id":"","pricing_plan_id":"free"},{"bike_id":"1afddf20-ae10-4b9f-a1b1-ce5cc844a126","system_id":"levelo_inurba_marseille","lat":43.280784,"lon":5.396622,"is_reserved":false,"is_disabled":false,"rental_uris":{"android":"levelo://app?vid=1afddf20-ae10-4b9f-a1b1-ce5cc844a126","ios":"levelo://app?vid=1afddf20-ae10-4b9f-a1b1-ce5cc844a126"},"vehicle_type_id":"4","last_reported":1700931935,"current_range_meters":5200,"station_id":"ce4bho12rcd13ifvqh2g","pricing_plan_id":"free"},{"bike_id":"02bf1968-7c46-48c4-b875-721d637a69bd","system_id":"levelo_inurba_marseille","lat":43.280784,"lon":5.396622,"is_reserved":false,"is_disabled":false,"rental_uris":{"android":"levelo://app?vid=02bf1968-7c46-48c4-b875-721d637a69bd","ios":"levelo://app?vid=02bf1968-7c46-48c4-b875-721d637a69bd"},"vehicle_type_id":"4","last_reported":1700931935,"current_range_meters":7600,"station_id":"ce4bho12rcd13ifvqh2g","pricing_plan_id":"free"},{"bike_id":"0fb82a43-660d-437a-a36c-619c507b0f99","system_id":"levelo_inurba_marseille","lat":43.280784,"lon":5.396622,"is_reserved":false,"is_disabled":false,"rental_uris":{"android":"levelo://app?vid=0fb82a43-660d-437a-a36c-619c507b0f99","ios":"levelo://app?vid=0fb82a43-660d-437a-a36c-619c507b0f99"},"vehicle_type_id":"4","last_reported":1700931935,"current_range_meters":31200,"station_id":"ce4bho12rcd13ifvqh2g","pricing_plan_id":"free"},{"bike_id":"44a713c1-e816-4c42-a0d6-57ff4dd012b2","system_id":"levelo_inurba_marseille","lat":43.27383,"lon":5.36243,"is_reserved":false,"is_disabled":false,"rental_uris":{"android":"levelo://app?vid=44a713c1-e816-4c42-a0d6-57ff4dd012b2","ios":"levelo://app?vid=44a713c1-e816-4c42-a0d6-57ff4dd012b2"},"vehicle_type_id":"4","last_reported":1700931935,"current_range_meters":10000,"station_id":"ce4bhbh2rcd13ifvqeo0","pricing_plan_id":"free"},{"bike_id":"187ad07c-ed6e-4a83-afdc-2d34d7e6865a","system_id":"levelo_inurba_marseille","lat":43.27374,"lon":5.36259,"is_reserved":false,"is_disabled":false,"rental_uris":{"android":"levelo://app?vid=187ad07c-ed6e-4a83-afdc-2d34d7e6865a","ios":"levelo://app?vid=187ad07c-ed6e-4a83-afdc-2d34d7e6865a"},"vehicle_type_id":"4","last_reported":1700931935,"current_range_meters":29200,"station_id":"ce4bhbh2rcd13ifvqeo0","pricing_plan_id":"free"},{"bike_id":"ceb9423f-1be5-4b62-96b7-bbdfd185e69d","system_id":"levelo_inurba_marseille","lat":43.33612,"lon":5.410321,"is_reserved":false,"is_disabled":false,"rental_uris":{"android":"levelo://app?vid=ceb9423f-1be5-4b62-96b7-bbdfd185e69d","ios":"levelo://app?vid=ceb9423f-1be5-4b62-96b7-bbdfd185e69d"},"vehicle_type_id":"4","last_reported":1700931935,"current_range_meters":16400,"station_id":"ce4bhqh2rcd13ifvqhmg","pricing_plan_id":"free"},{"bike_id":"d92e0ac6-5e19-491f-99f4-4d7cc426d5f9","system_id":"levelo_inurba_marseille","lat":43.336134,"lon":5.410341,"is_reserved":false,"is_disabled":false,"rental_uris":{"android":"levelo://app?vid=d92e0ac6-5e19-491f-99f4-4d7cc426d5f9","ios":"levelo://app?vid=d92e0ac6-5e19-491f-99f4-4d7cc426d5f9"},"vehicle_type_id":"4","last_reported":1700931935,"current_range_meters":28400,"station_id":"ce4bhqh2rcd13ifvqhmg","pricing_plan_id":"free"},{"bike_id":"0fbf5b58-7ce4-4115-b285-fee12726188f","system_id":"levelo_inurba_marseille","lat":43.3361,"lon":5.41037,"is_reserved":false,"is_disabled":false,"rental_uris":{"android":"levelo://app?vid=0fbf5b58-7ce4-4115-b285-fee12726188f","ios":"levelo://app?vid=0fbf5b58-7ce4-4115-b285-fee12726188f"},"vehicle_type_id":"4","last_reported":1700931935,"current_range_meters":12800,"station_id":"ce4bhqh2rcd13ifvqhmg","pricing_plan_id":"free"},{"bike_id":"7058e67f-c2f5-49ff-a073-ca00bc917ff9","system_id":"levelo_inurba_marseille","lat":43.276769,"lon":5.388787,"is_reserved":false,"is_disabled":false,"rental_uris":{"android":"levelo://app?vid=7058e67f-c2f5-49ff-a073-ca00bc917ff9","ios":"levelo://app?vid=7058e67f-c2f5-49ff-a073-ca00bc917ff9"},"vehicle_type_id":"4","last_reported":1700931935,"current_range_meters":0,"station_id":"ce4bhi12rcd13ifvqfo0","pricing_plan_id":"free"},{"bike_id":"97187d51-317e-44e4-8b51-b556a89bae1f","system_id":"levelo_inurba_marseille","lat":43.279952,"lon":5.400085,"is_reserved":false,"is_disabled":false,"rental_uris":{"android":"levelo://app?vid=97187d51-317e-44e4-8b51-b556a89bae1f","ios":"levelo://app?vid=97187d51-317e-44e4-8b51-b556a89bae1f"},"vehicle_type_id":"4","last_reported":1700931935,"current_range_meters":16800,"station_id":"ce4bho92rcd13ifvqh4g","pricing_plan_id":"free"},{"bike_id":"0bdd442b-4f16-4277-88cc-be64a671c3ce","system_id":"levelo_inurba_marseille","lat":43.27999,"lon":5.40006,"is_reserved":false,"is_disabled":false,"rental_uris":{"android":"levelo://app?vid=0bdd442b-4f16-4277-88cc-be64a671c3ce","ios":"levelo://app?vid=0bdd442b-4f16-4277-88cc-be64a671c3ce"},"vehicle_type_id":"4","last_reported":1700931935,"current_range_meters":31200,"station_id":"ce4bho92rcd13ifvqh4g","pricing_plan_id":"free"},{"bike_id":"7b2ad8c6-9500-4362-b91d-939bd9ea8101","system_id":"levelo_inurba_marseille","lat":43.279952,"lon":5.400085,"is_reserved":false,"is_disabled":false,"rental_uris":{"android":"levelo://app?vid=7b2ad8c6-9500-4362-b91d-939bd9ea8101","ios":"levelo://app?vid=7b2ad8c6-9500-4362-b91d-939bd9ea8101"},"vehicle_type_id":"4","last_reported":1700931935,"current_range_meters":4800,"station_id":"ce4bho92rcd13ifvqh4g","pricing_plan_id":"free"},{"bike_id":"31a4ddc9-6a18-4dfe-b7dd-50c30c5d963b","system_id":"levelo_inurba_marseille","lat":43.27993,"lon":5.4002,"is_reserved":false,"is_disabled":false,"rental_uris":{"android":"levelo://app?vid=31a4ddc9-6a18-4dfe-b7dd-50c30c5d963b","ios":"levelo://app?vid=31a4ddc9-6a18-4dfe-b7dd-50c30c5d963b"},"vehicle_type_id":"4","last_reported":1700931935,"current_range_meters":30800,"station_id":"ce4bho92rcd13ifvqh4g","pricing_plan_id":"free"},{"bike_id":"91215161-5014-45f6-a237-9df70268cba5","system_id":"levelo_inurba_marseille","lat":43.279947,"lon":5.400237,"is_reserved":false,"is_disabled":false,"rental_uris":{"android":"levelo://app?vid=91215161-5014-45f6-a237-9df70268cba5","ios":"levelo://app?vid=91215161-5014-45f6-a237-9df70268cba5"},"vehicle_type_id":"4","last_reported":1700931935,"current_range_meters":31200,"station_id":"ce4bho92rcd13ifvqh4g","pricing_plan_id":"free"},{"bike_id":"de929e7e-c3f5-4b7a-9a3b-0c3037651d43","system_id":"levelo_inurba_marseille","lat":43.279952,"lon":5.400085,"is_reserved":false,"is_disabled":false,"rental_uris":{"android":"levelo://app?vid=de929e7e-c3f5-4b7a-9a3b-0c3037651d43","ios":"levelo://app?vid=de929e7e-c3f5-4b7a-9a3b-0c3037651d43"},"vehicle_type_id":"4","last_reported":1700931935,"current_range_meters":30800,"station_id":"ce4bho92rcd13ifvqh4g","pricing_plan_id":"free"},{"bike_id":"561d56c0-616a-4955-bd15-b0e0ddd3d6ba","system_id":"levelo_inurba_marseille","lat":43.279952,"lon":5.400085,"is_reserved":false,"is_disabled":false,"rental_uris":{"android":"levelo://app?vid=561d56c0-616a-4955-bd15-b0e0ddd3d6ba","ios":"levelo://app?vid=561d56c0-616a-4955-bd15-b0e0ddd3d6ba"},"vehicle_type_id":"4","last_reported":1700931935,"current_range_meters":30800,"station_id":"ce4bho92rcd13ifvqh4g","pricing_plan_id":"free"},{"bike_id":"0d2fdf3b-3e3c-4c40-a998-3277124b880b","system_id":"levelo_inurba_marseille","lat":43.310785,"lon":5.424305,"is_reserved":false,"is_disabled":false,"rental_uris":{"android":"levelo://app?vid=0d2fdf3b-3e3c-4c40-a998-3277124b880b","ios":"levelo://app?vid=0d2fdf3b-3e3c-4c40-a998-3277124b880b"},"vehicle_type_id":"4","last_reported":1700931935,"current_range_meters":9200,"station_id":"ce4bhp92rcd13ifvqhag","pricing_plan_id":"free"},{"bike_id":"60395232-e532-4f5a-ae3e-52a22da3b50f","system_id":"levelo_inurba_marseille","lat":43.3108,"lon":5.42432,"is_reserved":false,"is_disabled":false,"rental_uris":{"android":"levelo://app?vid=60395232-e532-4f5a-ae3e-52a22da3b50f","ios":"levelo://app?vid=60395232-e532-4f5a-ae3e-52a22da3b50f"},"vehicle_type_id":"4","last_reported":1700931935,"current_range_meters":7600,"station_id":"ce4bhp92rcd13ifvqhag","pricing_plan_id":"free"},{"bike_id":"5129acc1-7977-4d29-8689-fece97171c5b","system_id":"levelo_inurba_marseille","lat":43.310785,"lon":5.424305,"is_reserved":false,"is_disabled":false,"rental_uris":{"android":"levelo://app?vid=5129acc1-7977-4d29-8689-fece97171c5b","ios":"levelo://app?vid=5129acc1-7977-4d29-8689-fece97171c5b"},"vehicle_type_id":"4","last_reported":1700931935,"current_range_meters":27600,"station_id":"ce4bhp92rcd13ifvqhag","pricing_plan_id":"free"},{"bike_id":"dd9f39ab-4900-467d-9670-c7ef75dfbce8","system_id":"levelo_inurba_marseille","lat":43.273125,"lon":5.390731,"is_reserved":false,"is_disabled":false,"rental_uris":{"android":"levelo://app?vid=dd9f39ab-4900-467d-9670-c7ef75dfbce8","ios":"levelo://app?vid=dd9f39ab-4900-467d-9670-c7ef75dfbce8"},"vehicle_type_id":"4","last_reported":1700931935,"current_range_meters":13200,"station_id":"ce4bhgp2rcd13ifvqfe0","pricing_plan_id":"free"},{"bike_id":"cc5e52a7-28ea-4d34-be2c-266aebf26914","system_id":"levelo_inurba_marseille","lat":43.273129,"lon":5.390725,"is_reserved":false,"is_disabled":false,"rental_uris":{"android":"levelo://app?vid=cc5e52a7-28ea-4d34-be2c-266aebf26914","ios":"levelo://app?vid=cc5e52a7-28ea-4d34-be2c-266aebf26914"},"vehicle_type_id":"4","last_reported":1700931935,"current_range_meters":2000,"station_id":"ce4bhgp2rcd13ifvqfe0","pricing_plan_id":"free"},{"bike_id":"b7b84ce1-5d65-4ae6-9021-9a9a9087af14","system_id":"levelo_inurba_marseille","lat":43.273125,"lon":5.390731,"is_reserved":false,"is_disabled":false,"rental_uris":{"android":"levelo://app?vid=b7b84ce1-5d65-4ae6-9021-9a9a9087af14","ios":"levelo://app?vid=b7b84ce1-5d65-4ae6-9021-9a9a9087af14"},"vehicle_type_id":"4","last_reported":1700931935,"current_range_meters":8800,"station_id":"ce4bhgp2rcd13ifvqfe0","pricing_plan_id":"free"},{"bike_id":"58a74f2c-3205-4aed-bf2c-a4151057b68d","system_id":"levelo_inurba_marseille","lat":43.295523,"lon":5.422926,"is_reserved":false,"is_disabled":false,"rental_uris":{"android":"levelo://app?vid=58a74f2c-3205-4aed-bf2c-a4151057b68d","ios":"levelo://app?vid=58a74f2c-3205-4aed-bf2c-a4151057b68d"},"vehicle_type_id":"4","last_reported":1700931935,"current_range_meters":19600,"station_id":"ce4bhph2rcd13ifvqhdg","pricing_plan_id":"free"},{"bike_id":"0c5fe61a-15d7-4bdf-8560-e838ed8fc746","system_id":"levelo_inurba_marseille","lat":43.295523,"lon":5.422926,"is_reserved":false,"is_disabled":false,"rental_uris":{"android":"levelo://app?vid=0c5fe61a-15d7-4bdf-8560-e838ed8fc746","ios":"levelo://app?vid=0c5fe61a-15d7-4bdf-8560-e838ed8fc746"},"vehicle_type_id":"4","last_reported":1700931935,"current_range_meters":10800,"station_id":"ce4bhph2rcd13ifvqhdg","pricing_plan_id":"free"},{"bike_id":"d4dc3c6c-c27a-4654-825e-dc06928c7203","system_id":"levelo_inurba_marseille","lat":43.272116,"lon":5.391763,"is_reserved":false,"is_disabled":false,"rental_uris":{"android":"levelo://app?vid=d4dc3c6c-c27a-4654-825e-dc06928c7203","ios":"levelo://app?vid=d4dc3c6c-c27a-4654-825e-dc06928c7203"},"vehicle_type_id":"4","last_reported":1700931935,"current_range_meters":400,"station_id":"ce4bhhp2rcd13ifvqfm0","pricing_plan_id":"free"},{"bike_id":"4761aea6-ba52-488d-a658-5ed15a11f3cf","system_id":"levelo_inurba_marseille","lat":43.278128,"lon":5.407195,"is_reserved":false,"is_disabled":false,"rental_uris":{"android":"levelo://app?vid=4761aea6-ba52-488d-a658-5ed15a11f3cf","ios":"levelo://app?vid=4761aea6-ba52-488d-a658-5ed15a11f3cf"},"vehicle_type_id":"4","last_reported":1700931935,"current_range_meters":28000,"station_id":"ce4bhnh2rcd13ifvqgtg","pricing_plan_id":"free"},{"bike_id":"4de0236b-3eba-456e-a730-01e948dcb78e","system_id":"levelo_inurba_marseille","lat":43.27818,"lon":5.40724,"is_reserved":false,"is_disabled":false,"rental_uris":{"android":"levelo://app?vid=4de0236b-3eba-456e-a730-01e948dcb78e","ios":"levelo://app?vid=4de0236b-3eba-456e-a730-01e948dcb78e"},"vehicle_type_id":"4","last_reported":1700931935,"current_range_meters":0,"station_id":"ce4bhnh2rcd13ifvqgtg","pricing_plan_id":"free"},{"bike_id":"339f617c-0dc0-4c17-95c9-07c4f1854a0a","system_id":"levelo_inurba_marseille","lat":43.269319,"lon":5.389397,"is_reserved":false,"is_disabled":false,"rental_uris":{"android":"levelo://app?vid=339f617c-0dc0-4c17-95c9-07c4f1854a0a","ios":"levelo://app?vid=339f617c-0dc0-4c17-95c9-07c4f1854a0a"},"vehicle_type_id":"4","last_reported":1700931935,"current_range_meters":22000,"station_id":"ce4bhhh2rcd13ifvqfl0","pricing_plan_id":"free"},{"bike_id":"85cc01dd-985c-4dcb-8dc3-c9daa9d96f0e","system_id":"levelo_inurba_marseille","lat":43.269319,"lon":5.389397,"is_reserved":false,"is_disabled":false,"rental_uris":{"android":"levelo://app?vid=85cc01dd-985c-4dcb-8dc3-c9daa9d96f0e","ios":"levelo://app?vid=85cc01dd-985c-4dcb-8dc3-c9daa9d96f0e"},"vehicle_type_id":"4","last_reported":1700931935,"current_range_meters":12800,"station_id":"ce4bhhh2rcd13ifvqfl0","pricing_plan_id":"free"},{"bike_id":"f23d8119-b478-4639-98c5-6883279f9f84","system_id":"levelo_inurba_marseille","lat":43.32592,"lon":5.43067,"is_reserved":false,"is_disabled":false,"rental_uris":{"android":"levelo://app?vid=f23d8119-b478-4639-98c5-6883279f9f84","ios":"levelo://app?vid=f23d8119-b478-4639-98c5-6883279f9f84"},"vehicle_type_id":"4","last_reported":1700931935,"current_range_meters":26000,"station_id":"","pricing_plan_id":"free"},{"bike_id":"e7b368e8-9edf-4ac8-acef-7e9558d427aa","system_id":"levelo_inurba_marseille","lat":43.32591,"lon":5.430713,"is_reserved":false,"is_disabled":false,"rental_uris":{"android":"levelo://app?vid=e7b368e8-9edf-4ac8-acef-7e9558d427aa","ios":"levelo://app?vid=e7b368e8-9edf-4ac8-acef-7e9558d427aa"},"vehicle_type_id":"4","last_reported":1700931935,"current_range_meters":0,"station_id":"","pricing_plan_id":"free"},{"bike_id":"ed30d6a1-b23a-49e5-9c83-5546be72a734","system_id":"levelo_inurba_marseille","lat":43.3259,"lon":5.43075,"is_reserved":false,"is_disabled":false,"rental_uris":{"android":"levelo://app?vid=ed30d6a1-b23a-49e5-9c83-5546be72a734","ios":"levelo://app?vid=ed30d6a1-b23a-49e5-9c83-5546be72a734"},"vehicle_type_id":"4","last_reported":1700931935,"current_range_meters":20800,"station_id":"","pricing_plan_id":"free"},{"bike_id":"d67469ee-5362-4610-a163-fe05ae3cf4f7","system_id":"levelo_inurba_marseille","lat":43.32604,"lon":5.430817,"is_reserved":false,"is_disabled":false,"rental_uris":{"android":"levelo://app?vid=d67469ee-5362-4610-a163-fe05ae3cf4f7","ios":"levelo://app?vid=d67469ee-5362-4610-a163-fe05ae3cf4f7"},"vehicle_type_id":"4","last_reported":1700931935,"current_range_meters":9200,"station_id":"","pricing_plan_id":"free"},{"bike_id":"73f7ec68-01ac-4656-9863-4ab38fafdd17","system_id":"levelo_inurba_marseille","lat":43.27996,"lon":5.416624,"is_reserved":false,"is_disabled":false,"rental_uris":{"android":"levelo://app?vid=73f7ec68-01ac-4656-9863-4ab38fafdd17","ios":"levelo://app?vid=73f7ec68-01ac-4656-9863-4ab38fafdd17"},"vehicle_type_id":"4","last_reported":1700931935,"current_range_meters":9200,"station_id":"ce4bho12rcd13ifvqh1g","pricing_plan_id":"free"},{"bike_id":"9bccec41-df91-4123-8055-af24767e1fb8","system_id":"levelo_inurba_marseille","lat":43.27993,"lon":5.4166,"is_reserved":false,"is_disabled":false,"rental_uris":{"android":"levelo://app?vid=9bccec41-df91-4123-8055-af24767e1fb8","ios":"levelo://app?vid=9bccec41-df91-4123-8055-af24767e1fb8"},"vehicle_type_id":"4","last_reported":1700931935,"current_range_meters":400,"station_id":"ce4bho12rcd13ifvqh1g","pricing_plan_id":"free"},{"bike_id":"2b5f0b27-ae58-4e9e-bd76-c585f78e8a73","system_id":"levelo_inurba_marseille","lat":43.26386,"lon":5.37454,"is_reserved":false,"is_disabled":false,"rental_uris":{"android":"levelo://app?vid=2b5f0b27-ae58-4e9e-bd76-c585f78e8a73","ios":"levelo://app?vid=2b5f0b27-ae58-4e9e-bd76-c585f78e8a73"},"vehicle_type_id":"4","last_reported":1700931935,"current_range_meters":10000,"station_id":"","pricing_plan_id":"free"},{"bike_id":"603386de-738f-46aa-9270-5149b3c0d6e7","system_id":"levelo_inurba_marseille","lat":43.26559,"lon":5.39012,"is_reserved":false,"is_disabled":false,"rental_uris":{"android":"levelo://app?vid=603386de-738f-46aa-9270-5149b3c0d6e7","ios":"levelo://app?vid=603386de-738f-46aa-9270-5149b3c0d6e7"},"vehicle_type_id":"4","last_reported":1700931935,"current_range_meters":18000,"station_id":"ce4bhe12rcd13ifvqf30","pricing_plan_id":"free"},{"bike_id":"8c63946c-593a-4aa7-86e5-966802763a80","system_id":"levelo_inurba_marseille","lat":43.26943,"lon":5.40253,"is_reserved":false,"is_disabled":false,"rental_uris":{"android":"levelo://app?vid=8c63946c-593a-4aa7-86e5-966802763a80","ios":"levelo://app?vid=8c63946c-593a-4aa7-86e5-966802763a80"},"vehicle_type_id":"4","last_reported":1700931935,"current_range_meters":400,"station_id":"","pricing_plan_id":"free"},{"bike_id":"a557bc3e-6255-419b-8a70-ddf4b9c79f66","system_id":"levelo_inurba_marseille","lat":43.317104,"lon":5.436818,"is_reserved":false,"is_disabled":false,"rental_uris":{"android":"levelo://app?vid=a557bc3e-6255-419b-8a70-ddf4b9c79f66","ios":"levelo://app?vid=a557bc3e-6255-419b-8a70-ddf4b9c79f66"},"vehicle_type_id":"4","last_reported":1700931935,"current_range_meters":3200,"station_id":"ce4bhp92rcd13ifvqhcg","pricing_plan_id":"free"},{"bike_id":"55861d20-03e8-4416-8d73-55fb2140610b","system_id":"levelo_inurba_marseille","lat":43.317104,"lon":5.436818,"is_reserved":false,"is_disabled":false,"rental_uris":{"android":"levelo://app?vid=55861d20-03e8-4416-8d73-55fb2140610b","ios":"levelo://app?vid=55861d20-03e8-4416-8d73-55fb2140610b"},"vehicle_type_id":"4","last_reported":1700931935,"current_range_meters":14800,"station_id":"ce4bhp92rcd13ifvqhcg","pricing_plan_id":"free"},{"bike_id":"a8c5d5b5-9c85-435f-adf3-a2620af503ea","system_id":"levelo_inurba_marseille","lat":43.271368,"lon":5.40928,"is_reserved":false,"is_disabled":false,"rental_uris":{"android":"levelo://app?vid=a8c5d5b5-9c85-435f-adf3-a2620af503ea","ios":"levelo://app?vid=a8c5d5b5-9c85-435f-adf3-a2620af503ea"},"vehicle_type_id":"4","last_reported":1700931935,"current_range_meters":28800,"station_id":"ce4bhl12rcd13ifvqgf0","pricing_plan_id":"free"},{"bike_id":"dbf62bfb-d43b-46dc-b301-0e9e00d707fe","system_id":"levelo_inurba_marseille","lat":43.26169,"lon":5.37893,"is_reserved":false,"is_disabled":false,"rental_uris":{"android":"levelo://app?vid=dbf62bfb-d43b-46dc-b301-0e9e00d707fe","ios":"levelo://app?vid=dbf62bfb-d43b-46dc-b301-0e9e00d707fe"},"vehicle_type_id":"4","last_reported":1700931935,"current_range_meters":27600,"station_id":"ce4bhjp2rcd13ifvqg90","pricing_plan_id":"free"},{"bike_id":"7c5a83ac-336c-4b91-a5ea-82b3c6d6127d","system_id":"levelo_inurba_marseille","lat":43.298768,"lon":5.43643,"is_reserved":false,"is_disabled":false,"rental_uris":{"android":"levelo://app?vid=7c5a83ac-336c-4b91-a5ea-82b3c6d6127d","ios":"levelo://app?vid=7c5a83ac-336c-4b91-a5ea-82b3c6d6127d"},"vehicle_type_id":"4","last_reported":1700931935,"current_range_meters":31600,"station_id":"ce4bhpp2rcd13ifvqhfg","pricing_plan_id":"free"},{"bike_id":"d24921c1-8c61-4b91-941a-2e11a6ed2b73","system_id":"levelo_inurba_marseille","lat":43.29898,"lon":5.43666,"is_reserved":false,"is_disabled":false,"rental_uris":{"android":"levelo://app?vid=d24921c1-8c61-4b91-941a-2e11a6ed2b73","ios":"levelo://app?vid=d24921c1-8c61-4b91-941a-2e11a6ed2b73"},"vehicle_type_id":"4","last_reported":1700931935,"current_range_meters":10800,"station_id":"ce4bhpp2rcd13ifvqhfg","pricing_plan_id":"free"},{"bike_id":"8af0d2ed-93d1-485d-9803-40c71e52d0d9","system_id":"levelo_inurba_marseille","lat":43.29901,"lon":5.43672,"is_reserved":false,"is_disabled":false,"rental_uris":{"android":"levelo://app?vid=8af0d2ed-93d1-485d-9803-40c71e52d0d9","ios":"levelo://app?vid=8af0d2ed-93d1-485d-9803-40c71e52d0d9"},"vehicle_type_id":"4","last_reported":1700931935,"current_range_meters":12800,"station_id":"ce4bhpp2rcd13ifvqhfg","pricing_plan_id":"free"},{"bike_id":"c0c020d5-372a-4a8e-adfb-a2c080585fa7","system_id":"levelo_inurba_marseille","lat":43.298768,"lon":5.43643,"is_reserved":false,"is_disabled":false,"rental_uris":{"android":"levelo://app?vid=c0c020d5-372a-4a8e-adfb-a2c080585fa7","ios":"levelo://app?vid=c0c020d5-372a-4a8e-adfb-a2c080585fa7"},"vehicle_type_id":"4","last_reported":1700931935,"current_range_meters":25600,"station_id":"ce4bhpp2rcd13ifvqhfg","pricing_plan_id":"free"},{"bike_id":"54d26cd6-8b1f-4bad-b9fe-5cecf8657c8a","system_id":"levelo_inurba_marseille","lat":43.26025,"lon":5.37554,"is_reserved":false,"is_disabled":false,"rental_uris":{"android":"levelo://app?vid=54d26cd6-8b1f-4bad-b9fe-5cecf8657c8a","ios":"levelo://app?vid=54d26cd6-8b1f-4bad-b9fe-5cecf8657c8a"},"vehicle_type_id":"4","last_reported":1700931935,"current_range_meters":11200,"station_id":"ce4bhgh2rcd13ifvqfa0","pricing_plan_id":"free"},{"bike_id":"7ba977ce-0087-4dee-82ff-b614665402c3","system_id":"levelo_inurba_marseille","lat":43.310785,"lon":5.424305,"is_reserved":false,"is_disabled":false,"rental_uris":{"android":"levelo://app?vid=7ba977ce-0087-4dee-82ff-b614665402c3","ios":"levelo://app?vid=7ba977ce-0087-4dee-82ff-b614665402c3"},"vehicle_type_id":"4","last_reported":1700931935,"current_range_meters":9200,"station_id":"ce4bhp92rcd13ifvqhag","pricing_plan_id":"free"},{"bike_id":"fac87241-924a-4280-91bd-617b26cc0ea7","system_id":"levelo_inurba_marseille","lat":43.281548,"lon":5.42643,"is_reserved":false,"is_disabled":false,"rental_uris":{"android":"levelo://app?vid=fac87241-924a-4280-91bd-617b26cc0ea7","ios":"levelo://app?vid=fac87241-924a-4280-91bd-617b26cc0ea7"},"vehicle_type_id":"4","last_reported":1700931935,"current_range_meters":26800,"station_id":"ce4bhnh2rcd13ifvqgug","pricing_plan_id":"free"},{"bike_id":"672df75d-7a6e-47a9-8d6a-ee9bc429a9fb","system_id":"levelo_inurba_marseille","lat":43.260589,"lon":5.393996,"is_reserved":false,"is_disabled":false,"rental_uris":{"android":"levelo://app?vid=672df75d-7a6e-47a9-8d6a-ee9bc429a9fb","ios":"levelo://app?vid=672df75d-7a6e-47a9-8d6a-ee9bc429a9fb"},"vehicle_type_id":"4","last_reported":1700931935,"current_range_meters":3200,"station_id":"ce4bhh92rcd13ifvqfj0","pricing_plan_id":"free"},{"bike_id":"de5fde7c-dd14-49b2-a331-4b512611b476","system_id":"levelo_inurba_marseille","lat":43.275028,"lon":5.424534,"is_reserved":false,"is_disabled":false,"rental_uris":{"android":"levelo://app?vid=de5fde7c-dd14-49b2-a331-4b512611b476","ios":"levelo://app?vid=de5fde7c-dd14-49b2-a331-4b512611b476"},"vehicle_type_id":"4","last_reported":1700931935,"current_range_meters":14400,"station_id":"ce4bhn92rcd13ifvqgrg","pricing_plan_id":"free"},{"bike_id":"c85f7616-3a9e-47a4-ae16-28a03e51ab4f","system_id":"levelo_inurba_marseille","lat":43.28933,"lon":5.438655,"is_reserved":false,"is_disabled":false,"rental_uris":{"android":"levelo://app?vid=c85f7616-3a9e-47a4-ae16-28a03e51ab4f","ios":"levelo://app?vid=c85f7616-3a9e-47a4-ae16-28a03e51ab4f"},"vehicle_type_id":"4","last_reported":1700931935,"current_range_meters":6800,"station_id":"","pricing_plan_id":"free"},{"bike_id":"9e42f062-1717-4a11-957a-71a44b2e394f","system_id":"levelo_inurba_marseille","lat":43.25584,"lon":5.38236,"is_reserved":false,"is_disabled":false,"rental_uris":{"android":"levelo://app?vid=9e42f062-1717-4a11-957a-71a44b2e394f","ios":"levelo://app?vid=9e42f062-1717-4a11-957a-71a44b2e394f"},"vehicle_type_id":"4","last_reported":1700931935,"current_range_meters":20400,"station_id":"ce4bhih2rcd13ifvqfs0","pricing_plan_id":"free"},{"bike_id":"d198d12f-0abc-4bfd-a8f9-847f2216d2e0","system_id":"levelo_inurba_marseille","lat":43.255828,"lon":5.382303,"is_reserved":false,"is_disabled":false,"rental_uris":{"android":"levelo://app?vid=d198d12f-0abc-4bfd-a8f9-847f2216d2e0","ios":"levelo://app?vid=d198d12f-0abc-4bfd-a8f9-847f2216d2e0"},"vehicle_type_id":"4","last_reported":1700931935,"current_range_meters":31200,"station_id":"ce4bhih2rcd13ifvqfs0","pricing_plan_id":"free"},{"bike_id":"ae8323a8-6deb-4d22-8af0-31902ebc2bc8","system_id":"levelo_inurba_marseille","lat":43.255812,"lon":5.382298,"is_reserved":false,"is_disabled":false,"rental_uris":{"android":"levelo://app?vid=ae8323a8-6deb-4d22-8af0-31902ebc2bc8","ios":"levelo://app?vid=ae8323a8-6deb-4d22-8af0-31902ebc2bc8"},"vehicle_type_id":"4","last_reported":1700931935,"current_range_meters":0,"station_id":"ce4bhih2rcd13ifvqfs0","pricing_plan_id":"free"},{"bike_id":"fab89978-062b-4dbd-b11c-d8e5cf6e9286","system_id":"levelo_inurba_marseille","lat":43.258224,"lon":5.394369,"is_reserved":false,"is_disabled":false,"rental_uris":{"android":"levelo://app?vid=fab89978-062b-4dbd-b11c-d8e5cf6e9286","ios":"levelo://app?vid=fab89978-062b-4dbd-b11c-d8e5cf6e9286"},"vehicle_type_id":"4","last_reported":1700931935,"current_range_meters":26400,"station_id":"ce4bhip2rcd13ifvqft0","pricing_plan_id":"free"},{"bike_id":"e02d5f6c-73f5-4c9a-916d-157d3e88e26f","system_id":"levelo_inurba_marseille","lat":43.254947,"lon":5.376454,"is_reserved":false,"is_disabled":false,"rental_uris":{"android":"levelo://app?vid=e02d5f6c-73f5-4c9a-916d-157d3e88e26f","ios":"levelo://app?vid=e02d5f6c-73f5-4c9a-916d-157d3e88e26f"},"vehicle_type_id":"4","last_reported":1700931935,"current_range_meters":11600,"station_id":"ce4bhh12rcd13ifvqff0","pricing_plan_id":"free"},{"bike_id":"e06a8c78-4d48-491c-8072-84514714cbe8","system_id":"levelo_inurba_marseille","lat":43.270721,"lon":5.422764,"is_reserved":false,"is_disabled":false,"rental_uris":{"android":"levelo://app?vid=e06a8c78-4d48-491c-8072-84514714cbe8","ios":"levelo://app?vid=e06a8c78-4d48-491c-8072-84514714cbe8"},"vehicle_type_id":"4","last_reported":1700931935,"current_range_meters":28800,"station_id":"ce4bhk92rcd13ifvqgb0","pricing_plan_id":"free"},{"bike_id":"adac6531-d4a8-45aa-a6e3-edd6c5e7a2bc","system_id":"levelo_inurba_marseille","lat":43.24808,"lon":5.37457,"is_reserved":false,"is_disabled":false,"rental_uris":{"android":"levelo://app?vid=adac6531-d4a8-45aa-a6e3-edd6c5e7a2bc","ios":"levelo://app?vid=adac6531-d4a8-45aa-a6e3-edd6c5e7a2bc"},"vehicle_type_id":"4","last_reported":1700931935,"current_range_meters":14000,"station_id":"ce4bhgh2rcd13ifvqfb0","pricing_plan_id":"free"},{"bike_id":"1e1f0587-6613-4d04-ad3f-54424c1eb844","system_id":"levelo_inurba_marseille","lat":43.2479,"lon":5.374457,"is_reserved":false,"is_disabled":false,"rental_uris":{"android":"levelo://app?vid=1e1f0587-6613-4d04-ad3f-54424c1eb844","ios":"levelo://app?vid=1e1f0587-6613-4d04-ad3f-54424c1eb844"},"vehicle_type_id":"4","last_reported":1700931935,"current_range_meters":1600,"station_id":"ce4bhgh2rcd13ifvqfb0","pricing_plan_id":"free"},{"bike_id":"02d75adc-1043-49bf-8a92-cc2e66fe63fc","system_id":"levelo_inurba_marseille","lat":43.24806,"lon":5.37459,"is_reserved":false,"is_disabled":false,"rental_uris":{"android":"levelo://app?vid=02d75adc-1043-49bf-8a92-cc2e66fe63fc","ios":"levelo://app?vid=02d75adc-1043-49bf-8a92-cc2e66fe63fc"},"vehicle_type_id":"4","last_reported":1700931935,"current_range_meters":13200,"station_id":"ce4bhgh2rcd13ifvqfb0","pricing_plan_id":"free"},{"bike_id":"5bfa5702-a56e-4ddf-bcfa-28e9f1b5811e","system_id":"levelo_inurba_marseille","lat":43.24806,"lon":5.37459,"is_reserved":false,"is_disabled":false,"rental_uris":{"android":"levelo://app?vid=5bfa5702-a56e-4ddf-bcfa-28e9f1b5811e","ios":"levelo://app?vid=5bfa5702-a56e-4ddf-bcfa-28e9f1b5811e"},"vehicle_type_id":"4","last_reported":1700931935,"current_range_meters":13200,"station_id":"ce4bhgh2rcd13ifvqfb0","pricing_plan_id":"free"},{"bike_id":"3b7e7d1f-285d-4f99-adbd-962853e9dec0","system_id":"levelo_inurba_marseille","lat":43.24804,"lon":5.37451,"is_reserved":false,"is_disabled":false,"rental_uris":{"android":"levelo://app?vid=3b7e7d1f-285d-4f99-adbd-962853e9dec0","ios":"levelo://app?vid=3b7e7d1f-285d-4f99-adbd-962853e9dec0"},"vehicle_type_id":"4","last_reported":1700931935,"current_range_meters":25600,"station_id":"ce4bhgh2rcd13ifvqfb0","pricing_plan_id":"free"},{"bike_id":"10c62fae-8a47-463b-8792-10f3343efd0c","system_id":"levelo_inurba_marseille","lat":43.2479,"lon":5.374457,"is_reserved":false,"is_disabled":false,"rental_uris":{"android":"levelo://app?vid=10c62fae-8a47-463b-8792-10f3343efd0c","ios":"levelo://app?vid=10c62fae-8a47-463b-8792-10f3343efd0c"},"vehicle_type_id":"4","last_reported":1700931935,"current_range_meters":27200,"station_id":"ce4bhgh2rcd13ifvqfb0","pricing_plan_id":"free"},{"bike_id":"9f25f169-67f2-47e3-af1e-d9938ed07875","system_id":"levelo_inurba_marseille","lat":43.2479,"lon":5.374457,"is_reserved":false,"is_disabled":false,"rental_uris":{"android":"levelo://app?vid=9f25f169-67f2-47e3-af1e-d9938ed07875","ios":"levelo://app?vid=9f25f169-67f2-47e3-af1e-d9938ed07875"},"vehicle_type_id":"4","last_reported":1700931935,"current_range_meters":31200,"station_id":"ce4bhgh2rcd13ifvqfb0","pricing_plan_id":"free"},{"bike_id":"caf40aa6-005a-43fb-b152-fc2ae70ea1d7","system_id":"levelo_inurba_marseille","lat":43.250897,"lon":5.395161,"is_reserved":false,"is_disabled":false,"rental_uris":{"android":"levelo://app?vid=caf40aa6-005a-43fb-b152-fc2ae70ea1d7","ios":"levelo://app?vid=caf40aa6-005a-43fb-b152-fc2ae70ea1d7"},"vehicle_type_id":"4","last_reported":1700931935,"current_range_meters":27600,"station_id":"ce4bhm12rcd13ifvqgkg","pricing_plan_id":"free"},{"bike_id":"33a069f8-d8de-4242-bcc3-7a87a293b8e4","system_id":"levelo_inurba_marseille","lat":43.250966,"lon":5.395186,"is_reserved":false,"is_disabled":false,"rental_uris":{"android":"levelo://app?vid=33a069f8-d8de-4242-bcc3-7a87a293b8e4","ios":"levelo://app?vid=33a069f8-d8de-4242-bcc3-7a87a293b8e4"},"vehicle_type_id":"4","last_reported":1700931935,"current_range_meters":14000,"station_id":"ce4bhm12rcd13ifvqgkg","pricing_plan_id":"free"},{"bike_id":"4e22f755-9fb8-454a-aed8-0ce31691dc80","system_id":"levelo_inurba_marseille","lat":43.2473,"lon":5.37395,"is_reserved":false,"is_disabled":false,"rental_uris":{"android":"levelo://app?vid=4e22f755-9fb8-454a-aed8-0ce31691dc80","ios":"levelo://app?vid=4e22f755-9fb8-454a-aed8-0ce31691dc80"},"vehicle_type_id":"4","last_reported":1700931935,"current_range_meters":18400,"station_id":"","pricing_plan_id":"free"},{"bike_id":"0317d6ae-40ea-485c-8ac1-17cc21825d16","system_id":"levelo_inurba_marseille","lat":43.24665,"lon":5.38156,"is_reserved":false,"is_disabled":false,"rental_uris":{"android":"levelo://app?vid=0317d6ae-40ea-485c-8ac1-17cc21825d16","ios":"levelo://app?vid=0317d6ae-40ea-485c-8ac1-17cc21825d16"},"vehicle_type_id":"4","last_reported":1700931935,"current_range_meters":28800,"station_id":"ce4bhih2rcd13ifvqfr0","pricing_plan_id":"free"},{"bike_id":"a8123fe9-ac5d-4188-9592-822f8f09d18c","system_id":"levelo_inurba_marseille","lat":43.24693,"lon":5.382096,"is_reserved":false,"is_disabled":false,"rental_uris":{"android":"levelo://app?vid=a8123fe9-ac5d-4188-9592-822f8f09d18c","ios":"levelo://app?vid=a8123fe9-ac5d-4188-9592-822f8f09d18c"},"vehicle_type_id":"4","last_reported":1700931935,"current_range_meters":30800,"station_id":"ce4bhih2rcd13ifvqfr0","pricing_plan_id":"free"},{"bike_id":"2b3837b8-8f70-41a7-9ab3-f0345e53423e","system_id":"levelo_inurba_marseille","lat":43.24693,"lon":5.382096,"is_reserved":false,"is_disabled":false,"rental_uris":{"android":"levelo://app?vid=2b3837b8-8f70-41a7-9ab3-f0345e53423e","ios":"levelo://app?vid=2b3837b8-8f70-41a7-9ab3-f0345e53423e"},"vehicle_type_id":"4","last_reported":1700931935,"current_range_meters":25600,"station_id":"ce4bhih2rcd13ifvqfr0","pricing_plan_id":"free"},{"bike_id":"7465de14-6938-4d85-9b88-dd866b1ed816","system_id":"levelo_inurba_marseille","lat":43.24693,"lon":5.382096,"is_reserved":false,"is_disabled":false,"rental_uris":{"android":"levelo://app?vid=7465de14-6938-4d85-9b88-dd866b1ed816","ios":"levelo://app?vid=7465de14-6938-4d85-9b88-dd866b1ed816"},"vehicle_type_id":"4","last_reported":1700931935,"current_range_meters":31200,"station_id":"ce4bhih2rcd13ifvqfr0","pricing_plan_id":"free"},{"bike_id":"60a5031d-5930-4e56-ba57-bd5972c1e3a1","system_id":"levelo_inurba_marseille","lat":43.246467,"lon":5.388984,"is_reserved":false,"is_disabled":false,"rental_uris":{"android":"levelo://app?vid=60a5031d-5930-4e56-ba57-bd5972c1e3a1","ios":"levelo://app?vid=60a5031d-5930-4e56-ba57-bd5972c1e3a1"},"vehicle_type_id":"4","last_reported":1700931935,"current_range_meters":16400,"station_id":"ce4bhg12rcd13ifvqf60","pricing_plan_id":"free"},{"bike_id":"16cbc471-e842-49b7-be91-1309994883e2","system_id":"levelo_inurba_marseille","lat":43.246429,"lon":5.388975,"is_reserved":false,"is_disabled":false,"rental_uris":{"android":"levelo://app?vid=16cbc471-e842-49b7-be91-1309994883e2","ios":"levelo://app?vid=16cbc471-e842-49b7-be91-1309994883e2"},"vehicle_type_id":"4","last_reported":1700931935,"current_range_meters":24800,"station_id":"ce4bhg12rcd13ifvqf60","pricing_plan_id":"free"},{"bike_id":"90604205-3676-4845-9812-e9f9728828ed","system_id":"levelo_inurba_marseille","lat":43.243884,"lon":5.370737,"is_reserved":false,"is_disabled":false,"rental_uris":{"android":"levelo://app?vid=90604205-3676-4845-9812-e9f9728828ed","ios":"levelo://app?vid=90604205-3676-4845-9812-e9f9728828ed"},"vehicle_type_id":"4","last_reported":1700931935,"current_range_meters":30400,"station_id":"ce4bhhh2rcd13ifvqfk0","pricing_plan_id":"free"},{"bike_id":"f208a7fe-6a06-4894-b966-a0fabce96d98","system_id":"levelo_inurba_marseille","lat":43.245581,"lon":5.395069,"is_reserved":false,"is_disabled":false,"rental_uris":{"android":"levelo://app?vid=f208a7fe-6a06-4894-b966-a0fabce96d98","ios":"levelo://app?vid=f208a7fe-6a06-4894-b966-a0fabce96d98"},"vehicle_type_id":"4","last_reported":1700931935,"current_range_meters":31200,"station_id":"ce4bhlp2rcd13ifvqgjg","pricing_plan_id":"free"},{"bike_id":"aacee138-95eb-4dc4-8c3b-28f2bee62089","system_id":"levelo_inurba_marseille","lat":43.240739,"lon":5.377579,"is_reserved":false,"is_disabled":false,"rental_uris":{"android":"levelo://app?vid=aacee138-95eb-4dc4-8c3b-28f2bee62089","ios":"levelo://app?vid=aacee138-95eb-4dc4-8c3b-28f2bee62089"},"vehicle_type_id":"4","last_reported":1700931935,"current_range_meters":16800,"station_id":"ce4bhnp2rcd13ifvqgvg","pricing_plan_id":"free"},{"bike_id":"c4f807b4-14e7-40ed-b7e8-f2d4b7a1b342","system_id":"levelo_inurba_marseille","lat":43.239588,"lon":5.366238,"is_reserved":false,"is_disabled":false,"rental_uris":{"android":"levelo://app?vid=c4f807b4-14e7-40ed-b7e8-f2d4b7a1b342","ios":"levelo://app?vid=c4f807b4-14e7-40ed-b7e8-f2d4b7a1b342"},"vehicle_type_id":"4","last_reported":1700931935,"current_range_meters":14400,"station_id":"ce4bhi12rcd13ifvqfp0","pricing_plan_id":"free"},{"bike_id":"1cb96f04-f422-460b-925f-998463caffcc","system_id":"levelo_inurba_marseille","lat":43.240684,"lon":5.377519,"is_reserved":false,"is_disabled":false,"rental_uris":{"android":"levelo://app?vid=1cb96f04-f422-460b-925f-998463caffcc","ios":"levelo://app?vid=1cb96f04-f422-460b-925f-998463caffcc"},"vehicle_type_id":"4","last_reported":1700931935,"current_range_meters":31200,"station_id":"ce4bhnp2rcd13ifvqgvg","pricing_plan_id":"free"},{"bike_id":"2928aec4-a092-4b20-8697-2fcf599c9821","system_id":"levelo_inurba_marseille","lat":43.239588,"lon":5.366238,"is_reserved":false,"is_disabled":false,"rental_uris":{"android":"levelo://app?vid=2928aec4-a092-4b20-8697-2fcf599c9821","ios":"levelo://app?vid=2928aec4-a092-4b20-8697-2fcf599c9821"},"vehicle_type_id":"4","last_reported":1700931935,"current_range_meters":25200,"station_id":"ce4bhi12rcd13ifvqfp0","pricing_plan_id":"free"},{"bike_id":"340ba89e-beb6-4edd-9f37-a6ad2b2c6a9c","system_id":"levelo_inurba_marseille","lat":43.239588,"lon":5.366238,"is_reserved":false,"is_disabled":false,"rental_uris":{"android":"levelo://app?vid=340ba89e-beb6-4edd-9f37-a6ad2b2c6a9c","ios":"levelo://app?vid=340ba89e-beb6-4edd-9f37-a6ad2b2c6a9c"},"vehicle_type_id":"4","last_reported":1700931935,"current_range_meters":14000,"station_id":"ce4bhi12rcd13ifvqfp0","pricing_plan_id":"free"},{"bike_id":"c8b0fc92-e06b-450c-b7d7-d6ab9ca59443","system_id":"levelo_inurba_marseille","lat":43.239588,"lon":5.366238,"is_reserved":false,"is_disabled":false,"rental_uris":{"android":"levelo://app?vid=c8b0fc92-e06b-450c-b7d7-d6ab9ca59443","ios":"levelo://app?vid=c8b0fc92-e06b-450c-b7d7-d6ab9ca59443"},"vehicle_type_id":"4","last_reported":1700931935,"current_range_meters":31600,"station_id":"ce4bhi12rcd13ifvqfp0","pricing_plan_id":"free"},{"bike_id":"4da7c850-c01b-49e2-97e3-0a093981264d","system_id":"levelo_inurba_marseille","lat":43.239588,"lon":5.366238,"is_reserved":false,"is_disabled":false,"rental_uris":{"android":"levelo://app?vid=4da7c850-c01b-49e2-97e3-0a093981264d","ios":"levelo://app?vid=4da7c850-c01b-49e2-97e3-0a093981264d"},"vehicle_type_id":"4","last_reported":1700931935,"current_range_meters":31200,"station_id":"ce4bhi12rcd13ifvqfp0","pricing_plan_id":"free"},{"bike_id":"8ddc8e40-82e4-4cc6-90af-c119357648f0","system_id":"levelo_inurba_marseille","lat":43.239588,"lon":5.366238,"is_reserved":false,"is_disabled":false,"rental_uris":{"android":"levelo://app?vid=8ddc8e40-82e4-4cc6-90af-c119357648f0","ios":"levelo://app?vid=8ddc8e40-82e4-4cc6-90af-c119357648f0"},"vehicle_type_id":"4","last_reported":1700931935,"current_range_meters":25200,"station_id":"ce4bhi12rcd13ifvqfp0","pricing_plan_id":"free"},{"bike_id":"ff01dbe1-223f-43a9-b0c6-51a5a8d2ed05","system_id":"levelo_inurba_marseille","lat":43.239588,"lon":5.366238,"is_reserved":false,"is_disabled":false,"rental_uris":{"android":"levelo://app?vid=ff01dbe1-223f-43a9-b0c6-51a5a8d2ed05","ios":"levelo://app?vid=ff01dbe1-223f-43a9-b0c6-51a5a8d2ed05"},"vehicle_type_id":"4","last_reported":1700931935,"current_range_meters":32000,"station_id":"ce4bhi12rcd13ifvqfp0","pricing_plan_id":"free"},{"bike_id":"47e43998-06a7-44f6-a336-05874a757f9d","system_id":"levelo_inurba_marseille","lat":43.239588,"lon":5.366238,"is_reserved":false,"is_disabled":false,"rental_uris":{"android":"levelo://app?vid=47e43998-06a7-44f6-a336-05874a757f9d","ios":"levelo://app?vid=47e43998-06a7-44f6-a336-05874a757f9d"},"vehicle_type_id":"4","last_reported":1700931935,"current_range_meters":16000,"station_id":"ce4bhi12rcd13ifvqfp0","pricing_plan_id":"free"},{"bike_id":"a59a9f52-9d06-4b12-9392-cdd5f569c2ca","system_id":"levelo_inurba_marseille","lat":43.239588,"lon":5.366238,"is_reserved":false,"is_disabled":false,"rental_uris":{"android":"levelo://app?vid=a59a9f52-9d06-4b12-9392-cdd5f569c2ca","ios":"levelo://app?vid=a59a9f52-9d06-4b12-9392-cdd5f569c2ca"},"vehicle_type_id":"4","last_reported":1700931935,"current_range_meters":30400,"station_id":"ce4bhi12rcd13ifvqfp0","pricing_plan_id":"free"},{"bike_id":"fc6ccc5a-bc4d-4544-a669-27960c9fde66","system_id":"levelo_inurba_marseille","lat":43.239588,"lon":5.366238,"is_reserved":false,"is_disabled":false,"rental_uris":{"android":"levelo://app?vid=fc6ccc5a-bc4d-4544-a669-27960c9fde66","ios":"levelo://app?vid=fc6ccc5a-bc4d-4544-a669-27960c9fde66"},"vehicle_type_id":"4","last_reported":1700931935,"current_range_meters":18800,"station_id":"ce4bhi12rcd13ifvqfp0","pricing_plan_id":"free"},{"bike_id":"b3ffab4a-cf52-4b4f-9f0f-fcb873d0f038","system_id":"levelo_inurba_marseille","lat":43.239581,"lon":5.366306,"is_reserved":false,"is_disabled":false,"rental_uris":{"android":"levelo://app?vid=b3ffab4a-cf52-4b4f-9f0f-fcb873d0f038","ios":"levelo://app?vid=b3ffab4a-cf52-4b4f-9f0f-fcb873d0f038"},"vehicle_type_id":"4","last_reported":1700931935,"current_range_meters":30400,"station_id":"ce4bhi12rcd13ifvqfp0","pricing_plan_id":"free"},{"bike_id":"fb7be5a0-e980-436b-ac60-879a3e279215","system_id":"levelo_inurba_marseille","lat":43.239588,"lon":5.366238,"is_reserved":false,"is_disabled":false,"rental_uris":{"android":"levelo://app?vid=fb7be5a0-e980-436b-ac60-879a3e279215","ios":"levelo://app?vid=fb7be5a0-e980-436b-ac60-879a3e279215"},"vehicle_type_id":"4","last_reported":1700931935,"current_range_meters":23600,"station_id":"ce4bhi12rcd13ifvqfp0","pricing_plan_id":"free"},{"bike_id":"ecaa0023-2df3-4740-9315-3f02cce7c564","system_id":"levelo_inurba_marseille","lat":43.241782,"lon":5.397261,"is_reserved":false,"is_disabled":false,"rental_uris":{"android":"levelo://app?vid=ecaa0023-2df3-4740-9315-3f02cce7c564","ios":"levelo://app?vid=ecaa0023-2df3-4740-9315-3f02cce7c564"},"vehicle_type_id":"4","last_reported":1700931935,"current_range_meters":11600,"station_id":"ce4bhn12rcd13ifvqgpg","pricing_plan_id":"free"},{"bike_id":"0a349838-8936-442e-8a55-c173dbb54834","system_id":"levelo_inurba_marseille","lat":43.23195,"lon":5.35562,"is_reserved":false,"is_disabled":false,"rental_uris":{"android":"levelo://app?vid=0a349838-8936-442e-8a55-c173dbb54834","ios":"levelo://app?vid=0a349838-8936-442e-8a55-c173dbb54834"},"vehicle_type_id":"4","last_reported":1700931935,"current_range_meters":24800,"station_id":"ce4bhu92rcd13ifvqi70","pricing_plan_id":"free"},{"bike_id":"76da77ba-a8a2-45d9-bea0-75d9631bba15","system_id":"levelo_inurba_marseille","lat":43.231923,"lon":5.355545,"is_reserved":false,"is_disabled":false,"rental_uris":{"android":"levelo://app?vid=76da77ba-a8a2-45d9-bea0-75d9631bba15","ios":"levelo://app?vid=76da77ba-a8a2-45d9-bea0-75d9631bba15"},"vehicle_type_id":"4","last_reported":1700931935,"current_range_meters":29600,"station_id":"ce4bhu92rcd13ifvqi70","pricing_plan_id":"free"},{"bike_id":"dcc8f0d2-659c-44cb-9a1d-9d57ae623781","system_id":"levelo_inurba_marseille","lat":43.23194,"lon":5.35561,"is_reserved":false,"is_disabled":false,"rental_uris":{"android":"levelo://app?vid=dcc8f0d2-659c-44cb-9a1d-9d57ae623781","ios":"levelo://app?vid=dcc8f0d2-659c-44cb-9a1d-9d57ae623781"},"vehicle_type_id":"4","last_reported":1700931935,"current_range_meters":20400,"station_id":"ce4bhu92rcd13ifvqi70","pricing_plan_id":"free"},{"bike_id":"48217564-eee6-47a9-ae01-f8f1659e40db","system_id":"levelo_inurba_marseille","lat":43.231923,"lon":5.355545,"is_reserved":false,"is_disabled":false,"rental_uris":{"android":"levelo://app?vid=48217564-eee6-47a9-ae01-f8f1659e40db","ios":"levelo://app?vid=48217564-eee6-47a9-ae01-f8f1659e40db"},"vehicle_type_id":"4","last_reported":1700931935,"current_range_meters":31200,"station_id":"ce4bhu92rcd13ifvqi70","pricing_plan_id":"free"},{"bike_id":"2c965575-bc91-4e3f-b6d2-1df5b195e3bf","system_id":"levelo_inurba_marseille","lat":43.2319,"lon":5.35559,"is_reserved":false,"is_disabled":false,"rental_uris":{"android":"levelo://app?vid=2c965575-bc91-4e3f-b6d2-1df5b195e3bf","ios":"levelo://app?vid=2c965575-bc91-4e3f-b6d2-1df5b195e3bf"},"vehicle_type_id":"4","last_reported":1700931935,"current_range_meters":20800,"station_id":"ce4bhu92rcd13ifvqi70","pricing_plan_id":"free"},{"bike_id":"582d113c-0c5f-4418-8125-8a8ab02fd7da","system_id":"levelo_inurba_marseille","lat":43.23192,"lon":5.39992,"is_reserved":false,"is_disabled":false,"rental_uris":{"android":"levelo://app?vid=582d113c-0c5f-4418-8125-8a8ab02fd7da","ios":"levelo://app?vid=582d113c-0c5f-4418-8125-8a8ab02fd7da"},"vehicle_type_id":"4","last_reported":1700931935,"current_range_meters":0,"station_id":"ce4bhn12rcd13ifvqgqg","pricing_plan_id":"free"},{"bike_id":"97ad79a6-f0f5-4e96-98da-12e55fc6abbe","system_id":"levelo_inurba_marseille","lat":43.231793,"lon":5.400044,"is_reserved":false,"is_disabled":false,"rental_uris":{"android":"levelo://app?vid=97ad79a6-f0f5-4e96-98da-12e55fc6abbe","ios":"levelo://app?vid=97ad79a6-f0f5-4e96-98da-12e55fc6abbe"},"vehicle_type_id":"4","last_reported":1700931935,"current_range_meters":13600,"station_id":"ce4bhn12rcd13ifvqgqg","pricing_plan_id":"free"},{"bike_id":"47877581-d881-46df-86fb-f8edc2433601","system_id":"levelo_inurba_marseille","lat":43.231794,"lon":5.400052,"is_reserved":false,"is_disabled":false,"rental_uris":{"android":"levelo://app?vid=47877581-d881-46df-86fb-f8edc2433601","ios":"levelo://app?vid=47877581-d881-46df-86fb-f8edc2433601"},"vehicle_type_id":"4","last_reported":1700931935,"current_range_meters":20000,"station_id":"ce4bhn12rcd13ifvqgqg","pricing_plan_id":"free"},{"bike_id":"23a1829f-9a6c-49bf-9a74-ced5b141be40","system_id":"levelo_inurba_marseille","lat":43.237873,"lon":5.432221,"is_reserved":false,"is_disabled":false,"rental_uris":{"android":"levelo://app?vid=23a1829f-9a6c-49bf-9a74-ced5b141be40","ios":"levelo://app?vid=23a1829f-9a6c-49bf-9a74-ced5b141be40"},"vehicle_type_id":"4","last_reported":1700931935,"current_range_meters":2400,"station_id":"","pricing_plan_id":"free"},{"bike_id":"0508bfaa-dc89-4d6c-bd00-5fdfebdcd3d7","system_id":"levelo_inurba_marseille","lat":43.231562,"lon":5.436933,"is_reserved":false,"is_disabled":false,"rental_uris":{"android":"levelo://app?vid=0508bfaa-dc89-4d6c-bd00-5fdfebdcd3d7","ios":"levelo://app?vid=0508bfaa-dc89-4d6c-bd00-5fdfebdcd3d7"},"vehicle_type_id":"4","last_reported":1700931935,"current_range_meters":29600,"station_id":"ce4bhmp2rcd13ifvqgog","pricing_plan_id":"free"},{"bike_id":"9f5a8eea-995a-45d5-8a53-0f7fe9b11cc0","system_id":"levelo_inurba_marseille","lat":43.231562,"lon":5.436933,"is_reserved":false,"is_disabled":false,"rental_uris":{"android":"levelo://app?vid=9f5a8eea-995a-45d5-8a53-0f7fe9b11cc0","ios":"levelo://app?vid=9f5a8eea-995a-45d5-8a53-0f7fe9b11cc0"},"vehicle_type_id":"4","last_reported":1700931935,"current_range_meters":14800,"station_id":"ce4bhmp2rcd13ifvqgog","pricing_plan_id":"free"},{"bike_id":"fa6e6170-c6e0-4eea-ae59-68e940aa4abf","system_id":"levelo_inurba_marseille","lat":43.231562,"lon":5.436933,"is_reserved":false,"is_disabled":false,"rental_uris":{"android":"levelo://app?vid=fa6e6170-c6e0-4eea-ae59-68e940aa4abf","ios":"levelo://app?vid=fa6e6170-c6e0-4eea-ae59-68e940aa4abf"},