{"last_updated":1701011189,"ttl":30,"version":"2.2","data":{"bikes":[{"bike_id":"4b8b2874-6db0-4f45-b253-894e1ec8b827","system_id":"levelo_inurba_marseille","lat":43.314811,"lon":5.373103,"is_reserved":false,"is_disabled":false,"rental_uris":{"android":"levelo://app?vid=4b8b2874-6db0-4f45-b253-894e1ec8b827","ios":"levelo://app?vid=4b8b2874-6db0-4f45-b253-894e1ec8b827"},"vehicle_type_id":"4","last_reported":1701011189,"current_range_meters":21600,"station_id":"ce4bgt12rcd13ifvqcd0","pricing_plan_id":"free"},{"bike_id":"fcd103fd-0a00-44e9-b020-47bb1e521741","system_id":"levelo_inurba_marseille","lat":43.314811,"lon":5.373104,"is_reserved":false,"is_disabled":false,"rental_uris":{"android":"levelo://app?vid=fcd103fd-0a00-44e9-b020-47bb1e521741","ios":"levelo://app?vid=fcd103fd-0a00-44e9-b020-47bb1e521741"},"vehicle_type_id":"4","last_reported":1701011189,"current_range_meters":10800,"station_id":"ce4bgt12rcd13ifvqcd0","pricing_plan_id":"free"},{"bike_id":"c0280a1e-ba84-4436-a58b-8fadedb1fe9c","system_id":"levelo_inurba_marseille","lat":43.314811,"lon":5.373104,"is_reserved":false,"is_disabled":false,"rental_uris":{"android":"levelo://app?vid=c0280a1e-ba84-4436-a58b-8fadedb1fe9c","ios":"levelo://app?vid=c0280a1e-ba84-4436-a58b-8fadedb1fe9c"},"vehicle_type_id":"4","last_reported":1701011189,"current_range_meters":4400,"station_id":"ce4bgt12rcd13ifvqcd0","pricing_plan_id":"free"},{"bike_id":"7804473a-f1d7-4d55-9fcc-84372a3d787c","system_id":"levelo_inurba_marseille","lat":43.30464,"lon":5.36721,"is_reserved":false,"is_disabled":false,"rental_uris":{"android":"levelo://app?vid=7804473a-f1d7-4d55-9fcc-84372a3d787c","ios":"levelo://app?vid=7804473a-f1d7-4d55-9fcc-84372a3d787c"},"vehicle_type_id":"4","last_reported":1701011189,"current_range_meters":8800,"station_id":"","pricing_plan_id":"free"},{"bike_id":"573a870a-b6c4-429d-8587-8103772b84bc","system_id":"levelo_inurba_marseille","lat":43.308207,"lon":5.376598,"is_reserved":false,"is_disabled":false,"rental_uris":{"android":"levelo://app?vid=573a870a-b6c4-429d-8587-8103772b84bc","ios":"levelo://app?vid=573a870a-b6c4-429d-8587-8103772b84bc"},"vehicle_type_id":"4","last_reported":1701011189,"current_range_meters":0,"station_id":"ce4bgv92rcd13ifvqcq0","pricing_plan_id":"free"},{"bike_id":"f427a2c3-6e4a-446b-ae2f-9be8aa7f4122","system_id":"levelo_inurba_marseille","lat":43.31719,"lon":5.376813,"is_reserved":false,"is_disabled":false,"rental_uris":{"android":"levelo://app?vid=f427a2c3-6e4a-446b-ae2f-9be8aa7f4122","ios":"levelo://app?vid=f427a2c3-6e4a-446b-ae2f-9be8aa7f4122"},"vehicle_type_id":"4","last_reported":1701011189,"current_range_meters":20800,"station_id":"ce4bgth2rcd13ifvqch0","pricing_plan_id":"free"},{"bike_id":"b898b018-f57d-4901-bab2-fdd15d391de9","system_id":"levelo_inurba_marseille","lat":43.317168,"lon":5.376883,"is_reserved":false,"is_disabled":false,"rental_uris":{"android":"levelo://app?vid=b898b018-f57d-4901-bab2-fdd15d391de9","ios":"levelo://app?vid=b898b018-f57d-4901-bab2-fdd15d391de9"},"vehicle_type_id":"4","last_reported":1701011189,"current_range_meters":23200,"station_id":"ce4bgth2rcd13ifvqch0","pricing_plan_id":"free"},{"bike_id":"94180057-527e-4de9-9a14-272358bf8050","system_id":"levelo_inurba_marseille","lat":43.303046,"lon":5.368981,"is_reserved":false,"is_disabled":false,"rental_uris":{"android":"levelo://app?vid=94180057-527e-4de9-9a14-272358bf8050","ios":"levelo://app?vid=94180057-527e-4de9-9a14-272358bf8050"},"vehicle_type_id":"4","last_reported":1701011189,"current_range_meters":28400,"station_id":"ce4bgqh2rcd13ifvqc5g","pricing_plan_id":"free"},{"bike_id":"9f90f6f0-01fc-4e5a-95d2-4cf3c4fa957e","system_id":"levelo_inurba_marseille","lat":43.31525,"lon":5.38034,"is_reserved":false,"is_disabled":false,"rental_uris":{"android":"levelo://app?vid=9f90f6f0-01fc-4e5a-95d2-4cf3c4fa957e","ios":"levelo://app?vid=9f90f6f0-01fc-4e5a-95d2-4cf3c4fa957e"},"vehicle_type_id":"4","last_reported":1701011189,"current_range_meters":14000,"station_id":"ce4bhsp2rcd13ifvqi50","pricing_plan_id":"free"},{"bike_id":"fa93cfcc-15a2-48a9-9688-be5d72e983d0","system_id":"levelo_inurba_marseille","lat":43.31221,"lon":5.3817,"is_reserved":false,"is_disabled":false,"rental_uris":{"android":"levelo://app?vid=fa93cfcc-15a2-48a9-9688-be5d72e983d0","ios":"levelo://app?vid=fa93cfcc-15a2-48a9-9688-be5d72e983d0"},"vehicle_type_id":"4","last_reported":1701011189,"current_range_meters":26000,"station_id":"","pricing_plan_id":"free"},{"bike_id":"4fa5f1bd-bd8f-4634-ad55-64c298e896dd","system_id":"levelo_inurba_marseille","lat":43.301939,"lon":5.366286,"is_reserved":false,"is_disabled":false,"rental_uris":{"android":"levelo://app?vid=4fa5f1bd-bd8f-4634-ad55-64c298e896dd","ios":"levelo://app?vid=4fa5f1bd-bd8f-4634-ad55-64c298e896dd"},"vehicle_type_id":"4","last_reported":1701011189,"current_range_meters":24400,"station_id":"ce4bgrh2rcd13ifvqc8g","pricing_plan_id":"free"},{"bike_id":"51bc1839-5ed9-46ff-b13f-0e60ac701f72","system_id":"levelo_inurba_marseille","lat":43.308012,"lon":5.381511,"is_reserved":false,"is_disabled":false,"rental_uris":{"android":"levelo://app?vid=51bc1839-5ed9-46ff-b13f-0e60ac701f72","ios":"levelo://app?vid=51bc1839-5ed9-46ff-b13f-0e60ac701f72"},"vehicle_type_id":"4","last_reported":1701011189,"current_range_meters":22000,"station_id":"ce4bgt12rcd13ifvqce0","pricing_plan_id":"free"},{"bike_id":"d3f723fe-802a-4eef-befb-981eec2145f7","system_id":"levelo_inurba_marseille","lat":43.304606,"lon":5.379026,"is_reserved":false,"is_disabled":false,"rental_uris":{"android":"levelo://app?vid=d3f723fe-802a-4eef-befb-981eec2145f7","ios":"levelo://app?vid=d3f723fe-802a-4eef-befb-981eec2145f7"},"vehicle_type_id":"4","last_reported":1701011189,"current_range_meters":27200,"station_id":"ce4bgup2rcd13ifvqcn0","pricing_plan_id":"free"},{"bike_id":"9f2099ad-4fd1-4487-a88e-68f399dd563b","system_id":"levelo_inurba_marseille","lat":43.30459,"lon":5.37906,"is_reserved":false,"is_disabled":false,"rental_uris":{"android":"levelo://app?vid=9f2099ad-4fd1-4487-a88e-68f399dd563b","ios":"levelo://app?vid=9f2099ad-4fd1-4487-a88e-68f399dd563b"},"vehicle_type_id":"4","last_reported":1701011189,"current_range_meters":20000,"station_id":"ce4bgup2rcd13ifvqcn0","pricing_plan_id":"free"},{"bike_id":"f9b3931b-1cd0-4798-bb5a-64412f9866b5","system_id":"levelo_inurba_marseille","lat":43.30457,"lon":5.37909,"is_reserved":false,"is_disabled":false,"rental_uris":{"android":"levelo://app?vid=f9b3931b-1cd0-4798-bb5a-64412f9866b5","ios":"levelo://app?vid=f9b3931b-1cd0-4798-bb5a-64412f9866b5"},"vehicle_type_id":"4","last_reported":1701011189,"current_range_meters":12400,"station_id":"ce4bgup2rcd13ifvqcn0","pricing_plan_id":"free"},{"bike_id":"4621be1d-4ef4-4064-a280-a5b9b944f094","system_id":"levelo_inurba_marseille","lat":43.30661,"lon":5.38287,"is_reserved":false,"is_disabled":false,"rental_uris":{"android":"levelo://app?vid=4621be1d-4ef4-4064-a280-a5b9b944f094","ios":"levelo://app?vid=4621be1d-4ef4-4064-a280-a5b9b944f094"},"vehicle_type_id":"4","last_reported":1701011189,"current_range_meters":24400,"station_id":"ce4bgt92rcd13ifvqcg0","pricing_plan_id":"free"},{"bike_id":"dfbd56c7-c27d-4407-b3a6-d0d1f9f35cef","system_id":"levelo_inurba_marseille","lat":43.31359,"lon":5.38494,"is_reserved":false,"is_disabled":false,"rental_uris":{"android":"levelo://app?vid=dfbd56c7-c27d-4407-b3a6-d0d1f9f35cef","ios":"levelo://app?vid=dfbd56c7-c27d-4407-b3a6-d0d1f9f35cef"},"vehicle_type_id":"4","last_reported":1701011189,"current_range_meters":19600,"station_id":"ce4bgt92rcd13ifvqcf0","pricing_plan_id":"free"},{"bike_id":"cfce3262-da5d-47c2-8019-3e560d134e19","system_id":"levelo_inurba_marseille","lat":43.313571,"lon":5.384829,"is_reserved":false,"is_disabled":false,"rental_uris":{"android":"levelo://app?vid=cfce3262-da5d-47c2-8019-3e560d134e19","ios":"levelo://app?vid=cfce3262-da5d-47c2-8019-3e560d134e19"},"vehicle_type_id":"4","last_reported":1701011189,"current_range_meters":2800,"station_id":"ce4bgt92rcd13ifvqcf0","pricing_plan_id":"free"},{"bike_id":"8504dd2d-0f65-4138-9ae2-0ce4c13264d0","system_id":"levelo_inurba_marseille","lat":43.299222,"lon":5.365554,"is_reserved":false,"is_disabled":false,"rental_uris":{"android":"levelo://app?vid=8504dd2d-0f65-4138-9ae2-0ce4c13264d0","ios":"levelo://app?vid=8504dd2d-0f65-4138-9ae2-0ce4c13264d0"},"vehicle_type_id":"4","last_reported":1701011189,"current_range_meters":28000,"station_id":"ce4bgm92rcd13ifvqbr0","pricing_plan_id":"free"},{"bike_id":"93511d99-14fd-4ac0-9065-6af84f11a7c5","system_id":"levelo_inurba_marseille","lat":43.299724,"lon":5.371829,"is_reserved":false,"is_disabled":false,"rental_uris":{"android":"levelo://app?vid=93511d99-14fd-4ac0-9065-6af84f11a7c5","ios":"levelo://app?vid=93511d99-14fd-4ac0-9065-6af84f11a7c5"},"vehicle_type_id":"4","last_reported":1701011189,"current_range_meters":18000,"station_id":"ce4bgr92rcd13ifvqc7g","pricing_plan_id":"free"},{"bike_id":"5d6bc8ac-fc46-4818-95f0-ed410f45aa4a","system_id":"levelo_inurba_marseille","lat":43.299724,"lon":5.371829,"is_reserved":false,"is_disabled":false,"rental_uris":{"android":"levelo://app?vid=5d6bc8ac-fc46-4818-95f0-ed410f45aa4a","ios":"levelo://app?vid=5d6bc8ac-fc46-4818-95f0-ed410f45aa4a"},"vehicle_type_id":"4","last_reported":1701011189,"current_range_meters":400,"station_id":"ce4bgr92rcd13ifvqc7g","pricing_plan_id":"free"},{"bike_id":"c3842cf5-9b7c-444b-b4c4-51de4cd4beb0","system_id":"levelo_inurba_marseille","lat":43.298433,"lon":5.362774,"is_reserved":false,"is_disabled":false,"rental_uris":{"android":"levelo://app?vid=c3842cf5-9b7c-444b-b4c4-51de4cd4beb0","ios":"levelo://app?vid=c3842cf5-9b7c-444b-b4c4-51de4cd4beb0"},"vehicle_type_id":"4","last_reported":1701011189,"current_range_meters":20800,"station_id":"ce4bgpp2rcd13ifvqc3g","pricing_plan_id":"free"},{"bike_id":"1db65171-7c01-4e6b-bc72-c55cd4d591fa","system_id":"levelo_inurba_marseille","lat":43.298433,"lon":5.362774,"is_reserved":false,"is_disabled":false,"rental_uris":{"android":"levelo://app?vid=1db65171-7c01-4e6b-bc72-c55cd4d591fa","ios":"levelo://app?vid=1db65171-7c01-4e6b-bc72-c55cd4d591fa"},"vehicle_type_id":"4","last_reported":1701011189,"current_range_meters":4400,"station_id":"ce4bgpp2rcd13ifvqc3g","pricing_plan_id":"free"},{"bike_id":"2d160e52-78e5-4804-9c26-3393b5fb625f","system_id":"levelo_inurba_marseille","lat":43.299243,"lon":5.37481,"is_reserved":false,"is_disabled":false,"rental_uris":{"android":"levelo://app?vid=2d160e52-78e5-4804-9c26-3393b5fb625f","ios":"levelo://app?vid=2d160e52-78e5-4804-9c26-3393b5fb625f"},"vehicle_type_id":"4","last_reported":1701011189,"current_range_meters":15200,"station_id":"ce4bgjh2rcd13ifvqbg0","pricing_plan_id":"free"},{"bike_id":"534cb3f6-0fab-4aaa-80c7-40611fff7767","system_id":"levelo_inurba_marseille","lat":43.311722,"lon":5.387247,"is_reserved":false,"is_disabled":false,"rental_uris":{"android":"levelo://app?vid=534cb3f6-0fab-4aaa-80c7-40611fff7767","ios":"levelo://app?vid=534cb3f6-0fab-4aaa-80c7-40611fff7767"},"vehicle_type_id":"4","last_reported":1701011189,"current_range_meters":2000,"station_id":"ce4bgv12rcd13ifvqcp0","pricing_plan_id":"free"},{"bike_id":"0d0d8f79-d36d-46af-a8f0-f14230a2e425","system_id":"levelo_inurba_marseille","lat":43.311722,"lon":5.387247,"is_reserved":false,"is_disabled":false,"rental_uris":{"android":"levelo://app?vid=0d0d8f79-d36d-46af-a8f0-f14230a2e425","ios":"levelo://app?vid=0d0d8f79-d36d-46af-a8f0-f14230a2e425"},"vehicle_type_id":"4","last_reported":1701011189,"current_range_meters":23600,"station_id":"ce4bgv12rcd13ifvqcp0","pricing_plan_id":"free"},{"bike_id":"95553aa8-c7f6-4f2a-a549-8e20097217b3","system_id":"levelo_inurba_marseille","lat":43.2968,"lon":5.37291,"is_reserved":false,"is_disabled":false,"rental_uris":{"android":"levelo://app?vid=95553aa8-c7f6-4f2a-a549-8e20097217b3","ios":"levelo://app?vid=95553aa8-c7f6-4f2a-a549-8e20097217b3"},"vehicle_type_id":"4","last_reported":1701011189,"current_range_meters":0,"station_id":"ce4bgk12rcd13ifvqbj0","pricing_plan_id":"free"},{"bike_id":"a5a28923-0bc2-4ef7-9c94-bee568f66683","system_id":"levelo_inurba_marseille","lat":43.296131,"lon":5.370773,"is_reserved":false,"is_disabled":false,"rental_uris":{"android":"levelo://app?vid=a5a28923-0bc2-4ef7-9c94-bee568f66683","ios":"levelo://app?vid=a5a28923-0bc2-4ef7-9c94-bee568f66683"},"vehicle_type_id":"4","last_reported":1701011189,"current_range_meters":26800,"station_id":"ce4bgnh2rcd13ifvqc0g","pricing_plan_id":"free"},{"bike_id":"dc2211ca-199b-46f2-bc29-ce351293d788","system_id":"levelo_inurba_marseille","lat":43.296921,"lon":5.376579,"is_reserved":false,"is_disabled":false,"rental_uris":{"android":"levelo://app?vid=dc2211ca-199b-46f2-bc29-ce351293d788","ios":"levelo://app?vid=dc2211ca-199b-46f2-bc29-ce351293d788"},"vehicle_type_id":"4","last_reported":1701011189,"current_range_meters":1600,"station_id":"ce4bgkh2rcd13ifvqbl0","pricing_plan_id":"free"},{"bike_id":"c2fcd6ea-1093-4084-9882-d3312ba1ca79","system_id":"levelo_inurba_marseille","lat":43.3095,"lon":5.39021,"is_reserved":false,"is_disabled":false,"rental_uris":{"android":"levelo://app?vid=c2fcd6ea-1093-4084-9882-d3312ba1ca79","ios":"levelo://app?vid=c2fcd6ea-1093-4084-9882-d3312ba1ca79"},"vehicle_type_id":"4","last_reported":1701011189,"current_range_meters":3600,"station_id":"ce4bgup2rcd13ifvqco0","pricing_plan_id":"free"},{"bike_id":"2b01ee50-8c60-48f9-88fe-9818f4a4704a","system_id":"levelo_inurba_marseille","lat":43.296921,"lon":5.376579,"is_reserved":false,"is_disabled":false,"rental_uris":{"android":"levelo://app?vid=2b01ee50-8c60-48f9-88fe-9818f4a4704a","ios":"levelo://app?vid=2b01ee50-8c60-48f9-88fe-9818f4a4704a"},"vehicle_type_id":"4","last_reported":1701011189,"current_range_meters":28000,"station_id":"ce4bgkh2rcd13ifvqbl0","pricing_plan_id":"free"},{"bike_id":"d3f2fcb6-0fb7-440a-a53c-9a6deabff7f8","system_id":"levelo_inurba_marseille","lat":43.296935,"lon":5.376544,"is_reserved":false,"is_disabled":false,"rental_uris":{"android":"levelo://app?vid=d3f2fcb6-0fb7-440a-a53c-9a6deabff7f8","ios":"levelo://app?vid=d3f2fcb6-0fb7-440a-a53c-9a6deabff7f8"},"vehicle_type_id":"4","last_reported":1701011189,"current_range_meters":25200,"station_id":"ce4bgkh2rcd13ifvqbl0","pricing_plan_id":"free"},{"bike_id":"a3f8a424-5256-4329-81ee-27b1d7ebff03","system_id":"levelo_inurba_marseille","lat":43.29578,"lon":5.37505,"is_reserved":false,"is_disabled":false,"rental_uris":{"android":"levelo://app?vid=a3f8a424-5256-4329-81ee-27b1d7ebff03","ios":"levelo://app?vid=a3f8a424-5256-4329-81ee-27b1d7ebff03"},"vehicle_type_id":"4","last_reported":1701011189,"current_range_meters":0,"station_id":"ce4bgh92rcd13ifvqb50","pricing_plan_id":"free"},{"bike_id":"eb53530e-3aeb-40e1-b80e-c8a89a281a77","system_id":"levelo_inurba_marseille","lat":43.304274,"lon":5.388873,"is_reserved":false,"is_disabled":false,"rental_uris":{"android":"levelo://app?vid=eb53530e-3aeb-40e1-b80e-c8a89a281a77","ios":"levelo://app?vid=eb53530e-3aeb-40e1-b80e-c8a89a281a77"},"vehicle_type_id":"4","last_reported":1701011189,"current_range_meters":19600,"station_id":"ce4bgk12rcd13ifvqbi0","pricing_plan_id":"free"},{"bike_id":"4978b40e-9cee-4d0c-b9d1-deb65b63067e","system_id":"levelo_inurba_marseille","lat":43.299707,"lon":5.384859,"is_reserved":false,"is_disabled":false,"rental_uris":{"android":"levelo://app?vid=4978b40e-9cee-4d0c-b9d1-deb65b63067e","ios":"levelo://app?vid=4978b40e-9cee-4d0c-b9d1-deb65b63067e"},"vehicle_type_id":"4","last_reported":1701011189,"current_range_meters":26000,"station_id":"ce4bgj92rcd13ifvqbd0","pricing_plan_id":"free"},{"bike_id":"6b621983-5e9e-42f7-990d-ad5a093820d2","system_id":"levelo_inurba_marseille","lat":43.293801,"lon":5.363066,"is_reserved":false,"is_disabled":false,"rental_uris":{"android":"levelo://app?vid=6b621983-5e9e-42f7-990d-ad5a093820d2","ios":"levelo://app?vid=6b621983-5e9e-42f7-990d-ad5a093820d2"},"vehicle_type_id":"4","last_reported":1701011189,"current_range_meters":0,"station_id":"","pricing_plan_id":"free"},{"bike_id":"c91caa24-ccd9-44a0-a7dc-ef3dd0691d85","system_id":"levelo_inurba_marseille","lat":43.29525,"lon":5.37908,"is_reserved":false,"is_disabled":false,"rental_uris":{"android":"levelo://app?vid=c91caa24-ccd9-44a0-a7dc-ef3dd0691d85","ios":"levelo://app?vid=c91caa24-ccd9-44a0-a7dc-ef3dd0691d85"},"vehicle_type_id":"4","last_reported":1701011189,"current_range_meters":15600,"station_id":"","pricing_plan_id":"free"},{"bike_id":"8a50a1c2-e8f3-460d-8d28-dd9ea2077927","system_id":"levelo_inurba_marseille","lat":43.29601,"lon":5.381084,"is_reserved":false,"is_disabled":false,"rental_uris":{"android":"levelo://app?vid=8a50a1c2-e8f3-460d-8d28-dd9ea2077927","ios":"levelo://app?vid=8a50a1c2-e8f3-460d-8d28-dd9ea2077927"},"vehicle_type_id":"4","last_reported":1701011189,"current_range_meters":4000,"station_id":"ce4bgl12rcd13ifvqbo0","pricing_plan_id":"free"},{"bike_id":"b9054d94-6d62-4713-a82f-915b1cbc1b80","system_id":"levelo_inurba_marseille","lat":43.29601,"lon":5.381084,"is_reserved":false,"is_disabled":false,"rental_uris":{"android":"levelo://app?vid=b9054d94-6d62-4713-a82f-915b1cbc1b80","ios":"levelo://app?vid=b9054d94-6d62-4713-a82f-915b1cbc1b80"},"vehicle_type_id":"4","last_reported":1701011189,"current_range_meters":8400,"station_id":"ce4bgl12rcd13ifvqbo0","pricing_plan_id":"free"},{"bike_id":"417ee068-ba3f-49d6-b057-4f34ded2f519","system_id":"levelo_inurba_marseille","lat":43.293259,"lon":5.371586,"is_reserved":false,"is_disabled":false,"rental_uris":{"android":"levelo://app?vid=417ee068-ba3f-49d6-b057-4f34ded2f519","ios":"levelo://app?vid=417ee068-ba3f-49d6-b057-4f34ded2f519"},"vehicle_type_id":"4","last_reported":1701011189,"current_range_meters":16400,"station_id":"ce4bgh92rcd13ifvqb40","pricing_plan_id":"free"},{"bike_id":"f3e84612-96b8-4c52-8a65-03b89bd27c93","system_id":"levelo_inurba_marseille","lat":43.293009,"lon":5.374584,"is_reserved":false,"is_disabled":false,"rental_uris":{"android":"levelo://app?vid=f3e84612-96b8-4c52-8a65-03b89bd27c93","ios":"levelo://app?vid=f3e84612-96b8-4c52-8a65-03b89bd27c93"},"vehicle_type_id":"4","last_reported":1701011189,"current_range_meters":2400,"station_id":"ce4bgi12rcd13ifvqb70","pricing_plan_id":"free"},{"bike_id":"633f939b-a6cc-4d14-a3a1-dea6cd5c876d","system_id":"levelo_inurba_marseille","lat":43.30596,"lon":5.3936,"is_reserved":false,"is_disabled":false,"rental_uris":{"android":"levelo://app?vid=633f939b-a6cc-4d14-a3a1-dea6cd5c876d","ios":"levelo://app?vid=633f939b-a6cc-4d14-a3a1-dea6cd5c876d"},"vehicle_type_id":"4","last_reported":1701011189,"current_range_meters":0,"station_id":"ce4bh0p2rcd13ifvqd80","pricing_plan_id":"free"},{"bike_id":"cd146b1f-1600-4fdc-aada-134a3dc77e6a","system_id":"levelo_inurba_marseille","lat":43.293009,"lon":5.374584,"is_reserved":false,"is_disabled":false,"rental_uris":{"android":"levelo://app?vid=cd146b1f-1600-4fdc-aada-134a3dc77e6a","ios":"levelo://app?vid=cd146b1f-1600-4fdc-aada-134a3dc77e6a"},"vehicle_type_id":"4","last_reported":1701011189,"current_range_meters":26400,"station_id":"ce4bgi12rcd13ifvqb70","pricing_plan_id":"free"},{"bike_id":"f50cb402-369a-437b-bbff-08a6e2a7f5af","system_id":"levelo_inurba_marseille","lat":43.309047,"lon":5.396551,"is_reserved":false,"is_disabled":false,"rental_uris":{"android":"levelo://app?vid=f50cb402-369a-437b-bbff-08a6e2a7f5af","ios":"levelo://app?vid=f50cb402-369a-437b-bbff-08a6e2a7f5af"},"vehicle_type_id":"4","last_reported":1701011189,"current_range_meters":15600,"station_id":"ce4bh012rcd13ifvqcv0","pricing_plan_id":"free"},{"bike_id":"9ab030ef-2ec1-4c7d-846d-084665a94010","system_id":"levelo_inurba_marseille","lat":43.313291,"lon":5.396838,"is_reserved":false,"is_disabled":false,"rental_uris":{"android":"levelo://app?vid=9ab030ef-2ec1-4c7d-846d-084665a94010","ios":"levelo://app?vid=9ab030ef-2ec1-4c7d-846d-084665a94010"},"vehicle_type_id":"4","last_reported":1701011189,"current_range_meters":4800,"station_id":"ce4bgvp2rcd13ifvqcu0","pricing_plan_id":"free"},{"bike_id":"19a87c99-3d0d-426b-92b7-bd00e8979439","system_id":"levelo_inurba_marseille","lat":43.31328,"lon":5.39694,"is_reserved":false,"is_disabled":false,"rental_uris":{"android":"levelo://app?vid=19a87c99-3d0d-426b-92b7-bd00e8979439","ios":"levelo://app?vid=19a87c99-3d0d-426b-92b7-bd00e8979439"},"vehicle_type_id":"4","last_reported":1701011189,"current_range_meters":8800,"station_id":"ce4bgvp2rcd13ifvqcu0","pricing_plan_id":"free"},{"bike_id":"60650f91-ef42-47b9-830d-f2fa82e739d2","system_id":"levelo_inurba_marseille","lat":43.309038,"lon":5.396546,"is_reserved":false,"is_disabled":false,"rental_uris":{"android":"levelo://app?vid=60650f91-ef42-47b9-830d-f2fa82e739d2","ios":"levelo://app?vid=60650f91-ef42-47b9-830d-f2fa82e739d2"},"vehicle_type_id":"4","last_reported":1701011189,"current_range_meters":28800,"station_id":"ce4bh012rcd13ifvqcv0","pricing_plan_id":"free"},{"bike_id":"d9829525-fac3-4f87-9bdf-3ce442818fd1","system_id":"levelo_inurba_marseille","lat":43.29529,"lon":5.385581,"is_reserved":false,"is_disabled":false,"rental_uris":{"android":"levelo://app?vid=d9829525-fac3-4f87-9bdf-3ce442818fd1","ios":"levelo://app?vid=d9829525-fac3-4f87-9bdf-3ce442818fd1"},"vehicle_type_id":"4","last_reported":1701011189,"current_range_meters":4000,"station_id":"ce4bgih2rcd13ifvqba0","pricing_plan_id":"free"},{"bike_id":"b8e91941-b598-40d5-9f72-0e9f89c911f0","system_id":"levelo_inurba_marseille","lat":43.302008,"lon":5.394694,"is_reserved":false,"is_disabled":false,"rental_uris":{"android":"levelo://app?vid=b8e91941-b598-40d5-9f72-0e9f89c911f0","ios":"levelo://app?vid=b8e91941-b598-40d5-9f72-0e9f89c911f0"},"vehicle_type_id":"4","last_reported":1701011189,"current_range_meters":3200,"station_id":"ce4bh0p2rcd13ifvqd70","pricing_plan_id":"free"},{"bike_id":"3a53720d-5d35-470b-ab73-78eada8887e7","system_id":"levelo_inurba_marseille","lat":43.290327,"lon":5.375711,"is_reserved":false,"is_disabled":false,"rental_uris":{"android":"levelo://app?vid=3a53720d-5d35-470b-ab73-78eada8887e7","ios":"levelo://app?vid=3a53720d-5d35-470b-ab73-78eada8887e7"},"vehicle_type_id":"4","last_reported":1701011189,"current_range_meters":7600,"station_id":"ce4bh692rcd13ifvqe90","pricing_plan_id":"free"},{"bike_id":"43009fec-3fec-48e0-9f65-6e529346ac7a","system_id":"levelo_inurba_marseille","lat":43.292642,"lon":5.384254,"is_reserved":false,"is_disabled":false,"rental_uris":{"android":"levelo://app?vid=43009fec-3fec-48e0-9f65-6e529346ac7a","ios":"levelo://app?vid=43009fec-3fec-48e0-9f65-6e529346ac7a"},"vehicle_type_id":"4","last_reported":1701011189,"current_range_meters":26000,"station_id":"ce4bh692rcd13ifvqea0","pricing_plan_id":"free"},{"bike_id":"f106b528-6008-48ea-988b-de54da788910","system_id":"levelo_inurba_marseille","lat":43.29779,"lon":5.39336,"is_reserved":false,"is_disabled":false,"rental_uris":{"android":"levelo://app?vid=f106b528-6008-48ea-988b-de54da788910","ios":"levelo://app?vid=f106b528-6008-48ea-988b-de54da788910"},"vehicle_type_id":"4","last_reported":1701011189,"current_range_meters":23200,"station_id":"chh1huq6cuj3fo74tm60","pricing_plan_id":"free"},{"bike_id":"bc397dca-9c45-4918-98e3-1e8ee6b2f3c1","system_id":"levelo_inurba_marseille","lat":43.2901,"lon":5.381269,"is_reserved":false,"is_disabled":false,"rental_uris":{"android":"levelo://app?vid=bc397dca-9c45-4918-98e3-1e8ee6b2f3c1","ios":"levelo://app?vid=bc397dca-9c45-4918-98e3-1e8ee6b2f3c1"},"vehicle_type_id":"4","last_reported":1701011189,"current_range_meters":18800,"station_id":"ce4bh4p2rcd13ifvqe1g","pricing_plan_id":"free"},{"bike_id":"9dd512cb-1da4-425d-942e-c20474143127","system_id":"levelo_inurba_marseille","lat":43.33769,"lon":5.37432,"is_reserved":false,"is_disabled":false,"rental_uris":{"android":"levelo://app?vid=9dd512cb-1da4-425d-942e-c20474143127","ios":"levelo://app?vid=9dd512cb-1da4-425d-942e-c20474143127"},"vehicle_type_id":"4","last_reported":1701011189,"current_range_meters":25600,"station_id":"","pricing_plan_id":"free"},{"bike_id":"328bfe5d-ff58-4ac7-8b20-e5fb37945b8d","system_id":"levelo_inurba_marseille","lat":43.301117,"lon":5.398795,"is_reserved":false,"is_disabled":false,"rental_uris":{"android":"levelo://app?vid=328bfe5d-ff58-4ac7-8b20-e5fb37945b8d","ios":"levelo://app?vid=328bfe5d-ff58-4ac7-8b20-e5fb37945b8d"},"vehicle_type_id":"4","last_reported":1701011189,"current_range_meters":400,"station_id":"ce4bh0h2rcd13ifvqd40","pricing_plan_id":"free"},{"bike_id":"601a5cf3-3fed-4b89-964e-0b65a80a8239","system_id":"levelo_inurba_marseille","lat":43.3377,"lon":5.37447,"is_reserved":false,"is_disabled":false,"rental_uris":{"android":"levelo://app?vid=601a5cf3-3fed-4b89-964e-0b65a80a8239","ios":"levelo://app?vid=601a5cf3-3fed-4b89-964e-0b65a80a8239"},"vehicle_type_id":"4","last_reported":1701011189,"current_range_meters":28800,"station_id":"","pricing_plan_id":"free"},{"bike_id":"5e4c6411-3567-479a-84ab-8dea39c8bcd2","system_id":"levelo_inurba_marseille","lat":43.298681,"lon":5.397225,"is_reserved":false,"is_disabled":false,"rental_uris":{"android":"levelo://app?vid=5e4c6411-3567-479a-84ab-8dea39c8bcd2","ios":"levelo://app?vid=5e4c6411-3567-479a-84ab-8dea39c8bcd2"},"vehicle_type_id":"4","last_reported":1701011189,"current_range_meters":14800,"station_id":"ce4bh0h2rcd13ifvqd50","pricing_plan_id":"free"},{"bike_id":"a7d2f509-6110-419c-8231-3ad513572ebd","system_id":"levelo_inurba_marseille","lat":43.286961,"lon":5.373785,"is_reserved":false,"is_disabled":false,"rental_uris":{"android":"levelo://app?vid=a7d2f509-6110-419c-8231-3ad513572ebd","ios":"levelo://app?vid=a7d2f509-6110-419c-8231-3ad513572ebd"},"vehicle_type_id":"4","last_reported":1701011189,"current_range_meters":0,"station_id":"ce4bh3p2rcd13ifvqdq0","pricing_plan_id":"free"},{"bike_id":"613c895d-1fb0-49c9-be18-1b934bb2e3ea","system_id":"levelo_inurba_marseille","lat":43.302759,"lon":5.400793,"is_reserved":false,"is_disabled":false,"rental_uris":{"android":"levelo://app?vid=613c895d-1fb0-49c9-be18-1b934bb2e3ea","ios":"levelo://app?vid=613c895d-1fb0-49c9-be18-1b934bb2e3ea"},"vehicle_type_id":"4","last_reported":1701011189,"current_range_meters":2400,"station_id":"ce4bgvh2rcd13ifvqcs0","pricing_plan_id":"free"},{"bike_id":"03f52899-de89-4c91-b068-c191312430ee","system_id":"levelo_inurba_marseille","lat":43.286039,"lon":5.370679,"is_reserved":false,"is_disabled":false,"rental_uris":{"android":"levelo://app?vid=03f52899-de89-4c91-b068-c191312430ee","ios":"levelo://app?vid=03f52899-de89-4c91-b068-c191312430ee"},"vehicle_type_id":"4","last_reported":1701011189,"current_range_meters":29200,"station_id":"ce4bht12rcd13ifvqi60","pricing_plan_id":"free"},{"bike_id":"5b5f61b4-b77b-4311-9d47-e2336d8cfbd3","system_id":"levelo_inurba_marseille","lat":43.286039,"lon":5.370679,"is_reserved":false,"is_disabled":false,"rental_uris":{"android":"levelo://app?vid=5b5f61b4-b77b-4311-9d47-e2336d8cfbd3","ios":"levelo://app?vid=5b5f61b4-b77b-4311-9d47-e2336d8cfbd3"},"vehicle_type_id":"4","last_reported":1701011189,"current_range_meters":27200,"station_id":"ce4bht12rcd13ifvqi60","pricing_plan_id":"free"},{"bike_id":"1a5733cd-1f9b-4e10-b6bf-57b54da7eda4","system_id":"levelo_inurba_marseille","lat":43.291994,"lon":5.392907,"is_reserved":false,"is_disabled":false,"rental_uris":{"android":"levelo://app?vid=1a5733cd-1f9b-4e10-b6bf-57b54da7eda4","ios":"levelo://app?vid=1a5733cd-1f9b-4e10-b6bf-57b54da7eda4"},"vehicle_type_id":"4","last_reported":1701011189,"current_range_meters":800,"station_id":"ce4bh192rcd13ifvqdd0","pricing_plan_id":"free"},{"bike_id":"34ba74cc-e040-4f35-93b2-2c3ced29ad8a","system_id":"levelo_inurba_marseille","lat":43.285848,"lon":5.350787,"is_reserved":false,"is_disabled":false,"rental_uris":{"android":"levelo://app?vid=34ba74cc-e040-4f35-93b2-2c3ced29ad8a","ios":"levelo://app?vid=34ba74cc-e040-4f35-93b2-2c3ced29ad8a"},"vehicle_type_id":"4","last_reported":1701011189,"current_range_meters":12000,"station_id":"ce4bhch2rcd13ifvqeug","pricing_plan_id":"free"},{"bike_id":"2e2692b9-7f45-4465-a5e3-9ccc7177fdf6","system_id":"levelo_inurba_marseille","lat":43.285848,"lon":5.350787,"is_reserved":false,"is_disabled":false,"rental_uris":{"android":"levelo://app?vid=2e2692b9-7f45-4465-a5e3-9ccc7177fdf6","ios":"levelo://app?vid=2e2692b9-7f45-4465-a5e3-9ccc7177fdf6"},"vehicle_type_id":"4","last_reported":1701011189,"current_range_meters":0,"station_id":"ce4bhch2rcd13ifvqeug","pricing_plan_id":"free"},{"bike_id":"f9712a99-3551-42a4-8118-95673c4c8775","system_id":"levelo_inurba_marseille","lat":43.286137,"lon":5.351065,"is_reserved":false,"is_disabled":false,"rental_uris":{"android":"levelo://app?vid=f9712a99-3551-42a4-8118-95673c4c8775","ios":"levelo://app?vid=f9712a99-3551-42a4-8118-95673c4c8775"},"vehicle_type_id":"4","last_reported":1701011189,"current_range_meters":4400,"station_id":"ce4bhch2rcd13ifvqeug","pricing_plan_id":"free"},{"bike_id":"dfbe7ccb-60b5-4ede-8244-bb94470c5d84","system_id":"levelo_inurba_marseille","lat":43.28623,"lon":5.384,"is_reserved":false,"is_disabled":false,"rental_uris":{"android":"levelo://app?vid=dfbe7ccb-60b5-4ede-8244-bb94470c5d84","ios":"levelo://app?vid=dfbe7ccb-60b5-4ede-8244-bb94470c5d84"},"vehicle_type_id":"4","last_reported":1701011189,"current_range_meters":30000,"station_id":"","pricing_plan_id":"free"},{"bike_id":"2732c6e1-ba9b-4728-bc9c-416cbfa3834a","system_id":"levelo_inurba_marseille","lat":43.28406,"lon":5.37504,"is_reserved":false,"is_disabled":false,"rental_uris":{"android":"levelo://app?vid=2732c6e1-ba9b-4728-bc9c-416cbfa3834a","ios":"levelo://app?vid=2732c6e1-ba9b-4728-bc9c-416cbfa3834a"},"vehicle_type_id":"4","last_reported":1701011189,"current_range_meters":20000,"station_id":"ce4bh412rcd13ifvqds0","pricing_plan_id":"free"},{"bike_id":"45f59ea6-48ff-44c7-b251-54fe5dbba482","system_id":"levelo_inurba_marseille","lat":43.286595,"lon":5.386795,"is_reserved":false,"is_disabled":false,"rental_uris":{"android":"levelo://app?vid=45f59ea6-48ff-44c7-b251-54fe5dbba482","ios":"levelo://app?vid=45f59ea6-48ff-44c7-b251-54fe5dbba482"},"vehicle_type_id":"4","last_reported":1701011189,"current_range_meters":10000,"station_id":"ce4bh492rcd13ifvqdug","pricing_plan_id":"free"},{"bike_id":"d7291cda-b47c-4b21-ad1d-adea30d670c7","system_id":"levelo_inurba_marseille","lat":43.319179,"lon":5.407725,"is_reserved":false,"is_disabled":false,"rental_uris":{"android":"levelo://app?vid=d7291cda-b47c-4b21-ad1d-adea30d670c7","ios":"levelo://app?vid=d7291cda-b47c-4b21-ad1d-adea30d670c7"},"vehicle_type_id":"4","last_reported":1701011189,"current_range_meters":9200,"station_id":"ce4bhq12rcd13ifvqhig","pricing_plan_id":"free"},{"bike_id":"bf87460a-8952-4388-acb8-8493f42631f5","system_id":"levelo_inurba_marseille","lat":43.284793,"lon":5.384113,"is_reserved":false,"is_disabled":false,"rental_uris":{"android":"levelo://app?vid=bf87460a-8952-4388-acb8-8493f42631f5","ios":"levelo://app?vid=bf87460a-8952-4388-acb8-8493f42631f5"},"vehicle_type_id":"4","last_reported":1701011189,"current_range_meters":0,"station_id":"ce4bh512rcd13ifvqe3g","pricing_plan_id":"free"},{"bike_id":"06595803-8888-46db-bcb9-cf7e28c1beed","system_id":"levelo_inurba_marseille","lat":43.289363,"lon":5.396322,"is_reserved":false,"is_disabled":false,"rental_uris":{"android":"levelo://app?vid=06595803-8888-46db-bcb9-cf7e28c1beed","ios":"levelo://app?vid=06595803-8888-46db-bcb9-cf7e28c1beed"},"vehicle_type_id":"4","last_reported":1701011189,"current_range_meters":28000,"station_id":"ce4bh3h2rcd13ifvqdn0","pricing_plan_id":"free"},{"bike_id":"20b32bd9-13fe-4db2-a557-1b78ae0212f6","system_id":"levelo_inurba_marseille","lat":43.289363,"lon":5.396322,"is_reserved":false,"is_disabled":false,"rental_uris":{"android":"levelo://app?vid=20b32bd9-13fe-4db2-a557-1b78ae0212f6","ios":"levelo://app?vid=20b32bd9-13fe-4db2-a557-1b78ae0212f6"},"vehicle_type_id":"4","last_reported":1701011189,"current_range_meters":24800,"station_id":"ce4bh3h2rcd13ifvqdn0","pricing_plan_id":"free"},{"bike_id":"e2284003-4e46-4e0a-93e7-73d05c3666d9","system_id":"levelo_inurba_marseille","lat":43.33508,"lon":5.397755,"is_reserved":false,"is_disabled":false,"rental_uris":{"android":"levelo://app?vid=e2284003-4e46-4e0a-93e7-73d05c3666d9","ios":"levelo://app?vid=e2284003-4e46-4e0a-93e7-73d05c3666d9"},"vehicle_type_id":"4","last_reported":1701011189,"current_range_meters":18400,"station_id":"","pricing_plan_id":"free"},{"bike_id":"e175ecf3-28f0-41c6-ad19-53d30c907dc9","system_id":"levelo_inurba_marseille","lat":43.28039,"lon":5.369297,"is_reserved":false,"is_disabled":false,"rental_uris":{"android":"levelo://app?vid=e175ecf3-28f0-41c6-ad19-53d30c907dc9","ios":"levelo://app?vid=e175ecf3-28f0-41c6-ad19-53d30c907dc9"},"vehicle_type_id":"4","last_reported":1701011189,"current_range_meters":13600,"station_id":"ce4bha12rcd13ifvqef0","pricing_plan_id":"free"},{"bike_id":"db239f9b-9ee1-44c2-b0dc-fbb1e2f2760c","system_id":"levelo_inurba_marseille","lat":43.28036,"lon":5.36937,"is_reserved":false,"is_disabled":false,"rental_uris":{"android":"levelo://app?vid=db239f9b-9ee1-44c2-b0dc-fbb1e2f2760c","ios":"levelo://app?vid=db239f9b-9ee1-44c2-b0dc-fbb1e2f2760c"},"vehicle_type_id":"4","last_reported":1701011189,"current_range_meters":10000,"station_id":"ce4bha12rcd13ifvqef0","pricing_plan_id":"free"},{"bike_id":"bcd500b3-23bc-4e91-bb16-1c1d37a048b8","system_id":"levelo_inurba_marseille","lat":43.280333,"lon":5.369374,"is_reserved":false,"is_disabled":false,"rental_uris":{"android":"levelo://app?vid=bcd500b3-23bc-4e91-bb16-1c1d37a048b8","ios":"levelo://app?vid=bcd500b3-23bc-4e91-bb16-1c1d37a048b8"},"vehicle_type_id":"4","last_reported":1701011189,"current_range_meters":17600,"station_id":"ce4bha12rcd13ifvqef0","pricing_plan_id":"free"},{"bike_id":"590f26cb-4a23-4cbc-932c-c59bd3497aa8","system_id":"levelo_inurba_marseille","lat":43.281044,"lon":5.378308,"is_reserved":false,"is_disabled":false,"rental_uris":{"android":"levelo://app?vid=590f26cb-4a23-4cbc-932c-c59bd3497aa8","ios":"levelo://app?vid=590f26cb-4a23-4cbc-932c-c59bd3497aa8"},"vehicle_type_id":"4","last_reported":1701011189,"current_range_meters":9200,"station_id":"ce4bha12rcd13ifvqee0","pricing_plan_id":"free"},{"bike_id":"e8fbb8dd-75fb-4321-ac37-fe809e2fe6ba","system_id":"levelo_inurba_marseille","lat":43.296263,"lon":5.40601,"is_reserved":false,"is_disabled":false,"rental_uris":{"android":"levelo://app?vid=e8fbb8dd-75fb-4321-ac37-fe809e2fe6ba","ios":"levelo://app?vid=e8fbb8dd-75fb-4321-ac37-fe809e2fe6ba"},"vehicle_type_id":"4","last_reported":1701011189,"current_range_meters":14400,"station_id":"ce4bh0h2rcd13ifvqd60","pricing_plan_id":"free"},{"bike_id":"0a091674-0083-44fe-8226-8cfd39dea2d0","system_id":"levelo_inurba_marseille","lat":43.281044,"lon":5.378308,"is_reserved":false,"is_disabled":false,"rental_uris":{"android":"levelo://app?vid=0a091674-0083-44fe-8226-8cfd39dea2d0","ios":"levelo://app?vid=0a091674-0083-44fe-8226-8cfd39dea2d0"},"vehicle_type_id":"4","last_reported":1701011189,"current_range_meters":24000,"station_id":"ce4bha12rcd13ifvqee0","pricing_plan_id":"free"},{"bike_id":"2205432c-6953-4250-b73e-642c95a6fb23","system_id":"levelo_inurba_marseille","lat":43.285742,"lon":5.395004,"is_reserved":false,"is_disabled":false,"rental_uris":{"android":"levelo://app?vid=2205432c-6953-4250-b73e-642c95a6fb23","ios":"levelo://app?vid=2205432c-6953-4250-b73e-642c95a6fb23"},"vehicle_type_id":"4","last_reported":1701011189,"current_range_meters":400,"station_id":"ce4bh292rcd13ifvqdg0","pricing_plan_id":"free"},{"bike_id":"32de645e-a8b8-4a0c-a587-6714c453bded","system_id":"levelo_inurba_marseille","lat":43.287154,"lon":5.399979,"is_reserved":false,"is_disabled":false,"rental_uris":{"android":"levelo://app?vid=32de645e-a8b8-4a0c-a587-6714c453bded","ios":"levelo://app?vid=32de645e-a8b8-4a0c-a587-6714c453bded"},"vehicle_type_id":"4","last_reported":1701011189,"current_range_meters":22400,"station_id":"ce4bho92rcd13ifvqh3g","pricing_plan_id":"free"},{"bike_id":"fec3f6a4-6563-4511-9b6c-aa69ea4cb095","system_id":"levelo_inurba_marseille","lat":43.287154,"lon":5.399979,"is_reserved":false,"is_disabled":false,"rental_uris":{"android":"levelo://app?vid=fec3f6a4-6563-4511-9b6c-aa69ea4cb095","ios":"levelo://app?vid=fec3f6a4-6563-4511-9b6c-aa69ea4cb095"},"vehicle_type_id":"4","last_reported":1701011189,"current_range_meters":23200,"station_id":"ce4bho92rcd13ifvqh3g","pricing_plan_id":"free"},{"bike_id":"d1c4c1e9-927c-4fa2-8796-3816f3f8cf11","system_id":"levelo_inurba_marseille","lat":43.28697,"lon":5.39998,"is_reserved":false,"is_disabled":false,"rental_uris":{"android":"levelo://app?vid=d1c4c1e9-927c-4fa2-8796-3816f3f8cf11","ios":"levelo://app?vid=d1c4c1e9-927c-4fa2-8796-3816f3f8cf11"},"vehicle_type_id":"4","last_reported":1701011189,"current_range_meters":27600,"station_id":"ce4bho92rcd13ifvqh3g","pricing_plan_id":"free"},{"bike_id":"22f4f82c-f7ed-4ee6-8a47-73399a1c62cb","system_id":"levelo_inurba_marseille","lat":43.320045,"lon":5.415046,"is_reserved":false,"is_disabled":false,"rental_uris":{"android":"levelo://app?vid=22f4f82c-f7ed-4ee6-8a47-73399a1c62cb","ios":"levelo://app?vid=22f4f82c-f7ed-4ee6-8a47-73399a1c62cb"},"vehicle_type_id":"4","last_reported":1701011189,"current_range_meters":26800,"station_id":"ce4bhq92rcd13ifvqhkg","pricing_plan_id":"free"},{"bike_id":"bfa294fa-6bee-4592-bcc1-d53a73835ae4","system_id":"levelo_inurba_marseille","lat":43.279742,"lon":5.38744,"is_reserved":false,"is_disabled":false,"rental_uris":{"android":"levelo://app?vid=bfa294fa-6bee-4592-bcc1-d53a73835ae4","ios":"levelo://app?vid=bfa294fa-6bee-4592-bcc1-d53a73835ae4"},"vehicle_type_id":"4","last_reported":1701011189,"current_range_meters":0,"station_id":"ce4bhg12rcd13ifvqf80","pricing_plan_id":"free"},{"bike_id":"6526cad1-2f4b-4db1-8d6b-ce04bc407b31","system_id":"levelo_inurba_marseille","lat":43.34883,"lon":5.37501,"is_reserved":false,"is_disabled":false,"rental_uris":{"android":"levelo://app?vid=6526cad1-2f4b-4db1-8d6b-ce04bc407b31","ios":"levelo://app?vid=6526cad1-2f4b-4db1-8d6b-ce04bc407b31"},"vehicle_type_id":"4","last_reported":1701011189,"current_range_meters":0,"station_id":"","pricing_plan_id":"free"},{"bike_id":"ecc2a98d-651a-4e61-85c0-b786d8e4a5ce","system_id":"levelo_inurba_marseille","lat":43.292569,"lon":5.409107,"is_reserved":false,"is_disabled":false,"rental_uris":{"android":"levelo://app?vid=ecc2a98d-651a-4e61-85c0-b786d8e4a5ce","ios":"levelo://app?vid=ecc2a98d-651a-4e61-85c0-b786d8e4a5ce"},"vehicle_type_id":"4","last_reported":1701011189,"current_range_meters":0,"station_id":"ce4bh192rcd13ifvqdc0","pricing_plan_id":"free"},{"bike_id":"56994e31-0e2f-494a-b661-61d18d1ab575","system_id":"levelo_inurba_marseille","lat":43.292567,"lon":5.409137,"is_reserved":false,"is_disabled":false,"rental_uris":{"android":"levelo://app?vid=56994e31-0e2f-494a-b661-61d18d1ab575","ios":"levelo://app?vid=56994e31-0e2f-494a-b661-61d18d1ab575"},"vehicle_type_id":"4","last_reported":1701011189,"current_range_meters":11600,"station_id":"","pricing_plan_id":"free"},{"bike_id":"72ada52b-df59-4cf8-8731-337d1eed0205","system_id":"levelo_inurba_marseille","lat":43.2762,"lon":5.3611,"is_reserved":false,"is_disabled":false,"rental_uris":{"android":"levelo://app?vid=72ada52b-df59-4cf8-8731-337d1eed0205","ios":"levelo://app?vid=72ada52b-df59-4cf8-8731-337d1eed0205"},"vehicle_type_id":"4","last_reported":1701011189,"current_range_meters":4000,"station_id":"ce4bgj92rcd13ifvqbe0","pricing_plan_id":"free"},{"bike_id":"b5338767-b784-437a-8eca-a869323394dd","system_id":"levelo_inurba_marseille","lat":43.276196,"lon":5.361065,"is_reserved":false,"is_disabled":false,"rental_uris":{"android":"levelo://app?vid=b5338767-b784-437a-8eca-a869323394dd","ios":"levelo://app?vid=b5338767-b784-437a-8eca-a869323394dd"},"vehicle_type_id":"4","last_reported":1701011189,"current_range_meters":26800,"station_id":"","pricing_plan_id":"free"},{"bike_id":"1044aa87-d71d-4dc9-906b-bd12abb6a78c","system_id":"levelo_inurba_marseille","lat":43.27614,"lon":5.36107,"is_reserved":false,"is_disabled":false,"rental_uris":{"android":"levelo://app?vid=1044aa87-d71d-4dc9-906b-bd12abb6a78c","ios":"levelo://app?vid=1044aa87-d71d-4dc9-906b-bd12abb6a78c"},"vehicle_type_id":"4","last_reported":1701011189,"current_range_meters":11600,"station_id":"ce4bgj92rcd13ifvqbe0","pricing_plan_id":"free"},{"bike_id":"eefa7589-d3e6-464e-b4c4-314d8d4000b6","system_id":"levelo_inurba_marseille","lat":43.276179,"lon":5.361009,"is_reserved":false,"is_disabled":false,"rental_uris":{"android":"levelo://app?vid=eefa7589-d3e6-464e-b4c4-314d8d4000b6","ios":"levelo://app?vid=eefa7589-d3e6-464e-b4c4-314d8d4000b6"},"vehicle_type_id":"4","last_reported":1701011189,"current_range_meters":0,"station_id":"ce4bgj92rcd13ifvqbe0","pricing_plan_id":"free"},{"bike_id":"45b45894-9395-4d70-b395-44e17a8b3bd7","system_id":"levelo_inurba_marseille","lat":43.276179,"lon":5.361009,"is_reserved":false,"is_disabled":false,"rental_uris":{"android":"levelo://app?vid=45b45894-9395-4d70-b395-44e17a8b3bd7","ios":"levelo://app?vid=45b45894-9395-4d70-b395-44e17a8b3bd7"},"vehicle_type_id":"4","last_reported":1701011189,"current_range_meters":22800,"station_id":"ce4bgj92rcd13ifvqbe0","pricing_plan_id":"free"},{"bike_id":"c25ea147-e804-4786-9d25-91f61a8ed59a","system_id":"levelo_inurba_marseille","lat":43.293651,"lon":5.41268,"is_reserved":false,"is_disabled":false,"rental_uris":{"android":"levelo://app?vid=c25ea147-e804-4786-9d25-91f61a8ed59a","ios":"levelo://app?vid=c25ea147-e804-4786-9d25-91f61a8ed59a"},"vehicle_type_id":"4","last_reported":1701011189,"current_range_meters":0,"station_id":"","pricing_plan_id":"free"},{"bike_id":"b0ed4a91-f4d2-43e8-b684-e4e09d3127b8","system_id":"levelo_inurba_marseille","lat":43.303837,"lon":5.418724,"is_reserved":false,"is_disabled":false,"rental_uris":{"android":"levelo://app?vid=b0ed4a91-f4d2-43e8-b684-e4e09d3127b8","ios":"levelo://app?vid=b0ed4a91-f4d2-43e8-b684-e4e09d3127b8"},"vehicle_type_id":"4","last_reported":1701011189,"current_range_meters":6400,"station_id":"ce4bhop2rcd13ifvqh7g","pricing_plan_id":"free"},{"bike_id":"d7d5ad38-a706-46bf-a9f7-837653392e36","system_id":"levelo_inurba_marseille","lat":43.303837,"lon":5.418724,"is_reserved":false,"is_disabled":false,"rental_uris":{"android":"levelo://app?vid=d7d5ad38-a706-46bf-a9f7-837653392e36","ios":"levelo://app?vid=d7d5ad38-a706-46bf-a9f7-837653392e36"},"vehicle_type_id":"4","last_reported":1701011189,"current_range_meters":16800,"station_id":"ce4bhop2rcd13ifvqh7g","pricing_plan_id":"free"},{"bike_id":"5ee57155-df57-4962-9544-56ad6c09b1e3","system_id":"levelo_inurba_marseille","lat":43.303837,"lon":5.418724,"is_reserved":false,"is_disabled":false,"rental_uris":{"android":"levelo://app?vid=5ee57155-df57-4962-9544-56ad6c09b1e3","ios":"levelo://app?vid=5ee57155-df57-4962-9544-56ad6c09b1e3"},"vehicle_type_id":"4","last_reported":1701011189,"current_range_meters":24400,"station_id":"ce4bhop2rcd13ifvqh7g","pricing_plan_id":"free"},{"bike_id":"320ec9ba-aaf9-4921-ae04-77b5f2811607","system_id":"levelo_inurba_marseille","lat":43.30348,"lon":5.41881,"is_reserved":false,"is_disabled":false,"rental_uris":{"android":"levelo://app?vid=320ec9ba-aaf9-4921-ae04-77b5f2811607","ios":"levelo://app?vid=320ec9ba-aaf9-4921-ae04-77b5f2811607"},"vehicle_type_id":"4","last_reported":1701011189,"current_range_meters":23200,"station_id":"ce4bhop2rcd13ifvqh7g","pricing_plan_id":"free"},{"bike_id":"12898eb4-4874-47bf-875a-52c2bc03bf82","system_id":"levelo_inurba_marseille","lat":43.273613,"lon":5.362705,"is_reserved":false,"is_disabled":false,"rental_uris":{"android":"levelo://app?vid=12898eb4-4874-47bf-875a-52c2bc03bf82","ios":"levelo://app?vid=12898eb4-4874-47bf-875a-52c2bc03bf82"},"vehicle_type_id":"4","last_reported":1701011189,"current_range_meters":22000,"station_id":"ce4bhbh2rcd13ifvqeo0","pricing_plan_id":"free"},{"bike_id":"54846df6-bea3-44fd-a647-07de9ca6c0df","system_id":"levelo_inurba_marseille","lat":43.273613,"lon":5.362705,"is_reserved":false,"is_disabled":false,"rental_uris":{"android":"levelo://app?vid=54846df6-bea3-44fd-a647-07de9ca6c0df","ios":"levelo://app?vid=54846df6-bea3-44fd-a647-07de9ca6c0df"},"vehicle_type_id":"4","last_reported":1701011189,"current_range_meters":2400,"station_id":"ce4bhbh2rcd13ifvqeo0","pricing_plan_id":"free"},{"bike_id":"e13a7a80-ed52-4cba-be68-cd9335026be8","system_id":"levelo_inurba_marseille","lat":43.273613,"lon":5.362705,"is_reserved":false,"is_disabled":false,"rental_uris":{"android":"levelo://app?vid=e13a7a80-ed52-4cba-be68-cd9335026be8","ios":"levelo://app?vid=e13a7a80-ed52-4cba-be68-cd9335026be8"},"vehicle_type_id":"4","last_reported":1701011189,"current_range_meters":18000,"station_id":"ce4bhbh2rcd13ifvqeo0","pricing_plan_id":"free"},{"bike_id":"8e1033de-5eef-44f6-9183-ab7f67067e43","system_id":"levelo_inurba_marseille","lat":43.273613,"lon":5.362705,"is_reserved":false,"is_disabled":false,"rental_uris":{"android":"levelo://app?vid=8e1033de-5eef-44f6-9183-ab7f67067e43","ios":"levelo://app?vid=8e1033de-5eef-44f6-9183-ab7f67067e43"},"vehicle_type_id":"4","last_reported":1701011189,"current_range_meters":5600,"station_id":"ce4bhbh2rcd13ifvqeo0","pricing_plan_id":"free"},{"bike_id":"764f2788-42bd-4966-86ae-52a0376f0e43","system_id":"levelo_inurba_marseille","lat":43.273613,"lon":5.362705,"is_reserved":false,"is_disabled":false,"rental_uris":{"android":"levelo://app?vid=764f2788-42bd-4966-86ae-52a0376f0e43","ios":"levelo://app?vid=764f2788-42bd-4966-86ae-52a0376f0e43"},"vehicle_type_id":"4","last_reported":1701011189,"current_range_meters":6000,"station_id":"ce4bhbh2rcd13ifvqeo0","pricing_plan_id":"free"},{"bike_id":"42166f01-c2c1-47f8-a532-0fb410d9fa6a","system_id":"levelo_inurba_marseille","lat":43.273613,"lon":5.362705,"is_reserved":false,"is_disabled":false,"rental_uris":{"android":"levelo://app?vid=42166f01-c2c1-47f8-a532-0fb410d9fa6a","ios":"levelo://app?vid=42166f01-c2c1-47f8-a532-0fb410d9fa6a"},"vehicle_type_id":"4","last_reported":1701011189,"current_range_meters":26000,"station_id":"ce4bhbh2rcd13ifvqeo0","pricing_plan_id":"free"},{"bike_id":"5c5d0e0c-afd8-4c6f-8977-762a2d1dfd5c","system_id":"levelo_inurba_marseille","lat":43.336148,"lon":5.410349,"is_reserved":false,"is_disabled":false,"rental_uris":{"android":"levelo://app?vid=5c5d0e0c-afd8-4c6f-8977-762a2d1dfd5c","ios":"levelo://app?vid=5c5d0e0c-afd8-4c6f-8977-762a2d1dfd5c"},"vehicle_type_id":"4","last_reported":1701011189,"current_range_meters":19200,"station_id":"ce4bhqh2rcd13ifvqhmg","pricing_plan_id":"free"},{"bike_id":"ce057962-e1f9-49c9-a466-b058d35d1eb2","system_id":"levelo_inurba_marseille","lat":43.336148,"lon":5.410349,"is_reserved":false,"is_disabled":false,"rental_uris":{"android":"levelo://app?vid=ce057962-e1f9-49c9-a466-b058d35d1eb2","ios":"levelo://app?vid=ce057962-e1f9-49c9-a466-b058d35d1eb2"},"vehicle_type_id":"4","last_reported":1701011189,"current_range_meters":20800,"station_id":"ce4bhqh2rcd13ifvqhmg","pricing_plan_id":"free"},{"bike_id":"385b4ad8-d720-4cd8-b62c-ec5e6923e41d","system_id":"levelo_inurba_marseille","lat":43.273609,"lon":5.362708,"is_reserved":false,"is_disabled":false,"rental_uris":{"android":"levelo://app?vid=385b4ad8-d720-4cd8-b62c-ec5e6923e41d","ios":"levelo://app?vid=385b4ad8-d720-4cd8-b62c-ec5e6923e41d"},"vehicle_type_id":"4","last_reported":1701011189,"current_range_meters":2000,"station_id":"ce4bhbh2rcd13ifvqeo0","pricing_plan_id":"free"},{"bike_id":"effb185b-90d2-4d52-8928-7a1f2044aea7","system_id":"levelo_inurba_marseille","lat":43.27996,"lon":5.4001,"is_reserved":false,"is_disabled":false,"rental_uris":{"android":"levelo://app?vid=effb185b-90d2-4d52-8928-7a1f2044aea7","ios":"levelo://app?vid=effb185b-90d2-4d52-8928-7a1f2044aea7"},"vehicle_type_id":"4","last_reported":1701011189,"current_range_meters":22800,"station_id":"ce4bho92rcd13ifvqh4g","pricing_plan_id":"free"},{"bike_id":"46a9bdfe-37a7-41d3-8b8f-b314d1641952","system_id":"levelo_inurba_marseille","lat":43.27997,"lon":5.40014,"is_reserved":false,"is_disabled":false,"rental_uris":{"android":"levelo://app?vid=46a9bdfe-37a7-41d3-8b8f-b314d1641952","ios":"levelo://app?vid=46a9bdfe-37a7-41d3-8b8f-b314d1641952"},"vehicle_type_id":"4","last_reported":1701011189,"current_range_meters":18000,"station_id":"ce4bho92rcd13ifvqh4g","pricing_plan_id":"free"},{"bike_id":"b17013e8-0b4c-43b6-a4bd-3e9acc0427b5","system_id":"levelo_inurba_marseille","lat":43.279952,"lon":5.400085,"is_reserved":false,"is_disabled":false,"rental_uris":{"android":"levelo://app?vid=b17013e8-0b4c-43b6-a4bd-3e9acc0427b5","ios":"levelo://app?vid=b17013e8-0b4c-43b6-a4bd-3e9acc0427b5"},"vehicle_type_id":"4","last_reported":1701011189,"current_range_meters":16800,"station_id":"ce4bho92rcd13ifvqh4g","pricing_plan_id":"free"},{"bike_id":"2bac63be-2248-4f83-9913-6fa6e719b914","system_id":"levelo_inurba_marseille","lat":43.31082,"lon":5.42427,"is_reserved":false,"is_disabled":false,"rental_uris":{"android":"levelo://app?vid=2bac63be-2248-4f83-9913-6fa6e719b914","ios":"levelo://app?vid=2bac63be-2248-4f83-9913-6fa6e719b914"},"vehicle_type_id":"4","last_reported":1701011189,"current_range_meters":12400,"station_id":"ce4bhp92rcd13ifvqhag","pricing_plan_id":"free"},{"bike_id":"7424a429-0fb8-48ee-b6d6-d90c89061a07","system_id":"levelo_inurba_marseille","lat":43.310785,"lon":5.424305,"is_reserved":false,"is_disabled":false,"rental_uris":{"android":"levelo://app?vid=7424a429-0fb8-48ee-b6d6-d90c89061a07","ios":"levelo://app?vid=7424a429-0fb8-48ee-b6d6-d90c89061a07"},"vehicle_type_id":"4","last_reported":1701011189,"current_range_meters":27600,"station_id":"ce4bhp92rcd13ifvqhag","pricing_plan_id":"free"},{"bike_id":"8eb5bdb0-5c9b-4999-93c3-a1a499ccf536","system_id":"levelo_inurba_marseille","lat":43.310785,"lon":5.424305,"is_reserved":false,"is_disabled":false,"rental_uris":{"android":"levelo://app?vid=8eb5bdb0-5c9b-4999-93c3-a1a499ccf536","ios":"levelo://app?vid=8eb5bdb0-5c9b-4999-93c3-a1a499ccf536"},"vehicle_type_id":"4","last_reported":1701011189,"current_range_meters":30800,"station_id":"ce4bhp92rcd13ifvqhag","pricing_plan_id":"free"},{"bike_id":"fdf98907-ba7b-4dc3-8886-2245ade32836","system_id":"levelo_inurba_marseille","lat":43.287154,"lon":5.399979,"is_reserved":false,"is_disabled":false,"rental_uris":{"android":"levelo://app?vid=fdf98907-ba7b-4dc3-8886-2245ade32836","ios":"levelo://app?vid=fdf98907-ba7b-4dc3-8886-2245ade32836"},"vehicle_type_id":"4","last_reported":1701011189,"current_range_meters":18000,"station_id":"ce4bho92rcd13ifvqh3g","pricing_plan_id":"free"},{"bike_id":"d53f32a6-814f-4f07-94f0-385ab9644adc","system_id":"levelo_inurba_marseille","lat":43.273819,"lon":5.390693,"is_reserved":false,"is_disabled":false,"rental_uris":{"android":"levelo://app?vid=d53f32a6-814f-4f07-94f0-385ab9644adc","ios":"levelo://app?vid=d53f32a6-814f-4f07-94f0-385ab9644adc"},"vehicle_type_id":"4","last_reported":1701011189,"current_range_meters":22000,"station_id":"","pricing_plan_id":"free"},{"bike_id":"a8aba4d7-b388-4431-8812-f9cc3a6d59c7","system_id":"levelo_inurba_marseille","lat":43.274103,"lon":5.394016,"is_reserved":false,"is_disabled":false,"rental_uris":{"android":"levelo://app?vid=a8aba4d7-b388-4431-8812-f9cc3a6d59c7","ios":"levelo://app?vid=a8aba4d7-b388-4431-8812-f9cc3a6d59c7"},"vehicle_type_id":"4","last_reported":1701011189,"current_range_meters":17600,"station_id":"ce4bhdp2rcd13ifvqf20","pricing_plan_id":"free"},{"bike_id":"4a840da3-fdbc-4633-9cc0-12e811d835c6","system_id":"levelo_inurba_marseille","lat":43.304096,"lon":5.425385,"is_reserved":false,"is_disabled":false,"rental_uris":{"android":"levelo://app?vid=4a840da3-fdbc-4633-9cc0-12e811d835c6","ios":"levelo://app?vid=4a840da3-fdbc-4633-9cc0-12e811d835c6"},"vehicle_type_id":"4","last_reported":1701011189,"current_range_meters":20000,"station_id":"ce4bhoh2rcd13ifvqh6g","pricing_plan_id":"free"},{"bike_id":"ce9f8bef-be75-42a4-a53c-1be64df297ab","system_id":"levelo_inurba_marseille","lat":43.30412,"lon":5.42549,"is_reserved":false,"is_disabled":false,"rental_uris":{"android":"levelo://app?vid=ce9f8bef-be75-42a4-a53c-1be64df297ab","ios":"levelo://app?vid=ce9f8bef-be75-42a4-a53c-1be64df297ab"},"vehicle_type_id":"4","last_reported":1701011189,"current_range_meters":12000,"station_id":"ce4bhoh2rcd13ifvqh6g","pricing_plan_id":"free"},{"bike_id":"70360c44-7f15-4d73-a1b4-78f1f432b724","system_id":"levelo_inurba_marseille","lat":43.295523,"lon":5.422926,"is_reserved":false,"is_disabled":false,"rental_uris":{"android":"levelo://app?vid=70360c44-7f15-4d73-a1b4-78f1f432b724","ios":"levelo://app?vid=70360c44-7f15-4d73-a1b4-78f1f432b724"},"vehicle_type_id":"4","last_reported":1701011189,"current_range_meters":30800,"station_id":"ce4bhph2rcd13ifvqhdg","pricing_plan_id":"free"},{"bike_id":"c3a43053-5895-4df6-a229-60185f21734b","system_id":"levelo_inurba_marseille","lat":43.272124,"lon":5.391768,"is_reserved":false,"is_disabled":false,"rental_uris":{"android":"levelo://app?vid=c3a43053-5895-4df6-a229-60185f21734b","ios":"levelo://app?vid=c3a43053-5895-4df6-a229-60185f21734b"},"vehicle_type_id":"4","last_reported":1701011189,"current_range_meters":21200,"station_id":"ce4bhhp2rcd13ifvqfm0","pricing_plan_id":"free"},{"bike_id":"72f526bc-38d2-4294-afdf-da3c28b1f3d5","system_id":"levelo_inurba_marseille","lat":43.272116,"lon":5.391763,"is_reserved":false,"is_disabled":false,"rental_uris":{"android":"levelo://app?vid=72f526bc-38d2-4294-afdf-da3c28b1f3d5","ios":"levelo://app?vid=72f526bc-38d2-4294-afdf-da3c28b1f3d5"},"vehicle_type_id":"4","last_reported":1701011189,"current_range_meters":22800,"station_id":"ce4bhhp2rcd13ifvqfm0","pricing_plan_id":"free"},{"bike_id":"7244bfc6-05ae-40d9-a668-bd06208f8862","system_id":"levelo_inurba_marseille","lat":43.272124,"lon":5.391768,"is_reserved":false,"is_disabled":false,"rental_uris":{"android":"levelo://app?vid=7244bfc6-05ae-40d9-a668-bd06208f8862","ios":"levelo://app?vid=7244bfc6-05ae-40d9-a668-bd06208f8862"},"vehicle_type_id":"4","last_reported":1701011189,"current_range_meters":800,"station_id":"ce4bhhp2rcd13ifvqfm0","pricing_plan_id":"free"},{"bike_id":"a514255d-8592-4e3b-a6ab-2495454e8cf8","system_id":"levelo_inurba_marseille","lat":43.272118,"lon":5.391758,"is_reserved":false,"is_disabled":false,"rental_uris":{"android":"levelo://app?vid=a514255d-8592-4e3b-a6ab-2495454e8cf8","ios":"levelo://app?vid=a514255d-8592-4e3b-a6ab-2495454e8cf8"},"vehicle_type_id":"4","last_reported":1701011189,"current_range_meters":22800,"station_id":"ce4bhhp2rcd13ifvqfm0","pricing_plan_id":"free"},{"bike_id":"107e507d-ae5c-42e5-a6e0-cb98af499ac9","system_id":"levelo_inurba_marseille","lat":43.272116,"lon":5.391747,"is_reserved":false,"is_disabled":false,"rental_uris":{"android":"levelo://app?vid=107e507d-ae5c-42e5-a6e0-cb98af499ac9","ios":"levelo://app?vid=107e507d-ae5c-42e5-a6e0-cb98af499ac9"},"vehicle_type_id":"4","last_reported":1701011189,"current_range_meters":30800,"station_id":"ce4bhhp2rcd13ifvqfm0","pricing_plan_id":"free"},{"bike_id":"01201c7a-0104-416d-a3df-ccbe55639679","system_id":"levelo_inurba_marseille","lat":43.278128,"lon":5.407195,"is_reserved":false,"is_disabled":false,"rental_uris":{"android":"levelo://app?vid=01201c7a-0104-416d-a3df-ccbe55639679","ios":"levelo://app?vid=01201c7a-0104-416d-a3df-ccbe55639679"},"vehicle_type_id":"4","last_reported":1701011189,"current_range_meters":24400,"station_id":"ce4bhnh2rcd13ifvqgtg","pricing_plan_id":"free"},{"bike_id":"de95b577-4104-4eb8-842b-55187766749d","system_id":"levelo_inurba_marseille","lat":43.278128,"lon":5.407195,"is_reserved":false,"is_disabled":false,"rental_uris":{"android":"levelo://app?vid=de95b577-4104-4eb8-842b-55187766749d","ios":"levelo://app?vid=de95b577-4104-4eb8-842b-55187766749d"},"vehicle_type_id":"4","last_reported":1701011189,"current_range_meters":25600,"station_id":"ce4bhnh2rcd13ifvqgtg","pricing_plan_id":"free"},{"bike_id":"4da0fbf4-6281-4d6d-b8f4-1edb1d4b2311","system_id":"levelo_inurba_marseille","lat":43.26681,"lon":5.382694,"is_reserved":false,"is_disabled":false,"rental_uris":{"android":"levelo://app?vid=4da0fbf4-6281-4d6d-b8f4-1edb1d4b2311","ios":"levelo://app?vid=4da0fbf4-6281-4d6d-b8f4-1edb1d4b2311"},"vehicle_type_id":"4","last_reported":1701011189,"current_range_meters":21600,"station_id":"ce4bhg92rcd13ifvqf90","pricing_plan_id":"free"},{"bike_id":"a35d7d5c-d767-45b0-b650-86e1a7ff9cc0","system_id":"levelo_inurba_marseille","lat":43.265714,"lon":5.372891,"is_reserved":false,"is_disabled":false,"rental_uris":{"android":"levelo://app?vid=a35d7d5c-d767-45b0-b650-86e1a7ff9cc0","ios":"levelo://app?vid=a35d7d5c-d767-45b0-b650-86e1a7ff9cc0"},"vehicle_type_id":"4","last_reported":1701011189,"current_range_meters":5200,"station_id":"ce4bhg12rcd13ifvqf70","pricing_plan_id":"free"},{"bike_id":"051825e6-5549-4bea-8415-e41883fc6fe4","system_id":"levelo_inurba_marseille","lat":43.26554,"lon":5.37287,"is_reserved":false,"is_disabled":false,"rental_uris":{"android":"levelo://app?vid=051825e6-5549-4bea-8415-e41883fc6fe4","ios":"levelo://app?vid=051825e6-5549-4bea-8415-e41883fc6fe4"},"vehicle_type_id":"4","last_reported":1701011189,"current_range_meters":3600,"station_id":"ce4bhg12rcd13ifvqf70","pricing_plan_id":"free"},{"bike_id":"f23d8119-b478-4639-98c5-6883279f9f84","system_id":"levelo_inurba_marseille","lat":43.32592,"lon":5.43067,"is_reserved":false,"is_disabled":false,"rental_uris":{"android":"levelo://app?vid=f23d8119-b478-4639-98c5-6883279f9f84","ios":"levelo://app?vid=f23d8119-b478-4639-98c5-6883279f9f84"},"vehicle_type_id":"4","last_reported":1701011189,"current_range_meters":22400,"station_id":"","pricing_plan_id":"free"},{"bike_id":"ed30d6a1-b23a-49e5-9c83-5546be72a734","system_id":"levelo_inurba_marseille","lat":43.3259,"lon":5.43075,"is_reserved":false,"is_disabled":false,"rental_uris":{"android":"levelo://app?vid=ed30d6a1-b23a-49e5-9c83-5546be72a734","ios":"levelo://app?vid=ed30d6a1-b23a-49e5-9c83-5546be72a734"},"vehicle_type_id":"4","last_reported":1701011189,"current_range_meters":17200,"station_id":"","pricing_plan_id":"free"},{"bike_id":"d67469ee-5362-4610-a163-fe05ae3cf4f7","system_id":"levelo_inurba_marseille","lat":43.32604,"lon":5.430817,"is_reserved":false,"is_disabled":false,"rental_uris":{"android":"levelo://app?vid=d67469ee-5362-4610-a163-fe05ae3cf4f7","ios":"levelo://app?vid=d67469ee-5362-4610-a163-fe05ae3cf4f7"},"vehicle_type_id":"4","last_reported":1701011189,"current_range_meters":5600,"station_id":"","pricing_plan_id":"free"},{"bike_id":"3c201c87-5807-42b1-acc1-bb2635631804","system_id":"levelo_inurba_marseille","lat":43.27991,"lon":5.41661,"is_reserved":false,"is_disabled":false,"rental_uris":{"android":"levelo://app?vid=3c201c87-5807-42b1-acc1-bb2635631804","ios":"levelo://app?vid=3c201c87-5807-42b1-acc1-bb2635631804"},"vehicle_type_id":"4","last_reported":1701011189,"current_range_meters":1600,"station_id":"ce4bho12rcd13ifvqh1g","pricing_plan_id":"free"},{"bike_id":"83056715-5b6a-4355-88be-e8d09fc71f6f","system_id":"levelo_inurba_marseille","lat":43.265714,"lon":5.372891,"is_reserved":false,"is_disabled":false,"rental_uris":{"android":"levelo://app?vid=83056715-5b6a-4355-88be-e8d09fc71f6f","ios":"levelo://app?vid=83056715-5b6a-4355-88be-e8d09fc71f6f"},"vehicle_type_id":"4","last_reported":1701011189,"current_range_meters":16000,"station_id":"ce4bhg12rcd13ifvqf70","pricing_plan_id":"free"},{"bike_id":"3d2888f9-b3de-4c05-be84-132a84f5aae9","system_id":"levelo_inurba_marseille","lat":43.267966,"lon":5.393976,"is_reserved":false,"is_disabled":false,"rental_uris":{"android":"levelo://app?vid=3d2888f9-b3de-4c05-be84-132a84f5aae9","ios":"levelo://app?vid=3d2888f9-b3de-4c05-be84-132a84f5aae9"},"vehicle_type_id":"4","last_reported":1701011189,"current_range_meters":28400,"station_id":"ce4bhh12rcd13ifvqfg0","pricing_plan_id":"free"},{"bike_id":"6137230b-c09b-4e57-8e82-72d898478fdf","system_id":"levelo_inurba_marseille","lat":43.267966,"lon":5.393976,"is_reserved":false,"is_disabled":false,"rental_uris":{"android":"levelo://app?vid=6137230b-c09b-4e57-8e82-72d898478fdf","ios":"levelo://app?vid=6137230b-c09b-4e57-8e82-72d898478fdf"},"vehicle_type_id":"4","last_reported":1701011189,"current_range_meters":25600,"station_id":"ce4bhh12rcd13ifvqfg0","pricing_plan_id":"free"},{"bike_id":"2b5f0b27-ae58-4e9e-bd76-c585f78e8a73","system_id":"levelo_inurba_marseille","lat":43.26386,"lon":5.37454,"is_reserved":false,"is_disabled":false,"rental_uris":{"android":"levelo://app?vid=2b5f0b27-ae58-4e9e-bd76-c585f78e8a73","ios":"levelo://app?vid=2b5f0b27-ae58-4e9e-bd76-c585f78e8a73"},"vehicle_type_id":"4","last_reported":1701011189,"current_range_meters":6800,"station_id":"","pricing_plan_id":"free"},{"bike_id":"1b619a81-f525-492f-b3ea-74265c378cab","system_id":"levelo_inurba_marseille","lat":43.265569,"lon":5.390047,"is_reserved":false,"is_disabled":false,"rental_uris":{"android":"levelo://app?vid=1b619a81-f525-492f-b3ea-74265c378cab","ios":"levelo://app?vid=1b619a81-f525-492f-b3ea-74265c378cab"},"vehicle_type_id":"4","last_reported":1701011189,"current_range_meters":25200,"station_id":"ce4bhe12rcd13ifvqf30","pricing_plan_id":"free"},{"bike_id":"34e9d94a-a716-4b0c-93f4-cd00b136e1d7","system_id":"levelo_inurba_marseille","lat":43.31716,"lon":5.43704,"is_reserved":false,"is_disabled":false,"rental_uris":{"android":"levelo://app?vid=34e9d94a-a716-4b0c-93f4-cd00b136e1d7","ios":"levelo://app?vid=34e9d94a-a716-4b0c-93f4-cd00b136e1d7"},"vehicle_type_id":"4","last_reported":1701011189,"current_range_meters":0,"station_id":"ce4bhp92rcd13ifvqhcg","pricing_plan_id":"free"},{"bike_id":"ec593df7-85d2-4a7c-a892-75fec147bf75","system_id":"levelo_inurba_marseille","lat":43.317104,"lon":5.436818,"is_reserved":false,"is_disabled":false,"rental_uris":{"android":"levelo://app?vid=ec593df7-85d2-4a7c-a892-75fec147bf75","ios":"levelo://app?vid=ec593df7-85d2-4a7c-a892-75fec147bf75"},"vehicle_type_id":"4","last_reported":1701011189,"current_range_meters":31600,"station_id":"ce4bhp92rcd13ifvqhcg","pricing_plan_id":"free"},{"bike_id":"36101c79-04d6-4ccc-b5b3-35a141045a24","system_id":"levelo_inurba_marseille","lat":43.26202,"lon":5.379299,"is_reserved":false,"is_disabled":false,"rental_uris":{"android":"levelo://app?vid=36101c79-04d6-4ccc-b5b3-35a141045a24","ios":"levelo://app?vid=36101c79-04d6-4ccc-b5b3-35a141045a24"},"vehicle_type_id":"4","last_reported":1701011189,"current_range_meters":16400,"station_id":"ce4bhjp2rcd13ifvqg90","pricing_plan_id":"free"},{"bike_id":"d08be1c5-ffd5-42cf-a666-bba365308b32","system_id":"levelo_inurba_marseille","lat":43.262012,"lon":5.379307,"is_reserved":false,"is_disabled":false,"rental_uris":{"android":"levelo://app?vid=d08be1c5-ffd5-42cf-a666-bba365308b32","ios":"levelo://app?vid=d08be1c5-ffd5-42cf-a666-bba365308b32"},"vehicle_type_id":"4","last_reported":1701011189,"current_range_meters":7600,"station_id":"ce4bhjp2rcd13ifvqg90","pricing_plan_id":"free"},{"bike_id":"0100570a-91cf-49b9-9af0-924c79f6ee8f","system_id":"levelo_inurba_marseille","lat":43.271368,"lon":5.40928,"is_reserved":false,"is_disabled":false,"rental_uris":{"android":"levelo://app?vid=0100570a-91cf-49b9-9af0-924c79f6ee8f","ios":"levelo://app?vid=0100570a-91cf-49b9-9af0-924c79f6ee8f"},"vehicle_type_id":"4","last_reported":1701011189,"current_range_meters":28400,"station_id":"ce4bhl12rcd13ifvqgf0","pricing_plan_id":"free"},{"bike_id":"0b4b4e91-5e91-46dc-9938-fb4af5011e90","system_id":"levelo_inurba_marseille","lat":43.271368,"lon":5.40928,"is_reserved":false,"is_disabled":false,"rental_uris":{"android":"levelo://app?vid=0b4b4e91-5e91-46dc-9938-fb4af5011e90","ios":"levelo://app?vid=0b4b4e91-5e91-46dc-9938-fb4af5011e90"},"vehicle_type_id":"4","last_reported":1701011189,"current_range_meters":18000,"station_id":"ce4bhl12rcd13ifvqgf0","pricing_plan_id":"free"},{"bike_id":"3b0d8a85-757d-4e5a-8804-f98915973b25","system_id":"levelo_inurba_marseille","lat":43.267959,"lon":5.402687,"is_reserved":false,"is_disabled":false,"rental_uris":{"android":"levelo://app?vid=3b0d8a85-757d-4e5a-8804-f98915973b25","ios":"levelo://app?vid=3b0d8a85-757d-4e5a-8804-f98915973b25"},"vehicle_type_id":"4","last_reported":1701011189,"current_range_meters":27200,"station_id":"ce501612rcd8frsf0b60","pricing_plan_id":"free"},{"bike_id":"33c1764c-69f4-4d3f-b16c-fcfccc43d1e3","system_id":"levelo_inurba_marseille","lat":43.267959,"lon":5.402685,"is_reserved":false,"is_disabled":false,"rental_uris":{"android":"levelo://app?vid=33c1764c-69f4-4d3f-b16c-fcfccc43d1e3","ios":"levelo://app?vid=33c1764c-69f4-4d3f-b16c-fcfccc43d1e3"},"vehicle_type_id":"4","last_reported":1701011189,"current_range_meters":3600,"station_id":"ce501612rcd8frsf0b60","pricing_plan_id":"free"},{"bike_id":"9746e4af-f206-428c-8111-5170799b3cd0","system_id":"levelo_inurba_marseille","lat":43.267959,"lon":5.402685,"is_reserved":false,"is_disabled":false,"rental_uris":{"android":"levelo://app?vid=9746e4af-f206-428c-8111-5170799b3cd0","ios":"levelo://app?vid=9746e4af-f206-428c-8111-5170799b3cd0"},"vehicle_type_id":"4","last_reported":1701011189,"current_range_meters":10800,"station_id":"ce501612rcd8frsf0b60","pricing_plan_id":"free"},{"bike_id":"cdf2c497-f033-4c0f-80f4-b4e51e4970c2","system_id":"levelo_inurba_marseille","lat":43.271368,"lon":5.40928,"is_reserved":false,"is_disabled":false,"rental_uris":{"android":"levelo://app?vid=cdf2c497-f033-4c0f-80f4-b4e51e4970c2","ios":"levelo://app?vid=cdf2c497-f033-4c0f-80f4-b4e51e4970c2"},"vehicle_type_id":"4","last_reported":1701011189,"current_range_meters":22800,"station_id":"ce4bhl12rcd13ifvqgf0","pricing_plan_id":"free"},{"bike_id":"13efbc1c-d5e6-4098-8f82-49cd483b6f29","system_id":"levelo_inurba_marseille","lat":43.267959,"lon":5.402687,"is_reserved":false,"is_disabled":false,"rental_uris":{"android":"levelo://app?vid=13efbc1c-d5e6-4098-8f82-49cd483b6f29","ios":"levelo://app?vid=13efbc1c-d5e6-4098-8f82-49cd483b6f29"},"vehicle_type_id":"4","last_reported":1701011189,"current_range_meters":28400,"station_id":"ce501612rcd8frsf0b60","pricing_plan_id":"free"},{"bike_id":"fb5a7794-d4cd-4a4d-b2b6-9b7b19a6cebd","system_id":"levelo_inurba_marseille","lat":43.267959,"lon":5.402687,"is_reserved":false,"is_disabled":false,"rental_uris":{"android":"levelo://app?vid=fb5a7794-d4cd-4a4d-b2b6-9b7b19a6cebd","ios":"levelo://app?vid=fb5a7794-d4cd-4a4d-b2b6-9b7b19a6cebd"},"vehicle_type_id":"4","last_reported":1701011189,"current_range_meters":16000,"station_id":"ce501612rcd8frsf0b60","pricing_plan_id":"free"},{"bike_id":"7c5a83ac-336c-4b91-a5ea-82b3c6d6127d","system_id":"levelo_inurba_marseille","lat":43.298768,"lon":5.43643,"is_reserved":false,"is_disabled":false,"rental_uris":{"android":"levelo://app?vid=7c5a83ac-336c-4b91-a5ea-82b3c6d6127d","ios":"levelo://app?vid=7c5a83ac-336c-4b91-a5ea-82b3c6d6127d"},"vehicle_type_id":"4","last_reported":1701011189,"current_range_meters":31200,"station_id":"ce4bhpp2rcd13ifvqhfg","pricing_plan_id":"free"},{"bike_id":"f4f2e1d5-dafa-412d-9b3a-3611814786ce","system_id":"levelo_inurba_marseille","lat":43.298768,"lon":5.43643,"is_reserved":false,"is_disabled":false,"rental_uris":{"android":"levelo://app?vid=f4f2e1d5-dafa-412d-9b3a-3611814786ce","ios":"levelo://app?vid=f4f2e1d5-dafa-412d-9b3a-3611814786ce"},"vehicle_type_id":"4","last_reported":1701011189,"current_range_meters":31200,"station_id":"ce4bhpp2rcd13ifvqhfg","pricing_plan_id":"free"},{"bike_id":"2628fb3a-9b3a-4836-8cca-8b1625de82d4","system_id":"levelo_inurba_marseille","lat":43.2815,"lon":5.42643,"is_reserved":false,"is_disabled":false,"rental_uris":{"android":"levelo://app?vid=2628fb3a-9b3a-4836-8cca-8b1625de82d4","ios":"levelo://app?vid=2628fb3a-9b3a-4836-8cca-8b1625de82d4"},"vehicle_type_id":"4","last_reported":1701011189,"current_range_meters":11600,"station_id":"ce4bhnh2rcd13ifvqgug","pricing_plan_id":"free"},{"bike_id":"a31c4ae5-ce8c-4d2e-b0f9-bc4d8da2a7f6","system_id":"levelo_inurba_marseille","lat":43.281548,"lon":5.42643,"is_reserved":false,"is_disabled":false,"rental_uris":{"android":"levelo://app?vid=a31c4ae5-ce8c-4d2e-b0f9-bc4d8da2a7f6","ios":"levelo://app?vid=a31c4ae5-ce8c-4d2e-b0f9-bc4d8da2a7f6"},"vehicle_type_id":"4","last_reported":1701011189,"current_range_meters":11200,"station_id":"ce4bhnh2rcd13ifvqgug","pricing_plan_id":"free"},{"bike_id":"47f4f29e-d916-4492-8f8d-c58eba9e9c12","system_id":"levelo_inurba_marseille","lat":43.2607,"lon":5.393983,"is_reserved":false,"is_disabled":false,"rental_uris":{"android":"levelo://app?vid=47f4f29e-d916-4492-8f8d-c58eba9e9c12","ios":"levelo://app?vid=47f4f29e-d916-4492-8f8d-c58eba9e9c12"},"vehicle_type_id":"4","last_reported":1701011189,"current_range_meters":28000,"station_id":"ce4bhh92rcd13ifvqfj0","pricing_plan_id":"free"},{"bike_id":"94c2ae53-6c49-4c47-8f4f-ac673a30232c","system_id":"levelo_inurba_marseille","lat":43.275028,"lon":5.424534,"is_reserved":false,"is_disabled":false,"rental_uris":{"android":"levelo://app?vid=94c2ae53-6c49-4c47-8f4f-ac673a30232c","ios":"levelo://app?vid=94c2ae53-6c49-4c47-8f4f-ac673a30232c"},"vehicle_type_id":"4","last_reported":1701011189,"current_range_meters":25200,"station_id":"ce4bhn92rcd13ifvqgrg","pricing_plan_id":"free"},{"bike_id":"503bbd35-5565-42f7-9e59-5026d025b01e","system_id":"levelo_inurba_marseille","lat":43.274904,"lon":5.424515,"is_reserved":false,"is_disabled":false,"rental_uris":{"android":"levelo://app?vid=503bbd35-5565-42f7-9e59-5026d025b01e","ios":"levelo://app?vid=503bbd35-5565-42f7-9e59-5026d025b01e"},"vehicle_type_id":"4","last_reported":1701011189,"current_range_meters":26400,"station_id":"ce4bhn92rcd13ifvqgrg","pricing_plan_id":"free"},{"bike_id":"c85f7616-3a9e-47a4-ae16-28a03e51ab4f","system_id":"levelo_inurba_marseille","lat":43.28929,"lon":5.438754,"is_reserved":false,"is_disabled":false,"rental_uris":{"android":"levelo://app?vid=c85f7616-3a9e-47a4-ae16-28a03e51ab4f","ios":"levelo://app?vid=c85f7616-3a9e-47a4-ae16-28a03e51ab4f"},"vehicle_type_id":"4","last_reported":1701011189,"current_range_meters":8800,"station_id":"","pricing_plan_id":"free"},{"bike_id":"e370ecfe-b52b-40ca-84ab-ce6a2f66f965","system_id":"levelo_inurba_marseille","lat":43.258224,"lon":5.394369,"is_reserved":false,"is_disabled":false,"rental_uris":{"android":"levelo://app?vid=e370ecfe-b52b-40ca-84ab-ce6a2f66f965","ios":"levelo://app?vid=e370ecfe-b52b-40ca-84ab-ce6a2f66f965"},"vehicle_type_id":"4","last_reported":1701011189,"current_range_meters":13600,"station_id":"ce4bhip2rcd13ifvqft0","pricing_plan_id":"free"},{"bike_id":"3e66232c-16ab-4763-93ec-6f34fa6dc56b","system_id":"levelo_inurba_marseille","lat":43.258224,"lon":5.394369,"is_reserved":false,"is_disabled":false,"rental_uris":{"android":"levelo://app?vid=3e66232c-16ab-4763-93ec-6f34fa6dc56b","ios":"levelo://app?vid=3e66232c-16ab-4763-93ec-6f34fa6dc56b"},"vehicle_type_id":"4","last_reported":1701011189,"current_range_meters":23200,"station_id":"ce4bhip2rcd13ifvqft0","pricing_plan_id":"free"},{"bike_id":"bb03d128-ef00-4706-a798-f82ccd3fae64","system_id":"levelo_inurba_marseille","lat":43.25573,"lon":5.38232,"is_reserved":false,"is_disabled":false,"rental_uris":{"android":"levelo://app?vid=bb03d128-ef00-4706-a798-f82ccd3fae64","ios":"levelo://app?vid=bb03d128-ef00-4706-a798-f82ccd3fae64"},"vehicle_type_id":"4","last_reported":1701011189,"current_range_meters":2000,"station_id":"ce4bhih2rcd13ifvqfs0","pricing_plan_id":"free"},{"bike_id":"abc628a8-a829-42dd-b48a-b842424a3b57","system_id":"levelo_inurba_marseille","lat":43.258224,"lon":5.394369,"is_reserved":false,"is_disabled":false,"rental_uris":{"android":"levelo://app?vid=abc628a8-a829-42dd-b48a-b842424a3b57","ios":"levelo://app?vid=abc628a8-a829-42dd-b48a-b842424a3b57"},"vehicle_type_id":"4","last_reported":1701011189,"current_range_meters":24800,"station_id":"ce4bhip2rcd13ifvqft0","pricing_plan_id":"free"},{"bike_id":"cfc2fb54-bb25-484b-bb20-120b85c7d01d","system_id":"levelo_inurba_marseille","lat":43.255734,"lon":5.38253,"is_reserved":false,"is_disabled":false,"rental_uris":{"android":"levelo://app?vid=cfc2fb54-bb25-484b-bb20-120b85c7d01d","ios":"levelo://app?vid=cfc2fb54-bb25-484b-bb20-120b85c7d01d"},"vehicle_type_id":"4","last_reported":1701011189,"current_range_meters":2800,"station_id":"ce4bhih2rcd13ifvqfs0","pricing_plan_id":"free"},{"bike_id":"78d088d0-c8b7-483f-b2df-9008133d48b9","system_id":"levelo_inurba_marseille","lat":43.25501,"lon":5.37653,"is_reserved":false,"is_disabled":false,"rental_uris":{"android":"levelo://app?vid=78d088d0-c8b7-483f-b2df-9008133d48b9","ios":"levelo://app?vid=78d088d0-c8b7-483f-b2df-9008133d48b9"},"vehicle_type_id":"4","last_reported":1701011189,"current_range_meters":18400,"station_id":"ce4bhh12rcd13ifvqff0","pricing_plan_id":"free"},{"bike_id":"fa94e1b3-924d-484c-aa3a-070aacbdbbfd","system_id":"levelo_inurba_marseille","lat":43.27066,"lon":5.42272,"is_reserved":false,"is_disabled":false,"rental_uris":{"android":"levelo://app?vid=fa94e1b3-924d-484c-aa3a-070aacbdbbfd","ios":"levelo://app?vid=fa94e1b3-924d-484c-aa3a-070aacbdbbfd"},"vehicle_type_id":"4","last_reported":1701011189,"current_range_meters":28800,"station_id":"ce4bhk92rcd13ifvqgb0","pricing_plan_id":"free"},{"bike_id":"3764d48b-8e61-4222-bf2f-e0a7f6536aa8","system_id":"levelo_inurba_marseille","lat":43.27064,"lon":5.42274,"is_reserved":false,"is_disabled":false,"rental_uris":{"android":"levelo://app?vid=3764d48b-8e61-4222-bf2f-e0a7f6536aa8","ios":"levelo://app?vid=3764d48b-8e61-4222-bf2f-e0a7f6536aa8"},"vehicle_type_id":"4","last_reported":1701011189,"current_range_meters":30000,"station_id":"ce4bhk92rcd13ifvqgb0","pricing_plan_id":"free"},{"bike_id":"c683c13a-a9fe-443b-a860-642c2b85e5b7","system_id":"levelo_inurba_marseille","lat":43.27069,"lon":5.42282,"is_reserved":false,"is_disabled":false,"rental_uris":{"android":"levelo://app?vid=c683c13a-a9fe-443b-a860-642c2b85e5b7","ios":"levelo://app?vid=c683c13a-a9fe-443b-a860-642c2b85e5b7"},"vehicle_type_id":"4","last_reported":1701011189,"current_range_meters":10000,"station_id":"ce4bhk92rcd13ifvqgb0","pricing_plan_id":"free"},{"bike_id":"23688042-04a3-41ce-8402-7680d754251a","system_id":"levelo_inurba_marseille","lat":43.259013,"lon":5.409301,"is_reserved":false,"is_disabled":false,"rental_uris":{"android":"levelo://app?vid=23688042-04a3-41ce-8402-7680d754251a","ios":"levelo://app?vid=23688042-04a3-41ce-8402-7680d754251a"},"vehicle_type_id":"4","last_reported":1701011189,"current_range_meters":7600,"station_id":"ce4bhm92rcd13ifvqglg","pricing_plan_id":"free"},{"bike_id":"e9b6a1d5-c740-405d-a6f8-282eec5a3660","system_id":"levelo_inurba_marseille","lat":43.25729,"lon":5.41106,"is_reserved":false,"is_disabled":false,"rental_uris":{"android":"levelo://app?vid=e9b6a1d5-c740-405d-a6f8-282eec5a3660","ios":"levelo://app?vid=e9b6a1d5-c740-405d-a6f8-282eec5a3660"},"vehicle_type_id":"4","last_reported":1701011189,"current_range_meters":16000,"station_id":"ce4bhkp2rcd13ifvqgd0","pricing_plan_id":"free"},{"bike_id":"fc870209-5aff-4dd1-ae31-9b5847a2d23c","system_id":"levelo_inurba_marseille","lat":43.257079,"lon":5.411051,"is_reserved":false,"is_disabled":false,"rental_uris":{"android":"levelo://app?vid=fc870209-5aff-4dd1-ae31-9b5847a2d23c","ios":"levelo://app?vid=fc870209-5aff-4dd1-ae31-9b5847a2d23c"},"vehicle_type_id":"4","last_reported":1701011189,"current_range_meters":19200,"station_id":"ce4bhkp2rcd13ifvqgd0","pricing_plan_id":"free"},{"bike_id":"543aa29a-345d-44be-9327-080150278834","system_id":"levelo_inurba_marseille","lat":43.257079,"lon":5.411051,"is_reserved":false,"is_disabled":false,"rental_uris":{"android":"levelo://app?vid=543aa29a-345d-44be-9327-080150278834","ios":"levelo://app?vid=543aa29a-345d-44be-9327-080150278834"},"vehicle_type_id":"4","last_reported":1701011189,"current_range_meters":31600,"station_id":"ce4bhkp2rcd13ifvqgd0","pricing_plan_id":"free"},{"bike_id":"9875c6a0-44d2-4592-8f70-7937a3f352a0","system_id":"levelo_inurba_marseille","lat":43.24814,"lon":5.37461,"is_reserved":false,"is_disabled":false,"rental_uris":{"android":"levelo://app?vid=9875c6a0-44d2-4592-8f70-7937a3f352a0","ios":"levelo://app?vid=9875c6a0-44d2-4592-8f70-7937a3f352a0"},"vehicle_type_id":"4","last_reported":1701011189,"current_range_meters":22400,"station_id":"ce4bhgh2rcd13ifvqfb0","pricing_plan_id":"free"},{"bike_id":"f2d86774-4763-40c0-8bf4-3eb874793c19","system_id":"levelo_inurba_marseille","lat":43.2479,"lon":5.374457,"is_reserved":false,"is_disabled":false,"rental_uris":{"android":"levelo://app?vid=f2d86774-4763-40c0-8bf4-3eb874793c19","ios":"levelo://app?vid=f2d86774-4763-40c0-8bf4-3eb874793c19"},"vehicle_type_id":"4","last_reported":1701011189,"current_range_meters":30400,"station_id":"ce4bhgh2rcd13ifvqfb0","pricing_plan_id":"free"},{"bike_id":"21e75d00-8156-4063-a5a2-0428cfc125a8","system_id":"levelo_inurba_marseille","lat":43.248084,"lon":5.374607,"is_reserved":false,"is_disabled":false,"rental_uris":{"android":"levelo://app?vid=21e75d00-8156-4063-a5a2-0428cfc125a8","ios":"levelo://app?vid=21e75d00-8156-4063-a5a2-0428cfc125a8"},"vehicle_type_id":"4","last_reported":1701011189,"current_range_meters":31200,"station_id":"ce4bhgh2rcd13ifvqfb0","pricing_plan_id":"free"},{"bike_id":"96bb326b-124f-44cf-9432-bb794dbf3c91","system_id":"levelo_inurba_marseille","lat":43.2479,"lon":5.374457,"is_reserved":false,"is_disabled":false,"rental_uris":{"android":"levelo://app?vid=96bb326b-124f-44cf-9432-bb794dbf3c91","ios":"levelo://app?vid=96bb326b-124f-44cf-9432-bb794dbf3c91"},"vehicle_type_id":"4","last_reported":1701011189,"current_range_meters":31600,"station_id":"ce4bhgh2rcd13ifvqfb0","pricing_plan_id":"free"},{"bike_id":"1f0c50d3-0be5-4fcd-b12e-29cf21c31d91","system_id":"levelo_inurba_marseille","lat":43.2479,"lon":5.374457,"is_reserved":false,"is_disabled":false,"rental_uris":{"android":"levelo://app?vid=1f0c50d3-0be5-4fcd-b12e-29cf21c31d91","ios":"levelo://app?vid=1f0c50d3-0be5-4fcd-b12e-29cf21c31d91"},"vehicle_type_id":"4","last_reported":1701011189,"current_range_meters":28000,"station_id":"ce4bhgh2rcd13ifvqfb0","pricing_plan_id":"free"},{"bike_id":"42fc01c7-6e6b-4678-840b-b63a0487e44d","system_id":"levelo_inurba_marseille","lat":43.2479,"lon":5.374457,"is_reserved":false,"is_disabled":false,"rental_uris":{"android":"levelo://app?vid=42fc01c7-6e6b-4678-840b-b63a0487e44d","ios":"levelo://app?vid=42fc01c7-6e6b-4678-840b-b63a0487e44d"},"vehicle_type_id":"4","last_reported":1701011189,"current_range_meters":2800,"station_id":"ce4bhgh2rcd13ifvqfb0","pricing_plan_id":"free"},{"bike_id":"4f0efb12-87f5-4d11-ad98-fe64cc7903d6","system_id":"levelo_inurba_marseille","lat":43.24805,"lon":5.37465,"is_reserved":false,"is_disabled":false,"rental_uris":{"android":"levelo://app?vid=4f0efb12-87f5-4d11-ad98-fe64cc7903d6","ios":"levelo://app?vid=4f0efb12-87f5-4d11-ad98-fe64cc7903d6"},"vehicle_type_id":"4","last_reported":1701011189,"current_range_meters":30800,"station_id":"ce4bhgh2rcd13ifvqfb0","pricing_plan_id":"free"},{"bike_id":"c98b5d95-31ff-44d5-888b-053d002d6be5","system_id":"levelo_inurba_marseille","lat":43.2479,"lon":5.374457,"is_reserved":false,"is_disabled":false,"rental_uris":{"android":"levelo://app?vid=c98b5d95-31ff-44d5-888b-053d002d6be5","ios":"levelo://app?vid=c98b5d95-31ff-44d5-888b-053d002d6be5"},"vehicle_type_id":"4","last_reported":1701011189,"current_range_meters":20000,"station_id":"ce4bhgh2rcd13ifvqfb0","pricing_plan_id":"free"},{"bike_id":"976642f9-07a6-42c1-98ea-3112272ce277","system_id":"levelo_inurba_marseille","lat":43.2479,"lon":5.374457,"is_reserved":false,"is_disabled":false,"rental_uris":{"android":"levelo://app?vid=976642f9-07a6-42c1-98ea-3112272ce277","ios":"levelo://app?vid=976642f9-07a6-42c1-98ea-3112272ce277"},"vehicle_type_id":"4","last_reported":1701011189,"current_range_meters":28400,"station_id":"ce4bhgh2rcd13ifvqfb0","pricing_plan_id":"free"},{"bike_id":"0573fbe7-3a73-4ea9-a677-d7f3cd44cf92","system_id":"levelo_inurba_marseille","lat":43.2479,"lon":5.374457,"is_reserved":false,"is_disabled":false,"rental_uris":{"android":"levelo://app?vid=0573fbe7-3a73-4ea9-a677-d7f3cd44cf92","ios":"levelo://app?vid=0573fbe7-3a73-4ea9-a677-d7f3cd44cf92"},"vehicle_type_id":"4","last_reported":1701011189,"current_range_meters":18800,"station_id":"ce4bhgh2rcd13ifvqfb0","pricing_plan_id":"free"},{"bike_id":"66739f60-8921-490b-8824-d05cf89b1172","system_id":"levelo_inurba_marseille","lat":43.250897,"lon":5.395161,"is_reserved":false,"is_disabled":false,"rental_uris":{"android":"levelo://app?vid=66739f60-8921-490b-8824-d05cf89b1172","ios":"levelo://app?vid=66739f60-8921-490b-8824-d05cf89b1172"},"vehicle_type_id":"4","last_reported":1701011189,"current_range_meters":24000,"station_id":"ce4bhm12rcd13ifvqgkg","pricing_plan_id":"free"},{"bike_id":"f8e7c297-4b34-4620-9612-48d216671345","system_id":"levelo_inurba_marseille","lat":43.250966,"lon":5.395186,"is_reserved":false,"is_disabled":false,"rental_uris":{"android":"levelo://app?vid=f8e7c297-4b34-4620-9612-48d216671345","ios":"levelo://app?vid=f8e7c297-4b34-4620-9612-48d216671345"},"vehicle_type_id":"4","last_reported":1701011189,"current_range_meters":20000,"station_id":"ce4bhm12rcd13ifvqgkg","pricing_plan_id":"free"},{"bike_id":"27a0991a-bbca-4ec0-b803-487d6f738153","system_id":"levelo_inurba_marseille","lat":43.2479,"lon":5.374457,"is_reserved":false,"is_disabled":false,"rental_uris":{"android":"levelo://app?vid=27a0991a-bbca-4ec0-b803-487d6f738153","ios":"levelo://app?vid=27a0991a-bbca-4ec0-b803-487d6f738153"},"vehicle_type_id":"4","last_reported":1701011189,"current_range_meters":31600,"station_id":"ce4bhgh2rcd13ifvqfb0","pricing_plan_id":"free"},{"bike_id":"49f72c58-4e1a-447a-9093-1970832c8f3f","system_id":"levelo_inurba_marseille","lat":43.24693,"lon":5.382096,"is_reserved":false,"is_disabled":false,"rental_uris":{"android":"levelo://app?vid=49f72c58-4e1a-447a-9093-1970832c8f3f","ios":"levelo://app?vid=49f72c58-4e1a-447a-9093-1970832c8f3f"},"vehicle_type_id":"4","last_reported":1701011189,"current_range_meters":25600,"station_id":"ce4bhih2rcd13ifvqfr0","pricing_plan_id":"free"},{"bike_id":"e25b7d2d-18df-422e-a756-10304e250802","system_id":"levelo_inurba_marseille","lat":43.25111,"lon":5.40319,"is_reserved":false,"is_disabled":false,"rental_uris":{"android":"levelo://app?vid=e25b7d2d-18df-422e-a756-10304e250802","ios":"levelo://app?vid=e25b7d2d-18df-422e-a756-10304e250802"},"vehicle_type_id":"4","last_reported":1701011189,"current_range_meters":31200,"station_id":"ce4bhlh2rcd13ifvqgig","pricing_plan_id":"free"},{"bike_id":"201b185a-5669-4c97-9c02-dbc21133d357","system_id":"levelo_inurba_marseille","lat":43.2511,"lon":5.40321,"is_reserved":false,"is_disabled":false,"rental_uris":{"android":"levelo://app?vid=201b185a-5669-4c97-9c02-dbc21133d357","ios":"levelo://app?vid=201b185a-5669-4c97-9c02-dbc21133d357"},"vehicle_type_id":"4","last_reported":1701011189,"current_range_meters":31200,"station_id":"ce4bhlh2rcd13ifvqgig","pricing_plan_id":"free"},{"bike_id":"7c3cc716-debc-4231-84b0-a2cc87b75b53","system_id":"levelo_inurba_marseille","lat":43.25107,"lon":5.40313,"is_reserved":false,"is_disabled":false,"rental_uris":{"android":"levelo://app?vid=7c3cc716-debc-4231-84b0-a2cc87b75b53","ios":"levelo://app?vid=7c3cc716-debc-4231-84b0-a2cc87b75b53"},"vehicle_type_id":"4","last_reported":1701011189,"current_range_meters":31200,"station_id":"ce4bhlh2rcd13ifvqgig","pricing_plan_id":"free"},{"bike_id":"10a769c5-22b1-498a-b78b-7c81bbaf2a30","system_id":"levelo_inurba_marseille","lat":43.25102,"lon":5.403214,"is_reserved":false,"is_disabled":false,"rental_uris":{"android":"levelo://app?vid=10a769c5-22b1-498a-b78b-7c81bbaf2a30","ios":"levelo://app?vid=10a769c5-22b1-498a-b78b-7c81bbaf2a30"},"vehicle_type_id":"4","last_reported":1701011189,"current_range_meters":31600,"station_id":"ce4bhlh2rcd13ifvqgig","pricing_plan_id":"free"},{"bike_id":"66c6ec53-8673-42a6-9d0c-7bfa8b99190d","system_id":"levelo_inurba_marseille","lat":43.25109,"lon":5.40325,"is_reserved":false,"is_disabled":false,"rental_uris":{"android":"levelo://app?vid=66c6ec53-8673-42a6-9d0c-7bfa8b99190d","ios":"levelo://app?vid=66c6ec53-8673-42a6-9d0c-7bfa8b99190d"},"vehicle_type_id":"4","last_reported":1701011189,"current_range_meters":16800,"station_id":"ce4bhlh2rcd13ifvqgig","pricing_plan_id":"free"},{"bike_id":"835bcf94-62ca-41b5-84de-3fef0d179645","system_id":"levelo_inurba_marseille","lat":43.25109,"lon":5.4033,"is_reserved":false,"is_disabled":false,"rental_uris":{"android":"levelo://app?vid=835bcf94-62ca-41b5-84de-3fef0d179645","ios":"levelo://app?vid=835bcf94-62ca-41b5-84de-3fef0d179645"},"vehicle_type_id":"4","last_reported":1701011189,"current_range_meters":18400,"station_id":"ce4bhlh2rcd13ifvqgig","pricing_plan_id":"free"},{"bike_id":"29c0909b-0a4d-4ec4-abdf-99885771b1c2","system_id":"levelo_inurba_marseille","lat":43.25098,"lon":5.40325,"is_reserved":false,"is_disabled":false,"rental_uris":{"android":"levelo://app?vid=29c0909b-0a4d-4ec4-abdf-99885771b1c2","ios":"levelo://app?vid=29c0909b-0a4d-4ec4-abdf-99885771b1c2"},"vehicle_type_id":"4","last_reported":1701011189,"current_range_meters":31200,"station_id":"ce4bhlh2rcd13ifvqgig","pricing_plan_id":"free"},{"bike_id":"584acef8-07a0-48f1-bbbe-17fb9f63dea0","system_id":"levelo_inurba_marseille","lat":43.246461,"lon":5.389014,"is_reserved":false,"is_disabled":false,"rental_uris":{"android":"levelo://app?vid=584acef8-07a0-48f1-bbbe-17fb9f63dea0","ios":"levelo://app?vid=584acef8-07a0-48f1-bbbe-17fb9f63dea0"},"vehicle_type_id":"4","last_reported":1701011189,"current_range_meters":26400,"station_id":"ce4bhg12rcd13ifvqf60","pricing_plan_id":"free"},{"bike_id":"d3a9c5fd-5ed4-48a1-8f31-57aae68e27bc","system_id":"levelo_inurba_marseille","lat":43.246467,"lon":5.388984,"is_reserved":false,"is_disabled":false,"rental_uris":{"android":"levelo://app?vid=d3a9c5fd-5ed4-48a1-8f31-57aae68e27bc","ios":"levelo://app?vid=d3a9c5fd-5ed4-48a1-8f31-57aae68e27bc"},"vehicle_type_id":"4","last_reported":1701011189,"current_range_meters":16800,"station_id":"ce4bhg12rcd13ifvqf60","pricing_plan_id":"free"},{"bike_id":"618531b3-e404-4c3d-ab62-6fff3fa203fd","system_id":"levelo_inurba_marseille","lat":43.24391,"lon":5.37064,"is_reserved":false,"is_disabled":false,"rental_uris":{"android":"levelo://app?vid=618531b3-e404-4c3d-ab62-6fff3fa203fd","ios":"levelo://app?vid=618531b3-e404-4c3d-ab62-6fff3fa203fd"},"vehicle_type_id":"4","last_reported":1701011189,"current_range_meters":23600,"station_id":"ce4bhhh2rcd13ifvqfk0","pricing_plan_id":"free"},{"bike_id":"9e66f38f-18cb-42e8-8339-c01d0a6c039e","system_id":"levelo_inurba_marseille","lat":43.243884,"lon":5.370737,"is_reserved":false,"is_disabled":false,"rental_uris":{"android":"levelo://app?vid=9e66f38f-18cb-42e8-8339-c01d0a6c039e","ios":"levelo://app?vid=9e66f38f-18cb-42e8-8339-c01d0a6c039e"},"vehicle_type_id":"4","last_reported":1701011189,"current_range_meters":24800,"station_id":"ce4bhhh2rcd13ifvqfk0","pricing_plan_id":"free"},{"bike_id":"340073ff-1161-4fbe-b9ec-2571c4486fa6","system_id":"levelo_inurba_marseille","lat":43.243884,"lon":5.370736,"is_reserved":false,"is_disabled":false,"rental_uris":{"android":"levelo://app?vid=340073ff-1161-4fbe-b9ec-2571c4486fa6","ios":"levelo://app?vid=340073ff-1161-4fbe-b9ec-2571c4486fa6"},"vehicle_type_id":"4","last_reported":1701011189,"current_range_meters":29200,"station_id":"ce4bhhh2rcd13ifvqfk0","pricing_plan_id":"free"},{"bike_id":"b29dfda8-f720-4aab-afc1-f634e6d91320","system_id":"levelo_inurba_marseille","lat":43.245581,"lon":5.395069,"is_reserved":false,"is_disabled":false,"rental_uris":{"android":"levelo://app?vid=b29dfda8-f720-4aab-afc1-f634e6d91320","ios":"levelo://app?vid=b29dfda8-f720-4aab-afc1-f634e6d91320"},"vehicle_type_id":"4","last_reported":1701011189,"current_range_meters":30400,"station_id":"ce4bhlp2rcd13ifvqgjg","pricing_plan_id":"free"},{"bike_id":"dd829e1c-bde5-4264-ac94-f444651c53d0","system_id":"levelo_inurba_marseille","lat":43.240623,"lon":5.377642,"is_reserved":false,"is_disabled":false,"rental_uris":{"android":"levelo://app?vid=dd829e1c-bde5-4264-ac94-f444651c53d0","ios":"levelo://app?vid=dd829e1c-bde5-4264-ac94-f444651c53d0"},"vehicle_type_id":"4","last_reported":1701011189,"current_range_meters":27600,"station_id":"ce4bhnp2rcd13ifvqgvg","pricing_plan_id":"free"},{"bike_id":"d225a136-86b8-4823-b88f-87d47300dec8","system_id":"levelo_inurba_marseille","lat":43.239588,"lon":5.366238,"is_reserved":false,"is_disabled":false,"rental_uris":{"android":"levelo://app?vid=d225a136-86b8-4823-b88f-87d47300dec8","ios":"levelo://app?vid=d225a136-86b8-4823-b88f-87d47300dec8"},"vehicle_type_id":"4","last_reported":1701011189,"current_range_meters":27600,"station_id":"ce4bhi12rcd13ifvqfp0","pricing_plan_id":"free"},{"bike_id":"40f2500b-9afe-4632-9168-89dc8772014f","system_id":"levelo_inurba_marseille","lat":43.241782,"lon":5.397261,"is_reserved":false,"is_disabled":false,"rental_uris":{"android":"levelo://app?vid=40f2500b-9afe-4632-9168-89dc8772014f","ios":"levelo://app?vid=40f2500b-9afe-4632-9168-89dc8772014f"},"vehicle_type_id":"4","last_reported":1701011189,"current_range_meters":31600,"station_id":"ce4bhn12rcd13ifvqgpg","pricing_plan_id":"free"},{"bike_id":"b03204fb-1ac1-4923-ba56-22eaa833dad5","system_id":"levelo_inurba_marseille","lat":43.24178,"lon":5.39729,"is_reserved":false,"is_disabled":false,"rental_uris":{"android":"levelo://app?vid=b03204fb-1ac1-4923-ba56-22eaa833dad5","ios":"levelo://app?vid=b03204fb-1ac1-4923-ba56-22eaa833dad5"},"vehicle_type_id":"4","last_reported":1701011189,"current_range_meters":22400,"station_id":"ce4bhn12rcd13ifvqgpg","pricing_plan_id":"free"},{"bike_id":"2c87cc00-2108-43d3-802b-16aba0b183e2","system_id":"levelo_inurba_marseille","lat":43.241782,"lon":5.397261,"is_reserved":false,"is_disabled":false,"rental_uris":{"android":"levelo://app?vid=2c87cc00-2108-43d3-802b-16aba0b183e2","ios":"levelo://app?vid=2c87cc00-2108-43d3-802b-16aba0b183e2"},"vehicle_type_id":"4","last_reported":1701011189,"current_range_meters":22800,"station_id":"ce4bhn12rcd13ifvqgpg","pricing_plan_id":"free"},{"bike_id":"a9788994-ac3a-4b21-90b3-d75efaac3327","system_id":"levelo_inurba_marseille","lat":43.237965,"lon":5.37068,"is_reserved":false,"is_disabled":false,"rental_uris":{"android":"levelo://app?vid=a9788994-ac3a-4b21-90b3-d75efaac3327","ios":"levelo://app?vid=a9788994-ac3a-4b21-90b3-d75efaac3327"},"vehicle_type_id":"4","last_reported":1701011189,"current_range_meters":27200,"station_id":"ce4bhu92rcd13ifvqi70","pricing_plan_id":"free"},{"bike_id":"04f45584-c1fb-49e6-8e70-9397903c1fc8","system_id":"levelo_inurba_marseille","lat":43.231923,"lon":5.355545,"is_reserved":false,"is_disabled":false,"rental_uris":{"android":"levelo://app?vid=04f45584-c1fb-49e6-8e70-9397903c1fc8","ios":"levelo://app?vid=04f45584-c1fb-49e6-8e70-9397903c1fc8"},"vehicle_type_id":"4","last_reported":1701011189,"current_range_meters":30800,"station_id":"ce4bhu92rcd13ifvqi70","pricing_plan_id":"free"},{"bike_id":"91765ddf-978e-45f0-bbde-967d6373ad22","system_id":"levelo_inurba_marseille","lat":43.231923,"lon":5.355545,"is_reserved":false,"is_disabled":false,"rental_uris":{"android":"levelo://app?vid=91765ddf-978e-45f0-bbde-967d6373ad22","ios":"levelo://app?vid=91765ddf-978e-45f0-bbde-967d6373ad22"},"vehicle_type_id":"4","last_reported":1701011189,"current_range_meters":23600,"station_id":"ce4bhu92rcd13ifvqi70","pricing_plan_id":"free"},{"bike_id":"1c2c15cc-76c3-43ba-8014-80c82593eadd","system_id":"levelo_inurba_marseille","lat":43.231923,"lon":5.355545,"is_reserved":false,"is_disabled":false,"rental_uris":{"android":"levelo://app?vid=1c2c15cc-76c3-43ba-8014-80c82593eadd","ios":"levelo://app?vid=1c2c15cc-76c3-43ba-8014-80c82593eadd"},"vehicle_type_id":"4","last_reported":1701011189,"current_range_meters":29200,"station_id":"ce4bhu92rcd13ifvqi70","pricing_plan_id":"free"},{"bike_id":"94a784c8-c5fd-420e-a953-d477a0796308","system_id":"levelo_inurba_marseille","lat":43.231923,"lon":5.355545,"is_reserved":false,"is_disabled":false,"rental_uris":{"android":"levelo://app?vid=94a784c8-c5fd-420e-a953-d477a0796308","ios":"levelo://app?vid=94a784c8-c5fd-420e-a953-d477a0796308"},"vehicle_type_id":"4","last_reported":1701011189,"current_range_meters":17200,"station_id":"ce4bhu92rcd13ifvqi70","pricing_plan_id":"free"},{"bike_id":"49e10886-e2ac-4a04-bcbf-7aa27129327f","system_id":"levelo_inurba_marseille","lat":43.231947,"lon":5.355613,"is_reserved":false,"is_disabled":false,"rental_uris":{"android":"levelo://app?vid=49e10886-e2ac-4a04-bcbf-7aa27129327f","ios":"levelo://app?vid=49e10886-e2ac-4a04-bcbf-7aa27129327f"},"vehicle_type_id":"4","last_reported":1701011189,"current_range_meters":31200,"station_id":"ce4bhu92rcd13ifvqi70","pricing_plan_id":"free"},{"bike_id":"486b2d24-0fcc-46e4-bd00-2f74af43ee17","system_id":"levelo_inurba_marseille","lat":43.23195,"lon":5.35557,"is_reserved":false,"is_disabled":false,"rental_uris":{"android":"levelo://app?vid=486b2d24-0fcc-46e4-bd00-2f74af43ee17","ios":"levelo://app?vid=486b2d24-0fcc-46e4-bd00-2f74af43ee17"},"vehicle_type_id":"4","last_reported":1701011189,"current_range_meters":29200,"station_id":"ce4bhu92rcd13ifvqi70","pricing_plan_id":"free"},{"bike_id":"4c014ba9-0d5b-491e-85b8-dd80a713d067","system_id":"levelo_inurba_marseille","lat":43.231923,"lon":5.355545,"is_reserved":false,"is_disabled":false,"rental_uris":{"android":"levelo://app?vid=4c014ba9-0d5b-491e-85b8-dd80a713d067","ios":"levelo://app?vid=4c014ba9-0d5b-491e-85b8-dd80a713d067"},"vehicle_type_id":"4","last_reported":1701011189,"current_range_meters":31600,"station_id":"ce4bhu92rcd13ifvqi70","pricing_plan_id":"free"},{"bike_id":"dc0335bf-412a-4bf8-aa81-bd8ff72cfe8b","system_id":"levelo_inurba_marseille","lat":43.231919,"lon":5.355532,"is_reserved":false,"is_disabled":false,"rental_uris":{"android":"levelo://app?vid=dc0335bf-412a-4bf8-aa81-bd8ff72cfe8b","ios":"levelo://app?vid=dc0335bf-412a-4bf8-aa81-bd8ff72cfe8b"},"vehicle_type_id":"4","last_reported":1701011189,"current_range_meters":26400,"station_id":"ce4bhu92rcd13ifvqi70","pricing_plan_id":"free"},{"bike_id":"df5945b6-4ba3-426d-a757-2e75f037635b","system_id":"levelo_inurba_marseille","lat":43.231923,"lon":5.355545,"is_reserved":false,"is_disabled":false,"rental_uris":{"android":"levelo://app?vid=df5945b6-4ba3-426d-a757-2e75f037635b","ios":"levelo://app?vid=df5945b6-4ba3-426d-a757-2e75f037635b"},"vehicle_type_id":"4","last_reported":1701011189,"current_range_meters":31600,"station_id":"ce4bhu92rcd13ifvqi70","pricing_plan_id":"free"},{"bike_id":"7cf1f10e-6dd7-4ed5-8a35-65a120b8a12d","system_id":"levelo_inurba_marseille","lat":43.2319,"lon":5.35552,"is_reserved":false,"is_disabled":false,"rental_uris":{"android":"levelo://app?vid=7cf1f10e-6dd7-4ed5-8a35-65a120b8a12d","ios":"levelo://app?vid=7cf1f10e-6dd7-4ed5-8a35-65a120b8a12d"},"vehicle_type_id":"4","last_reported":1701011189,"current_range_meters":26400,"station_id":"ce4bhu92rcd13ifvqi70","pricing_plan_id":"free"},{"bike_id":"76da77ba-a8a2-45d9-bea0-75d9631bba15","system_id":"levelo_inurba_marseille","lat":43.231923,"lon":5.355545,"is_reserved":false,"is_disabled":false,"rental_uris":{"android":"levelo://app?vid=76da77ba-a8a2-45d9-bea0-75d9631bba15","ios":"levelo://app?vid=76da77ba-a8a2-45d9-bea0-75d9631bba15"},"vehicle_type_id":"4","last_reported":1701011189,"current_range_meters":30400,"station_id":"ce4bhu92rcd13ifvqi70","pricing_plan_id":"free"},{"bike_id":"c47d956b-b9b9-42b5-8054-37b6df0f7b75","system_id":"levelo_inurba_marseille","lat":43.23187,"lon":5.3556,"is_reserved":false,"is_disabled":false,"rental_uris":{"android":"levelo://app?vid=c47d956b-b9b9-42b5-8054-37b6df0f7b75","ios":"levelo://app?vid=c47d956b-b9b9-42b5-8054-37b6df0f7b75"},"vehicle_type_id":"4","last_reported":1701011189,"current_range_meters":20400,"station_id":"ce4bhu92rcd13ifvqi70","pricing_plan_id":"free"},{"bike_id":"10da9d0a-99ef-4087-a609-3c157a4f6e5d","system_id":"levelo_inurba_marseille","lat":43.23155,"lon":5.43708,"is_reserved":false,"is_disabled":false,"rental_uris":{"android":"levelo://app?vid=10da9d0a-99ef-4087-a609-3c157a4f6e5d","ios":"levelo://app?vid=10da9d0a-99ef-4087-a609-3c157a4f6e5d"},"vehicle_type_id":"4","last_reported":1701011189,"current_range_meters":23600,"station_id":"ce4bhmp2rcd13ifvqgog","pricing_plan_id":"free"},{"bike_id":"1619d54a-6458-4542-9d9b-231c0824f58f","system_id":"levelo_inurba_marseille","lat":43.231562,"lon":5.436933,"is_reserved":false,"is_disabled":false,"rental_uris":{"android":"levelo://app?vid=1619d54a-6458-4542-9d9b-231c0824f58f","ios":"levelo://app?vid=1619d54a-6458-4542-9d9b-231c0824f58f"},"vehicle_type_id":"4","last_reported":1701011189,"current_range_meters":22000,"station_id":"ce4bhmp2rcd13ifvqgog","pricing_plan_id":"free"},{"bike_id":"a905e6f5-baec-4fcd-9ed8-b40777d6d2bb","system_id":"levelo_inurba_marseille","lat":43.231562,"lon":5.436933,"is_reserved":false,"is_disabled":false,"rental_uris":{"android":"levelo://app?vid=a905e6f5-baec-4fcd-9ed8-b40777d6d2bb","ios":"levelo://app?vid=a905e6f5-baec-4fcd-9ed8-b40777d6d2bb"},"vehicle_type_id":"4","last_reported":1701011189,"current_range_meters":20800,"station_id":"ce4bhmp2rcd13ifvqgog","pricing_plan_id":"free"},{"bike_id":"548134b3-dee4-43c4-bd29-4cf87be0aa23","system_id":"levelo_inurba_marseille","lat":43.23152,"lon":5.43723,"is_reserved":false,"is_disabled":false,"rental_uris":{"android":"levelo://app?vid=548134b3-dee4-43c4-bd29-4cf87be0aa23","ios":"levelo://app?vid=548134b3-dee4-43c4-bd29-4cf87be0aa23"},"vehicle_type_id":"4","last_reported":1701011189,"current_range_meters":18800,"station_id":"ce4bhmp2rcd13ifvqgog","pricing_plan_id":"free"},{"bike_id":"561ed5e3-1b73-4a38-a394-31b2ff2846b5","system_id":"levelo_inurba_marseille","lat":43.231562,"lon":5.436933,"is_reserved":false,"is_disabled":false,"rental_uris":{"android":"levelo://app?vid=561ed5e3-1b73-4a38-a394-31b2ff2846b5","ios":"levelo://app?vid=561ed5e3-1b73-4a38-a394-31b2ff2846b5"},"vehicle_type_id":"4","last_reported":1701011189,"current_range_meters":27600,"station_id":"ce4bhmp2rcd13ifvqgog","pricing_plan_id":"free"}]}}