{"last_updated":1748927504,"ttl":60,"version":"2.2","data":{"bikes":[{"bike_id":"5736accb-991c-4877-a612-8be882a83c2f","system_id":"levelo_inurba_marseille","lat":43.33771,"lon":5.37424,"is_reserved":false,"is_disabled":true,"rental_uris":{"android":"levelo://app?vid=5736accb-991c-4877-a612-8be882a83c2f","ios":"levelo://app?vid=5736accb-991c-4877-a612-8be882a83c2f"},"vehicle_type_id":"4","last_reported":1748927504,"current_range_meters":0,"station_id":"","pricing_plan_id":"cebpf4jnsgd1na2vs0mg"},{"bike_id":"55a5c057-4e97-4693-8616-8ebd3dc507dc","system_id":"levelo_inurba_marseille","lat":43.337499,"lon":5.374469,"is_reserved":false,"is_disabled":true,"rental_uris":{"android":"levelo://app?vid=55a5c057-4e97-4693-8616-8ebd3dc507dc","ios":"levelo://app?vid=55a5c057-4e97-4693-8616-8ebd3dc507dc"},"vehicle_type_id":"4","last_reported":1748927504,"current_range_meters":0,"station_id":"","pricing_plan_id":"cebpf4jnsgd1na2vs0mg"},{"bike_id":"58872a66-6d13-4e73-8bc3-e26429814b74","system_id":"levelo_inurba_marseille","lat":43.337444,"lon":5.374475,"is_reserved":false,"is_disabled":true,"rental_uris":{"android":"levelo://app?vid=58872a66-6d13-4e73-8bc3-e26429814b74","ios":"levelo://app?vid=58872a66-6d13-4e73-8bc3-e26429814b74"},"vehicle_type_id":"4","last_reported":1748927504,"current_range_meters":0,"station_id":"","pricing_plan_id":"cebpf4jnsgd1na2vs0mg"},{"bike_id":"aedab83c-b9e3-4c27-91f4-79f4c3b37920","system_id":"levelo_inurba_marseille","lat":43.337444,"lon":5.374475,"is_reserved":false,"is_disabled":true,"rental_uris":{"android":"levelo://app?vid=aedab83c-b9e3-4c27-91f4-79f4c3b37920","ios":"levelo://app?vid=aedab83c-b9e3-4c27-91f4-79f4c3b37920"},"vehicle_type_id":"4","last_reported":1748927504,"current_range_meters":0,"station_id":"","pricing_plan_id":"cebpf4jnsgd1na2vs0mg"},{"bike_id":"6e7e5163-991a-4d7d-9c2b-4faf721e9959","system_id":"levelo_inurba_marseille","lat":43.27913,"lon":5.35323,"is_reserved":false,"is_disabled":true,"rental_uris":{"android":"levelo://app?vid=6e7e5163-991a-4d7d-9c2b-4faf721e9959","ios":"levelo://app?vid=6e7e5163-991a-4d7d-9c2b-4faf721e9959"},"vehicle_type_id":"4","last_reported":1748927504,"current_range_meters":0,"station_id":"","pricing_plan_id":"cebpf4jnsgd1na2vs0mg"},{"bike_id":"f037ee10-e332-42b1-85a9-1479fc53e8a3","system_id":"levelo_inurba_marseille","lat":43.28833,"lon":5.39335,"is_reserved":false,"is_disabled":true,"rental_uris":{"android":"levelo://app?vid=f037ee10-e332-42b1-85a9-1479fc53e8a3","ios":"levelo://app?vid=f037ee10-e332-42b1-85a9-1479fc53e8a3"},"vehicle_type_id":"4","last_reported":1748927504,"current_range_meters":0,"station_id":"ce4bh2p2rcd13ifvqdi0","pricing_plan_id":"cebpf4jnsgd1na2vs0mg"},{"bike_id":"c4124a3c-1f46-4a64-aa09-bc62ef2e15bd","system_id":"levelo_inurba_marseille","lat":43.231942,"lon":5.355538,"is_reserved":false,"is_disabled":true,"rental_uris":{"android":"levelo://app?vid=c4124a3c-1f46-4a64-aa09-bc62ef2e15bd","ios":"levelo://app?vid=c4124a3c-1f46-4a64-aa09-bc62ef2e15bd"},"vehicle_type_id":"4","last_reported":1748927504,"current_range_meters":800,"station_id":"ce4bhu92rcd13ifvqi70","pricing_plan_id":"cebpf4jnsgd1na2vs0mg"},{"bike_id":"dd2e8976-0cd9-40b9-ae36-c2c47678d553","system_id":"levelo_inurba_marseille","lat":43.30463,"lon":5.37907,"is_reserved":false,"is_disabled":true,"rental_uris":{"android":"levelo://app?vid=dd2e8976-0cd9-40b9-ae36-c2c47678d553","ios":"levelo://app?vid=dd2e8976-0cd9-40b9-ae36-c2c47678d553"},"vehicle_type_id":"4","last_reported":1748927504,"current_range_meters":1200,"station_id":"ce4bgup2rcd13ifvqcn0","pricing_plan_id":"cebpf4jnsgd1na2vs0mg"},{"bike_id":"d8bc9440-8e34-43c6-9111-b440ae186694","system_id":"levelo_inurba_marseille","lat":43.29637,"lon":5.4064,"is_reserved":false,"is_disabled":true,"rental_uris":{"android":"levelo://app?vid=d8bc9440-8e34-43c6-9111-b440ae186694","ios":"levelo://app?vid=d8bc9440-8e34-43c6-9111-b440ae186694"},"vehicle_type_id":"4","last_reported":1748927504,"current_range_meters":1600,"station_id":"ce4bh0h2rcd13ifvqd60","pricing_plan_id":"cebpf4jnsgd1na2vs0mg"},{"bike_id":"f83fb654-1d88-4708-a49f-9185650bfc20","system_id":"levelo_inurba_marseille","lat":43.341458,"lon":5.409066,"is_reserved":false,"is_disabled":true,"rental_uris":{"android":"levelo://app?vid=f83fb654-1d88-4708-a49f-9185650bfc20","ios":"levelo://app?vid=f83fb654-1d88-4708-a49f-9185650bfc20"},"vehicle_type_id":"4","last_reported":1748927504,"current_range_meters":1600,"station_id":"ce4bhqh2rcd13ifvqhlg","pricing_plan_id":"cebpf4jnsgd1na2vs0mg"},{"bike_id":"db39394d-5f95-4dcd-8740-c5b26026582b","system_id":"levelo_inurba_marseille","lat":43.24074,"lon":5.37762,"is_reserved":false,"is_disabled":false,"rental_uris":{"android":"levelo://app?vid=db39394d-5f95-4dcd-8740-c5b26026582b","ios":"levelo://app?vid=db39394d-5f95-4dcd-8740-c5b26026582b"},"vehicle_type_id":"4","last_reported":1748927504,"current_range_meters":3200,"station_id":"ce4bhnp2rcd13ifvqgvg","pricing_plan_id":"cebpf4jnsgd1na2vs0mg"},{"bike_id":"282dfa58-2fbc-426e-bdb9-8c1b12869602","system_id":"levelo_inurba_marseille","lat":43.313339,"lon":5.398965,"is_reserved":false,"is_disabled":false,"rental_uris":{"android":"levelo://app?vid=282dfa58-2fbc-426e-bdb9-8c1b12869602","ios":"levelo://app?vid=282dfa58-2fbc-426e-bdb9-8c1b12869602"},"vehicle_type_id":"4","last_reported":1748927504,"current_range_meters":4400,"station_id":"ce4bgvp2rcd13ifvqct0","pricing_plan_id":"cebpf4jnsgd1na2vs0mg"},{"bike_id":"5dead81c-52cf-467b-885d-461d40fb80a5","system_id":"levelo_inurba_marseille","lat":43.25105,"lon":5.40972,"is_reserved":false,"is_disabled":false,"rental_uris":{"android":"levelo://app?vid=5dead81c-52cf-467b-885d-461d40fb80a5","ios":"levelo://app?vid=5dead81c-52cf-467b-885d-461d40fb80a5"},"vehicle_type_id":"4","last_reported":1748927504,"current_range_meters":6400,"station_id":"","pricing_plan_id":"cebpf4jnsgd1na2vs0mg"},{"bike_id":"907989c4-217b-4f7b-9ff7-4afa285967be","system_id":"levelo_inurba_marseille","lat":43.30936,"lon":5.40147,"is_reserved":false,"is_disabled":false,"rental_uris":{"android":"levelo://app?vid=907989c4-217b-4f7b-9ff7-4afa285967be","ios":"levelo://app?vid=907989c4-217b-4f7b-9ff7-4afa285967be"},"vehicle_type_id":"4","last_reported":1748927504,"current_range_meters":6400,"station_id":"ce4bgvp2rcd13ifvqct0","pricing_plan_id":"cebpf4jnsgd1na2vs0mg"},{"bike_id":"d72d5a5e-a033-4555-a5b7-2e9b101d2f01","system_id":"levelo_inurba_marseille","lat":43.24346,"lon":5.41133,"is_reserved":false,"is_disabled":false,"rental_uris":{"android":"levelo://app?vid=d72d5a5e-a033-4555-a5b7-2e9b101d2f01","ios":"levelo://app?vid=d72d5a5e-a033-4555-a5b7-2e9b101d2f01"},"vehicle_type_id":"4","last_reported":1748927504,"current_range_meters":6800,"station_id":"","pricing_plan_id":"cebpf4jnsgd1na2vs0mg"},{"bike_id":"7b99b595-58cd-41da-b22e-d23123bcfb40","system_id":"levelo_inurba_marseille","lat":43.30923,"lon":5.40091,"is_reserved":false,"is_disabled":false,"rental_uris":{"android":"levelo://app?vid=7b99b595-58cd-41da-b22e-d23123bcfb40","ios":"levelo://app?vid=7b99b595-58cd-41da-b22e-d23123bcfb40"},"vehicle_type_id":"4","last_reported":1748927504,"current_range_meters":6800,"station_id":"ce4bgvp2rcd13ifvqct0","pricing_plan_id":"cebpf4jnsgd1na2vs0mg"},{"bike_id":"37a58c92-30a2-4013-86fc-a45750203582","system_id":"levelo_inurba_marseille","lat":43.286741,"lon":5.363525,"is_reserved":false,"is_disabled":false,"rental_uris":{"android":"levelo://app?vid=37a58c92-30a2-4013-86fc-a45750203582","ios":"levelo://app?vid=37a58c92-30a2-4013-86fc-a45750203582"},"vehicle_type_id":"4","last_reported":1748927504,"current_range_meters":6800,"station_id":"ce4bhah2rcd13ifvqej0","pricing_plan_id":"cebpf4jnsgd1na2vs0mg"},{"bike_id":"881498e7-33fc-4c1c-a65b-3c31d2a03915","system_id":"levelo_inurba_marseille","lat":43.337303,"lon":5.391937,"is_reserved":false,"is_disabled":false,"rental_uris":{"android":"levelo://app?vid=881498e7-33fc-4c1c-a65b-3c31d2a03915","ios":"levelo://app?vid=881498e7-33fc-4c1c-a65b-3c31d2a03915"},"vehicle_type_id":"4","last_reported":1748927504,"current_range_meters":7200,"station_id":"ce4bhr92rcd13ifvqhsg","pricing_plan_id":"cebpf4jnsgd1na2vs0mg"},{"bike_id":"d3f423ab-1bb1-4815-b53c-12de902293af","system_id":"levelo_inurba_marseille","lat":43.292151,"lon":5.400137,"is_reserved":false,"is_disabled":false,"rental_uris":{"android":"levelo://app?vid=d3f423ab-1bb1-4815-b53c-12de902293af","ios":"levelo://app?vid=d3f423ab-1bb1-4815-b53c-12de902293af"},"vehicle_type_id":"4","last_reported":1748927504,"current_range_meters":8000,"station_id":"","pricing_plan_id":"cebpf4jnsgd1na2vs0mg"},{"bike_id":"cfb4b455-d1cd-43d0-a6bd-48b2bcbc4252","system_id":"levelo_inurba_marseille","lat":43.29908,"lon":5.37513,"is_reserved":false,"is_disabled":false,"rental_uris":{"android":"levelo://app?vid=cfb4b455-d1cd-43d0-a6bd-48b2bcbc4252","ios":"levelo://app?vid=cfb4b455-d1cd-43d0-a6bd-48b2bcbc4252"},"vehicle_type_id":"4","last_reported":1748927504,"current_range_meters":8000,"station_id":"ce4bgjh2rcd13ifvqbg0","pricing_plan_id":"cebpf4jnsgd1na2vs0mg"},{"bike_id":"f724b12b-1b5c-45c2-9a71-0251cc3e9a9a","system_id":"levelo_inurba_marseille","lat":43.290435,"lon":5.399668,"is_reserved":false,"is_disabled":false,"rental_uris":{"android":"levelo://app?vid=f724b12b-1b5c-45c2-9a71-0251cc3e9a9a","ios":"levelo://app?vid=f724b12b-1b5c-45c2-9a71-0251cc3e9a9a"},"vehicle_type_id":"4","last_reported":1748927504,"current_range_meters":8400,"station_id":"ce4bh392rcd13ifvqdm0","pricing_plan_id":"cebpf4jnsgd1na2vs0mg"},{"bike_id":"2fe63ade-f157-4876-b5f4-d6f719b9159f","system_id":"levelo_inurba_marseille","lat":43.231916,"lon":5.399851,"is_reserved":false,"is_disabled":false,"rental_uris":{"android":"levelo://app?vid=2fe63ade-f157-4876-b5f4-d6f719b9159f","ios":"levelo://app?vid=2fe63ade-f157-4876-b5f4-d6f719b9159f"},"vehicle_type_id":"4","last_reported":1748927504,"current_range_meters":8400,"station_id":"ce4bhn12rcd13ifvqgqg","pricing_plan_id":"cebpf4jnsgd1na2vs0mg"},{"bike_id":"24b5a71f-fabf-4fa6-9fec-f2c7385ad3aa","system_id":"levelo_inurba_marseille","lat":43.330339,"lon":5.390621,"is_reserved":false,"is_disabled":false,"rental_uris":{"android":"levelo://app?vid=24b5a71f-fabf-4fa6-9fec-f2c7385ad3aa","ios":"levelo://app?vid=24b5a71f-fabf-4fa6-9fec-f2c7385ad3aa"},"vehicle_type_id":"4","last_reported":1748927504,"current_range_meters":8400,"station_id":"ce4bhr92rcd13ifvqhrg","pricing_plan_id":"cebpf4jnsgd1na2vs0mg"},{"bike_id":"0b8b9610-0218-4e9f-9639-091d4dc95eda","system_id":"levelo_inurba_marseille","lat":43.28568,"lon":5.39491,"is_reserved":false,"is_disabled":false,"rental_uris":{"android":"levelo://app?vid=0b8b9610-0218-4e9f-9639-091d4dc95eda","ios":"levelo://app?vid=0b8b9610-0218-4e9f-9639-091d4dc95eda"},"vehicle_type_id":"4","last_reported":1748927504,"current_range_meters":8800,"station_id":"ce4bh292rcd13ifvqdg0","pricing_plan_id":"cebpf4jnsgd1na2vs0mg"},{"bike_id":"f1c8c7e1-3f34-4d38-a503-caa580ebde75","system_id":"levelo_inurba_marseille","lat":43.22498,"lon":5.34758,"is_reserved":false,"is_disabled":false,"rental_uris":{"android":"levelo://app?vid=f1c8c7e1-3f34-4d38-a503-caa580ebde75","ios":"levelo://app?vid=f1c8c7e1-3f34-4d38-a503-caa580ebde75"},"vehicle_type_id":"4","last_reported":1748927504,"current_range_meters":8800,"station_id":"st_cvj5dfep6f1abm77gieg","pricing_plan_id":"cebpf4jnsgd1na2vs0mg"},{"bike_id":"acdfb4ec-72f4-4860-9958-ed448301f50b","system_id":"levelo_inurba_marseille","lat":43.30097,"lon":5.37926,"is_reserved":false,"is_disabled":false,"rental_uris":{"android":"levelo://app?vid=acdfb4ec-72f4-4860-9958-ed448301f50b","ios":"levelo://app?vid=acdfb4ec-72f4-4860-9958-ed448301f50b"},"vehicle_type_id":"4","last_reported":1748927504,"current_range_meters":9200,"station_id":"","pricing_plan_id":"cebpf4jnsgd1na2vs0mg"},{"bike_id":"402e2a1f-cc55-477e-bcd5-2fc00f0f3e35","system_id":"levelo_inurba_marseille","lat":43.30163,"lon":5.38087,"is_reserved":false,"is_disabled":false,"rental_uris":{"android":"levelo://app?vid=402e2a1f-cc55-477e-bcd5-2fc00f0f3e35","ios":"levelo://app?vid=402e2a1f-cc55-477e-bcd5-2fc00f0f3e35"},"vehicle_type_id":"4","last_reported":1748927504,"current_range_meters":9200,"station_id":"ce4bgjp2rcd13ifvqbh0","pricing_plan_id":"cebpf4jnsgd1na2vs0mg"},{"bike_id":"8e34dcc8-37f9-4140-a66e-077b8478c232","system_id":"levelo_inurba_marseille","lat":43.29009,"lon":5.35608,"is_reserved":false,"is_disabled":false,"rental_uris":{"android":"levelo://app?vid=8e34dcc8-37f9-4140-a66e-077b8478c232","ios":"levelo://app?vid=8e34dcc8-37f9-4140-a66e-077b8478c232"},"vehicle_type_id":"4","last_reported":1748927504,"current_range_meters":9200,"station_id":"ce4bhb92rcd13ifvqen0","pricing_plan_id":"cebpf4jnsgd1na2vs0mg"},{"bike_id":"f9ba8850-482d-43cd-93c6-da015477c7af","system_id":"levelo_inurba_marseille","lat":43.28637,"lon":5.38387,"is_reserved":false,"is_disabled":false,"rental_uris":{"android":"levelo://app?vid=f9ba8850-482d-43cd-93c6-da015477c7af","ios":"levelo://app?vid=f9ba8850-482d-43cd-93c6-da015477c7af"},"vehicle_type_id":"4","last_reported":1748927504,"current_range_meters":9600,"station_id":"","pricing_plan_id":"cebpf4jnsgd1na2vs0mg"},{"bike_id":"113d0131-8168-44ff-af6f-a57421e1ccf2","system_id":"levelo_inurba_marseille","lat":43.3096,"lon":5.40159,"is_reserved":false,"is_disabled":false,"rental_uris":{"android":"levelo://app?vid=113d0131-8168-44ff-af6f-a57421e1ccf2","ios":"levelo://app?vid=113d0131-8168-44ff-af6f-a57421e1ccf2"},"vehicle_type_id":"4","last_reported":1748927504,"current_range_meters":9600,"station_id":"ce4bgvp2rcd13ifvqct0","pricing_plan_id":"cebpf4jnsgd1na2vs0mg"},{"bike_id":"da621413-ecd9-4a2a-bf25-0aa4b6011687","system_id":"levelo_inurba_marseille","lat":43.317047,"lon":5.404463,"is_reserved":false,"is_disabled":false,"rental_uris":{"android":"levelo://app?vid=da621413-ecd9-4a2a-bf25-0aa4b6011687","ios":"levelo://app?vid=da621413-ecd9-4a2a-bf25-0aa4b6011687"},"vehicle_type_id":"4","last_reported":1748927504,"current_range_meters":9600,"station_id":"ce4bh012rcd13ifvqd00","pricing_plan_id":"cebpf4jnsgd1na2vs0mg"},{"bike_id":"50c65fc8-4af4-486c-b876-f29ebca4fb23","system_id":"levelo_inurba_marseille","lat":43.29579,"lon":5.39987,"is_reserved":false,"is_disabled":false,"rental_uris":{"android":"levelo://app?vid=50c65fc8-4af4-486c-b876-f29ebca4fb23","ios":"levelo://app?vid=50c65fc8-4af4-486c-b876-f29ebca4fb23"},"vehicle_type_id":"4","last_reported":1748927504,"current_range_meters":9600,"station_id":"ce4bh312rcd13ifvqdj0","pricing_plan_id":"cebpf4jnsgd1na2vs0mg"},{"bike_id":"cd693c4f-7556-46d4-b51d-98253789afd6","system_id":"levelo_inurba_marseille","lat":43.28414,"lon":5.37504,"is_reserved":false,"is_disabled":false,"rental_uris":{"android":"levelo://app?vid=cd693c4f-7556-46d4-b51d-98253789afd6","ios":"levelo://app?vid=cd693c4f-7556-46d4-b51d-98253789afd6"},"vehicle_type_id":"4","last_reported":1748927504,"current_range_meters":9600,"station_id":"ce4bh412rcd13ifvqds0","pricing_plan_id":"cebpf4jnsgd1na2vs0mg"},{"bike_id":"0d6f517d-3fc1-46a6-b91c-314ca00acdb8","system_id":"levelo_inurba_marseille","lat":43.27209,"lon":5.39193,"is_reserved":false,"is_disabled":false,"rental_uris":{"android":"levelo://app?vid=0d6f517d-3fc1-46a6-b91c-314ca00acdb8","ios":"levelo://app?vid=0d6f517d-3fc1-46a6-b91c-314ca00acdb8"},"vehicle_type_id":"4","last_reported":1748927504,"current_range_meters":10000,"station_id":"ce4bhhp2rcd13ifvqfm0","pricing_plan_id":"cebpf4jnsgd1na2vs0mg"},{"bike_id":"6e97afee-9337-497f-907b-0dcf237dc3c0","system_id":"levelo_inurba_marseille","lat":43.287234,"lon":5.360927,"is_reserved":false,"is_disabled":false,"rental_uris":{"android":"levelo://app?vid=6e97afee-9337-497f-907b-0dcf237dc3c0","ios":"levelo://app?vid=6e97afee-9337-497f-907b-0dcf237dc3c0"},"vehicle_type_id":"4","last_reported":1748927504,"current_range_meters":10000,"station_id":"cki0cbj6b192h4jlfktg","pricing_plan_id":"cebpf4jnsgd1na2vs0mg"},{"bike_id":"d33dd8e7-72ba-4302-905c-8a138456e3bc","system_id":"levelo_inurba_marseille","lat":43.30948,"lon":5.40229,"is_reserved":false,"is_disabled":false,"rental_uris":{"android":"levelo://app?vid=d33dd8e7-72ba-4302-905c-8a138456e3bc","ios":"levelo://app?vid=d33dd8e7-72ba-4302-905c-8a138456e3bc"},"vehicle_type_id":"4","last_reported":1748927504,"current_range_meters":10800,"station_id":"","pricing_plan_id":"cebpf4jnsgd1na2vs0mg"},{"bike_id":"9b8faa06-2806-4de2-b0e4-fcb9710ee2db","system_id":"levelo_inurba_marseille","lat":43.29801,"lon":5.38091,"is_reserved":false,"is_disabled":false,"rental_uris":{"android":"levelo://app?vid=9b8faa06-2806-4de2-b0e4-fcb9710ee2db","ios":"levelo://app?vid=9b8faa06-2806-4de2-b0e4-fcb9710ee2db"},"vehicle_type_id":"4","last_reported":1748927504,"current_range_meters":10800,"station_id":"ce4bgip2rcd13ifvqbb0","pricing_plan_id":"cebpf4jnsgd1na2vs0mg"},{"bike_id":"09e2d14a-4e1b-4edd-9db4-b62dee8c4a48","system_id":"levelo_inurba_marseille","lat":43.30923,"lon":5.401566,"is_reserved":false,"is_disabled":false,"rental_uris":{"android":"levelo://app?vid=09e2d14a-4e1b-4edd-9db4-b62dee8c4a48","ios":"levelo://app?vid=09e2d14a-4e1b-4edd-9db4-b62dee8c4a48"},"vehicle_type_id":"4","last_reported":1748927504,"current_range_meters":10800,"station_id":"ce4bgvp2rcd13ifvqct0","pricing_plan_id":"cebpf4jnsgd1na2vs0mg"},{"bike_id":"cfd8a61b-5b9f-4b59-b997-bf8355304b02","system_id":"levelo_inurba_marseille","lat":43.288526,"lon":5.358506,"is_reserved":false,"is_disabled":false,"rental_uris":{"android":"levelo://app?vid=cfd8a61b-5b9f-4b59-b997-bf8355304b02","ios":"levelo://app?vid=cfd8a61b-5b9f-4b59-b997-bf8355304b02"},"vehicle_type_id":"4","last_reported":1748927504,"current_range_meters":10800,"station_id":"ce4bhb12rcd13ifvqem0","pricing_plan_id":"cebpf4jnsgd1na2vs0mg"},{"bike_id":"5b0c04c7-3e5d-4981-ba91-7d65704822b2","system_id":"levelo_inurba_marseille","lat":43.279122,"lon":5.379991,"is_reserved":false,"is_disabled":false,"rental_uris":{"android":"levelo://app?vid=5b0c04c7-3e5d-4981-ba91-7d65704822b2","ios":"levelo://app?vid=5b0c04c7-3e5d-4981-ba91-7d65704822b2"},"vehicle_type_id":"4","last_reported":1748927504,"current_range_meters":10800,"station_id":"ce4bhf92rcd13ifvqf50","pricing_plan_id":"cebpf4jnsgd1na2vs0mg"},{"bike_id":"bb739d32-2c8e-47cd-a6d0-fd3534d6015f","system_id":"levelo_inurba_marseille","lat":43.28719,"lon":5.39964,"is_reserved":false,"is_disabled":false,"rental_uris":{"android":"levelo://app?vid=bb739d32-2c8e-47cd-a6d0-fd3534d6015f","ios":"levelo://app?vid=bb739d32-2c8e-47cd-a6d0-fd3534d6015f"},"vehicle_type_id":"4","last_reported":1748927504,"current_range_meters":10800,"station_id":"ce4bho92rcd13ifvqh3g","pricing_plan_id":"cebpf4jnsgd1na2vs0mg"},{"bike_id":"132751d0-a1d2-4547-8139-b08ba3b87187","system_id":"levelo_inurba_marseille","lat":43.32331,"lon":5.4062,"is_reserved":false,"is_disabled":false,"rental_uris":{"android":"levelo://app?vid=132751d0-a1d2-4547-8139-b08ba3b87187","ios":"levelo://app?vid=132751d0-a1d2-4547-8139-b08ba3b87187"},"vehicle_type_id":"4","last_reported":1748927504,"current_range_meters":10800,"station_id":"ce4bhq92rcd13ifvqhjg","pricing_plan_id":"cebpf4jnsgd1na2vs0mg"},{"bike_id":"fa62253e-e4db-42d1-9a63-6ab16922bf00","system_id":"levelo_inurba_marseille","lat":43.32013,"lon":5.3682,"is_reserved":false,"is_disabled":false,"rental_uris":{"android":"levelo://app?vid=fa62253e-e4db-42d1-9a63-6ab16922bf00","ios":"levelo://app?vid=fa62253e-e4db-42d1-9a63-6ab16922bf00"},"vehicle_type_id":"4","last_reported":1748927504,"current_range_meters":11200,"station_id":"","pricing_plan_id":"cebpf4jnsgd1na2vs0mg"},{"bike_id":"fb040055-bfdb-41da-aaec-942d312aca01","system_id":"levelo_inurba_marseille","lat":43.30668,"lon":5.40075,"is_reserved":false,"is_disabled":false,"rental_uris":{"android":"levelo://app?vid=fb040055-bfdb-41da-aaec-942d312aca01","ios":"levelo://app?vid=fb040055-bfdb-41da-aaec-942d312aca01"},"vehicle_type_id":"4","last_reported":1748927504,"current_range_meters":11200,"station_id":"ce4bh112rcd13ifvqda0","pricing_plan_id":"cebpf4jnsgd1na2vs0mg"},{"bike_id":"3082751b-d3f4-42ac-b6c0-bf946931c7e5","system_id":"levelo_inurba_marseille","lat":43.21229,"lon":5.35054,"is_reserved":false,"is_disabled":false,"rental_uris":{"android":"levelo://app?vid=3082751b-d3f4-42ac-b6c0-bf946931c7e5","ios":"levelo://app?vid=3082751b-d3f4-42ac-b6c0-bf946931c7e5"},"vehicle_type_id":"4","last_reported":1748927504,"current_range_meters":11200,"station_id":"st_cvj6sg6p6f1abm77japg","pricing_plan_id":"cebpf4jnsgd1na2vs0mg"},{"bike_id":"a33c9ded-afda-47fd-87fa-ac593a798cfa","system_id":"levelo_inurba_marseille","lat":43.268619,"lon":5.389121,"is_reserved":false,"is_disabled":false,"rental_uris":{"android":"levelo://app?vid=a33c9ded-afda-47fd-87fa-ac593a798cfa","ios":"levelo://app?vid=a33c9ded-afda-47fd-87fa-ac593a798cfa"},"vehicle_type_id":"4","last_reported":1748927504,"current_range_meters":11600,"station_id":"","pricing_plan_id":"cebpf4jnsgd1na2vs0mg"},{"bike_id":"dcc954dd-b31c-407a-a6c4-56ff51393cba","system_id":"levelo_inurba_marseille","lat":43.3093,"lon":5.40153,"is_reserved":false,"is_disabled":false,"rental_uris":{"android":"levelo://app?vid=dcc954dd-b31c-407a-a6c4-56ff51393cba","ios":"levelo://app?vid=dcc954dd-b31c-407a-a6c4-56ff51393cba"},"vehicle_type_id":"4","last_reported":1748927504,"current_range_meters":11600,"station_id":"ce4bgvp2rcd13ifvqct0","pricing_plan_id":"cebpf4jnsgd1na2vs0mg"},{"bike_id":"9873ea8e-c2af-49bc-9f62-b61d54c33967","system_id":"levelo_inurba_marseille","lat":43.28951,"lon":5.36403,"is_reserved":false,"is_disabled":false,"rental_uris":{"android":"levelo://app?vid=9873ea8e-c2af-49bc-9f62-b61d54c33967","ios":"levelo://app?vid=9873ea8e-c2af-49bc-9f62-b61d54c33967"},"vehicle_type_id":"4","last_reported":1748927504,"current_range_meters":11600,"station_id":"ce4bhc92rcd13ifvqetg","pricing_plan_id":"cebpf4jnsgd1na2vs0mg"},{"bike_id":"900d1018-62d7-44ad-a7bd-2d294560b817","system_id":"levelo_inurba_marseille","lat":43.2512,"lon":5.40331,"is_reserved":false,"is_disabled":false,"rental_uris":{"android":"levelo://app?vid=900d1018-62d7-44ad-a7bd-2d294560b817","ios":"levelo://app?vid=900d1018-62d7-44ad-a7bd-2d294560b817"},"vehicle_type_id":"4","last_reported":1748927504,"current_range_meters":11600,"station_id":"ce4bhlh2rcd13ifvqgig","pricing_plan_id":"cebpf4jnsgd1na2vs0mg"},{"bike_id":"9b5f546d-e25a-4080-ba47-25b7850f5bd3","system_id":"levelo_inurba_marseille","lat":43.28733,"lon":5.36105,"is_reserved":false,"is_disabled":false,"rental_uris":{"android":"levelo://app?vid=9b5f546d-e25a-4080-ba47-25b7850f5bd3","ios":"levelo://app?vid=9b5f546d-e25a-4080-ba47-25b7850f5bd3"},"vehicle_type_id":"4","last_reported":1748927504,"current_range_meters":11600,"station_id":"cki0cbj6b192h4jlfktg","pricing_plan_id":"cebpf4jnsgd1na2vs0mg"},{"bike_id":"25bb10df-011f-4179-aa26-1d1dd6e6598f","system_id":"levelo_inurba_marseille","lat":43.31164,"lon":5.40191,"is_reserved":false,"is_disabled":false,"rental_uris":{"android":"levelo://app?vid=25bb10df-011f-4179-aa26-1d1dd6e6598f","ios":"levelo://app?vid=25bb10df-011f-4179-aa26-1d1dd6e6598f"},"vehicle_type_id":"4","last_reported":1748927504,"current_range_meters":12000,"station_id":"","pricing_plan_id":"cebpf4jnsgd1na2vs0mg"},{"bike_id":"6c7dc0b6-cea1-43c5-94ac-b10f8cfc40be","system_id":"levelo_inurba_marseille","lat":43.33106,"lon":5.38239,"is_reserved":false,"is_disabled":false,"rental_uris":{"android":"levelo://app?vid=6c7dc0b6-cea1-43c5-94ac-b10f8cfc40be","ios":"levelo://app?vid=6c7dc0b6-cea1-43c5-94ac-b10f8cfc40be"},"vehicle_type_id":"4","last_reported":1748927504,"current_range_meters":12000,"station_id":"","pricing_plan_id":"cebpf4jnsgd1na2vs0mg"},{"bike_id":"aab1d16a-9f0c-4100-bb72-0114cbb59630","system_id":"levelo_inurba_marseille","lat":43.28404,"lon":5.37498,"is_reserved":false,"is_disabled":false,"rental_uris":{"android":"levelo://app?vid=aab1d16a-9f0c-4100-bb72-0114cbb59630","ios":"levelo://app?vid=aab1d16a-9f0c-4100-bb72-0114cbb59630"},"vehicle_type_id":"4","last_reported":1748927504,"current_range_meters":12000,"station_id":"ce4bh412rcd13ifvqds0","pricing_plan_id":"cebpf4jnsgd1na2vs0mg"},{"bike_id":"d144d0a6-8442-4d6c-b649-3639d789aa9f","system_id":"levelo_inurba_marseille","lat":43.294716,"lon":5.38656,"is_reserved":false,"is_disabled":false,"rental_uris":{"android":"levelo://app?vid=d144d0a6-8442-4d6c-b649-3639d789aa9f","ios":"levelo://app?vid=d144d0a6-8442-4d6c-b649-3639d789aa9f"},"vehicle_type_id":"4","last_reported":1748927504,"current_range_meters":12400,"station_id":"","pricing_plan_id":"cebpf4jnsgd1na2vs0mg"},{"bike_id":"5e2ba9af-34a5-4e83-a16b-5af481246853","system_id":"levelo_inurba_marseille","lat":43.30553,"lon":5.3843,"is_reserved":false,"is_disabled":false,"rental_uris":{"android":"levelo://app?vid=5e2ba9af-34a5-4e83-a16b-5af481246853","ios":"levelo://app?vid=5e2ba9af-34a5-4e83-a16b-5af481246853"},"vehicle_type_id":"4","last_reported":1748927504,"current_range_meters":12400,"station_id":"ce4bgg92rcd13ifvqb30","pricing_plan_id":"cebpf4jnsgd1na2vs0mg"},{"bike_id":"e289ab91-0bec-45a1-90d3-6439ba734579","system_id":"levelo_inurba_marseille","lat":43.30462,"lon":5.38892,"is_reserved":false,"is_disabled":false,"rental_uris":{"android":"levelo://app?vid=e289ab91-0bec-45a1-90d3-6439ba734579","ios":"levelo://app?vid=e289ab91-0bec-45a1-90d3-6439ba734579"},"vehicle_type_id":"4","last_reported":1748927504,"current_range_meters":12400,"station_id":"ce4bgk12rcd13ifvqbi0","pricing_plan_id":"cebpf4jnsgd1na2vs0mg"},{"bike_id":"cb6652a2-fb1b-44cc-a598-ae6106a62b0f","system_id":"levelo_inurba_marseille","lat":43.29649,"lon":5.40597,"is_reserved":false,"is_disabled":false,"rental_uris":{"android":"levelo://app?vid=cb6652a2-fb1b-44cc-a598-ae6106a62b0f","ios":"levelo://app?vid=cb6652a2-fb1b-44cc-a598-ae6106a62b0f"},"vehicle_type_id":"4","last_reported":1748927504,"current_range_meters":12800,"station_id":"ce4bh0h2rcd13ifvqd60","pricing_plan_id":"cebpf4jnsgd1na2vs0mg"},{"bike_id":"0ad7a620-d49a-4300-a404-a0ee7002ef3a","system_id":"levelo_inurba_marseille","lat":43.28478,"lon":5.38584,"is_reserved":false,"is_disabled":false,"rental_uris":{"android":"levelo://app?vid=0ad7a620-d49a-4300-a404-a0ee7002ef3a","ios":"levelo://app?vid=0ad7a620-d49a-4300-a404-a0ee7002ef3a"},"vehicle_type_id":"4","last_reported":1748927504,"current_range_meters":12800,"station_id":"ce4bh8p2rcd13ifvqeb0","pricing_plan_id":"cebpf4jnsgd1na2vs0mg"},{"bike_id":"cf9a9959-303f-40f9-b57e-3ca93b1edd13","system_id":"levelo_inurba_marseille","lat":43.288414,"lon":5.3585,"is_reserved":false,"is_disabled":false,"rental_uris":{"android":"levelo://app?vid=cf9a9959-303f-40f9-b57e-3ca93b1edd13","ios":"levelo://app?vid=cf9a9959-303f-40f9-b57e-3ca93b1edd13"},"vehicle_type_id":"4","last_reported":1748927504,"current_range_meters":12800,"station_id":"ce4bhb12rcd13ifvqem0","pricing_plan_id":"cebpf4jnsgd1na2vs0mg"},{"bike_id":"53196814-6051-40e4-bd7e-568c420b5ed1","system_id":"levelo_inurba_marseille","lat":43.251097,"lon":5.403264,"is_reserved":false,"is_disabled":false,"rental_uris":{"android":"levelo://app?vid=53196814-6051-40e4-bd7e-568c420b5ed1","ios":"levelo://app?vid=53196814-6051-40e4-bd7e-568c420b5ed1"},"vehicle_type_id":"4","last_reported":1748927504,"current_range_meters":13600,"station_id":"ce4bhlh2rcd13ifvqgig","pricing_plan_id":"cebpf4jnsgd1na2vs0mg"},{"bike_id":"c9f2be1b-2f8c-4441-adc0-d5dcc13ac72f","system_id":"levelo_inurba_marseille","lat":43.32424,"lon":5.37387,"is_reserved":false,"is_disabled":false,"rental_uris":{"android":"levelo://app?vid=c9f2be1b-2f8c-4441-adc0-d5dcc13ac72f","ios":"levelo://app?vid=c9f2be1b-2f8c-4441-adc0-d5dcc13ac72f"},"vehicle_type_id":"4","last_reported":1748927504,"current_range_meters":14000,"station_id":"","pricing_plan_id":"cebpf4jnsgd1na2vs0mg"},{"bike_id":"fe449715-63e8-4bb0-ab50-1ce780da3af6","system_id":"levelo_inurba_marseille","lat":43.311168,"lon":5.377629,"is_reserved":false,"is_disabled":false,"rental_uris":{"android":"levelo://app?vid=fe449715-63e8-4bb0-ab50-1ce780da3af6","ios":"levelo://app?vid=fe449715-63e8-4bb0-ab50-1ce780da3af6"},"vehicle_type_id":"4","last_reported":1748927504,"current_range_meters":14000,"station_id":"ce4bgt92rcd13ifvqcg0","pricing_plan_id":"cebpf4jnsgd1na2vs0mg"},{"bike_id":"44ae72ad-2a29-4306-829f-e2d7b277057b","system_id":"levelo_inurba_marseille","lat":43.30644,"lon":5.40089,"is_reserved":false,"is_disabled":false,"rental_uris":{"android":"levelo://app?vid=44ae72ad-2a29-4306-829f-e2d7b277057b","ios":"levelo://app?vid=44ae72ad-2a29-4306-829f-e2d7b277057b"},"vehicle_type_id":"4","last_reported":1748927504,"current_range_meters":14000,"station_id":"ce4bh112rcd13ifvqda0","pricing_plan_id":"cebpf4jnsgd1na2vs0mg"},{"bike_id":"82762f70-216b-4762-9e82-daaa45d19a35","system_id":"levelo_inurba_marseille","lat":43.241693,"lon":5.364026,"is_reserved":false,"is_disabled":false,"rental_uris":{"android":"levelo://app?vid=82762f70-216b-4762-9e82-daaa45d19a35","ios":"levelo://app?vid=82762f70-216b-4762-9e82-daaa45d19a35"},"vehicle_type_id":"4","last_reported":1748927504,"current_range_meters":14000,"station_id":"cpo36qri1sfpv3e86is0","pricing_plan_id":"cebpf4jnsgd1na2vs0mg"},{"bike_id":"063c29b9-1301-46d1-9308-5957595af501","system_id":"levelo_inurba_marseille","lat":43.309359,"lon":5.401484,"is_reserved":false,"is_disabled":false,"rental_uris":{"android":"levelo://app?vid=063c29b9-1301-46d1-9308-5957595af501","ios":"levelo://app?vid=063c29b9-1301-46d1-9308-5957595af501"},"vehicle_type_id":"4","last_reported":1748927504,"current_range_meters":14400,"station_id":"ce4bgvp2rcd13ifvqct0","pricing_plan_id":"cebpf4jnsgd1na2vs0mg"},{"bike_id":"c61aa0f8-37eb-4f90-b064-55fcc4e26378","system_id":"levelo_inurba_marseille","lat":43.283476,"lon":5.381059,"is_reserved":false,"is_disabled":false,"rental_uris":{"android":"levelo://app?vid=c61aa0f8-37eb-4f90-b064-55fcc4e26378","ios":"levelo://app?vid=c61aa0f8-37eb-4f90-b064-55fcc4e26378"},"vehicle_type_id":"4","last_reported":1748927504,"current_range_meters":14800,"station_id":"ce4bh412rcd13ifvqdr0","pricing_plan_id":"cebpf4jnsgd1na2vs0mg"},{"bike_id":"abd1a18a-034f-460d-b1a6-574249a9d126","system_id":"levelo_inurba_marseille","lat":43.30904,"lon":5.4015,"is_reserved":false,"is_disabled":false,"rental_uris":{"android":"levelo://app?vid=abd1a18a-034f-460d-b1a6-574249a9d126","ios":"levelo://app?vid=abd1a18a-034f-460d-b1a6-574249a9d126"},"vehicle_type_id":"4","last_reported":1748927504,"current_range_meters":15200,"station_id":"ce4bgvp2rcd13ifvqct0","pricing_plan_id":"cebpf4jnsgd1na2vs0mg"},{"bike_id":"a762e256-a25b-469a-856f-da2f81b42275","system_id":"levelo_inurba_marseille","lat":43.27054,"lon":5.40259,"is_reserved":false,"is_disabled":false,"rental_uris":{"android":"levelo://app?vid=a762e256-a25b-469a-856f-da2f81b42275","ios":"levelo://app?vid=a762e256-a25b-469a-856f-da2f81b42275"},"vehicle_type_id":"4","last_reported":1748927504,"current_range_meters":15200,"station_id":"ce4bhk92rcd13ifvqgc0","pricing_plan_id":"cebpf4jnsgd1na2vs0mg"},{"bike_id":"d6b4f83b-af76-4e61-9127-05c693f1fcc0","system_id":"levelo_inurba_marseille","lat":43.24093,"lon":5.37762,"is_reserved":false,"is_disabled":false,"rental_uris":{"android":"levelo://app?vid=d6b4f83b-af76-4e61-9127-05c693f1fcc0","ios":"levelo://app?vid=d6b4f83b-af76-4e61-9127-05c693f1fcc0"},"vehicle_type_id":"4","last_reported":1748927504,"current_range_meters":15200,"station_id":"ce4bhnp2rcd13ifvqgvg","pricing_plan_id":"cebpf4jnsgd1na2vs0mg"},{"bike_id":"8756fb07-7ca7-47ca-9987-8fa6fdbad341","system_id":"levelo_inurba_marseille","lat":43.32675,"lon":5.41004,"is_reserved":false,"is_disabled":false,"rental_uris":{"android":"levelo://app?vid=8756fb07-7ca7-47ca-9987-8fa6fdbad341","ios":"levelo://app?vid=8756fb07-7ca7-47ca-9987-8fa6fdbad341"},"vehicle_type_id":"4","last_reported":1748927504,"current_range_meters":15200,"station_id":"ce4bhpp2rcd13ifvqhgg","pricing_plan_id":"cebpf4jnsgd1na2vs0mg"},{"bike_id":"56ebd079-5325-4146-a252-c6e09bfabc00","system_id":"levelo_inurba_marseille","lat":43.31895,"lon":5.407426,"is_reserved":false,"is_disabled":false,"rental_uris":{"android":"levelo://app?vid=56ebd079-5325-4146-a252-c6e09bfabc00","ios":"levelo://app?vid=56ebd079-5325-4146-a252-c6e09bfabc00"},"vehicle_type_id":"4","last_reported":1748927504,"current_range_meters":15200,"station_id":"ce4bhq12rcd13ifvqhig","pricing_plan_id":"cebpf4jnsgd1na2vs0mg"},{"bike_id":"b7557344-82f1-4a35-96d4-b128a1446f19","system_id":"levelo_inurba_marseille","lat":43.323656,"lon":5.388911,"is_reserved":false,"is_disabled":false,"rental_uris":{"android":"levelo://app?vid=b7557344-82f1-4a35-96d4-b128a1446f19","ios":"levelo://app?vid=b7557344-82f1-4a35-96d4-b128a1446f19"},"vehicle_type_id":"4","last_reported":1748927504,"current_range_meters":15200,"station_id":"ce4bhqp2rcd13ifvqhog","pricing_plan_id":"cebpf4jnsgd1na2vs0mg"},{"bike_id":"a082cfc8-70c0-4316-b58b-8dca0406cb1a","system_id":"levelo_inurba_marseille","lat":43.254515,"lon":5.418556,"is_reserved":false,"is_disabled":false,"rental_uris":{"android":"levelo://app?vid=a082cfc8-70c0-4316-b58b-8dca0406cb1a","ios":"levelo://app?vid=a082cfc8-70c0-4316-b58b-8dca0406cb1a"},"vehicle_type_id":"4","last_reported":1748927504,"current_range_meters":16000,"station_id":"","pricing_plan_id":"cebpf4jnsgd1na2vs0mg"},{"bike_id":"e31c84f5-c44b-48e2-adf2-52a2beace6c7","system_id":"levelo_inurba_marseille","lat":43.31746,"lon":5.37406,"is_reserved":false,"is_disabled":false,"rental_uris":{"android":"levelo://app?vid=e31c84f5-c44b-48e2-adf2-52a2beace6c7","ios":"levelo://app?vid=e31c84f5-c44b-48e2-adf2-52a2beace6c7"},"vehicle_type_id":"4","last_reported":1748927504,"current_range_meters":16000,"station_id":"","pricing_plan_id":"cebpf4jnsgd1na2vs0mg"},{"bike_id":"b788ecf4-1f87-4b82-9984-bd97a0c41edc","system_id":"levelo_inurba_marseille","lat":43.288561,"lon":5.393147,"is_reserved":false,"is_disabled":false,"rental_uris":{"android":"levelo://app?vid=b788ecf4-1f87-4b82-9984-bd97a0c41edc","ios":"levelo://app?vid=b788ecf4-1f87-4b82-9984-bd97a0c41edc"},"vehicle_type_id":"4","last_reported":1748927504,"current_range_meters":16000,"station_id":"ce4bh2p2rcd13ifvqdi0","pricing_plan_id":"cebpf4jnsgd1na2vs0mg"},{"bike_id":"1e88019a-79c2-4fea-8cbd-454b3b9a39f1","system_id":"levelo_inurba_marseille","lat":43.29296,"lon":5.4018,"is_reserved":false,"is_disabled":false,"rental_uris":{"android":"levelo://app?vid=1e88019a-79c2-4fea-8cbd-454b3b9a39f1","ios":"levelo://app?vid=1e88019a-79c2-4fea-8cbd-454b3b9a39f1"},"vehicle_type_id":"4","last_reported":1748927504,"current_range_meters":16000,"station_id":"ce4bh312rcd13ifvqdk0","pricing_plan_id":"cebpf4jnsgd1na2vs0mg"},{"bike_id":"89fe64c7-aff6-494e-8271-d9c172c2b8af","system_id":"levelo_inurba_marseille","lat":43.27945,"lon":5.41046,"is_reserved":false,"is_disabled":false,"rental_uris":{"android":"levelo://app?vid=89fe64c7-aff6-494e-8271-d9c172c2b8af","ios":"levelo://app?vid=89fe64c7-aff6-494e-8271-d9c172c2b8af"},"vehicle_type_id":"4","last_reported":1748927504,"current_range_meters":16000,"station_id":"ce4bhnp2rcd13ifvqh0g","pricing_plan_id":"cebpf4jnsgd1na2vs0mg"},{"bike_id":"1cb7c0a1-48f8-49ab-9106-52040059037c","system_id":"levelo_inurba_marseille","lat":43.230564,"lon":5.354925,"is_reserved":false,"is_disabled":false,"rental_uris":{"android":"levelo://app?vid=1cb7c0a1-48f8-49ab-9106-52040059037c","ios":"levelo://app?vid=1cb7c0a1-48f8-49ab-9106-52040059037c"},"vehicle_type_id":"4","last_reported":1748927504,"current_range_meters":16000,"station_id":"cpo3342slgdg3j2ifvpg","pricing_plan_id":"cebpf4jnsgd1na2vs0mg"},{"bike_id":"6db8da9d-ed27-45cf-9935-6e37c99d0be9","system_id":"levelo_inurba_marseille","lat":43.26236,"lon":5.40137,"is_reserved":false,"is_disabled":false,"rental_uris":{"android":"levelo://app?vid=6db8da9d-ed27-45cf-9935-6e37c99d0be9","ios":"levelo://app?vid=6db8da9d-ed27-45cf-9935-6e37c99d0be9"},"vehicle_type_id":"4","last_reported":1748927504,"current_range_meters":16400,"station_id":"","pricing_plan_id":"cebpf4jnsgd1na2vs0mg"},{"bike_id":"d637341d-e5b5-41b1-9b2c-0a3f7fc6d4c4","system_id":"levelo_inurba_marseille","lat":43.302546,"lon":5.400783,"is_reserved":false,"is_disabled":false,"rental_uris":{"android":"levelo://app?vid=d637341d-e5b5-41b1-9b2c-0a3f7fc6d4c4","ios":"levelo://app?vid=d637341d-e5b5-41b1-9b2c-0a3f7fc6d4c4"},"vehicle_type_id":"4","last_reported":1748927504,"current_range_meters":16400,"station_id":"ce4bgvh2rcd13ifvqcs0","pricing_plan_id":"cebpf4jnsgd1na2vs0mg"},{"bike_id":"e7db7c67-114d-485f-9f39-1875e977dab5","system_id":"levelo_inurba_marseille","lat":43.279551,"lon":5.410446,"is_reserved":false,"is_disabled":false,"rental_uris":{"android":"levelo://app?vid=e7db7c67-114d-485f-9f39-1875e977dab5","ios":"levelo://app?vid=e7db7c67-114d-485f-9f39-1875e977dab5"},"vehicle_type_id":"4","last_reported":1748927504,"current_range_meters":16400,"station_id":"ce4bhnp2rcd13ifvqh0g","pricing_plan_id":"cebpf4jnsgd1na2vs0mg"},{"bike_id":"dba232dd-05ec-4177-8fee-3d3dc476d851","system_id":"levelo_inurba_marseille","lat":43.279877,"lon":5.416539,"is_reserved":false,"is_disabled":false,"rental_uris":{"android":"levelo://app?vid=dba232dd-05ec-4177-8fee-3d3dc476d851","ios":"levelo://app?vid=dba232dd-05ec-4177-8fee-3d3dc476d851"},"vehicle_type_id":"4","last_reported":1748927504,"current_range_meters":16400,"station_id":"ce4bho12rcd13ifvqh1g","pricing_plan_id":"cebpf4jnsgd1na2vs0mg"},{"bike_id":"859fcab1-74b2-40a1-b9e6-866c899a681e","system_id":"levelo_inurba_marseille","lat":43.279896,"lon":5.400179,"is_reserved":false,"is_disabled":false,"rental_uris":{"android":"levelo://app?vid=859fcab1-74b2-40a1-b9e6-866c899a681e","ios":"levelo://app?vid=859fcab1-74b2-40a1-b9e6-866c899a681e"},"vehicle_type_id":"4","last_reported":1748927504,"current_range_meters":16400,"station_id":"ce4bho92rcd13ifvqh4g","pricing_plan_id":"cebpf4jnsgd1na2vs0mg"},{"bike_id":"4e17c123-8236-4a02-a8a2-a61cdc625d7e","system_id":"levelo_inurba_marseille","lat":43.30483,"lon":5.37073,"is_reserved":false,"is_disabled":false,"rental_uris":{"android":"levelo://app?vid=4e17c123-8236-4a02-a8a2-a61cdc625d7e","ios":"levelo://app?vid=4e17c123-8236-4a02-a8a2-a61cdc625d7e"},"vehicle_type_id":"4","last_reported":1748927504,"current_range_meters":17200,"station_id":"","pricing_plan_id":"cebpf4jnsgd1na2vs0mg"},{"bike_id":"d51ebfd8-5b80-4263-8a36-a1c01e067738","system_id":"levelo_inurba_marseille","lat":43.305315,"lon":5.384316,"is_reserved":false,"is_disabled":false,"rental_uris":{"android":"levelo://app?vid=d51ebfd8-5b80-4263-8a36-a1c01e067738","ios":"levelo://app?vid=d51ebfd8-5b80-4263-8a36-a1c01e067738"},"vehicle_type_id":"4","last_reported":1748927504,"current_range_meters":17200,"station_id":"ce4bgg92rcd13ifvqb30","pricing_plan_id":"cebpf4jnsgd1na2vs0mg"},{"bike_id":"9577edff-be42-4822-a3a7-3ee7b299d51a","system_id":"levelo_inurba_marseille","lat":43.307782,"lon":5.37652,"is_reserved":false,"is_disabled":false,"rental_uris":{"android":"levelo://app?vid=9577edff-be42-4822-a3a7-3ee7b299d51a","ios":"levelo://app?vid=9577edff-be42-4822-a3a7-3ee7b299d51a"},"vehicle_type_id":"4","last_reported":1748927504,"current_range_meters":17200,"station_id":"ce4bgv92rcd13ifvqcq0","pricing_plan_id":"cebpf4jnsgd1na2vs0mg"},{"bike_id":"3c8e7a18-de47-410f-938b-d8977225abf3","system_id":"levelo_inurba_marseille","lat":43.29288,"lon":5.4018,"is_reserved":false,"is_disabled":false,"rental_uris":{"android":"levelo://app?vid=3c8e7a18-de47-410f-938b-d8977225abf3","ios":"levelo://app?vid=3c8e7a18-de47-410f-938b-d8977225abf3"},"vehicle_type_id":"4","last_reported":1748927504,"current_range_meters":17200,"station_id":"ce4bh312rcd13ifvqdk0","pricing_plan_id":"cebpf4jnsgd1na2vs0mg"},{"bike_id":"96425785-67ec-44b8-ac35-6530cd1939ae","system_id":"levelo_inurba_marseille","lat":43.24177,"lon":5.39699,"is_reserved":false,"is_disabled":false,"rental_uris":{"android":"levelo://app?vid=96425785-67ec-44b8-ac35-6530cd1939ae","ios":"levelo://app?vid=96425785-67ec-44b8-ac35-6530cd1939ae"},"vehicle_type_id":"4","last_reported":1748927504,"current_range_meters":17200,"station_id":"ce4bhn12rcd13ifvqgpg","pricing_plan_id":"cebpf4jnsgd1na2vs0mg"},{"bike_id":"821e87fa-7583-4681-a870-c6e73af33580","system_id":"levelo_inurba_marseille","lat":43.281499,"lon":5.426644,"is_reserved":false,"is_disabled":false,"rental_uris":{"android":"levelo://app?vid=821e87fa-7583-4681-a870-c6e73af33580","ios":"levelo://app?vid=821e87fa-7583-4681-a870-c6e73af33580"},"vehicle_type_id":"4","last_reported":1748927504,"current_range_meters":17200,"station_id":"ce4bhnh2rcd13ifvqgug","pricing_plan_id":"cebpf4jnsgd1na2vs0mg"},{"bike_id":"75b78a8c-e650-4bd1-8ece-c515b3b1ca86","system_id":"levelo_inurba_marseille","lat":43.24089,"lon":5.37754,"is_reserved":false,"is_disabled":false,"rental_uris":{"android":"levelo://app?vid=75b78a8c-e650-4bd1-8ece-c515b3b1ca86","ios":"levelo://app?vid=75b78a8c-e650-4bd1-8ece-c515b3b1ca86"},"vehicle_type_id":"4","last_reported":1748927504,"current_range_meters":17200,"station_id":"ce4bhnp2rcd13ifvqgvg","pricing_plan_id":"cebpf4jnsgd1na2vs0mg"},{"bike_id":"e073c3b9-579e-431b-8c54-b6a28caa0933","system_id":"levelo_inurba_marseille","lat":43.22978,"lon":5.35369,"is_reserved":false,"is_disabled":false,"rental_uris":{"android":"levelo://app?vid=e073c3b9-579e-431b-8c54-b6a28caa0933","ios":"levelo://app?vid=e073c3b9-579e-431b-8c54-b6a28caa0933"},"vehicle_type_id":"4","last_reported":1748927504,"current_range_meters":17200,"station_id":"cpo3532slgdg3j2ikp40","pricing_plan_id":"cebpf4jnsgd1na2vs0mg"},{"bike_id":"6a1d81c6-deed-4676-a232-253b9c013538","system_id":"levelo_inurba_marseille","lat":43.30525,"lon":5.389,"is_reserved":false,"is_disabled":false,"rental_uris":{"android":"levelo://app?vid=6a1d81c6-deed-4676-a232-253b9c013538","ios":"levelo://app?vid=6a1d81c6-deed-4676-a232-253b9c013538"},"vehicle_type_id":"4","last_reported":1748927504,"current_range_meters":17600,"station_id":"","pricing_plan_id":"cebpf4jnsgd1na2vs0mg"},{"bike_id":"bae57be5-cdae-42d5-be07-b232b26642d0","system_id":"levelo_inurba_marseille","lat":43.323436,"lon":5.406194,"is_reserved":false,"is_disabled":false,"rental_uris":{"android":"levelo://app?vid=bae57be5-cdae-42d5-be07-b232b26642d0","ios":"levelo://app?vid=bae57be5-cdae-42d5-be07-b232b26642d0"},"vehicle_type_id":"4","last_reported":1748927504,"current_range_meters":17600,"station_id":"ce4bhq92rcd13ifvqhjg","pricing_plan_id":"cebpf4jnsgd1na2vs0mg"},{"bike_id":"23976131-e815-4c78-b392-beb17b57ea0f","system_id":"levelo_inurba_marseille","lat":43.341444,"lon":5.409074,"is_reserved":false,"is_disabled":false,"rental_uris":{"android":"levelo://app?vid=23976131-e815-4c78-b392-beb17b57ea0f","ios":"levelo://app?vid=23976131-e815-4c78-b392-beb17b57ea0f"},"vehicle_type_id":"4","last_reported":1748927504,"current_range_meters":17600,"station_id":"ce4bhqh2rcd13ifvqhlg","pricing_plan_id":"cebpf4jnsgd1na2vs0mg"},{"bike_id":"0b356486-7882-4a7b-adf5-4fabd328daf9","system_id":"levelo_inurba_marseille","lat":43.28719,"lon":5.36087,"is_reserved":false,"is_disabled":false,"rental_uris":{"android":"levelo://app?vid=0b356486-7882-4a7b-adf5-4fabd328daf9","ios":"levelo://app?vid=0b356486-7882-4a7b-adf5-4fabd328daf9"},"vehicle_type_id":"4","last_reported":1748927504,"current_range_meters":17600,"station_id":"cki0cbj6b192h4jlfktg","pricing_plan_id":"cebpf4jnsgd1na2vs0mg"},{"bike_id":"a062fae3-bf19-4ed3-b11f-bbec44e3344b","system_id":"levelo_inurba_marseille","lat":43.32103,"lon":5.40777,"is_reserved":false,"is_disabled":false,"rental_uris":{"android":"levelo://app?vid=a062fae3-bf19-4ed3-b11f-bbec44e3344b","ios":"levelo://app?vid=a062fae3-bf19-4ed3-b11f-bbec44e3344b"},"vehicle_type_id":"4","last_reported":1748927504,"current_range_meters":18000,"station_id":"","pricing_plan_id":"cebpf4jnsgd1na2vs0mg"},{"bike_id":"31e64423-5c87-4517-a64c-daac614d6a42","system_id":"levelo_inurba_marseille","lat":43.30173,"lon":5.37458,"is_reserved":false,"is_disabled":false,"rental_uris":{"android":"levelo://app?vid=31e64423-5c87-4517-a64c-daac614d6a42","ios":"levelo://app?vid=31e64423-5c87-4517-a64c-daac614d6a42"},"vehicle_type_id":"4","last_reported":1748927504,"current_range_meters":18000,"station_id":"ce4bgs92rcd13ifvqcc0","pricing_plan_id":"cebpf4jnsgd1na2vs0mg"},{"bike_id":"4ab7cbef-ce87-44fe-84cc-a45f908c6334","system_id":"levelo_inurba_marseille","lat":43.3048,"lon":5.37907,"is_reserved":false,"is_disabled":false,"rental_uris":{"android":"levelo://app?vid=4ab7cbef-ce87-44fe-84cc-a45f908c6334","ios":"levelo://app?vid=4ab7cbef-ce87-44fe-84cc-a45f908c6334"},"vehicle_type_id":"4","last_reported":1748927504,"current_range_meters":18000,"station_id":"ce4bgup2rcd13ifvqcn0","pricing_plan_id":"cebpf4jnsgd1na2vs0mg"},{"bike_id":"03c8c524-d600-4d9e-aa7f-f80a900da483","system_id":"levelo_inurba_marseille","lat":43.27955,"lon":5.41043,"is_reserved":false,"is_disabled":false,"rental_uris":{"android":"levelo://app?vid=03c8c524-d600-4d9e-aa7f-f80a900da483","ios":"levelo://app?vid=03c8c524-d600-4d9e-aa7f-f80a900da483"},"vehicle_type_id":"4","last_reported":1748927504,"current_range_meters":18000,"station_id":"ce4bhnp2rcd13ifvqh0g","pricing_plan_id":"cebpf4jnsgd1na2vs0mg"},{"bike_id":"22f839c0-7837-49f4-b4b1-6cd233d79363","system_id":"levelo_inurba_marseille","lat":43.298988,"lon":5.436634,"is_reserved":false,"is_disabled":false,"rental_uris":{"android":"levelo://app?vid=22f839c0-7837-49f4-b4b1-6cd233d79363","ios":"levelo://app?vid=22f839c0-7837-49f4-b4b1-6cd233d79363"},"vehicle_type_id":"4","last_reported":1748927504,"current_range_meters":18000,"station_id":"ce4bhpp2rcd13ifvqhfg","pricing_plan_id":"cebpf4jnsgd1na2vs0mg"},{"bike_id":"5b536054-600d-4e23-8558-f74f4f3ec365","system_id":"levelo_inurba_marseille","lat":43.33029,"lon":5.39052,"is_reserved":false,"is_disabled":false,"rental_uris":{"android":"levelo://app?vid=5b536054-600d-4e23-8558-f74f4f3ec365","ios":"levelo://app?vid=5b536054-600d-4e23-8558-f74f4f3ec365"},"vehicle_type_id":"4","last_reported":1748927504,"current_range_meters":18000,"station_id":"ce4bhr92rcd13ifvqhrg","pricing_plan_id":"cebpf4jnsgd1na2vs0mg"},{"bike_id":"5078f4c3-6e97-4a53-af7c-872f764df23c","system_id":"levelo_inurba_marseille","lat":43.31002,"lon":5.40201,"is_reserved":false,"is_disabled":false,"rental_uris":{"android":"levelo://app?vid=5078f4c3-6e97-4a53-af7c-872f764df23c","ios":"levelo://app?vid=5078f4c3-6e97-4a53-af7c-872f764df23c"},"vehicle_type_id":"4","last_reported":1748927504,"current_range_meters":18800,"station_id":"","pricing_plan_id":"cebpf4jnsgd1na2vs0mg"},{"bike_id":"f0d34e7f-8103-46e9-a438-c85d36f28543","system_id":"levelo_inurba_marseille","lat":43.27912,"lon":5.35446,"is_reserved":false,"is_disabled":false,"rental_uris":{"android":"levelo://app?vid=f0d34e7f-8103-46e9-a438-c85d36f28543","ios":"levelo://app?vid=f0d34e7f-8103-46e9-a438-c85d36f28543"},"vehicle_type_id":"4","last_reported":1748927504,"current_range_meters":18800,"station_id":"","pricing_plan_id":"cebpf4jnsgd1na2vs0mg"},{"bike_id":"afd16c10-99dc-4900-b89b-fa3b07370883","system_id":"levelo_inurba_marseille","lat":43.28453,"lon":5.35901,"is_reserved":false,"is_disabled":false,"rental_uris":{"android":"levelo://app?vid=afd16c10-99dc-4900-b89b-fa3b07370883","ios":"levelo://app?vid=afd16c10-99dc-4900-b89b-fa3b07370883"},"vehicle_type_id":"4","last_reported":1748927504,"current_range_meters":18800,"station_id":"ce4bhah2rcd13ifvqei0","pricing_plan_id":"cebpf4jnsgd1na2vs0mg"},{"bike_id":"fb596a8f-b4d3-43a2-8ca3-55a861bd54ea","system_id":"levelo_inurba_marseille","lat":43.288541,"lon":5.358558,"is_reserved":false,"is_disabled":false,"rental_uris":{"android":"levelo://app?vid=fb596a8f-b4d3-43a2-8ca3-55a861bd54ea","ios":"levelo://app?vid=fb596a8f-b4d3-43a2-8ca3-55a861bd54ea"},"vehicle_type_id":"4","last_reported":1748927504,"current_range_meters":18800,"station_id":"ce4bhb12rcd13ifvqem0","pricing_plan_id":"cebpf4jnsgd1na2vs0mg"},{"bike_id":"f499ec0f-5b97-4106-9d62-953eecf013c2","system_id":"levelo_inurba_marseille","lat":43.240701,"lon":5.377631,"is_reserved":false,"is_disabled":false,"rental_uris":{"android":"levelo://app?vid=f499ec0f-5b97-4106-9d62-953eecf013c2","ios":"levelo://app?vid=f499ec0f-5b97-4106-9d62-953eecf013c2"},"vehicle_type_id":"4","last_reported":1748927504,"current_range_meters":18800,"station_id":"ce4bhnp2rcd13ifvqgvg","pricing_plan_id":"cebpf4jnsgd1na2vs0mg"},{"bike_id":"a3dfb24d-2bc1-4dbc-b2b2-807b9fa8d499","system_id":"levelo_inurba_marseille","lat":43.308006,"lon":5.435306,"is_reserved":false,"is_disabled":false,"rental_uris":{"android":"levelo://app?vid=a3dfb24d-2bc1-4dbc-b2b2-807b9fa8d499","ios":"levelo://app?vid=a3dfb24d-2bc1-4dbc-b2b2-807b9fa8d499"},"vehicle_type_id":"4","last_reported":1748927504,"current_range_meters":18800,"station_id":"ce4bhph2rcd13ifvqheg","pricing_plan_id":"cebpf4jnsgd1na2vs0mg"},{"bike_id":"7b2dbc74-1a85-494d-9e5e-f3ffacd55231","system_id":"levelo_inurba_marseille","lat":43.309322,"lon":5.401447,"is_reserved":false,"is_disabled":false,"rental_uris":{"android":"levelo://app?vid=7b2dbc74-1a85-494d-9e5e-f3ffacd55231","ios":"levelo://app?vid=7b2dbc74-1a85-494d-9e5e-f3ffacd55231"},"vehicle_type_id":"4","last_reported":1748927504,"current_range_meters":19200,"station_id":"ce4bgvp2rcd13ifvqct0","pricing_plan_id":"cebpf4jnsgd1na2vs0mg"},{"bike_id":"62956cae-5e9e-4b89-8455-cf68c1489f6a","system_id":"levelo_inurba_marseille","lat":43.292574,"lon":5.409026,"is_reserved":false,"is_disabled":false,"rental_uris":{"android":"levelo://app?vid=62956cae-5e9e-4b89-8455-cf68c1489f6a","ios":"levelo://app?vid=62956cae-5e9e-4b89-8455-cf68c1489f6a"},"vehicle_type_id":"4","last_reported":1748927504,"current_range_meters":19200,"station_id":"ce4bh192rcd13ifvqdc0","pricing_plan_id":"cebpf4jnsgd1na2vs0mg"},{"bike_id":"e5ffc1cb-a704-403e-ab7b-31df1fc02011","system_id":"levelo_inurba_marseille","lat":43.27948,"lon":5.41042,"is_reserved":false,"is_disabled":false,"rental_uris":{"android":"levelo://app?vid=e5ffc1cb-a704-403e-ab7b-31df1fc02011","ios":"levelo://app?vid=e5ffc1cb-a704-403e-ab7b-31df1fc02011"},"vehicle_type_id":"4","last_reported":1748927504,"current_range_meters":19200,"station_id":"ce4bhnp2rcd13ifvqh0g","pricing_plan_id":"cebpf4jnsgd1na2vs0mg"},{"bike_id":"d509d84e-f359-4ef5-8817-0a56485e7e15","system_id":"levelo_inurba_marseille","lat":43.23912,"lon":5.38848,"is_reserved":false,"is_disabled":false,"rental_uris":{"android":"levelo://app?vid=d509d84e-f359-4ef5-8817-0a56485e7e15","ios":"levelo://app?vid=d509d84e-f359-4ef5-8817-0a56485e7e15"},"vehicle_type_id":"4","last_reported":1748927504,"current_range_meters":19600,"station_id":"","pricing_plan_id":"cebpf4jnsgd1na2vs0mg"},{"bike_id":"3b7fdd06-fee2-4fa8-a500-ae9c87d862ff","system_id":"levelo_inurba_marseille","lat":43.30154,"lon":5.38078,"is_reserved":false,"is_disabled":false,"rental_uris":{"android":"levelo://app?vid=3b7fdd06-fee2-4fa8-a500-ae9c87d862ff","ios":"levelo://app?vid=3b7fdd06-fee2-4fa8-a500-ae9c87d862ff"},"vehicle_type_id":"4","last_reported":1748927504,"current_range_meters":19600,"station_id":"ce4bgjp2rcd13ifvqbh0","pricing_plan_id":"cebpf4jnsgd1na2vs0mg"},{"bike_id":"c655f31f-40b3-454d-8c39-a7f53b347190","system_id":"levelo_inurba_marseille","lat":43.309425,"lon":5.390425,"is_reserved":false,"is_disabled":false,"rental_uris":{"android":"levelo://app?vid=c655f31f-40b3-454d-8c39-a7f53b347190","ios":"levelo://app?vid=c655f31f-40b3-454d-8c39-a7f53b347190"},"vehicle_type_id":"4","last_reported":1748927504,"current_range_meters":19600,"station_id":"ce4bgup2rcd13ifvqco0","pricing_plan_id":"cebpf4jnsgd1na2vs0mg"},{"bike_id":"50f2762f-7ef4-4d8a-8d1e-6ecf8747f020","system_id":"levelo_inurba_marseille","lat":43.309329,"lon":5.401593,"is_reserved":false,"is_disabled":false,"rental_uris":{"android":"levelo://app?vid=50f2762f-7ef4-4d8a-8d1e-6ecf8747f020","ios":"levelo://app?vid=50f2762f-7ef4-4d8a-8d1e-6ecf8747f020"},"vehicle_type_id":"4","last_reported":1748927504,"current_range_meters":19600,"station_id":"ce4bgvp2rcd13ifvqct0","pricing_plan_id":"cebpf4jnsgd1na2vs0mg"},{"bike_id":"48da913c-189e-4adb-8b41-df2f525f675f","system_id":"levelo_inurba_marseille","lat":43.278978,"lon":5.379963,"is_reserved":false,"is_disabled":false,"rental_uris":{"android":"levelo://app?vid=48da913c-189e-4adb-8b41-df2f525f675f","ios":"levelo://app?vid=48da913c-189e-4adb-8b41-df2f525f675f"},"vehicle_type_id":"4","last_reported":1748927504,"current_range_meters":19600,"station_id":"ce4bhf92rcd13ifvqf50","pricing_plan_id":"cebpf4jnsgd1na2vs0mg"},{"bike_id":"826b2db6-1579-4beb-a849-09c1cda03041","system_id":"levelo_inurba_marseille","lat":43.27894,"lon":5.3801,"is_reserved":false,"is_disabled":false,"rental_uris":{"android":"levelo://app?vid=826b2db6-1579-4beb-a849-09c1cda03041","ios":"levelo://app?vid=826b2db6-1579-4beb-a849-09c1cda03041"},"vehicle_type_id":"4","last_reported":1748927504,"current_range_meters":19600,"station_id":"ce4bhf92rcd13ifvqf50","pricing_plan_id":"cebpf4jnsgd1na2vs0mg"},{"bike_id":"c2e1d283-a417-4a2a-b2e7-7c87606a7a42","system_id":"levelo_inurba_marseille","lat":43.251072,"lon":5.403165,"is_reserved":false,"is_disabled":false,"rental_uris":{"android":"levelo://app?vid=c2e1d283-a417-4a2a-b2e7-7c87606a7a42","ios":"levelo://app?vid=c2e1d283-a417-4a2a-b2e7-7c87606a7a42"},"vehicle_type_id":"4","last_reported":1748927504,"current_range_meters":19600,"station_id":"ce4bhlh2rcd13ifvqgig","pricing_plan_id":"cebpf4jnsgd1na2vs0mg"},{"bike_id":"d132d9b5-c167-4dfd-afdf-58198eef141b","system_id":"levelo_inurba_marseille","lat":43.24547,"lon":5.39525,"is_reserved":false,"is_disabled":false,"rental_uris":{"android":"levelo://app?vid=d132d9b5-c167-4dfd-afdf-58198eef141b","ios":"levelo://app?vid=d132d9b5-c167-4dfd-afdf-58198eef141b"},"vehicle_type_id":"4","last_reported":1748927504,"current_range_meters":19600,"station_id":"ce4bhlp2rcd13ifvqgjg","pricing_plan_id":"cebpf4jnsgd1na2vs0mg"},{"bike_id":"2a6dca92-5f50-417b-99c5-6c535ece6724","system_id":"levelo_inurba_marseille","lat":43.274953,"lon":5.424519,"is_reserved":false,"is_disabled":false,"rental_uris":{"android":"levelo://app?vid=2a6dca92-5f50-417b-99c5-6c535ece6724","ios":"levelo://app?vid=2a6dca92-5f50-417b-99c5-6c535ece6724"},"vehicle_type_id":"4","last_reported":1748927504,"current_range_meters":19600,"station_id":"ce4bhn92rcd13ifvqgrg","pricing_plan_id":"cebpf4jnsgd1na2vs0mg"},{"bike_id":"cfbe56f1-0207-4e15-b8a2-9fddc173c74c","system_id":"levelo_inurba_marseille","lat":43.30462,"lon":5.37896,"is_reserved":false,"is_disabled":false,"rental_uris":{"android":"levelo://app?vid=cfbe56f1-0207-4e15-b8a2-9fddc173c74c","ios":"levelo://app?vid=cfbe56f1-0207-4e15-b8a2-9fddc173c74c"},"vehicle_type_id":"4","last_reported":1748927504,"current_range_meters":20000,"station_id":"ce4bgup2rcd13ifvqcn0","pricing_plan_id":"cebpf4jnsgd1na2vs0mg"},{"bike_id":"974f370c-97c1-408b-8bbb-7e476b676ad0","system_id":"levelo_inurba_marseille","lat":43.309328,"lon":5.401575,"is_reserved":false,"is_disabled":false,"rental_uris":{"android":"levelo://app?vid=974f370c-97c1-408b-8bbb-7e476b676ad0","ios":"levelo://app?vid=974f370c-97c1-408b-8bbb-7e476b676ad0"},"vehicle_type_id":"4","last_reported":1748927504,"current_range_meters":20000,"station_id":"ce4bgvp2rcd13ifvqct0","pricing_plan_id":"cebpf4jnsgd1na2vs0mg"},{"bike_id":"2cf5c3dc-6026-40f6-970c-d851d11de452","system_id":"levelo_inurba_marseille","lat":43.30217,"lon":5.39502,"is_reserved":false,"is_disabled":false,"rental_uris":{"android":"levelo://app?vid=2cf5c3dc-6026-40f6-970c-d851d11de452","ios":"levelo://app?vid=2cf5c3dc-6026-40f6-970c-d851d11de452"},"vehicle_type_id":"4","last_reported":1748927504,"current_range_meters":20000,"station_id":"ce4bh0p2rcd13ifvqd70","pricing_plan_id":"cebpf4jnsgd1na2vs0mg"},{"bike_id":"71af0257-4ccb-49c9-89e1-f5353687ca7e","system_id":"levelo_inurba_marseille","lat":43.300733,"lon":5.390784,"is_reserved":false,"is_disabled":false,"rental_uris":{"android":"levelo://app?vid=71af0257-4ccb-49c9-89e1-f5353687ca7e","ios":"levelo://app?vid=71af0257-4ccb-49c9-89e1-f5353687ca7e"},"vehicle_type_id":"4","last_reported":1748927504,"current_range_meters":20000,"station_id":"ce4bh192rcd13ifvqdb0","pricing_plan_id":"cebpf4jnsgd1na2vs0mg"},{"bike_id":"34b7e1b4-c575-42aa-8b50-351efdd5d94b","system_id":"levelo_inurba_marseille","lat":43.302126,"lon":5.437841,"is_reserved":false,"is_disabled":false,"rental_uris":{"android":"levelo://app?vid=34b7e1b4-c575-42aa-8b50-351efdd5d94b","ios":"levelo://app?vid=34b7e1b4-c575-42aa-8b50-351efdd5d94b"},"vehicle_type_id":"4","last_reported":1748927504,"current_range_meters":20400,"station_id":"","pricing_plan_id":"cebpf4jnsgd1na2vs0mg"},{"bike_id":"143434d9-c66a-4f6f-95e1-671fee3703ec","system_id":"levelo_inurba_marseille","lat":43.25322,"lon":5.377037,"is_reserved":false,"is_disabled":false,"rental_uris":{"android":"levelo://app?vid=143434d9-c66a-4f6f-95e1-671fee3703ec","ios":"levelo://app?vid=143434d9-c66a-4f6f-95e1-671fee3703ec"},"vehicle_type_id":"4","last_reported":1748927504,"current_range_meters":20400,"station_id":"","pricing_plan_id":"cebpf4jnsgd1na2vs0mg"},{"bike_id":"ddea05cf-725e-4434-ada8-8766d2fc8394","system_id":"levelo_inurba_marseille","lat":43.28931,"lon":5.36427,"is_reserved":false,"is_disabled":false,"rental_uris":{"android":"levelo://app?vid=ddea05cf-725e-4434-ada8-8766d2fc8394","ios":"levelo://app?vid=ddea05cf-725e-4434-ada8-8766d2fc8394"},"vehicle_type_id":"4","last_reported":1748927504,"current_range_meters":20400,"station_id":"ce4bhc92rcd13ifvqetg","pricing_plan_id":"cebpf4jnsgd1na2vs0mg"},{"bike_id":"86a19fea-1db8-44bb-a5ce-450938d468da","system_id":"levelo_inurba_marseille","lat":43.272154,"lon":5.391864,"is_reserved":false,"is_disabled":false,"rental_uris":{"android":"levelo://app?vid=86a19fea-1db8-44bb-a5ce-450938d468da","ios":"levelo://app?vid=86a19fea-1db8-44bb-a5ce-450938d468da"},"vehicle_type_id":"4","last_reported":1748927504,"current_range_meters":20400,"station_id":"ce4bhhp2rcd13ifvqfm0","pricing_plan_id":"cebpf4jnsgd1na2vs0mg"},{"bike_id":"ceb1816b-c7e3-4924-824e-780e5d9cb515","system_id":"levelo_inurba_marseille","lat":43.251138,"lon":5.403398,"is_reserved":false,"is_disabled":false,"rental_uris":{"android":"levelo://app?vid=ceb1816b-c7e3-4924-824e-780e5d9cb515","ios":"levelo://app?vid=ceb1816b-c7e3-4924-824e-780e5d9cb515"},"vehicle_type_id":"4","last_reported":1748927504,"current_range_meters":20400,"station_id":"ce4bhlh2rcd13ifvqgig","pricing_plan_id":"cebpf4jnsgd1na2vs0mg"},{"bike_id":"39465794-52fd-4ae0-a617-b2ec2aa583f4","system_id":"levelo_inurba_marseille","lat":43.28713,"lon":5.39971,"is_reserved":false,"is_disabled":false,"rental_uris":{"android":"levelo://app?vid=39465794-52fd-4ae0-a617-b2ec2aa583f4","ios":"levelo://app?vid=39465794-52fd-4ae0-a617-b2ec2aa583f4"},"vehicle_type_id":"4","last_reported":1748927504,"current_range_meters":20400,"station_id":"ce4bho92rcd13ifvqh3g","pricing_plan_id":"cebpf4jnsgd1na2vs0mg"},{"bike_id":"cba6c288-7603-41a8-92a6-e8587baf262b","system_id":"levelo_inurba_marseille","lat":43.337279,"lon":5.391975,"is_reserved":false,"is_disabled":false,"rental_uris":{"android":"levelo://app?vid=cba6c288-7603-41a8-92a6-e8587baf262b","ios":"levelo://app?vid=cba6c288-7603-41a8-92a6-e8587baf262b"},"vehicle_type_id":"4","last_reported":1748927504,"current_range_meters":20400,"station_id":"ce4bhr92rcd13ifvqhsg","pricing_plan_id":"cebpf4jnsgd1na2vs0mg"},{"bike_id":"2aded04a-397e-4bac-ad97-190ef70931da","system_id":"levelo_inurba_marseille","lat":43.298095,"lon":5.382409,"is_reserved":false,"is_disabled":false,"rental_uris":{"android":"levelo://app?vid=2aded04a-397e-4bac-ad97-190ef70931da","ios":"levelo://app?vid=2aded04a-397e-4bac-ad97-190ef70931da"},"vehicle_type_id":"4","last_reported":1748927504,"current_range_meters":20800,"station_id":"","pricing_plan_id":"cebpf4jnsgd1na2vs0mg"},{"bike_id":"15f4e87f-63f9-43a1-83cb-a53ca2f9ea03","system_id":"levelo_inurba_marseille","lat":43.28701,"lon":5.39988,"is_reserved":false,"is_disabled":false,"rental_uris":{"android":"levelo://app?vid=15f4e87f-63f9-43a1-83cb-a53ca2f9ea03","ios":"levelo://app?vid=15f4e87f-63f9-43a1-83cb-a53ca2f9ea03"},"vehicle_type_id":"4","last_reported":1748927504,"current_range_meters":20800,"station_id":"ce4bho92rcd13ifvqh3g","pricing_plan_id":"cebpf4jnsgd1na2vs0mg"},{"bike_id":"392aba08-8c80-4f58-bd27-a0f1e97f2380","system_id":"levelo_inurba_marseille","lat":43.341501,"lon":5.40904,"is_reserved":false,"is_disabled":false,"rental_uris":{"android":"levelo://app?vid=392aba08-8c80-4f58-bd27-a0f1e97f2380","ios":"levelo://app?vid=392aba08-8c80-4f58-bd27-a0f1e97f2380"},"vehicle_type_id":"4","last_reported":1748927504,"current_range_meters":20800,"station_id":"ce4bhqh2rcd13ifvqhlg","pricing_plan_id":"cebpf4jnsgd1na2vs0mg"},{"bike_id":"4dd90fe0-496f-4cdd-b1ae-d82718f691e0","system_id":"levelo_inurba_marseille","lat":43.27908,"lon":5.42267,"is_reserved":false,"is_disabled":false,"rental_uris":{"android":"levelo://app?vid=4dd90fe0-496f-4cdd-b1ae-d82718f691e0","ios":"levelo://app?vid=4dd90fe0-496f-4cdd-b1ae-d82718f691e0"},"vehicle_type_id":"4","last_reported":1748927504,"current_range_meters":21600,"station_id":"","pricing_plan_id":"cebpf4jnsgd1na2vs0mg"},{"bike_id":"d066c01f-0db1-47e0-823d-32ee04588d8a","system_id":"levelo_inurba_marseille","lat":43.2845,"lon":5.358824,"is_reserved":false,"is_disabled":false,"rental_uris":{"android":"levelo://app?vid=d066c01f-0db1-47e0-823d-32ee04588d8a","ios":"levelo://app?vid=d066c01f-0db1-47e0-823d-32ee04588d8a"},"vehicle_type_id":"4","last_reported":1748927504,"current_range_meters":21600,"station_id":"ce4bhah2rcd13ifvqei0","pricing_plan_id":"cebpf4jnsgd1na2vs0mg"},{"bike_id":"a11ea1a8-2e68-484b-8edf-fe757e754272","system_id":"levelo_inurba_marseille","lat":43.278164,"lon":5.407231,"is_reserved":false,"is_disabled":false,"rental_uris":{"android":"levelo://app?vid=a11ea1a8-2e68-484b-8edf-fe757e754272","ios":"levelo://app?vid=a11ea1a8-2e68-484b-8edf-fe757e754272"},"vehicle_type_id":"4","last_reported":1748927504,"current_range_meters":21600,"station_id":"ce4bhnh2rcd13ifvqgtg","pricing_plan_id":"cebpf4jnsgd1na2vs0mg"},{"bike_id":"64c320f3-8739-4026-9c50-8263b15c7ee9","system_id":"levelo_inurba_marseille","lat":43.30464,"lon":5.38893,"is_reserved":false,"is_disabled":false,"rental_uris":{"android":"levelo://app?vid=64c320f3-8739-4026-9c50-8263b15c7ee9","ios":"levelo://app?vid=64c320f3-8739-4026-9c50-8263b15c7ee9"},"vehicle_type_id":"4","last_reported":1748927504,"current_range_meters":22000,"station_id":"ce4bgk12rcd13ifvqbi0","pricing_plan_id":"cebpf4jnsgd1na2vs0mg"},{"bike_id":"bd15d3c1-5fc5-4006-9923-c4638e3da994","system_id":"levelo_inurba_marseille","lat":43.301075,"lon":5.371115,"is_reserved":false,"is_disabled":false,"rental_uris":{"android":"levelo://app?vid=bd15d3c1-5fc5-4006-9923-c4638e3da994","ios":"levelo://app?vid=bd15d3c1-5fc5-4006-9923-c4638e3da994"},"vehicle_type_id":"4","last_reported":1748927504,"current_range_meters":22400,"station_id":"","pricing_plan_id":"cebpf4jnsgd1na2vs0mg"},{"bike_id":"984c87aa-91bb-4ae4-a675-ef4414dfd2af","system_id":"levelo_inurba_marseille","lat":43.31481,"lon":5.37303,"is_reserved":false,"is_disabled":false,"rental_uris":{"android":"levelo://app?vid=984c87aa-91bb-4ae4-a675-ef4414dfd2af","ios":"levelo://app?vid=984c87aa-91bb-4ae4-a675-ef4414dfd2af"},"vehicle_type_id":"4","last_reported":1748927504,"current_range_meters":22400,"station_id":"ce4bgt12rcd13ifvqcd0","pricing_plan_id":"cebpf4jnsgd1na2vs0mg"},{"bike_id":"5f9a7fd7-13e0-49d3-9c07-abd21e72ce50","system_id":"levelo_inurba_marseille","lat":43.28855,"lon":5.39339,"is_reserved":false,"is_disabled":false,"rental_uris":{"android":"levelo://app?vid=5f9a7fd7-13e0-49d3-9c07-abd21e72ce50","ios":"levelo://app?vid=5f9a7fd7-13e0-49d3-9c07-abd21e72ce50"},"vehicle_type_id":"4","last_reported":1748927504,"current_range_meters":22400,"station_id":"ce4bh2p2rcd13ifvqdi0","pricing_plan_id":"cebpf4jnsgd1na2vs0mg"},{"bike_id":"98c734dd-e4aa-447d-891b-d6b331d7f13e","system_id":"levelo_inurba_marseille","lat":43.258041,"lon":5.394303,"is_reserved":false,"is_disabled":false,"rental_uris":{"android":"levelo://app?vid=98c734dd-e4aa-447d-891b-d6b331d7f13e","ios":"levelo://app?vid=98c734dd-e4aa-447d-891b-d6b331d7f13e"},"vehicle_type_id":"4","last_reported":1748927504,"current_range_meters":22400,"station_id":"ce4bhip2rcd13ifvqft0","pricing_plan_id":"cebpf4jnsgd1na2vs0mg"},{"bike_id":"01732b13-da80-4366-932e-2c059e98b438","system_id":"levelo_inurba_marseille","lat":43.251083,"lon":5.40332,"is_reserved":false,"is_disabled":false,"rental_uris":{"android":"levelo://app?vid=01732b13-da80-4366-932e-2c059e98b438","ios":"levelo://app?vid=01732b13-da80-4366-932e-2c059e98b438"},"vehicle_type_id":"4","last_reported":1748927504,"current_range_meters":22400,"station_id":"ce4bhlh2rcd13ifvqgig","pricing_plan_id":"cebpf4jnsgd1na2vs0mg"},{"bike_id":"8b13bdc1-d9ad-402b-9335-01bd02d81f63","system_id":"levelo_inurba_marseille","lat":43.31069,"lon":5.39076,"is_reserved":false,"is_disabled":false,"rental_uris":{"android":"levelo://app?vid=8b13bdc1-d9ad-402b-9335-01bd02d81f63","ios":"levelo://app?vid=8b13bdc1-d9ad-402b-9335-01bd02d81f63"},"vehicle_type_id":"4","last_reported":1748927504,"current_range_meters":22800,"station_id":"","pricing_plan_id":"cebpf4jnsgd1na2vs0mg"},{"bike_id":"242dd9ad-391b-48c1-bf2b-54dee401d2c8","system_id":"levelo_inurba_marseille","lat":43.30651,"lon":5.39428,"is_reserved":false,"is_disabled":false,"rental_uris":{"android":"levelo://app?vid=242dd9ad-391b-48c1-bf2b-54dee401d2c8","ios":"levelo://app?vid=242dd9ad-391b-48c1-bf2b-54dee401d2c8"},"vehicle_type_id":"4","last_reported":1748927504,"current_range_meters":22800,"station_id":"","pricing_plan_id":"cebpf4jnsgd1na2vs0mg"},{"bike_id":"dae86d27-740d-41c0-994a-a500cdc9531f","system_id":"levelo_inurba_marseille","lat":43.30464,"lon":5.37901,"is_reserved":false,"is_disabled":false,"rental_uris":{"android":"levelo://app?vid=dae86d27-740d-41c0-994a-a500cdc9531f","ios":"levelo://app?vid=dae86d27-740d-41c0-994a-a500cdc9531f"},"vehicle_type_id":"4","last_reported":1748927504,"current_range_meters":22800,"station_id":"ce4bgup2rcd13ifvqcn0","pricing_plan_id":"cebpf4jnsgd1na2vs0mg"},{"bike_id":"aade0917-1da7-445e-b146-a15c7cfad8e7","system_id":"levelo_inurba_marseille","lat":43.31069,"lon":5.383511,"is_reserved":false,"is_disabled":false,"rental_uris":{"android":"levelo://app?vid=aade0917-1da7-445e-b146-a15c7cfad8e7","ios":"levelo://app?vid=aade0917-1da7-445e-b146-a15c7cfad8e7"},"vehicle_type_id":"4","last_reported":1748927504,"current_range_meters":22800,"station_id":"ce4bgv92rcd13ifvqcr0","pricing_plan_id":"cebpf4jnsgd1na2vs0mg"},{"bike_id":"e213e8e3-b806-438a-83f6-1e8aa1a9aa50","system_id":"levelo_inurba_marseille","lat":43.26781,"lon":5.39416,"is_reserved":false,"is_disabled":false,"rental_uris":{"android":"levelo://app?vid=e213e8e3-b806-438a-83f6-1e8aa1a9aa50","ios":"levelo://app?vid=e213e8e3-b806-438a-83f6-1e8aa1a9aa50"},"vehicle_type_id":"4","last_reported":1748927504,"current_range_meters":22800,"station_id":"ce4bhh12rcd13ifvqfg0","pricing_plan_id":"cebpf4jnsgd1na2vs0mg"},{"bike_id":"ebe74412-cf5d-4fc0-9c5d-8a4d4f311a58","system_id":"levelo_inurba_marseille","lat":43.30547,"lon":5.38434,"is_reserved":false,"is_disabled":false,"rental_uris":{"android":"levelo://app?vid=ebe74412-cf5d-4fc0-9c5d-8a4d4f311a58","ios":"levelo://app?vid=ebe74412-cf5d-4fc0-9c5d-8a4d4f311a58"},"vehicle_type_id":"4","last_reported":1748927504,"current_range_meters":23200,"station_id":"ce4bgg92rcd13ifvqb30","pricing_plan_id":"cebpf4jnsgd1na2vs0mg"},{"bike_id":"d5db3e8b-1ba5-4e8d-bd55-fce64a572496","system_id":"levelo_inurba_marseille","lat":43.302982,"lon":5.369045,"is_reserved":false,"is_disabled":false,"rental_uris":{"android":"levelo://app?vid=d5db3e8b-1ba5-4e8d-bd55-fce64a572496","ios":"levelo://app?vid=d5db3e8b-1ba5-4e8d-bd55-fce64a572496"},"vehicle_type_id":"4","last_reported":1748927504,"current_range_meters":23200,"station_id":"ce4bgqh2rcd13ifvqc5g","pricing_plan_id":"cebpf4jnsgd1na2vs0mg"},{"bike_id":"7d0edb48-2395-47df-8782-6bd5735dd68a","system_id":"levelo_inurba_marseille","lat":43.30466,"lon":5.37914,"is_reserved":false,"is_disabled":false,"rental_uris":{"android":"levelo://app?vid=7d0edb48-2395-47df-8782-6bd5735dd68a","ios":"levelo://app?vid=7d0edb48-2395-47df-8782-6bd5735dd68a"},"vehicle_type_id":"4","last_reported":1748927504,"current_range_meters":23200,"station_id":"ce4bgup2rcd13ifvqcn0","pricing_plan_id":"cebpf4jnsgd1na2vs0mg"},{"bike_id":"e2886ea1-f91b-46c2-963c-d7f2ea949c46","system_id":"levelo_inurba_marseille","lat":43.30457,"lon":5.37908,"is_reserved":false,"is_disabled":false,"rental_uris":{"android":"levelo://app?vid=e2886ea1-f91b-46c2-963c-d7f2ea949c46","ios":"levelo://app?vid=e2886ea1-f91b-46c2-963c-d7f2ea949c46"},"vehicle_type_id":"4","last_reported":1748927504,"current_range_meters":23200,"station_id":"ce4bgup2rcd13ifvqcn0","pricing_plan_id":"cebpf4jnsgd1na2vs0mg"},{"bike_id":"b183d439-fff7-4e93-8b99-4c4f0b79b089","system_id":"levelo_inurba_marseille","lat":43.284793,"lon":5.384343,"is_reserved":false,"is_disabled":false,"rental_uris":{"android":"levelo://app?vid=b183d439-fff7-4e93-8b99-4c4f0b79b089","ios":"levelo://app?vid=b183d439-fff7-4e93-8b99-4c4f0b79b089"},"vehicle_type_id":"4","last_reported":1748927504,"current_range_meters":23200,"station_id":"ce4bh512rcd13ifvqe3g","pricing_plan_id":"cebpf4jnsgd1na2vs0mg"},{"bike_id":"67079772-4496-419f-8f60-de37ff9300e4","system_id":"levelo_inurba_marseille","lat":43.28448,"lon":5.3589,"is_reserved":false,"is_disabled":false,"rental_uris":{"android":"levelo://app?vid=67079772-4496-419f-8f60-de37ff9300e4","ios":"levelo://app?vid=67079772-4496-419f-8f60-de37ff9300e4"},"vehicle_type_id":"4","last_reported":1748927504,"current_range_meters":23200,"station_id":"ce4bhah2rcd13ifvqei0","pricing_plan_id":"cebpf4jnsgd1na2vs0mg"},{"bike_id":"ac5b47c0-5d5e-4d23-b348-7365b4042b2c","system_id":"levelo_inurba_marseille","lat":43.25126,"lon":5.40336,"is_reserved":false,"is_disabled":false,"rental_uris":{"android":"levelo://app?vid=ac5b47c0-5d5e-4d23-b348-7365b4042b2c","ios":"levelo://app?vid=ac5b47c0-5d5e-4d23-b348-7365b4042b2c"},"vehicle_type_id":"4","last_reported":1748927504,"current_range_meters":23200,"station_id":"ce4bhlh2rcd13ifvqgig","pricing_plan_id":"cebpf4jnsgd1na2vs0mg"},{"bike_id":"613cc675-3da8-4431-90a7-c12f688e1bcb","system_id":"levelo_inurba_marseille","lat":43.323462,"lon":5.40612,"is_reserved":false,"is_disabled":false,"rental_uris":{"android":"levelo://app?vid=613cc675-3da8-4431-90a7-c12f688e1bcb","ios":"levelo://app?vid=613cc675-3da8-4431-90a7-c12f688e1bcb"},"vehicle_type_id":"4","last_reported":1748927504,"current_range_meters":23200,"station_id":"ce4bhq92rcd13ifvqhjg","pricing_plan_id":"cebpf4jnsgd1na2vs0mg"},{"bike_id":"e23ab2ae-5b8e-40fb-8b13-57527b7d52b5","system_id":"levelo_inurba_marseille","lat":43.307112,"lon":5.392347,"is_reserved":false,"is_disabled":false,"rental_uris":{"android":"levelo://app?vid=e23ab2ae-5b8e-40fb-8b13-57527b7d52b5","ios":"levelo://app?vid=e23ab2ae-5b8e-40fb-8b13-57527b7d52b5"},"vehicle_type_id":"4","last_reported":1748927504,"current_range_meters":24000,"station_id":"","pricing_plan_id":"cebpf4jnsgd1na2vs0mg"},{"bike_id":"da71f552-d9e5-46af-bdef-e0177c564da4","system_id":"levelo_inurba_marseille","lat":43.305322,"lon":5.384357,"is_reserved":false,"is_disabled":false,"rental_uris":{"android":"levelo://app?vid=da71f552-d9e5-46af-bdef-e0177c564da4","ios":"levelo://app?vid=da71f552-d9e5-46af-bdef-e0177c564da4"},"vehicle_type_id":"4","last_reported":1748927504,"current_range_meters":24000,"station_id":"ce4bgg92rcd13ifvqb30","pricing_plan_id":"cebpf4jnsgd1na2vs0mg"},{"bike_id":"f588f7fc-40d9-4af9-8fd7-7c79c59d846a","system_id":"levelo_inurba_marseille","lat":43.29365,"lon":5.37834,"is_reserved":false,"is_disabled":false,"rental_uris":{"android":"levelo://app?vid=f588f7fc-40d9-4af9-8fd7-7c79c59d846a","ios":"levelo://app?vid=f588f7fc-40d9-4af9-8fd7-7c79c59d846a"},"vehicle_type_id":"4","last_reported":1748927504,"current_range_meters":24000,"station_id":"ce4bgjh2rcd13ifvqbf0","pricing_plan_id":"cebpf4jnsgd1na2vs0mg"},{"bike_id":"eb9494f7-4470-4580-a1ff-810cdfe4a23c","system_id":"levelo_inurba_marseille","lat":43.3016,"lon":5.38078,"is_reserved":false,"is_disabled":false,"rental_uris":{"android":"levelo://app?vid=eb9494f7-4470-4580-a1ff-810cdfe4a23c","ios":"levelo://app?vid=eb9494f7-4470-4580-a1ff-810cdfe4a23c"},"vehicle_type_id":"4","last_reported":1748927504,"current_range_meters":24000,"station_id":"ce4bgjp2rcd13ifvqbh0","pricing_plan_id":"cebpf4jnsgd1na2vs0mg"},{"bike_id":"ae12006e-928c-4407-9cac-db14247c6373","system_id":"levelo_inurba_marseille","lat":43.30768,"lon":5.37644,"is_reserved":false,"is_disabled":false,"rental_uris":{"android":"levelo://app?vid=ae12006e-928c-4407-9cac-db14247c6373","ios":"levelo://app?vid=ae12006e-928c-4407-9cac-db14247c6373"},"vehicle_type_id":"4","last_reported":1748927504,"current_range_meters":24000,"station_id":"ce4bgv92rcd13ifvqcq0","pricing_plan_id":"cebpf4jnsgd1na2vs0mg"},{"bike_id":"99f0b70b-0749-4613-8f0b-52750b17cc5a","system_id":"levelo_inurba_marseille","lat":43.29306,"lon":5.40114,"is_reserved":false,"is_disabled":false,"rental_uris":{"android":"levelo://app?vid=99f0b70b-0749-4613-8f0b-52750b17cc5a","ios":"levelo://app?vid=99f0b70b-0749-4613-8f0b-52750b17cc5a"},"vehicle_type_id":"4","last_reported":1748927504,"current_range_meters":24000,"station_id":"ce4bh312rcd13ifvqdk0","pricing_plan_id":"cebpf4jnsgd1na2vs0mg"},{"bike_id":"0ace5dd8-d2c1-40b4-859b-8ac374e65a95","system_id":"levelo_inurba_marseille","lat":43.29277,"lon":5.40131,"is_reserved":false,"is_disabled":false,"rental_uris":{"android":"levelo://app?vid=0ace5dd8-d2c1-40b4-859b-8ac374e65a95","ios":"levelo://app?vid=0ace5dd8-d2c1-40b4-859b-8ac374e65a95"},"vehicle_type_id":"4","last_reported":1748927504,"current_range_meters":24000,"station_id":"ce4bh312rcd13ifvqdk0","pricing_plan_id":"cebpf4jnsgd1na2vs0mg"},{"bike_id":"112f64d6-5e49-4767-89f6-295abe153e6b","system_id":"levelo_inurba_marseille","lat":43.30458,"lon":5.3791,"is_reserved":false,"is_disabled":false,"rental_uris":{"android":"levelo://app?vid=112f64d6-5e49-4767-89f6-295abe153e6b","ios":"levelo://app?vid=112f64d6-5e49-4767-89f6-295abe153e6b"},"vehicle_type_id":"4","last_reported":1748927504,"current_range_meters":24400,"station_id":"ce4bgup2rcd13ifvqcn0","pricing_plan_id":"cebpf4jnsgd1na2vs0mg"},{"bike_id":"9f55290d-8d98-428e-9d44-dcf0ffb64500","system_id":"levelo_inurba_marseille","lat":43.31188,"lon":5.38703,"is_reserved":false,"is_disabled":false,"rental_uris":{"android":"levelo://app?vid=9f55290d-8d98-428e-9d44-dcf0ffb64500","ios":"levelo://app?vid=9f55290d-8d98-428e-9d44-dcf0ffb64500"},"vehicle_type_id":"4","last_reported":1748927504,"current_range_meters":24400,"station_id":"ce4bgv12rcd13ifvqcp0","pricing_plan_id":"cebpf4jnsgd1na2vs0mg"},{"bike_id":"56711115-8717-4aaa-a15c-b5e0caa24e6d","system_id":"levelo_inurba_marseille","lat":43.28856,"lon":5.39302,"is_reserved":false,"is_disabled":false,"rental_uris":{"android":"levelo://app?vid=56711115-8717-4aaa-a15c-b5e0caa24e6d","ios":"levelo://app?vid=56711115-8717-4aaa-a15c-b5e0caa24e6d"},"vehicle_type_id":"4","last_reported":1748927504,"current_range_meters":24400,"station_id":"ce4bh2p2rcd13ifvqdi0","pricing_plan_id":"cebpf4jnsgd1na2vs0mg"},{"bike_id":"3599c5ae-f3b1-45fb-99a2-304e99bbbd96","system_id":"levelo_inurba_marseille","lat":43.24179,"lon":5.39737,"is_reserved":false,"is_disabled":false,"rental_uris":{"android":"levelo://app?vid=3599c5ae-f3b1-45fb-99a2-304e99bbbd96","ios":"levelo://app?vid=3599c5ae-f3b1-45fb-99a2-304e99bbbd96"},"vehicle_type_id":"4","last_reported":1748927504,"current_range_meters":24400,"station_id":"ce4bhn12rcd13ifvqgpg","pricing_plan_id":"cebpf4jnsgd1na2vs0mg"},{"bike_id":"42e5de30-2d32-429b-8b1d-e095ea273922","system_id":"levelo_inurba_marseille","lat":43.231965,"lon":5.39979,"is_reserved":false,"is_disabled":false,"rental_uris":{"android":"levelo://app?vid=42e5de30-2d32-429b-8b1d-e095ea273922","ios":"levelo://app?vid=42e5de30-2d32-429b-8b1d-e095ea273922"},"vehicle_type_id":"4","last_reported":1748927504,"current_range_meters":24400,"station_id":"ce4bhn12rcd13ifvqgqg","pricing_plan_id":"cebpf4jnsgd1na2vs0mg"},{"bike_id":"2fff380a-d7bc-4388-862d-11e5e84c0c37","system_id":"levelo_inurba_marseille","lat":43.27497,"lon":5.424556,"is_reserved":false,"is_disabled":false,"rental_uris":{"android":"levelo://app?vid=2fff380a-d7bc-4388-862d-11e5e84c0c37","ios":"levelo://app?vid=2fff380a-d7bc-4388-862d-11e5e84c0c37"},"vehicle_type_id":"4","last_reported":1748927504,"current_range_meters":24400,"station_id":"ce4bhn92rcd13ifvqgrg","pricing_plan_id":"cebpf4jnsgd1na2vs0mg"},{"bike_id":"6559785d-3acd-4919-b049-5abbbb8cf9ca","system_id":"levelo_inurba_marseille","lat":43.32309,"lon":5.38309,"is_reserved":false,"is_disabled":false,"rental_uris":{"android":"levelo://app?vid=6559785d-3acd-4919-b049-5abbbb8cf9ca","ios":"levelo://app?vid=6559785d-3acd-4919-b049-5abbbb8cf9ca"},"vehicle_type_id":"4","last_reported":1748927504,"current_range_meters":24400,"station_id":"ce4bhr12rcd13ifvqhqg","pricing_plan_id":"cebpf4jnsgd1na2vs0mg"},{"bike_id":"cf21ba45-189b-44fb-830c-c6a3baa4a0e9","system_id":"levelo_inurba_marseille","lat":43.30158,"lon":5.38096,"is_reserved":false,"is_disabled":false,"rental_uris":{"android":"levelo://app?vid=cf21ba45-189b-44fb-830c-c6a3baa4a0e9","ios":"levelo://app?vid=cf21ba45-189b-44fb-830c-c6a3baa4a0e9"},"vehicle_type_id":"4","last_reported":1748927504,"current_range_meters":24800,"station_id":"ce4bgjp2rcd13ifvqbh0","pricing_plan_id":"cebpf4jnsgd1na2vs0mg"},{"bike_id":"6aca9468-6d9e-40f6-8b33-c8f85482b39d","system_id":"levelo_inurba_marseille","lat":43.30159,"lon":5.38086,"is_reserved":false,"is_disabled":false,"rental_uris":{"android":"levelo://app?vid=6aca9468-6d9e-40f6-8b33-c8f85482b39d","ios":"levelo://app?vid=6aca9468-6d9e-40f6-8b33-c8f85482b39d"},"vehicle_type_id":"4","last_reported":1748927504,"current_range_meters":24800,"station_id":"ce4bgjp2rcd13ifvqbh0","pricing_plan_id":"cebpf4jnsgd1na2vs0mg"},{"bike_id":"b4fbf2ea-2eb9-4fcd-84d9-fe31c8409b2e","system_id":"levelo_inurba_marseille","lat":43.308013,"lon":5.381536,"is_reserved":false,"is_disabled":false,"rental_uris":{"android":"levelo://app?vid=b4fbf2ea-2eb9-4fcd-84d9-fe31c8409b2e","ios":"levelo://app?vid=b4fbf2ea-2eb9-4fcd-84d9-fe31c8409b2e"},"vehicle_type_id":"4","last_reported":1748927504,"current_range_meters":24800,"station_id":"ce4bgt12rcd13ifvqce0","pricing_plan_id":"cebpf4jnsgd1na2vs0mg"},{"bike_id":"0f82412d-b128-4ee5-a0c6-2796e4e279be","system_id":"levelo_inurba_marseille","lat":43.28868,"lon":5.39306,"is_reserved":false,"is_disabled":false,"rental_uris":{"android":"levelo://app?vid=0f82412d-b128-4ee5-a0c6-2796e4e279be","ios":"levelo://app?vid=0f82412d-b128-4ee5-a0c6-2796e4e279be"},"vehicle_type_id":"4","last_reported":1748927504,"current_range_meters":24800,"station_id":"ce4bh2p2rcd13ifvqdi0","pricing_plan_id":"cebpf4jnsgd1na2vs0mg"},{"bike_id":"23e204a8-ae58-4c70-acc1-8b7210317b05","system_id":"levelo_inurba_marseille","lat":43.287055,"lon":5.373968,"is_reserved":false,"is_disabled":false,"rental_uris":{"android":"levelo://app?vid=23e204a8-ae58-4c70-acc1-8b7210317b05","ios":"levelo://app?vid=23e204a8-ae58-4c70-acc1-8b7210317b05"},"vehicle_type_id":"4","last_reported":1748927504,"current_range_meters":24800,"station_id":"ce4bh3p2rcd13ifvqdq0","pricing_plan_id":"cebpf4jnsgd1na2vs0mg"},{"bike_id":"336584fc-30a9-49bb-9d6b-dabf00e0be47","system_id":"levelo_inurba_marseille","lat":43.27208,"lon":5.39205,"is_reserved":false,"is_disabled":false,"rental_uris":{"android":"levelo://app?vid=336584fc-30a9-49bb-9d6b-dabf00e0be47","ios":"levelo://app?vid=336584fc-30a9-49bb-9d6b-dabf00e0be47"},"vehicle_type_id":"4","last_reported":1748927504,"current_range_meters":24800,"station_id":"ce4bhhp2rcd13ifvqfm0","pricing_plan_id":"cebpf4jnsgd1na2vs0mg"},{"bike_id":"3af718c8-bd77-42a2-999d-668c12f3c0d2","system_id":"levelo_inurba_marseille","lat":43.27175,"lon":5.40993,"is_reserved":false,"is_disabled":false,"rental_uris":{"android":"levelo://app?vid=3af718c8-bd77-42a2-999d-668c12f3c0d2","ios":"levelo://app?vid=3af718c8-bd77-42a2-999d-668c12f3c0d2"},"vehicle_type_id":"4","last_reported":1748927504,"current_range_meters":24800,"station_id":"ce4bhl12rcd13ifvqgf0","pricing_plan_id":"cebpf4jnsgd1na2vs0mg"},{"bike_id":"635015c2-6fba-4c8e-bb9b-ed6db39ca0b8","system_id":"levelo_inurba_marseille","lat":43.28174,"lon":5.42665,"is_reserved":false,"is_disabled":false,"rental_uris":{"android":"levelo://app?vid=635015c2-6fba-4c8e-bb9b-ed6db39ca0b8","ios":"levelo://app?vid=635015c2-6fba-4c8e-bb9b-ed6db39ca0b8"},"vehicle_type_id":"4","last_reported":1748927504,"current_range_meters":24800,"station_id":"ce4bhnh2rcd13ifvqgug","pricing_plan_id":"cebpf4jnsgd1na2vs0mg"},{"bike_id":"f4831d0d-68d7-418e-b50e-5e455fb4c280","system_id":"levelo_inurba_marseille","lat":43.341492,"lon":5.40907,"is_reserved":false,"is_disabled":false,"rental_uris":{"android":"levelo://app?vid=f4831d0d-68d7-418e-b50e-5e455fb4c280","ios":"levelo://app?vid=f4831d0d-68d7-418e-b50e-5e455fb4c280"},"vehicle_type_id":"4","last_reported":1748927504,"current_range_meters":24800,"station_id":"ce4bhqh2rcd13ifvqhlg","pricing_plan_id":"cebpf4jnsgd1na2vs0mg"},{"bike_id":"4056785d-fe19-4951-b63e-18b5d3919fc8","system_id":"levelo_inurba_marseille","lat":43.33728,"lon":5.3917,"is_reserved":false,"is_disabled":false,"rental_uris":{"android":"levelo://app?vid=4056785d-fe19-4951-b63e-18b5d3919fc8","ios":"levelo://app?vid=4056785d-fe19-4951-b63e-18b5d3919fc8"},"vehicle_type_id":"4","last_reported":1748927504,"current_range_meters":24800,"station_id":"ce4bhr92rcd13ifvqhsg","pricing_plan_id":"cebpf4jnsgd1na2vs0mg"},{"bike_id":"758bea52-6e48-4fee-885b-8f6c986bae16","system_id":"levelo_inurba_marseille","lat":43.28565,"lon":5.39515,"is_reserved":false,"is_disabled":false,"rental_uris":{"android":"levelo://app?vid=758bea52-6e48-4fee-885b-8f6c986bae16","ios":"levelo://app?vid=758bea52-6e48-4fee-885b-8f6c986bae16"},"vehicle_type_id":"4","last_reported":1748927504,"current_range_meters":25200,"station_id":"ce4bh292rcd13ifvqdg0","pricing_plan_id":"cebpf4jnsgd1na2vs0mg"},{"bike_id":"59e5f6ef-f08a-434c-ad78-5ad16f2c41f0","system_id":"levelo_inurba_marseille","lat":43.31076,"lon":5.38362,"is_reserved":false,"is_disabled":false,"rental_uris":{"android":"levelo://app?vid=59e5f6ef-f08a-434c-ad78-5ad16f2c41f0","ios":"levelo://app?vid=59e5f6ef-f08a-434c-ad78-5ad16f2c41f0"},"vehicle_type_id":"4","last_reported":1748927504,"current_range_meters":25600,"station_id":"ce4bgv92rcd13ifvqcr0","pricing_plan_id":"cebpf4jnsgd1na2vs0mg"},{"bike_id":"58b1b58a-df22-44aa-8621-8935f047f3a2","system_id":"levelo_inurba_marseille","lat":43.316878,"lon":5.404613,"is_reserved":false,"is_disabled":false,"rental_uris":{"android":"levelo://app?vid=58b1b58a-df22-44aa-8621-8935f047f3a2","ios":"levelo://app?vid=58b1b58a-df22-44aa-8621-8935f047f3a2"},"vehicle_type_id":"4","last_reported":1748927504,"current_range_meters":25600,"station_id":"ce4bh012rcd13ifvqd00","pricing_plan_id":"cebpf4jnsgd1na2vs0mg"},{"bike_id":"860b7b09-6bff-4105-b03f-da385af72bcc","system_id":"levelo_inurba_marseille","lat":43.292784,"lon":5.401364,"is_reserved":false,"is_disabled":false,"rental_uris":{"android":"levelo://app?vid=860b7b09-6bff-4105-b03f-da385af72bcc","ios":"levelo://app?vid=860b7b09-6bff-4105-b03f-da385af72bcc"},"vehicle_type_id":"4","last_reported":1748927504,"current_range_meters":25600,"station_id":"ce4bh312rcd13ifvqdk0","pricing_plan_id":"cebpf4jnsgd1na2vs0mg"},{"bike_id":"bd869e11-425f-40cb-a1bb-2089b869b2b9","system_id":"levelo_inurba_marseille","lat":43.280301,"lon":5.369463,"is_reserved":false,"is_disabled":false,"rental_uris":{"android":"levelo://app?vid=bd869e11-425f-40cb-a1bb-2089b869b2b9","ios":"levelo://app?vid=bd869e11-425f-40cb-a1bb-2089b869b2b9"},"vehicle_type_id":"4","last_reported":1748927504,"current_range_meters":25600,"station_id":"ce4bha12rcd13ifvqef0","pricing_plan_id":"cebpf4jnsgd1na2vs0mg"},{"bike_id":"6b118ba1-515e-42a7-8559-b3c09aca0e8f","system_id":"levelo_inurba_marseille","lat":43.28456,"lon":5.358826,"is_reserved":false,"is_disabled":false,"rental_uris":{"android":"levelo://app?vid=6b118ba1-515e-42a7-8559-b3c09aca0e8f","ios":"levelo://app?vid=6b118ba1-515e-42a7-8559-b3c09aca0e8f"},"vehicle_type_id":"4","last_reported":1748927504,"current_range_meters":25600,"station_id":"ce4bhah2rcd13ifvqei0","pricing_plan_id":"cebpf4jnsgd1na2vs0mg"},{"bike_id":"aa6523e9-a158-4f31-95ca-19a3a506a676","system_id":"levelo_inurba_marseille","lat":43.293151,"lon":5.35567,"is_reserved":false,"is_disabled":false,"rental_uris":{"android":"levelo://app?vid=aa6523e9-a158-4f31-95ca-19a3a506a676","ios":"levelo://app?vid=aa6523e9-a158-4f31-95ca-19a3a506a676"},"vehicle_type_id":"4","last_reported":1748927504,"current_range_meters":26000,"station_id":"","pricing_plan_id":"cebpf4jnsgd1na2vs0mg"},{"bike_id":"a3da2f02-6c0a-4da9-9d77-fd910bbfe94e","system_id":"levelo_inurba_marseille","lat":43.301499,"lon":5.380971,"is_reserved":false,"is_disabled":false,"rental_uris":{"android":"levelo://app?vid=a3da2f02-6c0a-4da9-9d77-fd910bbfe94e","ios":"levelo://app?vid=a3da2f02-6c0a-4da9-9d77-fd910bbfe94e"},"vehicle_type_id":"4","last_reported":1748927504,"current_range_meters":26000,"station_id":"ce4bgjp2rcd13ifvqbh0","pricing_plan_id":"cebpf4jnsgd1na2vs0mg"},{"bike_id":"1cddc135-bfc5-4d94-a21d-02f1f0289092","system_id":"levelo_inurba_marseille","lat":43.298774,"lon":5.389124,"is_reserved":false,"is_disabled":false,"rental_uris":{"android":"levelo://app?vid=1cddc135-bfc5-4d94-a21d-02f1f0289092","ios":"levelo://app?vid=1cddc135-bfc5-4d94-a21d-02f1f0289092"},"vehicle_type_id":"4","last_reported":1748927504,"current_range_meters":26000,"station_id":"ce4bh392rcd13ifvqdl0","pricing_plan_id":"cebpf4jnsgd1na2vs0mg"},{"bike_id":"b357ff8d-9043-4978-b714-9bbab24911fe","system_id":"levelo_inurba_marseille","lat":43.283527,"lon":5.381067,"is_reserved":false,"is_disabled":false,"rental_uris":{"android":"levelo://app?vid=b357ff8d-9043-4978-b714-9bbab24911fe","ios":"levelo://app?vid=b357ff8d-9043-4978-b714-9bbab24911fe"},"vehicle_type_id":"4","last_reported":1748927504,"current_range_meters":26000,"station_id":"ce4bh412rcd13ifvqdr0","pricing_plan_id":"cebpf4jnsgd1na2vs0mg"},{"bike_id":"6787e535-e9a2-4b00-9ec4-b3d9a673276c","system_id":"levelo_inurba_marseille","lat":43.2656,"lon":5.3728,"is_reserved":false,"is_disabled":false,"rental_uris":{"android":"levelo://app?vid=6787e535-e9a2-4b00-9ec4-b3d9a673276c","ios":"levelo://app?vid=6787e535-e9a2-4b00-9ec4-b3d9a673276c"},"vehicle_type_id":"4","last_reported":1748927504,"current_range_meters":26000,"station_id":"ce4bhg12rcd13ifvqf70","pricing_plan_id":"cebpf4jnsgd1na2vs0mg"},{"bike_id":"0eb8eb3d-c867-4f47-8e78-7b0305a506d3","system_id":"levelo_inurba_marseille","lat":43.27583,"lon":5.3843,"is_reserved":false,"is_disabled":false,"rental_uris":{"android":"levelo://app?vid=0eb8eb3d-c867-4f47-8e78-7b0305a506d3","ios":"levelo://app?vid=0eb8eb3d-c867-4f47-8e78-7b0305a506d3"},"vehicle_type_id":"4","last_reported":1748927504,"current_range_meters":26000,"station_id":"ce4bhh92rcd13ifvqfi0","pricing_plan_id":"cebpf4jnsgd1na2vs0mg"},{"bike_id":"2e4c0820-6d4e-47ec-ad7f-23967998dda6","system_id":"levelo_inurba_marseille","lat":43.287279,"lon":5.360829,"is_reserved":false,"is_disabled":false,"rental_uris":{"android":"levelo://app?vid=2e4c0820-6d4e-47ec-ad7f-23967998dda6","ios":"levelo://app?vid=2e4c0820-6d4e-47ec-ad7f-23967998dda6"},"vehicle_type_id":"4","last_reported":1748927504,"current_range_meters":26000,"station_id":"cki0cbj6b192h4jlfktg","pricing_plan_id":"cebpf4jnsgd1na2vs0mg"},{"bike_id":"1c9f83d0-28b0-44ec-80e4-dff33452312f","system_id":"levelo_inurba_marseille","lat":43.30534,"lon":5.38413,"is_reserved":false,"is_disabled":false,"rental_uris":{"android":"levelo://app?vid=1c9f83d0-28b0-44ec-80e4-dff33452312f","ios":"levelo://app?vid=1c9f83d0-28b0-44ec-80e4-dff33452312f"},"vehicle_type_id":"4","last_reported":1748927504,"current_range_meters":26800,"station_id":"ce4bgg92rcd13ifvqb30","pricing_plan_id":"cebpf4jnsgd1na2vs0mg"},{"bike_id":"c4fd2515-1317-4de7-9942-f41a9ec62027","system_id":"levelo_inurba_marseille","lat":43.29364,"lon":5.378458,"is_reserved":false,"is_disabled":false,"rental_uris":{"android":"levelo://app?vid=c4fd2515-1317-4de7-9942-f41a9ec62027","ios":"levelo://app?vid=c4fd2515-1317-4de7-9942-f41a9ec62027"},"vehicle_type_id":"4","last_reported":1748927504,"current_range_meters":26800,"station_id":"ce4bgjh2rcd13ifvqbf0","pricing_plan_id":"cebpf4jnsgd1na2vs0mg"},{"bike_id":"1a29899c-6983-4887-a1f3-f5bf37dec905","system_id":"levelo_inurba_marseille","lat":43.29039,"lon":5.37572,"is_reserved":false,"is_disabled":false,"rental_uris":{"android":"levelo://app?vid=1a29899c-6983-4887-a1f3-f5bf37dec905","ios":"levelo://app?vid=1a29899c-6983-4887-a1f3-f5bf37dec905"},"vehicle_type_id":"4","last_reported":1748927504,"current_range_meters":26800,"station_id":"ce4bh692rcd13ifvqe90","pricing_plan_id":"cebpf4jnsgd1na2vs0mg"},{"bike_id":"6db35f09-1b69-4034-939c-674ebef6c5de","system_id":"levelo_inurba_marseille","lat":43.28663,"lon":5.36345,"is_reserved":false,"is_disabled":false,"rental_uris":{"android":"levelo://app?vid=6db35f09-1b69-4034-939c-674ebef6c5de","ios":"levelo://app?vid=6db35f09-1b69-4034-939c-674ebef6c5de"},"vehicle_type_id":"4","last_reported":1748927504,"current_range_meters":26800,"station_id":"ce4bhah2rcd13ifvqej0","pricing_plan_id":"cebpf4jnsgd1na2vs0mg"},{"bike_id":"374cd527-9934-47bb-97cc-568919738d49","system_id":"levelo_inurba_marseille","lat":43.28664,"lon":5.36354,"is_reserved":false,"is_disabled":false,"rental_uris":{"android":"levelo://app?vid=374cd527-9934-47bb-97cc-568919738d49","ios":"levelo://app?vid=374cd527-9934-47bb-97cc-568919738d49"},"vehicle_type_id":"4","last_reported":1748927504,"current_range_meters":26800,"station_id":"ce4bhah2rcd13ifvqej0","pricing_plan_id":"cebpf4jnsgd1na2vs0mg"},{"bike_id":"8da85645-8554-4ece-935a-4054eb45a9f4","system_id":"levelo_inurba_marseille","lat":43.260701,"lon":5.393996,"is_reserved":false,"is_disabled":false,"rental_uris":{"android":"levelo://app?vid=8da85645-8554-4ece-935a-4054eb45a9f4","ios":"levelo://app?vid=8da85645-8554-4ece-935a-4054eb45a9f4"},"vehicle_type_id":"4","last_reported":1748927504,"current_range_meters":26800,"station_id":"ce4bhh92rcd13ifvqfj0","pricing_plan_id":"cebpf4jnsgd1na2vs0mg"},{"bike_id":"96fcc6cc-ae04-4af4-a9dd-2829eeeb22b6","system_id":"levelo_inurba_marseille","lat":43.262286,"lon":5.40459,"is_reserved":false,"is_disabled":false,"rental_uris":{"android":"levelo://app?vid=96fcc6cc-ae04-4af4-a9dd-2829eeeb22b6","ios":"levelo://app?vid=96fcc6cc-ae04-4af4-a9dd-2829eeeb22b6"},"vehicle_type_id":"4","last_reported":1748927504,"current_range_meters":26800,"station_id":"ce4bhmh2rcd13ifvqgmg","pricing_plan_id":"cebpf4jnsgd1na2vs0mg"},{"bike_id":"fe02529b-0cc0-420a-94b3-f91d2ac9e933","system_id":"levelo_inurba_marseille","lat":43.22937,"lon":5.35379,"is_reserved":false,"is_disabled":false,"rental_uris":{"android":"levelo://app?vid=fe02529b-0cc0-420a-94b3-f91d2ac9e933","ios":"levelo://app?vid=fe02529b-0cc0-420a-94b3-f91d2ac9e933"},"vehicle_type_id":"4","last_reported":1748927504,"current_range_meters":26800,"station_id":"cpo3532slgdg3j2ikp40","pricing_plan_id":"cebpf4jnsgd1na2vs0mg"},{"bike_id":"092145e9-df52-46c3-981f-0967eedc6b89","system_id":"levelo_inurba_marseille","lat":43.280538,"lon":5.440183,"is_reserved":false,"is_disabled":false,"rental_uris":{"android":"levelo://app?vid=092145e9-df52-46c3-981f-0967eedc6b89","ios":"levelo://app?vid=092145e9-df52-46c3-981f-0967eedc6b89"},"vehicle_type_id":"4","last_reported":1748927504,"current_range_meters":27200,"station_id":"","pricing_plan_id":"cebpf4jnsgd1na2vs0mg"},{"bike_id":"abbfed7c-3e7d-47e8-b137-442e6e172a19","system_id":"levelo_inurba_marseille","lat":43.30541,"lon":5.38422,"is_reserved":false,"is_disabled":false,"rental_uris":{"android":"levelo://app?vid=abbfed7c-3e7d-47e8-b137-442e6e172a19","ios":"levelo://app?vid=abbfed7c-3e7d-47e8-b137-442e6e172a19"},"vehicle_type_id":"4","last_reported":1748927504,"current_range_meters":27200,"station_id":"ce4bgg92rcd13ifvqb30","pricing_plan_id":"cebpf4jnsgd1na2vs0mg"},{"bike_id":"ff925acd-7c36-4893-868d-66181478b8b5","system_id":"levelo_inurba_marseille","lat":43.309302,"lon":5.401453,"is_reserved":false,"is_disabled":false,"rental_uris":{"android":"levelo://app?vid=ff925acd-7c36-4893-868d-66181478b8b5","ios":"levelo://app?vid=ff925acd-7c36-4893-868d-66181478b8b5"},"vehicle_type_id":"4","last_reported":1748927504,"current_range_meters":27200,"station_id":"ce4bgvp2rcd13ifvqct0","pricing_plan_id":"cebpf4jnsgd1na2vs0mg"},{"bike_id":"e85aa47c-a744-4b89-9b9c-46532a52b2ad","system_id":"levelo_inurba_marseille","lat":43.29278,"lon":5.401287,"is_reserved":false,"is_disabled":false,"rental_uris":{"android":"levelo://app?vid=e85aa47c-a744-4b89-9b9c-46532a52b2ad","ios":"levelo://app?vid=e85aa47c-a744-4b89-9b9c-46532a52b2ad"},"vehicle_type_id":"4","last_reported":1748927504,"current_range_meters":27200,"station_id":"ce4bh312rcd13ifvqdk0","pricing_plan_id":"cebpf4jnsgd1na2vs0mg"},{"bike_id":"fe4fdd90-43e4-402f-8db4-2169a76a80fb","system_id":"levelo_inurba_marseille","lat":43.29023,"lon":5.39912,"is_reserved":false,"is_disabled":false,"rental_uris":{"android":"levelo://app?vid=fe4fdd90-43e4-402f-8db4-2169a76a80fb","ios":"levelo://app?vid=fe4fdd90-43e4-402f-8db4-2169a76a80fb"},"vehicle_type_id":"4","last_reported":1748927504,"current_range_meters":27200,"station_id":"ce4bh392rcd13ifvqdm0","pricing_plan_id":"cebpf4jnsgd1na2vs0mg"},{"bike_id":"248ba23f-c12b-4920-8590-3e8191845164","system_id":"levelo_inurba_marseille","lat":43.286703,"lon":5.36352,"is_reserved":false,"is_disabled":false,"rental_uris":{"android":"levelo://app?vid=248ba23f-c12b-4920-8590-3e8191845164","ios":"levelo://app?vid=248ba23f-c12b-4920-8590-3e8191845164"},"vehicle_type_id":"4","last_reported":1748927504,"current_range_meters":27200,"station_id":"ce4bhah2rcd13ifvqej0","pricing_plan_id":"cebpf4jnsgd1na2vs0mg"},{"bike_id":"55f9bc0b-2bed-45bb-92f3-79805c3d0c82","system_id":"levelo_inurba_marseille","lat":43.24066,"lon":5.37754,"is_reserved":false,"is_disabled":false,"rental_uris":{"android":"levelo://app?vid=55f9bc0b-2bed-45bb-92f3-79805c3d0c82","ios":"levelo://app?vid=55f9bc0b-2bed-45bb-92f3-79805c3d0c82"},"vehicle_type_id":"4","last_reported":1748927504,"current_range_meters":27200,"station_id":"ce4bhnp2rcd13ifvqgvg","pricing_plan_id":"cebpf4jnsgd1na2vs0mg"},{"bike_id":"63127307-12b3-4a01-acc1-7c283eb79734","system_id":"levelo_inurba_marseille","lat":43.27946,"lon":5.41044,"is_reserved":false,"is_disabled":false,"rental_uris":{"android":"levelo://app?vid=63127307-12b3-4a01-acc1-7c283eb79734","ios":"levelo://app?vid=63127307-12b3-4a01-acc1-7c283eb79734"},"vehicle_type_id":"4","last_reported":1748927504,"current_range_meters":27200,"station_id":"ce4bhnp2rcd13ifvqh0g","pricing_plan_id":"cebpf4jnsgd1na2vs0mg"},{"bike_id":"41636751-4d9f-4be6-ad1d-0a6d9bae00a8","system_id":"levelo_inurba_marseille","lat":43.32361,"lon":5.38894,"is_reserved":false,"is_disabled":false,"rental_uris":{"android":"levelo://app?vid=41636751-4d9f-4be6-ad1d-0a6d9bae00a8","ios":"levelo://app?vid=41636751-4d9f-4be6-ad1d-0a6d9bae00a8"},"vehicle_type_id":"4","last_reported":1748927504,"current_range_meters":27200,"station_id":"ce4bhqp2rcd13ifvqhog","pricing_plan_id":"cebpf4jnsgd1na2vs0mg"},{"bike_id":"2b0e76be-7eb5-4b4a-b5c2-1fa414c5bc39","system_id":"levelo_inurba_marseille","lat":43.31041,"lon":5.3936,"is_reserved":false,"is_disabled":false,"rental_uris":{"android":"levelo://app?vid=2b0e76be-7eb5-4b4a-b5c2-1fa414c5bc39","ios":"levelo://app?vid=2b0e76be-7eb5-4b4a-b5c2-1fa414c5bc39"},"vehicle_type_id":"4","last_reported":1748927504,"current_range_meters":27600,"station_id":"","pricing_plan_id":"cebpf4jnsgd1na2vs0mg"},{"bike_id":"70e191f6-de80-410f-b5ec-0cd5b1fbb2d6","system_id":"levelo_inurba_marseille","lat":43.292613,"lon":5.376182,"is_reserved":false,"is_disabled":false,"rental_uris":{"android":"levelo://app?vid=70e191f6-de80-410f-b5ec-0cd5b1fbb2d6","ios":"levelo://app?vid=70e191f6-de80-410f-b5ec-0cd5b1fbb2d6"},"vehicle_type_id":"4","last_reported":1748927504,"current_range_meters":27600,"station_id":"ce4bgi12rcd13ifvqb80","pricing_plan_id":"cebpf4jnsgd1na2vs0mg"},{"bike_id":"b4d17f78-9aed-4f0a-ab42-7c278d6e37d4","system_id":"levelo_inurba_marseille","lat":43.30155,"lon":5.38091,"is_reserved":false,"is_disabled":false,"rental_uris":{"android":"levelo://app?vid=b4d17f78-9aed-4f0a-ab42-7c278d6e37d4","ios":"levelo://app?vid=b4d17f78-9aed-4f0a-ab42-7c278d6e37d4"},"vehicle_type_id":"4","last_reported":1748927504,"current_range_meters":27600,"station_id":"ce4bgjp2rcd13ifvqbh0","pricing_plan_id":"cebpf4jnsgd1na2vs0mg"},{"bike_id":"e6d930e7-4f5c-4635-8778-0d95c334fdc0","system_id":"levelo_inurba_marseille","lat":43.31515,"lon":5.37317,"is_reserved":false,"is_disabled":false,"rental_uris":{"android":"levelo://app?vid=e6d930e7-4f5c-4635-8778-0d95c334fdc0","ios":"levelo://app?vid=e6d930e7-4f5c-4635-8778-0d95c334fdc0"},"vehicle_type_id":"4","last_reported":1748927504,"current_range_meters":27600,"station_id":"ce4bgt12rcd13ifvqcd0","pricing_plan_id":"cebpf4jnsgd1na2vs0mg"},{"bike_id":"dc89f316-a9d9-4edd-bd37-846e1c0d24d5","system_id":"levelo_inurba_marseille","lat":43.314861,"lon":5.373003,"is_reserved":false,"is_disabled":false,"rental_uris":{"android":"levelo://app?vid=dc89f316-a9d9-4edd-bd37-846e1c0d24d5","ios":"levelo://app?vid=dc89f316-a9d9-4edd-bd37-846e1c0d24d5"},"vehicle_type_id":"4","last_reported":1748927504,"current_range_meters":27600,"station_id":"ce4bgt12rcd13ifvqcd0","pricing_plan_id":"cebpf4jnsgd1na2vs0mg"},{"bike_id":"6102f042-f8cd-46e6-959c-0c404b47dba8","system_id":"levelo_inurba_marseille","lat":43.31169,"lon":5.38705,"is_reserved":false,"is_disabled":false,"rental_uris":{"android":"levelo://app?vid=6102f042-f8cd-46e6-959c-0c404b47dba8","ios":"levelo://app?vid=6102f042-f8cd-46e6-959c-0c404b47dba8"},"vehicle_type_id":"4","last_reported":1748927504,"current_range_meters":27600,"station_id":"ce4bgv12rcd13ifvqcp0","pricing_plan_id":"cebpf4jnsgd1na2vs0mg"},{"bike_id":"8b2630dc-df3f-4fdb-b956-2b639bcae928","system_id":"levelo_inurba_marseille","lat":43.30216,"lon":5.39468,"is_reserved":false,"is_disabled":false,"rental_uris":{"android":"levelo://app?vid=8b2630dc-df3f-4fdb-b956-2b639bcae928","ios":"levelo://app?vid=8b2630dc-df3f-4fdb-b956-2b639bcae928"},"vehicle_type_id":"4","last_reported":1748927504,"current_range_meters":27600,"station_id":"ce4bh0p2rcd13ifvqd70","pricing_plan_id":"cebpf4jnsgd1na2vs0mg"},{"bike_id":"d7a2ab9e-f554-4ab9-aab0-237b24c6ed38","system_id":"levelo_inurba_marseille","lat":43.29084,"lon":5.38102,"is_reserved":false,"is_disabled":false,"rental_uris":{"android":"levelo://app?vid=d7a2ab9e-f554-4ab9-aab0-237b24c6ed38","ios":"levelo://app?vid=d7a2ab9e-f554-4ab9-aab0-237b24c6ed38"},"vehicle_type_id":"4","last_reported":1748927504,"current_range_meters":27600,"station_id":"ce4bh512rcd13ifvqe2g","pricing_plan_id":"cebpf4jnsgd1na2vs0mg"},{"bike_id":"767c4822-cb62-41fc-b002-7c0a85bd5dad","system_id":"levelo_inurba_marseille","lat":43.28922,"lon":5.36401,"is_reserved":false,"is_disabled":false,"rental_uris":{"android":"levelo://app?vid=767c4822-cb62-41fc-b002-7c0a85bd5dad","ios":"levelo://app?vid=767c4822-cb62-41fc-b002-7c0a85bd5dad"},"vehicle_type_id":"4","last_reported":1748927504,"current_range_meters":27600,"station_id":"ce4bhc92rcd13ifvqetg","pricing_plan_id":"cebpf4jnsgd1na2vs0mg"},{"bike_id":"d8ac23e1-6146-4adf-aeb5-bda9345428c2","system_id":"levelo_inurba_marseille","lat":43.28927,"lon":5.364,"is_reserved":false,"is_disabled":false,"rental_uris":{"android":"levelo://app?vid=d8ac23e1-6146-4adf-aeb5-bda9345428c2","ios":"levelo://app?vid=d8ac23e1-6146-4adf-aeb5-bda9345428c2"},"vehicle_type_id":"4","last_reported":1748927504,"current_range_meters":27600,"station_id":"ce4bhc92rcd13ifvqetg","pricing_plan_id":"cebpf4jnsgd1na2vs0mg"},{"bike_id":"7aac63b6-22fb-4b79-a160-6d088df9997f","system_id":"levelo_inurba_marseille","lat":43.25595,"lon":5.38257,"is_reserved":false,"is_disabled":false,"rental_uris":{"android":"levelo://app?vid=7aac63b6-22fb-4b79-a160-6d088df9997f","ios":"levelo://app?vid=7aac63b6-22fb-4b79-a160-6d088df9997f"},"vehicle_type_id":"4","last_reported":1748927504,"current_range_meters":27600,"station_id":"ce4bhih2rcd13ifvqfs0","pricing_plan_id":"cebpf4jnsgd1na2vs0mg"},