{"last_updated":1779416819,"ttl":60,"version":"2.2","data":{"bikes":[{"bike_id":"7d641315-6110-49cb-a9dd-d637ff032de1","system_id":"levelo_inurba_marseille","lat":43.337444,"lon":5.374475,"is_reserved":false,"is_disabled":false,"rental_uris":{"android":"levelo://app?vid=7d641315-6110-49cb-a9dd-d637ff032de1","ios":"levelo://app?vid=7d641315-6110-49cb-a9dd-d637ff032de1"},"vehicle_type_id":"4","last_reported":1779416820,"current_range_meters":0,"station_id":"","pricing_plan_id":"cebpf4jnsgd1na2vs0mg"},{"bike_id":"282c9669-7dad-469f-b087-8dbbc861bbc4","system_id":"levelo_inurba_marseille","lat":43.274223,"lon":5.394069,"is_reserved":false,"is_disabled":true,"rental_uris":{"android":"levelo://app?vid=282c9669-7dad-469f-b087-8dbbc861bbc4","ios":"levelo://app?vid=282c9669-7dad-469f-b087-8dbbc861bbc4"},"vehicle_type_id":"4","last_reported":1779416820,"current_range_meters":2800,"station_id":"ce4bhdp2rcd13ifvqf20","pricing_plan_id":"cebpf4jnsgd1na2vs0mg"},{"bike_id":"378b9279-93e9-47af-a6bb-e5f3ca383509","system_id":"levelo_inurba_marseille","lat":43.28653,"lon":5.38681,"is_reserved":false,"is_disabled":false,"rental_uris":{"android":"levelo://app?vid=378b9279-93e9-47af-a6bb-e5f3ca383509","ios":"levelo://app?vid=378b9279-93e9-47af-a6bb-e5f3ca383509"},"vehicle_type_id":"4","last_reported":1779416820,"current_range_meters":2800,"station_id":"ce4bh492rcd13ifvqdug","pricing_plan_id":"cebpf4jnsgd1na2vs0mg"},{"bike_id":"a3071a58-220a-49d7-933f-639eaa20dffd","system_id":"levelo_inurba_marseille","lat":43.28776,"lon":5.42713,"is_reserved":false,"is_disabled":false,"rental_uris":{"android":"levelo://app?vid=a3071a58-220a-49d7-933f-639eaa20dffd","ios":"levelo://app?vid=a3071a58-220a-49d7-933f-639eaa20dffd"},"vehicle_type_id":"4","last_reported":1779416820,"current_range_meters":2800,"station_id":"","pricing_plan_id":"cebpf4jnsgd1na2vs0mg"},{"bike_id":"553619dc-d839-4e00-bc6d-eecc5ecdba79","system_id":"levelo_inurba_marseille","lat":43.28166,"lon":5.42641,"is_reserved":false,"is_disabled":true,"rental_uris":{"android":"levelo://app?vid=553619dc-d839-4e00-bc6d-eecc5ecdba79","ios":"levelo://app?vid=553619dc-d839-4e00-bc6d-eecc5ecdba79"},"vehicle_type_id":"4","last_reported":1779416820,"current_range_meters":2800,"station_id":"ce4bhnh2rcd13ifvqgug","pricing_plan_id":"cebpf4jnsgd1na2vs0mg"},{"bike_id":"40284326-88f9-43ca-bc3c-8637329818c0","system_id":"levelo_inurba_marseille","lat":43.30147,"lon":5.38081,"is_reserved":false,"is_disabled":false,"rental_uris":{"android":"levelo://app?vid=40284326-88f9-43ca-bc3c-8637329818c0","ios":"levelo://app?vid=40284326-88f9-43ca-bc3c-8637329818c0"},"vehicle_type_id":"4","last_reported":1779416820,"current_range_meters":2800,"station_id":"ce4bgjp2rcd13ifvqbh0","pricing_plan_id":"cebpf4jnsgd1na2vs0mg"},{"bike_id":"1b61e474-5d24-4d63-9626-fa0c586714fd","system_id":"levelo_inurba_marseille","lat":43.28102,"lon":5.37832,"is_reserved":false,"is_disabled":false,"rental_uris":{"android":"levelo://app?vid=1b61e474-5d24-4d63-9626-fa0c586714fd","ios":"levelo://app?vid=1b61e474-5d24-4d63-9626-fa0c586714fd"},"vehicle_type_id":"4","last_reported":1779416820,"current_range_meters":2800,"station_id":"ce4bha12rcd13ifvqee0","pricing_plan_id":"cebpf4jnsgd1na2vs0mg"},{"bike_id":"4cb25d92-f118-460b-856a-e53e52920dcd","system_id":"levelo_inurba_marseille","lat":43.29154,"lon":5.38634,"is_reserved":false,"is_disabled":false,"rental_uris":{"android":"levelo://app?vid=4cb25d92-f118-460b-856a-e53e52920dcd","ios":"levelo://app?vid=4cb25d92-f118-460b-856a-e53e52920dcd"},"vehicle_type_id":"4","last_reported":1779416820,"current_range_meters":2800,"station_id":"","pricing_plan_id":"cebpf4jnsgd1na2vs0mg"},{"bike_id":"e980519f-dd21-4cc4-8df5-b4760dd86bcf","system_id":"levelo_inurba_marseille","lat":43.29776,"lon":5.37111,"is_reserved":false,"is_disabled":false,"rental_uris":{"android":"levelo://app?vid=e980519f-dd21-4cc4-8df5-b4760dd86bcf","ios":"levelo://app?vid=e980519f-dd21-4cc4-8df5-b4760dd86bcf"},"vehicle_type_id":"4","last_reported":1779416820,"current_range_meters":3200,"station_id":"ce4bgop2rcd13ifvqc1g","pricing_plan_id":"cebpf4jnsgd1na2vs0mg"},{"bike_id":"74bb0400-bb66-433c-82b8-e3e134eb337f","system_id":"levelo_inurba_marseille","lat":43.30133,"lon":5.39851,"is_reserved":false,"is_disabled":false,"rental_uris":{"android":"levelo://app?vid=74bb0400-bb66-433c-82b8-e3e134eb337f","ios":"levelo://app?vid=74bb0400-bb66-433c-82b8-e3e134eb337f"},"vehicle_type_id":"4","last_reported":1779416820,"current_range_meters":3200,"station_id":"ce4bh0h2rcd13ifvqd40","pricing_plan_id":"cebpf4jnsgd1na2vs0mg"},{"bike_id":"89ef8fc0-fd28-42e8-b58f-a8b369309df2","system_id":"levelo_inurba_marseille","lat":43.26571,"lon":5.39047,"is_reserved":false,"is_disabled":false,"rental_uris":{"android":"levelo://app?vid=89ef8fc0-fd28-42e8-b58f-a8b369309df2","ios":"levelo://app?vid=89ef8fc0-fd28-42e8-b58f-a8b369309df2"},"vehicle_type_id":"4","last_reported":1779416820,"current_range_meters":3200,"station_id":"ce4bhe12rcd13ifvqf30","pricing_plan_id":"cebpf4jnsgd1na2vs0mg"},{"bike_id":"8193b3c7-857b-48bc-8bab-e3e3d588b0f2","system_id":"levelo_inurba_marseille","lat":43.30795,"lon":5.38147,"is_reserved":false,"is_disabled":false,"rental_uris":{"android":"levelo://app?vid=8193b3c7-857b-48bc-8bab-e3e3d588b0f2","ios":"levelo://app?vid=8193b3c7-857b-48bc-8bab-e3e3d588b0f2"},"vehicle_type_id":"4","last_reported":1779416820,"current_range_meters":3200,"station_id":"ce4bgt12rcd13ifvqce0","pricing_plan_id":"cebpf4jnsgd1na2vs0mg"},{"bike_id":"ef8c38af-d63f-4fd0-b0c9-82bc1901da07","system_id":"levelo_inurba_marseille","lat":43.28168,"lon":5.42659,"is_reserved":false,"is_disabled":false,"rental_uris":{"android":"levelo://app?vid=ef8c38af-d63f-4fd0-b0c9-82bc1901da07","ios":"levelo://app?vid=ef8c38af-d63f-4fd0-b0c9-82bc1901da07"},"vehicle_type_id":"4","last_reported":1779416820,"current_range_meters":3200,"station_id":"ce4bhnh2rcd13ifvqgug","pricing_plan_id":"cebpf4jnsgd1na2vs0mg"},{"bike_id":"4a54b351-04ac-4f40-b471-0f6d190e5ac2","system_id":"levelo_inurba_marseille","lat":43.28827,"lon":5.39321,"is_reserved":false,"is_disabled":false,"rental_uris":{"android":"levelo://app?vid=4a54b351-04ac-4f40-b471-0f6d190e5ac2","ios":"levelo://app?vid=4a54b351-04ac-4f40-b471-0f6d190e5ac2"},"vehicle_type_id":"4","last_reported":1779416820,"current_range_meters":3200,"station_id":"ce4bh2p2rcd13ifvqdi0","pricing_plan_id":"cebpf4jnsgd1na2vs0mg"},{"bike_id":"6096ca9f-e19d-43dc-b67b-43fb4d7990f2","system_id":"levelo_inurba_marseille","lat":43.29947,"lon":5.41302,"is_reserved":false,"is_disabled":false,"rental_uris":{"android":"levelo://app?vid=6096ca9f-e19d-43dc-b67b-43fb4d7990f2","ios":"levelo://app?vid=6096ca9f-e19d-43dc-b67b-43fb4d7990f2"},"vehicle_type_id":"4","last_reported":1779416820,"current_range_meters":3200,"station_id":"ce4bhp12rcd13ifvqh9g","pricing_plan_id":"cebpf4jnsgd1na2vs0mg"},{"bike_id":"381a1687-3b4c-4e43-ada7-0b296f458493","system_id":"levelo_inurba_marseille","lat":43.28747,"lon":5.46699,"is_reserved":false,"is_disabled":false,"rental_uris":{"android":"levelo://app?vid=381a1687-3b4c-4e43-ada7-0b296f458493","ios":"levelo://app?vid=381a1687-3b4c-4e43-ada7-0b296f458493"},"vehicle_type_id":"4","last_reported":1779416820,"current_range_meters":3200,"station_id":"","pricing_plan_id":"cebpf4jnsgd1na2vs0mg"},{"bike_id":"051eb476-a462-40f5-811f-71276f1a8d25","system_id":"levelo_inurba_marseille","lat":43.28462,"lon":5.48394,"is_reserved":false,"is_disabled":false,"rental_uris":{"android":"levelo://app?vid=051eb476-a462-40f5-811f-71276f1a8d25","ios":"levelo://app?vid=051eb476-a462-40f5-811f-71276f1a8d25"},"vehicle_type_id":"4","last_reported":1779416820,"current_range_meters":3200,"station_id":"","pricing_plan_id":"cebpf4jnsgd1na2vs0mg"},{"bike_id":"79c5056d-fbeb-45a5-91eb-ecd5b4bbe4b5","system_id":"levelo_inurba_marseille","lat":43.25071,"lon":5.39521,"is_reserved":false,"is_disabled":false,"rental_uris":{"android":"levelo://app?vid=79c5056d-fbeb-45a5-91eb-ecd5b4bbe4b5","ios":"levelo://app?vid=79c5056d-fbeb-45a5-91eb-ecd5b4bbe4b5"},"vehicle_type_id":"4","last_reported":1779416820,"current_range_meters":3200,"station_id":"ce4bhm12rcd13ifvqgkg","pricing_plan_id":"cebpf4jnsgd1na2vs0mg"},{"bike_id":"9be4dff2-9d64-426c-8684-069c1ccc8745","system_id":"levelo_inurba_marseille","lat":43.30919,"lon":5.40151,"is_reserved":false,"is_disabled":false,"rental_uris":{"android":"levelo://app?vid=9be4dff2-9d64-426c-8684-069c1ccc8745","ios":"levelo://app?vid=9be4dff2-9d64-426c-8684-069c1ccc8745"},"vehicle_type_id":"4","last_reported":1779416820,"current_range_meters":3200,"station_id":"ce4bgvp2rcd13ifvqct0","pricing_plan_id":"cebpf4jnsgd1na2vs0mg"},{"bike_id":"74fe1e51-c8c1-48c7-87a3-bd97254ab7ff","system_id":"levelo_inurba_marseille","lat":43.27195,"lon":5.4099,"is_reserved":false,"is_disabled":false,"rental_uris":{"android":"levelo://app?vid=74fe1e51-c8c1-48c7-87a3-bd97254ab7ff","ios":"levelo://app?vid=74fe1e51-c8c1-48c7-87a3-bd97254ab7ff"},"vehicle_type_id":"4","last_reported":1779416820,"current_range_meters":3200,"station_id":"ce4bhl12rcd13ifvqgf0","pricing_plan_id":"cebpf4jnsgd1na2vs0mg"},{"bike_id":"edec73d7-ad55-431c-b648-fddf82034d35","system_id":"levelo_inurba_marseille","lat":43.3095,"lon":5.39044,"is_reserved":false,"is_disabled":false,"rental_uris":{"android":"levelo://app?vid=edec73d7-ad55-431c-b648-fddf82034d35","ios":"levelo://app?vid=edec73d7-ad55-431c-b648-fddf82034d35"},"vehicle_type_id":"4","last_reported":1779416820,"current_range_meters":3200,"station_id":"ce4bgup2rcd13ifvqco0","pricing_plan_id":"cebpf4jnsgd1na2vs0mg"},{"bike_id":"8c39b6dd-b754-48e2-823c-6f28d51803e0","system_id":"levelo_inurba_marseille","lat":43.2927,"lon":5.39838,"is_reserved":false,"is_disabled":false,"rental_uris":{"android":"levelo://app?vid=8c39b6dd-b754-48e2-823c-6f28d51803e0","ios":"levelo://app?vid=8c39b6dd-b754-48e2-823c-6f28d51803e0"},"vehicle_type_id":"4","last_reported":1779416820,"current_range_meters":3200,"station_id":"","pricing_plan_id":"cebpf4jnsgd1na2vs0mg"},{"bike_id":"e9c4236d-db98-4934-930f-da935807c779","system_id":"levelo_inurba_marseille","lat":43.27931,"lon":5.41041,"is_reserved":false,"is_disabled":false,"rental_uris":{"android":"levelo://app?vid=e9c4236d-db98-4934-930f-da935807c779","ios":"levelo://app?vid=e9c4236d-db98-4934-930f-da935807c779"},"vehicle_type_id":"4","last_reported":1779416820,"current_range_meters":3200,"station_id":"ce4bhnp2rcd13ifvqh0g","pricing_plan_id":"cebpf4jnsgd1na2vs0mg"},{"bike_id":"1d1371af-930b-4bb2-a69d-74bda00db512","system_id":"levelo_inurba_marseille","lat":43.24378,"lon":5.37051,"is_reserved":false,"is_disabled":true,"rental_uris":{"android":"levelo://app?vid=1d1371af-930b-4bb2-a69d-74bda00db512","ios":"levelo://app?vid=1d1371af-930b-4bb2-a69d-74bda00db512"},"vehicle_type_id":"4","last_reported":1779416820,"current_range_meters":3200,"station_id":"ce4bhhh2rcd13ifvqfk0","pricing_plan_id":"cebpf4jnsgd1na2vs0mg"},{"bike_id":"375ee5aa-b3a4-4687-9cb5-9ce27e5d544e","system_id":"levelo_inurba_marseille","lat":43.31083,"lon":5.42439,"is_reserved":false,"is_disabled":false,"rental_uris":{"android":"levelo://app?vid=375ee5aa-b3a4-4687-9cb5-9ce27e5d544e","ios":"levelo://app?vid=375ee5aa-b3a4-4687-9cb5-9ce27e5d544e"},"vehicle_type_id":"4","last_reported":1779416820,"current_range_meters":3600,"station_id":"ce4bhp92rcd13ifvqhag","pricing_plan_id":"cebpf4jnsgd1na2vs0mg"},{"bike_id":"21ffebd5-32fe-4a3f-965a-afcdcc771a12","system_id":"levelo_inurba_marseille","lat":43.29529,"lon":5.3906,"is_reserved":false,"is_disabled":false,"rental_uris":{"android":"levelo://app?vid=21ffebd5-32fe-4a3f-965a-afcdcc771a12","ios":"levelo://app?vid=21ffebd5-32fe-4a3f-965a-afcdcc771a12"},"vehicle_type_id":"4","last_reported":1779416820,"current_range_meters":3600,"station_id":"ce4bh3p2rcd13ifvqdp0","pricing_plan_id":"cebpf4jnsgd1na2vs0mg"},{"bike_id":"78f812ec-bab0-4f50-a516-9757540477a3","system_id":"levelo_inurba_marseille","lat":43.25338,"lon":5.42166,"is_reserved":false,"is_disabled":false,"rental_uris":{"android":"levelo://app?vid=78f812ec-bab0-4f50-a516-9757540477a3","ios":"levelo://app?vid=78f812ec-bab0-4f50-a516-9757540477a3"},"vehicle_type_id":"4","last_reported":1779416820,"current_range_meters":3600,"station_id":"st_d2m65c5bi1j21697t3ng","pricing_plan_id":"cebpf4jnsgd1na2vs0mg"},{"bike_id":"d7b1d80e-ee26-4f2a-8580-16b04d1e386f","system_id":"levelo_inurba_marseille","lat":43.28374,"lon":5.3864,"is_reserved":false,"is_disabled":false,"rental_uris":{"android":"levelo://app?vid=d7b1d80e-ee26-4f2a-8580-16b04d1e386f","ios":"levelo://app?vid=d7b1d80e-ee26-4f2a-8580-16b04d1e386f"},"vehicle_type_id":"4","last_reported":1779416820,"current_range_meters":3600,"station_id":"ce4bh492rcd13ifvqdvg","pricing_plan_id":"cebpf4jnsgd1na2vs0mg"},{"bike_id":"15a8d13c-fc9e-4e13-9398-c1cbd662c288","system_id":"levelo_inurba_marseille","lat":43.29612,"lon":5.38545,"is_reserved":false,"is_disabled":false,"rental_uris":{"android":"levelo://app?vid=15a8d13c-fc9e-4e13-9398-c1cbd662c288","ios":"levelo://app?vid=15a8d13c-fc9e-4e13-9398-c1cbd662c288"},"vehicle_type_id":"4","last_reported":1779416820,"current_range_meters":3600,"station_id":"","pricing_plan_id":"cebpf4jnsgd1na2vs0mg"},{"bike_id":"9c4521f1-b414-4b4a-8769-c16b8f3c97e7","system_id":"levelo_inurba_marseille","lat":43.25337,"lon":5.42179,"is_reserved":false,"is_disabled":false,"rental_uris":{"android":"levelo://app?vid=9c4521f1-b414-4b4a-8769-c16b8f3c97e7","ios":"levelo://app?vid=9c4521f1-b414-4b4a-8769-c16b8f3c97e7"},"vehicle_type_id":"4","last_reported":1779416820,"current_range_meters":3600,"station_id":"st_d2m65c5bi1j21697t3ng","pricing_plan_id":"cebpf4jnsgd1na2vs0mg"},{"bike_id":"4eac4cb7-ac0f-4d84-866a-aa96362632a2","system_id":"levelo_inurba_marseille","lat":43.25335,"lon":5.42166,"is_reserved":false,"is_disabled":false,"rental_uris":{"android":"levelo://app?vid=4eac4cb7-ac0f-4d84-866a-aa96362632a2","ios":"levelo://app?vid=4eac4cb7-ac0f-4d84-866a-aa96362632a2"},"vehicle_type_id":"4","last_reported":1779416820,"current_range_meters":3600,"station_id":"st_d2m65c5bi1j21697t3ng","pricing_plan_id":"cebpf4jnsgd1na2vs0mg"},{"bike_id":"21fb01df-56f4-4bee-8faa-88ef094f3e6b","system_id":"levelo_inurba_marseille","lat":43.21748,"lon":5.34606,"is_reserved":false,"is_disabled":true,"rental_uris":{"android":"levelo://app?vid=21fb01df-56f4-4bee-8faa-88ef094f3e6b","ios":"levelo://app?vid=21fb01df-56f4-4bee-8faa-88ef094f3e6b"},"vehicle_type_id":"4","last_reported":1779416820,"current_range_meters":3600,"station_id":"st_cvj6r9ubvosntc0bgbag","pricing_plan_id":"cebpf4jnsgd1na2vs0mg"},{"bike_id":"8a0dc731-2fcb-41f9-8c7d-3c07ea626aeb","system_id":"levelo_inurba_marseille","lat":43.23974,"lon":5.36631,"is_reserved":false,"is_disabled":true,"rental_uris":{"android":"levelo://app?vid=8a0dc731-2fcb-41f9-8c7d-3c07ea626aeb","ios":"levelo://app?vid=8a0dc731-2fcb-41f9-8c7d-3c07ea626aeb"},"vehicle_type_id":"4","last_reported":1779416820,"current_range_meters":3600,"station_id":"ce4bhi12rcd13ifvqfp0","pricing_plan_id":"cebpf4jnsgd1na2vs0mg"},{"bike_id":"0b9fb95c-cf6b-4ed5-8bf4-759fc5a571cc","system_id":"levelo_inurba_marseille","lat":43.26869,"lon":5.40667,"is_reserved":false,"is_disabled":false,"rental_uris":{"android":"levelo://app?vid=0b9fb95c-cf6b-4ed5-8bf4-759fc5a571cc","ios":"levelo://app?vid=0b9fb95c-cf6b-4ed5-8bf4-759fc5a571cc"},"vehicle_type_id":"4","last_reported":1779416820,"current_range_meters":3600,"station_id":"","pricing_plan_id":"cebpf4jnsgd1na2vs0mg"},{"bike_id":"362dde3d-e55b-43d3-a257-fc879c078dae","system_id":"levelo_inurba_marseille","lat":43.26193,"lon":5.37456,"is_reserved":false,"is_disabled":true,"rental_uris":{"android":"levelo://app?vid=362dde3d-e55b-43d3-a257-fc879c078dae","ios":"levelo://app?vid=362dde3d-e55b-43d3-a257-fc879c078dae"},"vehicle_type_id":"4","last_reported":1779416820,"current_range_meters":3600,"station_id":"ce4bhgp2rcd13ifvqfc0","pricing_plan_id":"cebpf4jnsgd1na2vs0mg"},{"bike_id":"87927926-dbf6-4828-8df7-226d338123b2","system_id":"levelo_inurba_marseille","lat":43.29871,"lon":5.39733,"is_reserved":false,"is_disabled":false,"rental_uris":{"android":"levelo://app?vid=87927926-dbf6-4828-8df7-226d338123b2","ios":"levelo://app?vid=87927926-dbf6-4828-8df7-226d338123b2"},"vehicle_type_id":"4","last_reported":1779416820,"current_range_meters":4000,"station_id":"ce4bh0h2rcd13ifvqd50","pricing_plan_id":"cebpf4jnsgd1na2vs0mg"},{"bike_id":"f7cad48c-5c1a-4d67-94c9-18752e134d03","system_id":"levelo_inurba_marseille","lat":43.23971,"lon":5.36625,"is_reserved":false,"is_disabled":true,"rental_uris":{"android":"levelo://app?vid=f7cad48c-5c1a-4d67-94c9-18752e134d03","ios":"levelo://app?vid=f7cad48c-5c1a-4d67-94c9-18752e134d03"},"vehicle_type_id":"4","last_reported":1779416820,"current_range_meters":4000,"station_id":"ce4bhi12rcd13ifvqfp0","pricing_plan_id":"cebpf4jnsgd1na2vs0mg"},{"bike_id":"e71cb309-ac24-426e-93f0-69a0b4b8a422","system_id":"levelo_inurba_marseille","lat":43.28396,"lon":5.39895,"is_reserved":false,"is_disabled":false,"rental_uris":{"android":"levelo://app?vid=e71cb309-ac24-426e-93f0-69a0b4b8a422","ios":"levelo://app?vid=e71cb309-ac24-426e-93f0-69a0b4b8a422"},"vehicle_type_id":"4","last_reported":1779416820,"current_range_meters":4000,"station_id":"","pricing_plan_id":"cebpf4jnsgd1na2vs0mg"},{"bike_id":"94c49980-82e9-40c1-8742-79af726fe66b","system_id":"levelo_inurba_marseille","lat":43.29848,"lon":5.42114,"is_reserved":false,"is_disabled":false,"rental_uris":{"android":"levelo://app?vid=94c49980-82e9-40c1-8742-79af726fe66b","ios":"levelo://app?vid=94c49980-82e9-40c1-8742-79af726fe66b"},"vehicle_type_id":"4","last_reported":1779416820,"current_range_meters":4000,"station_id":"st_d6tc004otcvc738tfe70","pricing_plan_id":"cebpf4jnsgd1na2vs0mg"},{"bike_id":"e7d55ff2-76c8-4b77-819b-53f9e3aa018a","system_id":"levelo_inurba_marseille","lat":43.23212,"lon":5.35552,"is_reserved":false,"is_disabled":false,"rental_uris":{"android":"levelo://app?vid=e7d55ff2-76c8-4b77-819b-53f9e3aa018a","ios":"levelo://app?vid=e7d55ff2-76c8-4b77-819b-53f9e3aa018a"},"vehicle_type_id":"4","last_reported":1779416820,"current_range_meters":4000,"station_id":"ce4bhu92rcd13ifvqi70","pricing_plan_id":"cebpf4jnsgd1na2vs0mg"},{"bike_id":"581ee874-046c-44c0-a971-57097c81dc28","system_id":"levelo_inurba_marseille","lat":43.3173,"lon":5.42433,"is_reserved":false,"is_disabled":false,"rental_uris":{"android":"levelo://app?vid=581ee874-046c-44c0-a971-57097c81dc28","ios":"levelo://app?vid=581ee874-046c-44c0-a971-57097c81dc28"},"vehicle_type_id":"4","last_reported":1779416820,"current_range_meters":4000,"station_id":"ce4bhp92rcd13ifvqhbg","pricing_plan_id":"cebpf4jnsgd1na2vs0mg"},{"bike_id":"e7b2834d-0414-4c8b-95bb-dbeba87a5cba","system_id":"levelo_inurba_marseille","lat":43.32928,"lon":5.38936,"is_reserved":false,"is_disabled":false,"rental_uris":{"android":"levelo://app?vid=e7b2834d-0414-4c8b-95bb-dbeba87a5cba","ios":"levelo://app?vid=e7b2834d-0414-4c8b-95bb-dbeba87a5cba"},"vehicle_type_id":"4","last_reported":1779416820,"current_range_meters":4000,"station_id":"","pricing_plan_id":"cebpf4jnsgd1na2vs0mg"},{"bike_id":"9f851e0d-2bc6-43e8-9dbb-3054f97344b0","system_id":"levelo_inurba_marseille","lat":43.30086,"lon":5.3726,"is_reserved":false,"is_disabled":false,"rental_uris":{"android":"levelo://app?vid=9f851e0d-2bc6-43e8-9dbb-3054f97344b0","ios":"levelo://app?vid=9f851e0d-2bc6-43e8-9dbb-3054f97344b0"},"vehicle_type_id":"4","last_reported":1779416820,"current_range_meters":4000,"station_id":"","pricing_plan_id":"cebpf4jnsgd1na2vs0mg"},{"bike_id":"faab6192-d11e-421f-97c7-c19528d8cbf8","system_id":"levelo_inurba_marseille","lat":43.29048,"lon":5.38662,"is_reserved":false,"is_disabled":false,"rental_uris":{"android":"levelo://app?vid=faab6192-d11e-421f-97c7-c19528d8cbf8","ios":"levelo://app?vid=faab6192-d11e-421f-97c7-c19528d8cbf8"},"vehicle_type_id":"4","last_reported":1779416820,"current_range_meters":4000,"station_id":"ce4bh4p2rcd13ifvqe0g","pricing_plan_id":"cebpf4jnsgd1na2vs0mg"},{"bike_id":"aad75fce-f297-4a66-8546-74ab6bfcd851","system_id":"levelo_inurba_marseille","lat":43.24167,"lon":5.36399,"is_reserved":false,"is_disabled":false,"rental_uris":{"android":"levelo://app?vid=aad75fce-f297-4a66-8546-74ab6bfcd851","ios":"levelo://app?vid=aad75fce-f297-4a66-8546-74ab6bfcd851"},"vehicle_type_id":"4","last_reported":1779416820,"current_range_meters":4000,"station_id":"cpo36qri1sfpv3e86is0","pricing_plan_id":"cebpf4jnsgd1na2vs0mg"},{"bike_id":"8e7115e5-afd0-482b-bfd7-f75a7925e115","system_id":"levelo_inurba_marseille","lat":43.3025,"lon":5.41228,"is_reserved":false,"is_disabled":false,"rental_uris":{"android":"levelo://app?vid=8e7115e5-afd0-482b-bfd7-f75a7925e115","ios":"levelo://app?vid=8e7115e5-afd0-482b-bfd7-f75a7925e115"},"vehicle_type_id":"4","last_reported":1779416820,"current_range_meters":4000,"station_id":"","pricing_plan_id":"cebpf4jnsgd1na2vs0mg"},{"bike_id":"78ee7857-01fd-4d19-9349-5bf537cbcebb","system_id":"levelo_inurba_marseille","lat":43.31526,"lon":5.38034,"is_reserved":false,"is_disabled":false,"rental_uris":{"android":"levelo://app?vid=78ee7857-01fd-4d19-9349-5bf537cbcebb","ios":"levelo://app?vid=78ee7857-01fd-4d19-9349-5bf537cbcebb"},"vehicle_type_id":"4","last_reported":1779416820,"current_range_meters":4000,"station_id":"ce4bhsp2rcd13ifvqi50","pricing_plan_id":"cebpf4jnsgd1na2vs0mg"},{"bike_id":"1ec001e2-985a-4fe7-becf-bf0c5576d192","system_id":"levelo_inurba_marseille","lat":43.30866,"lon":5.39646,"is_reserved":false,"is_disabled":false,"rental_uris":{"android":"levelo://app?vid=1ec001e2-985a-4fe7-becf-bf0c5576d192","ios":"levelo://app?vid=1ec001e2-985a-4fe7-becf-bf0c5576d192"},"vehicle_type_id":"4","last_reported":1779416820,"current_range_meters":4000,"station_id":"ce4bh012rcd13ifvqcv0","pricing_plan_id":"cebpf4jnsgd1na2vs0mg"},{"bike_id":"ba500815-2af2-4949-a01a-ce2c02f73453","system_id":"levelo_inurba_marseille","lat":43.26957,"lon":5.38915,"is_reserved":false,"is_disabled":false,"rental_uris":{"android":"levelo://app?vid=ba500815-2af2-4949-a01a-ce2c02f73453","ios":"levelo://app?vid=ba500815-2af2-4949-a01a-ce2c02f73453"},"vehicle_type_id":"4","last_reported":1779416820,"current_range_meters":4000,"station_id":"ce4bhhh2rcd13ifvqfl0","pricing_plan_id":"cebpf4jnsgd1na2vs0mg"},{"bike_id":"cb07d697-a347-4c99-9a4f-5019252e5bb8","system_id":"levelo_inurba_marseille","lat":43.23187,"lon":5.39995,"is_reserved":false,"is_disabled":true,"rental_uris":{"android":"levelo://app?vid=cb07d697-a347-4c99-9a4f-5019252e5bb8","ios":"levelo://app?vid=cb07d697-a347-4c99-9a4f-5019252e5bb8"},"vehicle_type_id":"4","last_reported":1779416820,"current_range_meters":4000,"station_id":"ce4bhn12rcd13ifvqgqg","pricing_plan_id":"cebpf4jnsgd1na2vs0mg"},{"bike_id":"155c02b3-0060-48a0-b938-ff1bc46eda2d","system_id":"levelo_inurba_marseille","lat":43.30445,"lon":5.38896,"is_reserved":false,"is_disabled":false,"rental_uris":{"android":"levelo://app?vid=155c02b3-0060-48a0-b938-ff1bc46eda2d","ios":"levelo://app?vid=155c02b3-0060-48a0-b938-ff1bc46eda2d"},"vehicle_type_id":"4","last_reported":1779416820,"current_range_meters":4000,"station_id":"ce4bgk12rcd13ifvqbi0","pricing_plan_id":"cebpf4jnsgd1na2vs0mg"},{"bike_id":"900d74ce-954b-45a3-bd30-60648f7540aa","system_id":"levelo_inurba_marseille","lat":43.2904,"lon":5.38647,"is_reserved":false,"is_disabled":false,"rental_uris":{"android":"levelo://app?vid=900d74ce-954b-45a3-bd30-60648f7540aa","ios":"levelo://app?vid=900d74ce-954b-45a3-bd30-60648f7540aa"},"vehicle_type_id":"4","last_reported":1779416820,"current_range_meters":4000,"station_id":"ce4bh4p2rcd13ifvqe0g","pricing_plan_id":"cebpf4jnsgd1na2vs0mg"},{"bike_id":"2417956b-f325-4b75-806c-e42e7b7f598c","system_id":"levelo_inurba_marseille","lat":43.2504,"lon":5.41844,"is_reserved":false,"is_disabled":false,"rental_uris":{"android":"levelo://app?vid=2417956b-f325-4b75-806c-e42e7b7f598c","ios":"levelo://app?vid=2417956b-f325-4b75-806c-e42e7b7f598c"},"vehicle_type_id":"4","last_reported":1779416820,"current_range_meters":4000,"station_id":"","pricing_plan_id":"cebpf4jnsgd1na2vs0mg"},{"bike_id":"616259e1-99b9-477f-9be8-a931d2e539ff","system_id":"levelo_inurba_marseille","lat":43.231941,"lon":5.355529,"is_reserved":false,"is_disabled":false,"rental_uris":{"android":"levelo://app?vid=616259e1-99b9-477f-9be8-a931d2e539ff","ios":"levelo://app?vid=616259e1-99b9-477f-9be8-a931d2e539ff"},"vehicle_type_id":"4","last_reported":1779416820,"current_range_meters":4400,"station_id":"ce4bgi92rcd13ifvqb90","pricing_plan_id":"cebpf4jnsgd1na2vs0mg"},{"bike_id":"4b5b8890-9e3e-472b-8aec-7e766806da2f","system_id":"levelo_inurba_marseille","lat":43.29562,"lon":5.38527,"is_reserved":false,"is_disabled":false,"rental_uris":{"android":"levelo://app?vid=4b5b8890-9e3e-472b-8aec-7e766806da2f","ios":"levelo://app?vid=4b5b8890-9e3e-472b-8aec-7e766806da2f"},"vehicle_type_id":"4","last_reported":1779416820,"current_range_meters":4400,"station_id":"ce4bgih2rcd13ifvqba0","pricing_plan_id":"cebpf4jnsgd1na2vs0mg"},{"bike_id":"8157d7f0-4ca8-4b62-ad2b-8c365be299bf","system_id":"levelo_inurba_marseille","lat":43.29052,"lon":5.35907,"is_reserved":false,"is_disabled":true,"rental_uris":{"android":"levelo://app?vid=8157d7f0-4ca8-4b62-ad2b-8c365be299bf","ios":"levelo://app?vid=8157d7f0-4ca8-4b62-ad2b-8c365be299bf"},"vehicle_type_id":"4","last_reported":1779416820,"current_range_meters":4400,"station_id":"ce4bha92rcd13ifvqeg0","pricing_plan_id":"cebpf4jnsgd1na2vs0mg"},{"bike_id":"cc8b2dd9-4577-418f-8776-0bbb544f4686","system_id":"levelo_inurba_marseille","lat":43.23889,"lon":5.3746,"is_reserved":false,"is_disabled":false,"rental_uris":{"android":"levelo://app?vid=cc8b2dd9-4577-418f-8776-0bbb544f4686","ios":"levelo://app?vid=cc8b2dd9-4577-418f-8776-0bbb544f4686"},"vehicle_type_id":"4","last_reported":1779416820,"current_range_meters":4400,"station_id":"st_d6sm7csbq4hs73f8fpjg","pricing_plan_id":"cebpf4jnsgd1na2vs0mg"},{"bike_id":"b9886a38-37d7-4c62-a56d-ea966413b93c","system_id":"levelo_inurba_marseille","lat":43.32019,"lon":5.41566,"is_reserved":false,"is_disabled":false,"rental_uris":{"android":"levelo://app?vid=b9886a38-37d7-4c62-a56d-ea966413b93c","ios":"levelo://app?vid=b9886a38-37d7-4c62-a56d-ea966413b93c"},"vehicle_type_id":"4","last_reported":1779416820,"current_range_meters":4400,"station_id":"ce4bhq92rcd13ifvqhkg","pricing_plan_id":"cebpf4jnsgd1na2vs0mg"},{"bike_id":"7266bdeb-2dc8-4549-9620-db3f1d7e68f2","system_id":"levelo_inurba_marseille","lat":43.27181,"lon":5.41,"is_reserved":false,"is_disabled":false,"rental_uris":{"android":"levelo://app?vid=7266bdeb-2dc8-4549-9620-db3f1d7e68f2","ios":"levelo://app?vid=7266bdeb-2dc8-4549-9620-db3f1d7e68f2"},"vehicle_type_id":"4","last_reported":1779416820,"current_range_meters":4400,"station_id":"ce4bhl12rcd13ifvqgf0","pricing_plan_id":"cebpf4jnsgd1na2vs0mg"},{"bike_id":"d54368b6-87d2-4c8f-9f3d-fa1f75fef328","system_id":"levelo_inurba_marseille","lat":43.2551,"lon":5.37664,"is_reserved":false,"is_disabled":false,"rental_uris":{"android":"levelo://app?vid=d54368b6-87d2-4c8f-9f3d-fa1f75fef328","ios":"levelo://app?vid=d54368b6-87d2-4c8f-9f3d-fa1f75fef328"},"vehicle_type_id":"4","last_reported":1779416820,"current_range_meters":4400,"station_id":"ce4bhh12rcd13ifvqff0","pricing_plan_id":"cebpf4jnsgd1na2vs0mg"},{"bike_id":"54414197-7a79-46ce-891d-758db7720b8c","system_id":"levelo_inurba_marseille","lat":43.27326,"lon":5.39084,"is_reserved":false,"is_disabled":true,"rental_uris":{"android":"levelo://app?vid=54414197-7a79-46ce-891d-758db7720b8c","ios":"levelo://app?vid=54414197-7a79-46ce-891d-758db7720b8c"},"vehicle_type_id":"4","last_reported":1779416820,"current_range_meters":4400,"station_id":"ce4bhgp2rcd13ifvqfe0","pricing_plan_id":"cebpf4jnsgd1na2vs0mg"},{"bike_id":"42e72b46-ea89-4b33-95be-8c38a16c88bd","system_id":"levelo_inurba_marseille","lat":43.28195,"lon":5.39053,"is_reserved":false,"is_disabled":false,"rental_uris":{"android":"levelo://app?vid=42e72b46-ea89-4b33-95be-8c38a16c88bd","ios":"levelo://app?vid=42e72b46-ea89-4b33-95be-8c38a16c88bd"},"vehicle_type_id":"4","last_reported":1779416820,"current_range_meters":4400,"station_id":"ce4bhn92rcd13ifvqgsg","pricing_plan_id":"cebpf4jnsgd1na2vs0mg"},{"bike_id":"bd6864bb-c074-4fe7-b863-12369d6725c5","system_id":"levelo_inurba_marseille","lat":43.31361,"lon":5.38507,"is_reserved":false,"is_disabled":false,"rental_uris":{"android":"levelo://app?vid=bd6864bb-c074-4fe7-b863-12369d6725c5","ios":"levelo://app?vid=bd6864bb-c074-4fe7-b863-12369d6725c5"},"vehicle_type_id":"4","last_reported":1779416820,"current_range_meters":4400,"station_id":"ce4bgt92rcd13ifvqcf0","pricing_plan_id":"cebpf4jnsgd1na2vs0mg"},{"bike_id":"f63221a6-0516-4efb-9f91-f7af95eafadd","system_id":"levelo_inurba_marseille","lat":43.28619,"lon":5.35101,"is_reserved":false,"is_disabled":true,"rental_uris":{"android":"levelo://app?vid=f63221a6-0516-4efb-9f91-f7af95eafadd","ios":"levelo://app?vid=f63221a6-0516-4efb-9f91-f7af95eafadd"},"vehicle_type_id":"4","last_reported":1779416820,"current_range_meters":4800,"station_id":"","pricing_plan_id":"cebpf4jnsgd1na2vs0mg"},{"bike_id":"5195998f-29c0-451a-9b35-063ca4547e00","system_id":"levelo_inurba_marseille","lat":43.2417,"lon":5.36391,"is_reserved":false,"is_disabled":false,"rental_uris":{"android":"levelo://app?vid=5195998f-29c0-451a-9b35-063ca4547e00","ios":"levelo://app?vid=5195998f-29c0-451a-9b35-063ca4547e00"},"vehicle_type_id":"4","last_reported":1779416820,"current_range_meters":4800,"station_id":"cpo36qri1sfpv3e86is0","pricing_plan_id":"cebpf4jnsgd1na2vs0mg"},{"bike_id":"70bd1697-29a9-464f-a79a-74a540437e6e","system_id":"levelo_inurba_marseille","lat":43.33754,"lon":5.37469,"is_reserved":false,"is_disabled":false,"rental_uris":{"android":"levelo://app?vid=70bd1697-29a9-464f-a79a-74a540437e6e","ios":"levelo://app?vid=70bd1697-29a9-464f-a79a-74a540437e6e"},"vehicle_type_id":"4","last_reported":1779416820,"current_range_meters":4800,"station_id":"","pricing_plan_id":"cebpf4jnsgd1na2vs0mg"},{"bike_id":"018bc1b8-394d-4284-aee9-f1a543d506c1","system_id":"levelo_inurba_marseille","lat":43.2655,"lon":5.37287,"is_reserved":false,"is_disabled":true,"rental_uris":{"android":"levelo://app?vid=018bc1b8-394d-4284-aee9-f1a543d506c1","ios":"levelo://app?vid=018bc1b8-394d-4284-aee9-f1a543d506c1"},"vehicle_type_id":"4","last_reported":1779416820,"current_range_meters":4800,"station_id":"ce4bhg12rcd13ifvqf70","pricing_plan_id":"cebpf4jnsgd1na2vs0mg"},{"bike_id":"368ed842-ec73-423e-b3fe-0ba03fe9ee90","system_id":"levelo_inurba_marseille","lat":43.28939,"lon":5.36652,"is_reserved":false,"is_disabled":false,"rental_uris":{"android":"levelo://app?vid=368ed842-ec73-423e-b3fe-0ba03fe9ee90","ios":"levelo://app?vid=368ed842-ec73-423e-b3fe-0ba03fe9ee90"},"vehicle_type_id":"4","last_reported":1779416820,"current_range_meters":4800,"station_id":"ce4bhap2rcd13ifvqek0","pricing_plan_id":"cebpf4jnsgd1na2vs0mg"},{"bike_id":"2f07cee4-f00b-40cc-8d51-00b8a29e58c5","system_id":"levelo_inurba_marseille","lat":43.2719,"lon":5.40989,"is_reserved":false,"is_disabled":false,"rental_uris":{"android":"levelo://app?vid=2f07cee4-f00b-40cc-8d51-00b8a29e58c5","ios":"levelo://app?vid=2f07cee4-f00b-40cc-8d51-00b8a29e58c5"},"vehicle_type_id":"4","last_reported":1779416820,"current_range_meters":4800,"station_id":"ce4bhl12rcd13ifvqgf0","pricing_plan_id":"cebpf4jnsgd1na2vs0mg"},{"bike_id":"cb8fb2ed-c179-4c07-b6b8-57ffb06a659b","system_id":"levelo_inurba_marseille","lat":43.22535,"lon":5.34848,"is_reserved":false,"is_disabled":true,"rental_uris":{"android":"levelo://app?vid=cb8fb2ed-c179-4c07-b6b8-57ffb06a659b","ios":"levelo://app?vid=cb8fb2ed-c179-4c07-b6b8-57ffb06a659b"},"vehicle_type_id":"4","last_reported":1779416820,"current_range_meters":4800,"station_id":"st_cvj5dfep6f1abm77gieg","pricing_plan_id":"cebpf4jnsgd1na2vs0mg"},{"bike_id":"bb0a25dd-bbb8-4a95-85a4-a91a278a4fd8","system_id":"levelo_inurba_marseille","lat":43.2834,"lon":5.38109,"is_reserved":false,"is_disabled":false,"rental_uris":{"android":"levelo://app?vid=bb0a25dd-bbb8-4a95-85a4-a91a278a4fd8","ios":"levelo://app?vid=bb0a25dd-bbb8-4a95-85a4-a91a278a4fd8"},"vehicle_type_id":"4","last_reported":1779416820,"current_range_meters":4800,"station_id":"ce4bh412rcd13ifvqdr0","pricing_plan_id":"cebpf4jnsgd1na2vs0mg"},{"bike_id":"d55447ac-707e-4c54-b02b-54c43ff3e8eb","system_id":"levelo_inurba_marseille","lat":43.24542,"lon":5.39528,"is_reserved":false,"is_disabled":false,"rental_uris":{"android":"levelo://app?vid=d55447ac-707e-4c54-b02b-54c43ff3e8eb","ios":"levelo://app?vid=d55447ac-707e-4c54-b02b-54c43ff3e8eb"},"vehicle_type_id":"4","last_reported":1779416820,"current_range_meters":4800,"station_id":"ce4bhlp2rcd13ifvqgjg","pricing_plan_id":"cebpf4jnsgd1na2vs0mg"},{"bike_id":"9d49c1bc-01ea-434b-a77a-d932b06737fe","system_id":"levelo_inurba_marseille","lat":43.29186,"lon":5.39307,"is_reserved":false,"is_disabled":false,"rental_uris":{"android":"levelo://app?vid=9d49c1bc-01ea-434b-a77a-d932b06737fe","ios":"levelo://app?vid=9d49c1bc-01ea-434b-a77a-d932b06737fe"},"vehicle_type_id":"4","last_reported":1779416820,"current_range_meters":4800,"station_id":"ce4bh192rcd13ifvqdd0","pricing_plan_id":"cebpf4jnsgd1na2vs0mg"},{"bike_id":"e27feea1-9bc4-4f71-870f-9ba99b38e6d2","system_id":"levelo_inurba_marseille","lat":43.29164,"lon":5.37291,"is_reserved":false,"is_disabled":false,"rental_uris":{"android":"levelo://app?vid=e27feea1-9bc4-4f71-870f-9ba99b38e6d2","ios":"levelo://app?vid=e27feea1-9bc4-4f71-870f-9ba99b38e6d2"},"vehicle_type_id":"4","last_reported":1779416820,"current_range_meters":4800,"station_id":"","pricing_plan_id":"cebpf4jnsgd1na2vs0mg"},{"bike_id":"a858947a-3c69-479c-9c9a-9d3d62cdff7b","system_id":"levelo_inurba_marseille","lat":43.29978,"lon":5.41431,"is_reserved":false,"is_disabled":false,"rental_uris":{"android":"levelo://app?vid=a858947a-3c69-479c-9c9a-9d3d62cdff7b","ios":"levelo://app?vid=a858947a-3c69-479c-9c9a-9d3d62cdff7b"},"vehicle_type_id":"4","last_reported":1779416820,"current_range_meters":4800,"station_id":"","pricing_plan_id":"cebpf4jnsgd1na2vs0mg"},{"bike_id":"4084b122-70dd-497d-a725-3a7f8971b387","system_id":"levelo_inurba_marseille","lat":43.31538,"lon":5.38023,"is_reserved":false,"is_disabled":false,"rental_uris":{"android":"levelo://app?vid=4084b122-70dd-497d-a725-3a7f8971b387","ios":"levelo://app?vid=4084b122-70dd-497d-a725-3a7f8971b387"},"vehicle_type_id":"4","last_reported":1779416820,"current_range_meters":4800,"station_id":"ce4bhsp2rcd13ifvqi50","pricing_plan_id":"cebpf4jnsgd1na2vs0mg"},{"bike_id":"e9d98171-d888-447f-b95a-b4024d3afd40","system_id":"levelo_inurba_marseille","lat":43.24815,"lon":5.37465,"is_reserved":false,"is_disabled":false,"rental_uris":{"android":"levelo://app?vid=e9d98171-d888-447f-b95a-b4024d3afd40","ios":"levelo://app?vid=e9d98171-d888-447f-b95a-b4024d3afd40"},"vehicle_type_id":"4","last_reported":1779416820,"current_range_meters":5600,"station_id":"ce4bhgh2rcd13ifvqfb0","pricing_plan_id":"cebpf4jnsgd1na2vs0mg"},{"bike_id":"1f23276f-640a-45b0-96ab-5c9b5282ccf4","system_id":"levelo_inurba_marseille","lat":43.31265,"lon":5.38931,"is_reserved":false,"is_disabled":false,"rental_uris":{"android":"levelo://app?vid=1f23276f-640a-45b0-96ab-5c9b5282ccf4","ios":"levelo://app?vid=1f23276f-640a-45b0-96ab-5c9b5282ccf4"},"vehicle_type_id":"4","last_reported":1779416820,"current_range_meters":5600,"station_id":"","pricing_plan_id":"cebpf4jnsgd1na2vs0mg"},{"bike_id":"f28d95d7-2c3e-41a0-b537-9f59ebf5c414","system_id":"levelo_inurba_marseille","lat":43.28102,"lon":5.37834,"is_reserved":false,"is_disabled":false,"rental_uris":{"android":"levelo://app?vid=f28d95d7-2c3e-41a0-b537-9f59ebf5c414","ios":"levelo://app?vid=f28d95d7-2c3e-41a0-b537-9f59ebf5c414"},"vehicle_type_id":"4","last_reported":1779416820,"current_range_meters":5600,"station_id":"ce4bha12rcd13ifvqee0","pricing_plan_id":"cebpf4jnsgd1na2vs0mg"},{"bike_id":"386d907f-e762-4115-9ca8-9a1d94a73cd4","system_id":"levelo_inurba_marseille","lat":43.27831,"lon":5.3921,"is_reserved":false,"is_disabled":false,"rental_uris":{"android":"levelo://app?vid=386d907f-e762-4115-9ca8-9a1d94a73cd4","ios":"levelo://app?vid=386d907f-e762-4115-9ca8-9a1d94a73cd4"},"vehicle_type_id":"4","last_reported":1779416820,"current_range_meters":5600,"station_id":"ce4bhjp2rcd13ifvqga0","pricing_plan_id":"cebpf4jnsgd1na2vs0mg"},{"bike_id":"3430ae9e-8563-416b-8b89-4617ffd0cc41","system_id":"levelo_inurba_marseille","lat":43.28698,"lon":5.37395,"is_reserved":false,"is_disabled":false,"rental_uris":{"android":"levelo://app?vid=3430ae9e-8563-416b-8b89-4617ffd0cc41","ios":"levelo://app?vid=3430ae9e-8563-416b-8b89-4617ffd0cc41"},"vehicle_type_id":"4","last_reported":1779416820,"current_range_meters":5600,"station_id":"ce4bh3p2rcd13ifvqdq0","pricing_plan_id":"cebpf4jnsgd1na2vs0mg"},{"bike_id":"431804c1-6f5c-40a6-90f6-7fd181abee7e","system_id":"levelo_inurba_marseille","lat":43.30524,"lon":5.37268,"is_reserved":false,"is_disabled":false,"rental_uris":{"android":"levelo://app?vid=431804c1-6f5c-40a6-90f6-7fd181abee7e","ios":"levelo://app?vid=431804c1-6f5c-40a6-90f6-7fd181abee7e"},"vehicle_type_id":"4","last_reported":1779416820,"current_range_meters":5600,"station_id":"","pricing_plan_id":"cebpf4jnsgd1na2vs0mg"},{"bike_id":"e14fb0cf-3772-4bb9-bb6b-26a57489a02b","system_id":"levelo_inurba_marseille","lat":43.27954,"lon":5.3873,"is_reserved":false,"is_disabled":false,"rental_uris":{"android":"levelo://app?vid=e14fb0cf-3772-4bb9-bb6b-26a57489a02b","ios":"levelo://app?vid=e14fb0cf-3772-4bb9-bb6b-26a57489a02b"},"vehicle_type_id":"4","last_reported":1779416820,"current_range_meters":5600,"station_id":"ce4bhg12rcd13ifvqf80","pricing_plan_id":"cebpf4jnsgd1na2vs0mg"},{"bike_id":"12481d7b-ca53-44d2-a72d-3641cbe06950","system_id":"levelo_inurba_marseille","lat":43.29916,"lon":5.41003,"is_reserved":false,"is_disabled":false,"rental_uris":{"android":"levelo://app?vid=12481d7b-ca53-44d2-a72d-3641cbe06950","ios":"levelo://app?vid=12481d7b-ca53-44d2-a72d-3641cbe06950"},"vehicle_type_id":"4","last_reported":1779416820,"current_range_meters":5600,"station_id":"","pricing_plan_id":"cebpf4jnsgd1na2vs0mg"},{"bike_id":"0073b877-2b41-4abd-9b30-b1e9234219f3","system_id":"levelo_inurba_marseille","lat":43.3188,"lon":5.36827,"is_reserved":false,"is_disabled":false,"rental_uris":{"android":"levelo://app?vid=0073b877-2b41-4abd-9b30-b1e9234219f3","ios":"levelo://app?vid=0073b877-2b41-4abd-9b30-b1e9234219f3"},"vehicle_type_id":"4","last_reported":1779416820,"current_range_meters":5600,"station_id":"st_d6o2h0d0559c73evc1b0","pricing_plan_id":"cebpf4jnsgd1na2vs0mg"},{"bike_id":"f30cc7e9-3f3a-4c4c-ac9e-f1d4151053f1","system_id":"levelo_inurba_marseille","lat":43.23182,"lon":5.35538,"is_reserved":false,"is_disabled":false,"rental_uris":{"android":"levelo://app?vid=f30cc7e9-3f3a-4c4c-ac9e-f1d4151053f1","ios":"levelo://app?vid=f30cc7e9-3f3a-4c4c-ac9e-f1d4151053f1"},"vehicle_type_id":"4","last_reported":1779416820,"current_range_meters":5600,"station_id":"ce4bhu92rcd13ifvqi70","pricing_plan_id":"cebpf4jnsgd1na2vs0mg"},{"bike_id":"3164d9e8-c839-4029-b458-2d3d9b344e5f","system_id":"levelo_inurba_marseille","lat":43.275716,"lon":5.396434,"is_reserved":false,"is_disabled":false,"rental_uris":{"android":"levelo://app?vid=3164d9e8-c839-4029-b458-2d3d9b344e5f","ios":"levelo://app?vid=3164d9e8-c839-4029-b458-2d3d9b344e5f"},"vehicle_type_id":"4","last_reported":1779416820,"current_range_meters":5600,"station_id":"","pricing_plan_id":"cebpf4jnsgd1na2vs0mg"},{"bike_id":"d876f250-8123-419d-a895-9645003d3c01","system_id":"levelo_inurba_marseille","lat":43.27249,"lon":5.41632,"is_reserved":false,"is_disabled":false,"rental_uris":{"android":"levelo://app?vid=d876f250-8123-419d-a895-9645003d3c01","ios":"levelo://app?vid=d876f250-8123-419d-a895-9645003d3c01"},"vehicle_type_id":"4","last_reported":1779416820,"current_range_meters":5600,"station_id":"","pricing_plan_id":"cebpf4jnsgd1na2vs0mg"},{"bike_id":"6774f205-2ee3-4625-997b-63c588f833ce","system_id":"levelo_inurba_marseille","lat":43.25964,"lon":5.37491,"is_reserved":false,"is_disabled":true,"rental_uris":{"android":"levelo://app?vid=6774f205-2ee3-4625-997b-63c588f833ce","ios":"levelo://app?vid=6774f205-2ee3-4625-997b-63c588f833ce"},"vehicle_type_id":"4","last_reported":1779416820,"current_range_meters":5600,"station_id":"","pricing_plan_id":"cebpf4jnsgd1na2vs0mg"},{"bike_id":"bbe673ec-e5fc-44ca-acc8-3761b55bbafb","system_id":"levelo_inurba_marseille","lat":43.31763,"lon":5.3902,"is_reserved":false,"is_disabled":false,"rental_uris":{"android":"levelo://app?vid=bbe673ec-e5fc-44ca-acc8-3761b55bbafb","ios":"levelo://app?vid=bbe673ec-e5fc-44ca-acc8-3761b55bbafb"},"vehicle_type_id":"4","last_reported":1779416820,"current_range_meters":5600,"station_id":"ce4bhqp2rcd13ifvqhng","pricing_plan_id":"cebpf4jnsgd1na2vs0mg"},{"bike_id":"8c5974d2-5e79-461d-8181-7d4f70120306","system_id":"levelo_inurba_marseille","lat":43.30731,"lon":5.42449,"is_reserved":false,"is_disabled":false,"rental_uris":{"android":"levelo://app?vid=8c5974d2-5e79-461d-8181-7d4f70120306","ios":"levelo://app?vid=8c5974d2-5e79-461d-8181-7d4f70120306"},"vehicle_type_id":"4","last_reported":1779416820,"current_range_meters":5600,"station_id":"st_cvj6ca6bvosntc0bfgr0","pricing_plan_id":"cebpf4jnsgd1na2vs0mg"},{"bike_id":"c32b12fa-28b9-4651-ba45-8f134cae923b","system_id":"levelo_inurba_marseille","lat":43.30934,"lon":5.40148,"is_reserved":false,"is_disabled":false,"rental_uris":{"android":"levelo://app?vid=c32b12fa-28b9-4651-ba45-8f134cae923b","ios":"levelo://app?vid=c32b12fa-28b9-4651-ba45-8f134cae923b"},"vehicle_type_id":"4","last_reported":1779416820,"current_range_meters":5600,"station_id":"ce4bgvp2rcd13ifvqct0","pricing_plan_id":"cebpf4jnsgd1na2vs0mg"},{"bike_id":"4afb889b-ef47-4ea8-a7af-52dac9d57095","system_id":"levelo_inurba_marseille","lat":43.24812,"lon":5.37461,"is_reserved":false,"is_disabled":false,"rental_uris":{"android":"levelo://app?vid=4afb889b-ef47-4ea8-a7af-52dac9d57095","ios":"levelo://app?vid=4afb889b-ef47-4ea8-a7af-52dac9d57095"},"vehicle_type_id":"4","last_reported":1779416820,"current_range_meters":5600,"station_id":"ce4bhgh2rcd13ifvqfb0","pricing_plan_id":"cebpf4jnsgd1na2vs0mg"},{"bike_id":"ad6d8b73-6259-410d-979f-09e40ec16dc9","system_id":"levelo_inurba_marseille","lat":43.3082,"lon":5.37198,"is_reserved":false,"is_disabled":false,"rental_uris":{"android":"levelo://app?vid=ad6d8b73-6259-410d-979f-09e40ec16dc9","ios":"levelo://app?vid=ad6d8b73-6259-410d-979f-09e40ec16dc9"},"vehicle_type_id":"4","last_reported":1779416820,"current_range_meters":6000,"station_id":"","pricing_plan_id":"cebpf4jnsgd1na2vs0mg"},{"bike_id":"96f5a2da-5f92-4d4c-8b8e-3f68a0c33fde","system_id":"levelo_inurba_marseille","lat":43.25534,"lon":5.37635,"is_reserved":false,"is_disabled":true,"rental_uris":{"android":"levelo://app?vid=96f5a2da-5f92-4d4c-8b8e-3f68a0c33fde","ios":"levelo://app?vid=96f5a2da-5f92-4d4c-8b8e-3f68a0c33fde"},"vehicle_type_id":"4","last_reported":1779416820,"current_range_meters":6000,"station_id":"ce4bhh12rcd13ifvqff0","pricing_plan_id":"cebpf4jnsgd1na2vs0mg"},{"bike_id":"7ec93175-8d9c-4b31-b534-34e06405c4e0","system_id":"levelo_inurba_marseille","lat":43.29611,"lon":5.44712,"is_reserved":false,"is_disabled":false,"rental_uris":{"android":"levelo://app?vid=7ec93175-8d9c-4b31-b534-34e06405c4e0","ios":"levelo://app?vid=7ec93175-8d9c-4b31-b534-34e06405c4e0"},"vehicle_type_id":"4","last_reported":1779416820,"current_range_meters":6000,"station_id":"","pricing_plan_id":"cebpf4jnsgd1na2vs0mg"},{"bike_id":"fcfa6669-e9a2-44fe-a665-353fcc9ddd96","system_id":"levelo_inurba_marseille","lat":43.27542,"lon":5.38432,"is_reserved":false,"is_disabled":false,"rental_uris":{"android":"levelo://app?vid=fcfa6669-e9a2-44fe-a665-353fcc9ddd96","ios":"levelo://app?vid=fcfa6669-e9a2-44fe-a665-353fcc9ddd96"},"vehicle_type_id":"4","last_reported":1779416820,"current_range_meters":6000,"station_id":"ce4bhh92rcd13ifvqfi0","pricing_plan_id":"cebpf4jnsgd1na2vs0mg"},{"bike_id":"8ae01fbd-13ec-4abe-9b2c-1050445b111f","system_id":"levelo_inurba_marseille","lat":43.22535,"lon":5.34831,"is_reserved":false,"is_disabled":false,"rental_uris":{"android":"levelo://app?vid=8ae01fbd-13ec-4abe-9b2c-1050445b111f","ios":"levelo://app?vid=8ae01fbd-13ec-4abe-9b2c-1050445b111f"},"vehicle_type_id":"4","last_reported":1779416820,"current_range_meters":6000,"station_id":"st_cvj5dfep6f1abm77gieg","pricing_plan_id":"cebpf4jnsgd1na2vs0mg"},{"bike_id":"a7dcb7e6-59b7-4ada-a9a0-eb00b3467d13","system_id":"levelo_inurba_marseille","lat":43.24645,"lon":5.38895,"is_reserved":false,"is_disabled":true,"rental_uris":{"android":"levelo://app?vid=a7dcb7e6-59b7-4ada-a9a0-eb00b3467d13","ios":"levelo://app?vid=a7dcb7e6-59b7-4ada-a9a0-eb00b3467d13"},"vehicle_type_id":"4","last_reported":1779416820,"current_range_meters":6000,"station_id":"ce4bhg12rcd13ifvqf60","pricing_plan_id":"cebpf4jnsgd1na2vs0mg"},{"bike_id":"3a1d42e9-5637-4e1d-a3a8-2914b8a6d228","system_id":"levelo_inurba_marseille","lat":43.305282,"lon":5.373354,"is_reserved":false,"is_disabled":false,"rental_uris":{"android":"levelo://app?vid=3a1d42e9-5637-4e1d-a3a8-2914b8a6d228","ios":"levelo://app?vid=3a1d42e9-5637-4e1d-a3a8-2914b8a6d228"},"vehicle_type_id":"4","last_reported":1779416820,"current_range_meters":6000,"station_id":"ce4bgqh2rcd13ifvqc4g","pricing_plan_id":"cebpf4jnsgd1na2vs0mg"},{"bike_id":"a14672f9-9f2b-4f2f-bbf9-7e7b6bbf6e01","system_id":"levelo_inurba_marseille","lat":43.29251,"lon":5.40915,"is_reserved":false,"is_disabled":false,"rental_uris":{"android":"levelo://app?vid=a14672f9-9f2b-4f2f-bbf9-7e7b6bbf6e01","ios":"levelo://app?vid=a14672f9-9f2b-4f2f-bbf9-7e7b6bbf6e01"},"vehicle_type_id":"4","last_reported":1779416820,"current_range_meters":6000,"station_id":"ce4bh192rcd13ifvqdc0","pricing_plan_id":"cebpf4jnsgd1na2vs0mg"},{"bike_id":"4c0287f1-4132-4173-b075-669c6473edff","system_id":"levelo_inurba_marseille","lat":43.29882,"lon":5.39743,"is_reserved":false,"is_disabled":false,"rental_uris":{"android":"levelo://app?vid=4c0287f1-4132-4173-b075-669c6473edff","ios":"levelo://app?vid=4c0287f1-4132-4173-b075-669c6473edff"},"vehicle_type_id":"4","last_reported":1779416820,"current_range_meters":6400,"station_id":"ce4bh0h2rcd13ifvqd50","pricing_plan_id":"cebpf4jnsgd1na2vs0mg"},{"bike_id":"7cd911f2-d93f-4aa2-877e-1d430080e518","system_id":"levelo_inurba_marseille","lat":43.30888,"lon":5.39657,"is_reserved":false,"is_disabled":false,"rental_uris":{"android":"levelo://app?vid=7cd911f2-d93f-4aa2-877e-1d430080e518","ios":"levelo://app?vid=7cd911f2-d93f-4aa2-877e-1d430080e518"},"vehicle_type_id":"4","last_reported":1779416820,"current_range_meters":6400,"station_id":"ce4bh012rcd13ifvqcv0","pricing_plan_id":"cebpf4jnsgd1na2vs0mg"},{"bike_id":"3936af97-ef4d-4f58-a35e-a0221d7e9a6c","system_id":"levelo_inurba_marseille","lat":43.22563,"lon":5.41646,"is_reserved":false,"is_disabled":false,"rental_uris":{"android":"levelo://app?vid=3936af97-ef4d-4f58-a35e-a0221d7e9a6c","ios":"levelo://app?vid=3936af97-ef4d-4f58-a35e-a0221d7e9a6c"},"vehicle_type_id":"4","last_reported":1779416820,"current_range_meters":6400,"station_id":"st_d2o4gvlbi1j2169b742g","pricing_plan_id":"cebpf4jnsgd1na2vs0mg"},{"bike_id":"5f70e21c-7de6-4706-9055-de0c61005f3f","system_id":"levelo_inurba_marseille","lat":43.29523,"lon":5.38548,"is_reserved":false,"is_disabled":false,"rental_uris":{"android":"levelo://app?vid=5f70e21c-7de6-4706-9055-de0c61005f3f","ios":"levelo://app?vid=5f70e21c-7de6-4706-9055-de0c61005f3f"},"vehicle_type_id":"4","last_reported":1779416820,"current_range_meters":6400,"station_id":"ce4bgih2rcd13ifvqba0","pricing_plan_id":"cebpf4jnsgd1na2vs0mg"},{"bike_id":"678c2486-f208-445a-a253-9dfac60b0dc7","system_id":"levelo_inurba_marseille","lat":43.3245,"lon":5.3689,"is_reserved":false,"is_disabled":false,"rental_uris":{"android":"levelo://app?vid=678c2486-f208-445a-a253-9dfac60b0dc7","ios":"levelo://app?vid=678c2486-f208-445a-a253-9dfac60b0dc7"},"vehicle_type_id":"4","last_reported":1779416820,"current_range_meters":6400,"station_id":"","pricing_plan_id":"cebpf4jnsgd1na2vs0mg"},{"bike_id":"21446c33-4740-42f3-9e08-ca64ab9dbcaa","system_id":"levelo_inurba_marseille","lat":43.28407,"lon":5.3751,"is_reserved":false,"is_disabled":false,"rental_uris":{"android":"levelo://app?vid=21446c33-4740-42f3-9e08-ca64ab9dbcaa","ios":"levelo://app?vid=21446c33-4740-42f3-9e08-ca64ab9dbcaa"},"vehicle_type_id":"4","last_reported":1779416820,"current_range_meters":6400,"station_id":"ce4bh412rcd13ifvqds0","pricing_plan_id":"cebpf4jnsgd1na2vs0mg"},{"bike_id":"8d29bbeb-2e7c-4b1d-b9b0-7b1803685f4f","system_id":"levelo_inurba_marseille","lat":43.265,"lon":5.39548,"is_reserved":false,"is_disabled":false,"rental_uris":{"android":"levelo://app?vid=8d29bbeb-2e7c-4b1d-b9b0-7b1803685f4f","ios":"levelo://app?vid=8d29bbeb-2e7c-4b1d-b9b0-7b1803685f4f"},"vehicle_type_id":"4","last_reported":1779416820,"current_range_meters":6400,"station_id":"ce4bhi12rcd13ifvqfq0","pricing_plan_id":"cebpf4jnsgd1na2vs0mg"},{"bike_id":"e93a01e1-b858-4ef5-89fa-d5a67d0d3ba8","system_id":"levelo_inurba_marseille","lat":43.23177,"lon":5.39983,"is_reserved":false,"is_disabled":false,"rental_uris":{"android":"levelo://app?vid=e93a01e1-b858-4ef5-89fa-d5a67d0d3ba8","ios":"levelo://app?vid=e93a01e1-b858-4ef5-89fa-d5a67d0d3ba8"},"vehicle_type_id":"4","last_reported":1779416820,"current_range_meters":6400,"station_id":"ce4bhn12rcd13ifvqgqg","pricing_plan_id":"cebpf4jnsgd1na2vs0mg"},{"bike_id":"6176dd16-a9d7-4120-bf2a-b28a1914c54d","system_id":"levelo_inurba_marseille","lat":43.29569,"lon":5.37492,"is_reserved":false,"is_disabled":true,"rental_uris":{"android":"levelo://app?vid=6176dd16-a9d7-4120-bf2a-b28a1914c54d","ios":"levelo://app?vid=6176dd16-a9d7-4120-bf2a-b28a1914c54d"},"vehicle_type_id":"4","last_reported":1779416820,"current_range_meters":6400,"station_id":"ce4bgh92rcd13ifvqb50","pricing_plan_id":"cebpf4jnsgd1na2vs0mg"},{"bike_id":"69ebca06-d718-42a0-a01a-6483b0463da6","system_id":"levelo_inurba_marseille","lat":43.27498,"lon":5.4246,"is_reserved":false,"is_disabled":false,"rental_uris":{"android":"levelo://app?vid=69ebca06-d718-42a0-a01a-6483b0463da6","ios":"levelo://app?vid=69ebca06-d718-42a0-a01a-6483b0463da6"},"vehicle_type_id":"4","last_reported":1779416820,"current_range_meters":6400,"station_id":"ce4bhn92rcd13ifvqgrg","pricing_plan_id":"cebpf4jnsgd1na2vs0mg"},{"bike_id":"ab8afdb1-6440-465f-9d72-bf186b260819","system_id":"levelo_inurba_marseille","lat":43.29871,"lon":5.38936,"is_reserved":false,"is_disabled":false,"rental_uris":{"android":"levelo://app?vid=ab8afdb1-6440-465f-9d72-bf186b260819","ios":"levelo://app?vid=ab8afdb1-6440-465f-9d72-bf186b260819"},"vehicle_type_id":"4","last_reported":1779416820,"current_range_meters":6400,"station_id":"ce4bh392rcd13ifvqdl0","pricing_plan_id":"cebpf4jnsgd1na2vs0mg"},{"bike_id":"bcfbd48e-5312-4f28-b02c-ce41d79112f4","system_id":"levelo_inurba_marseille","lat":43.31361,"lon":5.38494,"is_reserved":false,"is_disabled":false,"rental_uris":{"android":"levelo://app?vid=bcfbd48e-5312-4f28-b02c-ce41d79112f4","ios":"levelo://app?vid=bcfbd48e-5312-4f28-b02c-ce41d79112f4"},"vehicle_type_id":"4","last_reported":1779416820,"current_range_meters":6400,"station_id":"ce4bgt92rcd13ifvqcf0","pricing_plan_id":"cebpf4jnsgd1na2vs0mg"},{"bike_id":"3b7c6a7c-8def-4f67-896d-b1ec9dfb83ed","system_id":"levelo_inurba_marseille","lat":43.32386,"lon":5.38473,"is_reserved":false,"is_disabled":true,"rental_uris":{"android":"levelo://app?vid=3b7c6a7c-8def-4f67-896d-b1ec9dfb83ed","ios":"levelo://app?vid=3b7c6a7c-8def-4f67-896d-b1ec9dfb83ed"},"vehicle_type_id":"4","last_reported":1779416820,"current_range_meters":6400,"station_id":"","pricing_plan_id":"cebpf4jnsgd1na2vs0mg"},{"bike_id":"3b3648bc-114e-4573-b5a4-e0750016f792","system_id":"levelo_inurba_marseille","lat":43.23818,"lon":5.41347,"is_reserved":false,"is_disabled":false,"rental_uris":{"android":"levelo://app?vid=3b3648bc-114e-4573-b5a4-e0750016f792","ios":"levelo://app?vid=3b3648bc-114e-4573-b5a4-e0750016f792"},"vehicle_type_id":"4","last_reported":1779416820,"current_range_meters":6400,"station_id":"","pricing_plan_id":"cebpf4jnsgd1na2vs0mg"},{"bike_id":"89067ca6-26e0-4117-b5d4-015520ac9cbb","system_id":"levelo_inurba_marseille","lat":43.29514,"lon":5.39407,"is_reserved":false,"is_disabled":false,"rental_uris":{"android":"levelo://app?vid=89067ca6-26e0-4117-b5d4-015520ac9cbb","ios":"levelo://app?vid=89067ca6-26e0-4117-b5d4-015520ac9cbb"},"vehicle_type_id":"4","last_reported":1779416820,"current_range_meters":6400,"station_id":"ce4bh292rcd13ifvqdf0","pricing_plan_id":"cebpf4jnsgd1na2vs0mg"},{"bike_id":"f14b2d37-33da-4abe-b00f-78dc278ca5ed","system_id":"levelo_inurba_marseille","lat":43.30564,"lon":5.3713,"is_reserved":false,"is_disabled":false,"rental_uris":{"android":"levelo://app?vid=f14b2d37-33da-4abe-b00f-78dc278ca5ed","ios":"levelo://app?vid=f14b2d37-33da-4abe-b00f-78dc278ca5ed"},"vehicle_type_id":"4","last_reported":1779416820,"current_range_meters":6800,"station_id":"","pricing_plan_id":"cebpf4jnsgd1na2vs0mg"},{"bike_id":"d8bd3966-3e1f-4c3a-a86e-e243a027a70c","system_id":"levelo_inurba_marseille","lat":43.26383,"lon":5.41089,"is_reserved":false,"is_disabled":false,"rental_uris":{"android":"levelo://app?vid=d8bd3966-3e1f-4c3a-a86e-e243a027a70c","ios":"levelo://app?vid=d8bd3966-3e1f-4c3a-a86e-e243a027a70c"},"vehicle_type_id":"4","last_reported":1779416820,"current_range_meters":6800,"station_id":"st_d4e5ca6na9uc73bfl5fg","pricing_plan_id":"cebpf4jnsgd1na2vs0mg"},{"bike_id":"08efe183-6668-4be3-b2c8-f43912fd4a17","system_id":"levelo_inurba_marseille","lat":43.2743,"lon":5.39428,"is_reserved":false,"is_disabled":false,"rental_uris":{"android":"levelo://app?vid=08efe183-6668-4be3-b2c8-f43912fd4a17","ios":"levelo://app?vid=08efe183-6668-4be3-b2c8-f43912fd4a17"},"vehicle_type_id":"4","last_reported":1779416820,"current_range_meters":6800,"station_id":"ce4bhdp2rcd13ifvqf20","pricing_plan_id":"cebpf4jnsgd1na2vs0mg"},{"bike_id":"47786595-b402-43f0-81d5-a02a10a5cfd1","system_id":"levelo_inurba_marseille","lat":43.25828,"lon":5.39428,"is_reserved":false,"is_disabled":false,"rental_uris":{"android":"levelo://app?vid=47786595-b402-43f0-81d5-a02a10a5cfd1","ios":"levelo://app?vid=47786595-b402-43f0-81d5-a02a10a5cfd1"},"vehicle_type_id":"4","last_reported":1779416820,"current_range_meters":6800,"station_id":"ce4bhip2rcd13ifvqft0","pricing_plan_id":"cebpf4jnsgd1na2vs0mg"},{"bike_id":"3c8e4601-2639-4196-a3e1-f497274faeed","system_id":"levelo_inurba_marseille","lat":43.26064,"lon":5.39392,"is_reserved":false,"is_disabled":false,"rental_uris":{"android":"levelo://app?vid=3c8e4601-2639-4196-a3e1-f497274faeed","ios":"levelo://app?vid=3c8e4601-2639-4196-a3e1-f497274faeed"},"vehicle_type_id":"4","last_reported":1779416820,"current_range_meters":6800,"station_id":"ce4bhh92rcd13ifvqfj0","pricing_plan_id":"cebpf4jnsgd1na2vs0mg"},{"bike_id":"6ecace9b-c16d-43aa-9c1a-0ebc2e7bcfc4","system_id":"levelo_inurba_marseille","lat":43.32113,"lon":5.36769,"is_reserved":false,"is_disabled":false,"rental_uris":{"android":"levelo://app?vid=6ecace9b-c16d-43aa-9c1a-0ebc2e7bcfc4","ios":"levelo://app?vid=6ecace9b-c16d-43aa-9c1a-0ebc2e7bcfc4"},"vehicle_type_id":"4","last_reported":1779416820,"current_range_meters":6800,"station_id":"ce4bhrh2rcd13ifvqhug","pricing_plan_id":"cebpf4jnsgd1na2vs0mg"},{"bike_id":"588e51ac-8f84-47ba-9b6c-69670b7a8142","system_id":"levelo_inurba_marseille","lat":43.29038,"lon":5.38641,"is_reserved":false,"is_disabled":false,"rental_uris":{"android":"levelo://app?vid=588e51ac-8f84-47ba-9b6c-69670b7a8142","ios":"levelo://app?vid=588e51ac-8f84-47ba-9b6c-69670b7a8142"},"vehicle_type_id":"4","last_reported":1779416820,"current_range_meters":6800,"station_id":"ce4bh4p2rcd13ifvqe0g","pricing_plan_id":"cebpf4jnsgd1na2vs0mg"},{"bike_id":"18167f0a-4494-4f68-b8fe-61de2f1e2077","system_id":"levelo_inurba_marseille","lat":43.28568,"lon":5.39492,"is_reserved":false,"is_disabled":false,"rental_uris":{"android":"levelo://app?vid=18167f0a-4494-4f68-b8fe-61de2f1e2077","ios":"levelo://app?vid=18167f0a-4494-4f68-b8fe-61de2f1e2077"},"vehicle_type_id":"4","last_reported":1779416820,"current_range_meters":6800,"station_id":"ce4bh292rcd13ifvqdg0","pricing_plan_id":"cebpf4jnsgd1na2vs0mg"},{"bike_id":"fad71679-2dc3-4c61-9034-a8d77542050c","system_id":"levelo_inurba_marseille","lat":43.27056,"lon":5.38305,"is_reserved":false,"is_disabled":true,"rental_uris":{"android":"levelo://app?vid=fad71679-2dc3-4c61-9034-a8d77542050c","ios":"levelo://app?vid=fad71679-2dc3-4c61-9034-a8d77542050c"},"vehicle_type_id":"4","last_reported":1779416820,"current_range_meters":6800,"station_id":"st_d3n2fo6cfp8s73cte1j0","pricing_plan_id":"cebpf4jnsgd1na2vs0mg"},{"bike_id":"b04ee6bf-b6e5-441d-82a5-749df314e482","system_id":"levelo_inurba_marseille","lat":43.31447,"lon":5.45119,"is_reserved":false,"is_disabled":false,"rental_uris":{"android":"levelo://app?vid=b04ee6bf-b6e5-441d-82a5-749df314e482","ios":"levelo://app?vid=b04ee6bf-b6e5-441d-82a5-749df314e482"},"vehicle_type_id":"4","last_reported":1779416820,"current_range_meters":6800,"station_id":"","pricing_plan_id":"cebpf4jnsgd1na2vs0mg"},{"bike_id":"013939bc-c53d-4e6f-be2a-05c79303cd52","system_id":"levelo_inurba_marseille","lat":43.30988,"lon":5.36779,"is_reserved":false,"is_disabled":false,"rental_uris":{"android":"levelo://app?vid=013939bc-c53d-4e6f-be2a-05c79303cd52","ios":"levelo://app?vid=013939bc-c53d-4e6f-be2a-05c79303cd52"},"vehicle_type_id":"4","last_reported":1779416820,"current_range_meters":6800,"station_id":"","pricing_plan_id":"cebpf4jnsgd1na2vs0mg"},{"bike_id":"ca8af31e-8d50-4f33-8e15-d314ae8059b7","system_id":"levelo_inurba_marseille","lat":43.25697,"lon":5.41104,"is_reserved":false,"is_disabled":false,"rental_uris":{"android":"levelo://app?vid=ca8af31e-8d50-4f33-8e15-d314ae8059b7","ios":"levelo://app?vid=ca8af31e-8d50-4f33-8e15-d314ae8059b7"},"vehicle_type_id":"4","last_reported":1779416820,"current_range_meters":6800,"station_id":"ce4bhkp2rcd13ifvqgd0","pricing_plan_id":"cebpf4jnsgd1na2vs0mg"},{"bike_id":"e6eba207-3372-4c38-a13d-96e436c475ed","system_id":"levelo_inurba_marseille","lat":43.30317,"lon":5.40444,"is_reserved":false,"is_disabled":false,"rental_uris":{"android":"levelo://app?vid=e6eba207-3372-4c38-a13d-96e436c475ed","ios":"levelo://app?vid=e6eba207-3372-4c38-a13d-96e436c475ed"},"vehicle_type_id":"4","last_reported":1779416820,"current_range_meters":6800,"station_id":"ce4bh012rcd13ifvqd10","pricing_plan_id":"cebpf4jnsgd1na2vs0mg"},{"bike_id":"b90c4810-bc71-435f-9454-1d991656a084","system_id":"levelo_inurba_marseille","lat":43.32486,"lon":5.38294,"is_reserved":false,"is_disabled":false,"rental_uris":{"android":"levelo://app?vid=b90c4810-bc71-435f-9454-1d991656a084","ios":"levelo://app?vid=b90c4810-bc71-435f-9454-1d991656a084"},"vehicle_type_id":"4","last_reported":1779416820,"current_range_meters":6800,"station_id":"st_d4asgbiv49dc73anf9m0","pricing_plan_id":"cebpf4jnsgd1na2vs0mg"},{"bike_id":"7926970b-b546-4bd9-8ad0-0c1e21624b17","system_id":"levelo_inurba_marseille","lat":43.29584,"lon":5.38092,"is_reserved":false,"is_disabled":true,"rental_uris":{"android":"levelo://app?vid=7926970b-b546-4bd9-8ad0-0c1e21624b17","ios":"levelo://app?vid=7926970b-b546-4bd9-8ad0-0c1e21624b17"},"vehicle_type_id":"4","last_reported":1779416820,"current_range_meters":6800,"station_id":"ce4bgl12rcd13ifvqbo0","pricing_plan_id":"cebpf4jnsgd1na2vs0mg"},{"bike_id":"c1ed57f6-f105-460c-8703-1c2eae17785a","system_id":"levelo_inurba_marseille","lat":43.2254,"lon":5.34836,"is_reserved":false,"is_disabled":false,"rental_uris":{"android":"levelo://app?vid=c1ed57f6-f105-460c-8703-1c2eae17785a","ios":"levelo://app?vid=c1ed57f6-f105-460c-8703-1c2eae17785a"},"vehicle_type_id":"4","last_reported":1779416820,"current_range_meters":6800,"station_id":"st_cvj5dfep6f1abm77gieg","pricing_plan_id":"cebpf4jnsgd1na2vs0mg"},{"bike_id":"a1ab53b4-fff4-4cd3-a9d2-56efd4f6b407","system_id":"levelo_inurba_marseille","lat":43.24973,"lon":5.40544,"is_reserved":false,"is_disabled":false,"rental_uris":{"android":"levelo://app?vid=a1ab53b4-fff4-4cd3-a9d2-56efd4f6b407","ios":"levelo://app?vid=a1ab53b4-fff4-4cd3-a9d2-56efd4f6b407"},"vehicle_type_id":"4","last_reported":1779416820,"current_range_meters":6800,"station_id":"","pricing_plan_id":"cebpf4jnsgd1na2vs0mg"},{"bike_id":"462b95e6-d4ea-4465-b068-0c42267851aa","system_id":"levelo_inurba_marseille","lat":43.30102,"lon":5.39084,"is_reserved":false,"is_disabled":false,"rental_uris":{"android":"levelo://app?vid=462b95e6-d4ea-4465-b068-0c42267851aa","ios":"levelo://app?vid=462b95e6-d4ea-4465-b068-0c42267851aa"},"vehicle_type_id":"4","last_reported":1779416820,"current_range_meters":6800,"station_id":"ce4bh192rcd13ifvqdb0","pricing_plan_id":"cebpf4jnsgd1na2vs0mg"},{"bike_id":"9d67899c-a584-4514-9cb2-6baec84826c1","system_id":"levelo_inurba_marseille","lat":43.30109,"lon":5.39079,"is_reserved":false,"is_disabled":false,"rental_uris":{"android":"levelo://app?vid=9d67899c-a584-4514-9cb2-6baec84826c1","ios":"levelo://app?vid=9d67899c-a584-4514-9cb2-6baec84826c1"},"vehicle_type_id":"4","last_reported":1779416820,"current_range_meters":6800,"station_id":"ce4bh192rcd13ifvqdb0","pricing_plan_id":"cebpf4jnsgd1na2vs0mg"},{"bike_id":"f5ddfd47-1379-40f7-88f5-238af06fb36c","system_id":"levelo_inurba_marseille","lat":43.28858,"lon":5.42521,"is_reserved":false,"is_disabled":false,"rental_uris":{"android":"levelo://app?vid=f5ddfd47-1379-40f7-88f5-238af06fb36c","ios":"levelo://app?vid=f5ddfd47-1379-40f7-88f5-238af06fb36c"},"vehicle_type_id":"4","last_reported":1779416820,"current_range_meters":6800,"station_id":"st_d3b462108ojc7389ooeg","pricing_plan_id":"cebpf4jnsgd1na2vs0mg"},{"bike_id":"2d1aed82-bcf3-4755-94a6-10b70e755dab","system_id":"levelo_inurba_marseille","lat":43.30354,"lon":5.40448,"is_reserved":false,"is_disabled":false,"rental_uris":{"android":"levelo://app?vid=2d1aed82-bcf3-4755-94a6-10b70e755dab","ios":"levelo://app?vid=2d1aed82-bcf3-4755-94a6-10b70e755dab"},"vehicle_type_id":"4","last_reported":1779416820,"current_range_meters":7200,"station_id":"ce4bh012rcd13ifvqd10","pricing_plan_id":"cebpf4jnsgd1na2vs0mg"},{"bike_id":"5c530a9e-7c4a-4aa6-adac-4172a237ef4e","system_id":"levelo_inurba_marseille","lat":43.28583,"lon":5.35,"is_reserved":false,"is_disabled":false,"rental_uris":{"android":"levelo://app?vid=5c530a9e-7c4a-4aa6-adac-4172a237ef4e","ios":"levelo://app?vid=5c530a9e-7c4a-4aa6-adac-4172a237ef4e"},"vehicle_type_id":"4","last_reported":1779416820,"current_range_meters":7200,"station_id":"","pricing_plan_id":"cebpf4jnsgd1na2vs0mg"},{"bike_id":"129d1c1e-a4ec-4956-9f3f-d6961f012ff9","system_id":"levelo_inurba_marseille","lat":43.28842,"lon":5.36638,"is_reserved":false,"is_disabled":false,"rental_uris":{"android":"levelo://app?vid=129d1c1e-a4ec-4956-9f3f-d6961f012ff9","ios":"levelo://app?vid=129d1c1e-a4ec-4956-9f3f-d6961f012ff9"},"vehicle_type_id":"4","last_reported":1779416820,"current_range_meters":7200,"station_id":"","pricing_plan_id":"cebpf4jnsgd1na2vs0mg"},{"bike_id":"67eb7547-a3db-4c45-b1d5-dbbc7268133e","system_id":"levelo_inurba_marseille","lat":43.28928,"lon":5.36649,"is_reserved":false,"is_disabled":true,"rental_uris":{"android":"levelo://app?vid=67eb7547-a3db-4c45-b1d5-dbbc7268133e","ios":"levelo://app?vid=67eb7547-a3db-4c45-b1d5-dbbc7268133e"},"vehicle_type_id":"4","last_reported":1779416820,"current_range_meters":7200,"station_id":"ce4bhap2rcd13ifvqek0","pricing_plan_id":"cebpf4jnsgd1na2vs0mg"},{"bike_id":"c04a6a2a-beaa-465c-9744-cf2c4e560e9f","system_id":"levelo_inurba_marseille","lat":43.29655,"lon":5.38649,"is_reserved":false,"is_disabled":false,"rental_uris":{"android":"levelo://app?vid=c04a6a2a-beaa-465c-9744-cf2c4e560e9f","ios":"levelo://app?vid=c04a6a2a-beaa-465c-9744-cf2c4e560e9f"},"vehicle_type_id":"4","last_reported":1779416820,"current_range_meters":7200,"station_id":"","pricing_plan_id":"cebpf4jnsgd1na2vs0mg"},{"bike_id":"6f23edc0-4a56-4c8c-b45d-bcafdde5d3bc","system_id":"levelo_inurba_marseille","lat":43.29874,"lon":5.38914,"is_reserved":false,"is_disabled":false,"rental_uris":{"android":"levelo://app?vid=6f23edc0-4a56-4c8c-b45d-bcafdde5d3bc","ios":"levelo://app?vid=6f23edc0-4a56-4c8c-b45d-bcafdde5d3bc"},"vehicle_type_id":"4","last_reported":1779416820,"current_range_meters":7200,"station_id":"ce4bh392rcd13ifvqdl0","pricing_plan_id":"cebpf4jnsgd1na2vs0mg"},{"bike_id":"87217508-6b31-400b-9e30-3aef98052c0a","system_id":"levelo_inurba_marseille","lat":43.33765,"lon":5.37445,"is_reserved":false,"is_disabled":false,"rental_uris":{"android":"levelo://app?vid=87217508-6b31-400b-9e30-3aef98052c0a","ios":"levelo://app?vid=87217508-6b31-400b-9e30-3aef98052c0a"},"vehicle_type_id":"4","last_reported":1779416820,"current_range_meters":7200,"station_id":"","pricing_plan_id":"cebpf4jnsgd1na2vs0mg"},{"bike_id":"25458ffb-cf18-4692-a54a-57d348064c21","system_id":"levelo_inurba_marseille","lat":43.30945,"lon":5.39039,"is_reserved":false,"is_disabled":false,"rental_uris":{"android":"levelo://app?vid=25458ffb-cf18-4692-a54a-57d348064c21","ios":"levelo://app?vid=25458ffb-cf18-4692-a54a-57d348064c21"},"vehicle_type_id":"4","last_reported":1779416820,"current_range_meters":7200,"station_id":"ce4bgup2rcd13ifvqco0","pricing_plan_id":"cebpf4jnsgd1na2vs0mg"},{"bike_id":"9b0e1355-cfa6-4246-8dd4-5abd1c2ff8a9","system_id":"levelo_inurba_marseille","lat":43.30959,"lon":5.39058,"is_reserved":false,"is_disabled":true,"rental_uris":{"android":"levelo://app?vid=9b0e1355-cfa6-4246-8dd4-5abd1c2ff8a9","ios":"levelo://app?vid=9b0e1355-cfa6-4246-8dd4-5abd1c2ff8a9"},"vehicle_type_id":"4","last_reported":1779416820,"current_range_meters":7200,"station_id":"ce4bgup2rcd13ifvqco0","pricing_plan_id":"cebpf4jnsgd1na2vs0mg"},{"bike_id":"72e0526d-605e-4d69-8c0b-6081a2aedb75","system_id":"levelo_inurba_marseille","lat":43.30317,"lon":5.40438,"is_reserved":false,"is_disabled":false,"rental_uris":{"android":"levelo://app?vid=72e0526d-605e-4d69-8c0b-6081a2aedb75","ios":"levelo://app?vid=72e0526d-605e-4d69-8c0b-6081a2aedb75"},"vehicle_type_id":"4","last_reported":1779416820,"current_range_meters":7200,"station_id":"ce4bh012rcd13ifvqd10","pricing_plan_id":"cebpf4jnsgd1na2vs0mg"},{"bike_id":"2ce323b9-44db-4da7-b01c-34438bd6d7fa","system_id":"levelo_inurba_marseille","lat":43.31973,"lon":5.38157,"is_reserved":false,"is_disabled":false,"rental_uris":{"android":"levelo://app?vid=2ce323b9-44db-4da7-b01c-34438bd6d7fa","ios":"levelo://app?vid=2ce323b9-44db-4da7-b01c-34438bd6d7fa"},"vehicle_type_id":"4","last_reported":1779416820,"current_range_meters":7200,"station_id":"ce4bhr12rcd13ifvqhpg","pricing_plan_id":"cebpf4jnsgd1na2vs0mg"},{"bike_id":"ae73dd5f-c448-475f-be97-7d9f664d23a6","system_id":"levelo_inurba_marseille","lat":43.28585,"lon":5.38437,"is_reserved":false,"is_disabled":false,"rental_uris":{"android":"levelo://app?vid=ae73dd5f-c448-475f-be97-7d9f664d23a6","ios":"levelo://app?vid=ae73dd5f-c448-475f-be97-7d9f664d23a6"},"vehicle_type_id":"4","last_reported":1779416820,"current_range_meters":7200,"station_id":"","pricing_plan_id":"cebpf4jnsgd1na2vs0mg"},{"bike_id":"eea7f27f-9e90-457d-8281-3f806a24765e","system_id":"levelo_inurba_marseille","lat":43.28208,"lon":5.39061,"is_reserved":false,"is_disabled":false,"rental_uris":{"android":"levelo://app?vid=eea7f27f-9e90-457d-8281-3f806a24765e","ios":"levelo://app?vid=eea7f27f-9e90-457d-8281-3f806a24765e"},"vehicle_type_id":"4","last_reported":1779416820,"current_range_meters":7200,"station_id":"ce4bhn92rcd13ifvqgsg","pricing_plan_id":"cebpf4jnsgd1na2vs0mg"},{"bike_id":"feb06ac0-4bcc-49f8-9c48-26dbea749a30","system_id":"levelo_inurba_marseille","lat":43.23961,"lon":5.36643,"is_reserved":false,"is_disabled":false,"rental_uris":{"android":"levelo://app?vid=feb06ac0-4bcc-49f8-9c48-26dbea749a30","ios":"levelo://app?vid=feb06ac0-4bcc-49f8-9c48-26dbea749a30"},"vehicle_type_id":"4","last_reported":1779416820,"current_range_meters":7200,"station_id":"ce4bhi12rcd13ifvqfp0","pricing_plan_id":"cebpf4jnsgd1na2vs0mg"},{"bike_id":"977c12c0-cd19-486b-95d7-9309d89d0aaf","system_id":"levelo_inurba_marseille","lat":43.3199,"lon":5.38157,"is_reserved":false,"is_disabled":false,"rental_uris":{"android":"levelo://app?vid=977c12c0-cd19-486b-95d7-9309d89d0aaf","ios":"levelo://app?vid=977c12c0-cd19-486b-95d7-9309d89d0aaf"},"vehicle_type_id":"4","last_reported":1779416820,"current_range_meters":7200,"station_id":"ce4bhr12rcd13ifvqhpg","pricing_plan_id":"cebpf4jnsgd1na2vs0mg"},{"bike_id":"b00a53ba-4592-4120-86c8-ae222013fcee","system_id":"levelo_inurba_marseille","lat":43.29971,"lon":5.41335,"is_reserved":false,"is_disabled":false,"rental_uris":{"android":"levelo://app?vid=b00a53ba-4592-4120-86c8-ae222013fcee","ios":"levelo://app?vid=b00a53ba-4592-4120-86c8-ae222013fcee"},"vehicle_type_id":"4","last_reported":1779416820,"current_range_meters":7200,"station_id":"ce4bhp12rcd13ifvqh9g","pricing_plan_id":"cebpf4jnsgd1na2vs0mg"},{"bike_id":"7eebbda7-66b3-4973-bb8a-7ba5bc875a88","system_id":"levelo_inurba_marseille","lat":43.27175,"lon":5.41001,"is_reserved":false,"is_disabled":false,"rental_uris":{"android":"levelo://app?vid=7eebbda7-66b3-4973-bb8a-7ba5bc875a88","ios":"levelo://app?vid=7eebbda7-66b3-4973-bb8a-7ba5bc875a88"},"vehicle_type_id":"4","last_reported":1779416820,"current_range_meters":7200,"station_id":"ce4bhl12rcd13ifvqgf0","pricing_plan_id":"cebpf4jnsgd1na2vs0mg"},{"bike_id":"63d35d01-5acd-4b8c-b490-4f7436cc53c2","system_id":"levelo_inurba_marseille","lat":43.26163,"lon":5.37509,"is_reserved":false,"is_disabled":false,"rental_uris":{"android":"levelo://app?vid=63d35d01-5acd-4b8c-b490-4f7436cc53c2","ios":"levelo://app?vid=63d35d01-5acd-4b8c-b490-4f7436cc53c2"},"vehicle_type_id":"4","last_reported":1779416820,"current_range_meters":7200,"station_id":"ce4bhgp2rcd13ifvqfc0","pricing_plan_id":"cebpf4jnsgd1na2vs0mg"},{"bike_id":"3d436a0d-575b-42d3-8681-5c87057b3b7f","system_id":"levelo_inurba_marseille","lat":43.2796,"lon":5.43624,"is_reserved":false,"is_disabled":false,"rental_uris":{"android":"levelo://app?vid=3d436a0d-575b-42d3-8681-5c87057b3b7f","ios":"levelo://app?vid=3d436a0d-575b-42d3-8681-5c87057b3b7f"},"vehicle_type_id":"4","last_reported":1779416820,"current_range_meters":7200,"station_id":"","pricing_plan_id":"cebpf4jnsgd1na2vs0mg"},{"bike_id":"1dd3e0f7-2180-40ac-aafe-ceddd25cb280","system_id":"levelo_inurba_marseille","lat":43.24545,"lon":5.3953,"is_reserved":false,"is_disabled":false,"rental_uris":{"android":"levelo://app?vid=1dd3e0f7-2180-40ac-aafe-ceddd25cb280","ios":"levelo://app?vid=1dd3e0f7-2180-40ac-aafe-ceddd25cb280"},"vehicle_type_id":"4","last_reported":1779416820,"current_range_meters":7200,"station_id":"ce4bhlp2rcd13ifvqgjg","pricing_plan_id":"cebpf4jnsgd1na2vs0mg"},{"bike_id":"e4fd2b5f-8c1e-4148-9edb-b582666b9eac","system_id":"levelo_inurba_marseille","lat":43.31372,"lon":5.38497,"is_reserved":false,"is_disabled":true,"rental_uris":{"android":"levelo://app?vid=e4fd2b5f-8c1e-4148-9edb-b582666b9eac","ios":"levelo://app?vid=e4fd2b5f-8c1e-4148-9edb-b582666b9eac"},"vehicle_type_id":"4","last_reported":1779416820,"current_range_meters":7200,"station_id":"ce4bgt92rcd13ifvqcf0","pricing_plan_id":"cebpf4jnsgd1na2vs0mg"},{"bike_id":"298772fa-8e4a-4c02-b634-24b3e253d1de","system_id":"levelo_inurba_marseille","lat":43.30951,"lon":5.39045,"is_reserved":false,"is_disabled":false,"rental_uris":{"android":"levelo://app?vid=298772fa-8e4a-4c02-b634-24b3e253d1de","ios":"levelo://app?vid=298772fa-8e4a-4c02-b634-24b3e253d1de"},"vehicle_type_id":"4","last_reported":1779416820,"current_range_meters":7200,"station_id":"ce4bgup2rcd13ifvqco0","pricing_plan_id":"cebpf4jnsgd1na2vs0mg"},{"bike_id":"891bbb3b-d64e-4082-9a23-6ac299a0152f","system_id":"levelo_inurba_marseille","lat":43.29244,"lon":5.40924,"is_reserved":false,"is_disabled":false,"rental_uris":{"android":"levelo://app?vid=891bbb3b-d64e-4082-9a23-6ac299a0152f","ios":"levelo://app?vid=891bbb3b-d64e-4082-9a23-6ac299a0152f"},"vehicle_type_id":"4","last_reported":1779416820,"current_range_meters":7200,"station_id":"ce4bh192rcd13ifvqdc0","pricing_plan_id":"cebpf4jnsgd1na2vs0mg"},{"bike_id":"8ad67215-de2f-47a2-94cb-838732bb958e","system_id":"levelo_inurba_marseille","lat":43.31027,"lon":5.3718,"is_reserved":false,"is_disabled":false,"rental_uris":{"android":"levelo://app?vid=8ad67215-de2f-47a2-94cb-838732bb958e","ios":"levelo://app?vid=8ad67215-de2f-47a2-94cb-838732bb958e"},"vehicle_type_id":"4","last_reported":1779416820,"current_range_meters":8000,"station_id":"st_d4kl2rp97mjs73e7tdfg","pricing_plan_id":"cebpf4jnsgd1na2vs0mg"},{"bike_id":"11fb3071-a202-4b5e-b606-dd07072dff70","system_id":"levelo_inurba_marseille","lat":43.31992,"lon":5.38139,"is_reserved":false,"is_disabled":false,"rental_uris":{"android":"levelo://app?vid=11fb3071-a202-4b5e-b606-dd07072dff70","ios":"levelo://app?vid=11fb3071-a202-4b5e-b606-dd07072dff70"},"vehicle_type_id":"4","last_reported":1779416820,"current_range_meters":8000,"station_id":"ce4bhr12rcd13ifvqhpg","pricing_plan_id":"cebpf4jnsgd1na2vs0mg"},{"bike_id":"b7b1190c-b5c6-4401-98fd-327abc9a6496","system_id":"levelo_inurba_marseille","lat":43.31725,"lon":5.39008,"is_reserved":false,"is_disabled":false,"rental_uris":{"android":"levelo://app?vid=b7b1190c-b5c6-4401-98fd-327abc9a6496","ios":"levelo://app?vid=b7b1190c-b5c6-4401-98fd-327abc9a6496"},"vehicle_type_id":"4","last_reported":1779416820,"current_range_meters":8000,"station_id":"ce4bhqp2rcd13ifvqhng","pricing_plan_id":"cebpf4jnsgd1na2vs0mg"},{"bike_id":"cb6da56f-4060-4687-8a20-aefcb7f3a9b0","system_id":"levelo_inurba_marseille","lat":43.29244,"lon":5.40916,"is_reserved":false,"is_disabled":false,"rental_uris":{"android":"levelo://app?vid=cb6da56f-4060-4687-8a20-aefcb7f3a9b0","ios":"levelo://app?vid=cb6da56f-4060-4687-8a20-aefcb7f3a9b0"},"vehicle_type_id":"4","last_reported":1779416820,"current_range_meters":8000,"station_id":"ce4bh192rcd13ifvqdc0","pricing_plan_id":"cebpf4jnsgd1na2vs0mg"},{"bike_id":"247dfdf4-72a9-4359-a225-da09e14d4384","system_id":"levelo_inurba_marseille","lat":43.337444,"lon":5.374475,"is_reserved":false,"is_disabled":false,"rental_uris":{"android":"levelo://app?vid=247dfdf4-72a9-4359-a225-da09e14d4384","ios":"levelo://app?vid=247dfdf4-72a9-4359-a225-da09e14d4384"},"vehicle_type_id":"4","last_reported":1779416820,"current_range_meters":8000,"station_id":"","pricing_plan_id":"cebpf4jnsgd1na2vs0mg"},{"bike_id":"23fa46e4-55ce-41df-8541-d2c93a318a28","system_id":"levelo_inurba_marseille","lat":43.30956,"lon":5.39053,"is_reserved":false,"is_disabled":false,"rental_uris":{"android":"levelo://app?vid=23fa46e4-55ce-41df-8541-d2c93a318a28","ios":"levelo://app?vid=23fa46e4-55ce-41df-8541-d2c93a318a28"},"vehicle_type_id":"4","last_reported":1779416820,"current_range_meters":8000,"station_id":"ce4bgup2rcd13ifvqco0","pricing_plan_id":"cebpf4jnsgd1na2vs0mg"},{"bike_id":"60a16368-519a-4aa5-889a-f31cdc0a5be1","system_id":"levelo_inurba_marseille","lat":43.31985,"lon":5.41525,"is_reserved":false,"is_disabled":false,"rental_uris":{"android":"levelo://app?vid=60a16368-519a-4aa5-889a-f31cdc0a5be1","ios":"levelo://app?vid=60a16368-519a-4aa5-889a-f31cdc0a5be1"},"vehicle_type_id":"4","last_reported":1779416820,"current_range_meters":8000,"station_id":"","pricing_plan_id":"cebpf4jnsgd1na2vs0mg"},{"bike_id":"b543b353-7a1a-4f91-804d-ab0bacc8ec32","system_id":"levelo_inurba_marseille","lat":43.30311,"lon":5.39212,"is_reserved":false,"is_disabled":false,"rental_uris":{"android":"levelo://app?vid=b543b353-7a1a-4f91-804d-ab0bacc8ec32","ios":"levelo://app?vid=b543b353-7a1a-4f91-804d-ab0bacc8ec32"},"vehicle_type_id":"4","last_reported":1779416820,"current_range_meters":8000,"station_id":"ce4bgkh2rcd13ifvqbk0","pricing_plan_id":"cebpf4jnsgd1na2vs0mg"},{"bike_id":"bae24b03-b710-4049-9b14-fe506328781c","system_id":"levelo_inurba_marseille","lat":43.29243,"lon":5.40148,"is_reserved":false,"is_disabled":false,"rental_uris":{"android":"levelo://app?vid=bae24b03-b710-4049-9b14-fe506328781c","ios":"levelo://app?vid=bae24b03-b710-4049-9b14-fe506328781c"},"vehicle_type_id":"4","last_reported":1779416820,"current_range_meters":8000,"station_id":"ce4bh312rcd13ifvqdk0","pricing_plan_id":"cebpf4jnsgd1na2vs0mg"},{"bike_id":"aa71664e-fae7-4d97-8515-ddae352558ad","system_id":"levelo_inurba_marseille","lat":43.29259,"lon":5.40133,"is_reserved":false,"is_disabled":true,"rental_uris":{"android":"levelo://app?vid=aa71664e-fae7-4d97-8515-ddae352558ad","ios":"levelo://app?vid=aa71664e-fae7-4d97-8515-ddae352558ad"},"vehicle_type_id":"4","last_reported":1779416820,"current_range_meters":8000,"station_id":"ce4bh312rcd13ifvqdk0","pricing_plan_id":"cebpf4jnsgd1na2vs0mg"},{"bike_id":"843cf410-1c96-4b5c-a663-6d447f3945af","system_id":"levelo_inurba_marseille","lat":43.30881,"lon":5.39632,"is_reserved":false,"is_disabled":false,"rental_uris":{"android":"levelo://app?vid=843cf410-1c96-4b5c-a663-6d447f3945af","ios":"levelo://app?vid=843cf410-1c96-4b5c-a663-6d447f3945af"},"vehicle_type_id":"4","last_reported":1779416820,"current_range_meters":8000,"station_id":"ce4bh012rcd13ifvqcv0","pricing_plan_id":"cebpf4jnsgd1na2vs0mg"},{"bike_id":"7837de24-8305-43ed-92b3-c6b256457605","system_id":"levelo_inurba_marseille","lat":43.30923,"lon":5.40144,"is_reserved":false,"is_disabled":false,"rental_uris":{"android":"levelo://app?vid=7837de24-8305-43ed-92b3-c6b256457605","ios":"levelo://app?vid=7837de24-8305-43ed-92b3-c6b256457605"},"vehicle_type_id":"4","last_reported":1779416820,"current_range_meters":8000,"station_id":"ce4bgvp2rcd13ifvqct0","pricing_plan_id":"cebpf4jnsgd1na2vs0mg"},{"bike_id":"12832d16-4545-4645-a836-c0a3f9777e3f","system_id":"levelo_inurba_marseille","lat":43.27961,"lon":5.38702,"is_reserved":false,"is_disabled":false,"rental_uris":{"android":"levelo://app?vid=12832d16-4545-4645-a836-c0a3f9777e3f","ios":"levelo://app?vid=12832d16-4545-4645-a836-c0a3f9777e3f"},"vehicle_type_id":"4","last_reported":1779416820,"current_range_meters":8000,"station_id":"ce4bhg12rcd13ifvqf80","pricing_plan_id":"cebpf4jnsgd1na2vs0mg"},{"bike_id":"be5d7387-d735-4563-ab43-6619633de90d","system_id":"levelo_inurba_marseille","lat":43.31104,"lon":5.39324,"is_reserved":false,"is_disabled":false,"rental_uris":{"android":"levelo://app?vid=be5d7387-d735-4563-ab43-6619633de90d","ios":"levelo://app?vid=be5d7387-d735-4563-ab43-6619633de90d"},"vehicle_type_id":"4","last_reported":1779416820,"current_range_meters":8000,"station_id":"","pricing_plan_id":"cebpf4jnsgd1na2vs0mg"},{"bike_id":"11a66dad-e0b5-4379-b515-3f59ab78942f","system_id":"levelo_inurba_marseille","lat":43.28674,"lon":5.38683,"is_reserved":false,"is_disabled":false,"rental_uris":{"android":"levelo://app?vid=11a66dad-e0b5-4379-b515-3f59ab78942f","ios":"levelo://app?vid=11a66dad-e0b5-4379-b515-3f59ab78942f"},"vehicle_type_id":"4","last_reported":1779416820,"current_range_meters":8000,"station_id":"ce4bh492rcd13ifvqdug","pricing_plan_id":"cebpf4jnsgd1na2vs0mg"},{"bike_id":"74873207-0cd5-492f-a32f-89838d6d4af5","system_id":"levelo_inurba_marseille","lat":43.2905,"lon":5.39938,"is_reserved":false,"is_disabled":false,"rental_uris":{"android":"levelo://app?vid=74873207-0cd5-492f-a32f-89838d6d4af5","ios":"levelo://app?vid=74873207-0cd5-492f-a32f-89838d6d4af5"},"vehicle_type_id":"4","last_reported":1779416820,"current_range_meters":8000,"station_id":"ce4bh392rcd13ifvqdm0","pricing_plan_id":"cebpf4jnsgd1na2vs0mg"},{"bike_id":"c8b3404a-1f84-41df-95ef-b8c14dc2c8f2","system_id":"levelo_inurba_marseille","lat":43.28027,"lon":5.36962,"is_reserved":false,"is_disabled":false,"rental_uris":{"android":"levelo://app?vid=c8b3404a-1f84-41df-95ef-b8c14dc2c8f2","ios":"levelo://app?vid=c8b3404a-1f84-41df-95ef-b8c14dc2c8f2"},"vehicle_type_id":"4","last_reported":1779416820,"current_range_meters":8000,"station_id":"ce4bha12rcd13ifvqef0","pricing_plan_id":"cebpf4jnsgd1na2vs0mg"},{"bike_id":"8055306c-125c-4cfa-a96f-8a5366e042dd","system_id":"levelo_inurba_marseille","lat":43.32044,"lon":5.41547,"is_reserved":false,"is_disabled":false,"rental_uris":{"android":"levelo://app?vid=8055306c-125c-4cfa-a96f-8a5366e042dd","ios":"levelo://app?vid=8055306c-125c-4cfa-a96f-8a5366e042dd"},"vehicle_type_id":"4","last_reported":1779416820,"current_range_meters":8000,"station_id":"ce4bhq92rcd13ifvqhkg","pricing_plan_id":"cebpf4jnsgd1na2vs0mg"},{"bike_id":"5d370724-77a2-4752-996e-f01dda7a3379","system_id":"levelo_inurba_marseille","lat":43.22563,"lon":5.41636,"is_reserved":false,"is_disabled":false,"rental_uris":{"android":"levelo://app?vid=5d370724-77a2-4752-996e-f01dda7a3379","ios":"levelo://app?vid=5d370724-77a2-4752-996e-f01dda7a3379"},"vehicle_type_id":"4","last_reported":1779416820,"current_range_meters":8000,"station_id":"st_d2o4gvlbi1j2169b742g","pricing_plan_id":"cebpf4jnsgd1na2vs0mg"},{"bike_id":"a02eafb8-c9f7-4e52-ac68-65eec8792573","system_id":"levelo_inurba_marseille","lat":43.28419,"lon":5.37516,"is_reserved":false,"is_disabled":false,"rental_uris":{"android":"levelo://app?vid=a02eafb8-c9f7-4e52-ac68-65eec8792573","ios":"levelo://app?vid=a02eafb8-c9f7-4e52-ac68-65eec8792573"},"vehicle_type_id":"4","last_reported":1779416820,"current_range_meters":8000,"station_id":"ce4bh412rcd13ifvqds0","pricing_plan_id":"cebpf4jnsgd1na2vs0mg"},{"bike_id":"7def9d47-6ed4-4f2c-8372-35f6feb0e42f","system_id":"levelo_inurba_marseille","lat":43.30778,"lon":5.37656,"is_reserved":false,"is_disabled":false,"rental_uris":{"android":"levelo://app?vid=7def9d47-6ed4-4f2c-8372-35f6feb0e42f","ios":"levelo://app?vid=7def9d47-6ed4-4f2c-8372-35f6feb0e42f"},"vehicle_type_id":"4","last_reported":1779416820,"current_range_meters":8000,"station_id":"ce4bgv92rcd13ifvqcq0","pricing_plan_id":"cebpf4jnsgd1na2vs0mg"},{"bike_id":"4fa0521d-5744-4365-a06a-c2c83719732e","system_id":"levelo_inurba_marseille","lat":43.28991,"lon":5.35604,"is_reserved":false,"is_disabled":true,"rental_uris":{"android":"levelo://app?vid=4fa0521d-5744-4365-a06a-c2c83719732e","ios":"levelo://app?vid=4fa0521d-5744-4365-a06a-c2c83719732e"},"vehicle_type_id":"4","last_reported":1779416820,"current_range_meters":8000,"station_id":"ce4bhb92rcd13ifvqen0","pricing_plan_id":"cebpf4jnsgd1na2vs0mg"},{"bike_id":"dbf1df3b-7c0e-44cc-a6f4-2ef8960772dd","system_id":"levelo_inurba_marseille","lat":43.22938,"lon":5.35376,"is_reserved":false,"is_disabled":false,"rental_uris":{"android":"levelo://app?vid=dbf1df3b-7c0e-44cc-a6f4-2ef8960772dd","ios":"levelo://app?vid=dbf1df3b-7c0e-44cc-a6f4-2ef8960772dd"},"vehicle_type_id":"4","last_reported":1779416820,"current_range_meters":8000,"station_id":"cpo3532slgdg3j2ikp40","pricing_plan_id":"cebpf4jnsgd1na2vs0mg"},{"bike_id":"6cf67873-0951-46e7-8b88-9e8c18fea2fd","system_id":"levelo_inurba_marseille","lat":43.26606,"lon":5.39058,"is_reserved":false,"is_disabled":false,"rental_uris":{"android":"levelo://app?vid=6cf67873-0951-46e7-8b88-9e8c18fea2fd","ios":"levelo://app?vid=6cf67873-0951-46e7-8b88-9e8c18fea2fd"},"vehicle_type_id":"4","last_reported":1779416820,"current_range_meters":8400,"station_id":"ce4bhe12rcd13ifvqf30","pricing_plan_id":"cebpf4jnsgd1na2vs0mg"},{"bike_id":"d6ef5181-9c65-4b14-a132-bd2560a893a3","system_id":"levelo_inurba_marseille","lat":43.25822,"lon":5.39421,"is_reserved":false,"is_disabled":false,"rental_uris":{"android":"levelo://app?vid=d6ef5181-9c65-4b14-a132-bd2560a893a3","ios":"levelo://app?vid=d6ef5181-9c65-4b14-a132-bd2560a893a3"},"vehicle_type_id":"4","last_reported":1779416820,"current_range_meters":8400,"station_id":"ce4bhip2rcd13ifvqft0","pricing_plan_id":"cebpf4jnsgd1na2vs0mg"},{"bike_id":"128f0fb9-73fa-4b0c-ad29-5b3388c17195","system_id":"levelo_inurba_marseille","lat":43.28055,"lon":5.38373,"is_reserved":false,"is_disabled":false,"rental_uris":{"android":"levelo://app?vid=128f0fb9-73fa-4b0c-ad29-5b3388c17195","ios":"levelo://app?vid=128f0fb9-73fa-4b0c-ad29-5b3388c17195"},"vehicle_type_id":"4","last_reported":1779416820,"current_range_meters":8400,"station_id":"","pricing_plan_id":"cebpf4jnsgd1na2vs0mg"},{"bike_id":"d523bcad-98ea-47e7-a65b-05f23aafd12a","system_id":"levelo_inurba_marseille","lat":43.29805,"lon":5.38013,"is_reserved":false,"is_disabled":false,"rental_uris":{"android":"levelo://app?vid=d523bcad-98ea-47e7-a65b-05f23aafd12a","ios":"levelo://app?vid=d523bcad-98ea-47e7-a65b-05f23aafd12a"},"vehicle_type_id":"4","last_reported":1779416820,"current_range_meters":8400,"station_id":"","pricing_plan_id":"cebpf4jnsgd1na2vs0mg"},{"bike_id":"2d09449d-df92-4d3e-9412-ea34f0e8afc0","system_id":"levelo_inurba_marseille","lat":43.29654,"lon":5.38518,"is_reserved":false,"is_disabled":false,"rental_uris":{"android":"levelo://app?vid=2d09449d-df92-4d3e-9412-ea34f0e8afc0","ios":"levelo://app?vid=2d09449d-df92-4d3e-9412-ea34f0e8afc0"},"vehicle_type_id":"4","last_reported":1779416820,"current_range_meters":8400,"station_id":"","pricing_plan_id":"cebpf4jnsgd1na2vs0mg"},{"bike_id":"24d1a1a4-4df1-4271-bcdc-7fab123a5f83","system_id":"levelo_inurba_marseille","lat":43.30263,"lon":5.40069,"is_reserved":false,"is_disabled":false,"rental_uris":{"android":"levelo://app?vid=24d1a1a4-4df1-4271-bcdc-7fab123a5f83","ios":"levelo://app?vid=24d1a1a4-4df1-4271-bcdc-7fab123a5f83"},"vehicle_type_id":"4","last_reported":1779416820,"current_range_meters":8400,"station_id":"ce4bgvh2rcd13ifvqcs0","pricing_plan_id":"cebpf4jnsgd1na2vs0mg"},{"bike_id":"77336132-b8e8-4643-a264-4899e1fddc59","system_id":"levelo_inurba_marseille","lat":43.3065,"lon":5.40103,"is_reserved":false,"is_disabled":true,"rental_uris":{"android":"levelo://app?vid=77336132-b8e8-4643-a264-4899e1fddc59","ios":"levelo://app?vid=77336132-b8e8-4643-a264-4899e1fddc59"},"vehicle_type_id":"4","last_reported":1779416820,"current_range_meters":8400,"station_id":"ce4bh112rcd13ifvqda0","pricing_plan_id":"cebpf4jnsgd1na2vs0mg"},{"bike_id":"b9b84d59-7f7c-47a0-b2b8-055f7224abba","system_id":"levelo_inurba_marseille","lat":43.26934,"lon":5.38638,"is_reserved":false,"is_disabled":false,"rental_uris":{"android":"levelo://app?vid=b9b84d59-7f7c-47a0-b2b8-055f7224abba","ios":"levelo://app?vid=b9b84d59-7f7c-47a0-b2b8-055f7224abba"},"vehicle_type_id":"4","last_reported":1779416820,"current_range_meters":8400,"station_id":"ce4bhh92rcd13ifvqfh0","pricing_plan_id":"cebpf4jnsgd1na2vs0mg"},{"bike_id":"3200b978-002a-4bf0-9ea7-51cc9e75e711","system_id":"levelo_inurba_marseille","lat":43.27178,"lon":5.40988,"is_reserved":false,"is_disabled":false,"rental_uris":{"android":"levelo://app?vid=3200b978-002a-4bf0-9ea7-51cc9e75e711","ios":"levelo://app?vid=3200b978-002a-4bf0-9ea7-51cc9e75e711"},"vehicle_type_id":"4","last_reported":1779416820,"current_range_meters":8400,"station_id":"ce4bhl12rcd13ifvqgf0","pricing_plan_id":"cebpf4jnsgd1na2vs0mg"},{"bike_id":"6a572d56-f8a9-43f3-aab7-62e7edcd2b70","system_id":"levelo_inurba_marseille","lat":43.24802,"lon":5.37457,"is_reserved":false,"is_disabled":false,"rental_uris":{"android":"levelo://app?vid=6a572d56-f8a9-43f3-aab7-62e7edcd2b70","ios":"levelo://app?vid=6a572d56-f8a9-43f3-aab7-62e7edcd2b70"},"vehicle_type_id":"4","last_reported":1779416820,"current_range_meters":8400,"station_id":"ce4bhgh2rcd13ifvqfb0","pricing_plan_id":"cebpf4jnsgd1na2vs0mg"},{"bike_id":"8b5d71cc-3c04-4a85-809e-37946cf3deae","system_id":"levelo_inurba_marseille","lat":43.28203,"lon":5.39068,"is_reserved":false,"is_disabled":false,"rental_uris":{"android":"levelo://app?vid=8b5d71cc-3c04-4a85-809e-37946cf3deae","ios":"levelo://app?vid=8b5d71cc-3c04-4a85-809e-37946cf3deae"},"vehicle_type_id":"4","last_reported":1779416820,"current_range_meters":8400,"station_id":"ce4bhn92rcd13ifvqgsg","pricing_plan_id":"cebpf4jnsgd1na2vs0mg"},{"bike_id":"55ff971c-f753-4ef7-83e4-054f84d32949","system_id":"levelo_inurba_marseille","lat":43.29942,"lon":5.36644,"is_reserved":false,"is_disabled":true,"rental_uris":{"android":"levelo://app?vid=55ff971c-f753-4ef7-83e4-054f84d32949","ios":"levelo://app?vid=55ff971c-f753-4ef7-83e4-054f84d32949"},"vehicle_type_id":"4","last_reported":1779416820,"current_range_meters":8400,"station_id":"","pricing_plan_id":"cebpf4jnsgd1na2vs0mg"},{"bike_id":"4c73ac5b-f848-44b9-9488-246344552796","system_id":"levelo_inurba_marseille","lat":43.28537,"lon":5.44101,"is_reserved":false,"is_disabled":false,"rental_uris":{"android":"levelo://app?vid=4c73ac5b-f848-44b9-9488-246344552796","ios":"levelo://app?vid=4c73ac5b-f848-44b9-9488-246344552796"},"vehicle_type_id":"4","last_reported":1779416820,"current_range_meters":8400,"station_id":"st_d3j3df2ikq2c7380ej80","pricing_plan_id":"cebpf4jnsgd1na2vs0mg"},{"bike_id":"9a53f5be-06fd-4669-898a-e5c4dd6d6114","system_id":"levelo_inurba_marseille","lat":43.31886,"lon":5.40731,"is_reserved":false,"is_disabled":false,"rental_uris":{"android":"levelo://app?vid=9a53f5be-06fd-4669-898a-e5c4dd6d6114","ios":"levelo://app?vid=9a53f5be-06fd-4669-898a-e5c4dd6d6114"},"vehicle_type_id":"4","last_reported":1779416820,"current_range_meters":8400,"station_id":"ce4bhq12rcd13ifvqhig","pricing_plan_id":"cebpf4jnsgd1na2vs0mg"},{"bike_id":"11233bb7-275d-4756-a959-2e66680ae699","system_id":"levelo_inurba_marseille","lat":43.3078,"lon":5.37651,"is_reserved":false,"is_disabled":false,"rental_uris":{"android":"levelo://app?vid=11233bb7-275d-4756-a959-2e66680ae699","ios":"levelo://app?vid=11233bb7-275d-4756-a959-2e66680ae699"},"vehicle_type_id":"4","last_reported":1779416820,"current_range_meters":8400,"station_id":"ce4bgv92rcd13ifvqcq0","pricing_plan_id":"cebpf4jnsgd1na2vs0mg"},{"bike_id":"2204bbea-e863-4274-90dc-718e6a872632","system_id":"levelo_inurba_marseille","lat":43.30446,"lon":5.38887,"is_reserved":false,"is_disabled":false,"rental_uris":{"android":"levelo://app?vid=2204bbea-e863-4274-90dc-718e6a872632","ios":"levelo://app?vid=2204bbea-e863-4274-90dc-718e6a872632"},"vehicle_type_id":"4","last_reported":1779416820,"current_range_meters":8400,"station_id":"ce4bgk12rcd13ifvqbi0","pricing_plan_id":"cebpf4jnsgd1na2vs0mg"},{"bike_id":"7b3c220a-56f0-47a2-a5fb-d6f788248236","system_id":"levelo_inurba_marseille","lat":43.31325,"lon":5.39703,"is_reserved":false,"is_disabled":false,"rental_uris":{"android":"levelo://app?vid=7b3c220a-56f0-47a2-a5fb-d6f788248236","ios":"levelo://app?vid=7b3c220a-56f0-47a2-a5fb-d6f788248236"},"vehicle_type_id":"4","last_reported":1779416820,"current_range_meters":8400,"station_id":"ce4bgvp2rcd13ifvqcu0","pricing_plan_id":"cebpf4jnsgd1na2vs0mg"},{"bike_id":"311a32a2-9584-4040-a54a-5150e9ba9d1f","system_id":"levelo_inurba_marseille","lat":43.287,"lon":5.46681,"is_reserved":false,"is_disabled":false,"rental_uris":{"android":"levelo://app?vid=311a32a2-9584-4040-a54a-5150e9ba9d1f","ios":"levelo://app?vid=311a32a2-9584-4040-a54a-5150e9ba9d1f"},"vehicle_type_id":"4","last_reported":1779416820,"current_range_meters":8400,"station_id":"st_d6tc3vkotcvc738tfjhg","pricing_plan_id":"cebpf4jnsgd1na2vs0mg"},{"bike_id":"ad0ce0a0-b313-407e-b7d9-63b7147a0c85","system_id":"levelo_inurba_marseille","lat":43.24468,"lon":5.42536,"is_reserved":false,"is_disabled":false,"rental_uris":{"android":"levelo://app?vid=ad0ce0a0-b313-407e-b7d9-63b7147a0c85","ios":"levelo://app?vid=ad0ce0a0-b313-407e-b7d9-63b7147a0c85"},"vehicle_type_id":"4","last_reported":1779416820,"current_range_meters":8400,"station_id":"st_d4a3vfp97mjs738cd8kg","pricing_plan_id":"cebpf4jnsgd1na2vs0mg"},{"bike_id":"93875b58-f608-40f1-912d-8451b03b102b","system_id":"levelo_inurba_marseille","lat":43.28715,"lon":5.36103,"is_reserved":false,"is_disabled":false,"rental_uris":{"android":"levelo://app?vid=93875b58-f608-40f1-912d-8451b03b102b","ios":"levelo://app?vid=93875b58-f608-40f1-912d-8451b03b102b"},"vehicle_type_id":"4","last_reported":1779416820,"current_range_meters":8400,"station_id":"cki0cbj6b192h4jlfktg","pricing_plan_id":"cebpf4jnsgd1na2vs0mg"},{"bike_id":"c8bea22e-a649-40e5-9543-460963528133","system_id":"levelo_inurba_marseille","lat":43.28732,"lon":5.37945,"is_reserved":false,"is_disabled":false,"rental_uris":{"android":"levelo://app?vid=c8bea22e-a649-40e5-9543-460963528133","ios":"levelo://app?vid=c8bea22e-a649-40e5-9543-460963528133"},"vehicle_type_id":"4","last_reported":1779416820,"current_range_meters":8400,"station_id":"ce4bh9p2rcd13ifvqec0","pricing_plan_id":"cebpf4jnsgd1na2vs0mg"},{"bike_id":"125c4d5b-9f0c-4f70-b053-7773cea0e270","system_id":"levelo_inurba_marseille","lat":43.2813,"lon":5.43784,"is_reserved":false,"is_disabled":false,"rental_uris":{"android":"levelo://app?vid=125c4d5b-9f0c-4f70-b053-7773cea0e270","ios":"levelo://app?vid=125c4d5b-9f0c-4f70-b053-7773cea0e270"},"vehicle_type_id":"4","last_reported":1779416820,"current_range_meters":8400,"station_id":"","pricing_plan_id":"cebpf4jnsgd1na2vs0mg"},{"bike_id":"eb674502-a68e-4cc8-ae7a-4c5b7fd5cd17","system_id":"levelo_inurba_marseille","lat":43.26569,"lon":5.40325,"is_reserved":false,"is_disabled":false,"rental_uris":{"android":"levelo://app?vid=eb674502-a68e-4cc8-ae7a-4c5b7fd5cd17","ios":"levelo://app?vid=eb674502-a68e-4cc8-ae7a-4c5b7fd5cd17"},"vehicle_type_id":"4","last_reported":1779416820,"current_range_meters":8400,"station_id":"ce4bhmp2rcd13ifvqgng","pricing_plan_id":"cebpf4jnsgd1na2vs0mg"},{"bike_id":"e53b0bce-f873-42a6-9224-cd186fe4568e","system_id":"levelo_inurba_marseille","lat":43.30744,"lon":5.3926,"is_reserved":false,"is_disabled":false,"rental_uris":{"android":"levelo://app?vid=e53b0bce-f873-42a6-9224-cd186fe4568e","ios":"levelo://app?vid=e53b0bce-f873-42a6-9224-cd186fe4568e"},"vehicle_type_id":"4","last_reported":1779416820,"current_range_meters":8400,"station_id":"","pricing_plan_id":"cebpf4jnsgd1na2vs0mg"},{"bike_id":"5df77e36-21e5-4643-b405-f160908d1200","system_id":"levelo_inurba_marseille","lat":43.24795,"lon":5.37451,"is_reserved":false,"is_disabled":false,"rental_uris":{"android":"levelo://app?vid=5df77e36-21e5-4643-b405-f160908d1200","ios":"levelo://app?vid=5df77e36-21e5-4643-b405-f160908d1200"},"vehicle_type_id":"4","last_reported":1779416820,"current_range_meters":8400,"station_id":"ce4bhgh2rcd13ifvqfb0","pricing_plan_id":"cebpf4jnsgd1na2vs0mg"},{"bike_id":"16dc5364-6d84-4f48-a006-d86e3dc5bbf0","system_id":"levelo_inurba_marseille","lat":43.2866,"lon":5.40517,"is_reserved":false,"is_disabled":false,"rental_uris":{"android":"levelo://app?vid=16dc5364-6d84-4f48-a006-d86e3dc5bbf0","ios":"levelo://app?vid=16dc5364-6d84-4f48-a006-d86e3dc5bbf0"},"vehicle_type_id":"4","last_reported":1779416820,"current_range_meters":8400,"station_id":"","pricing_plan_id":"cebpf4jnsgd1na2vs0mg"},{"bike_id":"b80a594b-f237-4b95-9be1-2fe1570d6dc3","system_id":"levelo_inurba_marseille","lat":43.28455,"lon":5.35894,"is_reserved":false,"is_disabled":true,"rental_uris":{"android":"levelo://app?vid=b80a594b-f237-4b95-9be1-2fe1570d6dc3","ios":"levelo://app?vid=b80a594b-f237-4b95-9be1-2fe1570d6dc3"},"vehicle_type_id":"4","last_reported":1779416820,"current_range_meters":8400,"station_id":"ce4bhah2rcd13ifvqei0","pricing_plan_id":"cebpf4jnsgd1na2vs0mg"},{"bike_id":"76b3809c-59f4-492a-8909-f07813ca6065","system_id":"levelo_inurba_marseille","lat":43.28831,"lon":5.35857,"is_reserved":false,"is_disabled":false,"rental_uris":{"android":"levelo://app?vid=76b3809c-59f4-492a-8909-f07813ca6065","ios":"levelo://app?vid=76b3809c-59f4-492a-8909-f07813ca6065"},"vehicle_type_id":"4","last_reported":1779416820,"current_range_meters":8400,"station_id":"ce4bhb12rcd13ifvqem0","pricing_plan_id":"cebpf4jnsgd1na2vs0mg"},{"bike_id":"45d9a2c7-491b-4180-952d-564d360b1653","system_id":"levelo_inurba_marseille","lat":43.28685,"lon":5.37369,"is_reserved":false,"is_disabled":false,"rental_uris":{"android":"levelo://app?vid=45d9a2c7-491b-4180-952d-564d360b1653","ios":"levelo://app?vid=45d9a2c7-491b-4180-952d-564d360b1653"},"vehicle_type_id":"4","last_reported":1779416820,"current_range_meters":8400,"station_id":"ce4bh3p2rcd13ifvqdq0","pricing_plan_id":"cebpf4jnsgd1na2vs0mg"},{"bike_id":"f98a12e9-1e5a-4954-93c5-cc56485bbec1","system_id":"levelo_inurba_marseille","lat":43.30937,"lon":5.40163,"is_reserved":false,"is_disabled":false,"rental_uris":{"android":"levelo://app?vid=f98a12e9-1e5a-4954-93c5-cc56485bbec1","ios":"levelo://app?vid=f98a12e9-1e5a-4954-93c5-cc56485bbec1"},"vehicle_type_id":"4","last_reported":1779416820,"current_range_meters":8400,"station_id":"ce4bgvp2rcd13ifvqct0","pricing_plan_id":"cebpf4jnsgd1na2vs0mg"},{"bike_id":"4caf3e14-e76f-419a-8078-baf23b01c198","system_id":"levelo_inurba_marseille","lat":43.31334,"lon":5.39703,"is_reserved":false,"is_disabled":true,"rental_uris":{"android":"levelo://app?vid=4caf3e14-e76f-419a-8078-baf23b01c198","ios":"levelo://app?vid=4caf3e14-e76f-419a-8078-baf23b01c198"},"vehicle_type_id":"4","last_reported":1779416820,"current_range_meters":8400,"station_id":"ce4bgvp2rcd13ifvqcu0","pricing_plan_id":"cebpf4jnsgd1na2vs0mg"},{"bike_id":"ca5b8b13-5373-4377-b925-1d87c55b34ee","system_id":"levelo_inurba_marseille","lat":43.27387,"lon":5.36256,"is_reserved":false,"is_disabled":true,"rental_uris":{"android":"levelo://app?vid=ca5b8b13-5373-4377-b925-1d87c55b34ee","ios":"levelo://app?vid=ca5b8b13-5373-4377-b925-1d87c55b34ee"},"vehicle_type_id":"4","last_reported":1779416820,"current_range_meters":8800,"station_id":"ce4bhbh2rcd13ifvqeo0","pricing_plan_id":"cebpf4jnsgd1na2vs0mg"},{"bike_id":"b64e9c0d-4003-4ce3-9a77-7ea68878e4b9","system_id":"levelo_inurba_marseille","lat":43.28077,"lon":5.39851,"is_reserved":false,"is_disabled":false,"rental_uris":{"android":"levelo://app?vid=b64e9c0d-4003-4ce3-9a77-7ea68878e4b9","ios":"levelo://app?vid=b64e9c0d-4003-4ce3-9a77-7ea68878e4b9"},"vehicle_type_id":"4","last_reported":1779416820,"current_range_meters":8800,"station_id":"","pricing_plan_id":"cebpf4jnsgd1na2vs0mg"},{"bike_id":"506e89a0-e490-4679-8f8d-053807cd4564","system_id":"levelo_inurba_marseille","lat":43.28493,"lon":5.40172,"is_reserved":false,"is_disabled":false,"rental_uris":{"android":"levelo://app?vid=506e89a0-e490-4679-8f8d-053807cd4564","ios":"levelo://app?vid=506e89a0-e490-4679-8f8d-053807cd4564"},"vehicle_type_id":"4","last_reported":1779416820,"current_range_meters":8800,"station_id":"","pricing_plan_id":"cebpf4jnsgd1na2vs0mg"},{"bike_id":"9fe014d0-384f-464b-a8eb-6d1a0b5d9ec1","system_id":"levelo_inurba_marseille","lat":43.30774,"lon":5.37654,"is_reserved":false,"is_disabled":false,"rental_uris":{"android":"levelo://app?vid=9fe014d0-384f-464b-a8eb-6d1a0b5d9ec1","ios":"levelo://app?vid=9fe014d0-384f-464b-a8eb-6d1a0b5d9ec1"},"vehicle_type_id":"4","last_reported":1779416820,"current_range_meters":8800,"station_id":"ce4bgv92rcd13ifvqcq0","pricing_plan_id":"cebpf4jnsgd1na2vs0mg"},{"bike_id":"fb7fb934-f94b-4436-95ec-72beeebad7b1","system_id":"levelo_inurba_marseille","lat":43.29252,"lon":5.40914,"is_reserved":false,"is_disabled":false,"rental_uris":{"android":"levelo://app?vid=fb7fb934-f94b-4436-95ec-72beeebad7b1","ios":"levelo://app?vid=fb7fb934-f94b-4436-95ec-72beeebad7b1"},"vehicle_type_id":"4","last_reported":1779416820,"current_range_meters":8800,"station_id":"ce4bh192rcd13ifvqdc0","pricing_plan_id":"cebpf4jnsgd1na2vs0mg"},{"bike_id":"f4b93e8a-6c21-4a3f-a9cd-234d98fa1d6a","system_id":"levelo_inurba_marseille","lat":43.24462,"lon":5.39961,"is_reserved":false,"is_disabled":false,"rental_uris":{"android":"levelo://app?vid=f4b93e8a-6c21-4a3f-a9cd-234d98fa1d6a","ios":"levelo://app?vid=f4b93e8a-6c21-4a3f-a9cd-234d98fa1d6a"},"vehicle_type_id":"4","last_reported":1779416820,"current_range_meters":8800,"station_id":"","pricing_plan_id":"cebpf4jnsgd1na2vs0mg"},{"bike_id":"fa4fbea3-00c7-4c52-b9ee-0a2a60c97ef7","system_id":"levelo_inurba_marseille","lat":43.24942,"lon":5.4052,"is_reserved":false,"is_disabled":false,"rental_uris":{"android":"levelo://app?vid=fa4fbea3-00c7-4c52-b9ee-0a2a60c97ef7","ios":"levelo://app?vid=fa4fbea3-00c7-4c52-b9ee-0a2a60c97ef7"},"vehicle_type_id":"4","last_reported":1779416820,"current_range_meters":8800,"station_id":"st_d2ngiaodas8pm72gd1h0","pricing_plan_id":"cebpf4jnsgd1na2vs0mg"},{"bike_id":"691d522d-8565-4a91-bffc-e987d9a10e4a","system_id":"levelo_inurba_marseille","lat":43.25839,"lon":5.39411,"is_reserved":false,"is_disabled":true,"rental_uris":{"android":"levelo://app?vid=691d522d-8565-4a91-bffc-e987d9a10e4a","ios":"levelo://app?vid=691d522d-8565-4a91-bffc-e987d9a10e4a"},"vehicle_type_id":"4","last_reported":1779416820,"current_range_meters":8800,"station_id":"ce4bhip2rcd13ifvqft0","pricing_plan_id":"cebpf4jnsgd1na2vs0mg"},