{"last_updated":1729876105,"ttl":60,"version":"2.2","data":{"bikes":[{"bike_id":"058d3d92-4d52-4d31-9584-ba7892cd59d1","system_id":"levelo_inurba_marseille","lat":43.30144,"lon":5.37422,"is_reserved":false,"is_disabled":false,"rental_uris":{"android":"levelo://app?vid=058d3d92-4d52-4d31-9584-ba7892cd59d1","ios":"levelo://app?vid=058d3d92-4d52-4d31-9584-ba7892cd59d1"},"vehicle_type_id":"4","last_reported":1729876105,"current_range_meters":38800,"station_id":"ce4bgs92rcd13ifvqcc0","pricing_plan_id":"cebpf4jnsgd1na2vs0mg"},{"bike_id":"8b48d226-6f6f-40ca-ad31-65e3ee5de44d","system_id":"levelo_inurba_marseille","lat":43.30954,"lon":5.39036,"is_reserved":false,"is_disabled":false,"rental_uris":{"android":"levelo://app?vid=8b48d226-6f6f-40ca-ad31-65e3ee5de44d","ios":"levelo://app?vid=8b48d226-6f6f-40ca-ad31-65e3ee5de44d"},"vehicle_type_id":"4","last_reported":1729876105,"current_range_meters":38800,"station_id":"ce4bgup2rcd13ifvqco0","pricing_plan_id":"cebpf4jnsgd1na2vs0mg"},{"bike_id":"7dea3e7e-d097-49d0-a088-22b8f2f11a9f","system_id":"levelo_inurba_marseille","lat":43.29081,"lon":5.38147,"is_reserved":false,"is_disabled":false,"rental_uris":{"android":"levelo://app?vid=7dea3e7e-d097-49d0-a088-22b8f2f11a9f","ios":"levelo://app?vid=7dea3e7e-d097-49d0-a088-22b8f2f11a9f"},"vehicle_type_id":"4","last_reported":1729876105,"current_range_meters":30800,"station_id":"ce4bh512rcd13ifvqe2g","pricing_plan_id":"cebpf4jnsgd1na2vs0mg"},{"bike_id":"d2d822e6-ec68-4e1b-baa5-111771c24761","system_id":"levelo_inurba_marseille","lat":43.29897,"lon":5.43674,"is_reserved":false,"is_disabled":false,"rental_uris":{"android":"levelo://app?vid=d2d822e6-ec68-4e1b-baa5-111771c24761","ios":"levelo://app?vid=d2d822e6-ec68-4e1b-baa5-111771c24761"},"vehicle_type_id":"4","last_reported":1729876105,"current_range_meters":14400,"station_id":"ce4bhpp2rcd13ifvqhfg","pricing_plan_id":"cebpf4jnsgd1na2vs0mg"},{"bike_id":"6738634e-a5d0-4a98-bcd3-d7ebc0bc6255","system_id":"levelo_inurba_marseille","lat":43.29973,"lon":5.37184,"is_reserved":false,"is_disabled":false,"rental_uris":{"android":"levelo://app?vid=6738634e-a5d0-4a98-bcd3-d7ebc0bc6255","ios":"levelo://app?vid=6738634e-a5d0-4a98-bcd3-d7ebc0bc6255"},"vehicle_type_id":"4","last_reported":1729876105,"current_range_meters":38800,"station_id":"ce4bgr92rcd13ifvqc7g","pricing_plan_id":"cebpf4jnsgd1na2vs0mg"},{"bike_id":"04df14ff-97d4-4ebe-b538-2e47742b3287","system_id":"levelo_inurba_marseille","lat":43.28454,"lon":5.35895,"is_reserved":false,"is_disabled":false,"rental_uris":{"android":"levelo://app?vid=04df14ff-97d4-4ebe-b538-2e47742b3287","ios":"levelo://app?vid=04df14ff-97d4-4ebe-b538-2e47742b3287"},"vehicle_type_id":"4","last_reported":1729876105,"current_range_meters":14400,"station_id":"ce4bhah2rcd13ifvqei0","pricing_plan_id":"cebpf4jnsgd1na2vs0mg"},{"bike_id":"b4c3527d-7f22-48eb-a8c5-237c2b6486f1","system_id":"levelo_inurba_marseille","lat":43.31161,"lon":5.38726,"is_reserved":false,"is_disabled":false,"rental_uris":{"android":"levelo://app?vid=b4c3527d-7f22-48eb-a8c5-237c2b6486f1","ios":"levelo://app?vid=b4c3527d-7f22-48eb-a8c5-237c2b6486f1"},"vehicle_type_id":"4","last_reported":1729876105,"current_range_meters":38400,"station_id":"ce4bgv12rcd13ifvqcp0","pricing_plan_id":"cebpf4jnsgd1na2vs0mg"},{"bike_id":"2818ef3d-c10c-4252-882d-b244205aa826","system_id":"levelo_inurba_marseille","lat":43.29418,"lon":5.38628,"is_reserved":false,"is_disabled":false,"rental_uris":{"android":"levelo://app?vid=2818ef3d-c10c-4252-882d-b244205aa826","ios":"levelo://app?vid=2818ef3d-c10c-4252-882d-b244205aa826"},"vehicle_type_id":"4","last_reported":1729876105,"current_range_meters":3600,"station_id":"ce4bh2h2rcd13ifvqdh0","pricing_plan_id":"cebpf4jnsgd1na2vs0mg"},{"bike_id":"1542f6de-3dd1-481c-99dc-f28588a5d22a","system_id":"levelo_inurba_marseille","lat":43.31326,"lon":5.39701,"is_reserved":false,"is_disabled":false,"rental_uris":{"android":"levelo://app?vid=1542f6de-3dd1-481c-99dc-f28588a5d22a","ios":"levelo://app?vid=1542f6de-3dd1-481c-99dc-f28588a5d22a"},"vehicle_type_id":"4","last_reported":1729876105,"current_range_meters":16000,"station_id":"ce4bgvp2rcd13ifvqcu0","pricing_plan_id":"cebpf4jnsgd1na2vs0mg"},{"bike_id":"865124a8-5cf8-4f1f-ba5e-7dd42a2c84cc","system_id":"levelo_inurba_marseille","lat":43.28259,"lon":5.35063,"is_reserved":false,"is_disabled":false,"rental_uris":{"android":"levelo://app?vid=865124a8-5cf8-4f1f-ba5e-7dd42a2c84cc","ios":"levelo://app?vid=865124a8-5cf8-4f1f-ba5e-7dd42a2c84cc"},"vehicle_type_id":"4","last_reported":1729876105,"current_range_meters":18000,"station_id":"ce4bhbp2rcd13ifvqerg","pricing_plan_id":"cebpf4jnsgd1na2vs0mg"},{"bike_id":"831fd3a6-681b-4e25-80bf-7933262aaed7","system_id":"levelo_inurba_marseille","lat":43.30421,"lon":5.39743,"is_reserved":false,"is_disabled":false,"rental_uris":{"android":"levelo://app?vid=831fd3a6-681b-4e25-80bf-7933262aaed7","ios":"levelo://app?vid=831fd3a6-681b-4e25-80bf-7933262aaed7"},"vehicle_type_id":"4","last_reported":1729876105,"current_range_meters":36000,"station_id":"ce4bh092rcd13ifvqd20","pricing_plan_id":"cebpf4jnsgd1na2vs0mg"},{"bike_id":"597b4cd3-44c0-4eb6-9cbc-9de52255ea2a","system_id":"levelo_inurba_marseille","lat":43.31702,"lon":5.37747,"is_reserved":false,"is_disabled":false,"rental_uris":{"android":"levelo://app?vid=597b4cd3-44c0-4eb6-9cbc-9de52255ea2a","ios":"levelo://app?vid=597b4cd3-44c0-4eb6-9cbc-9de52255ea2a"},"vehicle_type_id":"4","last_reported":1729876105,"current_range_meters":38800,"station_id":"ce4bgth2rcd13ifvqch0","pricing_plan_id":"cebpf4jnsgd1na2vs0mg"},{"bike_id":"a69925f5-f019-426c-87f5-a7e7e2d934bf","system_id":"levelo_inurba_marseille","lat":43.24647,"lon":5.38904,"is_reserved":false,"is_disabled":false,"rental_uris":{"android":"levelo://app?vid=a69925f5-f019-426c-87f5-a7e7e2d934bf","ios":"levelo://app?vid=a69925f5-f019-426c-87f5-a7e7e2d934bf"},"vehicle_type_id":"4","last_reported":1729876105,"current_range_meters":31200,"station_id":"ce4bhg12rcd13ifvqf60","pricing_plan_id":"cebpf4jnsgd1na2vs0mg"},{"bike_id":"c4b8dd00-6920-4fe3-84cb-cda27da2cbbe","system_id":"levelo_inurba_marseille","lat":43.29497,"lon":5.3905,"is_reserved":false,"is_disabled":false,"rental_uris":{"android":"levelo://app?vid=c4b8dd00-6920-4fe3-84cb-cda27da2cbbe","ios":"levelo://app?vid=c4b8dd00-6920-4fe3-84cb-cda27da2cbbe"},"vehicle_type_id":"4","last_reported":1729876105,"current_range_meters":26800,"station_id":"ce4bh3p2rcd13ifvqdp0","pricing_plan_id":"cebpf4jnsgd1na2vs0mg"},{"bike_id":"b3126cfb-a2ff-449b-a809-11fbce7a526f","system_id":"levelo_inurba_marseille","lat":43.30129,"lon":5.39854,"is_reserved":false,"is_disabled":false,"rental_uris":{"android":"levelo://app?vid=b3126cfb-a2ff-449b-a809-11fbce7a526f","ios":"levelo://app?vid=b3126cfb-a2ff-449b-a809-11fbce7a526f"},"vehicle_type_id":"4","last_reported":1729876105,"current_range_meters":36000,"station_id":"ce4bh0h2rcd13ifvqd40","pricing_plan_id":"cebpf4jnsgd1na2vs0mg"},{"bike_id":"cbc5287e-dce8-418e-bac7-864a68889123","system_id":"levelo_inurba_marseille","lat":43.28406,"lon":5.34981,"is_reserved":false,"is_disabled":false,"rental_uris":{"android":"levelo://app?vid=cbc5287e-dce8-418e-bac7-864a68889123","ios":"levelo://app?vid=cbc5287e-dce8-418e-bac7-864a68889123"},"vehicle_type_id":"4","last_reported":1729876105,"current_range_meters":12800,"station_id":"ce4bhbh2rcd13ifvqepg","pricing_plan_id":"cebpf4jnsgd1na2vs0mg"},{"bike_id":"d3ad0654-8b42-424b-9819-4bfe010ac5af","system_id":"levelo_inurba_marseille","lat":43.24548,"lon":5.39528,"is_reserved":false,"is_disabled":false,"rental_uris":{"android":"levelo://app?vid=d3ad0654-8b42-424b-9819-4bfe010ac5af","ios":"levelo://app?vid=d3ad0654-8b42-424b-9819-4bfe010ac5af"},"vehicle_type_id":"4","last_reported":1729876105,"current_range_meters":38000,"station_id":"ce4bhlp2rcd13ifvqgjg","pricing_plan_id":"cebpf4jnsgd1na2vs0mg"},{"bike_id":"66731e45-439d-4849-b312-3fecd8f11e42","system_id":"levelo_inurba_marseille","lat":43.29306,"lon":5.37179,"is_reserved":false,"is_disabled":false,"rental_uris":{"android":"levelo://app?vid=66731e45-439d-4849-b312-3fecd8f11e42","ios":"levelo://app?vid=66731e45-439d-4849-b312-3fecd8f11e42"},"vehicle_type_id":"4","last_reported":1729876105,"current_range_meters":6800,"station_id":"ce4bgh92rcd13ifvqb40","pricing_plan_id":"cebpf4jnsgd1na2vs0mg"},{"bike_id":"0b0ec5ff-e39e-4868-a579-774f2fd92e2e","system_id":"levelo_inurba_marseille","lat":43.28271,"lon":5.35075,"is_reserved":false,"is_disabled":false,"rental_uris":{"android":"levelo://app?vid=0b0ec5ff-e39e-4868-a579-774f2fd92e2e","ios":"levelo://app?vid=0b0ec5ff-e39e-4868-a579-774f2fd92e2e"},"vehicle_type_id":"4","last_reported":1729876105,"current_range_meters":22000,"station_id":"ce4bhbp2rcd13ifvqerg","pricing_plan_id":"cebpf4jnsgd1na2vs0mg"},{"bike_id":"364cd6a0-b0fb-4284-8571-1df4d16a9916","system_id":"levelo_inurba_marseille","lat":43.32474,"lon":5.3658,"is_reserved":false,"is_disabled":false,"rental_uris":{"android":"levelo://app?vid=364cd6a0-b0fb-4284-8571-1df4d16a9916","ios":"levelo://app?vid=364cd6a0-b0fb-4284-8571-1df4d16a9916"},"vehicle_type_id":"4","last_reported":1729876105,"current_range_meters":20000,"station_id":"ce4bhs12rcd13ifvqhvg","pricing_plan_id":"cebpf4jnsgd1na2vs0mg"},{"bike_id":"cf2f8d26-a980-4899-ad67-56692c47e7ee","system_id":"levelo_inurba_marseille","lat":43.28154,"lon":5.42638,"is_reserved":false,"is_disabled":false,"rental_uris":{"android":"levelo://app?vid=cf2f8d26-a980-4899-ad67-56692c47e7ee","ios":"levelo://app?vid=cf2f8d26-a980-4899-ad67-56692c47e7ee"},"vehicle_type_id":"4","last_reported":1729876105,"current_range_meters":25600,"station_id":"ce4bhnh2rcd13ifvqgug","pricing_plan_id":"cebpf4jnsgd1na2vs0mg"},{"bike_id":"70f084da-c739-4d60-b4c7-0456a378dc7f","system_id":"levelo_inurba_marseille","lat":43.2917,"lon":5.37162,"is_reserved":false,"is_disabled":false,"rental_uris":{"android":"levelo://app?vid=70f084da-c739-4d60-b4c7-0456a378dc7f","ios":"levelo://app?vid=70f084da-c739-4d60-b4c7-0456a378dc7f"},"vehicle_type_id":"4","last_reported":1729876105,"current_range_meters":11200,"station_id":"ce4bha92rcd13ifvqeh0","pricing_plan_id":"cebpf4jnsgd1na2vs0mg"},{"bike_id":"7ec442a2-9e29-41db-9e6a-7b8ed8cd08d4","system_id":"levelo_inurba_marseille","lat":43.30325,"lon":5.40442,"is_reserved":false,"is_disabled":false,"rental_uris":{"android":"levelo://app?vid=7ec442a2-9e29-41db-9e6a-7b8ed8cd08d4","ios":"levelo://app?vid=7ec442a2-9e29-41db-9e6a-7b8ed8cd08d4"},"vehicle_type_id":"4","last_reported":1729876105,"current_range_meters":24400,"station_id":"ce4bh012rcd13ifvqd10","pricing_plan_id":"cebpf4jnsgd1na2vs0mg"},{"bike_id":"3b9afd7c-f306-4ffe-979c-f1c8f1b08b1b","system_id":"levelo_inurba_marseille","lat":43.2558,"lon":5.38239,"is_reserved":false,"is_disabled":false,"rental_uris":{"android":"levelo://app?vid=3b9afd7c-f306-4ffe-979c-f1c8f1b08b1b","ios":"levelo://app?vid=3b9afd7c-f306-4ffe-979c-f1c8f1b08b1b"},"vehicle_type_id":"4","last_reported":1729876105,"current_range_meters":10000,"station_id":"ce4bhih2rcd13ifvqfs0","pricing_plan_id":"cebpf4jnsgd1na2vs0mg"},{"bike_id":"013a8c48-ef9f-4530-88f2-37bdecc26845","system_id":"levelo_inurba_marseille","lat":43.30208,"lon":5.39462,"is_reserved":false,"is_disabled":false,"rental_uris":{"android":"levelo://app?vid=013a8c48-ef9f-4530-88f2-37bdecc26845","ios":"levelo://app?vid=013a8c48-ef9f-4530-88f2-37bdecc26845"},"vehicle_type_id":"4","last_reported":1729876105,"current_range_meters":21600,"station_id":"ce4bh0p2rcd13ifvqd70","pricing_plan_id":"cebpf4jnsgd1na2vs0mg"},{"bike_id":"819367a2-9c5d-4596-945d-414009a014dc","system_id":"levelo_inurba_marseille","lat":43.30124,"lon":5.39872,"is_reserved":false,"is_disabled":false,"rental_uris":{"android":"levelo://app?vid=819367a2-9c5d-4596-945d-414009a014dc","ios":"levelo://app?vid=819367a2-9c5d-4596-945d-414009a014dc"},"vehicle_type_id":"4","last_reported":1729876105,"current_range_meters":38800,"station_id":"ce4bh0h2rcd13ifvqd40","pricing_plan_id":"cebpf4jnsgd1na2vs0mg"},{"bike_id":"1e0b2ca0-e067-4c0f-b247-6bf7f7ffa5c5","system_id":"levelo_inurba_marseille","lat":43.29251,"lon":5.4091,"is_reserved":false,"is_disabled":false,"rental_uris":{"android":"levelo://app?vid=1e0b2ca0-e067-4c0f-b247-6bf7f7ffa5c5","ios":"levelo://app?vid=1e0b2ca0-e067-4c0f-b247-6bf7f7ffa5c5"},"vehicle_type_id":"4","last_reported":1729876105,"current_range_meters":37600,"station_id":"ce4bh192rcd13ifvqdc0","pricing_plan_id":"cebpf4jnsgd1na2vs0mg"},{"bike_id":"28eae170-99b9-49a5-b48e-f01277843867","system_id":"levelo_inurba_marseille","lat":43.2781,"lon":5.40723,"is_reserved":false,"is_disabled":false,"rental_uris":{"android":"levelo://app?vid=28eae170-99b9-49a5-b48e-f01277843867","ios":"levelo://app?vid=28eae170-99b9-49a5-b48e-f01277843867"},"vehicle_type_id":"4","last_reported":1729876105,"current_range_meters":38400,"station_id":"ce4bhnh2rcd13ifvqgtg","pricing_plan_id":"cebpf4jnsgd1na2vs0mg"},{"bike_id":"914671d9-159b-452e-80e3-3092799d2235","system_id":"levelo_inurba_marseille","lat":43.30452,"lon":5.37918,"is_reserved":false,"is_disabled":false,"rental_uris":{"android":"levelo://app?vid=914671d9-159b-452e-80e3-3092799d2235","ios":"levelo://app?vid=914671d9-159b-452e-80e3-3092799d2235"},"vehicle_type_id":"4","last_reported":1729876105,"current_range_meters":25200,"station_id":"ce4bhq92rcd13ifvqhjg","pricing_plan_id":"cebpf4jnsgd1na2vs0mg"},{"bike_id":"8286a1ce-802f-48a5-a3e4-a80c4da26ebf","system_id":"levelo_inurba_marseille","lat":43.24658,"lon":5.38167,"is_reserved":false,"is_disabled":false,"rental_uris":{"android":"levelo://app?vid=8286a1ce-802f-48a5-a3e4-a80c4da26ebf","ios":"levelo://app?vid=8286a1ce-802f-48a5-a3e4-a80c4da26ebf"},"vehicle_type_id":"4","last_reported":1729876105,"current_range_meters":33200,"station_id":"ce4bhih2rcd13ifvqfr0","pricing_plan_id":"cebpf4jnsgd1na2vs0mg"},{"bike_id":"89206673-fdc6-4c61-b767-c66677e18d0b","system_id":"levelo_inurba_marseille","lat":43.22931,"lon":5.35378,"is_reserved":false,"is_disabled":false,"rental_uris":{"android":"levelo://app?vid=89206673-fdc6-4c61-b767-c66677e18d0b","ios":"levelo://app?vid=89206673-fdc6-4c61-b767-c66677e18d0b"},"vehicle_type_id":"4","last_reported":1729876105,"current_range_meters":36000,"station_id":"cpo3532slgdg3j2ikp40","pricing_plan_id":"cebpf4jnsgd1na2vs0mg"},{"bike_id":"24411cb1-a34c-4e80-823a-30e869f81dff","system_id":"levelo_inurba_marseille","lat":43.31755,"lon":5.39015,"is_reserved":false,"is_disabled":false,"rental_uris":{"android":"levelo://app?vid=24411cb1-a34c-4e80-823a-30e869f81dff","ios":"levelo://app?vid=24411cb1-a34c-4e80-823a-30e869f81dff"},"vehicle_type_id":"4","last_reported":1729876105,"current_range_meters":38000,"station_id":"ce4bhqp2rcd13ifvqhng","pricing_plan_id":"cebpf4jnsgd1na2vs0mg"},{"bike_id":"989cc2d4-5caf-48ee-93ff-953342821e01","system_id":"levelo_inurba_marseille","lat":43.25575,"lon":5.38242,"is_reserved":false,"is_disabled":false,"rental_uris":{"android":"levelo://app?vid=989cc2d4-5caf-48ee-93ff-953342821e01","ios":"levelo://app?vid=989cc2d4-5caf-48ee-93ff-953342821e01"},"vehicle_type_id":"4","last_reported":1729876105,"current_range_meters":3200,"station_id":"ce4bhih2rcd13ifvqfs0","pricing_plan_id":"cebpf4jnsgd1na2vs0mg"},{"bike_id":"5a76e39f-de3f-4992-a813-5c23010aa303","system_id":"levelo_inurba_marseille","lat":43.29043,"lon":5.35909,"is_reserved":false,"is_disabled":false,"rental_uris":{"android":"levelo://app?vid=5a76e39f-de3f-4992-a813-5c23010aa303","ios":"levelo://app?vid=5a76e39f-de3f-4992-a813-5c23010aa303"},"vehicle_type_id":"4","last_reported":1729876105,"current_range_meters":37600,"station_id":"ce4bha92rcd13ifvqeg0","pricing_plan_id":"cebpf4jnsgd1na2vs0mg"},{"bike_id":"f54e2375-79ac-4cb4-941f-3bd0166c9059","system_id":"levelo_inurba_marseille","lat":43.298828,"lon":5.38482,"is_reserved":false,"is_disabled":false,"rental_uris":{"android":"levelo://app?vid=f54e2375-79ac-4cb4-941f-3bd0166c9059","ios":"levelo://app?vid=f54e2375-79ac-4cb4-941f-3bd0166c9059"},"vehicle_type_id":"4","last_reported":1729876105,"current_range_meters":36800,"station_id":"ce4bgv12rcd13ifvqcp0","pricing_plan_id":"cebpf4jnsgd1na2vs0mg"},{"bike_id":"fbda76cf-ad32-44f5-8e46-a16eaabd2829","system_id":"levelo_inurba_marseille","lat":43.2293,"lon":5.35384,"is_reserved":false,"is_disabled":false,"rental_uris":{"android":"levelo://app?vid=fbda76cf-ad32-44f5-8e46-a16eaabd2829","ios":"levelo://app?vid=fbda76cf-ad32-44f5-8e46-a16eaabd2829"},"vehicle_type_id":"4","last_reported":1729876105,"current_range_meters":18800,"station_id":"cpo3532slgdg3j2ikp40","pricing_plan_id":"cebpf4jnsgd1na2vs0mg"},{"bike_id":"abdf1596-827d-43ef-8626-252b63a251ce","system_id":"levelo_inurba_marseille","lat":43.28658,"lon":5.36345,"is_reserved":false,"is_disabled":false,"rental_uris":{"android":"levelo://app?vid=abdf1596-827d-43ef-8626-252b63a251ce","ios":"levelo://app?vid=abdf1596-827d-43ef-8626-252b63a251ce"},"vehicle_type_id":"4","last_reported":1729876105,"current_range_meters":37600,"station_id":"ce4bhah2rcd13ifvqej0","pricing_plan_id":"cebpf4jnsgd1na2vs0mg"},{"bike_id":"b64e3f87-01ba-42ba-87e7-aab082c9b02d","system_id":"levelo_inurba_marseille","lat":43.26781,"lon":5.39419,"is_reserved":false,"is_disabled":false,"rental_uris":{"android":"levelo://app?vid=b64e3f87-01ba-42ba-87e7-aab082c9b02d","ios":"levelo://app?vid=b64e3f87-01ba-42ba-87e7-aab082c9b02d"},"vehicle_type_id":"4","last_reported":1729876105,"current_range_meters":5600,"station_id":"ce4bhh12rcd13ifvqfg0","pricing_plan_id":"cebpf4jnsgd1na2vs0mg"},{"bike_id":"498f5b3d-8e9f-48a3-85b7-59fc764348b1","system_id":"levelo_inurba_marseille","lat":43.29531,"lon":5.38547,"is_reserved":false,"is_disabled":false,"rental_uris":{"android":"levelo://app?vid=498f5b3d-8e9f-48a3-85b7-59fc764348b1","ios":"levelo://app?vid=498f5b3d-8e9f-48a3-85b7-59fc764348b1"},"vehicle_type_id":"4","last_reported":1729876105,"current_range_meters":10800,"station_id":"ce4bgih2rcd13ifvqba0","pricing_plan_id":"cebpf4jnsgd1na2vs0mg"},{"bike_id":"cca78a62-2f20-427b-b53d-da5e1aa1d208","system_id":"levelo_inurba_marseille","lat":43.24803,"lon":5.37461,"is_reserved":false,"is_disabled":false,"rental_uris":{"android":"levelo://app?vid=cca78a62-2f20-427b-b53d-da5e1aa1d208","ios":"levelo://app?vid=cca78a62-2f20-427b-b53d-da5e1aa1d208"},"vehicle_type_id":"4","last_reported":1729876105,"current_range_meters":5600,"station_id":"ce4bhgh2rcd13ifvqfb0","pricing_plan_id":"cebpf4jnsgd1na2vs0mg"},{"bike_id":"8b0e602b-c97d-4581-8f86-1dc3cd9f87ca","system_id":"levelo_inurba_marseille","lat":43.29593,"lon":5.38109,"is_reserved":false,"is_disabled":false,"rental_uris":{"android":"levelo://app?vid=8b0e602b-c97d-4581-8f86-1dc3cd9f87ca","ios":"levelo://app?vid=8b0e602b-c97d-4581-8f86-1dc3cd9f87ca"},"vehicle_type_id":"4","last_reported":1729876105,"current_range_meters":3600,"station_id":"ce4bgl12rcd13ifvqbo0","pricing_plan_id":"cebpf4jnsgd1na2vs0mg"},{"bike_id":"d8ea0b5e-c522-44a4-b80a-d82a0225b0dd","system_id":"levelo_inurba_marseille","lat":43.28938,"lon":5.36635,"is_reserved":false,"is_disabled":false,"rental_uris":{"android":"levelo://app?vid=d8ea0b5e-c522-44a4-b80a-d82a0225b0dd","ios":"levelo://app?vid=d8ea0b5e-c522-44a4-b80a-d82a0225b0dd"},"vehicle_type_id":"4","last_reported":1729876105,"current_range_meters":38800,"station_id":"ce4bhap2rcd13ifvqek0","pricing_plan_id":"cebpf4jnsgd1na2vs0mg"},{"bike_id":"69cfa73a-f1be-4fb5-9d20-b4af828acd0a","system_id":"levelo_inurba_marseille","lat":43.29976,"lon":5.37183,"is_reserved":false,"is_disabled":false,"rental_uris":{"android":"levelo://app?vid=69cfa73a-f1be-4fb5-9d20-b4af828acd0a","ios":"levelo://app?vid=69cfa73a-f1be-4fb5-9d20-b4af828acd0a"},"vehicle_type_id":"4","last_reported":1729876105,"current_range_meters":39200,"station_id":"ce4bgr92rcd13ifvqc7g","pricing_plan_id":"cebpf4jnsgd1na2vs0mg"},{"bike_id":"f000887f-1aca-4338-bdb1-a3da2d6736b8","system_id":"levelo_inurba_marseille","lat":43.31189,"lon":5.387047,"is_reserved":false,"is_disabled":false,"rental_uris":{"android":"levelo://app?vid=f000887f-1aca-4338-bdb1-a3da2d6736b8","ios":"levelo://app?vid=f000887f-1aca-4338-bdb1-a3da2d6736b8"},"vehicle_type_id":"4","last_reported":1729876105,"current_range_meters":13600,"station_id":"ce4bgv12rcd13ifvqcp0","pricing_plan_id":"cebpf4jnsgd1na2vs0mg"},{"bike_id":"7a9bebfb-3ca8-461f-9edc-3e4de00c7841","system_id":"levelo_inurba_marseille","lat":43.25573,"lon":5.38248,"is_reserved":false,"is_disabled":false,"rental_uris":{"android":"levelo://app?vid=7a9bebfb-3ca8-461f-9edc-3e4de00c7841","ios":"levelo://app?vid=7a9bebfb-3ca8-461f-9edc-3e4de00c7841"},"vehicle_type_id":"4","last_reported":1729876105,"current_range_meters":36800,"station_id":"ce4bhih2rcd13ifvqfs0","pricing_plan_id":"cebpf4jnsgd1na2vs0mg"},{"bike_id":"b137c59a-4cb3-4099-bce2-6fd394a229f3","system_id":"levelo_inurba_marseille","lat":43.24389,"lon":5.37057,"is_reserved":false,"is_disabled":false,"rental_uris":{"android":"levelo://app?vid=b137c59a-4cb3-4099-bce2-6fd394a229f3","ios":"levelo://app?vid=b137c59a-4cb3-4099-bce2-6fd394a229f3"},"vehicle_type_id":"4","last_reported":1729876105,"current_range_meters":38800,"station_id":"ce4bhhh2rcd13ifvqfk0","pricing_plan_id":"cebpf4jnsgd1na2vs0mg"},{"bike_id":"d8e7577a-ed6c-480b-8234-ea5c2ab6d68b","system_id":"levelo_inurba_marseille","lat":43.2987,"lon":5.3974,"is_reserved":false,"is_disabled":false,"rental_uris":{"android":"levelo://app?vid=d8e7577a-ed6c-480b-8234-ea5c2ab6d68b","ios":"levelo://app?vid=d8e7577a-ed6c-480b-8234-ea5c2ab6d68b"},"vehicle_type_id":"4","last_reported":1729876105,"current_range_meters":18000,"station_id":"ce4bh0h2rcd13ifvqd50","pricing_plan_id":"cebpf4jnsgd1na2vs0mg"},{"bike_id":"b4437c6d-3148-4654-86a5-8655474c4996","system_id":"levelo_inurba_marseille","lat":43.29421,"lon":5.3863,"is_reserved":false,"is_disabled":false,"rental_uris":{"android":"levelo://app?vid=b4437c6d-3148-4654-86a5-8655474c4996","ios":"levelo://app?vid=b4437c6d-3148-4654-86a5-8655474c4996"},"vehicle_type_id":"4","last_reported":1729876105,"current_range_meters":38800,"station_id":"ce4bh2h2rcd13ifvqdh0","pricing_plan_id":"cebpf4jnsgd1na2vs0mg"},{"bike_id":"30a58045-5e86-4621-8a97-37f74aea516a","system_id":"levelo_inurba_marseille","lat":43.3224,"lon":5.38647,"is_reserved":false,"is_disabled":false,"rental_uris":{"android":"levelo://app?vid=30a58045-5e86-4621-8a97-37f74aea516a","ios":"levelo://app?vid=30a58045-5e86-4621-8a97-37f74aea516a"},"vehicle_type_id":"4","last_reported":1729876105,"current_range_meters":12400,"station_id":"","pricing_plan_id":"cebpf4jnsgd1na2vs0mg"},{"bike_id":"585bddab-23a5-4e78-9e57-9779c242dddb","system_id":"levelo_inurba_marseille","lat":43.29413,"lon":5.38628,"is_reserved":false,"is_disabled":false,"rental_uris":{"android":"levelo://app?vid=585bddab-23a5-4e78-9e57-9779c242dddb","ios":"levelo://app?vid=585bddab-23a5-4e78-9e57-9779c242dddb"},"vehicle_type_id":"4","last_reported":1729876105,"current_range_meters":29600,"station_id":"ce4bh2h2rcd13ifvqdh0","pricing_plan_id":"cebpf4jnsgd1na2vs0mg"},{"bike_id":"e0b18b6e-ce93-4742-a184-6aa34e85b991","system_id":"levelo_inurba_marseille","lat":43.25931,"lon":5.40917,"is_reserved":false,"is_disabled":false,"rental_uris":{"android":"levelo://app?vid=e0b18b6e-ce93-4742-a184-6aa34e85b991","ios":"levelo://app?vid=e0b18b6e-ce93-4742-a184-6aa34e85b991"},"vehicle_type_id":"4","last_reported":1729876105,"current_range_meters":37600,"station_id":"ce4bhm92rcd13ifvqglg","pricing_plan_id":"cebpf4jnsgd1na2vs0mg"},{"bike_id":"59aae606-5375-420f-8dfb-a5b1245578c5","system_id":"levelo_inurba_marseille","lat":43.28435,"lon":5.39207,"is_reserved":false,"is_disabled":false,"rental_uris":{"android":"levelo://app?vid=59aae606-5375-420f-8dfb-a5b1245578c5","ios":"levelo://app?vid=59aae606-5375-420f-8dfb-a5b1245578c5"},"vehicle_type_id":"4","last_reported":1729876105,"current_range_meters":13600,"station_id":"ce4bhoh2rcd13ifvqh5g","pricing_plan_id":"cebpf4jnsgd1na2vs0mg"},{"bike_id":"471266a0-81c1-4fef-9c96-c8f89bbce9dc","system_id":"levelo_inurba_marseille","lat":43.27991,"lon":5.41662,"is_reserved":false,"is_disabled":false,"rental_uris":{"android":"levelo://app?vid=471266a0-81c1-4fef-9c96-c8f89bbce9dc","ios":"levelo://app?vid=471266a0-81c1-4fef-9c96-c8f89bbce9dc"},"vehicle_type_id":"4","last_reported":1729876105,"current_range_meters":2000,"station_id":"ce4bho12rcd13ifvqh1g","pricing_plan_id":"cebpf4jnsgd1na2vs0mg"},{"bike_id":"251837b5-5a61-4ae5-839b-2b5a43f20edc","system_id":"levelo_inurba_marseille","lat":43.29349,"lon":5.37865,"is_reserved":false,"is_disabled":false,"rental_uris":{"android":"levelo://app?vid=251837b5-5a61-4ae5-839b-2b5a43f20edc","ios":"levelo://app?vid=251837b5-5a61-4ae5-839b-2b5a43f20edc"},"vehicle_type_id":"4","last_reported":1729876105,"current_range_meters":2000,"station_id":"ce4bgjh2rcd13ifvqbf0","pricing_plan_id":"cebpf4jnsgd1na2vs0mg"},{"bike_id":"7fd9032d-6b0f-4d6b-b8e0-23495d7481ec","system_id":"levelo_inurba_marseille","lat":43.2953,"lon":5.38547,"is_reserved":false,"is_disabled":false,"rental_uris":{"android":"levelo://app?vid=7fd9032d-6b0f-4d6b-b8e0-23495d7481ec","ios":"levelo://app?vid=7fd9032d-6b0f-4d6b-b8e0-23495d7481ec"},"vehicle_type_id":"4","last_reported":1729876105,"current_range_meters":15200,"station_id":"ce4bgih2rcd13ifvqba0","pricing_plan_id":"cebpf4jnsgd1na2vs0mg"},{"bike_id":"7f47f8a1-7ddc-4f98-bdfa-5cae6dcf6d53","system_id":"levelo_inurba_marseille","lat":43.28367,"lon":5.38636,"is_reserved":false,"is_disabled":false,"rental_uris":{"android":"levelo://app?vid=7f47f8a1-7ddc-4f98-bdfa-5cae6dcf6d53","ios":"levelo://app?vid=7f47f8a1-7ddc-4f98-bdfa-5cae6dcf6d53"},"vehicle_type_id":"4","last_reported":1729876105,"current_range_meters":12800,"station_id":"ce4bh492rcd13ifvqdvg","pricing_plan_id":"cebpf4jnsgd1na2vs0mg"},{"bike_id":"0125c321-2dbe-4a75-8347-b9a0fe0f9e07","system_id":"levelo_inurba_marseille","lat":43.30595,"lon":5.39368,"is_reserved":false,"is_disabled":false,"rental_uris":{"android":"levelo://app?vid=0125c321-2dbe-4a75-8347-b9a0fe0f9e07","ios":"levelo://app?vid=0125c321-2dbe-4a75-8347-b9a0fe0f9e07"},"vehicle_type_id":"4","last_reported":1729876105,"current_range_meters":6800,"station_id":"ce4bh0p2rcd13ifvqd80","pricing_plan_id":"cebpf4jnsgd1na2vs0mg"},{"bike_id":"1f86b419-b601-48c1-a1df-df3b544454bd","system_id":"levelo_inurba_marseille","lat":43.313629,"lon":5.374589,"is_reserved":false,"is_disabled":false,"rental_uris":{"android":"levelo://app?vid=1f86b419-b601-48c1-a1df-df3b544454bd","ios":"levelo://app?vid=1f86b419-b601-48c1-a1df-df3b544454bd"},"vehicle_type_id":"4","last_reported":1729876105,"current_range_meters":14400,"station_id":"ce4bgt12rcd13ifvqcd0","pricing_plan_id":"cebpf4jnsgd1na2vs0mg"},{"bike_id":"4e22b1f2-b744-4471-9588-d46e48170dbb","system_id":"levelo_inurba_marseille","lat":43.29524,"lon":5.38549,"is_reserved":false,"is_disabled":false,"rental_uris":{"android":"levelo://app?vid=4e22b1f2-b744-4471-9588-d46e48170dbb","ios":"levelo://app?vid=4e22b1f2-b744-4471-9588-d46e48170dbb"},"vehicle_type_id":"4","last_reported":1729876105,"current_range_meters":8400,"station_id":"ce4bgih2rcd13ifvqba0","pricing_plan_id":"cebpf4jnsgd1na2vs0mg"},{"bike_id":"ec517bc8-aab9-4441-9a5a-13b6295f2e39","system_id":"levelo_inurba_marseille","lat":43.22933,"lon":5.35376,"is_reserved":false,"is_disabled":false,"rental_uris":{"android":"levelo://app?vid=ec517bc8-aab9-4441-9a5a-13b6295f2e39","ios":"levelo://app?vid=ec517bc8-aab9-4441-9a5a-13b6295f2e39"},"vehicle_type_id":"4","last_reported":1729876105,"current_range_meters":19200,"station_id":"cpo3532slgdg3j2ikp40","pricing_plan_id":"cebpf4jnsgd1na2vs0mg"},{"bike_id":"a1e8935a-a83d-4f00-916d-f38b43354ae6","system_id":"levelo_inurba_marseille","lat":43.29223,"lon":5.383172,"is_reserved":false,"is_disabled":false,"rental_uris":{"android":"levelo://app?vid=a1e8935a-a83d-4f00-916d-f38b43354ae6","ios":"levelo://app?vid=a1e8935a-a83d-4f00-916d-f38b43354ae6"},"vehicle_type_id":"4","last_reported":1729876105,"current_range_meters":4400,"station_id":"ce4bhap2rcd13ifvqek0","pricing_plan_id":"cebpf4jnsgd1na2vs0mg"},{"bike_id":"6cb0d09c-4434-41fe-bab7-3f2ab7b0ac84","system_id":"levelo_inurba_marseille","lat":43.23055,"lon":5.35495,"is_reserved":false,"is_disabled":false,"rental_uris":{"android":"levelo://app?vid=6cb0d09c-4434-41fe-bab7-3f2ab7b0ac84","ios":"levelo://app?vid=6cb0d09c-4434-41fe-bab7-3f2ab7b0ac84"},"vehicle_type_id":"4","last_reported":1729876105,"current_range_meters":20000,"station_id":"cpo3342slgdg3j2ifvpg","pricing_plan_id":"cebpf4jnsgd1na2vs0mg"},{"bike_id":"969c0a3f-2522-40c3-996d-8295821d4050","system_id":"levelo_inurba_marseille","lat":43.28921,"lon":5.38392,"is_reserved":false,"is_disabled":false,"rental_uris":{"android":"levelo://app?vid=969c0a3f-2522-40c3-996d-8295821d4050","ios":"levelo://app?vid=969c0a3f-2522-40c3-996d-8295821d4050"},"vehicle_type_id":"4","last_reported":1729876105,"current_range_meters":38800,"station_id":"ce4bh612rcd13ifvqe6g","pricing_plan_id":"cebpf4jnsgd1na2vs0mg"},{"bike_id":"e9dcf62f-236b-4f48-aa72-ae44b195d99e","system_id":"levelo_inurba_marseille","lat":43.29875,"lon":5.38917,"is_reserved":false,"is_disabled":false,"rental_uris":{"android":"levelo://app?vid=e9dcf62f-236b-4f48-aa72-ae44b195d99e","ios":"levelo://app?vid=e9dcf62f-236b-4f48-aa72-ae44b195d99e"},"vehicle_type_id":"4","last_reported":1729876105,"current_range_meters":17200,"station_id":"ce4bh392rcd13ifvqdl0","pricing_plan_id":"cebpf4jnsgd1na2vs0mg"},{"bike_id":"661e62a9-af33-4796-bf88-bdb0e3140103","system_id":"levelo_inurba_marseille","lat":43.28852,"lon":5.3586,"is_reserved":false,"is_disabled":false,"rental_uris":{"android":"levelo://app?vid=661e62a9-af33-4796-bf88-bdb0e3140103","ios":"levelo://app?vid=661e62a9-af33-4796-bf88-bdb0e3140103"},"vehicle_type_id":"4","last_reported":1729876105,"current_range_meters":38000,"station_id":"ce4bhb12rcd13ifvqem0","pricing_plan_id":"cebpf4jnsgd1na2vs0mg"},{"bike_id":"1eddc096-4e0d-4a67-a58f-388b7ad23292","system_id":"levelo_inurba_marseille","lat":43.29257,"lon":5.38453,"is_reserved":false,"is_disabled":false,"rental_uris":{"android":"levelo://app?vid=1eddc096-4e0d-4a67-a58f-388b7ad23292","ios":"levelo://app?vid=1eddc096-4e0d-4a67-a58f-388b7ad23292"},"vehicle_type_id":"4","last_reported":1729876105,"current_range_meters":10800,"station_id":"ce4bh692rcd13ifvqea0","pricing_plan_id":"cebpf4jnsgd1na2vs0mg"},{"bike_id":"932ea71d-ee8c-47de-a617-0174efb85402","system_id":"levelo_inurba_marseille","lat":43.26567,"lon":5.39025,"is_reserved":false,"is_disabled":false,"rental_uris":{"android":"levelo://app?vid=932ea71d-ee8c-47de-a617-0174efb85402","ios":"levelo://app?vid=932ea71d-ee8c-47de-a617-0174efb85402"},"vehicle_type_id":"4","last_reported":1729876105,"current_range_meters":38800,"station_id":"ce4bhe12rcd13ifvqf30","pricing_plan_id":"cebpf4jnsgd1na2vs0mg"},{"bike_id":"abd43e3d-ad3e-4ac4-b89e-484cd8d44879","system_id":"levelo_inurba_marseille","lat":43.27069,"lon":5.42283,"is_reserved":false,"is_disabled":false,"rental_uris":{"android":"levelo://app?vid=abd43e3d-ad3e-4ac4-b89e-484cd8d44879","ios":"levelo://app?vid=abd43e3d-ad3e-4ac4-b89e-484cd8d44879"},"vehicle_type_id":"4","last_reported":1729876105,"current_range_meters":27600,"station_id":"ce4bhk92rcd13ifvqgb0","pricing_plan_id":"cebpf4jnsgd1na2vs0mg"},{"bike_id":"3ed92a29-5c44-4b6c-b46b-0d6d23a4fe6a","system_id":"levelo_inurba_marseille","lat":43.29556,"lon":5.42282,"is_reserved":false,"is_disabled":false,"rental_uris":{"android":"levelo://app?vid=3ed92a29-5c44-4b6c-b46b-0d6d23a4fe6a","ios":"levelo://app?vid=3ed92a29-5c44-4b6c-b46b-0d6d23a4fe6a"},"vehicle_type_id":"4","last_reported":1729876105,"current_range_meters":36000,"station_id":"ce4bhph2rcd13ifvqhdg","pricing_plan_id":"cebpf4jnsgd1na2vs0mg"},{"bike_id":"aff91f51-608d-4a47-ae2d-de8203292322","system_id":"levelo_inurba_marseille","lat":43.31084,"lon":5.42435,"is_reserved":false,"is_disabled":false,"rental_uris":{"android":"levelo://app?vid=aff91f51-608d-4a47-ae2d-de8203292322","ios":"levelo://app?vid=aff91f51-608d-4a47-ae2d-de8203292322"},"vehicle_type_id":"4","last_reported":1729876105,"current_range_meters":14400,"station_id":"ce4bhp92rcd13ifvqhag","pricing_plan_id":"cebpf4jnsgd1na2vs0mg"},{"bike_id":"43b20a75-49b3-45ab-b19b-f5aa302cde8d","system_id":"levelo_inurba_marseille","lat":43.24804,"lon":5.3745,"is_reserved":false,"is_disabled":false,"rental_uris":{"android":"levelo://app?vid=43b20a75-49b3-45ab-b19b-f5aa302cde8d","ios":"levelo://app?vid=43b20a75-49b3-45ab-b19b-f5aa302cde8d"},"vehicle_type_id":"4","last_reported":1729876105,"current_range_meters":15200,"station_id":"ce4bhgh2rcd13ifvqfb0","pricing_plan_id":"cebpf4jnsgd1na2vs0mg"},{"bike_id":"8958f757-812f-4ea7-baa9-4ffadbb48483","system_id":"levelo_inurba_marseille","lat":43.299657,"lon":5.3961,"is_reserved":false,"is_disabled":false,"rental_uris":{"android":"levelo://app?vid=8958f757-812f-4ea7-baa9-4ffadbb48483","ios":"levelo://app?vid=8958f757-812f-4ea7-baa9-4ffadbb48483"},"vehicle_type_id":"4","last_reported":1729876105,"current_range_meters":39200,"station_id":"","pricing_plan_id":"cebpf4jnsgd1na2vs0mg"},{"bike_id":"b68985d2-3b55-4c7d-a35a-13e15d0dacbe","system_id":"levelo_inurba_marseille","lat":43.27895,"lon":5.38013,"is_reserved":false,"is_disabled":false,"rental_uris":{"android":"levelo://app?vid=b68985d2-3b55-4c7d-a35a-13e15d0dacbe","ios":"levelo://app?vid=b68985d2-3b55-4c7d-a35a-13e15d0dacbe"},"vehicle_type_id":"4","last_reported":1729876105,"current_range_meters":19200,"station_id":"ce4bhf92rcd13ifvqf50","pricing_plan_id":"cebpf4jnsgd1na2vs0mg"},{"bike_id":"6b0c068c-5208-4cb3-a4e0-e1fd0cb344bd","system_id":"levelo_inurba_marseille","lat":43.284664,"lon":5.358872,"is_reserved":false,"is_disabled":false,"rental_uris":{"android":"levelo://app?vid=6b0c068c-5208-4cb3-a4e0-e1fd0cb344bd","ios":"levelo://app?vid=6b0c068c-5208-4cb3-a4e0-e1fd0cb344bd"},"vehicle_type_id":"4","last_reported":1729876105,"current_range_meters":5600,"station_id":"ce4bhah2rcd13ifvqei0","pricing_plan_id":"cebpf4jnsgd1na2vs0mg"},{"bike_id":"25596ccd-8388-452e-9656-2a293e16965b","system_id":"levelo_inurba_marseille","lat":43.29524,"lon":5.38544,"is_reserved":false,"is_disabled":false,"rental_uris":{"android":"levelo://app?vid=25596ccd-8388-452e-9656-2a293e16965b","ios":"levelo://app?vid=25596ccd-8388-452e-9656-2a293e16965b"},"vehicle_type_id":"4","last_reported":1729876105,"current_range_meters":19200,"station_id":"ce4bgih2rcd13ifvqba0","pricing_plan_id":"cebpf4jnsgd1na2vs0mg"},{"bike_id":"78f272a1-2c74-4489-8c36-83bc93a6d452","system_id":"levelo_inurba_marseille","lat":43.23963,"lon":5.36629,"is_reserved":false,"is_disabled":false,"rental_uris":{"android":"levelo://app?vid=78f272a1-2c74-4489-8c36-83bc93a6d452","ios":"levelo://app?vid=78f272a1-2c74-4489-8c36-83bc93a6d452"},"vehicle_type_id":"4","last_reported":1729876105,"current_range_meters":19600,"station_id":"ce4bhi12rcd13ifvqfp0","pricing_plan_id":"cebpf4jnsgd1na2vs0mg"},{"bike_id":"ea9cd50f-1696-40f3-9d29-cc518a90405e","system_id":"levelo_inurba_marseille","lat":43.2845,"lon":5.358944,"is_reserved":false,"is_disabled":false,"rental_uris":{"android":"levelo://app?vid=ea9cd50f-1696-40f3-9d29-cc518a90405e","ios":"levelo://app?vid=ea9cd50f-1696-40f3-9d29-cc518a90405e"},"vehicle_type_id":"4","last_reported":1729876105,"current_range_meters":17600,"station_id":"ce4bhah2rcd13ifvqei0","pricing_plan_id":"cebpf4jnsgd1na2vs0mg"},{"bike_id":"19c8f9d5-6f90-4865-b31f-4922c0350891","system_id":"levelo_inurba_marseille","lat":43.30127,"lon":5.39871,"is_reserved":false,"is_disabled":false,"rental_uris":{"android":"levelo://app?vid=19c8f9d5-6f90-4865-b31f-4922c0350891","ios":"levelo://app?vid=19c8f9d5-6f90-4865-b31f-4922c0350891"},"vehicle_type_id":"4","last_reported":1729876105,"current_range_meters":18000,"station_id":"ce4bh0h2rcd13ifvqd40","pricing_plan_id":"cebpf4jnsgd1na2vs0mg"},{"bike_id":"efdd3aa0-e144-46ca-b8b0-257cd2be71e6","system_id":"levelo_inurba_marseille","lat":43.25579,"lon":5.38243,"is_reserved":false,"is_disabled":false,"rental_uris":{"android":"levelo://app?vid=efdd3aa0-e144-46ca-b8b0-257cd2be71e6","ios":"levelo://app?vid=efdd3aa0-e144-46ca-b8b0-257cd2be71e6"},"vehicle_type_id":"4","last_reported":1729876105,"current_range_meters":38400,"station_id":"ce4bhih2rcd13ifvqfs0","pricing_plan_id":"cebpf4jnsgd1na2vs0mg"},{"bike_id":"a42b0bdd-1f10-437f-813e-02df169ed0a9","system_id":"levelo_inurba_marseille","lat":43.22935,"lon":5.35374,"is_reserved":false,"is_disabled":false,"rental_uris":{"android":"levelo://app?vid=a42b0bdd-1f10-437f-813e-02df169ed0a9","ios":"levelo://app?vid=a42b0bdd-1f10-437f-813e-02df169ed0a9"},"vehicle_type_id":"4","last_reported":1729876105,"current_range_meters":26800,"station_id":"cpo3532slgdg3j2ikp40","pricing_plan_id":"cebpf4jnsgd1na2vs0mg"},{"bike_id":"09121ff1-8488-4bd0-86ec-47e7295135e8","system_id":"levelo_inurba_marseille","lat":43.30318,"lon":5.40451,"is_reserved":false,"is_disabled":false,"rental_uris":{"android":"levelo://app?vid=09121ff1-8488-4bd0-86ec-47e7295135e8","ios":"levelo://app?vid=09121ff1-8488-4bd0-86ec-47e7295135e8"},"vehicle_type_id":"4","last_reported":1729876105,"current_range_meters":8400,"station_id":"ce4bh012rcd13ifvqd10","pricing_plan_id":"cebpf4jnsgd1na2vs0mg"},{"bike_id":"e8229779-d1da-4771-868f-0cb92df0f5f3","system_id":"levelo_inurba_marseille","lat":43.28369,"lon":5.38631,"is_reserved":false,"is_disabled":false,"rental_uris":{"android":"levelo://app?vid=e8229779-d1da-4771-868f-0cb92df0f5f3","ios":"levelo://app?vid=e8229779-d1da-4771-868f-0cb92df0f5f3"},"vehicle_type_id":"4","last_reported":1729876105,"current_range_meters":38000,"station_id":"ce4bh492rcd13ifvqdvg","pricing_plan_id":"cebpf4jnsgd1na2vs0mg"},{"bike_id":"2c2f6782-f871-4a5c-b5fc-bef8d94d484a","system_id":"levelo_inurba_marseille","lat":43.29223,"lon":5.36075,"is_reserved":false,"is_disabled":false,"rental_uris":{"android":"levelo://app?vid=2c2f6782-f871-4a5c-b5fc-bef8d94d484a","ios":"levelo://app?vid=2c2f6782-f871-4a5c-b5fc-bef8d94d484a"},"vehicle_type_id":"4","last_reported":1729876105,"current_range_meters":25600,"station_id":"ce4bhbh2rcd13ifvqeqg","pricing_plan_id":"cebpf4jnsgd1na2vs0mg"},{"bike_id":"4b46f709-b5ba-4112-9f26-e0b9ba4ef1f1","system_id":"levelo_inurba_marseille","lat":43.2869,"lon":5.37397,"is_reserved":false,"is_disabled":false,"rental_uris":{"android":"levelo://app?vid=4b46f709-b5ba-4112-9f26-e0b9ba4ef1f1","ios":"levelo://app?vid=4b46f709-b5ba-4112-9f26-e0b9ba4ef1f1"},"vehicle_type_id":"4","last_reported":1729876105,"current_range_meters":6000,"station_id":"ce4bh3p2rcd13ifvqdq0","pricing_plan_id":"cebpf4jnsgd1na2vs0mg"},{"bike_id":"14b32013-16c9-4a3a-9b24-38e904708fdb","system_id":"levelo_inurba_marseille","lat":43.28274,"lon":5.3506,"is_reserved":false,"is_disabled":false,"rental_uris":{"android":"levelo://app?vid=14b32013-16c9-4a3a-9b24-38e904708fdb","ios":"levelo://app?vid=14b32013-16c9-4a3a-9b24-38e904708fdb"},"vehicle_type_id":"4","last_reported":1729876105,"current_range_meters":25600,"station_id":"ce4bhbp2rcd13ifvqerg","pricing_plan_id":"cebpf4jnsgd1na2vs0mg"},{"bike_id":"353dd1d1-aedf-4e9f-b96e-2d6c13c12501","system_id":"levelo_inurba_marseille","lat":43.25005,"lon":5.38916,"is_reserved":false,"is_disabled":false,"rental_uris":{"android":"levelo://app?vid=353dd1d1-aedf-4e9f-b96e-2d6c13c12501","ios":"levelo://app?vid=353dd1d1-aedf-4e9f-b96e-2d6c13c12501"},"vehicle_type_id":"4","last_reported":1729876105,"current_range_meters":21600,"station_id":"ce4bhgp2rcd13ifvqfd0","pricing_plan_id":"cebpf4jnsgd1na2vs0mg"},{"bike_id":"9547fe9f-7da9-478b-9033-f446ea71bb69","system_id":"levelo_inurba_marseille","lat":43.31072,"lon":5.42431,"is_reserved":false,"is_disabled":false,"rental_uris":{"android":"levelo://app?vid=9547fe9f-7da9-478b-9033-f446ea71bb69","ios":"levelo://app?vid=9547fe9f-7da9-478b-9033-f446ea71bb69"},"vehicle_type_id":"4","last_reported":1729876105,"current_range_meters":36400,"station_id":"ce4bhp92rcd13ifvqhag","pricing_plan_id":"cebpf4jnsgd1na2vs0mg"},{"bike_id":"df68c236-3429-47dc-8d0d-da0fa7924a52","system_id":"levelo_inurba_marseille","lat":43.294231,"lon":5.386291,"is_reserved":false,"is_disabled":false,"rental_uris":{"android":"levelo://app?vid=df68c236-3429-47dc-8d0d-da0fa7924a52","ios":"levelo://app?vid=df68c236-3429-47dc-8d0d-da0fa7924a52"},"vehicle_type_id":"4","last_reported":1729876105,"current_range_meters":38800,"station_id":"ce4bh2h2rcd13ifvqdh0","pricing_plan_id":"cebpf4jnsgd1na2vs0mg"},{"bike_id":"cbc8ef28-f0dd-46bc-a374-bf126ae54cf2","system_id":"levelo_inurba_marseille","lat":43.28369,"lon":5.40017,"is_reserved":false,"is_disabled":false,"rental_uris":{"android":"levelo://app?vid=cbc8ef28-f0dd-46bc-a374-bf126ae54cf2","ios":"levelo://app?vid=cbc8ef28-f0dd-46bc-a374-bf126ae54cf2"},"vehicle_type_id":"4","last_reported":1729876105,"current_range_meters":28000,"station_id":"","pricing_plan_id":"cebpf4jnsgd1na2vs0mg"},{"bike_id":"914712da-9129-49a4-ad21-34c49f788602","system_id":"levelo_inurba_marseille","lat":43.30878,"lon":5.39642,"is_reserved":false,"is_disabled":false,"rental_uris":{"android":"levelo://app?vid=914712da-9129-49a4-ad21-34c49f788602","ios":"levelo://app?vid=914712da-9129-49a4-ad21-34c49f788602"},"vehicle_type_id":"4","last_reported":1729876105,"current_range_meters":36800,"station_id":"ce4bh012rcd13ifvqcv0","pricing_plan_id":"cebpf4jnsgd1na2vs0mg"},{"bike_id":"58afcffd-31ed-44e7-99ff-2fa445db19b3","system_id":"levelo_inurba_marseille","lat":43.29872,"lon":5.39728,"is_reserved":false,"is_disabled":false,"rental_uris":{"android":"levelo://app?vid=58afcffd-31ed-44e7-99ff-2fa445db19b3","ios":"levelo://app?vid=58afcffd-31ed-44e7-99ff-2fa445db19b3"},"vehicle_type_id":"4","last_reported":1729876105,"current_range_meters":22400,"station_id":"ce4bh0h2rcd13ifvqd50","pricing_plan_id":"cebpf4jnsgd1na2vs0mg"},{"bike_id":"d561f3fe-a322-4dee-aac9-f1e6f4558649","system_id":"levelo_inurba_marseille","lat":43.30773,"lon":5.37659,"is_reserved":false,"is_disabled":false,"rental_uris":{"android":"levelo://app?vid=d561f3fe-a322-4dee-aac9-f1e6f4558649","ios":"levelo://app?vid=d561f3fe-a322-4dee-aac9-f1e6f4558649"},"vehicle_type_id":"4","last_reported":1729876105,"current_range_meters":11600,"station_id":"ce4bgv92rcd13ifvqcq0","pricing_plan_id":"cebpf4jnsgd1na2vs0mg"},{"bike_id":"0f70d4c0-ead1-4985-b0b8-005aae882839","system_id":"levelo_inurba_marseille","lat":43.29088,"lon":5.38122,"is_reserved":false,"is_disabled":false,"rental_uris":{"android":"levelo://app?vid=0f70d4c0-ead1-4985-b0b8-005aae882839","ios":"levelo://app?vid=0f70d4c0-ead1-4985-b0b8-005aae882839"},"vehicle_type_id":"4","last_reported":1729876105,"current_range_meters":28000,"station_id":"ce4bh512rcd13ifvqe2g","pricing_plan_id":"cebpf4jnsgd1na2vs0mg"},{"bike_id":"da3ad195-98e3-4f0d-b931-03210b5944bb","system_id":"levelo_inurba_marseille","lat":43.29028,"lon":5.37551,"is_reserved":false,"is_disabled":false,"rental_uris":{"android":"levelo://app?vid=da3ad195-98e3-4f0d-b931-03210b5944bb","ios":"levelo://app?vid=da3ad195-98e3-4f0d-b931-03210b5944bb"},"vehicle_type_id":"4","last_reported":1729876105,"current_range_meters":28800,"station_id":"ce4bh692rcd13ifvqe90","pricing_plan_id":"cebpf4jnsgd1na2vs0mg"},{"bike_id":"51eb24a5-d36b-4170-8fba-5def4da9dac7","system_id":"levelo_inurba_marseille","lat":43.29499,"lon":5.39049,"is_reserved":false,"is_disabled":false,"rental_uris":{"android":"levelo://app?vid=51eb24a5-d36b-4170-8fba-5def4da9dac7","ios":"levelo://app?vid=51eb24a5-d36b-4170-8fba-5def4da9dac7"},"vehicle_type_id":"4","last_reported":1729876105,"current_range_meters":8400,"station_id":"ce4bh3p2rcd13ifvqdp0","pricing_plan_id":"cebpf4jnsgd1na2vs0mg"},{"bike_id":"c402c880-0470-4e8a-ac20-8317f48fc5dd","system_id":"levelo_inurba_marseille","lat":43.27933,"lon":5.41057,"is_reserved":false,"is_disabled":false,"rental_uris":{"android":"levelo://app?vid=c402c880-0470-4e8a-ac20-8317f48fc5dd","ios":"levelo://app?vid=c402c880-0470-4e8a-ac20-8317f48fc5dd"},"vehicle_type_id":"4","last_reported":1729876105,"current_range_meters":37600,"station_id":"ce4bhnp2rcd13ifvqh0g","pricing_plan_id":"cebpf4jnsgd1na2vs0mg"},{"bike_id":"31b7db78-d83e-4bcc-a6e2-1a7a1428b1d6","system_id":"levelo_inurba_marseille","lat":43.32106,"lon":5.3677,"is_reserved":false,"is_disabled":false,"rental_uris":{"android":"levelo://app?vid=31b7db78-d83e-4bcc-a6e2-1a7a1428b1d6","ios":"levelo://app?vid=31b7db78-d83e-4bcc-a6e2-1a7a1428b1d6"},"vehicle_type_id":"4","last_reported":1729876105,"current_range_meters":6800,"station_id":"ce4bhrh2rcd13ifvqhug","pricing_plan_id":"cebpf4jnsgd1na2vs0mg"},{"bike_id":"ebf084ac-3654-4b11-81a9-87c6ed47336f","system_id":"levelo_inurba_marseille","lat":43.28416,"lon":5.37515,"is_reserved":false,"is_disabled":false,"rental_uris":{"android":"levelo://app?vid=ebf084ac-3654-4b11-81a9-87c6ed47336f","ios":"levelo://app?vid=ebf084ac-3654-4b11-81a9-87c6ed47336f"},"vehicle_type_id":"4","last_reported":1729876105,"current_range_meters":20000,"station_id":"ce4bh412rcd13ifvqds0","pricing_plan_id":"cebpf4jnsgd1na2vs0mg"},{"bike_id":"405ba2b3-9962-4409-a116-f21f6ca89fd5","system_id":"levelo_inurba_marseille","lat":43.30125,"lon":5.39869,"is_reserved":false,"is_disabled":false,"rental_uris":{"android":"levelo://app?vid=405ba2b3-9962-4409-a116-f21f6ca89fd5","ios":"levelo://app?vid=405ba2b3-9962-4409-a116-f21f6ca89fd5"},"vehicle_type_id":"4","last_reported":1729876105,"current_range_meters":38800,"station_id":"ce4bh0h2rcd13ifvqd40","pricing_plan_id":"cebpf4jnsgd1na2vs0mg"},{"bike_id":"a3eeba97-8d75-45c7-8ce4-166d75a9b74d","system_id":"levelo_inurba_marseille","lat":43.29526,"lon":5.38547,"is_reserved":false,"is_disabled":false,"rental_uris":{"android":"levelo://app?vid=a3eeba97-8d75-45c7-8ce4-166d75a9b74d","ios":"levelo://app?vid=a3eeba97-8d75-45c7-8ce4-166d75a9b74d"},"vehicle_type_id":"4","last_reported":1729876105,"current_range_meters":6400,"station_id":"ce4bgih2rcd13ifvqba0","pricing_plan_id":"cebpf4jnsgd1na2vs0mg"},{"bike_id":"49b3010a-5b93-4460-b84f-af836b4929df","system_id":"levelo_inurba_marseille","lat":43.30139,"lon":5.38775,"is_reserved":false,"is_disabled":false,"rental_uris":{"android":"levelo://app?vid=49b3010a-5b93-4460-b84f-af836b4929df","ios":"levelo://app?vid=49b3010a-5b93-4460-b84f-af836b4929df"},"vehicle_type_id":"4","last_reported":1729876105,"current_range_meters":37600,"station_id":"ce4bghh2rcd13ifvqb60","pricing_plan_id":"cebpf4jnsgd1na2vs0mg"},{"bike_id":"21cbe002-b15f-49f7-b058-0f06b5f2f448","system_id":"levelo_inurba_marseille","lat":43.29422,"lon":5.38627,"is_reserved":false,"is_disabled":false,"rental_uris":{"android":"levelo://app?vid=21cbe002-b15f-49f7-b058-0f06b5f2f448","ios":"levelo://app?vid=21cbe002-b15f-49f7-b058-0f06b5f2f448"},"vehicle_type_id":"4","last_reported":1729876105,"current_range_meters":8400,"station_id":"ce4bh2h2rcd13ifvqdh0","pricing_plan_id":"cebpf4jnsgd1na2vs0mg"},{"bike_id":"7691659f-eea1-4b4d-8db5-2728fcde3a23","system_id":"levelo_inurba_marseille","lat":43.3017,"lon":5.37278,"is_reserved":false,"is_disabled":false,"rental_uris":{"android":"levelo://app?vid=7691659f-eea1-4b4d-8db5-2728fcde3a23","ios":"levelo://app?vid=7691659f-eea1-4b4d-8db5-2728fcde3a23"},"vehicle_type_id":"4","last_reported":1729876105,"current_range_meters":28000,"station_id":"","pricing_plan_id":"cebpf4jnsgd1na2vs0mg"},{"bike_id":"f4dd5c52-4716-4541-bfaa-6c89b9978680","system_id":"levelo_inurba_marseille","lat":43.3302,"lon":5.39048,"is_reserved":false,"is_disabled":false,"rental_uris":{"android":"levelo://app?vid=f4dd5c52-4716-4541-bfaa-6c89b9978680","ios":"levelo://app?vid=f4dd5c52-4716-4541-bfaa-6c89b9978680"},"vehicle_type_id":"4","last_reported":1729876105,"current_range_meters":17600,"station_id":"ce4bhr92rcd13ifvqhrg","pricing_plan_id":"cebpf4jnsgd1na2vs0mg"},{"bike_id":"bc58c01f-50d2-4308-a58d-10282d32b4cd","system_id":"levelo_inurba_marseille","lat":43.29419,"lon":5.39978,"is_reserved":false,"is_disabled":false,"rental_uris":{"android":"levelo://app?vid=bc58c01f-50d2-4308-a58d-10282d32b4cd","ios":"levelo://app?vid=bc58c01f-50d2-4308-a58d-10282d32b4cd"},"vehicle_type_id":"4","last_reported":1729876105,"current_range_meters":19600,"station_id":"","pricing_plan_id":"cebpf4jnsgd1na2vs0mg"},{"bike_id":"5603513b-8e4c-4dde-bab1-4a57055b512a","system_id":"levelo_inurba_marseille","lat":43.26558,"lon":5.37289,"is_reserved":false,"is_disabled":false,"rental_uris":{"android":"levelo://app?vid=5603513b-8e4c-4dde-bab1-4a57055b512a","ios":"levelo://app?vid=5603513b-8e4c-4dde-bab1-4a57055b512a"},"vehicle_type_id":"4","last_reported":1729876105,"current_range_meters":38800,"station_id":"ce4bhg12rcd13ifvqf70","pricing_plan_id":"cebpf4jnsgd1na2vs0mg"},{"bike_id":"18cd883a-f1cd-4f34-98dc-7580d7e4256d","system_id":"levelo_inurba_marseille","lat":43.24645,"lon":5.38894,"is_reserved":false,"is_disabled":false,"rental_uris":{"android":"levelo://app?vid=18cd883a-f1cd-4f34-98dc-7580d7e4256d","ios":"levelo://app?vid=18cd883a-f1cd-4f34-98dc-7580d7e4256d"},"vehicle_type_id":"4","last_reported":1729876105,"current_range_meters":30400,"station_id":"ce4bhg12rcd13ifvqf60","pricing_plan_id":"cebpf4jnsgd1na2vs0mg"},{"bike_id":"f0fc82ca-f5ec-4e02-8e94-135a203ff8d2","system_id":"levelo_inurba_marseille","lat":43.24803,"lon":5.37459,"is_reserved":false,"is_disabled":false,"rental_uris":{"android":"levelo://app?vid=f0fc82ca-f5ec-4e02-8e94-135a203ff8d2","ios":"levelo://app?vid=f0fc82ca-f5ec-4e02-8e94-135a203ff8d2"},"vehicle_type_id":"4","last_reported":1729876105,"current_range_meters":39200,"station_id":"ce4bhgh2rcd13ifvqfb0","pricing_plan_id":"cebpf4jnsgd1na2vs0mg"},{"bike_id":"0ef142a5-2635-417d-88cf-176699446a6d","system_id":"levelo_inurba_marseille","lat":43.29583,"lon":5.38108,"is_reserved":false,"is_disabled":false,"rental_uris":{"android":"levelo://app?vid=0ef142a5-2635-417d-88cf-176699446a6d","ios":"levelo://app?vid=0ef142a5-2635-417d-88cf-176699446a6d"},"vehicle_type_id":"4","last_reported":1729876105,"current_range_meters":19600,"station_id":"ce4bgl12rcd13ifvqbo0","pricing_plan_id":"cebpf4jnsgd1na2vs0mg"},{"bike_id":"66f020ae-5526-4ad0-8af9-6a968240ac52","system_id":"levelo_inurba_marseille","lat":43.32483,"lon":5.3657,"is_reserved":false,"is_disabled":false,"rental_uris":{"android":"levelo://app?vid=66f020ae-5526-4ad0-8af9-6a968240ac52","ios":"levelo://app?vid=66f020ae-5526-4ad0-8af9-6a968240ac52"},"vehicle_type_id":"4","last_reported":1729876105,"current_range_meters":36800,"station_id":"ce4bhs12rcd13ifvqhvg","pricing_plan_id":"cebpf4jnsgd1na2vs0mg"},{"bike_id":"20cf6f1c-7236-412b-8689-5f9328ef8039","system_id":"levelo_inurba_marseille","lat":43.29249,"lon":5.38449,"is_reserved":false,"is_disabled":false,"rental_uris":{"android":"levelo://app?vid=20cf6f1c-7236-412b-8689-5f9328ef8039","ios":"levelo://app?vid=20cf6f1c-7236-412b-8689-5f9328ef8039"},"vehicle_type_id":"4","last_reported":1729876105,"current_range_meters":8400,"station_id":"ce4bh692rcd13ifvqea0","pricing_plan_id":"cebpf4jnsgd1na2vs0mg"},{"bike_id":"1aac1f7a-a64c-43c7-9fea-28291f50e750","system_id":"levelo_inurba_marseille","lat":43.29527,"lon":5.38544,"is_reserved":false,"is_disabled":false,"rental_uris":{"android":"levelo://app?vid=1aac1f7a-a64c-43c7-9fea-28291f50e750","ios":"levelo://app?vid=1aac1f7a-a64c-43c7-9fea-28291f50e750"},"vehicle_type_id":"4","last_reported":1729876105,"current_range_meters":39200,"station_id":"ce4bgih2rcd13ifvqba0","pricing_plan_id":"cebpf4jnsgd1na2vs0mg"},{"bike_id":"3dbf2bda-8598-45b0-80b2-90a01600a8e0","system_id":"levelo_inurba_marseille","lat":43.30252,"lon":5.40068,"is_reserved":false,"is_disabled":false,"rental_uris":{"android":"levelo://app?vid=3dbf2bda-8598-45b0-80b2-90a01600a8e0","ios":"levelo://app?vid=3dbf2bda-8598-45b0-80b2-90a01600a8e0"},"vehicle_type_id":"4","last_reported":1729876105,"current_range_meters":32800,"station_id":"ce4bgvh2rcd13ifvqcs0","pricing_plan_id":"cebpf4jnsgd1na2vs0mg"},{"bike_id":"38eae407-6f6a-449e-a1fd-ed14cde8f96c","system_id":"levelo_inurba_marseille","lat":43.2952,"lon":5.39061,"is_reserved":false,"is_disabled":false,"rental_uris":{"android":"levelo://app?vid=38eae407-6f6a-449e-a1fd-ed14cde8f96c","ios":"levelo://app?vid=38eae407-6f6a-449e-a1fd-ed14cde8f96c"},"vehicle_type_id":"4","last_reported":1729876105,"current_range_meters":27600,"station_id":"ce4bh3p2rcd13ifvqdp0","pricing_plan_id":"cebpf4jnsgd1na2vs0mg"},{"bike_id":"58ba8ad7-7b0a-4f7b-bee1-79b9bdc0a2d6","system_id":"levelo_inurba_marseille","lat":43.29875,"lon":5.38921,"is_reserved":false,"is_disabled":false,"rental_uris":{"android":"levelo://app?vid=58ba8ad7-7b0a-4f7b-bee1-79b9bdc0a2d6","ios":"levelo://app?vid=58ba8ad7-7b0a-4f7b-bee1-79b9bdc0a2d6"},"vehicle_type_id":"4","last_reported":1729876105,"current_range_meters":28400,"station_id":"ce4bh392rcd13ifvqdl0","pricing_plan_id":"cebpf4jnsgd1na2vs0mg"},{"bike_id":"19bd8ade-2c53-47ee-9430-afe5409ecd59","system_id":"levelo_inurba_marseille","lat":43.29873,"lon":5.39742,"is_reserved":false,"is_disabled":false,"rental_uris":{"android":"levelo://app?vid=19bd8ade-2c53-47ee-9430-afe5409ecd59","ios":"levelo://app?vid=19bd8ade-2c53-47ee-9430-afe5409ecd59"},"vehicle_type_id":"4","last_reported":1729876105,"current_range_meters":24800,"station_id":"ce4bh0h2rcd13ifvqd50","pricing_plan_id":"cebpf4jnsgd1na2vs0mg"},{"bike_id":"bcda6906-af89-4f90-ba9f-214f2a265449","system_id":"levelo_inurba_marseille","lat":43.29292,"lon":5.37429,"is_reserved":false,"is_disabled":false,"rental_uris":{"android":"levelo://app?vid=bcda6906-af89-4f90-ba9f-214f2a265449","ios":"levelo://app?vid=bcda6906-af89-4f90-ba9f-214f2a265449"},"vehicle_type_id":"4","last_reported":1729876105,"current_range_meters":39200,"station_id":"ce4bgi12rcd13ifvqb70","pricing_plan_id":"cebpf4jnsgd1na2vs0mg"},{"bike_id":"4251a455-6a51-4266-a828-feb5d7a95895","system_id":"levelo_inurba_marseille","lat":43.27065,"lon":5.42282,"is_reserved":false,"is_disabled":false,"rental_uris":{"android":"levelo://app?vid=4251a455-6a51-4266-a828-feb5d7a95895","ios":"levelo://app?vid=4251a455-6a51-4266-a828-feb5d7a95895"},"vehicle_type_id":"4","last_reported":1729876105,"current_range_meters":38800,"station_id":"ce4bhk92rcd13ifvqgb0","pricing_plan_id":"cebpf4jnsgd1na2vs0mg"},{"bike_id":"b69629f5-3119-4609-ab12-4016242cb5ca","system_id":"levelo_inurba_marseille","lat":43.27071,"lon":5.42274,"is_reserved":false,"is_disabled":false,"rental_uris":{"android":"levelo://app?vid=b69629f5-3119-4609-ab12-4016242cb5ca","ios":"levelo://app?vid=b69629f5-3119-4609-ab12-4016242cb5ca"},"vehicle_type_id":"4","last_reported":1729876105,"current_range_meters":39200,"station_id":"ce4bhk92rcd13ifvqgb0","pricing_plan_id":"cebpf4jnsgd1na2vs0mg"},{"bike_id":"a177cf92-fe46-44a6-8fe0-6df07ad8a3cd","system_id":"levelo_inurba_marseille","lat":43.2707,"lon":5.42282,"is_reserved":false,"is_disabled":false,"rental_uris":{"android":"levelo://app?vid=a177cf92-fe46-44a6-8fe0-6df07ad8a3cd","ios":"levelo://app?vid=a177cf92-fe46-44a6-8fe0-6df07ad8a3cd"},"vehicle_type_id":"4","last_reported":1729876105,"current_range_meters":34000,"station_id":"ce4bhk92rcd13ifvqgb0","pricing_plan_id":"cebpf4jnsgd1na2vs0mg"},{"bike_id":"e710fa27-a390-4b2e-87fd-fd506a463538","system_id":"levelo_inurba_marseille","lat":43.29871,"lon":5.38908,"is_reserved":false,"is_disabled":false,"rental_uris":{"android":"levelo://app?vid=e710fa27-a390-4b2e-87fd-fd506a463538","ios":"levelo://app?vid=e710fa27-a390-4b2e-87fd-fd506a463538"},"vehicle_type_id":"4","last_reported":1729876105,"current_range_meters":31200,"station_id":"ce4bh392rcd13ifvqdl0","pricing_plan_id":"cebpf4jnsgd1na2vs0mg"},{"bike_id":"f3f80cb7-6a0d-4b5f-ae20-fb853afe3597","system_id":"levelo_inurba_marseille","lat":43.29007,"lon":5.35612,"is_reserved":false,"is_disabled":false,"rental_uris":{"android":"levelo://app?vid=f3f80cb7-6a0d-4b5f-ae20-fb853afe3597","ios":"levelo://app?vid=f3f80cb7-6a0d-4b5f-ae20-fb853afe3597"},"vehicle_type_id":"4","last_reported":1729876105,"current_range_meters":22400,"station_id":"ce4bhb92rcd13ifvqen0","pricing_plan_id":"cebpf4jnsgd1na2vs0mg"},{"bike_id":"31a57b9e-7abd-4c71-9f8a-04706c493db6","system_id":"levelo_inurba_marseille","lat":43.29581,"lon":5.3674,"is_reserved":false,"is_disabled":false,"rental_uris":{"android":"levelo://app?vid=31a57b9e-7abd-4c71-9f8a-04706c493db6","ios":"levelo://app?vid=31a57b9e-7abd-4c71-9f8a-04706c493db6"},"vehicle_type_id":"4","last_reported":1729876105,"current_range_meters":10800,"station_id":"ce4bgph2rcd13ifvqc2g","pricing_plan_id":"cebpf4jnsgd1na2vs0mg"},{"bike_id":"f68f9a5d-9f6f-4e9b-a260-c646a873f52f","system_id":"levelo_inurba_marseille","lat":43.2481,"lon":5.37459,"is_reserved":false,"is_disabled":false,"rental_uris":{"android":"levelo://app?vid=f68f9a5d-9f6f-4e9b-a260-c646a873f52f","ios":"levelo://app?vid=f68f9a5d-9f6f-4e9b-a260-c646a873f52f"},"vehicle_type_id":"4","last_reported":1729876105,"current_range_meters":38400,"station_id":"ce4bhgh2rcd13ifvqfb0","pricing_plan_id":"cebpf4jnsgd1na2vs0mg"},{"bike_id":"8b34db6e-7ac5-421b-8140-e12375d73aa9","system_id":"levelo_inurba_marseille","lat":43.29528,"lon":5.38547,"is_reserved":false,"is_disabled":false,"rental_uris":{"android":"levelo://app?vid=8b34db6e-7ac5-421b-8140-e12375d73aa9","ios":"levelo://app?vid=8b34db6e-7ac5-421b-8140-e12375d73aa9"},"vehicle_type_id":"4","last_reported":1729876105,"current_range_meters":26000,"station_id":"ce4bgih2rcd13ifvqba0","pricing_plan_id":"cebpf4jnsgd1na2vs0mg"},{"bike_id":"c7397917-ecbe-40af-b69b-093ada4bcf72","system_id":"levelo_inurba_marseille","lat":43.27071,"lon":5.42284,"is_reserved":false,"is_disabled":false,"rental_uris":{"android":"levelo://app?vid=c7397917-ecbe-40af-b69b-093ada4bcf72","ios":"levelo://app?vid=c7397917-ecbe-40af-b69b-093ada4bcf72"},"vehicle_type_id":"4","last_reported":1729876105,"current_range_meters":16000,"station_id":"ce4bhk92rcd13ifvqgb0","pricing_plan_id":"cebpf4jnsgd1na2vs0mg"},{"bike_id":"5cb85d9c-60c3-49d6-880e-d28f94107201","system_id":"levelo_inurba_marseille","lat":43.28926,"lon":5.36644,"is_reserved":false,"is_disabled":false,"rental_uris":{"android":"levelo://app?vid=5cb85d9c-60c3-49d6-880e-d28f94107201","ios":"levelo://app?vid=5cb85d9c-60c3-49d6-880e-d28f94107201"},"vehicle_type_id":"4","last_reported":1729876105,"current_range_meters":14800,"station_id":"ce4bhap2rcd13ifvqek0","pricing_plan_id":"cebpf4jnsgd1na2vs0mg"},{"bike_id":"a64b3754-53de-42eb-978d-641562e11181","system_id":"levelo_inurba_marseille","lat":43.25717,"lon":5.41106,"is_reserved":false,"is_disabled":false,"rental_uris":{"android":"levelo://app?vid=a64b3754-53de-42eb-978d-641562e11181","ios":"levelo://app?vid=a64b3754-53de-42eb-978d-641562e11181"},"vehicle_type_id":"4","last_reported":1729876105,"current_range_meters":20800,"station_id":"ce4bhkp2rcd13ifvqgd0","pricing_plan_id":"cebpf4jnsgd1na2vs0mg"},{"bike_id":"abecc21c-4a29-433f-85dd-76d259461fd8","system_id":"levelo_inurba_marseille","lat":43.2572,"lon":5.41111,"is_reserved":false,"is_disabled":false,"rental_uris":{"android":"levelo://app?vid=abecc21c-4a29-433f-85dd-76d259461fd8","ios":"levelo://app?vid=abecc21c-4a29-433f-85dd-76d259461fd8"},"vehicle_type_id":"4","last_reported":1729876105,"current_range_meters":6000,"station_id":"ce4bhkp2rcd13ifvqgd0","pricing_plan_id":"cebpf4jnsgd1na2vs0mg"},{"bike_id":"3ddf3b01-aa75-4df3-b74b-ffa67b6f15f3","system_id":"levelo_inurba_marseille","lat":43.29024,"lon":5.35936,"is_reserved":false,"is_disabled":false,"rental_uris":{"android":"levelo://app?vid=3ddf3b01-aa75-4df3-b74b-ffa67b6f15f3","ios":"levelo://app?vid=3ddf3b01-aa75-4df3-b74b-ffa67b6f15f3"},"vehicle_type_id":"4","last_reported":1729876105,"current_range_meters":38800,"station_id":"ce4bha92rcd13ifvqeg0","pricing_plan_id":"cebpf4jnsgd1na2vs0mg"},{"bike_id":"93364215-c209-4952-a0e2-e7893a5f3561","system_id":"levelo_inurba_marseille","lat":43.29438,"lon":5.39741,"is_reserved":false,"is_disabled":false,"rental_uris":{"android":"levelo://app?vid=93364215-c209-4952-a0e2-e7893a5f3561","ios":"levelo://app?vid=93364215-c209-4952-a0e2-e7893a5f3561"},"vehicle_type_id":"4","last_reported":1729876105,"current_range_meters":10000,"station_id":"ce4bh3h2rcd13ifvqdo0","pricing_plan_id":"cebpf4jnsgd1na2vs0mg"},{"bike_id":"ce2cb49c-a74f-4737-bbb0-cdb319686fbd","system_id":"levelo_inurba_marseille","lat":43.29285,"lon":5.37466,"is_reserved":false,"is_disabled":false,"rental_uris":{"android":"levelo://app?vid=ce2cb49c-a74f-4737-bbb0-cdb319686fbd","ios":"levelo://app?vid=ce2cb49c-a74f-4737-bbb0-cdb319686fbd"},"vehicle_type_id":"4","last_reported":1729876105,"current_range_meters":30800,"station_id":"ce4bgi12rcd13ifvqb70","pricing_plan_id":"cebpf4jnsgd1na2vs0mg"},{"bike_id":"0150770a-44df-41f9-8231-b77640329392","system_id":"levelo_inurba_marseille","lat":43.28717,"lon":5.37946,"is_reserved":false,"is_disabled":false,"rental_uris":{"android":"levelo://app?vid=0150770a-44df-41f9-8231-b77640329392","ios":"levelo://app?vid=0150770a-44df-41f9-8231-b77640329392"},"vehicle_type_id":"4","last_reported":1729876105,"current_range_meters":19600,"station_id":"ce4bh9p2rcd13ifvqec0","pricing_plan_id":"cebpf4jnsgd1na2vs0mg"},{"bike_id":"bd995abb-12e7-47a6-b0b9-e1f25439576a","system_id":"levelo_inurba_marseille","lat":43.24998,"lon":5.3893,"is_reserved":false,"is_disabled":false,"rental_uris":{"android":"levelo://app?vid=bd995abb-12e7-47a6-b0b9-e1f25439576a","ios":"levelo://app?vid=bd995abb-12e7-47a6-b0b9-e1f25439576a"},"vehicle_type_id":"4","last_reported":1729876105,"current_range_meters":40000,"station_id":"ce4bhgp2rcd13ifvqfd0","pricing_plan_id":"cebpf4jnsgd1na2vs0mg"},{"bike_id":"993213e6-6063-466a-bdfd-588dc3c51d3c","system_id":"levelo_inurba_marseille","lat":43.2842,"lon":5.34996,"is_reserved":false,"is_disabled":false,"rental_uris":{"android":"levelo://app?vid=993213e6-6063-466a-bdfd-588dc3c51d3c","ios":"levelo://app?vid=993213e6-6063-466a-bdfd-588dc3c51d3c"},"vehicle_type_id":"4","last_reported":1729876105,"current_range_meters":38800,"station_id":"ce4bhbh2rcd13ifvqepg","pricing_plan_id":"cebpf4jnsgd1na2vs0mg"},{"bike_id":"44460db4-113d-4331-9546-a5ed508f442d","system_id":"levelo_inurba_marseille","lat":43.29253,"lon":5.38441,"is_reserved":false,"is_disabled":false,"rental_uris":{"android":"levelo://app?vid=44460db4-113d-4331-9546-a5ed508f442d","ios":"levelo://app?vid=44460db4-113d-4331-9546-a5ed508f442d"},"vehicle_type_id":"4","last_reported":1729876105,"current_range_meters":25200,"station_id":"ce4bh692rcd13ifvqea0","pricing_plan_id":"cebpf4jnsgd1na2vs0mg"},{"bike_id":"43e0342e-7c69-4ef3-9959-2e5c770bab9f","system_id":"levelo_inurba_marseille","lat":43.22937,"lon":5.35381,"is_reserved":false,"is_disabled":false,"rental_uris":{"android":"levelo://app?vid=43e0342e-7c69-4ef3-9959-2e5c770bab9f","ios":"levelo://app?vid=43e0342e-7c69-4ef3-9959-2e5c770bab9f"},"vehicle_type_id":"4","last_reported":1729876105,"current_range_meters":17600,"station_id":"cpo3532slgdg3j2ikp40","pricing_plan_id":"cebpf4jnsgd1na2vs0mg"},{"bike_id":"14dfd852-0811-4093-89e1-ccd90e53d352","system_id":"levelo_inurba_marseille","lat":43.29973,"lon":5.38498,"is_reserved":false,"is_disabled":false,"rental_uris":{"android":"levelo://app?vid=14dfd852-0811-4093-89e1-ccd90e53d352","ios":"levelo://app?vid=14dfd852-0811-4093-89e1-ccd90e53d352"},"vehicle_type_id":"4","last_reported":1729876105,"current_range_meters":15200,"station_id":"ce4bgj92rcd13ifvqbd0","pricing_plan_id":"cebpf4jnsgd1na2vs0mg"},{"bike_id":"e81503b8-7e9d-4d30-bb14-8fb6f403a93d","system_id":"levelo_inurba_marseille","lat":43.29516,"lon":5.39039,"is_reserved":false,"is_disabled":false,"rental_uris":{"android":"levelo://app?vid=e81503b8-7e9d-4d30-bb14-8fb6f403a93d","ios":"levelo://app?vid=e81503b8-7e9d-4d30-bb14-8fb6f403a93d"},"vehicle_type_id":"4","last_reported":1729876105,"current_range_meters":19600,"station_id":"ce4bh3p2rcd13ifvqdp0","pricing_plan_id":"cebpf4jnsgd1na2vs0mg"},{"bike_id":"6daee877-12e2-4b05-bcc4-e3d93a217641","system_id":"levelo_inurba_marseille","lat":43.28482,"lon":5.38421,"is_reserved":false,"is_disabled":false,"rental_uris":{"android":"levelo://app?vid=6daee877-12e2-4b05-bcc4-e3d93a217641","ios":"levelo://app?vid=6daee877-12e2-4b05-bcc4-e3d93a217641"},"vehicle_type_id":"4","last_reported":1729876105,"current_range_meters":36000,"station_id":"ce4bh512rcd13ifvqe3g","pricing_plan_id":"cebpf4jnsgd1na2vs0mg"},{"bike_id":"69c50a7a-8960-41bd-bcf6-67af981ebe82","system_id":"levelo_inurba_marseille","lat":43.28851,"lon":5.35848,"is_reserved":false,"is_disabled":false,"rental_uris":{"android":"levelo://app?vid=69c50a7a-8960-41bd-bcf6-67af981ebe82","ios":"levelo://app?vid=69c50a7a-8960-41bd-bcf6-67af981ebe82"},"vehicle_type_id":"4","last_reported":1729876105,"current_range_meters":36800,"station_id":"ce4bhb12rcd13ifvqem0","pricing_plan_id":"cebpf4jnsgd1na2vs0mg"},{"bike_id":"aa0d9f17-344a-4b42-869f-e560cb5e4be8","system_id":"levelo_inurba_marseille","lat":43.29193,"lon":5.3581,"is_reserved":false,"is_disabled":false,"rental_uris":{"android":"levelo://app?vid=aa0d9f17-344a-4b42-869f-e560cb5e4be8","ios":"levelo://app?vid=aa0d9f17-344a-4b42-869f-e560cb5e4be8"},"vehicle_type_id":"4","last_reported":1729876105,"current_range_meters":15200,"station_id":"ce4bhb12rcd13ifvqel0","pricing_plan_id":"cebpf4jnsgd1na2vs0mg"},{"bike_id":"bf1f917d-6fa9-4a2e-afa1-a39c1e7f64cd","system_id":"levelo_inurba_marseille","lat":43.28407,"lon":5.34989,"is_reserved":false,"is_disabled":false,"rental_uris":{"android":"levelo://app?vid=bf1f917d-6fa9-4a2e-afa1-a39c1e7f64cd","ios":"levelo://app?vid=bf1f917d-6fa9-4a2e-afa1-a39c1e7f64cd"},"vehicle_type_id":"4","last_reported":1729876105,"current_range_meters":38000,"station_id":"ce4bhbh2rcd13ifvqepg","pricing_plan_id":"cebpf4jnsgd1na2vs0mg"},{"bike_id":"365a5e76-e012-4983-b8a9-1a07480bde83","system_id":"levelo_inurba_marseille","lat":43.23194,"lon":5.35548,"is_reserved":false,"is_disabled":false,"rental_uris":{"android":"levelo://app?vid=365a5e76-e012-4983-b8a9-1a07480bde83","ios":"levelo://app?vid=365a5e76-e012-4983-b8a9-1a07480bde83"},"vehicle_type_id":"4","last_reported":1729876105,"current_range_meters":39200,"station_id":"ce4bhu92rcd13ifvqi70","pricing_plan_id":"cebpf4jnsgd1na2vs0mg"},{"bike_id":"8ddd7c29-e9c7-4165-99db-f296afe27a8a","system_id":"levelo_inurba_marseille","lat":43.27936,"lon":5.41055,"is_reserved":false,"is_disabled":false,"rental_uris":{"android":"levelo://app?vid=8ddd7c29-e9c7-4165-99db-f296afe27a8a","ios":"levelo://app?vid=8ddd7c29-e9c7-4165-99db-f296afe27a8a"},"vehicle_type_id":"4","last_reported":1729876105,"current_range_meters":31200,"station_id":"ce4bhnp2rcd13ifvqh0g","pricing_plan_id":"cebpf4jnsgd1na2vs0mg"},{"bike_id":"96cdd95e-3482-4a43-addc-7928483a6278","system_id":"levelo_inurba_marseille","lat":43.23186,"lon":5.35553,"is_reserved":false,"is_disabled":false,"rental_uris":{"android":"levelo://app?vid=96cdd95e-3482-4a43-addc-7928483a6278","ios":"levelo://app?vid=96cdd95e-3482-4a43-addc-7928483a6278"},"vehicle_type_id":"4","last_reported":1729876105,"current_range_meters":24000,"station_id":"ce4bhu92rcd13ifvqi70","pricing_plan_id":"cebpf4jnsgd1na2vs0mg"},{"bike_id":"004ef4d9-4218-49aa-8450-5a662b0b1242","system_id":"levelo_inurba_marseille","lat":43.292664,"lon":5.408859,"is_reserved":false,"is_disabled":false,"rental_uris":{"android":"levelo://app?vid=004ef4d9-4218-49aa-8450-5a662b0b1242","ios":"levelo://app?vid=004ef4d9-4218-49aa-8450-5a662b0b1242"},"vehicle_type_id":"4","last_reported":1729876105,"current_range_meters":35600,"station_id":"ce4bgup2rcd13ifvqco0","pricing_plan_id":"cebpf4jnsgd1na2vs0mg"},{"bike_id":"25b56222-17a5-40f4-b2d7-0f34167f9053","system_id":"levelo_inurba_marseille","lat":43.29537,"lon":5.38547,"is_reserved":false,"is_disabled":false,"rental_uris":{"android":"levelo://app?vid=25b56222-17a5-40f4-b2d7-0f34167f9053","ios":"levelo://app?vid=25b56222-17a5-40f4-b2d7-0f34167f9053"},"vehicle_type_id":"4","last_reported":1729876105,"current_range_meters":19200,"station_id":"ce4bgih2rcd13ifvqba0","pricing_plan_id":"cebpf4jnsgd1na2vs0mg"},{"bike_id":"d83e26fc-5d77-4673-9323-237936ced642","system_id":"levelo_inurba_marseille","lat":43.28149,"lon":5.42648,"is_reserved":false,"is_disabled":false,"rental_uris":{"android":"levelo://app?vid=d83e26fc-5d77-4673-9323-237936ced642","ios":"levelo://app?vid=d83e26fc-5d77-4673-9323-237936ced642"},"vehicle_type_id":"4","last_reported":1729876105,"current_range_meters":18800,"station_id":"ce4bhnh2rcd13ifvqgug","pricing_plan_id":"cebpf4jnsgd1na2vs0mg"},{"bike_id":"647342ab-0a44-4716-b302-8406c6ee5b4e","system_id":"levelo_inurba_marseille","lat":43.26215,"lon":5.37445,"is_reserved":false,"is_disabled":false,"rental_uris":{"android":"levelo://app?vid=647342ab-0a44-4716-b302-8406c6ee5b4e","ios":"levelo://app?vid=647342ab-0a44-4716-b302-8406c6ee5b4e"},"vehicle_type_id":"4","last_reported":1729876105,"current_range_meters":10800,"station_id":"ce4bhgp2rcd13ifvqfc0","pricing_plan_id":"cebpf4jnsgd1na2vs0mg"},{"bike_id":"79bccba7-f8c9-4258-8dad-fe372a9b3439","system_id":"levelo_inurba_marseille","lat":43.287476,"lon":5.361595,"is_reserved":false,"is_disabled":false,"rental_uris":{"android":"levelo://app?vid=79bccba7-f8c9-4258-8dad-fe372a9b3439","ios":"levelo://app?vid=79bccba7-f8c9-4258-8dad-fe372a9b3439"},"vehicle_type_id":"4","last_reported":1729876105,"current_range_meters":18800,"station_id":"cki0cbj6b192h4jlfktg","pricing_plan_id":"cebpf4jnsgd1na2vs0mg"},{"bike_id":"0b1f8152-fa24-402f-b2cf-4a0283d5698f","system_id":"levelo_inurba_marseille","lat":43.29422,"lon":5.38623,"is_reserved":false,"is_disabled":false,"rental_uris":{"android":"levelo://app?vid=0b1f8152-fa24-402f-b2cf-4a0283d5698f","ios":"levelo://app?vid=0b1f8152-fa24-402f-b2cf-4a0283d5698f"},"vehicle_type_id":"4","last_reported":1729876105,"current_range_meters":38000,"station_id":"ce4bh2h2rcd13ifvqdh0","pricing_plan_id":"cebpf4jnsgd1na2vs0mg"},{"bike_id":"4b8dee7b-a7a4-4c73-b4f2-a7acef859f85","system_id":"levelo_inurba_marseille","lat":43.29533,"lon":5.38548,"is_reserved":false,"is_disabled":false,"rental_uris":{"android":"levelo://app?vid=4b8dee7b-a7a4-4c73-b4f2-a7acef859f85","ios":"levelo://app?vid=4b8dee7b-a7a4-4c73-b4f2-a7acef859f85"},"vehicle_type_id":"4","last_reported":1729876105,"current_range_meters":28400,"station_id":"ce4bgih2rcd13ifvqba0","pricing_plan_id":"cebpf4jnsgd1na2vs0mg"},{"bike_id":"71cda5a0-571c-4b08-8476-48efcbdc28b3","system_id":"levelo_inurba_marseille","lat":43.24656,"lon":5.38173,"is_reserved":false,"is_disabled":false,"rental_uris":{"android":"levelo://app?vid=71cda5a0-571c-4b08-8476-48efcbdc28b3","ios":"levelo://app?vid=71cda5a0-571c-4b08-8476-48efcbdc28b3"},"vehicle_type_id":"4","last_reported":1729876105,"current_range_meters":7200,"station_id":"ce4bhih2rcd13ifvqfr0","pricing_plan_id":"cebpf4jnsgd1na2vs0mg"},{"bike_id":"bbf6b714-457a-41ca-8d06-8e3f27e69f3d","system_id":"levelo_inurba_marseille","lat":43.31391,"lon":5.38502,"is_reserved":false,"is_disabled":false,"rental_uris":{"android":"levelo://app?vid=bbf6b714-457a-41ca-8d06-8e3f27e69f3d","ios":"levelo://app?vid=bbf6b714-457a-41ca-8d06-8e3f27e69f3d"},"vehicle_type_id":"4","last_reported":1729876105,"current_range_meters":39200,"station_id":"ce4bgt92rcd13ifvqcf0","pricing_plan_id":"cebpf4jnsgd1na2vs0mg"},{"bike_id":"d47125da-5cc2-4649-b5a8-242a91be0c50","system_id":"levelo_inurba_marseille","lat":43.30535,"lon":5.38435,"is_reserved":false,"is_disabled":false,"rental_uris":{"android":"levelo://app?vid=d47125da-5cc2-4649-b5a8-242a91be0c50","ios":"levelo://app?vid=d47125da-5cc2-4649-b5a8-242a91be0c50"},"vehicle_type_id":"4","last_reported":1729876105,"current_range_meters":34000,"station_id":"ce4bgg92rcd13ifvqb30","pricing_plan_id":"cebpf4jnsgd1na2vs0mg"},{"bike_id":"1d7cee0a-edfe-4412-a5fb-9fe5e33bf805","system_id":"levelo_inurba_marseille","lat":43.25491,"lon":5.37653,"is_reserved":false,"is_disabled":false,"rental_uris":{"android":"levelo://app?vid=1d7cee0a-edfe-4412-a5fb-9fe5e33bf805","ios":"levelo://app?vid=1d7cee0a-edfe-4412-a5fb-9fe5e33bf805"},"vehicle_type_id":"4","last_reported":1729876105,"current_range_meters":31200,"station_id":"ce4bhh12rcd13ifvqff0","pricing_plan_id":"cebpf4jnsgd1na2vs0mg"},{"bike_id":"1861a06a-0091-4d01-8e5c-4818a3031352","system_id":"levelo_inurba_marseille","lat":43.29907,"lon":5.37481,"is_reserved":false,"is_disabled":false,"rental_uris":{"android":"levelo://app?vid=1861a06a-0091-4d01-8e5c-4818a3031352","ios":"levelo://app?vid=1861a06a-0091-4d01-8e5c-4818a3031352"},"vehicle_type_id":"4","last_reported":1729876105,"current_range_meters":20800,"station_id":"ce4bgjh2rcd13ifvqbg0","pricing_plan_id":"cebpf4jnsgd1na2vs0mg"},{"bike_id":"929540a6-e7d1-4722-930e-3ca796213ba0","system_id":"levelo_inurba_marseille","lat":43.29516,"lon":5.3905,"is_reserved":false,"is_disabled":false,"rental_uris":{"android":"levelo://app?vid=929540a6-e7d1-4722-930e-3ca796213ba0","ios":"levelo://app?vid=929540a6-e7d1-4722-930e-3ca796213ba0"},"vehicle_type_id":"4","last_reported":1729876105,"current_range_meters":16000,"station_id":"ce4bh3p2rcd13ifvqdp0","pricing_plan_id":"cebpf4jnsgd1na2vs0mg"},{"bike_id":"87a8630c-661f-47af-ba8e-870355648b01","system_id":"levelo_inurba_marseille","lat":43.29535,"lon":5.38543,"is_reserved":false,"is_disabled":false,"rental_uris":{"android":"levelo://app?vid=87a8630c-661f-47af-ba8e-870355648b01","ios":"levelo://app?vid=87a8630c-661f-47af-ba8e-870355648b01"},"vehicle_type_id":"4","last_reported":1729876105,"current_range_meters":8800,"station_id":"ce4bgih2rcd13ifvqba0","pricing_plan_id":"cebpf4jnsgd1na2vs0mg"},{"bike_id":"d5ed5176-eee0-4493-8937-56c9fdfb73fc","system_id":"levelo_inurba_marseille","lat":43.27995,"lon":5.40024,"is_reserved":false,"is_disabled":false,"rental_uris":{"android":"levelo://app?vid=d5ed5176-eee0-4493-8937-56c9fdfb73fc","ios":"levelo://app?vid=d5ed5176-eee0-4493-8937-56c9fdfb73fc"},"vehicle_type_id":"4","last_reported":1729876105,"current_range_meters":28800,"station_id":"ce4bho92rcd13ifvqh4g","pricing_plan_id":"cebpf4jnsgd1na2vs0mg"},{"bike_id":"50489a43-2992-4b61-9909-693e335c7a60","system_id":"levelo_inurba_marseille","lat":43.30134,"lon":5.39863,"is_reserved":false,"is_disabled":false,"rental_uris":{"android":"levelo://app?vid=50489a43-2992-4b61-9909-693e335c7a60","ios":"levelo://app?vid=50489a43-2992-4b61-9909-693e335c7a60"},"vehicle_type_id":"4","last_reported":1729876105,"current_range_meters":6400,"station_id":"ce4bh0h2rcd13ifvqd40","pricing_plan_id":"cebpf4jnsgd1na2vs0mg"},{"bike_id":"d31f933a-cfb5-444d-bcaa-86d7b06b4ec1","system_id":"levelo_inurba_marseille","lat":43.255829,"lon":5.382293,"is_reserved":false,"is_disabled":false,"rental_uris":{"android":"levelo://app?vid=d31f933a-cfb5-444d-bcaa-86d7b06b4ec1","ios":"levelo://app?vid=d31f933a-cfb5-444d-bcaa-86d7b06b4ec1"},"vehicle_type_id":"4","last_reported":1729876105,"current_range_meters":25600,"station_id":"ce4bhih2rcd13ifvqfs0","pricing_plan_id":"cebpf4jnsgd1na2vs0mg"},{"bike_id":"93238605-8ac9-496d-b957-10324a58fa4f","system_id":"levelo_inurba_marseille","lat":43.30125,"lon":5.39866,"is_reserved":false,"is_disabled":false,"rental_uris":{"android":"levelo://app?vid=93238605-8ac9-496d-b957-10324a58fa4f","ios":"levelo://app?vid=93238605-8ac9-496d-b957-10324a58fa4f"},"vehicle_type_id":"4","last_reported":1729876105,"current_range_meters":9600,"station_id":"ce4bh0h2rcd13ifvqd40","pricing_plan_id":"cebpf4jnsgd1na2vs0mg"},{"bike_id":"695004d6-a345-42a8-b2e6-36e1b1adca12","system_id":"levelo_inurba_marseille","lat":43.25005,"lon":5.38919,"is_reserved":false,"is_disabled":false,"rental_uris":{"android":"levelo://app?vid=695004d6-a345-42a8-b2e6-36e1b1adca12","ios":"levelo://app?vid=695004d6-a345-42a8-b2e6-36e1b1adca12"},"vehicle_type_id":"4","last_reported":1729876105,"current_range_meters":24800,"station_id":"ce4bhgp2rcd13ifvqfd0","pricing_plan_id":"cebpf4jnsgd1na2vs0mg"},{"bike_id":"7b8b631b-05a1-4bd7-bbbf-6c9fbfe178ce","system_id":"levelo_inurba_marseille","lat":43.29266,"lon":5.38443,"is_reserved":false,"is_disabled":false,"rental_uris":{"android":"levelo://app?vid=7b8b631b-05a1-4bd7-bbbf-6c9fbfe178ce","ios":"levelo://app?vid=7b8b631b-05a1-4bd7-bbbf-6c9fbfe178ce"},"vehicle_type_id":"4","last_reported":1729876105,"current_range_meters":38800,"station_id":"ce4bh692rcd13ifvqea0","pricing_plan_id":"cebpf4jnsgd1na2vs0mg"},{"bike_id":"680fc5b5-fdce-4140-acfa-c983f765f98c","system_id":"levelo_inurba_marseille","lat":43.28152,"lon":5.42649,"is_reserved":false,"is_disabled":false,"rental_uris":{"android":"levelo://app?vid=680fc5b5-fdce-4140-acfa-c983f765f98c","ios":"levelo://app?vid=680fc5b5-fdce-4140-acfa-c983f765f98c"},"vehicle_type_id":"4","last_reported":1729876105,"current_range_meters":26000,"station_id":"ce4bhnh2rcd13ifvqgug","pricing_plan_id":"cebpf4jnsgd1na2vs0mg"},{"bike_id":"644aee1a-d14d-490d-8103-3808733f7d2c","system_id":"levelo_inurba_marseille","lat":43.249969,"lon":5.389216,"is_reserved":false,"is_disabled":false,"rental_uris":{"android":"levelo://app?vid=644aee1a-d14d-490d-8103-3808733f7d2c","ios":"levelo://app?vid=644aee1a-d14d-490d-8103-3808733f7d2c"},"vehicle_type_id":"4","last_reported":1729876105,"current_range_meters":20800,"station_id":"ce4bhgp2rcd13ifvqfd0","pricing_plan_id":"cebpf4jnsgd1na2vs0mg"},{"bike_id":"cff001e5-90f6-4c31-b624-0940da4d95d6","system_id":"levelo_inurba_marseille","lat":43.29976,"lon":5.38486,"is_reserved":false,"is_disabled":false,"rental_uris":{"android":"levelo://app?vid=cff001e5-90f6-4c31-b624-0940da4d95d6","ios":"levelo://app?vid=cff001e5-90f6-4c31-b624-0940da4d95d6"},"vehicle_type_id":"4","last_reported":1729876105,"current_range_meters":18800,"station_id":"ce4bgj92rcd13ifvqbd0","pricing_plan_id":"cebpf4jnsgd1na2vs0mg"},{"bike_id":"2b55f8de-5f3b-44f1-b505-afcb59d4dc41","system_id":"levelo_inurba_marseille","lat":43.28073,"lon":5.39664,"is_reserved":false,"is_disabled":false,"rental_uris":{"android":"levelo://app?vid=2b55f8de-5f3b-44f1-b505-afcb59d4dc41","ios":"levelo://app?vid=2b55f8de-5f3b-44f1-b505-afcb59d4dc41"},"vehicle_type_id":"4","last_reported":1729876105,"current_range_meters":5600,"station_id":"ce4bho12rcd13ifvqh2g","pricing_plan_id":"cebpf4jnsgd1na2vs0mg"},{"bike_id":"58452de1-b4eb-46a9-afa8-4f668a6ba2cd","system_id":"levelo_inurba_marseille","lat":43.29545,"lon":5.42297,"is_reserved":false,"is_disabled":false,"rental_uris":{"android":"levelo://app?vid=58452de1-b4eb-46a9-afa8-4f668a6ba2cd","ios":"levelo://app?vid=58452de1-b4eb-46a9-afa8-4f668a6ba2cd"},"vehicle_type_id":"4","last_reported":1729876105,"current_range_meters":14800,"station_id":"ce4bhph2rcd13ifvqhdg","pricing_plan_id":"cebpf4jnsgd1na2vs0mg"},{"bike_id":"53058b10-7c79-43f4-963c-3acc4edad4eb","system_id":"levelo_inurba_marseille","lat":43.28416,"lon":5.34978,"is_reserved":false,"is_disabled":false,"rental_uris":{"android":"levelo://app?vid=53058b10-7c79-43f4-963c-3acc4edad4eb","ios":"levelo://app?vid=53058b10-7c79-43f4-963c-3acc4edad4eb"},"vehicle_type_id":"4","last_reported":1729876105,"current_range_meters":38800,"station_id":"ce4bhbh2rcd13ifvqepg","pricing_plan_id":"cebpf4jnsgd1na2vs0mg"},{"bike_id":"88940b65-1b2e-4755-9259-0df390493f52","system_id":"levelo_inurba_marseille","lat":43.300842,"lon":5.371187,"is_reserved":false,"is_disabled":false,"rental_uris":{"android":"levelo://app?vid=88940b65-1b2e-4755-9259-0df390493f52","ios":"levelo://app?vid=88940b65-1b2e-4755-9259-0df390493f52"},"vehicle_type_id":"4","last_reported":1729876105,"current_range_meters":35200,"station_id":"ce4bgr92rcd13ifvqc7g","pricing_plan_id":"cebpf4jnsgd1na2vs0mg"},{"bike_id":"d913e464-44d7-415a-809c-7925f19bf8b3","system_id":"levelo_inurba_marseille","lat":43.3172,"lon":5.42396,"is_reserved":false,"is_disabled":false,"rental_uris":{"android":"levelo://app?vid=d913e464-44d7-415a-809c-7925f19bf8b3","ios":"levelo://app?vid=d913e464-44d7-415a-809c-7925f19bf8b3"},"vehicle_type_id":"4","last_reported":1729876105,"current_range_meters":24400,"station_id":"ce4bhp92rcd13ifvqhbg","pricing_plan_id":"cebpf4jnsgd1na2vs0mg"},{"bike_id":"bedea2dc-3837-4db3-9887-9f1bc3a849ca","system_id":"levelo_inurba_marseille","lat":43.29198,"lon":5.39324,"is_reserved":false,"is_disabled":false,"rental_uris":{"android":"levelo://app?vid=bedea2dc-3837-4db3-9887-9f1bc3a849ca","ios":"levelo://app?vid=bedea2dc-3837-4db3-9887-9f1bc3a849ca"},"vehicle_type_id":"4","last_reported":1729876105,"current_range_meters":32400,"station_id":"ce4bh192rcd13ifvqdd0","pricing_plan_id":"cebpf4jnsgd1na2vs0mg"},{"bike_id":"819bae78-d577-428b-a85d-aaec5b70f756","system_id":"levelo_inurba_marseille","lat":43.30326,"lon":5.40447,"is_reserved":false,"is_disabled":false,"rental_uris":{"android":"levelo://app?vid=819bae78-d577-428b-a85d-aaec5b70f756","ios":"levelo://app?vid=819bae78-d577-428b-a85d-aaec5b70f756"},"vehicle_type_id":"4","last_reported":1729876105,"current_range_meters":17200,"station_id":"ce4bh012rcd13ifvqd10","pricing_plan_id":"cebpf4jnsgd1na2vs0mg"},{"bike_id":"57d07c83-7ef8-425e-8784-e24aa4aaccc5","system_id":"levelo_inurba_marseille","lat":43.25003,"lon":5.38925,"is_reserved":false,"is_disabled":false,"rental_uris":{"android":"levelo://app?vid=57d07c83-7ef8-425e-8784-e24aa4aaccc5","ios":"levelo://app?vid=57d07c83-7ef8-425e-8784-e24aa4aaccc5"},"vehicle_type_id":"4","last_reported":1729876105,"current_range_meters":38400,"station_id":"ce4bhgp2rcd13ifvqfd0","pricing_plan_id":"cebpf4jnsgd1na2vs0mg"},{"bike_id":"3282e3f7-2517-46c8-911e-9cbe90e77af1","system_id":"levelo_inurba_marseille","lat":43.30585,"lon":5.39358,"is_reserved":false,"is_disabled":false,"rental_uris":{"android":"levelo://app?vid=3282e3f7-2517-46c8-911e-9cbe90e77af1","ios":"levelo://app?vid=3282e3f7-2517-46c8-911e-9cbe90e77af1"},"vehicle_type_id":"4","last_reported":1729876105,"current_range_meters":6000,"station_id":"ce4bh0p2rcd13ifvqd80","pricing_plan_id":"cebpf4jnsgd1na2vs0mg"},{"bike_id":"5f34afad-4783-4912-87a1-e19336828274","system_id":"levelo_inurba_marseille","lat":43.25083,"lon":5.39499,"is_reserved":false,"is_disabled":false,"rental_uris":{"android":"levelo://app?vid=5f34afad-4783-4912-87a1-e19336828274","ios":"levelo://app?vid=5f34afad-4783-4912-87a1-e19336828274"},"vehicle_type_id":"4","last_reported":1729876105,"current_range_meters":4000,"station_id":"ce4bhm12rcd13ifvqgkg","pricing_plan_id":"cebpf4jnsgd1na2vs0mg"},{"bike_id":"3da59c8f-6e35-481e-9eac-1c248f3e843f","system_id":"levelo_inurba_marseille","lat":43.29416,"lon":5.38618,"is_reserved":false,"is_disabled":false,"rental_uris":{"android":"levelo://app?vid=3da59c8f-6e35-481e-9eac-1c248f3e843f","ios":"levelo://app?vid=3da59c8f-6e35-481e-9eac-1c248f3e843f"},"vehicle_type_id":"4","last_reported":1729876105,"current_range_meters":27600,"station_id":"ce4bh2h2rcd13ifvqdh0","pricing_plan_id":"cebpf4jnsgd1na2vs0mg"},{"bike_id":"e8a83e57-d48c-451a-8657-d163d532765d","system_id":"levelo_inurba_marseille","lat":43.30368,"lon":5.41308,"is_reserved":false,"is_disabled":false,"rental_uris":{"android":"levelo://app?vid=e8a83e57-d48c-451a-8657-d163d532765d","ios":"levelo://app?vid=e8a83e57-d48c-451a-8657-d163d532765d"},"vehicle_type_id":"4","last_reported":1729876105,"current_range_meters":24400,"station_id":"ce4bhph2rcd13ifvqhdg","pricing_plan_id":"cebpf4jnsgd1na2vs0mg"},{"bike_id":"a3258a64-b278-410c-bf11-a488f9b8e423","system_id":"levelo_inurba_marseille","lat":43.28465,"lon":5.35877,"is_reserved":false,"is_disabled":false,"rental_uris":{"android":"levelo://app?vid=a3258a64-b278-410c-bf11-a488f9b8e423","ios":"levelo://app?vid=a3258a64-b278-410c-bf11-a488f9b8e423"},"vehicle_type_id":"4","last_reported":1729876105,"current_range_meters":37600,"station_id":"ce4bhah2rcd13ifvqei0","pricing_plan_id":"cebpf4jnsgd1na2vs0mg"},{"bike_id":"ed6713bc-d136-41e9-b2cb-4c5e09d9a0dc","system_id":"levelo_inurba_marseille","lat":43.24731,"lon":5.3803,"is_reserved":false,"is_disabled":false,"rental_uris":{"android":"levelo://app?vid=ed6713bc-d136-41e9-b2cb-4c5e09d9a0dc","ios":"levelo://app?vid=ed6713bc-d136-41e9-b2cb-4c5e09d9a0dc"},"vehicle_type_id":"4","last_reported":1729876105,"current_range_meters":17600,"station_id":"","pricing_plan_id":"cebpf4jnsgd1na2vs0mg"},{"bike_id":"84e2cb0f-484a-491b-ae45-6aac51170ed8","system_id":"levelo_inurba_marseille","lat":43.28272,"lon":5.350687,"is_reserved":false,"is_disabled":false,"rental_uris":{"android":"levelo://app?vid=84e2cb0f-484a-491b-ae45-6aac51170ed8","ios":"levelo://app?vid=84e2cb0f-484a-491b-ae45-6aac51170ed8"},"vehicle_type_id":"4","last_reported":1729876105,"current_range_meters":38800,"station_id":"ce4bhbp2rcd13ifvqerg","pricing_plan_id":"cebpf4jnsgd1na2vs0mg"},{"bike_id":"a01e2841-4097-41c0-9d74-1ac0cab0b75c","system_id":"levelo_inurba_marseille","lat":43.29866,"lon":5.39739,"is_reserved":false,"is_disabled":false,"rental_uris":{"android":"levelo://app?vid=a01e2841-4097-41c0-9d74-1ac0cab0b75c","ios":"levelo://app?vid=a01e2841-4097-41c0-9d74-1ac0cab0b75c"},"vehicle_type_id":"4","last_reported":1729876105,"current_range_meters":16000,"station_id":"ce4bh0h2rcd13ifvqd50","pricing_plan_id":"cebpf4jnsgd1na2vs0mg"},{"bike_id":"1e30ec08-da10-40a6-a36b-412bb4e9f5b7","system_id":"levelo_inurba_marseille","lat":43.31484,"lon":5.37313,"is_reserved":false,"is_disabled":false,"rental_uris":{"android":"levelo://app?vid=1e30ec08-da10-40a6-a36b-412bb4e9f5b7","ios":"levelo://app?vid=1e30ec08-da10-40a6-a36b-412bb4e9f5b7"},"vehicle_type_id":"4","last_reported":1729876105,"current_range_meters":8400,"station_id":"ce4bgt12rcd13ifvqcd0","pricing_plan_id":"cebpf4jnsgd1na2vs0mg"},{"bike_id":"fe734374-6157-4f48-bec1-79cc50582c36","system_id":"levelo_inurba_marseille","lat":43.28416,"lon":5.3752,"is_reserved":false,"is_disabled":false,"rental_uris":{"android":"levelo://app?vid=fe734374-6157-4f48-bec1-79cc50582c36","ios":"levelo://app?vid=fe734374-6157-4f48-bec1-79cc50582c36"},"vehicle_type_id":"4","last_reported":1729876105,"current_range_meters":8000,"station_id":"ce4bh412rcd13ifvqds0","pricing_plan_id":"cebpf4jnsgd1na2vs0mg"},{"bike_id":"e604592b-67a0-4c1d-938b-89f63e756d0c","system_id":"levelo_inurba_marseille","lat":43.31327,"lon":5.39697,"is_reserved":false,"is_disabled":false,"rental_uris":{"android":"levelo://app?vid=e604592b-67a0-4c1d-938b-89f63e756d0c","ios":"levelo://app?vid=e604592b-67a0-4c1d-938b-89f63e756d0c"},"vehicle_type_id":"4","last_reported":1729876105,"current_range_meters":28400,"station_id":"ce4bgvp2rcd13ifvqcu0","pricing_plan_id":"cebpf4jnsgd1na2vs0mg"},{"bike_id":"1296b487-5553-4433-91a2-fa57fa863c98","system_id":"levelo_inurba_marseille","lat":43.231105,"lon":5.35454,"is_reserved":false,"is_disabled":false,"rental_uris":{"android":"levelo://app?vid=1296b487-5553-4433-91a2-fa57fa863c98","ios":"levelo://app?vid=1296b487-5553-4433-91a2-fa57fa863c98"},"vehicle_type_id":"4","last_reported":1729876105,"current_range_meters":13600,"station_id":"ce4bhu92rcd13ifvqi70","pricing_plan_id":"cebpf4jnsgd1na2vs0mg"},{"bike_id":"9485b0f8-d121-42a2-945e-88a67408957c","system_id":"levelo_inurba_marseille","lat":43.28353,"lon":5.38109,"is_reserved":false,"is_disabled":false,"rental_uris":{"android":"levelo://app?vid=9485b0f8-d121-42a2-945e-88a67408957c","ios":"levelo://app?vid=9485b0f8-d121-42a2-945e-88a67408957c"},"vehicle_type_id":"4","last_reported":1729876105,"current_range_meters":35200,"station_id":"ce4bh412rcd13ifvqdr0","pricing_plan_id":"cebpf4jnsgd1na2vs0mg"},{"bike_id":"1f90bfa9-7579-4616-b66b-c944edb36c37","system_id":"levelo_inurba_marseille","lat":43.31481,"lon":5.3731,"is_reserved":false,"is_disabled":false,"rental_uris":{"android":"levelo://app?vid=1f90bfa9-7579-4616-b66b-c944edb36c37","ios":"levelo://app?vid=1f90bfa9-7579-4616-b66b-c944edb36c37"},"vehicle_type_id":"4","last_reported":1729876105,"current_range_meters":14000,"station_id":"ce4bgt12rcd13ifvqcd0","pricing_plan_id":"cebpf4jnsgd1na2vs0mg"},{"bike_id":"97871a69-d4a7-4c4f-98d4-24422f8f1052","system_id":"levelo_inurba_marseille","lat":43.29529,"lon":5.38547,"is_reserved":false,"is_disabled":false,"rental_uris":{"android":"levelo://app?vid=97871a69-d4a7-4c4f-98d4-24422f8f1052","ios":"levelo://app?vid=97871a69-d4a7-4c4f-98d4-24422f8f1052"},"vehicle_type_id":"4","last_reported":1729876105,"current_range_meters":13600,"station_id":"ce4bgih2rcd13ifvqba0","pricing_plan_id":"cebpf4jnsgd1na2vs0mg"},{"bike_id":"c496f2d6-16bc-4951-91ae-5fc5338f6691","system_id":"levelo_inurba_marseille","lat":43.3376,"lon":5.374567,"is_reserved":false,"is_disabled":false,"rental_uris":{"android":"levelo://app?vid=c496f2d6-16bc-4951-91ae-5fc5338f6691","ios":"levelo://app?vid=c496f2d6-16bc-4951-91ae-5fc5338f6691"},"vehicle_type_id":"4","last_reported":1729876105,"current_range_meters":34800,"station_id":"","pricing_plan_id":"cebpf4jnsgd1na2vs0mg"},{"bike_id":"68b53f51-f753-459e-ba94-a3eb53aed965","system_id":"levelo_inurba_marseille","lat":43.29,"lon":5.35614,"is_reserved":false,"is_disabled":false,"rental_uris":{"android":"levelo://app?vid=68b53f51-f753-459e-ba94-a3eb53aed965","ios":"levelo://app?vid=68b53f51-f753-459e-ba94-a3eb53aed965"},"vehicle_type_id":"4","last_reported":1729876105,"current_range_meters":10800,"station_id":"ce4bhb92rcd13ifvqen0","pricing_plan_id":"cebpf4jnsgd1na2vs0mg"},{"bike_id":"aceb03d9-fc9a-4486-8072-6d4c1480ff98","system_id":"levelo_inurba_marseille","lat":43.24649,"lon":5.38896,"is_reserved":false,"is_disabled":false,"rental_uris":{"android":"levelo://app?vid=aceb03d9-fc9a-4486-8072-6d4c1480ff98","ios":"levelo://app?vid=aceb03d9-fc9a-4486-8072-6d4c1480ff98"},"vehicle_type_id":"4","last_reported":1729876105,"current_range_meters":24400,"station_id":"ce4bhg12rcd13ifvqf60","pricing_plan_id":"cebpf4jnsgd1na2vs0mg"},{"bike_id":"39cb15fc-482a-4bbb-934a-d5eb066f3798","system_id":"levelo_inurba_marseille","lat":43.31061,"lon":5.38362,"is_reserved":false,"is_disabled":false,"rental_uris":{"android":"levelo://app?vid=39cb15fc-482a-4bbb-934a-d5eb066f3798","ios":"levelo://app?vid=39cb15fc-482a-4bbb-934a-d5eb066f3798"},"vehicle_type_id":"4","last_reported":1729876105,"current_range_meters":28000,"station_id":"ce4bgv92rcd13ifvqcr0","pricing_plan_id":"cebpf4jnsgd1na2vs0mg"},{"bike_id":"d3035504-3f1a-4fb0-998c-0737b49322a1","system_id":"levelo_inurba_marseille","lat":43.29411,"lon":5.43054,"is_reserved":false,"is_disabled":false,"rental_uris":{"android":"levelo://app?vid=d3035504-3f1a-4fb0-998c-0737b49322a1","ios":"levelo://app?vid=d3035504-3f1a-4fb0-998c-0737b49322a1"},"vehicle_type_id":"4","last_reported":1729876105,"current_range_meters":33600,"station_id":"ce4bh192rcd13ifvqdc0","pricing_plan_id":"cebpf4jnsgd1na2vs0mg"},{"bike_id":"3dae86f0-cff5-40aa-b1ce-9f378dd5474c","system_id":"levelo_inurba_marseille","lat":43.27058,"lon":5.40266,"is_reserved":false,"is_disabled":false,"rental_uris":{"android":"levelo://app?vid=3dae86f0-cff5-40aa-b1ce-9f378dd5474c","ios":"levelo://app?vid=3dae86f0-cff5-40aa-b1ce-9f378dd5474c"},"vehicle_type_id":"4","last_reported":1729876105,"current_range_meters":16000,"station_id":"ce4bhk92rcd13ifvqgc0","pricing_plan_id":"cebpf4jnsgd1na2vs0mg"},{"bike_id":"effef4fd-bb74-4629-9f77-903f2bf6c800","system_id":"levelo_inurba_marseille","lat":43.272649,"lon":5.391919,"is_reserved":false,"is_disabled":false,"rental_uris":{"android":"levelo://app?vid=effef4fd-bb74-4629-9f77-903f2bf6c800","ios":"levelo://app?vid=effef4fd-bb74-4629-9f77-903f2bf6c800"},"vehicle_type_id":"4","last_reported":1729876105,"current_range_meters":30000,"station_id":"ce4bho92rcd13ifvqh4g","pricing_plan_id":"cebpf4jnsgd1na2vs0mg"},{"bike_id":"572fdcc9-9351-4a7a-a347-901eff0b3142","system_id":"levelo_inurba_marseille","lat":43.30559,"lon":5.3655,"is_reserved":false,"is_disabled":false,"rental_uris":{"android":"levelo://app?vid=572fdcc9-9351-4a7a-a347-901eff0b3142","ios":"levelo://app?vid=572fdcc9-9351-4a7a-a347-901eff0b3142"},"vehicle_type_id":"4","last_reported":1729876105,"current_range_meters":9600,"station_id":"ce4bgs12rcd13ifvqcag","pricing_plan_id":"cebpf4jnsgd1na2vs0mg"},{"bike_id":"35c20e1c-2b7c-43b7-816f-1b50bb34fb92","system_id":"levelo_inurba_marseille","lat":43.29528,"lon":5.38543,"is_reserved":false,"is_disabled":false,"rental_uris":{"android":"levelo://app?vid=35c20e1c-2b7c-43b7-816f-1b50bb34fb92","ios":"levelo://app?vid=35c20e1c-2b7c-43b7-816f-1b50bb34fb92"},"vehicle_type_id":"4","last_reported":1729876105,"current_range_meters":6400,"station_id":"ce4bgih2rcd13ifvqba0","pricing_plan_id":"cebpf4jnsgd1na2vs0mg"},{"bike_id":"3c042f6f-0081-4480-92b7-3a9b28037451","system_id":"levelo_inurba_marseille","lat":43.29525,"lon":5.38548,"is_reserved":false,"is_disabled":false,"rental_uris":{"android":"levelo://app?vid=3c042f6f-0081-4480-92b7-3a9b28037451","ios":"levelo://app?vid=3c042f6f-0081-4480-92b7-3a9b28037451"},"vehicle_type_id":"4","last_reported":1729876105,"current_range_meters":36800,"station_id":"ce4bgih2rcd13ifvqba0","pricing_plan_id":"cebpf4jnsgd1na2vs0mg"},{"bike_id":"f4a0523f-03d2-4588-adb4-7481b0229b28","system_id":"levelo_inurba_marseille","lat":43.24655,"lon":5.38175,"is_reserved":false,"is_disabled":false,"rental_uris":{"android":"levelo://app?vid=f4a0523f-03d2-4588-adb4-7481b0229b28","ios":"levelo://app?vid=f4a0523f-03d2-4588-adb4-7481b0229b28"},"vehicle_type_id":"4","last_reported":1729876105,"current_range_meters":22400,"station_id":"ce4bhih2rcd13ifvqfr0","pricing_plan_id":"cebpf4jnsgd1na2vs0mg"},{"bike_id":"d6e9fef2-7e55-4f51-97ad-b807b6fa7382","system_id":"levelo_inurba_marseille","lat":43.24657,"lon":5.38162,"is_reserved":false,"is_disabled":false,"rental_uris":{"android":"levelo://app?vid=d6e9fef2-7e55-4f51-97ad-b807b6fa7382","ios":"levelo://app?vid=d6e9fef2-7e55-4f51-97ad-b807b6fa7382"},"vehicle_type_id":"4","last_reported":1729876105,"current_range_meters":29600,"station_id":"ce4bhih2rcd13ifvqfr0","pricing_plan_id":"cebpf4jnsgd1na2vs0mg"},{"bike_id":"84074c01-9114-4a3d-8d86-428e77e8b073","system_id":"levelo_inurba_marseille","lat":43.24993,"lon":5.38933,"is_reserved":false,"is_disabled":false,"rental_uris":{"android":"levelo://app?vid=84074c01-9114-4a3d-8d86-428e77e8b073","ios":"levelo://app?vid=84074c01-9114-4a3d-8d86-428e77e8b073"},"vehicle_type_id":"4","last_reported":1729876105,"current_range_meters":18000,"station_id":"ce4bhgp2rcd13ifvqfd0","pricing_plan_id":"cebpf4jnsgd1na2vs0mg"},{"bike_id":"a3d878f0-a769-45f1-b340-b3191f75d758","system_id":"levelo_inurba_marseille","lat":43.29981,"lon":5.38491,"is_reserved":false,"is_disabled":false,"rental_uris":{"android":"levelo://app?vid=a3d878f0-a769-45f1-b340-b3191f75d758","ios":"levelo://app?vid=a3d878f0-a769-45f1-b340-b3191f75d758"},"vehicle_type_id":"4","last_reported":1729876105,"current_range_meters":37600,"station_id":"ce4bgj92rcd13ifvqbd0","pricing_plan_id":"cebpf4jnsgd1na2vs0mg"},{"bike_id":"888971c8-9be0-42b9-95b8-2b45f266f34e","system_id":"levelo_inurba_marseille","lat":43.33023,"lon":5.39047,"is_reserved":false,"is_disabled":false,"rental_uris":{"android":"levelo://app?vid=888971c8-9be0-42b9-95b8-2b45f266f34e","ios":"levelo://app?vid=888971c8-9be0-42b9-95b8-2b45f266f34e"},"vehicle_type_id":"4","last_reported":1729876105,"current_range_meters":30400,"station_id":"ce4bhr92rcd13ifvqhrg","pricing_plan_id":"cebpf4jnsgd1na2vs0mg"},{"bike_id":"59842295-9fa4-4821-97a0-ce105fca6f01","system_id":"levelo_inurba_marseille","lat":43.29787,"lon":5.38111,"is_reserved":false,"is_disabled":false,"rental_uris":{"android":"levelo://app?vid=59842295-9fa4-4821-97a0-ce105fca6f01","ios":"levelo://app?vid=59842295-9fa4-4821-97a0-ce105fca6f01"},"vehicle_type_id":"4","last_reported":1729876105,"current_range_meters":24800,"station_id":"ce4bgip2rcd13ifvqbb0","pricing_plan_id":"cebpf4jnsgd1na2vs0mg"},{"bike_id":"02466077-7849-4f88-bc29-0e4fa7d70c25","system_id":"levelo_inurba_marseille","lat":43.26944,"lon":5.40245,"is_reserved":false,"is_disabled":false,"rental_uris":{"android":"levelo://app?vid=02466077-7849-4f88-bc29-0e4fa7d70c25","ios":"levelo://app?vid=02466077-7849-4f88-bc29-0e4fa7d70c25"},"vehicle_type_id":"4","last_reported":1729876105,"current_range_meters":36800,"station_id":"cjm6bp8fraef2m0cb0m0","pricing_plan_id":"cebpf4jnsgd1na2vs0mg"},{"bike_id":"62cb4de0-f934-47fa-8b04-6b4290049d47","system_id":"levelo_inurba_marseille","lat":43.29437,"lon":5.39744,"is_reserved":false,"is_disabled":false,"rental_uris":{"android":"levelo://app?vid=62cb4de0-f934-47fa-8b04-6b4290049d47","ios":"levelo://app?vid=62cb4de0-f934-47fa-8b04-6b4290049d47"},"vehicle_type_id":"4","last_reported":1729876105,"current_range_meters":2800,"station_id":"ce4bh3h2rcd13ifvqdo0","pricing_plan_id":"cebpf4jnsgd1na2vs0mg"},{"bike_id":"92c57c46-a313-404f-8c5e-29cadc3362d3","system_id":"levelo_inurba_marseille","lat":43.29417,"lon":5.38633,"is_reserved":false,"is_disabled":false,"rental_uris":{"android":"levelo://app?vid=92c57c46-a313-404f-8c5e-29cadc3362d3","ios":"levelo://app?vid=92c57c46-a313-404f-8c5e-29cadc3362d3"},"vehicle_type_id":"4","last_reported":1729876105,"current_range_meters":34800,"station_id":"ce4bh2h2rcd13ifvqdh0","pricing_plan_id":"cebpf4jnsgd1na2vs0mg"},{"bike_id":"35de4562-97c1-4869-9e48-f5d9aced558c","system_id":"levelo_inurba_marseille","lat":43.24807,"lon":5.37457,"is_reserved":false,"is_disabled":false,"rental_uris":{"android":"levelo://app?vid=35de4562-97c1-4869-9e48-f5d9aced558c","ios":"levelo://app?vid=35de4562-97c1-4869-9e48-f5d9aced558c"},"vehicle_type_id":"4","last_reported":1729876105,"current_range_meters":38800,"station_id":"ce4bhgh2rcd13ifvqfb0","pricing_plan_id":"cebpf4jnsgd1na2vs0mg"},{"bike_id":"a543c694-ce5d-481b-8fec-27a22e4dfc55","system_id":"levelo_inurba_marseille","lat":43.29246,"lon":5.38452,"is_reserved":false,"is_disabled":false,"rental_uris":{"android":"levelo://app?vid=a543c694-ce5d-481b-8fec-27a22e4dfc55","ios":"levelo://app?vid=a543c694-ce5d-481b-8fec-27a22e4dfc55"},"vehicle_type_id":"4","last_reported":1729876105,"current_range_meters":31200,"station_id":"ce4bh692rcd13ifvqea0","pricing_plan_id":"cebpf4jnsgd1na2vs0mg"},{"bike_id":"c5b873f9-225a-4c7e-a663-d3ff99099a3d","system_id":"levelo_inurba_marseille","lat":43.31465,"lon":5.39209,"is_reserved":false,"is_disabled":false,"rental_uris":{"android":"levelo://app?vid=c5b873f9-225a-4c7e-a663-d3ff99099a3d","ios":"levelo://app?vid=c5b873f9-225a-4c7e-a663-d3ff99099a3d"},"vehicle_type_id":"4","last_reported":1729876105,"current_range_meters":11600,"station_id":"ce4bgvp2rcd13ifvqcu0","pricing_plan_id":"cebpf4jnsgd1na2vs0mg"},{"bike_id":"6d693154-3bed-41bc-9100-e500b1ead0aa","system_id":"levelo_inurba_marseille","lat":43.241715,"lon":5.364,"is_reserved":false,"is_disabled":false,"rental_uris":{"android":"levelo://app?vid=6d693154-3bed-41bc-9100-e500b1ead0aa","ios":"levelo://app?vid=6d693154-3bed-41bc-9100-e500b1ead0aa"},"vehicle_type_id":"4","last_reported":1729876105,"current_range_meters":38800,"station_id":"cpo36qri1sfpv3e86is0","pricing_plan_id":"cebpf4jnsgd1na2vs0mg"},{"bike_id":"d0d18f5c-3c2e-4f59-9986-5ed22fb4dd92","system_id":"levelo_inurba_marseille","lat":43.31714,"lon":5.42404,"is_reserved":false,"is_disabled":false,"rental_uris":{"android":"levelo://app?vid=d0d18f5c-3c2e-4f59-9986-5ed22fb4dd92","ios":"levelo://app?vid=d0d18f5c-3c2e-4f59-9986-5ed22fb4dd92"},"vehicle_type_id":"4","last_reported":1729876105,"current_range_meters":24000,"station_id":"ce4bhp92rcd13ifvqhbg","pricing_plan_id":"cebpf4jnsgd1na2vs0mg"},{"bike_id":"ebfe9c82-972a-4355-b57c-a9cbc39497b1","system_id":"levelo_inurba_marseille","lat":43.300885,"lon":5.390695,"is_reserved":false,"is_disabled":false,"rental_uris":{"android":"levelo://app?vid=ebfe9c82-972a-4355-b57c-a9cbc39497b1","ios":"levelo://app?vid=ebfe9c82-972a-4355-b57c-a9cbc39497b1"},"vehicle_type_id":"4","last_reported":1729876105,"current_range_meters":25600,"station_id":"ce4bh192rcd13ifvqdb0","pricing_plan_id":"cebpf4jnsgd1na2vs0mg"},{"bike_id":"d3ab1521-1331-4832-ac06-4397718e2172","system_id":"levelo_inurba_marseille","lat":43.28928,"lon":5.36644,"is_reserved":false,"is_disabled":false,"rental_uris":{"android":"levelo://app?vid=d3ab1521-1331-4832-ac06-4397718e2172","ios":"levelo://app?vid=d3ab1521-1331-4832-ac06-4397718e2172"},"vehicle_type_id":"4","last_reported":1729876105,"current_range_meters":20800,"station_id":"ce4bhap2rcd13ifvqek0","pricing_plan_id":"cebpf4jnsgd1na2vs0mg"},{"bike_id":"5cf81e77-5b2e-4fce-88e8-85c373694551","system_id":"levelo_inurba_marseille","lat":43.28261,"lon":5.35069,"is_reserved":false,"is_disabled":false,"rental_uris":{"android":"levelo://app?vid=5cf81e77-5b2e-4fce-88e8-85c373694551","ios":"levelo://app?vid=5cf81e77-5b2e-4fce-88e8-85c373694551"},"vehicle_type_id":"4","last_reported":1729876105,"current_range_meters":22400,"station_id":"ce4bhbp2rcd13ifvqerg","pricing_plan_id":"cebpf4jnsgd1na2vs0mg"},