{"last_updated":1735855709,"ttl":60,"version":"2.2","data":{"bikes":[{"bike_id":"9676bee6-2013-428a-a6f4-4b31255a66da","system_id":"levelo_inurba_marseille","lat":43.26208,"lon":5.3744,"is_reserved":false,"is_disabled":false,"rental_uris":{"android":"levelo://app?vid=9676bee6-2013-428a-a6f4-4b31255a66da","ios":"levelo://app?vid=9676bee6-2013-428a-a6f4-4b31255a66da"},"vehicle_type_id":"4","last_reported":1735855709,"current_range_meters":5600,"station_id":"ce4bhgp2rcd13ifvqfc0","pricing_plan_id":"cebpf4jnsgd1na2vs0mg"},{"bike_id":"5ee06d1f-f474-4883-9d52-622f82f42531","system_id":"levelo_inurba_marseille","lat":43.325485,"lon":5.414435,"is_reserved":false,"is_disabled":false,"rental_uris":{"android":"levelo://app?vid=5ee06d1f-f474-4883-9d52-622f82f42531","ios":"levelo://app?vid=5ee06d1f-f474-4883-9d52-622f82f42531"},"vehicle_type_id":"4","last_reported":1735855709,"current_range_meters":38400,"station_id":"ce4bhq12rcd13ifvqhhg","pricing_plan_id":"cebpf4jnsgd1na2vs0mg"},{"bike_id":"172ccd61-d49f-41ee-9d70-c90aa70835fe","system_id":"levelo_inurba_marseille","lat":43.27436,"lon":5.39415,"is_reserved":false,"is_disabled":false,"rental_uris":{"android":"levelo://app?vid=172ccd61-d49f-41ee-9d70-c90aa70835fe","ios":"levelo://app?vid=172ccd61-d49f-41ee-9d70-c90aa70835fe"},"vehicle_type_id":"4","last_reported":1735855709,"current_range_meters":32800,"station_id":"ce4bhdp2rcd13ifvqf20","pricing_plan_id":"cebpf4jnsgd1na2vs0mg"},{"bike_id":"3042dbc1-c819-4040-80d9-b25d524d5dea","system_id":"levelo_inurba_marseille","lat":43.28481,"lon":5.38425,"is_reserved":false,"is_disabled":false,"rental_uris":{"android":"levelo://app?vid=3042dbc1-c819-4040-80d9-b25d524d5dea","ios":"levelo://app?vid=3042dbc1-c819-4040-80d9-b25d524d5dea"},"vehicle_type_id":"4","last_reported":1735855709,"current_range_meters":38800,"station_id":"ce4bh512rcd13ifvqe3g","pricing_plan_id":"cebpf4jnsgd1na2vs0mg"},{"bike_id":"bc774450-9e82-4b77-bec0-9757df77a13c","system_id":"levelo_inurba_marseille","lat":43.26485,"lon":5.39557,"is_reserved":false,"is_disabled":false,"rental_uris":{"android":"levelo://app?vid=bc774450-9e82-4b77-bec0-9757df77a13c","ios":"levelo://app?vid=bc774450-9e82-4b77-bec0-9757df77a13c"},"vehicle_type_id":"4","last_reported":1735855709,"current_range_meters":38000,"station_id":"ce4bhi12rcd13ifvqfq0","pricing_plan_id":"cebpf4jnsgd1na2vs0mg"},{"bike_id":"a95f7a4f-b106-47fb-b884-a0e3c27f8867","system_id":"levelo_inurba_marseille","lat":43.28856,"lon":5.39336,"is_reserved":false,"is_disabled":true,"rental_uris":{"android":"levelo://app?vid=a95f7a4f-b106-47fb-b884-a0e3c27f8867","ios":"levelo://app?vid=a95f7a4f-b106-47fb-b884-a0e3c27f8867"},"vehicle_type_id":"4","last_reported":1735855709,"current_range_meters":3200,"station_id":"ce4bh2p2rcd13ifvqdi0","pricing_plan_id":"cebpf4jnsgd1na2vs0mg"},{"bike_id":"83cf3ed5-c352-4a39-821d-1f7d95dea627","system_id":"levelo_inurba_marseille","lat":43.25579,"lon":5.38232,"is_reserved":false,"is_disabled":false,"rental_uris":{"android":"levelo://app?vid=83cf3ed5-c352-4a39-821d-1f7d95dea627","ios":"levelo://app?vid=83cf3ed5-c352-4a39-821d-1f7d95dea627"},"vehicle_type_id":"4","last_reported":1735855709,"current_range_meters":25200,"station_id":"ce4bhih2rcd13ifvqfs0","pricing_plan_id":"cebpf4jnsgd1na2vs0mg"},{"bike_id":"3e92df57-e4ba-4a2b-a540-d8085cdee01f","system_id":"levelo_inurba_marseille","lat":43.26952,"lon":5.38918,"is_reserved":false,"is_disabled":false,"rental_uris":{"android":"levelo://app?vid=3e92df57-e4ba-4a2b-a540-d8085cdee01f","ios":"levelo://app?vid=3e92df57-e4ba-4a2b-a540-d8085cdee01f"},"vehicle_type_id":"4","last_reported":1735855709,"current_range_meters":38400,"station_id":"ce4bhhh2rcd13ifvqfl0","pricing_plan_id":"cebpf4jnsgd1na2vs0mg"},{"bike_id":"36d66971-2eca-4ce7-b6c4-b5d94a3b8a1d","system_id":"levelo_inurba_marseille","lat":43.29276,"lon":5.36835,"is_reserved":false,"is_disabled":false,"rental_uris":{"android":"levelo://app?vid=36d66971-2eca-4ce7-b6c4-b5d94a3b8a1d","ios":"levelo://app?vid=36d66971-2eca-4ce7-b6c4-b5d94a3b8a1d"},"vehicle_type_id":"4","last_reported":1735855709,"current_range_meters":34000,"station_id":"ce4bhbp2rcd13ifvqesg","pricing_plan_id":"cebpf4jnsgd1na2vs0mg"},{"bike_id":"b7fc7396-1d32-44df-98fe-8ed1e8fdd0ba","system_id":"levelo_inurba_marseille","lat":43.29034,"lon":5.38106,"is_reserved":false,"is_disabled":false,"rental_uris":{"android":"levelo://app?vid=b7fc7396-1d32-44df-98fe-8ed1e8fdd0ba","ios":"levelo://app?vid=b7fc7396-1d32-44df-98fe-8ed1e8fdd0ba"},"vehicle_type_id":"4","last_reported":1735855709,"current_range_meters":26800,"station_id":"ce4bh4p2rcd13ifvqe1g","pricing_plan_id":"cebpf4jnsgd1na2vs0mg"},{"bike_id":"0cc226b6-5f36-4e90-9e5b-497bf45d78e0","system_id":"levelo_inurba_marseille","lat":43.28003,"lon":5.40006,"is_reserved":false,"is_disabled":false,"rental_uris":{"android":"levelo://app?vid=0cc226b6-5f36-4e90-9e5b-497bf45d78e0","ios":"levelo://app?vid=0cc226b6-5f36-4e90-9e5b-497bf45d78e0"},"vehicle_type_id":"4","last_reported":1735855709,"current_range_meters":6400,"station_id":"ce4bho92rcd13ifvqh4g","pricing_plan_id":"cebpf4jnsgd1na2vs0mg"},{"bike_id":"02bf6b26-791b-4299-adfb-67276d40a9e0","system_id":"levelo_inurba_marseille","lat":43.25863,"lon":5.39898,"is_reserved":false,"is_disabled":false,"rental_uris":{"android":"levelo://app?vid=02bf6b26-791b-4299-adfb-67276d40a9e0","ios":"levelo://app?vid=02bf6b26-791b-4299-adfb-67276d40a9e0"},"vehicle_type_id":"4","last_reported":1735855709,"current_range_meters":22000,"station_id":"ce4bhl92rcd13ifvqghg","pricing_plan_id":"cebpf4jnsgd1na2vs0mg"},{"bike_id":"e42aed87-b9c2-4f04-8982-50394cba4bfe","system_id":"levelo_inurba_marseille","lat":43.29537,"lon":5.38513,"is_reserved":false,"is_disabled":false,"rental_uris":{"android":"levelo://app?vid=e42aed87-b9c2-4f04-8982-50394cba4bfe","ios":"levelo://app?vid=e42aed87-b9c2-4f04-8982-50394cba4bfe"},"vehicle_type_id":"4","last_reported":1735855709,"current_range_meters":12000,"station_id":"ce4bgih2rcd13ifvqba0","pricing_plan_id":"cebpf4jnsgd1na2vs0mg"},{"bike_id":"116f92ae-65b4-4f7c-a23b-1117c0a69b33","system_id":"levelo_inurba_marseille","lat":43.28616,"lon":5.35106,"is_reserved":false,"is_disabled":false,"rental_uris":{"android":"levelo://app?vid=116f92ae-65b4-4f7c-a23b-1117c0a69b33","ios":"levelo://app?vid=116f92ae-65b4-4f7c-a23b-1117c0a69b33"},"vehicle_type_id":"4","last_reported":1735855709,"current_range_meters":29600,"station_id":"ce4bhch2rcd13ifvqeug","pricing_plan_id":"cebpf4jnsgd1na2vs0mg"},{"bike_id":"cf9371cf-b4a6-4f3a-92f4-f898ea85e696","system_id":"levelo_inurba_marseille","lat":43.25585,"lon":5.38233,"is_reserved":false,"is_disabled":false,"rental_uris":{"android":"levelo://app?vid=cf9371cf-b4a6-4f3a-92f4-f898ea85e696","ios":"levelo://app?vid=cf9371cf-b4a6-4f3a-92f4-f898ea85e696"},"vehicle_type_id":"4","last_reported":1735855709,"current_range_meters":9600,"station_id":"ce4bhih2rcd13ifvqfs0","pricing_plan_id":"cebpf4jnsgd1na2vs0mg"},{"bike_id":"1c74a273-e073-417e-a471-e1f9b9d6c09a","system_id":"levelo_inurba_marseille","lat":43.29071,"lon":5.3718,"is_reserved":false,"is_disabled":false,"rental_uris":{"android":"levelo://app?vid=1c74a273-e073-417e-a471-e1f9b9d6c09a","ios":"levelo://app?vid=1c74a273-e073-417e-a471-e1f9b9d6c09a"},"vehicle_type_id":"4","last_reported":1735855709,"current_range_meters":33200,"station_id":"ce4bh5p2rcd13ifvqe4g","pricing_plan_id":"cebpf4jnsgd1na2vs0mg"},{"bike_id":"4e0f9141-cb15-4ad1-a3aa-65709ee81292","system_id":"levelo_inurba_marseille","lat":43.29264,"lon":5.36839,"is_reserved":false,"is_disabled":false,"rental_uris":{"android":"levelo://app?vid=4e0f9141-cb15-4ad1-a3aa-65709ee81292","ios":"levelo://app?vid=4e0f9141-cb15-4ad1-a3aa-65709ee81292"},"vehicle_type_id":"4","last_reported":1735855709,"current_range_meters":14400,"station_id":"ce4bhbp2rcd13ifvqesg","pricing_plan_id":"cebpf4jnsgd1na2vs0mg"},{"bike_id":"89867fc5-aa88-4405-8a4b-15ec23d678bc","system_id":"levelo_inurba_marseille","lat":43.30114,"lon":5.39873,"is_reserved":false,"is_disabled":false,"rental_uris":{"android":"levelo://app?vid=89867fc5-aa88-4405-8a4b-15ec23d678bc","ios":"levelo://app?vid=89867fc5-aa88-4405-8a4b-15ec23d678bc"},"vehicle_type_id":"4","last_reported":1735855709,"current_range_meters":22400,"station_id":"ce4bh0h2rcd13ifvqd40","pricing_plan_id":"cebpf4jnsgd1na2vs0mg"},{"bike_id":"76d392c8-6dd4-4fbf-b626-27c2990c047b","system_id":"levelo_inurba_marseille","lat":43.28154,"lon":5.42841,"is_reserved":false,"is_disabled":false,"rental_uris":{"android":"levelo://app?vid=76d392c8-6dd4-4fbf-b626-27c2990c047b","ios":"levelo://app?vid=76d392c8-6dd4-4fbf-b626-27c2990c047b"},"vehicle_type_id":"4","last_reported":1735855709,"current_range_meters":23200,"station_id":"","pricing_plan_id":"cebpf4jnsgd1na2vs0mg"},{"bike_id":"ebb56956-e2e2-4f51-8f7a-80ccc26c078c","system_id":"levelo_inurba_marseille","lat":43.28141,"lon":5.42663,"is_reserved":false,"is_disabled":false,"rental_uris":{"android":"levelo://app?vid=ebb56956-e2e2-4f51-8f7a-80ccc26c078c","ios":"levelo://app?vid=ebb56956-e2e2-4f51-8f7a-80ccc26c078c"},"vehicle_type_id":"4","last_reported":1735855709,"current_range_meters":34000,"station_id":"ce4bhnh2rcd13ifvqgug","pricing_plan_id":"cebpf4jnsgd1na2vs0mg"},{"bike_id":"449e9d0f-fb13-4908-913f-2d43c33e9c78","system_id":"levelo_inurba_marseille","lat":43.33609,"lon":5.41032,"is_reserved":false,"is_disabled":false,"rental_uris":{"android":"levelo://app?vid=449e9d0f-fb13-4908-913f-2d43c33e9c78","ios":"levelo://app?vid=449e9d0f-fb13-4908-913f-2d43c33e9c78"},"vehicle_type_id":"4","last_reported":1735855709,"current_range_meters":16400,"station_id":"ce4bhqh2rcd13ifvqhmg","pricing_plan_id":"cebpf4jnsgd1na2vs0mg"},{"bike_id":"24e02238-d92f-424f-8b72-85c062a83bbe","system_id":"levelo_inurba_marseille","lat":43.27681,"lon":5.38935,"is_reserved":false,"is_disabled":false,"rental_uris":{"android":"levelo://app?vid=24e02238-d92f-424f-8b72-85c062a83bbe","ios":"levelo://app?vid=24e02238-d92f-424f-8b72-85c062a83bbe"},"vehicle_type_id":"4","last_reported":1735855709,"current_range_meters":38800,"station_id":"ce4bhi12rcd13ifvqfo0","pricing_plan_id":"cebpf4jnsgd1na2vs0mg"},{"bike_id":"cb41729f-f8b5-46fd-b11b-2f25f57d2997","system_id":"levelo_inurba_marseille","lat":43.24811,"lon":5.37458,"is_reserved":false,"is_disabled":true,"rental_uris":{"android":"levelo://app?vid=cb41729f-f8b5-46fd-b11b-2f25f57d2997","ios":"levelo://app?vid=cb41729f-f8b5-46fd-b11b-2f25f57d2997"},"vehicle_type_id":"4","last_reported":1735855709,"current_range_meters":37600,"station_id":"ce4bhgh2rcd13ifvqfb0","pricing_plan_id":"cebpf4jnsgd1na2vs0mg"},{"bike_id":"97717a3a-5240-48fe-b29e-9e7f0d2b5fba","system_id":"levelo_inurba_marseille","lat":43.31692,"lon":5.4372,"is_reserved":false,"is_disabled":false,"rental_uris":{"android":"levelo://app?vid=97717a3a-5240-48fe-b29e-9e7f0d2b5fba","ios":"levelo://app?vid=97717a3a-5240-48fe-b29e-9e7f0d2b5fba"},"vehicle_type_id":"4","last_reported":1735855709,"current_range_meters":39200,"station_id":"ce4bhp92rcd13ifvqhcg","pricing_plan_id":"cebpf4jnsgd1na2vs0mg"},{"bike_id":"b34f82fe-9ce1-4339-8ef1-4ced08779956","system_id":"levelo_inurba_marseille","lat":43.30113,"lon":5.39867,"is_reserved":false,"is_disabled":false,"rental_uris":{"android":"levelo://app?vid=b34f82fe-9ce1-4339-8ef1-4ced08779956","ios":"levelo://app?vid=b34f82fe-9ce1-4339-8ef1-4ced08779956"},"vehicle_type_id":"4","last_reported":1735855709,"current_range_meters":18800,"station_id":"ce4bh0h2rcd13ifvqd40","pricing_plan_id":"cebpf4jnsgd1na2vs0mg"},{"bike_id":"9e8f1100-46da-409e-99ab-14a13726421f","system_id":"levelo_inurba_marseille","lat":43.25486,"lon":5.37651,"is_reserved":false,"is_disabled":false,"rental_uris":{"android":"levelo://app?vid=9e8f1100-46da-409e-99ab-14a13726421f","ios":"levelo://app?vid=9e8f1100-46da-409e-99ab-14a13726421f"},"vehicle_type_id":"4","last_reported":1735855709,"current_range_meters":26800,"station_id":"ce4bhh12rcd13ifvqff0","pricing_plan_id":"cebpf4jnsgd1na2vs0mg"},{"bike_id":"d66c261c-4c92-4d58-90a6-fd0ca5318371","system_id":"levelo_inurba_marseille","lat":43.27834,"lon":5.40709,"is_reserved":false,"is_disabled":false,"rental_uris":{"android":"levelo://app?vid=d66c261c-4c92-4d58-90a6-fd0ca5318371","ios":"levelo://app?vid=d66c261c-4c92-4d58-90a6-fd0ca5318371"},"vehicle_type_id":"4","last_reported":1735855709,"current_range_meters":8000,"station_id":"ce4bhnh2rcd13ifvqgtg","pricing_plan_id":"cebpf4jnsgd1na2vs0mg"},{"bike_id":"6acc676b-8bbc-455e-a2a0-369d88715ceb","system_id":"levelo_inurba_marseille","lat":43.28694,"lon":5.40005,"is_reserved":false,"is_disabled":false,"rental_uris":{"android":"levelo://app?vid=6acc676b-8bbc-455e-a2a0-369d88715ceb","ios":"levelo://app?vid=6acc676b-8bbc-455e-a2a0-369d88715ceb"},"vehicle_type_id":"4","last_reported":1735855709,"current_range_meters":35200,"station_id":"ce4bho92rcd13ifvqh3g","pricing_plan_id":"cebpf4jnsgd1na2vs0mg"},{"bike_id":"3e8d46e7-a72a-4113-8eed-ea83f1f86556","system_id":"levelo_inurba_marseille","lat":43.29783,"lon":5.38088,"is_reserved":false,"is_disabled":false,"rental_uris":{"android":"levelo://app?vid=3e8d46e7-a72a-4113-8eed-ea83f1f86556","ios":"levelo://app?vid=3e8d46e7-a72a-4113-8eed-ea83f1f86556"},"vehicle_type_id":"4","last_reported":1735855709,"current_range_meters":23200,"station_id":"ce4bgip2rcd13ifvqbb0","pricing_plan_id":"cebpf4jnsgd1na2vs0mg"},{"bike_id":"dcd711c6-0b92-490f-97df-470d44c16843","system_id":"levelo_inurba_marseille","lat":43.27918,"lon":5.39584,"is_reserved":false,"is_disabled":false,"rental_uris":{"android":"levelo://app?vid=dcd711c6-0b92-490f-97df-470d44c16843","ios":"levelo://app?vid=dcd711c6-0b92-490f-97df-470d44c16843"},"vehicle_type_id":"4","last_reported":1735855709,"current_range_meters":37600,"station_id":"ce4bhf92rcd13ifvqf40","pricing_plan_id":"cebpf4jnsgd1na2vs0mg"},{"bike_id":"36911bbf-feea-4aaf-ae13-a9d4f34d1249","system_id":"levelo_inurba_marseille","lat":43.29627,"lon":5.37149,"is_reserved":false,"is_disabled":false,"rental_uris":{"android":"levelo://app?vid=36911bbf-feea-4aaf-ae13-a9d4f34d1249","ios":"levelo://app?vid=36911bbf-feea-4aaf-ae13-a9d4f34d1249"},"vehicle_type_id":"4","last_reported":1735855709,"current_range_meters":38400,"station_id":"ce4bgnh2rcd13ifvqc0g","pricing_plan_id":"cebpf4jnsgd1na2vs0mg"},{"bike_id":"4a1ad4c0-f6d8-4f02-a755-37ff4cc1ad61","system_id":"levelo_inurba_marseille","lat":43.25824,"lon":5.39437,"is_reserved":false,"is_disabled":false,"rental_uris":{"android":"levelo://app?vid=4a1ad4c0-f6d8-4f02-a755-37ff4cc1ad61","ios":"levelo://app?vid=4a1ad4c0-f6d8-4f02-a755-37ff4cc1ad61"},"vehicle_type_id":"4","last_reported":1735855709,"current_range_meters":38800,"station_id":"ce4bhip2rcd13ifvqft0","pricing_plan_id":"cebpf4jnsgd1na2vs0mg"},{"bike_id":"828d0bc6-3829-44b1-8d7d-145c972214c6","system_id":"levelo_inurba_marseille","lat":43.32367,"lon":5.38878,"is_reserved":false,"is_disabled":false,"rental_uris":{"android":"levelo://app?vid=828d0bc6-3829-44b1-8d7d-145c972214c6","ios":"levelo://app?vid=828d0bc6-3829-44b1-8d7d-145c972214c6"},"vehicle_type_id":"4","last_reported":1735855709,"current_range_meters":16400,"station_id":"ce4bhqp2rcd13ifvqhog","pricing_plan_id":"cebpf4jnsgd1na2vs0mg"},{"bike_id":"269eda74-bc19-459b-a632-ad324cf7cf92","system_id":"levelo_inurba_marseille","lat":43.26494,"lon":5.39548,"is_reserved":false,"is_disabled":false,"rental_uris":{"android":"levelo://app?vid=269eda74-bc19-459b-a632-ad324cf7cf92","ios":"levelo://app?vid=269eda74-bc19-459b-a632-ad324cf7cf92"},"vehicle_type_id":"4","last_reported":1735855709,"current_range_meters":17200,"station_id":"ce4bhi12rcd13ifvqfq0","pricing_plan_id":"cebpf4jnsgd1na2vs0mg"},{"bike_id":"90be4ecf-e9e3-49e6-8acd-ca50a85b4085","system_id":"levelo_inurba_marseille","lat":43.31227,"lon":5.36846,"is_reserved":false,"is_disabled":true,"rental_uris":{"android":"levelo://app?vid=90be4ecf-e9e3-49e6-8acd-ca50a85b4085","ios":"levelo://app?vid=90be4ecf-e9e3-49e6-8acd-ca50a85b4085"},"vehicle_type_id":"4","last_reported":1735855709,"current_range_meters":25200,"station_id":"ce4bgl92rcd13ifvqbq0","pricing_plan_id":"cebpf4jnsgd1na2vs0mg"},{"bike_id":"bcc47b98-405a-4d86-8e5f-bbe262abbd0d","system_id":"levelo_inurba_marseille","lat":43.321054,"lon":5.367754,"is_reserved":false,"is_disabled":false,"rental_uris":{"android":"levelo://app?vid=bcc47b98-405a-4d86-8e5f-bbe262abbd0d","ios":"levelo://app?vid=bcc47b98-405a-4d86-8e5f-bbe262abbd0d"},"vehicle_type_id":"4","last_reported":1735855709,"current_range_meters":28400,"station_id":"ce4bhrh2rcd13ifvqhug","pricing_plan_id":"cebpf4jnsgd1na2vs0mg"},{"bike_id":"4ff02992-46d1-4939-b33e-7e9de4ef7281","system_id":"levelo_inurba_marseille","lat":43.25828,"lon":5.3944,"is_reserved":false,"is_disabled":false,"rental_uris":{"android":"levelo://app?vid=4ff02992-46d1-4939-b33e-7e9de4ef7281","ios":"levelo://app?vid=4ff02992-46d1-4939-b33e-7e9de4ef7281"},"vehicle_type_id":"4","last_reported":1735855709,"current_range_meters":29600,"station_id":"ce4bhip2rcd13ifvqft0","pricing_plan_id":"cebpf4jnsgd1na2vs0mg"},{"bike_id":"98ffe417-44bf-4013-9be6-1100320cb821","system_id":"levelo_inurba_marseille","lat":43.27808,"lon":5.40712,"is_reserved":false,"is_disabled":false,"rental_uris":{"android":"levelo://app?vid=98ffe417-44bf-4013-9be6-1100320cb821","ios":"levelo://app?vid=98ffe417-44bf-4013-9be6-1100320cb821"},"vehicle_type_id":"4","last_reported":1735855709,"current_range_meters":37600,"station_id":"ce4bhnh2rcd13ifvqgtg","pricing_plan_id":"cebpf4jnsgd1na2vs0mg"},{"bike_id":"027085de-3c06-4c90-8099-b9537f78e863","system_id":"levelo_inurba_marseille","lat":43.23157,"lon":5.43678,"is_reserved":false,"is_disabled":false,"rental_uris":{"android":"levelo://app?vid=027085de-3c06-4c90-8099-b9537f78e863","ios":"levelo://app?vid=027085de-3c06-4c90-8099-b9537f78e863"},"vehicle_type_id":"4","last_reported":1735855709,"current_range_meters":28400,"station_id":"ce4bhmp2rcd13ifvqgog","pricing_plan_id":"cebpf4jnsgd1na2vs0mg"},{"bike_id":"4b6a41bf-6158-4f95-8733-20938233d170","system_id":"levelo_inurba_marseille","lat":43.25725,"lon":5.41109,"is_reserved":false,"is_disabled":false,"rental_uris":{"android":"levelo://app?vid=4b6a41bf-6158-4f95-8733-20938233d170","ios":"levelo://app?vid=4b6a41bf-6158-4f95-8733-20938233d170"},"vehicle_type_id":"4","last_reported":1735855709,"current_range_meters":38800,"station_id":"ce4bhkp2rcd13ifvqgd0","pricing_plan_id":"cebpf4jnsgd1na2vs0mg"},{"bike_id":"d936b726-436d-4e1d-883d-74d49ddbe842","system_id":"levelo_inurba_marseille","lat":43.31538,"lon":5.38056,"is_reserved":false,"is_disabled":false,"rental_uris":{"android":"levelo://app?vid=d936b726-436d-4e1d-883d-74d49ddbe842","ios":"levelo://app?vid=d936b726-436d-4e1d-883d-74d49ddbe842"},"vehicle_type_id":"4","last_reported":1735855709,"current_range_meters":16400,"station_id":"ce4bhsp2rcd13ifvqi50","pricing_plan_id":"cebpf4jnsgd1na2vs0mg"},{"bike_id":"22e7183b-7aa6-4c0f-b604-515ce138d224","system_id":"levelo_inurba_marseille","lat":43.28921,"lon":5.3838,"is_reserved":false,"is_disabled":false,"rental_uris":{"android":"levelo://app?vid=22e7183b-7aa6-4c0f-b604-515ce138d224","ios":"levelo://app?vid=22e7183b-7aa6-4c0f-b604-515ce138d224"},"vehicle_type_id":"4","last_reported":1735855709,"current_range_meters":38800,"station_id":"ce4bh612rcd13ifvqe6g","pricing_plan_id":"cebpf4jnsgd1na2vs0mg"},{"bike_id":"7a63d77d-b3e4-4713-9060-b918ad8247d2","system_id":"levelo_inurba_marseille","lat":43.22935,"lon":5.35378,"is_reserved":false,"is_disabled":false,"rental_uris":{"android":"levelo://app?vid=7a63d77d-b3e4-4713-9060-b918ad8247d2","ios":"levelo://app?vid=7a63d77d-b3e4-4713-9060-b918ad8247d2"},"vehicle_type_id":"4","last_reported":1735855709,"current_range_meters":38000,"station_id":"cpo3532slgdg3j2ikp40","pricing_plan_id":"cebpf4jnsgd1na2vs0mg"},{"bike_id":"55e21000-1bfe-4926-9e9b-bbab942d7159","system_id":"levelo_inurba_marseille","lat":43.27916,"lon":5.39583,"is_reserved":false,"is_disabled":false,"rental_uris":{"android":"levelo://app?vid=55e21000-1bfe-4926-9e9b-bbab942d7159","ios":"levelo://app?vid=55e21000-1bfe-4926-9e9b-bbab942d7159"},"vehicle_type_id":"4","last_reported":1735855709,"current_range_meters":10800,"station_id":"ce4bhf92rcd13ifvqf40","pricing_plan_id":"cebpf4jnsgd1na2vs0mg"},{"bike_id":"a198062e-f9ef-406f-9221-201113761a05","system_id":"levelo_inurba_marseille","lat":43.28712,"lon":5.37931,"is_reserved":false,"is_disabled":false,"rental_uris":{"android":"levelo://app?vid=a198062e-f9ef-406f-9221-201113761a05","ios":"levelo://app?vid=a198062e-f9ef-406f-9221-201113761a05"},"vehicle_type_id":"4","last_reported":1735855709,"current_range_meters":22400,"station_id":"ce4bh9p2rcd13ifvqec0","pricing_plan_id":"cebpf4jnsgd1na2vs0mg"},{"bike_id":"277d9579-fc29-4ce6-94cb-f3e169453ace","system_id":"levelo_inurba_marseille","lat":43.31757,"lon":5.39024,"is_reserved":false,"is_disabled":false,"rental_uris":{"android":"levelo://app?vid=277d9579-fc29-4ce6-94cb-f3e169453ace","ios":"levelo://app?vid=277d9579-fc29-4ce6-94cb-f3e169453ace"},"vehicle_type_id":"4","last_reported":1735855709,"current_range_meters":38800,"station_id":"ce4bhqp2rcd13ifvqhng","pricing_plan_id":"cebpf4jnsgd1na2vs0mg"},{"bike_id":"3c7472a4-a45c-4f46-a692-aa44ebf92f21","system_id":"levelo_inurba_marseille","lat":43.27432,"lon":5.39418,"is_reserved":false,"is_disabled":false,"rental_uris":{"android":"levelo://app?vid=3c7472a4-a45c-4f46-a692-aa44ebf92f21","ios":"levelo://app?vid=3c7472a4-a45c-4f46-a692-aa44ebf92f21"},"vehicle_type_id":"4","last_reported":1735855709,"current_range_meters":34000,"station_id":"ce4bhdp2rcd13ifvqf20","pricing_plan_id":"cebpf4jnsgd1na2vs0mg"},{"bike_id":"15f428d5-04a0-4b6a-a23c-757c18fbf743","system_id":"levelo_inurba_marseille","lat":43.30862,"lon":5.3966,"is_reserved":false,"is_disabled":false,"rental_uris":{"android":"levelo://app?vid=15f428d5-04a0-4b6a-a23c-757c18fbf743","ios":"levelo://app?vid=15f428d5-04a0-4b6a-a23c-757c18fbf743"},"vehicle_type_id":"4","last_reported":1735855709,"current_range_meters":39200,"station_id":"ce4bh012rcd13ifvqcv0","pricing_plan_id":"cebpf4jnsgd1na2vs0mg"},{"bike_id":"034b0005-8956-45a9-ad90-f0ac541944e7","system_id":"levelo_inurba_marseille","lat":43.26942,"lon":5.38913,"is_reserved":false,"is_disabled":true,"rental_uris":{"android":"levelo://app?vid=034b0005-8956-45a9-ad90-f0ac541944e7","ios":"levelo://app?vid=034b0005-8956-45a9-ad90-f0ac541944e7"},"vehicle_type_id":"4","last_reported":1735855709,"current_range_meters":28800,"station_id":"ce4bhhh2rcd13ifvqfl0","pricing_plan_id":"cebpf4jnsgd1na2vs0mg"},{"bike_id":"60aa8768-465e-4e59-8359-ab05b91a90a1","system_id":"levelo_inurba_marseille","lat":43.28941,"lon":5.36391,"is_reserved":false,"is_disabled":false,"rental_uris":{"android":"levelo://app?vid=60aa8768-465e-4e59-8359-ab05b91a90a1","ios":"levelo://app?vid=60aa8768-465e-4e59-8359-ab05b91a90a1"},"vehicle_type_id":"4","last_reported":1735855709,"current_range_meters":38800,"station_id":"ce4bhc92rcd13ifvqetg","pricing_plan_id":"cebpf4jnsgd1na2vs0mg"},{"bike_id":"b5b2166a-b0b8-4fc4-9960-24fcf8dddf0c","system_id":"levelo_inurba_marseille","lat":43.30847,"lon":5.38049,"is_reserved":false,"is_disabled":false,"rental_uris":{"android":"levelo://app?vid=b5b2166a-b0b8-4fc4-9960-24fcf8dddf0c","ios":"levelo://app?vid=b5b2166a-b0b8-4fc4-9960-24fcf8dddf0c"},"vehicle_type_id":"4","last_reported":1735855709,"current_range_meters":17600,"station_id":"","pricing_plan_id":"cebpf4jnsgd1na2vs0mg"},{"bike_id":"4b9b3c02-7773-410b-a74d-2537aad0fdc1","system_id":"levelo_inurba_marseille","lat":43.28424,"lon":5.37509,"is_reserved":false,"is_disabled":false,"rental_uris":{"android":"levelo://app?vid=4b9b3c02-7773-410b-a74d-2537aad0fdc1","ios":"levelo://app?vid=4b9b3c02-7773-410b-a74d-2537aad0fdc1"},"vehicle_type_id":"4","last_reported":1735855709,"current_range_meters":25600,"station_id":"ce4bh412rcd13ifvqds0","pricing_plan_id":"cebpf4jnsgd1na2vs0mg"},{"bike_id":"e3736c07-1f20-46a9-8fea-1baae69a6a9b","system_id":"levelo_inurba_marseille","lat":43.29523,"lon":5.38536,"is_reserved":false,"is_disabled":false,"rental_uris":{"android":"levelo://app?vid=e3736c07-1f20-46a9-8fea-1baae69a6a9b","ios":"levelo://app?vid=e3736c07-1f20-46a9-8fea-1baae69a6a9b"},"vehicle_type_id":"4","last_reported":1735855709,"current_range_meters":16000,"station_id":"ce4bgih2rcd13ifvqba0","pricing_plan_id":"cebpf4jnsgd1na2vs0mg"},{"bike_id":"1be7cd26-cea4-4ed2-9f87-bb295a3586b7","system_id":"levelo_inurba_marseille","lat":43.3092,"lon":5.40149,"is_reserved":false,"is_disabled":true,"rental_uris":{"android":"levelo://app?vid=1be7cd26-cea4-4ed2-9f87-bb295a3586b7","ios":"levelo://app?vid=1be7cd26-cea4-4ed2-9f87-bb295a3586b7"},"vehicle_type_id":"4","last_reported":1735855709,"current_range_meters":34800,"station_id":"ce4bgvp2rcd13ifvqct0","pricing_plan_id":"cebpf4jnsgd1na2vs0mg"},{"bike_id":"f45848c8-1920-4a57-8a3d-1df70b26d4ca","system_id":"levelo_inurba_marseille","lat":43.29553,"lon":5.38537,"is_reserved":false,"is_disabled":false,"rental_uris":{"android":"levelo://app?vid=f45848c8-1920-4a57-8a3d-1df70b26d4ca","ios":"levelo://app?vid=f45848c8-1920-4a57-8a3d-1df70b26d4ca"},"vehicle_type_id":"4","last_reported":1735855709,"current_range_meters":32000,"station_id":"ce4bgih2rcd13ifvqba0","pricing_plan_id":"cebpf4jnsgd1na2vs0mg"},{"bike_id":"a704d00f-fa02-4fe3-91e2-2416c16951bb","system_id":"levelo_inurba_marseille","lat":43.24084,"lon":5.37748,"is_reserved":false,"is_disabled":false,"rental_uris":{"android":"levelo://app?vid=a704d00f-fa02-4fe3-91e2-2416c16951bb","ios":"levelo://app?vid=a704d00f-fa02-4fe3-91e2-2416c16951bb"},"vehicle_type_id":"4","last_reported":1735855709,"current_range_meters":39200,"station_id":"ce4bhnp2rcd13ifvqgvg","pricing_plan_id":"cebpf4jnsgd1na2vs0mg"},{"bike_id":"2332862a-3884-4317-af82-ee9793e9b62c","system_id":"levelo_inurba_marseille","lat":43.24075,"lon":5.37753,"is_reserved":false,"is_disabled":false,"rental_uris":{"android":"levelo://app?vid=2332862a-3884-4317-af82-ee9793e9b62c","ios":"levelo://app?vid=2332862a-3884-4317-af82-ee9793e9b62c"},"vehicle_type_id":"4","last_reported":1735855709,"current_range_meters":24800,"station_id":"ce4bhnp2rcd13ifvqgvg","pricing_plan_id":"cebpf4jnsgd1na2vs0mg"},{"bike_id":"1b0b8897-032a-46c6-aaf7-d764fab8e97a","system_id":"levelo_inurba_marseille","lat":43.25874,"lon":5.39914,"is_reserved":false,"is_disabled":false,"rental_uris":{"android":"levelo://app?vid=1b0b8897-032a-46c6-aaf7-d764fab8e97a","ios":"levelo://app?vid=1b0b8897-032a-46c6-aaf7-d764fab8e97a"},"vehicle_type_id":"4","last_reported":1735855709,"current_range_meters":39200,"station_id":"ce4bhl92rcd13ifvqghg","pricing_plan_id":"cebpf4jnsgd1na2vs0mg"},{"bike_id":"e6fa8bd9-5f74-401a-b12e-57e85af877cf","system_id":"levelo_inurba_marseille","lat":43.30331,"lon":5.36905,"is_reserved":false,"is_disabled":false,"rental_uris":{"android":"levelo://app?vid=e6fa8bd9-5f74-401a-b12e-57e85af877cf","ios":"levelo://app?vid=e6fa8bd9-5f74-401a-b12e-57e85af877cf"},"vehicle_type_id":"4","last_reported":1735855709,"current_range_meters":27600,"station_id":"ce4bgqh2rcd13ifvqc5g","pricing_plan_id":"cebpf4jnsgd1na2vs0mg"},{"bike_id":"4483098c-d27d-4534-ad16-c209ae457c9a","system_id":"levelo_inurba_marseille","lat":43.31535,"lon":5.38014,"is_reserved":false,"is_disabled":false,"rental_uris":{"android":"levelo://app?vid=4483098c-d27d-4534-ad16-c209ae457c9a","ios":"levelo://app?vid=4483098c-d27d-4534-ad16-c209ae457c9a"},"vehicle_type_id":"4","last_reported":1735855709,"current_range_meters":38800,"station_id":"ce4bhsp2rcd13ifvqi50","pricing_plan_id":"cebpf4jnsgd1na2vs0mg"},{"bike_id":"4b5d15eb-6f91-491f-b47b-91411914d867","system_id":"levelo_inurba_marseille","lat":43.26929,"lon":5.40259,"is_reserved":false,"is_disabled":false,"rental_uris":{"android":"levelo://app?vid=4b5d15eb-6f91-491f-b47b-91411914d867","ios":"levelo://app?vid=4b5d15eb-6f91-491f-b47b-91411914d867"},"vehicle_type_id":"4","last_reported":1735855709,"current_range_meters":11200,"station_id":"cjm6bp8fraef2m0cb0m0","pricing_plan_id":"cebpf4jnsgd1na2vs0mg"},{"bike_id":"b0f40622-14a2-47af-8c8c-4a938f1cf2c3","system_id":"levelo_inurba_marseille","lat":43.2885,"lon":5.35869,"is_reserved":false,"is_disabled":false,"rental_uris":{"android":"levelo://app?vid=b0f40622-14a2-47af-8c8c-4a938f1cf2c3","ios":"levelo://app?vid=b0f40622-14a2-47af-8c8c-4a938f1cf2c3"},"vehicle_type_id":"4","last_reported":1735855709,"current_range_meters":32400,"station_id":"ce4bhb12rcd13ifvqem0","pricing_plan_id":"cebpf4jnsgd1na2vs0mg"},{"bike_id":"6e51dd9f-cdd7-4e88-a3a7-736fac684727","system_id":"levelo_inurba_marseille","lat":43.31074,"lon":5.38351,"is_reserved":false,"is_disabled":false,"rental_uris":{"android":"levelo://app?vid=6e51dd9f-cdd7-4e88-a3a7-736fac684727","ios":"levelo://app?vid=6e51dd9f-cdd7-4e88-a3a7-736fac684727"},"vehicle_type_id":"4","last_reported":1735855709,"current_range_meters":22800,"station_id":"ce4bgv92rcd13ifvqcr0","pricing_plan_id":"cebpf4jnsgd1na2vs0mg"},{"bike_id":"2cad5e9d-f183-4c3f-a642-7c176e4884d1","system_id":"levelo_inurba_marseille","lat":43.25817,"lon":5.39421,"is_reserved":false,"is_disabled":false,"rental_uris":{"android":"levelo://app?vid=2cad5e9d-f183-4c3f-a642-7c176e4884d1","ios":"levelo://app?vid=2cad5e9d-f183-4c3f-a642-7c176e4884d1"},"vehicle_type_id":"4","last_reported":1735855709,"current_range_meters":38400,"station_id":"ce4bhip2rcd13ifvqft0","pricing_plan_id":"cebpf4jnsgd1na2vs0mg"},{"bike_id":"2bc85ea5-00ae-44c0-a255-cc0d04be90b9","system_id":"levelo_inurba_marseille","lat":43.28413,"lon":5.34983,"is_reserved":false,"is_disabled":false,"rental_uris":{"android":"levelo://app?vid=2bc85ea5-00ae-44c0-a255-cc0d04be90b9","ios":"levelo://app?vid=2bc85ea5-00ae-44c0-a255-cc0d04be90b9"},"vehicle_type_id":"4","last_reported":1735855709,"current_range_meters":11600,"station_id":"ce4bhbh2rcd13ifvqepg","pricing_plan_id":"cebpf4jnsgd1na2vs0mg"},{"bike_id":"9ec22bb6-ddde-4544-bfca-bd222a10c5d4","system_id":"levelo_inurba_marseille","lat":43.28604,"lon":5.35114,"is_reserved":false,"is_disabled":false,"rental_uris":{"android":"levelo://app?vid=9ec22bb6-ddde-4544-bfca-bd222a10c5d4","ios":"levelo://app?vid=9ec22bb6-ddde-4544-bfca-bd222a10c5d4"},"vehicle_type_id":"4","last_reported":1735855709,"current_range_meters":11200,"station_id":"ce4bhch2rcd13ifvqeug","pricing_plan_id":"cebpf4jnsgd1na2vs0mg"},{"bike_id":"97906f7b-eda2-4c80-8b4b-122bc957a1cd","system_id":"levelo_inurba_marseille","lat":43.28609,"lon":5.35091,"is_reserved":false,"is_disabled":false,"rental_uris":{"android":"levelo://app?vid=97906f7b-eda2-4c80-8b4b-122bc957a1cd","ios":"levelo://app?vid=97906f7b-eda2-4c80-8b4b-122bc957a1cd"},"vehicle_type_id":"4","last_reported":1735855709,"current_range_meters":24000,"station_id":"ce4bhch2rcd13ifvqeug","pricing_plan_id":"cebpf4jnsgd1na2vs0mg"},{"bike_id":"1c062351-f698-4ee4-87ae-fce7281bfbb0","system_id":"levelo_inurba_marseille","lat":43.295362,"lon":5.385492,"is_reserved":false,"is_disabled":false,"rental_uris":{"android":"levelo://app?vid=1c062351-f698-4ee4-87ae-fce7281bfbb0","ios":"levelo://app?vid=1c062351-f698-4ee4-87ae-fce7281bfbb0"},"vehicle_type_id":"4","last_reported":1735855709,"current_range_meters":38800,"station_id":"ce4bgih2rcd13ifvqba0","pricing_plan_id":"cebpf4jnsgd1na2vs0mg"},{"bike_id":"a767814d-32c1-4888-928e-16b2e9383b03","system_id":"levelo_inurba_marseille","lat":43.28688,"lon":5.3866,"is_reserved":false,"is_disabled":false,"rental_uris":{"android":"levelo://app?vid=a767814d-32c1-4888-928e-16b2e9383b03","ios":"levelo://app?vid=a767814d-32c1-4888-928e-16b2e9383b03"},"vehicle_type_id":"4","last_reported":1735855709,"current_range_meters":38800,"station_id":"ce4bh492rcd13ifvqdug","pricing_plan_id":"cebpf4jnsgd1na2vs0mg"},{"bike_id":"6ae21bf4-723a-4bec-a078-944e55a17a07","system_id":"levelo_inurba_marseille","lat":43.31325,"lon":5.39694,"is_reserved":false,"is_disabled":false,"rental_uris":{"android":"levelo://app?vid=6ae21bf4-723a-4bec-a078-944e55a17a07","ios":"levelo://app?vid=6ae21bf4-723a-4bec-a078-944e55a17a07"},"vehicle_type_id":"4","last_reported":1735855709,"current_range_meters":22400,"station_id":"ce4bgvp2rcd13ifvqcu0","pricing_plan_id":"cebpf4jnsgd1na2vs0mg"},{"bike_id":"a1c87532-6196-402b-916e-8ad945b95f72","system_id":"levelo_inurba_marseille","lat":43.25122,"lon":5.40317,"is_reserved":false,"is_disabled":false,"rental_uris":{"android":"levelo://app?vid=a1c87532-6196-402b-916e-8ad945b95f72","ios":"levelo://app?vid=a1c87532-6196-402b-916e-8ad945b95f72"},"vehicle_type_id":"4","last_reported":1735855709,"current_range_meters":10800,"station_id":"ce4bhlh2rcd13ifvqgig","pricing_plan_id":"cebpf4jnsgd1na2vs0mg"},{"bike_id":"4ce38f45-b3ef-4ce1-84b1-8cf7c7ee4592","system_id":"levelo_inurba_marseille","lat":43.27959,"lon":5.4103,"is_reserved":false,"is_disabled":false,"rental_uris":{"android":"levelo://app?vid=4ce38f45-b3ef-4ce1-84b1-8cf7c7ee4592","ios":"levelo://app?vid=4ce38f45-b3ef-4ce1-84b1-8cf7c7ee4592"},"vehicle_type_id":"4","last_reported":1735855709,"current_range_meters":32000,"station_id":"ce4bhnp2rcd13ifvqh0g","pricing_plan_id":"cebpf4jnsgd1na2vs0mg"},{"bike_id":"f6fd2c08-b919-4a18-b4c7-8102421d86fe","system_id":"levelo_inurba_marseille","lat":43.29277,"lon":5.36849,"is_reserved":false,"is_disabled":false,"rental_uris":{"android":"levelo://app?vid=f6fd2c08-b919-4a18-b4c7-8102421d86fe","ios":"levelo://app?vid=f6fd2c08-b919-4a18-b4c7-8102421d86fe"},"vehicle_type_id":"4","last_reported":1735855709,"current_range_meters":36000,"station_id":"ce4bhbp2rcd13ifvqesg","pricing_plan_id":"cebpf4jnsgd1na2vs0mg"},{"bike_id":"1aab64ef-fd92-42de-aaa7-880e183a2f03","system_id":"levelo_inurba_marseille","lat":43.29407,"lon":5.38624,"is_reserved":false,"is_disabled":false,"rental_uris":{"android":"levelo://app?vid=1aab64ef-fd92-42de-aaa7-880e183a2f03","ios":"levelo://app?vid=1aab64ef-fd92-42de-aaa7-880e183a2f03"},"vehicle_type_id":"4","last_reported":1735855709,"current_range_meters":16800,"station_id":"ce4bh2h2rcd13ifvqdh0","pricing_plan_id":"cebpf4jnsgd1na2vs0mg"},{"bike_id":"9af04c2b-e900-461c-9058-ec0f5098ef00","system_id":"levelo_inurba_marseille","lat":43.29522,"lon":5.3906,"is_reserved":false,"is_disabled":false,"rental_uris":{"android":"levelo://app?vid=9af04c2b-e900-461c-9058-ec0f5098ef00","ios":"levelo://app?vid=9af04c2b-e900-461c-9058-ec0f5098ef00"},"vehicle_type_id":"4","last_reported":1735855709,"current_range_meters":14000,"station_id":"ce4bh3p2rcd13ifvqdp0","pricing_plan_id":"cebpf4jnsgd1na2vs0mg"},{"bike_id":"78572a2c-1c3f-4133-b287-846b2e936b8b","system_id":"levelo_inurba_marseille","lat":43.24038,"lon":5.37738,"is_reserved":false,"is_disabled":false,"rental_uris":{"android":"levelo://app?vid=78572a2c-1c3f-4133-b287-846b2e936b8b","ios":"levelo://app?vid=78572a2c-1c3f-4133-b287-846b2e936b8b"},"vehicle_type_id":"4","last_reported":1735855709,"current_range_meters":14800,"station_id":"ce4bhnp2rcd13ifvqgvg","pricing_plan_id":"cebpf4jnsgd1na2vs0mg"},{"bike_id":"5f1486d7-4fae-4801-9d26-fff2da0e4875","system_id":"levelo_inurba_marseille","lat":43.31993,"lon":5.38156,"is_reserved":false,"is_disabled":false,"rental_uris":{"android":"levelo://app?vid=5f1486d7-4fae-4801-9d26-fff2da0e4875","ios":"levelo://app?vid=5f1486d7-4fae-4801-9d26-fff2da0e4875"},"vehicle_type_id":"4","last_reported":1735855709,"current_range_meters":34000,"station_id":"ce4bhr12rcd13ifvqhpg","pricing_plan_id":"cebpf4jnsgd1na2vs0mg"},{"bike_id":"b3c9c756-8404-49d9-9a02-e748fc0751ce","system_id":"levelo_inurba_marseille","lat":43.25823,"lon":5.39435,"is_reserved":false,"is_disabled":false,"rental_uris":{"android":"levelo://app?vid=b3c9c756-8404-49d9-9a02-e748fc0751ce","ios":"levelo://app?vid=b3c9c756-8404-49d9-9a02-e748fc0751ce"},"vehicle_type_id":"4","last_reported":1735855709,"current_range_meters":24400,"station_id":"ce4bhip2rcd13ifvqft0","pricing_plan_id":"cebpf4jnsgd1na2vs0mg"},{"bike_id":"2f857458-45ae-4306-9ffb-5d94252d59a5","system_id":"levelo_inurba_marseille","lat":43.2465,"lon":5.389,"is_reserved":false,"is_disabled":false,"rental_uris":{"android":"levelo://app?vid=2f857458-45ae-4306-9ffb-5d94252d59a5","ios":"levelo://app?vid=2f857458-45ae-4306-9ffb-5d94252d59a5"},"vehicle_type_id":"4","last_reported":1735855709,"current_range_meters":37600,"station_id":"ce4bhg12rcd13ifvqf60","pricing_plan_id":"cebpf4jnsgd1na2vs0mg"},{"bike_id":"0c44e8cb-6c44-450a-a3ff-5dfd7e18baf3","system_id":"levelo_inurba_marseille","lat":43.27988,"lon":5.41652,"is_reserved":false,"is_disabled":false,"rental_uris":{"android":"levelo://app?vid=0c44e8cb-6c44-450a-a3ff-5dfd7e18baf3","ios":"levelo://app?vid=0c44e8cb-6c44-450a-a3ff-5dfd7e18baf3"},"vehicle_type_id":"4","last_reported":1735855709,"current_range_meters":38800,"station_id":"ce4bho12rcd13ifvqh1g","pricing_plan_id":"cebpf4jnsgd1na2vs0mg"},{"bike_id":"25990fff-4e8a-4c9a-9f77-d0b15d680caa","system_id":"levelo_inurba_marseille","lat":43.2695,"lon":5.38654,"is_reserved":false,"is_disabled":true,"rental_uris":{"android":"levelo://app?vid=25990fff-4e8a-4c9a-9f77-d0b15d680caa","ios":"levelo://app?vid=25990fff-4e8a-4c9a-9f77-d0b15d680caa"},"vehicle_type_id":"4","last_reported":1735855709,"current_range_meters":19600,"station_id":"ce4bhh92rcd13ifvqfh0","pricing_plan_id":"cebpf4jnsgd1na2vs0mg"},{"bike_id":"62d408d0-e0fd-421c-8a1a-168ab701b6d1","system_id":"levelo_inurba_marseille","lat":43.28622,"lon":5.351,"is_reserved":false,"is_disabled":false,"rental_uris":{"android":"levelo://app?vid=62d408d0-e0fd-421c-8a1a-168ab701b6d1","ios":"levelo://app?vid=62d408d0-e0fd-421c-8a1a-168ab701b6d1"},"vehicle_type_id":"4","last_reported":1735855709,"current_range_meters":24000,"station_id":"ce4bhch2rcd13ifvqeug","pricing_plan_id":"cebpf4jnsgd1na2vs0mg"},{"bike_id":"2170d6ca-e81b-4d62-8f72-aeeb5bab1c5b","system_id":"levelo_inurba_marseille","lat":43.26195,"lon":5.37445,"is_reserved":false,"is_disabled":false,"rental_uris":{"android":"levelo://app?vid=2170d6ca-e81b-4d62-8f72-aeeb5bab1c5b","ios":"levelo://app?vid=2170d6ca-e81b-4d62-8f72-aeeb5bab1c5b"},"vehicle_type_id":"4","last_reported":1735855709,"current_range_meters":14000,"station_id":"ce4bhgp2rcd13ifvqfc0","pricing_plan_id":"cebpf4jnsgd1na2vs0mg"},{"bike_id":"51855b67-dd6c-4e75-b660-5384b749b10b","system_id":"levelo_inurba_marseille","lat":43.31714,"lon":5.37758,"is_reserved":false,"is_disabled":false,"rental_uris":{"android":"levelo://app?vid=51855b67-dd6c-4e75-b660-5384b749b10b","ios":"levelo://app?vid=51855b67-dd6c-4e75-b660-5384b749b10b"},"vehicle_type_id":"4","last_reported":1735855709,"current_range_meters":37600,"station_id":"ce4bgth2rcd13ifvqch0","pricing_plan_id":"cebpf4jnsgd1na2vs0mg"},{"bike_id":"61145c38-69e6-40aa-98ce-2e37c606abcc","system_id":"levelo_inurba_marseille","lat":43.29526,"lon":5.38537,"is_reserved":false,"is_disabled":false,"rental_uris":{"android":"levelo://app?vid=61145c38-69e6-40aa-98ce-2e37c606abcc","ios":"levelo://app?vid=61145c38-69e6-40aa-98ce-2e37c606abcc"},"vehicle_type_id":"4","last_reported":1735855709,"current_range_meters":38000,"station_id":"ce4bgih2rcd13ifvqba0","pricing_plan_id":"cebpf4jnsgd1na2vs0mg"},{"bike_id":"56f472aa-6acc-47d3-ada3-27f6fe447e34","system_id":"levelo_inurba_marseille","lat":43.28104,"lon":5.37833,"is_reserved":false,"is_disabled":false,"rental_uris":{"android":"levelo://app?vid=56f472aa-6acc-47d3-ada3-27f6fe447e34","ios":"levelo://app?vid=56f472aa-6acc-47d3-ada3-27f6fe447e34"},"vehicle_type_id":"4","last_reported":1735855709,"current_range_meters":19200,"station_id":"ce4bha12rcd13ifvqee0","pricing_plan_id":"cebpf4jnsgd1na2vs0mg"},{"bike_id":"a34109c1-878e-429f-9326-63e9db216b66","system_id":"levelo_inurba_marseille","lat":43.27956,"lon":5.4105,"is_reserved":false,"is_disabled":false,"rental_uris":{"android":"levelo://app?vid=a34109c1-878e-429f-9326-63e9db216b66","ios":"levelo://app?vid=a34109c1-878e-429f-9326-63e9db216b66"},"vehicle_type_id":"4","last_reported":1735855709,"current_range_meters":24800,"station_id":"ce4bhnp2rcd13ifvqh0g","pricing_plan_id":"cebpf4jnsgd1na2vs0mg"},{"bike_id":"07914263-3d03-4738-b553-ee795a62a79e","system_id":"levelo_inurba_marseille","lat":43.2586,"lon":5.39904,"is_reserved":false,"is_disabled":false,"rental_uris":{"android":"levelo://app?vid=07914263-3d03-4738-b553-ee795a62a79e","ios":"levelo://app?vid=07914263-3d03-4738-b553-ee795a62a79e"},"vehicle_type_id":"4","last_reported":1735855709,"current_range_meters":28400,"station_id":"ce4bhl92rcd13ifvqghg","pricing_plan_id":"cebpf4jnsgd1na2vs0mg"},{"bike_id":"bb86822c-fbb4-4a53-ad41-da0950153260","system_id":"levelo_inurba_marseille","lat":43.26811,"lon":5.3943,"is_reserved":false,"is_disabled":false,"rental_uris":{"android":"levelo://app?vid=bb86822c-fbb4-4a53-ad41-da0950153260","ios":"levelo://app?vid=bb86822c-fbb4-4a53-ad41-da0950153260"},"vehicle_type_id":"4","last_reported":1735855709,"current_range_meters":28400,"station_id":"ce4bhh12rcd13ifvqfg0","pricing_plan_id":"cebpf4jnsgd1na2vs0mg"},{"bike_id":"b1650b6b-8edc-4f81-a3ba-94700ac4cc56","system_id":"levelo_inurba_marseille","lat":43.31686,"lon":5.40473,"is_reserved":false,"is_disabled":false,"rental_uris":{"android":"levelo://app?vid=b1650b6b-8edc-4f81-a3ba-94700ac4cc56","ios":"levelo://app?vid=b1650b6b-8edc-4f81-a3ba-94700ac4cc56"},"vehicle_type_id":"4","last_reported":1735855709,"current_range_meters":39200,"station_id":"ce4bh012rcd13ifvqd00","pricing_plan_id":"cebpf4jnsgd1na2vs0mg"},{"bike_id":"930d1246-af8a-4749-bccd-369ef682eb0b","system_id":"levelo_inurba_marseille","lat":43.28462,"lon":5.35889,"is_reserved":false,"is_disabled":false,"rental_uris":{"android":"levelo://app?vid=930d1246-af8a-4749-bccd-369ef682eb0b","ios":"levelo://app?vid=930d1246-af8a-4749-bccd-369ef682eb0b"},"vehicle_type_id":"4","last_reported":1735855709,"current_range_meters":35600,"station_id":"ce4bhah2rcd13ifvqei0","pricing_plan_id":"cebpf4jnsgd1na2vs0mg"},{"bike_id":"25c73ff4-b516-4ca7-9e8d-cb16f8cf8ef6","system_id":"levelo_inurba_marseille","lat":43.240713,"lon":5.377618,"is_reserved":false,"is_disabled":false,"rental_uris":{"android":"levelo://app?vid=25c73ff4-b516-4ca7-9e8d-cb16f8cf8ef6","ios":"levelo://app?vid=25c73ff4-b516-4ca7-9e8d-cb16f8cf8ef6"},"vehicle_type_id":"4","last_reported":1735855709,"current_range_meters":38800,"station_id":"ce4bhnp2rcd13ifvqgvg","pricing_plan_id":"cebpf4jnsgd1na2vs0mg"},{"bike_id":"1c65d5ca-002d-46d8-8cf8-e2765edf73c5","system_id":"levelo_inurba_marseille","lat":43.28354,"lon":5.38086,"is_reserved":false,"is_disabled":false,"rental_uris":{"android":"levelo://app?vid=1c65d5ca-002d-46d8-8cf8-e2765edf73c5","ios":"levelo://app?vid=1c65d5ca-002d-46d8-8cf8-e2765edf73c5"},"vehicle_type_id":"4","last_reported":1735855709,"current_range_meters":29600,"station_id":"ce4bh412rcd13ifvqdr0","pricing_plan_id":"cebpf4jnsgd1na2vs0mg"},{"bike_id":"ea32b928-7eb3-4fee-b386-0e661138c78a","system_id":"levelo_inurba_marseille","lat":43.30439,"lon":5.38886,"is_reserved":false,"is_disabled":false,"rental_uris":{"android":"levelo://app?vid=ea32b928-7eb3-4fee-b386-0e661138c78a","ios":"levelo://app?vid=ea32b928-7eb3-4fee-b386-0e661138c78a"},"vehicle_type_id":"4","last_reported":1735855709,"current_range_meters":28800,"station_id":"ce4bgk12rcd13ifvqbi0","pricing_plan_id":"cebpf4jnsgd1na2vs0mg"},{"bike_id":"431e8137-1d19-49b7-a59f-90e99653dd46","system_id":"levelo_inurba_marseille","lat":43.30332,"lon":5.40432,"is_reserved":false,"is_disabled":false,"rental_uris":{"android":"levelo://app?vid=431e8137-1d19-49b7-a59f-90e99653dd46","ios":"levelo://app?vid=431e8137-1d19-49b7-a59f-90e99653dd46"},"vehicle_type_id":"4","last_reported":1735855709,"current_range_meters":16000,"station_id":"ce4bh012rcd13ifvqd10","pricing_plan_id":"cebpf4jnsgd1na2vs0mg"},{"bike_id":"a6f828f1-5f97-4da7-bf33-7d48a155db3e","system_id":"levelo_inurba_marseille","lat":43.27825,"lon":5.39188,"is_reserved":false,"is_disabled":false,"rental_uris":{"android":"levelo://app?vid=a6f828f1-5f97-4da7-bf33-7d48a155db3e","ios":"levelo://app?vid=a6f828f1-5f97-4da7-bf33-7d48a155db3e"},"vehicle_type_id":"4","last_reported":1735855709,"current_range_meters":33600,"station_id":"ce4bhjp2rcd13ifvqga0","pricing_plan_id":"cebpf4jnsgd1na2vs0mg"},{"bike_id":"bbefe573-2e5c-4fbf-a5d6-e0f28031c10d","system_id":"levelo_inurba_marseille","lat":43.31357,"lon":5.38498,"is_reserved":false,"is_disabled":false,"rental_uris":{"android":"levelo://app?vid=bbefe573-2e5c-4fbf-a5d6-e0f28031c10d","ios":"levelo://app?vid=bbefe573-2e5c-4fbf-a5d6-e0f28031c10d"},"vehicle_type_id":"4","last_reported":1735855709,"current_range_meters":38800,"station_id":"ce4bgt92rcd13ifvqcf0","pricing_plan_id":"cebpf4jnsgd1na2vs0mg"},{"bike_id":"97e13ddf-c974-499e-83cd-3303626944c0","system_id":"levelo_inurba_marseille","lat":43.255787,"lon":5.3823,"is_reserved":false,"is_disabled":false,"rental_uris":{"android":"levelo://app?vid=97e13ddf-c974-499e-83cd-3303626944c0","ios":"levelo://app?vid=97e13ddf-c974-499e-83cd-3303626944c0"},"vehicle_type_id":"4","last_reported":1735855709,"current_range_meters":39200,"station_id":"ce4bhih2rcd13ifvqfs0","pricing_plan_id":"cebpf4jnsgd1na2vs0mg"},{"bike_id":"2cb73bff-3a8c-4792-af59-167d685e0a29","system_id":"levelo_inurba_marseille","lat":43.31315,"lon":5.3747,"is_reserved":false,"is_disabled":false,"rental_uris":{"android":"levelo://app?vid=2cb73bff-3a8c-4792-af59-167d685e0a29","ios":"levelo://app?vid=2cb73bff-3a8c-4792-af59-167d685e0a29"},"vehicle_type_id":"4","last_reported":1735855709,"current_range_meters":38000,"station_id":"","pricing_plan_id":"cebpf4jnsgd1na2vs0mg"},{"bike_id":"f20c015a-0ed9-41c9-b102-c68f5f84fd52","system_id":"levelo_inurba_marseille","lat":43.29537,"lon":5.38534,"is_reserved":false,"is_disabled":false,"rental_uris":{"android":"levelo://app?vid=f20c015a-0ed9-41c9-b102-c68f5f84fd52","ios":"levelo://app?vid=f20c015a-0ed9-41c9-b102-c68f5f84fd52"},"vehicle_type_id":"4","last_reported":1735855709,"current_range_meters":38800,"station_id":"ce4bgih2rcd13ifvqba0","pricing_plan_id":"cebpf4jnsgd1na2vs0mg"},{"bike_id":"0d22c007-f5b2-4481-9b21-08f35f061702","system_id":"levelo_inurba_marseille","lat":43.29638,"lon":5.3715,"is_reserved":false,"is_disabled":true,"rental_uris":{"android":"levelo://app?vid=0d22c007-f5b2-4481-9b21-08f35f061702","ios":"levelo://app?vid=0d22c007-f5b2-4481-9b21-08f35f061702"},"vehicle_type_id":"4","last_reported":1735855709,"current_range_meters":0,"station_id":"ce4bgnh2rcd13ifvqc0g","pricing_plan_id":"cebpf4jnsgd1na2vs0mg"},{"bike_id":"924beefc-7f17-496a-b7df-d11950357e09","system_id":"levelo_inurba_marseille","lat":43.29038,"lon":5.38641,"is_reserved":false,"is_disabled":false,"rental_uris":{"android":"levelo://app?vid=924beefc-7f17-496a-b7df-d11950357e09","ios":"levelo://app?vid=924beefc-7f17-496a-b7df-d11950357e09"},"vehicle_type_id":"4","last_reported":1735855709,"current_range_meters":17200,"station_id":"ce4bh4p2rcd13ifvqe0g","pricing_plan_id":"cebpf4jnsgd1na2vs0mg"},{"bike_id":"b36d0aa9-35b5-4ab6-b66b-656e8883a3a5","system_id":"levelo_inurba_marseille","lat":43.29536,"lon":5.3905,"is_reserved":false,"is_disabled":false,"rental_uris":{"android":"levelo://app?vid=b36d0aa9-35b5-4ab6-b66b-656e8883a3a5","ios":"levelo://app?vid=b36d0aa9-35b5-4ab6-b66b-656e8883a3a5"},"vehicle_type_id":"4","last_reported":1735855709,"current_range_meters":26000,"station_id":"ce4bh3p2rcd13ifvqdp0","pricing_plan_id":"cebpf4jnsgd1na2vs0mg"},{"bike_id":"4ec9a40c-8280-4de8-96a4-11e7ba503642","system_id":"levelo_inurba_marseille","lat":43.23862,"lon":5.38984,"is_reserved":false,"is_disabled":false,"rental_uris":{"android":"levelo://app?vid=4ec9a40c-8280-4de8-96a4-11e7ba503642","ios":"levelo://app?vid=4ec9a40c-8280-4de8-96a4-11e7ba503642"},"vehicle_type_id":"4","last_reported":1735855709,"current_range_meters":3200,"station_id":"","pricing_plan_id":"cebpf4jnsgd1na2vs0mg"},{"bike_id":"5b7717da-e440-485c-99dd-04e9381b9186","system_id":"levelo_inurba_marseille","lat":43.29012,"lon":5.355987,"is_reserved":false,"is_disabled":false,"rental_uris":{"android":"levelo://app?vid=5b7717da-e440-485c-99dd-04e9381b9186","ios":"levelo://app?vid=5b7717da-e440-485c-99dd-04e9381b9186"},"vehicle_type_id":"4","last_reported":1735855709,"current_range_meters":37600,"station_id":"ce4bhb92rcd13ifvqen0","pricing_plan_id":"cebpf4jnsgd1na2vs0mg"},{"bike_id":"f811a98b-9aa7-419d-8e74-1c4088ab1bbc","system_id":"levelo_inurba_marseille","lat":43.2707,"lon":5.42277,"is_reserved":false,"is_disabled":false,"rental_uris":{"android":"levelo://app?vid=f811a98b-9aa7-419d-8e74-1c4088ab1bbc","ios":"levelo://app?vid=f811a98b-9aa7-419d-8e74-1c4088ab1bbc"},"vehicle_type_id":"4","last_reported":1735855709,"current_range_meters":39200,"station_id":"ce4bhk92rcd13ifvqgb0","pricing_plan_id":"cebpf4jnsgd1na2vs0mg"},{"bike_id":"8f236aa0-69d9-4777-af98-8397a0b1ff94","system_id":"levelo_inurba_marseille","lat":43.28164,"lon":5.426,"is_reserved":false,"is_disabled":true,"rental_uris":{"android":"levelo://app?vid=8f236aa0-69d9-4777-af98-8397a0b1ff94","ios":"levelo://app?vid=8f236aa0-69d9-4777-af98-8397a0b1ff94"},"vehicle_type_id":"4","last_reported":1735855709,"current_range_meters":8000,"station_id":"ce4bhnh2rcd13ifvqgug","pricing_plan_id":"cebpf4jnsgd1na2vs0mg"},{"bike_id":"dc737e5c-4eb5-4582-904f-d256d791071d","system_id":"levelo_inurba_marseille","lat":43.29304,"lon":5.37161,"is_reserved":false,"is_disabled":false,"rental_uris":{"android":"levelo://app?vid=dc737e5c-4eb5-4582-904f-d256d791071d","ios":"levelo://app?vid=dc737e5c-4eb5-4582-904f-d256d791071d"},"vehicle_type_id":"4","last_reported":1735855709,"current_range_meters":30400,"station_id":"ce4bgh92rcd13ifvqb40","pricing_plan_id":"cebpf4jnsgd1na2vs0mg"},{"bike_id":"8e936699-fb94-4c05-a18e-6a31521ab968","system_id":"levelo_inurba_marseille","lat":43.28452,"lon":5.35916,"is_reserved":false,"is_disabled":false,"rental_uris":{"android":"levelo://app?vid=8e936699-fb94-4c05-a18e-6a31521ab968","ios":"levelo://app?vid=8e936699-fb94-4c05-a18e-6a31521ab968"},"vehicle_type_id":"4","last_reported":1735855709,"current_range_meters":37600,"station_id":"ce4bhah2rcd13ifvqei0","pricing_plan_id":"cebpf4jnsgd1na2vs0mg"},{"bike_id":"46f5fb1b-d118-4734-9a2d-808b02a5288b","system_id":"levelo_inurba_marseille","lat":43.293319,"lon":5.371486,"is_reserved":false,"is_disabled":false,"rental_uris":{"android":"levelo://app?vid=46f5fb1b-d118-4734-9a2d-808b02a5288b","ios":"levelo://app?vid=46f5fb1b-d118-4734-9a2d-808b02a5288b"},"vehicle_type_id":"4","last_reported":1735855709,"current_range_meters":24400,"station_id":"ce4bhbp2rcd13ifvqerg","pricing_plan_id":"cebpf4jnsgd1na2vs0mg"},{"bike_id":"d9039fb6-1526-43a5-ab47-bf6c74051347","system_id":"levelo_inurba_marseille","lat":43.2816,"lon":5.42647,"is_reserved":false,"is_disabled":false,"rental_uris":{"android":"levelo://app?vid=d9039fb6-1526-43a5-ab47-bf6c74051347","ios":"levelo://app?vid=d9039fb6-1526-43a5-ab47-bf6c74051347"},"vehicle_type_id":"4","last_reported":1735855709,"current_range_meters":38800,"station_id":"ce4bhnh2rcd13ifvqgug","pricing_plan_id":"cebpf4jnsgd1na2vs0mg"},{"bike_id":"185e056a-57e1-403b-8772-f224568b8a81","system_id":"levelo_inurba_marseille","lat":43.24681,"lon":5.38165,"is_reserved":false,"is_disabled":false,"rental_uris":{"android":"levelo://app?vid=185e056a-57e1-403b-8772-f224568b8a81","ios":"levelo://app?vid=185e056a-57e1-403b-8772-f224568b8a81"},"vehicle_type_id":"4","last_reported":1735855709,"current_range_meters":38400,"station_id":"ce4bhih2rcd13ifvqfr0","pricing_plan_id":"cebpf4jnsgd1na2vs0mg"},{"bike_id":"536ced03-f935-46b5-972d-99c9305195ab","system_id":"levelo_inurba_marseille","lat":43.31071,"lon":5.38352,"is_reserved":false,"is_disabled":false,"rental_uris":{"android":"levelo://app?vid=536ced03-f935-46b5-972d-99c9305195ab","ios":"levelo://app?vid=536ced03-f935-46b5-972d-99c9305195ab"},"vehicle_type_id":"4","last_reported":1735855709,"current_range_meters":29600,"station_id":"ce4bgv92rcd13ifvqcr0","pricing_plan_id":"cebpf4jnsgd1na2vs0mg"},{"bike_id":"1535751f-d4cf-419c-9c37-fd434b11e1c3","system_id":"levelo_inurba_marseille","lat":43.29081,"lon":5.38157,"is_reserved":false,"is_disabled":false,"rental_uris":{"android":"levelo://app?vid=1535751f-d4cf-419c-9c37-fd434b11e1c3","ios":"levelo://app?vid=1535751f-d4cf-419c-9c37-fd434b11e1c3"},"vehicle_type_id":"4","last_reported":1735855709,"current_range_meters":6800,"station_id":"ce4bh512rcd13ifvqe2g","pricing_plan_id":"cebpf4jnsgd1na2vs0mg"},{"bike_id":"022d826a-d31d-48ef-b07e-f8dd0ceaa746","system_id":"levelo_inurba_marseille","lat":43.24996,"lon":5.38935,"is_reserved":false,"is_disabled":false,"rental_uris":{"android":"levelo://app?vid=022d826a-d31d-48ef-b07e-f8dd0ceaa746","ios":"levelo://app?vid=022d826a-d31d-48ef-b07e-f8dd0ceaa746"},"vehicle_type_id":"4","last_reported":1735855709,"current_range_meters":26000,"station_id":"ce4bhgp2rcd13ifvqfd0","pricing_plan_id":"cebpf4jnsgd1na2vs0mg"},{"bike_id":"5f97eee1-4bb9-43f4-8e6e-a0b21a58fdc8","system_id":"levelo_inurba_marseille","lat":43.31889,"lon":5.40715,"is_reserved":false,"is_disabled":false,"rental_uris":{"android":"levelo://app?vid=5f97eee1-4bb9-43f4-8e6e-a0b21a58fdc8","ios":"levelo://app?vid=5f97eee1-4bb9-43f4-8e6e-a0b21a58fdc8"},"vehicle_type_id":"4","last_reported":1735855709,"current_range_meters":39200,"station_id":"ce4bhq12rcd13ifvqhig","pricing_plan_id":"cebpf4jnsgd1na2vs0mg"},{"bike_id":"dd71223a-e6e5-4f87-ac58-d60d1bab7a9e","system_id":"levelo_inurba_marseille","lat":43.30638,"lon":5.40089,"is_reserved":false,"is_disabled":false,"rental_uris":{"android":"levelo://app?vid=dd71223a-e6e5-4f87-ac58-d60d1bab7a9e","ios":"levelo://app?vid=dd71223a-e6e5-4f87-ac58-d60d1bab7a9e"},"vehicle_type_id":"4","last_reported":1735855709,"current_range_meters":36800,"station_id":"ce4bh112rcd13ifvqda0","pricing_plan_id":"cebpf4jnsgd1na2vs0mg"},{"bike_id":"aa7af42f-8014-4dc6-ab73-33e64c4b5566","system_id":"levelo_inurba_marseille","lat":43.2964,"lon":5.4059,"is_reserved":false,"is_disabled":false,"rental_uris":{"android":"levelo://app?vid=aa7af42f-8014-4dc6-ab73-33e64c4b5566","ios":"levelo://app?vid=aa7af42f-8014-4dc6-ab73-33e64c4b5566"},"vehicle_type_id":"4","last_reported":1735855709,"current_range_meters":38800,"station_id":"ce4bh0h2rcd13ifvqd60","pricing_plan_id":"cebpf4jnsgd1na2vs0mg"},{"bike_id":"41ceb840-185c-47e7-a0f3-5a5721651aab","system_id":"levelo_inurba_marseille","lat":43.31313,"lon":5.39718,"is_reserved":false,"is_disabled":false,"rental_uris":{"android":"levelo://app?vid=41ceb840-185c-47e7-a0f3-5a5721651aab","ios":"levelo://app?vid=41ceb840-185c-47e7-a0f3-5a5721651aab"},"vehicle_type_id":"4","last_reported":1735855709,"current_range_meters":6800,"station_id":"ce4bgvp2rcd13ifvqcu0","pricing_plan_id":"cebpf4jnsgd1na2vs0mg"},{"bike_id":"983a939f-0c90-4b41-8e07-1ba37a328643","system_id":"levelo_inurba_marseille","lat":43.2417,"lon":5.36397,"is_reserved":false,"is_disabled":false,"rental_uris":{"android":"levelo://app?vid=983a939f-0c90-4b41-8e07-1ba37a328643","ios":"levelo://app?vid=983a939f-0c90-4b41-8e07-1ba37a328643"},"vehicle_type_id":"4","last_reported":1735855709,"current_range_meters":30800,"station_id":"cpo36qri1sfpv3e86is0","pricing_plan_id":"cebpf4jnsgd1na2vs0mg"},{"bike_id":"658f3f86-23aa-48e9-af5f-b9cb4bbf3b8e","system_id":"levelo_inurba_marseille","lat":43.29558,"lon":5.42268,"is_reserved":false,"is_disabled":false,"rental_uris":{"android":"levelo://app?vid=658f3f86-23aa-48e9-af5f-b9cb4bbf3b8e","ios":"levelo://app?vid=658f3f86-23aa-48e9-af5f-b9cb4bbf3b8e"},"vehicle_type_id":"4","last_reported":1735855709,"current_range_meters":39200,"station_id":"ce4bhph2rcd13ifvqhdg","pricing_plan_id":"cebpf4jnsgd1na2vs0mg"},{"bike_id":"4298f84f-8dec-414e-9590-0e5ba0849cf4","system_id":"levelo_inurba_marseille","lat":43.29086,"lon":5.3817,"is_reserved":false,"is_disabled":false,"rental_uris":{"android":"levelo://app?vid=4298f84f-8dec-414e-9590-0e5ba0849cf4","ios":"levelo://app?vid=4298f84f-8dec-414e-9590-0e5ba0849cf4"},"vehicle_type_id":"4","last_reported":1735855709,"current_range_meters":24400,"station_id":"ce4bh512rcd13ifvqe2g","pricing_plan_id":"cebpf4jnsgd1na2vs0mg"},{"bike_id":"33dc37c8-ad31-4bbb-a502-8ad8309bfdd3","system_id":"levelo_inurba_marseille","lat":43.29889,"lon":5.43647,"is_reserved":false,"is_disabled":false,"rental_uris":{"android":"levelo://app?vid=33dc37c8-ad31-4bbb-a502-8ad8309bfdd3","ios":"levelo://app?vid=33dc37c8-ad31-4bbb-a502-8ad8309bfdd3"},"vehicle_type_id":"4","last_reported":1735855709,"current_range_meters":38800,"station_id":"ce4bhpp2rcd13ifvqhfg","pricing_plan_id":"cebpf4jnsgd1na2vs0mg"},{"bike_id":"4fc9d381-e3c5-4112-9560-31f2e3e46493","system_id":"levelo_inurba_marseille","lat":43.27943,"lon":5.41047,"is_reserved":false,"is_disabled":false,"rental_uris":{"android":"levelo://app?vid=4fc9d381-e3c5-4112-9560-31f2e3e46493","ios":"levelo://app?vid=4fc9d381-e3c5-4112-9560-31f2e3e46493"},"vehicle_type_id":"4","last_reported":1735855709,"current_range_meters":7200,"station_id":"ce4bhnp2rcd13ifvqh0g","pricing_plan_id":"cebpf4jnsgd1na2vs0mg"},{"bike_id":"d0030ff6-f8b3-4b75-bb9b-f2175ff4ca9d","system_id":"levelo_inurba_marseille","lat":43.24073,"lon":5.37751,"is_reserved":false,"is_disabled":false,"rental_uris":{"android":"levelo://app?vid=d0030ff6-f8b3-4b75-bb9b-f2175ff4ca9d","ios":"levelo://app?vid=d0030ff6-f8b3-4b75-bb9b-f2175ff4ca9d"},"vehicle_type_id":"4","last_reported":1735855709,"current_range_meters":38800,"station_id":"ce4bhnp2rcd13ifvqgvg","pricing_plan_id":"cebpf4jnsgd1na2vs0mg"},{"bike_id":"9d3fc8c9-2a30-46f6-a17d-7e1c0cdaa39c","system_id":"levelo_inurba_marseille","lat":43.297793,"lon":5.380962,"is_reserved":false,"is_disabled":false,"rental_uris":{"android":"levelo://app?vid=9d3fc8c9-2a30-46f6-a17d-7e1c0cdaa39c","ios":"levelo://app?vid=9d3fc8c9-2a30-46f6-a17d-7e1c0cdaa39c"},"vehicle_type_id":"4","last_reported":1735855709,"current_range_meters":35600,"station_id":"ce4bgip2rcd13ifvqbb0","pricing_plan_id":"cebpf4jnsgd1na2vs0mg"},{"bike_id":"288df3f3-407a-4ba2-b112-c5ead5bfabe0","system_id":"levelo_inurba_marseille","lat":43.28995,"lon":5.35598,"is_reserved":false,"is_disabled":true,"rental_uris":{"android":"levelo://app?vid=288df3f3-407a-4ba2-b112-c5ead5bfabe0","ios":"levelo://app?vid=288df3f3-407a-4ba2-b112-c5ead5bfabe0"},"vehicle_type_id":"4","last_reported":1735855709,"current_range_meters":38000,"station_id":"ce4bhb92rcd13ifvqen0","pricing_plan_id":"cebpf4jnsgd1na2vs0mg"},{"bike_id":"349a4ab8-6f13-4948-be71-abaadb9466ee","system_id":"levelo_inurba_marseille","lat":43.24064,"lon":5.37746,"is_reserved":false,"is_disabled":false,"rental_uris":{"android":"levelo://app?vid=349a4ab8-6f13-4948-be71-abaadb9466ee","ios":"levelo://app?vid=349a4ab8-6f13-4948-be71-abaadb9466ee"},"vehicle_type_id":"4","last_reported":1735855709,"current_range_meters":38000,"station_id":"ce4bhnp2rcd13ifvqgvg","pricing_plan_id":"cebpf4jnsgd1na2vs0mg"},{"bike_id":"e147a7b3-9e94-4f33-a9e2-8b559e074ee3","system_id":"levelo_inurba_marseille","lat":43.27938,"lon":5.41044,"is_reserved":false,"is_disabled":false,"rental_uris":{"android":"levelo://app?vid=e147a7b3-9e94-4f33-a9e2-8b559e074ee3","ios":"levelo://app?vid=e147a7b3-9e94-4f33-a9e2-8b559e074ee3"},"vehicle_type_id":"4","last_reported":1735855709,"current_range_meters":26800,"station_id":"ce4bhnp2rcd13ifvqh0g","pricing_plan_id":"cebpf4jnsgd1na2vs0mg"},{"bike_id":"97829712-45ed-44f4-98b1-03aec2ad37f0","system_id":"levelo_inurba_marseille","lat":43.26672,"lon":5.38262,"is_reserved":false,"is_disabled":false,"rental_uris":{"android":"levelo://app?vid=97829712-45ed-44f4-98b1-03aec2ad37f0","ios":"levelo://app?vid=97829712-45ed-44f4-98b1-03aec2ad37f0"},"vehicle_type_id":"4","last_reported":1735855709,"current_range_meters":38800,"station_id":"ce4bhg92rcd13ifvqf90","pricing_plan_id":"cebpf4jnsgd1na2vs0mg"},{"bike_id":"e7f232e6-9751-45f4-a24f-005b95d10947","system_id":"levelo_inurba_marseille","lat":43.2959,"lon":5.37704,"is_reserved":false,"is_disabled":true,"rental_uris":{"android":"levelo://app?vid=e7f232e6-9751-45f4-a24f-005b95d10947","ios":"levelo://app?vid=e7f232e6-9751-45f4-a24f-005b95d10947"},"vehicle_type_id":"4","last_reported":1735855709,"current_range_meters":800,"station_id":"ce4bgi92rcd13ifvqb90","pricing_plan_id":"cebpf4jnsgd1na2vs0mg"},{"bike_id":"4cf49d06-d12a-4f67-a04c-da55d1b6d7b0","system_id":"levelo_inurba_marseille","lat":43.28107,"lon":5.37862,"is_reserved":false,"is_disabled":false,"rental_uris":{"android":"levelo://app?vid=4cf49d06-d12a-4f67-a04c-da55d1b6d7b0","ios":"levelo://app?vid=4cf49d06-d12a-4f67-a04c-da55d1b6d7b0"},"vehicle_type_id":"4","last_reported":1735855709,"current_range_meters":20400,"station_id":"ce4bha12rcd13ifvqee0","pricing_plan_id":"cebpf4jnsgd1na2vs0mg"},{"bike_id":"f3998a04-3b93-4948-8eb7-aa16047370fd","system_id":"levelo_inurba_marseille","lat":43.27957,"lon":5.41046,"is_reserved":false,"is_disabled":false,"rental_uris":{"android":"levelo://app?vid=f3998a04-3b93-4948-8eb7-aa16047370fd","ios":"levelo://app?vid=f3998a04-3b93-4948-8eb7-aa16047370fd"},"vehicle_type_id":"4","last_reported":1735855709,"current_range_meters":22400,"station_id":"ce4bhnp2rcd13ifvqh0g","pricing_plan_id":"cebpf4jnsgd1na2vs0mg"},{"bike_id":"1c5434c6-81cf-4ea8-9bf2-abfb41c12665","system_id":"levelo_inurba_marseille","lat":43.30891,"lon":5.37214,"is_reserved":false,"is_disabled":true,"rental_uris":{"android":"levelo://app?vid=1c5434c6-81cf-4ea8-9bf2-abfb41c12665","ios":"levelo://app?vid=1c5434c6-81cf-4ea8-9bf2-abfb41c12665"},"vehicle_type_id":"4","last_reported":1735855709,"current_range_meters":37600,"station_id":"ce4bguh2rcd13ifvqckg","pricing_plan_id":"cebpf4jnsgd1na2vs0mg"},{"bike_id":"bbb173c2-5fa6-4439-999a-e24a3ecc81ee","system_id":"levelo_inurba_marseille","lat":43.29559,"lon":5.42265,"is_reserved":false,"is_disabled":false,"rental_uris":{"android":"levelo://app?vid=bbb173c2-5fa6-4439-999a-e24a3ecc81ee","ios":"levelo://app?vid=bbb173c2-5fa6-4439-999a-e24a3ecc81ee"},"vehicle_type_id":"4","last_reported":1735855709,"current_range_meters":30400,"station_id":"ce4bhph2rcd13ifvqhdg","pricing_plan_id":"cebpf4jnsgd1na2vs0mg"},{"bike_id":"1a179dc3-f8e0-460a-82bb-c6968a20da94","system_id":"levelo_inurba_marseille","lat":43.30102,"lon":5.39076,"is_reserved":false,"is_disabled":false,"rental_uris":{"android":"levelo://app?vid=1a179dc3-f8e0-460a-82bb-c6968a20da94","ios":"levelo://app?vid=1a179dc3-f8e0-460a-82bb-c6968a20da94"},"vehicle_type_id":"4","last_reported":1735855709,"current_range_meters":38400,"station_id":"ce4bh192rcd13ifvqdb0","pricing_plan_id":"cebpf4jnsgd1na2vs0mg"},{"bike_id":"bf0134ca-54e1-43be-8b29-8c6ccab6ae0d","system_id":"levelo_inurba_marseille","lat":43.24803,"lon":5.37455,"is_reserved":false,"is_disabled":false,"rental_uris":{"android":"levelo://app?vid=bf0134ca-54e1-43be-8b29-8c6ccab6ae0d","ios":"levelo://app?vid=bf0134ca-54e1-43be-8b29-8c6ccab6ae0d"},"vehicle_type_id":"4","last_reported":1735855709,"current_range_meters":38800,"station_id":"ce4bhgh2rcd13ifvqfb0","pricing_plan_id":"cebpf4jnsgd1na2vs0mg"},{"bike_id":"e157af35-862f-4ff3-a971-0cec14143385","system_id":"levelo_inurba_marseille","lat":43.27941,"lon":5.41037,"is_reserved":false,"is_disabled":false,"rental_uris":{"android":"levelo://app?vid=e157af35-862f-4ff3-a971-0cec14143385","ios":"levelo://app?vid=e157af35-862f-4ff3-a971-0cec14143385"},"vehicle_type_id":"4","last_reported":1735855709,"current_range_meters":26800,"station_id":"ce4bhnp2rcd13ifvqh0g","pricing_plan_id":"cebpf4jnsgd1na2vs0mg"},{"bike_id":"88eec43e-8cfe-4e7e-9657-47d4d1c24b81","system_id":"levelo_inurba_marseille","lat":43.29262,"lon":5.38427,"is_reserved":false,"is_disabled":false,"rental_uris":{"android":"levelo://app?vid=88eec43e-8cfe-4e7e-9657-47d4d1c24b81","ios":"levelo://app?vid=88eec43e-8cfe-4e7e-9657-47d4d1c24b81"},"vehicle_type_id":"4","last_reported":1735855709,"current_range_meters":25200,"station_id":"ce4bh692rcd13ifvqea0","pricing_plan_id":"cebpf4jnsgd1na2vs0mg"},{"bike_id":"a4828b82-6158-43c7-aedb-77476d918880","system_id":"levelo_inurba_marseille","lat":43.28613,"lon":5.35099,"is_reserved":false,"is_disabled":true,"rental_uris":{"android":"levelo://app?vid=a4828b82-6158-43c7-aedb-77476d918880","ios":"levelo://app?vid=a4828b82-6158-43c7-aedb-77476d918880"},"vehicle_type_id":"4","last_reported":1735855709,"current_range_meters":24800,"station_id":"ce4bhch2rcd13ifvqeug","pricing_plan_id":"cebpf4jnsgd1na2vs0mg"},{"bike_id":"43c64af5-9471-4260-89db-8ab112e03a32","system_id":"levelo_inurba_marseille","lat":43.27491,"lon":5.42462,"is_reserved":false,"is_disabled":false,"rental_uris":{"android":"levelo://app?vid=43c64af5-9471-4260-89db-8ab112e03a32","ios":"levelo://app?vid=43c64af5-9471-4260-89db-8ab112e03a32"},"vehicle_type_id":"4","last_reported":1735855709,"current_range_meters":10800,"station_id":"ce4bhn92rcd13ifvqgrg","pricing_plan_id":"cebpf4jnsgd1na2vs0mg"},{"bike_id":"aab95f4a-8936-4128-a3c4-5f9f8cdc46fb","system_id":"levelo_inurba_marseille","lat":43.29975,"lon":5.38478,"is_reserved":false,"is_disabled":false,"rental_uris":{"android":"levelo://app?vid=aab95f4a-8936-4128-a3c4-5f9f8cdc46fb","ios":"levelo://app?vid=aab95f4a-8936-4128-a3c4-5f9f8cdc46fb"},"vehicle_type_id":"4","last_reported":1735855709,"current_range_meters":22800,"station_id":"ce4bgj92rcd13ifvqbd0","pricing_plan_id":"cebpf4jnsgd1na2vs0mg"},{"bike_id":"bb7e0253-4de1-45a9-937a-dde49e321461","system_id":"levelo_inurba_marseille","lat":43.29905,"lon":5.39765,"is_reserved":false,"is_disabled":false,"rental_uris":{"android":"levelo://app?vid=bb7e0253-4de1-45a9-937a-dde49e321461","ios":"levelo://app?vid=bb7e0253-4de1-45a9-937a-dde49e321461"},"vehicle_type_id":"4","last_reported":1735855709,"current_range_meters":17200,"station_id":"","pricing_plan_id":"cebpf4jnsgd1na2vs0mg"},{"bike_id":"6c91ae54-0f05-4c3a-808a-f7a0e4f55390","system_id":"levelo_inurba_marseille","lat":43.26053,"lon":5.39395,"is_reserved":false,"is_disabled":false,"rental_uris":{"android":"levelo://app?vid=6c91ae54-0f05-4c3a-808a-f7a0e4f55390","ios":"levelo://app?vid=6c91ae54-0f05-4c3a-808a-f7a0e4f55390"},"vehicle_type_id":"4","last_reported":1735855709,"current_range_meters":37600,"station_id":"ce4bhh92rcd13ifvqfj0","pricing_plan_id":"cebpf4jnsgd1na2vs0mg"},{"bike_id":"a106e2d5-d5f8-4132-b59f-a0b0becc7d1d","system_id":"levelo_inurba_marseille","lat":43.28001,"lon":5.40003,"is_reserved":false,"is_disabled":false,"rental_uris":{"android":"levelo://app?vid=a106e2d5-d5f8-4132-b59f-a0b0becc7d1d","ios":"levelo://app?vid=a106e2d5-d5f8-4132-b59f-a0b0becc7d1d"},"vehicle_type_id":"4","last_reported":1735855709,"current_range_meters":3200,"station_id":"ce4bho92rcd13ifvqh4g","pricing_plan_id":"cebpf4jnsgd1na2vs0mg"},{"bike_id":"01ff8f59-7e36-40f3-8c14-a4c836affc26","system_id":"levelo_inurba_marseille","lat":43.28085,"lon":5.39661,"is_reserved":false,"is_disabled":false,"rental_uris":{"android":"levelo://app?vid=01ff8f59-7e36-40f3-8c14-a4c836affc26","ios":"levelo://app?vid=01ff8f59-7e36-40f3-8c14-a4c836affc26"},"vehicle_type_id":"4","last_reported":1735855709,"current_range_meters":32400,"station_id":"ce4bho12rcd13ifvqh2g","pricing_plan_id":"cebpf4jnsgd1na2vs0mg"},{"bike_id":"2be68c29-c94e-4760-9460-42f37e2c6f76","system_id":"levelo_inurba_marseille","lat":43.29272,"lon":5.38424,"is_reserved":false,"is_disabled":false,"rental_uris":{"android":"levelo://app?vid=2be68c29-c94e-4760-9460-42f37e2c6f76","ios":"levelo://app?vid=2be68c29-c94e-4760-9460-42f37e2c6f76"},"vehicle_type_id":"4","last_reported":1735855709,"current_range_meters":36400,"station_id":"ce4bh692rcd13ifvqea0","pricing_plan_id":"cebpf4jnsgd1na2vs0mg"},{"bike_id":"1d64e5d9-6db1-4098-b8df-bf1bbd653564","system_id":"levelo_inurba_marseille","lat":43.27356,"lon":5.36235,"is_reserved":false,"is_disabled":true,"rental_uris":{"android":"levelo://app?vid=1d64e5d9-6db1-4098-b8df-bf1bbd653564","ios":"levelo://app?vid=1d64e5d9-6db1-4098-b8df-bf1bbd653564"},"vehicle_type_id":"4","last_reported":1735855709,"current_range_meters":0,"station_id":"ce4bhbh2rcd13ifvqeo0","pricing_plan_id":"cebpf4jnsgd1na2vs0mg"},{"bike_id":"313a9a0d-cbde-465d-8a65-140655419224","system_id":"levelo_inurba_marseille","lat":43.25522,"lon":5.37656,"is_reserved":false,"is_disabled":false,"rental_uris":{"android":"levelo://app?vid=313a9a0d-cbde-465d-8a65-140655419224","ios":"levelo://app?vid=313a9a0d-cbde-465d-8a65-140655419224"},"vehicle_type_id":"4","last_reported":1735855709,"current_range_meters":38800,"station_id":"ce4bhh12rcd13ifvqff0","pricing_plan_id":"cebpf4jnsgd1na2vs0mg"},{"bike_id":"660aed1d-cdeb-4a3c-a6d4-d19ef9a2563b","system_id":"levelo_inurba_marseille","lat":43.299,"lon":5.4367,"is_reserved":false,"is_disabled":false,"rental_uris":{"android":"levelo://app?vid=660aed1d-cdeb-4a3c-a6d4-d19ef9a2563b","ios":"levelo://app?vid=660aed1d-cdeb-4a3c-a6d4-d19ef9a2563b"},"vehicle_type_id":"4","last_reported":1735855709,"current_range_meters":38800,"station_id":"ce4bhpp2rcd13ifvqhfg","pricing_plan_id":"cebpf4jnsgd1na2vs0mg"},{"bike_id":"725999bb-8b32-4e5b-95fc-d63880a1b626","system_id":"levelo_inurba_marseille","lat":43.32684,"lon":5.4098,"is_reserved":false,"is_disabled":false,"rental_uris":{"android":"levelo://app?vid=725999bb-8b32-4e5b-95fc-d63880a1b626","ios":"levelo://app?vid=725999bb-8b32-4e5b-95fc-d63880a1b626"},"vehicle_type_id":"4","last_reported":1735855709,"current_range_meters":38800,"station_id":"ce4bhpp2rcd13ifvqhgg","pricing_plan_id":"cebpf4jnsgd1na2vs0mg"},{"bike_id":"2af79f06-2f41-443a-8c98-b554c72b55db","system_id":"levelo_inurba_marseille","lat":43.24744,"lon":5.37417,"is_reserved":false,"is_disabled":false,"rental_uris":{"android":"levelo://app?vid=2af79f06-2f41-443a-8c98-b554c72b55db","ios":"levelo://app?vid=2af79f06-2f41-443a-8c98-b554c72b55db"},"vehicle_type_id":"4","last_reported":1735855709,"current_range_meters":38800,"station_id":"","pricing_plan_id":"cebpf4jnsgd1na2vs0mg"},{"bike_id":"38288730-f0b5-4556-a24c-53425361eaa6","system_id":"levelo_inurba_marseille","lat":43.2794,"lon":5.41031,"is_reserved":false,"is_disabled":false,"rental_uris":{"android":"levelo://app?vid=38288730-f0b5-4556-a24c-53425361eaa6","ios":"levelo://app?vid=38288730-f0b5-4556-a24c-53425361eaa6"},"vehicle_type_id":"4","last_reported":1735855709,"current_range_meters":33600,"station_id":"ce4bhnp2rcd13ifvqh0g","pricing_plan_id":"cebpf4jnsgd1na2vs0mg"},{"bike_id":"915e9914-dd2f-42e8-929f-bfbaedf1bd82","system_id":"levelo_inurba_marseille","lat":43.32363,"lon":5.38883,"is_reserved":false,"is_disabled":false,"rental_uris":{"android":"levelo://app?vid=915e9914-dd2f-42e8-929f-bfbaedf1bd82","ios":"levelo://app?vid=915e9914-dd2f-42e8-929f-bfbaedf1bd82"},"vehicle_type_id":"4","last_reported":1735855709,"current_range_meters":36400,"station_id":"ce4bhqp2rcd13ifvqhog","pricing_plan_id":"cebpf4jnsgd1na2vs0mg"},{"bike_id":"a04ab52a-8bac-468d-99bd-613e6943d4f3","system_id":"levelo_inurba_marseille","lat":43.3265,"lon":5.40997,"is_reserved":false,"is_disabled":false,"rental_uris":{"android":"levelo://app?vid=a04ab52a-8bac-468d-99bd-613e6943d4f3","ios":"levelo://app?vid=a04ab52a-8bac-468d-99bd-613e6943d4f3"},"vehicle_type_id":"4","last_reported":1735855709,"current_range_meters":18000,"station_id":"ce4bhpp2rcd13ifvqhgg","pricing_plan_id":"cebpf4jnsgd1na2vs0mg"},{"bike_id":"96cb6bae-f2f5-4454-84e9-1e631669b024","system_id":"levelo_inurba_marseille","lat":43.25109,"lon":5.40335,"is_reserved":false,"is_disabled":false,"rental_uris":{"android":"levelo://app?vid=96cb6bae-f2f5-4454-84e9-1e631669b024","ios":"levelo://app?vid=96cb6bae-f2f5-4454-84e9-1e631669b024"},"vehicle_type_id":"4","last_reported":1735855709,"current_range_meters":39200,"station_id":"ce4bhlh2rcd13ifvqgig","pricing_plan_id":"cebpf4jnsgd1na2vs0mg"},{"bike_id":"cf986eca-7164-4799-831a-ebfe17289f1a","system_id":"levelo_inurba_marseille","lat":43.27616,"lon":5.36118,"is_reserved":false,"is_disabled":false,"rental_uris":{"android":"levelo://app?vid=cf986eca-7164-4799-831a-ebfe17289f1a","ios":"levelo://app?vid=cf986eca-7164-4799-831a-ebfe17289f1a"},"vehicle_type_id":"4","last_reported":1735855709,"current_range_meters":38000,"station_id":"ce4bgj92rcd13ifvqbe0","pricing_plan_id":"cebpf4jnsgd1na2vs0mg"},{"bike_id":"85f66c35-cf00-496f-866f-ed1cc2019cfb","system_id":"levelo_inurba_marseille","lat":43.281041,"lon":5.378424,"is_reserved":false,"is_disabled":false,"rental_uris":{"android":"levelo://app?vid=85f66c35-cf00-496f-866f-ed1cc2019cfb","ios":"levelo://app?vid=85f66c35-cf00-496f-866f-ed1cc2019cfb"},"vehicle_type_id":"4","last_reported":1735855709,"current_range_meters":38000,"station_id":"ce4bha12rcd13ifvqee0","pricing_plan_id":"cebpf4jnsgd1na2vs0mg"},{"bike_id":"71d7fd86-ae0c-4b15-9ac5-1afdce815ed0","system_id":"levelo_inurba_marseille","lat":43.29877,"lon":5.39743,"is_reserved":false,"is_disabled":false,"rental_uris":{"android":"levelo://app?vid=71d7fd86-ae0c-4b15-9ac5-1afdce815ed0","ios":"levelo://app?vid=71d7fd86-ae0c-4b15-9ac5-1afdce815ed0"},"vehicle_type_id":"4","last_reported":1735855709,"current_range_meters":38800,"station_id":"ce4bh0h2rcd13ifvqd50","pricing_plan_id":"cebpf4jnsgd1na2vs0mg"},{"bike_id":"921cbbf4-6180-4027-b0b7-152b6fc11410","system_id":"levelo_inurba_marseille","lat":43.27584,"lon":5.38438,"is_reserved":false,"is_disabled":false,"rental_uris":{"android":"levelo://app?vid=921cbbf4-6180-4027-b0b7-152b6fc11410","ios":"levelo://app?vid=921cbbf4-6180-4027-b0b7-152b6fc11410"},"vehicle_type_id":"4","last_reported":1735855709,"current_range_meters":8400,"station_id":"ce4bhh92rcd13ifvqfi0","pricing_plan_id":"cebpf4jnsgd1na2vs0mg"},{"bike_id":"d9e7591d-4e69-4829-a945-5299a0d4f5d3","system_id":"levelo_inurba_marseille","lat":43.31885,"lon":5.40729,"is_reserved":false,"is_disabled":false,"rental_uris":{"android":"levelo://app?vid=d9e7591d-4e69-4829-a945-5299a0d4f5d3","ios":"levelo://app?vid=d9e7591d-4e69-4829-a945-5299a0d4f5d3"},"vehicle_type_id":"4","last_reported":1735855709,"current_range_meters":17600,"station_id":"ce4bhq12rcd13ifvqhig","pricing_plan_id":"cebpf4jnsgd1na2vs0mg"},{"bike_id":"17011feb-119c-489c-906a-b56ce2c555ce","system_id":"levelo_inurba_marseille","lat":43.264958,"lon":5.395384,"is_reserved":false,"is_disabled":false,"rental_uris":{"android":"levelo://app?vid=17011feb-119c-489c-906a-b56ce2c555ce","ios":"levelo://app?vid=17011feb-119c-489c-906a-b56ce2c555ce"},"vehicle_type_id":"4","last_reported":1735855709,"current_range_meters":38800,"station_id":"ce4bhi12rcd13ifvqfq0","pricing_plan_id":"cebpf4jnsgd1na2vs0mg"},{"bike_id":"4e2e926a-cc62-4529-8b24-3abbcf0f0be2","system_id":"levelo_inurba_marseille","lat":43.23189,"lon":5.35573,"is_reserved":false,"is_disabled":false,"rental_uris":{"android":"levelo://app?vid=4e2e926a-cc62-4529-8b24-3abbcf0f0be2","ios":"levelo://app?vid=4e2e926a-cc62-4529-8b24-3abbcf0f0be2"},"vehicle_type_id":"4","last_reported":1735855709,"current_range_meters":35200,"station_id":"ce4bhu92rcd13ifvqi70","pricing_plan_id":"cebpf4jnsgd1na2vs0mg"},{"bike_id":"ee7da7e1-0487-4a7b-838f-676e9c820e80","system_id":"levelo_inurba_marseille","lat":43.304221,"lon":5.397367,"is_reserved":false,"is_disabled":true,"rental_uris":{"android":"levelo://app?vid=ee7da7e1-0487-4a7b-838f-676e9c820e80","ios":"levelo://app?vid=ee7da7e1-0487-4a7b-838f-676e9c820e80"},"vehicle_type_id":"4","last_reported":1735855709,"current_range_meters":36400,"station_id":"ce4bh092rcd13ifvqd20","pricing_plan_id":"cebpf4jnsgd1na2vs0mg"},{"bike_id":"7a656b0f-b894-4819-9a9c-6ca398469187","system_id":"levelo_inurba_marseille","lat":43.27989,"lon":5.41658,"is_reserved":false,"is_disabled":false,"rental_uris":{"android":"levelo://app?vid=7a656b0f-b894-4819-9a9c-6ca398469187","ios":"levelo://app?vid=7a656b0f-b894-4819-9a9c-6ca398469187"},"vehicle_type_id":"4","last_reported":1735855709,"current_range_meters":12000,"station_id":"ce4bho12rcd13ifvqh1g","pricing_plan_id":"cebpf4jnsgd1na2vs0mg"},{"bike_id":"acf032b2-5572-4901-8127-dc1be4986c08","system_id":"levelo_inurba_marseille","lat":43.30658,"lon":5.40067,"is_reserved":false,"is_disabled":false,"rental_uris":{"android":"levelo://app?vid=acf032b2-5572-4901-8127-dc1be4986c08","ios":"levelo://app?vid=acf032b2-5572-4901-8127-dc1be4986c08"},"vehicle_type_id":"4","last_reported":1735855709,"current_range_meters":30000,"station_id":"ce4bh112rcd13ifvqda0","pricing_plan_id":"cebpf4jnsgd1na2vs0mg"},{"bike_id":"6143990e-f7e7-4500-846e-085b8e8441f3","system_id":"levelo_inurba_marseille","lat":43.25579,"lon":5.38244,"is_reserved":false,"is_disabled":false,"rental_uris":{"android":"levelo://app?vid=6143990e-f7e7-4500-846e-085b8e8441f3","ios":"levelo://app?vid=6143990e-f7e7-4500-846e-085b8e8441f3"},"vehicle_type_id":"4","last_reported":1735855709,"current_range_meters":37600,"station_id":"ce4bhih2rcd13ifvqfs0","pricing_plan_id":"cebpf4jnsgd1na2vs0mg"},{"bike_id":"3c348272-b440-4426-b2c7-621e1bcaa53c","system_id":"levelo_inurba_marseille","lat":43.27063,"lon":5.42264,"is_reserved":false,"is_disabled":false,"rental_uris":{"android":"levelo://app?vid=3c348272-b440-4426-b2c7-621e1bcaa53c","ios":"levelo://app?vid=3c348272-b440-4426-b2c7-621e1bcaa53c"},"vehicle_type_id":"4","last_reported":1735855709,"current_range_meters":36000,"station_id":"ce4bhk92rcd13ifvqgb0","pricing_plan_id":"cebpf4jnsgd1na2vs0mg"},{"bike_id":"e39779cb-dd0b-481e-95ed-043cce584dc4","system_id":"levelo_inurba_marseille","lat":43.24387,"lon":5.3705,"is_reserved":false,"is_disabled":false,"rental_uris":{"android":"levelo://app?vid=e39779cb-dd0b-481e-95ed-043cce584dc4","ios":"levelo://app?vid=e39779cb-dd0b-481e-95ed-043cce584dc4"},"vehicle_type_id":"4","last_reported":1735855709,"current_range_meters":18800,"station_id":"ce4bhhh2rcd13ifvqfk0","pricing_plan_id":"cebpf4jnsgd1na2vs0mg"},{"bike_id":"a8a13160-f812-40c0-acb2-e3dd2832ffb4","system_id":"levelo_inurba_marseille","lat":43.29517,"lon":5.39397,"is_reserved":false,"is_disabled":false,"rental_uris":{"android":"levelo://app?vid=a8a13160-f812-40c0-acb2-e3dd2832ffb4","ios":"levelo://app?vid=a8a13160-f812-40c0-acb2-e3dd2832ffb4"},"vehicle_type_id":"4","last_reported":1735855709,"current_range_meters":36000,"station_id":"ce4bh292rcd13ifvqdf0","pricing_plan_id":"cebpf4jnsgd1na2vs0mg"},{"bike_id":"7d9eac44-8eea-4fdb-8e93-110dfe45e396","system_id":"levelo_inurba_marseille","lat":43.29793,"lon":5.38094,"is_reserved":false,"is_disabled":false,"rental_uris":{"android":"levelo://app?vid=7d9eac44-8eea-4fdb-8e93-110dfe45e396","ios":"levelo://app?vid=7d9eac44-8eea-4fdb-8e93-110dfe45e396"},"vehicle_type_id":"4","last_reported":1735855709,"current_range_meters":38000,"station_id":"ce4bgip2rcd13ifvqbb0","pricing_plan_id":"cebpf4jnsgd1na2vs0mg"},{"bike_id":"3815e6bf-fae6-4941-ab15-7c70eefa9203","system_id":"levelo_inurba_marseille","lat":43.2998,"lon":5.38488,"is_reserved":false,"is_disabled":false,"rental_uris":{"android":"levelo://app?vid=3815e6bf-fae6-4941-ab15-7c70eefa9203","ios":"levelo://app?vid=3815e6bf-fae6-4941-ab15-7c70eefa9203"},"vehicle_type_id":"4","last_reported":1735855709,"current_range_meters":16000,"station_id":"ce4bgj92rcd13ifvqbd0","pricing_plan_id":"cebpf4jnsgd1na2vs0mg"},{"bike_id":"a10cb38b-c0a9-46c5-81e3-8b36eafcdd96","system_id":"levelo_inurba_marseille","lat":43.2896,"lon":5.37826,"is_reserved":false,"is_disabled":true,"rental_uris":{"android":"levelo://app?vid=a10cb38b-c0a9-46c5-81e3-8b36eafcdd96","ios":"levelo://app?vid=a10cb38b-c0a9-46c5-81e3-8b36eafcdd96"},"vehicle_type_id":"4","last_reported":1735855709,"current_range_meters":35200,"station_id":"ce4bh9p2rcd13ifvqed0","pricing_plan_id":"cebpf4jnsgd1na2vs0mg"},{"bike_id":"1ce19b26-ae53-4687-b892-b6eb05b40593","system_id":"levelo_inurba_marseille","lat":43.26806,"lon":5.40271,"is_reserved":false,"is_disabled":false,"rental_uris":{"android":"levelo://app?vid=1ce19b26-ae53-4687-b892-b6eb05b40593","ios":"levelo://app?vid=1ce19b26-ae53-4687-b892-b6eb05b40593"},"vehicle_type_id":"4","last_reported":1735855709,"current_range_meters":36800,"station_id":"ce501612rcd8frsf0b60","pricing_plan_id":"cebpf4jnsgd1na2vs0mg"},{"bike_id":"e86e8a6b-2981-4147-9bb2-a5ab92db9450","system_id":"levelo_inurba_marseille","lat":43.28155,"lon":5.42645,"is_reserved":false,"is_disabled":false,"rental_uris":{"android":"levelo://app?vid=e86e8a6b-2981-4147-9bb2-a5ab92db9450","ios":"levelo://app?vid=e86e8a6b-2981-4147-9bb2-a5ab92db9450"},"vehicle_type_id":"4","last_reported":1735855709,"current_range_meters":38800,"station_id":"ce4bhnh2rcd13ifvqgug","pricing_plan_id":"cebpf4jnsgd1na2vs0mg"},{"bike_id":"36f6af84-b4ea-4fc7-b4cf-bfa109fbf38e","system_id":"levelo_inurba_marseille","lat":43.28152,"lon":5.42644,"is_reserved":false,"is_disabled":false,"rental_uris":{"android":"levelo://app?vid=36f6af84-b4ea-4fc7-b4cf-bfa109fbf38e","ios":"levelo://app?vid=36f6af84-b4ea-4fc7-b4cf-bfa109fbf38e"},"vehicle_type_id":"4","last_reported":1735855709,"current_range_meters":9200,"station_id":"ce4bhnh2rcd13ifvqgug","pricing_plan_id":"cebpf4jnsgd1na2vs0mg"},{"bike_id":"1f00a7d0-a41c-4260-8c41-d9243130a7f1","system_id":"levelo_inurba_marseille","lat":43.30138,"lon":5.39862,"is_reserved":false,"is_disabled":false,"rental_uris":{"android":"levelo://app?vid=1f00a7d0-a41c-4260-8c41-d9243130a7f1","ios":"levelo://app?vid=1f00a7d0-a41c-4260-8c41-d9243130a7f1"},"vehicle_type_id":"4","last_reported":1735855709,"current_range_meters":30400,"station_id":"ce4bh0h2rcd13ifvqd40","pricing_plan_id":"cebpf4jnsgd1na2vs0mg"},{"bike_id":"a14175ed-21b7-4bee-a20f-b5e0add00694","system_id":"levelo_inurba_marseille","lat":43.2843,"lon":5.39188,"is_reserved":false,"is_disabled":false,"rental_uris":{"android":"levelo://app?vid=a14175ed-21b7-4bee-a20f-b5e0add00694","ios":"levelo://app?vid=a14175ed-21b7-4bee-a20f-b5e0add00694"},"vehicle_type_id":"4","last_reported":1735855709,"current_range_meters":38800,"station_id":"ce4bhoh2rcd13ifvqh5g","pricing_plan_id":"cebpf4jnsgd1na2vs0mg"},{"bike_id":"5367a292-5564-4681-91cd-97babb89fc00","system_id":"levelo_inurba_marseille","lat":43.22928,"lon":5.3537,"is_reserved":false,"is_disabled":false,"rental_uris":{"android":"levelo://app?vid=5367a292-5564-4681-91cd-97babb89fc00","ios":"levelo://app?vid=5367a292-5564-4681-91cd-97babb89fc00"},"vehicle_type_id":"4","last_reported":1735855709,"current_range_meters":16400,"station_id":"cpo3532slgdg3j2ikp40","pricing_plan_id":"cebpf4jnsgd1na2vs0mg"},{"bike_id":"e40b8873-a7cf-4e56-b106-d515344f64c4","system_id":"levelo_inurba_marseille","lat":43.23194,"lon":5.35564,"is_reserved":false,"is_disabled":false,"rental_uris":{"android":"levelo://app?vid=e40b8873-a7cf-4e56-b106-d515344f64c4","ios":"levelo://app?vid=e40b8873-a7cf-4e56-b106-d515344f64c4"},"vehicle_type_id":"4","last_reported":1735855709,"current_range_meters":38800,"station_id":"ce4bhu92rcd13ifvqi70","pricing_plan_id":"cebpf4jnsgd1na2vs0mg"},{"bike_id":"14360ff4-527b-4a38-97fd-e73b70c574f3","system_id":"levelo_inurba_marseille","lat":43.30148,"lon":5.3877,"is_reserved":false,"is_disabled":false,"rental_uris":{"android":"levelo://app?vid=14360ff4-527b-4a38-97fd-e73b70c574f3","ios":"levelo://app?vid=14360ff4-527b-4a38-97fd-e73b70c574f3"},"vehicle_type_id":"4","last_reported":1735855709,"current_range_meters":39200,"station_id":"ce4bhoh2rcd13ifvqh6g","pricing_plan_id":"cebpf4jnsgd1na2vs0mg"},{"bike_id":"16a79894-6299-4562-af17-8a7f393c1fad","system_id":"levelo_inurba_marseille","lat":43.30877,"lon":5.368358,"is_reserved":false,"is_disabled":false,"rental_uris":{"android":"levelo://app?vid=16a79894-6299-4562-af17-8a7f393c1fad","ios":"levelo://app?vid=16a79894-6299-4562-af17-8a7f393c1fad"},"vehicle_type_id":"4","last_reported":1735855709,"current_range_meters":24800,"station_id":"ce4bgn92rcd13ifvqbvg","pricing_plan_id":"cebpf4jnsgd1na2vs0mg"},{"bike_id":"53a885e1-1033-47c5-b897-02cf79dd54f7","system_id":"levelo_inurba_marseille","lat":43.25862,"lon":5.39922,"is_reserved":false,"is_disabled":false,"rental_uris":{"android":"levelo://app?vid=53a885e1-1033-47c5-b897-02cf79dd54f7","ios":"levelo://app?vid=53a885e1-1033-47c5-b897-02cf79dd54f7"},"vehicle_type_id":"4","last_reported":1735855709,"current_range_meters":33600,"station_id":"ce4bhl92rcd13ifvqghg","pricing_plan_id":"cebpf4jnsgd1na2vs0mg"},{"bike_id":"6fce06c9-9bfc-48fb-9d2e-249a3534e237","system_id":"levelo_inurba_marseille","lat":43.26564,"lon":5.39019,"is_reserved":false,"is_disabled":false,"rental_uris":{"android":"levelo://app?vid=6fce06c9-9bfc-48fb-9d2e-249a3534e237","ios":"levelo://app?vid=6fce06c9-9bfc-48fb-9d2e-249a3534e237"},"vehicle_type_id":"4","last_reported":1735855709,"current_range_meters":35200,"station_id":"ce4bhe12rcd13ifvqf30","pricing_plan_id":"cebpf4jnsgd1na2vs0mg"},{"bike_id":"d3bbc23a-977b-4b81-88be-f7e0b1a7ab38","system_id":"levelo_inurba_marseille","lat":43.29454,"lon":5.39752,"is_reserved":false,"is_disabled":true,"rental_uris":{"android":"levelo://app?vid=d3bbc23a-977b-4b81-88be-f7e0b1a7ab38","ios":"levelo://app?vid=d3bbc23a-977b-4b81-88be-f7e0b1a7ab38"},"vehicle_type_id":"4","last_reported":1735855709,"current_range_meters":37600,"station_id":"ce4bh3h2rcd13ifvqdo0","pricing_plan_id":"cebpf4jnsgd1na2vs0mg"},{"bike_id":"e40ade54-cf66-48d6-8e74-a4bb5cce376c","system_id":"levelo_inurba_marseille","lat":43.23194,"lon":5.39971,"is_reserved":false,"is_disabled":false,"rental_uris":{"android":"levelo://app?vid=e40ade54-cf66-48d6-8e74-a4bb5cce376c","ios":"levelo://app?vid=e40ade54-cf66-48d6-8e74-a4bb5cce376c"},"vehicle_type_id":"4","last_reported":1735855709,"current_range_meters":14800,"station_id":"ce4bhn12rcd13ifvqgqg","pricing_plan_id":"cebpf4jnsgd1na2vs0mg"},{"bike_id":"ed8f677e-8f05-420b-b151-5bc1ff9f5eeb","system_id":"levelo_inurba_marseille","lat":43.29027,"lon":5.35625,"is_reserved":false,"is_disabled":false,"rental_uris":{"android":"levelo://app?vid=ed8f677e-8f05-420b-b151-5bc1ff9f5eeb","ios":"levelo://app?vid=ed8f677e-8f05-420b-b151-5bc1ff9f5eeb"},"vehicle_type_id":"4","last_reported":1735855709,"current_range_meters":38800,"station_id":"ce4bhb92rcd13ifvqen0","pricing_plan_id":"cebpf4jnsgd1na2vs0mg"},{"bike_id":"4b18fc74-124a-4026-8735-302c08bbdf7e","system_id":"levelo_inurba_marseille","lat":43.28671,"lon":5.3865,"is_reserved":false,"is_disabled":false,"rental_uris":{"android":"levelo://app?vid=4b18fc74-124a-4026-8735-302c08bbdf7e","ios":"levelo://app?vid=4b18fc74-124a-4026-8735-302c08bbdf7e"},"vehicle_type_id":"4","last_reported":1735855709,"current_range_meters":34000,"station_id":"ce4bh492rcd13ifvqdug","pricing_plan_id":"cebpf4jnsgd1na2vs0mg"},{"bike_id":"47bacd12-de07-48af-87bd-cc1ddc5d9c6a","system_id":"levelo_inurba_marseille","lat":43.29902,"lon":5.39731,"is_reserved":false,"is_disabled":false,"rental_uris":{"android":"levelo://app?vid=47bacd12-de07-48af-87bd-cc1ddc5d9c6a","ios":"levelo://app?vid=47bacd12-de07-48af-87bd-cc1ddc5d9c6a"},"vehicle_type_id":"4","last_reported":1735855709,"current_range_meters":9200,"station_id":"ce4bh0h2rcd13ifvqd50","pricing_plan_id":"cebpf4jnsgd1na2vs0mg"},{"bike_id":"1c02ae40-e43c-4632-b75b-2df9308dc3fe","system_id":"levelo_inurba_marseille","lat":43.337613,"lon":5.374348,"is_reserved":false,"is_disabled":false,"rental_uris":{"android":"levelo://app?vid=1c02ae40-e43c-4632-b75b-2df9308dc3fe","ios":"levelo://app?vid=1c02ae40-e43c-4632-b75b-2df9308dc3fe"},"vehicle_type_id":"4","last_reported":1735855709,"current_range_meters":37600,"station_id":"","pricing_plan_id":"cebpf4jnsgd1na2vs0mg"},{"bike_id":"6ffb4cb4-e3f4-4288-aac7-0645beedaa5f","system_id":"levelo_inurba_marseille","lat":43.29533,"lon":5.38537,"is_reserved":false,"is_disabled":false,"rental_uris":{"android":"levelo://app?vid=6ffb4cb4-e3f4-4288-aac7-0645beedaa5f","ios":"levelo://app?vid=6ffb4cb4-e3f4-4288-aac7-0645beedaa5f"},"vehicle_type_id":"4","last_reported":1735855709,"current_range_meters":13600,"station_id":"ce4bgih2rcd13ifvqba0","pricing_plan_id":"cebpf4jnsgd1na2vs0mg"},{"bike_id":"24049831-997c-4f9e-95e3-931d66cdb6df","system_id":"levelo_inurba_marseille","lat":43.28612,"lon":5.3509,"is_reserved":false,"is_disabled":false,"rental_uris":{"android":"levelo://app?vid=24049831-997c-4f9e-95e3-931d66cdb6df","ios":"levelo://app?vid=24049831-997c-4f9e-95e3-931d66cdb6df"},"vehicle_type_id":"4","last_reported":1735855709,"current_range_meters":31200,"station_id":"ce4bhch2rcd13ifvqeug","pricing_plan_id":"cebpf4jnsgd1na2vs0mg"},{"bike_id":"8da4c67d-2ed0-418e-b038-2836a9c86265","system_id":"levelo_inurba_marseille","lat":43.31673,"lon":5.43627,"is_reserved":false,"is_disabled":false,"rental_uris":{"android":"levelo://app?vid=8da4c67d-2ed0-418e-b038-2836a9c86265","ios":"levelo://app?vid=8da4c67d-2ed0-418e-b038-2836a9c86265"},"vehicle_type_id":"4","last_reported":1735855709,"current_range_meters":39200,"station_id":"ce4bhp92rcd13ifvqhcg","pricing_plan_id":"cebpf4jnsgd1na2vs0mg"},{"bike_id":"95ebf882-6bdb-48e9-a73a-65041ba239d8","system_id":"levelo_inurba_marseille","lat":43.30328,"lon":5.4044,"is_reserved":false,"is_disabled":false,"rental_uris":{"android":"levelo://app?vid=95ebf882-6bdb-48e9-a73a-65041ba239d8","ios":"levelo://app?vid=95ebf882-6bdb-48e9-a73a-65041ba239d8"},"vehicle_type_id":"4","last_reported":1735855709,"current_range_meters":25200,"station_id":"ce4bh012rcd13ifvqd10","pricing_plan_id":"cebpf4jnsgd1na2vs0mg"},{"bike_id":"5da924b7-1d86-48f2-a906-f2fea708abbd","system_id":"levelo_inurba_marseille","lat":43.27665,"lon":5.38923,"is_reserved":false,"is_disabled":true,"rental_uris":{"android":"levelo://app?vid=5da924b7-1d86-48f2-a906-f2fea708abbd","ios":"levelo://app?vid=5da924b7-1d86-48f2-a906-f2fea708abbd"},"vehicle_type_id":"4","last_reported":1735855709,"current_range_meters":38000,"station_id":"ce4bhi12rcd13ifvqfo0","pricing_plan_id":"cebpf4jnsgd1na2vs0mg"},{"bike_id":"73d6586e-df3e-4e1c-9c54-408e330e8f71","system_id":"levelo_inurba_marseille","lat":43.30917,"lon":5.40148,"is_reserved":false,"is_disabled":false,"rental_uris":{"android":"levelo://app?vid=73d6586e-df3e-4e1c-9c54-408e330e8f71","ios":"levelo://app?vid=73d6586e-df3e-4e1c-9c54-408e330e8f71"},"vehicle_type_id":"4","last_reported":1735855709,"current_range_meters":38800,"station_id":"ce4bgvp2rcd13ifvqct0","pricing_plan_id":"cebpf4jnsgd1na2vs0mg"},{"bike_id":"0de59c75-d5a6-499f-820e-82b7500ec1c3","system_id":"levelo_inurba_marseille","lat":43.2921,"lon":5.3933,"is_reserved":false,"is_disabled":false,"rental_uris":{"android":"levelo://app?vid=0de59c75-d5a6-499f-820e-82b7500ec1c3","ios":"levelo://app?vid=0de59c75-d5a6-499f-820e-82b7500ec1c3"},"vehicle_type_id":"4","last_reported":1735855709,"current_range_meters":38800,"station_id":"ce4bh192rcd13ifvqdd0","pricing_plan_id":"cebpf4jnsgd1na2vs0mg"},{"bike_id":"d858f272-5396-4509-83f4-bf8d2e835b76","system_id":"levelo_inurba_marseille","lat":43.23189,"lon":5.39981,"is_reserved":false,"is_disabled":false,"rental_uris":{"android":"levelo://app?vid=d858f272-5396-4509-83f4-bf8d2e835b76","ios":"levelo://app?vid=d858f272-5396-4509-83f4-bf8d2e835b76"},"vehicle_type_id":"4","last_reported":1735855709,"current_range_meters":28400,"station_id":"ce4bhn12rcd13ifvqgqg","pricing_plan_id":"cebpf4jnsgd1na2vs0mg"},{"bike_id":"6014b1e2-35bf-4517-95c5-f4b2b2de8022","system_id":"levelo_inurba_marseille","lat":43.31038,"lon":5.39275,"is_reserved":false,"is_disabled":true,"rental_uris":{"android":"levelo://app?vid=6014b1e2-35bf-4517-95c5-f4b2b2de8022","ios":"levelo://app?vid=6014b1e2-35bf-4517-95c5-f4b2b2de8022"},"vehicle_type_id":"4","last_reported":1735855709,"current_range_meters":0,"station_id":"","pricing_plan_id":"cebpf4jnsgd1na2vs0mg"},{"bike_id":"8d979c36-a643-4f41-94a9-78734d4aeda6","system_id":"levelo_inurba_marseille","lat":43.30581,"lon":5.3936,"is_reserved":false,"is_disabled":false,"rental_uris":{"android":"levelo://app?vid=8d979c36-a643-4f41-94a9-78734d4aeda6","ios":"levelo://app?vid=8d979c36-a643-4f41-94a9-78734d4aeda6"},"vehicle_type_id":"4","last_reported":1735855709,"current_range_meters":38800,"station_id":"ce4bh0p2rcd13ifvqd80","pricing_plan_id":"cebpf4jnsgd1na2vs0mg"},{"bike_id":"b15eb194-89f0-4e14-8d44-4a55284b6d89","system_id":"levelo_inurba_marseille","lat":43.29278,"lon":5.40116,"is_reserved":false,"is_disabled":false,"rental_uris":{"android":"levelo://app?vid=b15eb194-89f0-4e14-8d44-4a55284b6d89","ios":"levelo://app?vid=b15eb194-89f0-4e14-8d44-4a55284b6d89"},"vehicle_type_id":"4","last_reported":1735855709,"current_range_meters":30800,"station_id":"ce4bh312rcd13ifvqdk0","pricing_plan_id":"cebpf4jnsgd1na2vs0mg"},{"bike_id":"236eb851-54f4-4550-b34a-7e2e24746a1f","system_id":"levelo_inurba_marseille","lat":43.29536,"lon":5.38536,"is_reserved":false,"is_disabled":false,"rental_uris":{"android":"levelo://app?vid=236eb851-54f4-4550-b34a-7e2e24746a1f","ios":"levelo://app?vid=236eb851-54f4-4550-b34a-7e2e24746a1f"},"vehicle_type_id":"4","last_reported":1735855709,"current_range_meters":38800,"station_id":"ce4bgih2rcd13ifvqba0","pricing_plan_id":"cebpf4jnsgd1na2vs0mg"},{"bike_id":"8a0259b2-4ac3-411a-87ae-2802134ed81d","system_id":"levelo_inurba_marseille","lat":43.2892,"lon":5.38384,"is_reserved":false,"is_disabled":false,"rental_uris":{"android":"levelo://app?vid=8a0259b2-4ac3-411a-87ae-2802134ed81d","ios":"levelo://app?vid=8a0259b2-4ac3-411a-87ae-2802134ed81d"},"vehicle_type_id":"4","last_reported":1735855709,"current_range_meters":39200,"station_id":"ce4bh612rcd13ifvqe6g","pricing_plan_id":"cebpf4jnsgd1na2vs0mg"},{"bike_id":"a676ef63-e767-4d39-8a20-d3ec5d025d88","system_id":"levelo_inurba_marseille","lat":43.25823,"lon":5.39434,"is_reserved":false,"is_disabled":false,"rental_uris":{"android":"levelo://app?vid=a676ef63-e767-4d39-8a20-d3ec5d025d88","ios":"levelo://app?vid=a676ef63-e767-4d39-8a20-d3ec5d025d88"},"vehicle_type_id":"4","last_reported":1735855709,"current_range_meters":35600,"station_id":"ce4bhip2rcd13ifvqft0","pricing_plan_id":"cebpf4jnsgd1na2vs0mg"},{"bike_id":"8551631d-0b18-4817-a777-2e719449779f","system_id":"levelo_inurba_marseille","lat":43.26555,"lon":5.37283,"is_reserved":false,"is_disabled":false,"rental_uris":{"android":"levelo://app?vid=8551631d-0b18-4817-a777-2e719449779f","ios":"levelo://app?vid=8551631d-0b18-4817-a777-2e719449779f"},"vehicle_type_id":"4","last_reported":1735855709,"current_range_meters":26800,"station_id":"ce4bhg12rcd13ifvqf70","pricing_plan_id":"cebpf4jnsgd1na2vs0mg"},{"bike_id":"ff3724d3-70be-4346-8180-67541c2e6bb4","system_id":"levelo_inurba_marseille","lat":43.28913,"lon":5.38388,"is_reserved":false,"is_disabled":false,"rental_uris":{"android":"levelo://app?vid=ff3724d3-70be-4346-8180-67541c2e6bb4","ios":"levelo://app?vid=ff3724d3-70be-4346-8180-67541c2e6bb4"},"vehicle_type_id":"4","last_reported":1735855709,"current_range_meters":38800,"station_id":"ce4bh612rcd13ifvqe6g","pricing_plan_id":"cebpf4jnsgd1na2vs0mg"},{"bike_id":"326d1ee8-1ac7-4dc0-85ba-8fe9654229af","system_id":"levelo_inurba_marseille","lat":43.3059,"lon":5.39355,"is_reserved":false,"is_disabled":false,"rental_uris":{"android":"levelo://app?vid=326d1ee8-1ac7-4dc0-85ba-8fe9654229af","ios":"levelo://app?vid=326d1ee8-1ac7-4dc0-85ba-8fe9654229af"},"vehicle_type_id":"4","last_reported":1735855709,"current_range_meters":37600,"station_id":"ce4bh0p2rcd13ifvqd80","pricing_plan_id":"cebpf4jnsgd1na2vs0mg"},{"bike_id":"a9e62202-e3d5-494c-9cca-7476998a7982","system_id":"levelo_inurba_marseille","lat":43.2872,"lon":5.37937,"is_reserved":false,"is_disabled":false,"rental_uris":{"android":"levelo://app?vid=a9e62202-e3d5-494c-9cca-7476998a7982","ios":"levelo://app?vid=a9e62202-e3d5-494c-9cca-7476998a7982"},"vehicle_type_id":"4","last_reported":1735855709,"current_range_meters":39200,"station_id":"ce4bh9p2rcd13ifvqec0","pricing_plan_id":"cebpf4jnsgd1na2vs0mg"},{"bike_id":"1a8db9f8-8ade-49fb-b762-de8cc9ade11f","system_id":"levelo_inurba_marseille","lat":43.29901,"lon":5.38133,"is_reserved":false,"is_disabled":false,"rental_uris":{"android":"levelo://app?vid=1a8db9f8-8ade-49fb-b762-de8cc9ade11f","ios":"levelo://app?vid=1a8db9f8-8ade-49fb-b762-de8cc9ade11f"},"vehicle_type_id":"4","last_reported":1735855709,"current_range_meters":19600,"station_id":"ce4bgj12rcd13ifvqbc0","pricing_plan_id":"cebpf4jnsgd1na2vs0mg"},{"bike_id":"898ebcfa-1a27-4789-af7e-27b090bbcc03","system_id":"levelo_inurba_marseille","lat":43.2885,"lon":5.3934,"is_reserved":false,"is_disabled":false,"rental_uris":{"android":"levelo://app?vid=898ebcfa-1a27-4789-af7e-27b090bbcc03","ios":"levelo://app?vid=898ebcfa-1a27-4789-af7e-27b090bbcc03"},"vehicle_type_id":"4","last_reported":1735855709,"current_range_meters":17200,"station_id":"ce4bh2p2rcd13ifvqdi0","pricing_plan_id":"cebpf4jnsgd1na2vs0mg"},{"bike_id":"c14d1989-a72f-4241-a582-39661d0bcfcf","system_id":"levelo_inurba_marseille","lat":43.23186,"lon":5.35549,"is_reserved":false,"is_disabled":false,"rental_uris":{"android":"levelo://app?vid=c14d1989-a72f-4241-a582-39661d0bcfcf","ios":"levelo://app?vid=c14d1989-a72f-4241-a582-39661d0bcfcf"},"vehicle_type_id":"4","last_reported":1735855709,"current_range_meters":38800,"station_id":"ce4bhu92rcd13ifvqi70","pricing_plan_id":"cebpf4jnsgd1na2vs0mg"},{"bike_id":"ef72cdb4-465d-4178-b952-49906f159c48","system_id":"levelo_inurba_marseille","lat":43.28146,"lon":5.42632,"is_reserved":false,"is_disabled":false,"rental_uris":{"android":"levelo://app?vid=ef72cdb4-465d-4178-b952-49906f159c48","ios":"levelo://app?vid=ef72cdb4-465d-4178-b952-49906f159c48"},"vehicle_type_id":"4","last_reported":1735855709,"current_range_meters":25200,"station_id":"ce4bhnh2rcd13ifvqgug","pricing_plan_id":"cebpf4jnsgd1na2vs0mg"},{"bike_id":"7dfe26ce-d7ef-4cb2-a642-50e9fb8770b0","system_id":"levelo_inurba_marseille","lat":43.26199,"lon":5.379226,"is_reserved":false,"is_disabled":false,"rental_uris":{"android":"levelo://app?vid=7dfe26ce-d7ef-4cb2-a642-50e9fb8770b0","ios":"levelo://app?vid=7dfe26ce-d7ef-4cb2-a642-50e9fb8770b0"},"vehicle_type_id":"4","last_reported":1735855709,"current_range_meters":38000,"station_id":"ce4bhjp2rcd13ifvqg90","pricing_plan_id":"cebpf4jnsgd1na2vs0mg"},{"bike_id":"cd799ed6-4897-449a-b65c-1cec7ac6afaf","system_id":"levelo_inurba_marseille","lat":43.30801,"lon":5.38161,"is_reserved":false,"is_disabled":true,"rental_uris":{"android":"levelo://app?vid=cd799ed6-4897-449a-b65c-1cec7ac6afaf","ios":"levelo://app?vid=cd799ed6-4897-449a-b65c-1cec7ac6afaf"},"vehicle_type_id":"4","last_reported":1735855709,"current_range_meters":28800,"station_id":"ce4bgt12rcd13ifvqce0","pricing_plan_id":"cebpf4jnsgd1na2vs0mg"},{"bike_id":"fff6da74-d48c-4937-a452-dd77602147ed","system_id":"levelo_inurba_marseille","lat":43.31475,"lon":5.38354,"is_reserved":false,"is_disabled":false,"rental_uris":{"android":"levelo://app?vid=fff6da74-d48c-4937-a452-dd77602147ed","ios":"levelo://app?vid=fff6da74-d48c-4937-a452-dd77602147ed"},"vehicle_type_id":"4","last_reported":1735855709,"current_range_meters":3200,"station_id":"","pricing_plan_id":"cebpf4jnsgd1na2vs0mg"},{"bike_id":"0b1c27a8-912f-47de-83f1-1d9fe5bc3168","system_id":"levelo_inurba_marseille","lat":43.24813,"lon":5.37451,"is_reserved":false,"is_disabled":true,"rental_uris":{"android":"levelo://app?vid=0b1c27a8-912f-47de-83f1-1d9fe5bc3168","ios":"levelo://app?vid=0b1c27a8-912f-47de-83f1-1d9fe5bc3168"},"vehicle_type_id":"4","last_reported":1735855709,"current_range_meters":3200,"station_id":"ce4bhgh2rcd13ifvqfb0","pricing_plan_id":"cebpf4jnsgd1na2vs0mg"},{"bike_id":"e2db395a-8d24-440e-9e8a-fceb63f61ec2","system_id":"levelo_inurba_marseille","lat":43.3228,"lon":5.38265,"is_reserved":false,"is_disabled":false,"rental_uris":{"android":"levelo://app?vid=e2db395a-8d24-440e-9e8a-fceb63f61ec2","ios":"levelo://app?vid=e2db395a-8d24-440e-9e8a-fceb63f61ec2"},"vehicle_type_id":"4","last_reported":1735855709,"current_range_meters":38000,"station_id":"ce4bhr12rcd13ifvqhqg","pricing_plan_id":"cebpf4jnsgd1na2vs0mg"},{"bike_id":"9e90e96a-3f1d-4e88-97fc-7a10a35aed12","system_id":"levelo_inurba_marseille","lat":43.30884,"lon":5.39653,"is_reserved":false,"is_disabled":false,"rental_uris":{"android":"levelo://app?vid=9e90e96a-3f1d-4e88-97fc-7a10a35aed12","ios":"levelo://app?vid=9e90e96a-3f1d-4e88-97fc-7a10a35aed12"},"vehicle_type_id":"4","last_reported":1735855709,"current_range_meters":32800,"station_id":"ce4bh012rcd13ifvqcv0","pricing_plan_id":"cebpf4jnsgd1na2vs0mg"},{"bike_id":"44377e14-c431-47f9-879d-d27236127509","system_id":"levelo_inurba_marseille","lat":43.25833,"lon":5.39424,"is_reserved":false,"is_disabled":false,"rental_uris":{"android":"levelo://app?vid=44377e14-c431-47f9-879d-d27236127509","ios":"levelo://app?vid=44377e14-c431-47f9-879d-d27236127509"},"vehicle_type_id":"4","last_reported":1735855709,"current_range_meters":16800,"station_id":"ce4bhip2rcd13ifvqft0","pricing_plan_id":"cebpf4jnsgd1na2vs0mg"},