{"last_updated":1718129474,"ttl":30,"version":"2.2","data":{"bikes":[{"bike_id":"6453e501-d46c-49f4-9c11-34c2eb0a8ae8","system_id":"levelo_inurba_marseille","lat":43.313567,"lon":5.367088,"is_reserved":false,"is_disabled":false,"rental_uris":{"android":"levelo://app?vid=6453e501-d46c-49f4-9c11-34c2eb0a8ae8","ios":"levelo://app?vid=6453e501-d46c-49f4-9c11-34c2eb0a8ae8"},"vehicle_type_id":"4","last_reported":1718129474,"current_range_meters":0,"station_id":"ce4bgr92rcd13ifvqc6g","pricing_plan_id":"cebpf4jnsgd1na2vs0mg"},{"bike_id":"8c9bee8a-97a1-4979-80c5-02db692c1c9e","system_id":"levelo_inurba_marseille","lat":43.312239,"lon":5.368562,"is_reserved":false,"is_disabled":false,"rental_uris":{"android":"levelo://app?vid=8c9bee8a-97a1-4979-80c5-02db692c1c9e","ios":"levelo://app?vid=8c9bee8a-97a1-4979-80c5-02db692c1c9e"},"vehicle_type_id":"4","last_reported":1718129474,"current_range_meters":0,"station_id":"ce4bgl92rcd13ifvqbq0","pricing_plan_id":"cebpf4jnsgd1na2vs0mg"},{"bike_id":"1c5c88a2-b00f-419d-9cb4-e4986b7ff7c5","system_id":"levelo_inurba_marseille","lat":43.309076,"lon":5.368465,"is_reserved":false,"is_disabled":false,"rental_uris":{"android":"levelo://app?vid=1c5c88a2-b00f-419d-9cb4-e4986b7ff7c5","ios":"levelo://app?vid=1c5c88a2-b00f-419d-9cb4-e4986b7ff7c5"},"vehicle_type_id":"4","last_reported":1718129474,"current_range_meters":3600,"station_id":"ce4bgn92rcd13ifvqbvg","pricing_plan_id":"cebpf4jnsgd1na2vs0mg"},{"bike_id":"caafc0ec-7bdf-45f7-8dba-2bf4c1f06412","system_id":"levelo_inurba_marseille","lat":43.309076,"lon":5.368465,"is_reserved":false,"is_disabled":false,"rental_uris":{"android":"levelo://app?vid=caafc0ec-7bdf-45f7-8dba-2bf4c1f06412","ios":"levelo://app?vid=caafc0ec-7bdf-45f7-8dba-2bf4c1f06412"},"vehicle_type_id":"4","last_reported":1718129474,"current_range_meters":30000,"station_id":"ce4bgn92rcd13ifvqbvg","pricing_plan_id":"cebpf4jnsgd1na2vs0mg"},{"bike_id":"fc3222e0-0ba6-4db4-98a9-2517dbbaa4c7","system_id":"levelo_inurba_marseille","lat":43.30881,"lon":5.37203,"is_reserved":false,"is_disabled":false,"rental_uris":{"android":"levelo://app?vid=fc3222e0-0ba6-4db4-98a9-2517dbbaa4c7","ios":"levelo://app?vid=fc3222e0-0ba6-4db4-98a9-2517dbbaa4c7"},"vehicle_type_id":"4","last_reported":1718129474,"current_range_meters":5600,"station_id":"ce4bguh2rcd13ifvqckg","pricing_plan_id":"cebpf4jnsgd1na2vs0mg"},{"bike_id":"7d60e6d2-25b3-45ad-bd47-294098bbcf61","system_id":"levelo_inurba_marseille","lat":43.306499,"lon":5.372147,"is_reserved":false,"is_disabled":false,"rental_uris":{"android":"levelo://app?vid=7d60e6d2-25b3-45ad-bd47-294098bbcf61","ios":"levelo://app?vid=7d60e6d2-25b3-45ad-bd47-294098bbcf61"},"vehicle_type_id":"4","last_reported":1718129474,"current_range_meters":800,"station_id":"ce4bgqh2rcd13ifvqc4g","pricing_plan_id":"cebpf4jnsgd1na2vs0mg"},{"bike_id":"b79d8cd5-abd6-4770-ab06-6b341c4540d1","system_id":"levelo_inurba_marseille","lat":43.30537,"lon":5.367345,"is_reserved":false,"is_disabled":false,"rental_uris":{"android":"levelo://app?vid=b79d8cd5-abd6-4770-ab06-6b341c4540d1","ios":"levelo://app?vid=b79d8cd5-abd6-4770-ab06-6b341c4540d1"},"vehicle_type_id":"4","last_reported":1718129474,"current_range_meters":400,"station_id":"ce4bgrp2rcd13ifvqc9g","pricing_plan_id":"cebpf4jnsgd1na2vs0mg"},{"bike_id":"cd867a72-9f8a-4f3b-8b9d-f2ff71a7b9c5","system_id":"levelo_inurba_marseille","lat":43.311131,"lon":5.377651,"is_reserved":false,"is_disabled":false,"rental_uris":{"android":"levelo://app?vid=cd867a72-9f8a-4f3b-8b9d-f2ff71a7b9c5","ios":"levelo://app?vid=cd867a72-9f8a-4f3b-8b9d-f2ff71a7b9c5"},"vehicle_type_id":"4","last_reported":1718129474,"current_range_meters":29200,"station_id":"ce4bgt92rcd13ifvqcg0","pricing_plan_id":"cebpf4jnsgd1na2vs0mg"},{"bike_id":"722fdedf-c364-4beb-901b-da8300a87c20","system_id":"levelo_inurba_marseille","lat":43.305368,"lon":5.367343,"is_reserved":false,"is_disabled":false,"rental_uris":{"android":"levelo://app?vid=722fdedf-c364-4beb-901b-da8300a87c20","ios":"levelo://app?vid=722fdedf-c364-4beb-901b-da8300a87c20"},"vehicle_type_id":"4","last_reported":1718129474,"current_range_meters":6800,"station_id":"ce4bgrp2rcd13ifvqc9g","pricing_plan_id":"cebpf4jnsgd1na2vs0mg"},{"bike_id":"0283bd18-491e-4355-8da5-9d6c993dc0fd","system_id":"levelo_inurba_marseille","lat":43.311125,"lon":5.377624,"is_reserved":false,"is_disabled":false,"rental_uris":{"android":"levelo://app?vid=0283bd18-491e-4355-8da5-9d6c993dc0fd","ios":"levelo://app?vid=0283bd18-491e-4355-8da5-9d6c993dc0fd"},"vehicle_type_id":"4","last_reported":1718129474,"current_range_meters":13200,"station_id":"ce4bgt92rcd13ifvqcg0","pricing_plan_id":"cebpf4jnsgd1na2vs0mg"},{"bike_id":"599d5fde-279e-42b1-94fe-f11e2c3744d9","system_id":"levelo_inurba_marseille","lat":43.311046,"lon":5.37785,"is_reserved":false,"is_disabled":false,"rental_uris":{"android":"levelo://app?vid=599d5fde-279e-42b1-94fe-f11e2c3744d9","ios":"levelo://app?vid=599d5fde-279e-42b1-94fe-f11e2c3744d9"},"vehicle_type_id":"4","last_reported":1718129474,"current_range_meters":0,"station_id":"ce4bgt92rcd13ifvqcg0","pricing_plan_id":"cebpf4jnsgd1na2vs0mg"},{"bike_id":"8ac889d8-b073-4c46-b793-aaa3ffca76eb","system_id":"levelo_inurba_marseille","lat":43.307945,"lon":5.376487,"is_reserved":false,"is_disabled":false,"rental_uris":{"android":"levelo://app?vid=8ac889d8-b073-4c46-b793-aaa3ffca76eb","ios":"levelo://app?vid=8ac889d8-b073-4c46-b793-aaa3ffca76eb"},"vehicle_type_id":"4","last_reported":1718129474,"current_range_meters":8800,"station_id":"ce4bgv92rcd13ifvqcq0","pricing_plan_id":"cebpf4jnsgd1na2vs0mg"},{"bike_id":"d2ec8f15-6e7d-4b38-86a3-e4024a637d1f","system_id":"levelo_inurba_marseille","lat":43.317075,"lon":5.377367,"is_reserved":false,"is_disabled":false,"rental_uris":{"android":"levelo://app?vid=d2ec8f15-6e7d-4b38-86a3-e4024a637d1f","ios":"levelo://app?vid=d2ec8f15-6e7d-4b38-86a3-e4024a637d1f"},"vehicle_type_id":"4","last_reported":1718129474,"current_range_meters":0,"station_id":"ce4bgth2rcd13ifvqch0","pricing_plan_id":"cebpf4jnsgd1na2vs0mg"},{"bike_id":"923d2b02-d141-43e8-892a-9648f4a3fc96","system_id":"levelo_inurba_marseille","lat":43.315289,"lon":5.380349,"is_reserved":false,"is_disabled":false,"rental_uris":{"android":"levelo://app?vid=923d2b02-d141-43e8-892a-9648f4a3fc96","ios":"levelo://app?vid=923d2b02-d141-43e8-892a-9648f4a3fc96"},"vehicle_type_id":"4","last_reported":1718129474,"current_range_meters":30800,"station_id":"ce4bhsp2rcd13ifvqi50","pricing_plan_id":"cebpf4jnsgd1na2vs0mg"},{"bike_id":"0dbd18b9-d44f-4594-8eb9-45adcf25278a","system_id":"levelo_inurba_marseille","lat":43.303046,"lon":5.368981,"is_reserved":false,"is_disabled":false,"rental_uris":{"android":"levelo://app?vid=0dbd18b9-d44f-4594-8eb9-45adcf25278a","ios":"levelo://app?vid=0dbd18b9-d44f-4594-8eb9-45adcf25278a"},"vehicle_type_id":"4","last_reported":1718129474,"current_range_meters":9200,"station_id":"ce4bgqh2rcd13ifvqc5g","pricing_plan_id":"cebpf4jnsgd1na2vs0mg"},{"bike_id":"f92c20c6-1c06-48d9-be15-5ebe4d495e3e","system_id":"levelo_inurba_marseille","lat":43.302764,"lon":5.368272,"is_reserved":false,"is_disabled":false,"rental_uris":{"android":"levelo://app?vid=f92c20c6-1c06-48d9-be15-5ebe4d495e3e","ios":"levelo://app?vid=f92c20c6-1c06-48d9-be15-5ebe4d495e3e"},"vehicle_type_id":"4","last_reported":1718129474,"current_range_meters":0,"station_id":"","pricing_plan_id":"cebpf4jnsgd1na2vs0mg"},{"bike_id":"f936f333-4a23-40b7-915c-8719351d6ce8","system_id":"levelo_inurba_marseille","lat":43.301939,"lon":5.366286,"is_reserved":false,"is_disabled":false,"rental_uris":{"android":"levelo://app?vid=f936f333-4a23-40b7-915c-8719351d6ce8","ios":"levelo://app?vid=f936f333-4a23-40b7-915c-8719351d6ce8"},"vehicle_type_id":"4","last_reported":1718129474,"current_range_meters":18800,"station_id":"ce4bgrh2rcd13ifvqc8g","pricing_plan_id":"cebpf4jnsgd1na2vs0mg"},{"bike_id":"40c1849c-d8c5-4677-9afd-e50e27a82538","system_id":"levelo_inurba_marseille","lat":43.301939,"lon":5.366286,"is_reserved":false,"is_disabled":false,"rental_uris":{"android":"levelo://app?vid=40c1849c-d8c5-4677-9afd-e50e27a82538","ios":"levelo://app?vid=40c1849c-d8c5-4677-9afd-e50e27a82538"},"vehicle_type_id":"4","last_reported":1718129474,"current_range_meters":3600,"station_id":"ce4bgrh2rcd13ifvqc8g","pricing_plan_id":"cebpf4jnsgd1na2vs0mg"},{"bike_id":"48fd896e-3eb7-4d38-b5c5-32e4c665f245","system_id":"levelo_inurba_marseille","lat":43.324771,"lon":5.36557,"is_reserved":false,"is_disabled":false,"rental_uris":{"android":"levelo://app?vid=48fd896e-3eb7-4d38-b5c5-32e4c665f245","ios":"levelo://app?vid=48fd896e-3eb7-4d38-b5c5-32e4c665f245"},"vehicle_type_id":"4","last_reported":1718129474,"current_range_meters":14800,"station_id":"ce4bhs12rcd13ifvqhvg","pricing_plan_id":"cebpf4jnsgd1na2vs0mg"},{"bike_id":"5e948987-e62f-4415-833f-3039c8bf58ec","system_id":"levelo_inurba_marseille","lat":43.314288,"lon":5.383434,"is_reserved":false,"is_disabled":false,"rental_uris":{"android":"levelo://app?vid=5e948987-e62f-4415-833f-3039c8bf58ec","ios":"levelo://app?vid=5e948987-e62f-4415-833f-3039c8bf58ec"},"vehicle_type_id":"4","last_reported":1718129474,"current_range_meters":14000,"station_id":"","pricing_plan_id":"cebpf4jnsgd1na2vs0mg"},{"bike_id":"4d1c0a29-a36e-42af-b828-444ab3b92dae","system_id":"levelo_inurba_marseille","lat":43.310804,"lon":5.38359,"is_reserved":false,"is_disabled":false,"rental_uris":{"android":"levelo://app?vid=4d1c0a29-a36e-42af-b828-444ab3b92dae","ios":"levelo://app?vid=4d1c0a29-a36e-42af-b828-444ab3b92dae"},"vehicle_type_id":"4","last_reported":1718129474,"current_range_meters":8000,"station_id":"ce4bgv92rcd13ifvqcr0","pricing_plan_id":"cebpf4jnsgd1na2vs0mg"},{"bike_id":"a81f7cdb-cca7-485d-811c-d95da219d732","system_id":"levelo_inurba_marseille","lat":43.310804,"lon":5.38359,"is_reserved":false,"is_disabled":false,"rental_uris":{"android":"levelo://app?vid=a81f7cdb-cca7-485d-811c-d95da219d732","ios":"levelo://app?vid=a81f7cdb-cca7-485d-811c-d95da219d732"},"vehicle_type_id":"4","last_reported":1718129474,"current_range_meters":6400,"station_id":"ce4bgv92rcd13ifvqcr0","pricing_plan_id":"cebpf4jnsgd1na2vs0mg"},{"bike_id":"f444f805-a1e9-45f8-ade1-e3d918b8a80b","system_id":"levelo_inurba_marseille","lat":43.31076,"lon":5.38365,"is_reserved":false,"is_disabled":false,"rental_uris":{"android":"levelo://app?vid=f444f805-a1e9-45f8-ade1-e3d918b8a80b","ios":"levelo://app?vid=f444f805-a1e9-45f8-ade1-e3d918b8a80b"},"vehicle_type_id":"4","last_reported":1718129474,"current_range_meters":0,"station_id":"ce4bgv92rcd13ifvqcr0","pricing_plan_id":"cebpf4jnsgd1na2vs0mg"},{"bike_id":"caf25f8d-dfa3-46b4-9a00-fa24a9e2d065","system_id":"levelo_inurba_marseille","lat":43.301429,"lon":5.37413,"is_reserved":false,"is_disabled":false,"rental_uris":{"android":"levelo://app?vid=caf25f8d-dfa3-46b4-9a00-fa24a9e2d065","ios":"levelo://app?vid=caf25f8d-dfa3-46b4-9a00-fa24a9e2d065"},"vehicle_type_id":"4","last_reported":1718129474,"current_range_meters":18800,"station_id":"ce4bgs92rcd13ifvqcc0","pricing_plan_id":"cebpf4jnsgd1na2vs0mg"},{"bike_id":"c7d3b741-38f9-4ea9-bcae-a9fc53686980","system_id":"levelo_inurba_marseille","lat":43.319935,"lon":5.381699,"is_reserved":false,"is_disabled":false,"rental_uris":{"android":"levelo://app?vid=c7d3b741-38f9-4ea9-bcae-a9fc53686980","ios":"levelo://app?vid=c7d3b741-38f9-4ea9-bcae-a9fc53686980"},"vehicle_type_id":"4","last_reported":1718129474,"current_range_meters":0,"station_id":"ce4bhr12rcd13ifvqhpg","pricing_plan_id":"cebpf4jnsgd1na2vs0mg"},{"bike_id":"ac1ae6bb-5da2-4a4e-88fe-7cd01d1e91ea","system_id":"levelo_inurba_marseille","lat":43.319935,"lon":5.381699,"is_reserved":false,"is_disabled":false,"rental_uris":{"android":"levelo://app?vid=ac1ae6bb-5da2-4a4e-88fe-7cd01d1e91ea","ios":"levelo://app?vid=ac1ae6bb-5da2-4a4e-88fe-7cd01d1e91ea"},"vehicle_type_id":"4","last_reported":1718129474,"current_range_meters":26000,"station_id":"ce4bhr12rcd13ifvqhpg","pricing_plan_id":"cebpf4jnsgd1na2vs0mg"},{"bike_id":"f01b3217-54fe-4a3f-bc07-e985cb83c074","system_id":"levelo_inurba_marseille","lat":43.319935,"lon":5.381699,"is_reserved":false,"is_disabled":false,"rental_uris":{"android":"levelo://app?vid=f01b3217-54fe-4a3f-bc07-e985cb83c074","ios":"levelo://app?vid=f01b3217-54fe-4a3f-bc07-e985cb83c074"},"vehicle_type_id":"4","last_reported":1718129474,"current_range_meters":16400,"station_id":"ce4bhr12rcd13ifvqhpg","pricing_plan_id":"cebpf4jnsgd1na2vs0mg"},{"bike_id":"da72bef6-a6a4-40d9-a287-97b2596cca9a","system_id":"levelo_inurba_marseille","lat":43.313571,"lon":5.384829,"is_reserved":false,"is_disabled":false,"rental_uris":{"android":"levelo://app?vid=da72bef6-a6a4-40d9-a287-97b2596cca9a","ios":"levelo://app?vid=da72bef6-a6a4-40d9-a287-97b2596cca9a"},"vehicle_type_id":"4","last_reported":1718129474,"current_range_meters":12400,"station_id":"ce4bgt92rcd13ifvqcf0","pricing_plan_id":"cebpf4jnsgd1na2vs0mg"},{"bike_id":"e98380da-81b8-4d85-bdc9-e34a0127d6d0","system_id":"levelo_inurba_marseille","lat":43.313656,"lon":5.38487,"is_reserved":false,"is_disabled":false,"rental_uris":{"android":"levelo://app?vid=e98380da-81b8-4d85-bdc9-e34a0127d6d0","ios":"levelo://app?vid=e98380da-81b8-4d85-bdc9-e34a0127d6d0"},"vehicle_type_id":"4","last_reported":1718129474,"current_range_meters":8800,"station_id":"ce4bgt92rcd13ifvqcf0","pricing_plan_id":"cebpf4jnsgd1na2vs0mg"},{"bike_id":"3e57d502-324a-4e66-956b-4384c1f17104","system_id":"levelo_inurba_marseille","lat":43.313655,"lon":5.384906,"is_reserved":false,"is_disabled":false,"rental_uris":{"android":"levelo://app?vid=3e57d502-324a-4e66-956b-4384c1f17104","ios":"levelo://app?vid=3e57d502-324a-4e66-956b-4384c1f17104"},"vehicle_type_id":"4","last_reported":1718129474,"current_range_meters":0,"station_id":"ce4bgt92rcd13ifvqcf0","pricing_plan_id":"cebpf4jnsgd1na2vs0mg"},{"bike_id":"c3c0d39c-a806-4897-911f-3b52c00c52e4","system_id":"levelo_inurba_marseille","lat":43.299222,"lon":5.365554,"is_reserved":false,"is_disabled":false,"rental_uris":{"android":"levelo://app?vid=c3c0d39c-a806-4897-911f-3b52c00c52e4","ios":"levelo://app?vid=c3c0d39c-a806-4897-911f-3b52c00c52e4"},"vehicle_type_id":"4","last_reported":1718129474,"current_range_meters":0,"station_id":"ce4bgm92rcd13ifvqbr0","pricing_plan_id":"cebpf4jnsgd1na2vs0mg"},{"bike_id":"63a6bf20-6c85-46c9-9b6f-8a1a2261c2b5","system_id":"levelo_inurba_marseille","lat":43.299362,"lon":5.371175,"is_reserved":false,"is_disabled":false,"rental_uris":{"android":"levelo://app?vid=63a6bf20-6c85-46c9-9b6f-8a1a2261c2b5","ios":"levelo://app?vid=63a6bf20-6c85-46c9-9b6f-8a1a2261c2b5"},"vehicle_type_id":"4","last_reported":1718129474,"current_range_meters":0,"station_id":"","pricing_plan_id":"cebpf4jnsgd1na2vs0mg"},{"bike_id":"01ca70b6-4e2c-42cb-9aed-a8b80d5ea29c","system_id":"levelo_inurba_marseille","lat":43.30529,"lon":5.38367,"is_reserved":false,"is_disabled":false,"rental_uris":{"android":"levelo://app?vid=01ca70b6-4e2c-42cb-9aed-a8b80d5ea29c","ios":"levelo://app?vid=01ca70b6-4e2c-42cb-9aed-a8b80d5ea29c"},"vehicle_type_id":"4","last_reported":1718129474,"current_range_meters":7200,"station_id":"ce4bgg92rcd13ifvqb30","pricing_plan_id":"cebpf4jnsgd1na2vs0mg"},{"bike_id":"07674da2-4a57-451b-a095-9cfefc66c154","system_id":"levelo_inurba_marseille","lat":43.298433,"lon":5.362774,"is_reserved":false,"is_disabled":false,"rental_uris":{"android":"levelo://app?vid=07674da2-4a57-451b-a095-9cfefc66c154","ios":"levelo://app?vid=07674da2-4a57-451b-a095-9cfefc66c154"},"vehicle_type_id":"4","last_reported":1718129474,"current_range_meters":30800,"station_id":"ce4bgpp2rcd13ifvqc3g","pricing_plan_id":"cebpf4jnsgd1na2vs0mg"},{"bike_id":"44633568-3934-497b-8674-62af8ef7d3fb","system_id":"levelo_inurba_marseille","lat":43.307843,"lon":5.385835,"is_reserved":false,"is_disabled":false,"rental_uris":{"android":"levelo://app?vid=44633568-3934-497b-8674-62af8ef7d3fb","ios":"levelo://app?vid=44633568-3934-497b-8674-62af8ef7d3fb"},"vehicle_type_id":"4","last_reported":1718129474,"current_range_meters":19600,"station_id":"","pricing_plan_id":"cebpf4jnsgd1na2vs0mg"},{"bike_id":"e8636068-428f-4624-8e8c-e071595579b0","system_id":"levelo_inurba_marseille","lat":43.311722,"lon":5.387247,"is_reserved":false,"is_disabled":false,"rental_uris":{"android":"levelo://app?vid=e8636068-428f-4624-8e8c-e071595579b0","ios":"levelo://app?vid=e8636068-428f-4624-8e8c-e071595579b0"},"vehicle_type_id":"4","last_reported":1718129474,"current_range_meters":9200,"station_id":"ce4bgv12rcd13ifvqcp0","pricing_plan_id":"cebpf4jnsgd1na2vs0mg"},{"bike_id":"e064325f-4d66-46f4-afa1-dbba5ef1549f","system_id":"levelo_inurba_marseille","lat":43.31182,"lon":5.38719,"is_reserved":false,"is_disabled":false,"rental_uris":{"android":"levelo://app?vid=e064325f-4d66-46f4-afa1-dbba5ef1549f","ios":"levelo://app?vid=e064325f-4d66-46f4-afa1-dbba5ef1549f"},"vehicle_type_id":"4","last_reported":1718129474,"current_range_meters":0,"station_id":"ce4bgv12rcd13ifvqcp0","pricing_plan_id":"cebpf4jnsgd1na2vs0mg"},{"bike_id":"599b6b50-e579-486a-bbb7-a0ad9773bb9d","system_id":"levelo_inurba_marseille","lat":43.32288,"lon":5.38266,"is_reserved":false,"is_disabled":false,"rental_uris":{"android":"levelo://app?vid=599b6b50-e579-486a-bbb7-a0ad9773bb9d","ios":"levelo://app?vid=599b6b50-e579-486a-bbb7-a0ad9773bb9d"},"vehicle_type_id":"4","last_reported":1718129474,"current_range_meters":7200,"station_id":"ce4bhr12rcd13ifvqhqg","pricing_plan_id":"cebpf4jnsgd1na2vs0mg"},{"bike_id":"7c5ef050-95fb-483d-9536-9911e6e75497","system_id":"levelo_inurba_marseille","lat":43.32292,"lon":5.38267,"is_reserved":false,"is_disabled":false,"rental_uris":{"android":"levelo://app?vid=7c5ef050-95fb-483d-9536-9911e6e75497","ios":"levelo://app?vid=7c5ef050-95fb-483d-9536-9911e6e75497"},"vehicle_type_id":"4","last_reported":1718129474,"current_range_meters":0,"station_id":"ce4bhr12rcd13ifvqhqg","pricing_plan_id":"cebpf4jnsgd1na2vs0mg"},{"bike_id":"3bcdabb7-edf0-4e3b-9fb8-d1c81f1497cc","system_id":"levelo_inurba_marseille","lat":43.32286,"lon":5.38278,"is_reserved":false,"is_disabled":false,"rental_uris":{"android":"levelo://app?vid=3bcdabb7-edf0-4e3b-9fb8-d1c81f1497cc","ios":"levelo://app?vid=3bcdabb7-edf0-4e3b-9fb8-d1c81f1497cc"},"vehicle_type_id":"4","last_reported":1718129474,"current_range_meters":0,"station_id":"ce4bhr12rcd13ifvqhqg","pricing_plan_id":"cebpf4jnsgd1na2vs0mg"},{"bike_id":"92555f54-0797-4550-838f-0f17d1254d07","system_id":"levelo_inurba_marseille","lat":43.322872,"lon":5.382756,"is_reserved":false,"is_disabled":false,"rental_uris":{"android":"levelo://app?vid=92555f54-0797-4550-838f-0f17d1254d07","ios":"levelo://app?vid=92555f54-0797-4550-838f-0f17d1254d07"},"vehicle_type_id":"4","last_reported":1718129474,"current_range_meters":29200,"station_id":"ce4bhr12rcd13ifvqhqg","pricing_plan_id":"cebpf4jnsgd1na2vs0mg"},{"bike_id":"631e48be-2f23-4b91-8fd6-161a880883ce","system_id":"levelo_inurba_marseille","lat":43.322872,"lon":5.382756,"is_reserved":false,"is_disabled":false,"rental_uris":{"android":"levelo://app?vid=631e48be-2f23-4b91-8fd6-161a880883ce","ios":"levelo://app?vid=631e48be-2f23-4b91-8fd6-161a880883ce"},"vehicle_type_id":"4","last_reported":1718129474,"current_range_meters":9200,"station_id":"ce4bhr12rcd13ifvqhqg","pricing_plan_id":"cebpf4jnsgd1na2vs0mg"},{"bike_id":"68d140ca-e192-4b7e-8348-a3928714c2c0","system_id":"levelo_inurba_marseille","lat":43.322872,"lon":5.382756,"is_reserved":false,"is_disabled":false,"rental_uris":{"android":"levelo://app?vid=68d140ca-e192-4b7e-8348-a3928714c2c0","ios":"levelo://app?vid=68d140ca-e192-4b7e-8348-a3928714c2c0"},"vehicle_type_id":"4","last_reported":1718129474,"current_range_meters":19600,"station_id":"ce4bhr12rcd13ifvqhqg","pricing_plan_id":"cebpf4jnsgd1na2vs0mg"},{"bike_id":"168800d5-da0c-4897-8627-404e2032812f","system_id":"levelo_inurba_marseille","lat":43.297163,"lon":5.365866,"is_reserved":false,"is_disabled":false,"rental_uris":{"android":"levelo://app?vid=168800d5-da0c-4897-8627-404e2032812f","ios":"levelo://app?vid=168800d5-da0c-4897-8627-404e2032812f"},"vehicle_type_id":"4","last_reported":1718129474,"current_range_meters":800,"station_id":"ce4bgn12rcd13ifvqbt0","pricing_plan_id":"cebpf4jnsgd1na2vs0mg"},{"bike_id":"e5b11e69-a39f-4b05-9cda-14894bedd7ef","system_id":"levelo_inurba_marseille","lat":43.297163,"lon":5.365866,"is_reserved":false,"is_disabled":false,"rental_uris":{"android":"levelo://app?vid=e5b11e69-a39f-4b05-9cda-14894bedd7ef","ios":"levelo://app?vid=e5b11e69-a39f-4b05-9cda-14894bedd7ef"},"vehicle_type_id":"4","last_reported":1718129474,"current_range_meters":5200,"station_id":"ce4bgn12rcd13ifvqbt0","pricing_plan_id":"cebpf4jnsgd1na2vs0mg"},{"bike_id":"8df5b8d6-3708-4e18-9b58-9b46b7d6a049","system_id":"levelo_inurba_marseille","lat":43.2968,"lon":5.37291,"is_reserved":false,"is_disabled":false,"rental_uris":{"android":"levelo://app?vid=8df5b8d6-3708-4e18-9b58-9b46b7d6a049","ios":"levelo://app?vid=8df5b8d6-3708-4e18-9b58-9b46b7d6a049"},"vehicle_type_id":"4","last_reported":1718129474,"current_range_meters":29600,"station_id":"ce4bgk12rcd13ifvqbj0","pricing_plan_id":"cebpf4jnsgd1na2vs0mg"},{"bike_id":"5336f5be-77f4-4efc-aa2e-664ed4a2b9a4","system_id":"levelo_inurba_marseille","lat":43.2968,"lon":5.37291,"is_reserved":false,"is_disabled":false,"rental_uris":{"android":"levelo://app?vid=5336f5be-77f4-4efc-aa2e-664ed4a2b9a4","ios":"levelo://app?vid=5336f5be-77f4-4efc-aa2e-664ed4a2b9a4"},"vehicle_type_id":"4","last_reported":1718129474,"current_range_meters":17200,"station_id":"ce4bgk12rcd13ifvqbj0","pricing_plan_id":"cebpf4jnsgd1na2vs0mg"},{"bike_id":"6757fa99-bba4-481a-bf2f-26c2d6b82d73","system_id":"levelo_inurba_marseille","lat":43.302784,"lon":5.377158,"is_reserved":false,"is_disabled":false,"rental_uris":{"android":"levelo://app?vid=6757fa99-bba4-481a-bf2f-26c2d6b82d73","ios":"levelo://app?vid=6757fa99-bba4-481a-bf2f-26c2d6b82d73"},"vehicle_type_id":"4","last_reported":1718129474,"current_range_meters":9200,"station_id":"ce4bguh2rcd13ifvqcj0","pricing_plan_id":"cebpf4jnsgd1na2vs0mg"},{"bike_id":"6877d3f8-5c36-48ad-b787-9a41e5c95873","system_id":"levelo_inurba_marseille","lat":43.29573,"lon":5.367355,"is_reserved":false,"is_disabled":false,"rental_uris":{"android":"levelo://app?vid=6877d3f8-5c36-48ad-b787-9a41e5c95873","ios":"levelo://app?vid=6877d3f8-5c36-48ad-b787-9a41e5c95873"},"vehicle_type_id":"4","last_reported":1718129474,"current_range_meters":0,"station_id":"ce4bgph2rcd13ifvqc2g","pricing_plan_id":"cebpf4jnsgd1na2vs0mg"},{"bike_id":"ed2c5571-99a7-4e57-a4c1-af1a1b8022d0","system_id":"levelo_inurba_marseille","lat":43.2966,"lon":5.37471,"is_reserved":false,"is_disabled":false,"rental_uris":{"android":"levelo://app?vid=ed2c5571-99a7-4e57-a4c1-af1a1b8022d0","ios":"levelo://app?vid=ed2c5571-99a7-4e57-a4c1-af1a1b8022d0"},"vehicle_type_id":"4","last_reported":1718129474,"current_range_meters":10800,"station_id":"","pricing_plan_id":"cebpf4jnsgd1na2vs0mg"},{"bike_id":"bbb83a69-2c4b-4620-8a8a-bd90c17b6e70","system_id":"levelo_inurba_marseille","lat":43.299028,"lon":5.381509,"is_reserved":false,"is_disabled":false,"rental_uris":{"android":"levelo://app?vid=bbb83a69-2c4b-4620-8a8a-bd90c17b6e70","ios":"levelo://app?vid=bbb83a69-2c4b-4620-8a8a-bd90c17b6e70"},"vehicle_type_id":"4","last_reported":1718129474,"current_range_meters":5200,"station_id":"ce4bgj12rcd13ifvqbc0","pricing_plan_id":"cebpf4jnsgd1na2vs0mg"},{"bike_id":"82c9027c-c28c-47f2-8d03-0aec244bac88","system_id":"levelo_inurba_marseille","lat":43.309589,"lon":5.390258,"is_reserved":false,"is_disabled":false,"rental_uris":{"android":"levelo://app?vid=82c9027c-c28c-47f2-8d03-0aec244bac88","ios":"levelo://app?vid=82c9027c-c28c-47f2-8d03-0aec244bac88"},"vehicle_type_id":"4","last_reported":1718129474,"current_range_meters":11600,"station_id":"ce4bgup2rcd13ifvqco0","pricing_plan_id":"cebpf4jnsgd1na2vs0mg"},{"bike_id":"594997e1-209b-408f-8624-a112fd2b562a","system_id":"levelo_inurba_marseille","lat":43.296953,"lon":5.377036,"is_reserved":false,"is_disabled":false,"rental_uris":{"android":"levelo://app?vid=594997e1-209b-408f-8624-a112fd2b562a","ios":"levelo://app?vid=594997e1-209b-408f-8624-a112fd2b562a"},"vehicle_type_id":"4","last_reported":1718129474,"current_range_meters":24000,"station_id":"ce4bgkp2rcd13ifvqbmg","pricing_plan_id":"cebpf4jnsgd1na2vs0mg"},{"bike_id":"eaa8139b-5b2e-4faa-b0f6-110837485998","system_id":"levelo_inurba_marseille","lat":43.317557,"lon":5.390173,"is_reserved":false,"is_disabled":false,"rental_uris":{"android":"levelo://app?vid=eaa8139b-5b2e-4faa-b0f6-110837485998","ios":"levelo://app?vid=eaa8139b-5b2e-4faa-b0f6-110837485998"},"vehicle_type_id":"4","last_reported":1718129474,"current_range_meters":800,"station_id":"ce4bhqp2rcd13ifvqhng","pricing_plan_id":"cebpf4jnsgd1na2vs0mg"},{"bike_id":"513e687d-47ce-4267-8d1b-e207c99321bf","system_id":"levelo_inurba_marseille","lat":43.317557,"lon":5.390173,"is_reserved":false,"is_disabled":false,"rental_uris":{"android":"levelo://app?vid=513e687d-47ce-4267-8d1b-e207c99321bf","ios":"levelo://app?vid=513e687d-47ce-4267-8d1b-e207c99321bf"},"vehicle_type_id":"4","last_reported":1718129474,"current_range_meters":5600,"station_id":"ce4bhqp2rcd13ifvqhng","pricing_plan_id":"cebpf4jnsgd1na2vs0mg"},{"bike_id":"81e2eac8-ca93-4f4a-a67f-b1fdc38f0b00","system_id":"levelo_inurba_marseille","lat":43.317557,"lon":5.390173,"is_reserved":false,"is_disabled":false,"rental_uris":{"android":"levelo://app?vid=81e2eac8-ca93-4f4a-a67f-b1fdc38f0b00","ios":"levelo://app?vid=81e2eac8-ca93-4f4a-a67f-b1fdc38f0b00"},"vehicle_type_id":"4","last_reported":1718129474,"current_range_meters":14400,"station_id":"ce4bhqp2rcd13ifvqhng","pricing_plan_id":"cebpf4jnsgd1na2vs0mg"},{"bike_id":"e2ab7f4a-4d51-4d9b-8299-789aeaaddf75","system_id":"levelo_inurba_marseille","lat":43.317557,"lon":5.390173,"is_reserved":false,"is_disabled":false,"rental_uris":{"android":"levelo://app?vid=e2ab7f4a-4d51-4d9b-8299-789aeaaddf75","ios":"levelo://app?vid=e2ab7f4a-4d51-4d9b-8299-789aeaaddf75"},"vehicle_type_id":"4","last_reported":1718129474,"current_range_meters":27600,"station_id":"ce4bhqp2rcd13ifvqhng","pricing_plan_id":"cebpf4jnsgd1na2vs0mg"},{"bike_id":"926fd4f1-a2df-4c4b-a547-c3a4b238c342","system_id":"levelo_inurba_marseille","lat":43.31756,"lon":5.39019,"is_reserved":false,"is_disabled":false,"rental_uris":{"android":"levelo://app?vid=926fd4f1-a2df-4c4b-a547-c3a4b238c342","ios":"levelo://app?vid=926fd4f1-a2df-4c4b-a547-c3a4b238c342"},"vehicle_type_id":"4","last_reported":1718129474,"current_range_meters":3200,"station_id":"ce4bhqp2rcd13ifvqhng","pricing_plan_id":"cebpf4jnsgd1na2vs0mg"},{"bike_id":"63051718-c10f-42a4-8f3e-51859f23999d","system_id":"levelo_inurba_marseille","lat":43.317557,"lon":5.390173,"is_reserved":false,"is_disabled":false,"rental_uris":{"android":"levelo://app?vid=63051718-c10f-42a4-8f3e-51859f23999d","ios":"levelo://app?vid=63051718-c10f-42a4-8f3e-51859f23999d"},"vehicle_type_id":"4","last_reported":1718129474,"current_range_meters":24800,"station_id":"ce4bhqp2rcd13ifvqhng","pricing_plan_id":"cebpf4jnsgd1na2vs0mg"},{"bike_id":"6b0f8b81-7ecf-41ad-b00f-493ecab20ca6","system_id":"levelo_inurba_marseille","lat":43.308882,"lon":5.39105,"is_reserved":false,"is_disabled":false,"rental_uris":{"android":"levelo://app?vid=6b0f8b81-7ecf-41ad-b00f-493ecab20ca6","ios":"levelo://app?vid=6b0f8b81-7ecf-41ad-b00f-493ecab20ca6"},"vehicle_type_id":"4","last_reported":1718129474,"current_range_meters":0,"station_id":"ce4bgup2rcd13ifvqco0","pricing_plan_id":"cebpf4jnsgd1na2vs0mg"},{"bike_id":"4c212d0d-77f8-4ac7-a350-3cc918ce5fcd","system_id":"levelo_inurba_marseille","lat":43.30431,"lon":5.38893,"is_reserved":false,"is_disabled":false,"rental_uris":{"android":"levelo://app?vid=4c212d0d-77f8-4ac7-a350-3cc918ce5fcd","ios":"levelo://app?vid=4c212d0d-77f8-4ac7-a350-3cc918ce5fcd"},"vehicle_type_id":"4","last_reported":1718129474,"current_range_meters":30000,"station_id":"ce4bgk12rcd13ifvqbi0","pricing_plan_id":"cebpf4jnsgd1na2vs0mg"},{"bike_id":"95aae9b2-cee1-478b-85fc-e9067a78e3d6","system_id":"levelo_inurba_marseille","lat":43.299707,"lon":5.384859,"is_reserved":false,"is_disabled":false,"rental_uris":{"android":"levelo://app?vid=95aae9b2-cee1-478b-85fc-e9067a78e3d6","ios":"levelo://app?vid=95aae9b2-cee1-478b-85fc-e9067a78e3d6"},"vehicle_type_id":"4","last_reported":1718129474,"current_range_meters":19600,"station_id":"ce4bgj92rcd13ifvqbd0","pricing_plan_id":"cebpf4jnsgd1na2vs0mg"},{"bike_id":"fddf1498-7909-499d-8686-2761fa394da6","system_id":"levelo_inurba_marseille","lat":43.295279,"lon":5.375048,"is_reserved":false,"is_disabled":false,"rental_uris":{"android":"levelo://app?vid=fddf1498-7909-499d-8686-2761fa394da6","ios":"levelo://app?vid=fddf1498-7909-499d-8686-2761fa394da6"},"vehicle_type_id":"4","last_reported":1718129474,"current_range_meters":11600,"station_id":"ce4bgkp2rcd13ifvqbmg","pricing_plan_id":"cebpf4jnsgd1na2vs0mg"},{"bike_id":"c26a5d7c-ba50-4c25-9eaa-f9d125150077","system_id":"levelo_inurba_marseille","lat":43.299724,"lon":5.384848,"is_reserved":false,"is_disabled":false,"rental_uris":{"android":"levelo://app?vid=c26a5d7c-ba50-4c25-9eaa-f9d125150077","ios":"levelo://app?vid=c26a5d7c-ba50-4c25-9eaa-f9d125150077"},"vehicle_type_id":"4","last_reported":1718129474,"current_range_meters":19600,"station_id":"ce4bgj92rcd13ifvqbd0","pricing_plan_id":"cebpf4jnsgd1na2vs0mg"},{"bike_id":"2f3faec8-7726-4b2e-840a-645b0c5eafac","system_id":"levelo_inurba_marseille","lat":43.299717,"lon":5.384845,"is_reserved":false,"is_disabled":false,"rental_uris":{"android":"levelo://app?vid=2f3faec8-7726-4b2e-840a-645b0c5eafac","ios":"levelo://app?vid=2f3faec8-7726-4b2e-840a-645b0c5eafac"},"vehicle_type_id":"4","last_reported":1718129474,"current_range_meters":0,"station_id":"ce4bgj92rcd13ifvqbd0","pricing_plan_id":"cebpf4jnsgd1na2vs0mg"},{"bike_id":"88b1e8a3-afb8-4639-8b01-9250b817527b","system_id":"levelo_inurba_marseille","lat":43.32365,"lon":5.38878,"is_reserved":false,"is_disabled":false,"rental_uris":{"android":"levelo://app?vid=88b1e8a3-afb8-4639-8b01-9250b817527b","ios":"levelo://app?vid=88b1e8a3-afb8-4639-8b01-9250b817527b"},"vehicle_type_id":"4","last_reported":1718129474,"current_range_meters":3200,"station_id":"ce4bhqp2rcd13ifvqhog","pricing_plan_id":"cebpf4jnsgd1na2vs0mg"},{"bike_id":"2852718c-f44a-4d4e-94d3-f2cf38821c75","system_id":"levelo_inurba_marseille","lat":43.32367,"lon":5.388836,"is_reserved":false,"is_disabled":false,"rental_uris":{"android":"levelo://app?vid=2852718c-f44a-4d4e-94d3-f2cf38821c75","ios":"levelo://app?vid=2852718c-f44a-4d4e-94d3-f2cf38821c75"},"vehicle_type_id":"4","last_reported":1718129474,"current_range_meters":12000,"station_id":"ce4bhqp2rcd13ifvqhog","pricing_plan_id":"cebpf4jnsgd1na2vs0mg"},{"bike_id":"d9c72018-743e-4b29-bd2e-511f8c3a9ab6","system_id":"levelo_inurba_marseille","lat":43.32367,"lon":5.38883,"is_reserved":false,"is_disabled":false,"rental_uris":{"android":"levelo://app?vid=d9c72018-743e-4b29-bd2e-511f8c3a9ab6","ios":"levelo://app?vid=d9c72018-743e-4b29-bd2e-511f8c3a9ab6"},"vehicle_type_id":"4","last_reported":1718129474,"current_range_meters":10800,"station_id":"ce4bhqp2rcd13ifvqhog","pricing_plan_id":"cebpf4jnsgd1na2vs0mg"},{"bike_id":"b1e4131e-41df-40f3-910e-9309568ac42b","system_id":"levelo_inurba_marseille","lat":43.32367,"lon":5.388836,"is_reserved":false,"is_disabled":false,"rental_uris":{"android":"levelo://app?vid=b1e4131e-41df-40f3-910e-9309568ac42b","ios":"levelo://app?vid=b1e4131e-41df-40f3-910e-9309568ac42b"},"vehicle_type_id":"4","last_reported":1718129474,"current_range_meters":14000,"station_id":"ce4bhqp2rcd13ifvqhog","pricing_plan_id":"cebpf4jnsgd1na2vs0mg"},{"bike_id":"fdc10078-3a02-4928-af01-997cd9503749","system_id":"levelo_inurba_marseille","lat":43.29602,"lon":5.381084,"is_reserved":false,"is_disabled":false,"rental_uris":{"android":"levelo://app?vid=fdc10078-3a02-4928-af01-997cd9503749","ios":"levelo://app?vid=fdc10078-3a02-4928-af01-997cd9503749"},"vehicle_type_id":"4","last_reported":1718129474,"current_range_meters":8800,"station_id":"ce4bgl12rcd13ifvqbo0","pricing_plan_id":"cebpf4jnsgd1na2vs0mg"},{"bike_id":"091d0760-44da-4d52-91d5-c81ebd757699","system_id":"levelo_inurba_marseille","lat":43.289184,"lon":5.366408,"is_reserved":false,"is_disabled":false,"rental_uris":{"android":"levelo://app?vid=091d0760-44da-4d52-91d5-c81ebd757699","ios":"levelo://app?vid=091d0760-44da-4d52-91d5-c81ebd757699"},"vehicle_type_id":"4","last_reported":1718129474,"current_range_meters":7600,"station_id":"ce4bhap2rcd13ifvqek0","pricing_plan_id":"cebpf4jnsgd1na2vs0mg"},{"bike_id":"3d4a9fa2-1c35-46a9-8ce1-20af1c488d27","system_id":"levelo_inurba_marseille","lat":43.293051,"lon":5.371649,"is_reserved":false,"is_disabled":false,"rental_uris":{"android":"levelo://app?vid=3d4a9fa2-1c35-46a9-8ce1-20af1c488d27","ios":"levelo://app?vid=3d4a9fa2-1c35-46a9-8ce1-20af1c488d27"},"vehicle_type_id":"4","last_reported":1718129474,"current_range_meters":28000,"station_id":"ce4bgh92rcd13ifvqb40","pricing_plan_id":"cebpf4jnsgd1na2vs0mg"},{"bike_id":"b2b3cc4d-b45d-4e7f-8aa6-1783c81849a5","system_id":"levelo_inurba_marseille","lat":43.292749,"lon":5.368402,"is_reserved":false,"is_disabled":false,"rental_uris":{"android":"levelo://app?vid=b2b3cc4d-b45d-4e7f-8aa6-1783c81849a5","ios":"levelo://app?vid=b2b3cc4d-b45d-4e7f-8aa6-1783c81849a5"},"vehicle_type_id":"4","last_reported":1718129474,"current_range_meters":0,"station_id":"ce4bhbp2rcd13ifvqesg","pricing_plan_id":"cebpf4jnsgd1na2vs0mg"},{"bike_id":"bf9700bf-3c2f-4b22-8643-bab27ec29599","system_id":"levelo_inurba_marseille","lat":43.292749,"lon":5.368398,"is_reserved":false,"is_disabled":false,"rental_uris":{"android":"levelo://app?vid=bf9700bf-3c2f-4b22-8643-bab27ec29599","ios":"levelo://app?vid=bf9700bf-3c2f-4b22-8643-bab27ec29599"},"vehicle_type_id":"4","last_reported":1718129474,"current_range_meters":0,"station_id":"ce4bhbp2rcd13ifvqesg","pricing_plan_id":"cebpf4jnsgd1na2vs0mg"},{"bike_id":"580abfb8-1fec-4d93-9607-c8b825ea07e8","system_id":"levelo_inurba_marseille","lat":43.305994,"lon":5.393687,"is_reserved":false,"is_disabled":false,"rental_uris":{"android":"levelo://app?vid=580abfb8-1fec-4d93-9607-c8b825ea07e8","ios":"levelo://app?vid=580abfb8-1fec-4d93-9607-c8b825ea07e8"},"vehicle_type_id":"4","last_reported":1718129474,"current_range_meters":30800,"station_id":"ce4bh0p2rcd13ifvqd80","pricing_plan_id":"cebpf4jnsgd1na2vs0mg"},{"bike_id":"5433c9a2-7592-42f9-bbb9-542f0c1abbea","system_id":"levelo_inurba_marseille","lat":43.29304,"lon":5.37463,"is_reserved":false,"is_disabled":false,"rental_uris":{"android":"levelo://app?vid=5433c9a2-7592-42f9-bbb9-542f0c1abbea","ios":"levelo://app?vid=5433c9a2-7592-42f9-bbb9-542f0c1abbea"},"vehicle_type_id":"4","last_reported":1718129474,"current_range_meters":0,"station_id":"ce4bgi12rcd13ifvqb70","pricing_plan_id":"cebpf4jnsgd1na2vs0mg"},{"bike_id":"7043c333-6e18-45cb-8b1c-cd63121015f4","system_id":"levelo_inurba_marseille","lat":43.29298,"lon":5.37449,"is_reserved":false,"is_disabled":false,"rental_uris":{"android":"levelo://app?vid=7043c333-6e18-45cb-8b1c-cd63121015f4","ios":"levelo://app?vid=7043c333-6e18-45cb-8b1c-cd63121015f4"},"vehicle_type_id":"4","last_reported":1718129474,"current_range_meters":0,"station_id":"ce4bgi12rcd13ifvqb70","pricing_plan_id":"cebpf4jnsgd1na2vs0mg"},{"bike_id":"868880b2-7ee2-4006-89d5-9f24a2e2c015","system_id":"levelo_inurba_marseille","lat":43.305994,"lon":5.393687,"is_reserved":false,"is_disabled":false,"rental_uris":{"android":"levelo://app?vid=868880b2-7ee2-4006-89d5-9f24a2e2c015","ios":"levelo://app?vid=868880b2-7ee2-4006-89d5-9f24a2e2c015"},"vehicle_type_id":"4","last_reported":1718129474,"current_range_meters":18800,"station_id":"ce4bh0p2rcd13ifvqd80","pricing_plan_id":"cebpf4jnsgd1na2vs0mg"},{"bike_id":"27613643-a4dc-4a26-a81b-a3c73f6c9710","system_id":"levelo_inurba_marseille","lat":43.305994,"lon":5.393687,"is_reserved":false,"is_disabled":false,"rental_uris":{"android":"levelo://app?vid=27613643-a4dc-4a26-a81b-a3c73f6c9710","ios":"levelo://app?vid=27613643-a4dc-4a26-a81b-a3c73f6c9710"},"vehicle_type_id":"4","last_reported":1718129474,"current_range_meters":4800,"station_id":"ce4bh0p2rcd13ifvqd80","pricing_plan_id":"cebpf4jnsgd1na2vs0mg"},{"bike_id":"a1092272-6f02-4221-ab03-1c257a0c05d8","system_id":"levelo_inurba_marseille","lat":43.305994,"lon":5.393687,"is_reserved":false,"is_disabled":false,"rental_uris":{"android":"levelo://app?vid=a1092272-6f02-4221-ab03-1c257a0c05d8","ios":"levelo://app?vid=a1092272-6f02-4221-ab03-1c257a0c05d8"},"vehicle_type_id":"4","last_reported":1718129474,"current_range_meters":31200,"station_id":"ce4bh0p2rcd13ifvqd80","pricing_plan_id":"cebpf4jnsgd1na2vs0mg"},{"bike_id":"2999c86c-6cec-438a-ad94-24095c7f143b","system_id":"levelo_inurba_marseille","lat":43.305994,"lon":5.393687,"is_reserved":false,"is_disabled":false,"rental_uris":{"android":"levelo://app?vid=2999c86c-6cec-438a-ad94-24095c7f143b","ios":"levelo://app?vid=2999c86c-6cec-438a-ad94-24095c7f143b"},"vehicle_type_id":"4","last_reported":1718129474,"current_range_meters":31200,"station_id":"ce4bh0p2rcd13ifvqd80","pricing_plan_id":"cebpf4jnsgd1na2vs0mg"},{"bike_id":"d9168ae4-5692-4d4e-b16e-8be731fddb6e","system_id":"levelo_inurba_marseille","lat":43.302985,"lon":5.39209,"is_reserved":false,"is_disabled":false,"rental_uris":{"android":"levelo://app?vid=d9168ae4-5692-4d4e-b16e-8be731fddb6e","ios":"levelo://app?vid=d9168ae4-5692-4d4e-b16e-8be731fddb6e"},"vehicle_type_id":"4","last_reported":1718129474,"current_range_meters":0,"station_id":"ce4bgkh2rcd13ifvqbk0","pricing_plan_id":"cebpf4jnsgd1na2vs0mg"},{"bike_id":"b26e0a38-a5db-48d6-a761-8c32fe0f78e6","system_id":"levelo_inurba_marseille","lat":43.29375,"lon":5.37842,"is_reserved":false,"is_disabled":false,"rental_uris":{"android":"levelo://app?vid=b26e0a38-a5db-48d6-a761-8c32fe0f78e6","ios":"levelo://app?vid=b26e0a38-a5db-48d6-a761-8c32fe0f78e6"},"vehicle_type_id":"4","last_reported":1718129474,"current_range_meters":18400,"station_id":"","pricing_plan_id":"cebpf4jnsgd1na2vs0mg"},{"bike_id":"7105f506-8b52-4ed4-a2a2-fc3e017f7399","system_id":"levelo_inurba_marseille","lat":43.302992,"lon":5.392136,"is_reserved":false,"is_disabled":false,"rental_uris":{"android":"levelo://app?vid=7105f506-8b52-4ed4-a2a2-fc3e017f7399","ios":"levelo://app?vid=7105f506-8b52-4ed4-a2a2-fc3e017f7399"},"vehicle_type_id":"4","last_reported":1718129474,"current_range_meters":2400,"station_id":"ce4bgkh2rcd13ifvqbk0","pricing_plan_id":"cebpf4jnsgd1na2vs0mg"},{"bike_id":"cbd96356-b2a9-4173-9b28-ced8b7fcf258","system_id":"levelo_inurba_marseille","lat":43.30297,"lon":5.39215,"is_reserved":false,"is_disabled":false,"rental_uris":{"android":"levelo://app?vid=cbd96356-b2a9-4173-9b28-ced8b7fcf258","ios":"levelo://app?vid=cbd96356-b2a9-4173-9b28-ced8b7fcf258"},"vehicle_type_id":"4","last_reported":1718129474,"current_range_meters":12800,"station_id":"ce4bgkh2rcd13ifvqbk0","pricing_plan_id":"cebpf4jnsgd1na2vs0mg"},{"bike_id":"c827d08b-18db-40cb-a875-fea71ee8dfcb","system_id":"levelo_inurba_marseille","lat":43.30303,"lon":5.3922,"is_reserved":false,"is_disabled":false,"rental_uris":{"android":"levelo://app?vid=c827d08b-18db-40cb-a875-fea71ee8dfcb","ios":"levelo://app?vid=c827d08b-18db-40cb-a875-fea71ee8dfcb"},"vehicle_type_id":"4","last_reported":1718129474,"current_range_meters":0,"station_id":"ce4bgkh2rcd13ifvqbk0","pricing_plan_id":"cebpf4jnsgd1na2vs0mg"},{"bike_id":"18e924a5-adb2-4415-bb4b-3a9089f9df2b","system_id":"levelo_inurba_marseille","lat":43.30085,"lon":5.390856,"is_reserved":false,"is_disabled":false,"rental_uris":{"android":"levelo://app?vid=18e924a5-adb2-4415-bb4b-3a9089f9df2b","ios":"levelo://app?vid=18e924a5-adb2-4415-bb4b-3a9089f9df2b"},"vehicle_type_id":"4","last_reported":1718129474,"current_range_meters":18000,"station_id":"ce4bh192rcd13ifvqdb0","pricing_plan_id":"cebpf4jnsgd1na2vs0mg"},{"bike_id":"341ef18c-b3ff-4f4c-8f73-044cea06b37e","system_id":"levelo_inurba_marseille","lat":43.30299,"lon":5.39218,"is_reserved":false,"is_disabled":false,"rental_uris":{"android":"levelo://app?vid=341ef18c-b3ff-4f4c-8f73-044cea06b37e","ios":"levelo://app?vid=341ef18c-b3ff-4f4c-8f73-044cea06b37e"},"vehicle_type_id":"4","last_reported":1718129474,"current_range_meters":0,"station_id":"ce4bgkh2rcd13ifvqbk0","pricing_plan_id":"cebpf4jnsgd1na2vs0mg"},{"bike_id":"96349884-be78-456e-a360-9974237203dc","system_id":"levelo_inurba_marseille","lat":43.2936,"lon":5.37835,"is_reserved":false,"is_disabled":false,"rental_uris":{"android":"levelo://app?vid=96349884-be78-456e-a360-9974237203dc","ios":"levelo://app?vid=96349884-be78-456e-a360-9974237203dc"},"vehicle_type_id":"4","last_reported":1718129474,"current_range_meters":29600,"station_id":"ce4bgjh2rcd13ifvqbf0","pricing_plan_id":"cebpf4jnsgd1na2vs0mg"},{"bike_id":"66ee6e76-1991-4c7e-9e60-314442bb7dad","system_id":"levelo_inurba_marseille","lat":43.2936,"lon":5.37835,"is_reserved":false,"is_disabled":false,"rental_uris":{"android":"levelo://app?vid=66ee6e76-1991-4c7e-9e60-314442bb7dad","ios":"levelo://app?vid=66ee6e76-1991-4c7e-9e60-314442bb7dad"},"vehicle_type_id":"4","last_reported":1718129474,"current_range_meters":0,"station_id":"ce4bgjh2rcd13ifvqbf0","pricing_plan_id":"cebpf4jnsgd1na2vs0mg"},{"bike_id":"4a175094-0b05-451d-a4cc-6864a5eb6c7b","system_id":"levelo_inurba_marseille","lat":43.292311,"lon":5.360731,"is_reserved":false,"is_disabled":false,"rental_uris":{"android":"levelo://app?vid=4a175094-0b05-451d-a4cc-6864a5eb6c7b","ios":"levelo://app?vid=4a175094-0b05-451d-a4cc-6864a5eb6c7b"},"vehicle_type_id":"4","last_reported":1718129474,"current_range_meters":30800,"station_id":"ce4bhbh2rcd13ifvqeqg","pricing_plan_id":"cebpf4jnsgd1na2vs0mg"},{"bike_id":"d2c29d10-5b96-41a0-9904-1c31ef0fab46","system_id":"levelo_inurba_marseille","lat":43.292311,"lon":5.360731,"is_reserved":false,"is_disabled":false,"rental_uris":{"android":"levelo://app?vid=d2c29d10-5b96-41a0-9904-1c31ef0fab46","ios":"levelo://app?vid=d2c29d10-5b96-41a0-9904-1c31ef0fab46"},"vehicle_type_id":"4","last_reported":1718129474,"current_range_meters":8400,"station_id":"ce4bhbh2rcd13ifvqeqg","pricing_plan_id":"cebpf4jnsgd1na2vs0mg"},{"bike_id":"a8453ef9-350c-4df8-a4b2-d6bf55216e6a","system_id":"levelo_inurba_marseille","lat":43.292311,"lon":5.360731,"is_reserved":false,"is_disabled":false,"rental_uris":{"android":"levelo://app?vid=a8453ef9-350c-4df8-a4b2-d6bf55216e6a","ios":"levelo://app?vid=a8453ef9-350c-4df8-a4b2-d6bf55216e6a"},"vehicle_type_id":"4","last_reported":1718129474,"current_range_meters":31200,"station_id":"ce4bhbh2rcd13ifvqeqg","pricing_plan_id":"cebpf4jnsgd1na2vs0mg"},{"bike_id":"07047438-8bd3-48e2-81dd-360689e742f0","system_id":"levelo_inurba_marseille","lat":43.292311,"lon":5.360731,"is_reserved":false,"is_disabled":false,"rental_uris":{"android":"levelo://app?vid=07047438-8bd3-48e2-81dd-360689e742f0","ios":"levelo://app?vid=07047438-8bd3-48e2-81dd-360689e742f0"},"vehicle_type_id":"4","last_reported":1718129474,"current_range_meters":31200,"station_id":"ce4bhbh2rcd13ifvqeqg","pricing_plan_id":"cebpf4jnsgd1na2vs0mg"},{"bike_id":"26942c56-6858-45a4-8d70-ccd03ce4876d","system_id":"levelo_inurba_marseille","lat":43.292311,"lon":5.360731,"is_reserved":false,"is_disabled":false,"rental_uris":{"android":"levelo://app?vid=26942c56-6858-45a4-8d70-ccd03ce4876d","ios":"levelo://app?vid=26942c56-6858-45a4-8d70-ccd03ce4876d"},"vehicle_type_id":"4","last_reported":1718129474,"current_range_meters":31200,"station_id":"ce4bhbh2rcd13ifvqeqg","pricing_plan_id":"cebpf4jnsgd1na2vs0mg"},{"bike_id":"28ae5208-17d0-4e30-875f-d3db3d7e5f98","system_id":"levelo_inurba_marseille","lat":43.292311,"lon":5.360731,"is_reserved":false,"is_disabled":false,"rental_uris":{"android":"levelo://app?vid=28ae5208-17d0-4e30-875f-d3db3d7e5f98","ios":"levelo://app?vid=28ae5208-17d0-4e30-875f-d3db3d7e5f98"},"vehicle_type_id":"4","last_reported":1718129474,"current_range_meters":31200,"station_id":"ce4bhbh2rcd13ifvqeqg","pricing_plan_id":"cebpf4jnsgd1na2vs0mg"},{"bike_id":"5e751374-0f21-424f-ab8e-40ebdc7fb59f","system_id":"levelo_inurba_marseille","lat":43.292311,"lon":5.360731,"is_reserved":false,"is_disabled":false,"rental_uris":{"android":"levelo://app?vid=5e751374-0f21-424f-ab8e-40ebdc7fb59f","ios":"levelo://app?vid=5e751374-0f21-424f-ab8e-40ebdc7fb59f"},"vehicle_type_id":"4","last_reported":1718129474,"current_range_meters":9600,"station_id":"ce4bhbh2rcd13ifvqeqg","pricing_plan_id":"cebpf4jnsgd1na2vs0mg"},{"bike_id":"969219cd-4dd0-45fd-a2c9-25ce207c3857","system_id":"levelo_inurba_marseille","lat":43.292311,"lon":5.360731,"is_reserved":false,"is_disabled":false,"rental_uris":{"android":"levelo://app?vid=969219cd-4dd0-45fd-a2c9-25ce207c3857","ios":"levelo://app?vid=969219cd-4dd0-45fd-a2c9-25ce207c3857"},"vehicle_type_id":"4","last_reported":1718129474,"current_range_meters":31200,"station_id":"ce4bhbh2rcd13ifvqeqg","pricing_plan_id":"cebpf4jnsgd1na2vs0mg"},{"bike_id":"a299540c-ff69-412a-865f-69f620876eab","system_id":"levelo_inurba_marseille","lat":43.292311,"lon":5.360731,"is_reserved":false,"is_disabled":false,"rental_uris":{"android":"levelo://app?vid=a299540c-ff69-412a-865f-69f620876eab","ios":"levelo://app?vid=a299540c-ff69-412a-865f-69f620876eab"},"vehicle_type_id":"4","last_reported":1718129474,"current_range_meters":1600,"station_id":"ce4bhbh2rcd13ifvqeqg","pricing_plan_id":"cebpf4jnsgd1na2vs0mg"},{"bike_id":"658a12fa-1c1e-4f01-aca8-e4724796afb2","system_id":"levelo_inurba_marseille","lat":43.292311,"lon":5.360731,"is_reserved":false,"is_disabled":false,"rental_uris":{"android":"levelo://app?vid=658a12fa-1c1e-4f01-aca8-e4724796afb2","ios":"levelo://app?vid=658a12fa-1c1e-4f01-aca8-e4724796afb2"},"vehicle_type_id":"4","last_reported":1718129474,"current_range_meters":0,"station_id":"ce4bhbh2rcd13ifvqeqg","pricing_plan_id":"cebpf4jnsgd1na2vs0mg"},{"bike_id":"5bfd34e6-6f46-4a3e-8ac3-ce356b120f64","system_id":"levelo_inurba_marseille","lat":43.292311,"lon":5.360731,"is_reserved":false,"is_disabled":false,"rental_uris":{"android":"levelo://app?vid=5bfd34e6-6f46-4a3e-8ac3-ce356b120f64","ios":"levelo://app?vid=5bfd34e6-6f46-4a3e-8ac3-ce356b120f64"},"vehicle_type_id":"4","last_reported":1718129474,"current_range_meters":31200,"station_id":"ce4bhbh2rcd13ifvqeqg","pricing_plan_id":"cebpf4jnsgd1na2vs0mg"},{"bike_id":"6273c217-afed-4044-bb52-85b6dfe9a38b","system_id":"levelo_inurba_marseille","lat":43.30085,"lon":5.390856,"is_reserved":false,"is_disabled":false,"rental_uris":{"android":"levelo://app?vid=6273c217-afed-4044-bb52-85b6dfe9a38b","ios":"levelo://app?vid=6273c217-afed-4044-bb52-85b6dfe9a38b"},"vehicle_type_id":"4","last_reported":1718129474,"current_range_meters":0,"station_id":"ce4bh192rcd13ifvqdb0","pricing_plan_id":"cebpf4jnsgd1na2vs0mg"},{"bike_id":"68358b70-dd6b-468b-8e08-b68375124631","system_id":"levelo_inurba_marseille","lat":43.30085,"lon":5.390856,"is_reserved":false,"is_disabled":false,"rental_uris":{"android":"levelo://app?vid=68358b70-dd6b-468b-8e08-b68375124631","ios":"levelo://app?vid=68358b70-dd6b-468b-8e08-b68375124631"},"vehicle_type_id":"4","last_reported":1718129474,"current_range_meters":9600,"station_id":"ce4bh192rcd13ifvqdb0","pricing_plan_id":"cebpf4jnsgd1na2vs0mg"},{"bike_id":"f1f2bbf3-f00a-46e8-9864-a4a6f3b59e93","system_id":"levelo_inurba_marseille","lat":43.292311,"lon":5.360731,"is_reserved":false,"is_disabled":false,"rental_uris":{"android":"levelo://app?vid=f1f2bbf3-f00a-46e8-9864-a4a6f3b59e93","ios":"levelo://app?vid=f1f2bbf3-f00a-46e8-9864-a4a6f3b59e93"},"vehicle_type_id":"4","last_reported":1718129474,"current_range_meters":22000,"station_id":"ce4bhbh2rcd13ifvqeqg","pricing_plan_id":"cebpf4jnsgd1na2vs0mg"},{"bike_id":"af67ce05-1573-4617-8437-21ec2c5a97ca","system_id":"levelo_inurba_marseille","lat":43.292311,"lon":5.360731,"is_reserved":false,"is_disabled":false,"rental_uris":{"android":"levelo://app?vid=af67ce05-1573-4617-8437-21ec2c5a97ca","ios":"levelo://app?vid=af67ce05-1573-4617-8437-21ec2c5a97ca"},"vehicle_type_id":"4","last_reported":1718129474,"current_range_meters":31200,"station_id":"ce4bhbh2rcd13ifvqeqg","pricing_plan_id":"cebpf4jnsgd1na2vs0mg"},{"bike_id":"c0bf4e7c-9750-4704-a00c-9a79766c639f","system_id":"levelo_inurba_marseille","lat":43.291675,"lon":5.371583,"is_reserved":false,"is_disabled":false,"rental_uris":{"android":"levelo://app?vid=c0bf4e7c-9750-4704-a00c-9a79766c639f","ios":"levelo://app?vid=c0bf4e7c-9750-4704-a00c-9a79766c639f"},"vehicle_type_id":"4","last_reported":1718129474,"current_range_meters":0,"station_id":"ce4bha92rcd13ifvqeh0","pricing_plan_id":"cebpf4jnsgd1na2vs0mg"},{"bike_id":"6b0b8237-382e-4381-8d44-436854f74d1f","system_id":"levelo_inurba_marseille","lat":43.29136,"lon":5.370105,"is_reserved":false,"is_disabled":false,"rental_uris":{"android":"levelo://app?vid=6b0b8237-382e-4381-8d44-436854f74d1f","ios":"levelo://app?vid=6b0b8237-382e-4381-8d44-436854f74d1f"},"vehicle_type_id":"4","last_reported":1718129474,"current_range_meters":23200,"station_id":"","pricing_plan_id":"cebpf4jnsgd1na2vs0mg"},{"bike_id":"d973f0b6-bbef-4dbb-9d8c-f83f2560b6c2","system_id":"levelo_inurba_marseille","lat":43.309047,"lon":5.396551,"is_reserved":false,"is_disabled":false,"rental_uris":{"android":"levelo://app?vid=d973f0b6-bbef-4dbb-9d8c-f83f2560b6c2","ios":"levelo://app?vid=d973f0b6-bbef-4dbb-9d8c-f83f2560b6c2"},"vehicle_type_id":"4","last_reported":1718129474,"current_range_meters":21200,"station_id":"ce4bh012rcd13ifvqcv0","pricing_plan_id":"cebpf4jnsgd1na2vs0mg"},{"bike_id":"e7208b83-7bcd-42cf-863d-6ed7b8cffc72","system_id":"levelo_inurba_marseille","lat":43.313291,"lon":5.396838,"is_reserved":false,"is_disabled":false,"rental_uris":{"android":"levelo://app?vid=e7208b83-7bcd-42cf-863d-6ed7b8cffc72","ios":"levelo://app?vid=e7208b83-7bcd-42cf-863d-6ed7b8cffc72"},"vehicle_type_id":"4","last_reported":1718129474,"current_range_meters":19600,"station_id":"ce4bgvp2rcd13ifvqcu0","pricing_plan_id":"cebpf4jnsgd1na2vs0mg"},{"bike_id":"3a91edb6-e241-4e32-ab81-b0015644bcb1","system_id":"levelo_inurba_marseille","lat":43.292005,"lon":5.357875,"is_reserved":false,"is_disabled":false,"rental_uris":{"android":"levelo://app?vid=3a91edb6-e241-4e32-ab81-b0015644bcb1","ios":"levelo://app?vid=3a91edb6-e241-4e32-ab81-b0015644bcb1"},"vehicle_type_id":"4","last_reported":1718129474,"current_range_meters":8000,"station_id":"ce4bhb12rcd13ifvqel0","pricing_plan_id":"cebpf4jnsgd1na2vs0mg"},{"bike_id":"bb03b40e-f8e5-417e-8ad4-c2455759b511","system_id":"levelo_inurba_marseille","lat":43.309047,"lon":5.396551,"is_reserved":false,"is_disabled":false,"rental_uris":{"android":"levelo://app?vid=bb03b40e-f8e5-417e-8ad4-c2455759b511","ios":"levelo://app?vid=bb03b40e-f8e5-417e-8ad4-c2455759b511"},"vehicle_type_id":"4","last_reported":1718129474,"current_range_meters":1600,"station_id":"ce4bh012rcd13ifvqcv0","pricing_plan_id":"cebpf4jnsgd1na2vs0mg"},{"bike_id":"15d05d1b-c56c-43f5-bf88-4ced2aa20b65","system_id":"levelo_inurba_marseille","lat":43.313268,"lon":5.396886,"is_reserved":false,"is_disabled":false,"rental_uris":{"android":"levelo://app?vid=15d05d1b-c56c-43f5-bf88-4ced2aa20b65","ios":"levelo://app?vid=15d05d1b-c56c-43f5-bf88-4ced2aa20b65"},"vehicle_type_id":"4","last_reported":1718129474,"current_range_meters":16800,"station_id":"ce4bh0p2rcd13ifvqd80","pricing_plan_id":"cebpf4jnsgd1na2vs0mg"},{"bike_id":"78f797b9-05ed-4929-abe9-2a7ebe5fdcbb","system_id":"levelo_inurba_marseille","lat":43.309038,"lon":5.396546,"is_reserved":false,"is_disabled":false,"rental_uris":{"android":"levelo://app?vid=78f797b9-05ed-4929-abe9-2a7ebe5fdcbb","ios":"levelo://app?vid=78f797b9-05ed-4929-abe9-2a7ebe5fdcbb"},"vehicle_type_id":"4","last_reported":1718129474,"current_range_meters":0,"station_id":"ce4bh012rcd13ifvqcv0","pricing_plan_id":"cebpf4jnsgd1na2vs0mg"},{"bike_id":"6385c392-fcdf-4747-9a59-6424681931c7","system_id":"levelo_inurba_marseille","lat":43.309038,"lon":5.396546,"is_reserved":false,"is_disabled":false,"rental_uris":{"android":"levelo://app?vid=6385c392-fcdf-4747-9a59-6424681931c7","ios":"levelo://app?vid=6385c392-fcdf-4747-9a59-6424681931c7"},"vehicle_type_id":"4","last_reported":1718129474,"current_range_meters":4800,"station_id":"ce4bh012rcd13ifvqcv0","pricing_plan_id":"cebpf4jnsgd1na2vs0mg"},{"bike_id":"58912c00-1f3c-4b0d-90cd-9be0503ba43f","system_id":"levelo_inurba_marseille","lat":43.291896,"lon":5.357959,"is_reserved":false,"is_disabled":false,"rental_uris":{"android":"levelo://app?vid=58912c00-1f3c-4b0d-90cd-9be0503ba43f","ios":"levelo://app?vid=58912c00-1f3c-4b0d-90cd-9be0503ba43f"},"vehicle_type_id":"4","last_reported":1718129474,"current_range_meters":10400,"station_id":"","pricing_plan_id":"cebpf4jnsgd1na2vs0mg"},{"bike_id":"410c0a4b-8925-4d92-88e8-7defdcc37066","system_id":"levelo_inurba_marseille","lat":43.309038,"lon":5.396546,"is_reserved":false,"is_disabled":false,"rental_uris":{"android":"levelo://app?vid=410c0a4b-8925-4d92-88e8-7defdcc37066","ios":"levelo://app?vid=410c0a4b-8925-4d92-88e8-7defdcc37066"},"vehicle_type_id":"4","last_reported":1718129474,"current_range_meters":10000,"station_id":"ce4bh012rcd13ifvqcv0","pricing_plan_id":"cebpf4jnsgd1na2vs0mg"},{"bike_id":"29cbd84a-e705-4e0c-a26a-f359b8fd84ac","system_id":"levelo_inurba_marseille","lat":43.31333,"lon":5.39698,"is_reserved":false,"is_disabled":false,"rental_uris":{"android":"levelo://app?vid=29cbd84a-e705-4e0c-a26a-f359b8fd84ac","ios":"levelo://app?vid=29cbd84a-e705-4e0c-a26a-f359b8fd84ac"},"vehicle_type_id":"4","last_reported":1718129474,"current_range_meters":0,"station_id":"ce4bgvp2rcd13ifvqcu0","pricing_plan_id":"cebpf4jnsgd1na2vs0mg"},{"bike_id":"54e51bd8-867d-4cca-8b19-8fa08d252682","system_id":"levelo_inurba_marseille","lat":43.309038,"lon":5.396546,"is_reserved":false,"is_disabled":false,"rental_uris":{"android":"levelo://app?vid=54e51bd8-867d-4cca-8b19-8fa08d252682","ios":"levelo://app?vid=54e51bd8-867d-4cca-8b19-8fa08d252682"},"vehicle_type_id":"4","last_reported":1718129474,"current_range_meters":22400,"station_id":"ce4bh012rcd13ifvqcv0","pricing_plan_id":"cebpf4jnsgd1na2vs0mg"},{"bike_id":"88a41300-61a9-454a-a864-81ddb68ae3d1","system_id":"levelo_inurba_marseille","lat":43.309038,"lon":5.396546,"is_reserved":false,"is_disabled":false,"rental_uris":{"android":"levelo://app?vid=88a41300-61a9-454a-a864-81ddb68ae3d1","ios":"levelo://app?vid=88a41300-61a9-454a-a864-81ddb68ae3d1"},"vehicle_type_id":"4","last_reported":1718129474,"current_range_meters":20800,"station_id":"ce4bh012rcd13ifvqcv0","pricing_plan_id":"cebpf4jnsgd1na2vs0mg"},{"bike_id":"051bcb4b-1ca0-48ea-a4a9-7f693bd841fd","system_id":"levelo_inurba_marseille","lat":43.309038,"lon":5.396546,"is_reserved":false,"is_disabled":false,"rental_uris":{"android":"levelo://app?vid=051bcb4b-1ca0-48ea-a4a9-7f693bd841fd","ios":"levelo://app?vid=051bcb4b-1ca0-48ea-a4a9-7f693bd841fd"},"vehicle_type_id":"4","last_reported":1718129474,"current_range_meters":12400,"station_id":"ce4bh012rcd13ifvqcv0","pricing_plan_id":"cebpf4jnsgd1na2vs0mg"},{"bike_id":"ddd31e23-f561-4373-bfee-7c97874b2372","system_id":"levelo_inurba_marseille","lat":43.313291,"lon":5.396838,"is_reserved":false,"is_disabled":false,"rental_uris":{"android":"levelo://app?vid=ddd31e23-f561-4373-bfee-7c97874b2372","ios":"levelo://app?vid=ddd31e23-f561-4373-bfee-7c97874b2372"},"vehicle_type_id":"4","last_reported":1718129474,"current_range_meters":6000,"station_id":"ce4bgvp2rcd13ifvqcu0","pricing_plan_id":"cebpf4jnsgd1na2vs0mg"},{"bike_id":"50b8b86a-0496-45c0-ae09-eeebec1cc24b","system_id":"levelo_inurba_marseille","lat":43.29538,"lon":5.38541,"is_reserved":false,"is_disabled":false,"rental_uris":{"android":"levelo://app?vid=50b8b86a-0496-45c0-ae09-eeebec1cc24b","ios":"levelo://app?vid=50b8b86a-0496-45c0-ae09-eeebec1cc24b"},"vehicle_type_id":"4","last_reported":1718129474,"current_range_meters":0,"station_id":"ce4bgih2rcd13ifvqba0","pricing_plan_id":"cebpf4jnsgd1na2vs0mg"},{"bike_id":"3d45ed5c-c424-4f93-b20c-caf4d25ebb27","system_id":"levelo_inurba_marseille","lat":43.294314,"lon":5.397498,"is_reserved":false,"is_disabled":false,"rental_uris":{"android":"levelo://app?vid=3d45ed5c-c424-4f93-b20c-caf4d25ebb27","ios":"levelo://app?vid=3d45ed5c-c424-4f93-b20c-caf4d25ebb27"},"vehicle_type_id":"4","last_reported":1718129474,"current_range_meters":0,"station_id":"ce4bh3h2rcd13ifvqdo0","pricing_plan_id":"cebpf4jnsgd1na2vs0mg"},{"bike_id":"91d4429a-3afe-4e7c-b576-fd265893a1ba","system_id":"levelo_inurba_marseille","lat":43.29529,"lon":5.385581,"is_reserved":false,"is_disabled":false,"rental_uris":{"android":"levelo://app?vid=91d4429a-3afe-4e7c-b576-fd265893a1ba","ios":"levelo://app?vid=91d4429a-3afe-4e7c-b576-fd265893a1ba"},"vehicle_type_id":"4","last_reported":1718129474,"current_range_meters":4400,"station_id":"ce4bgih2rcd13ifvqba0","pricing_plan_id":"cebpf4jnsgd1na2vs0mg"},{"bike_id":"3c645e72-92d5-40ae-9619-559cdd1967a3","system_id":"levelo_inurba_marseille","lat":43.290779,"lon":5.371482,"is_reserved":false,"is_disabled":false,"rental_uris":{"android":"levelo://app?vid=3c645e72-92d5-40ae-9619-559cdd1967a3","ios":"levelo://app?vid=3c645e72-92d5-40ae-9619-559cdd1967a3"},"vehicle_type_id":"4","last_reported":1718129474,"current_range_meters":5600,"station_id":"ce4bh5p2rcd13ifvqe4g","pricing_plan_id":"cebpf4jnsgd1na2vs0mg"},{"bike_id":"f742afe1-423d-4025-acc6-84c92ecedc07","system_id":"levelo_inurba_marseille","lat":43.290779,"lon":5.371482,"is_reserved":false,"is_disabled":false,"rental_uris":{"android":"levelo://app?vid=f742afe1-423d-4025-acc6-84c92ecedc07","ios":"levelo://app?vid=f742afe1-423d-4025-acc6-84c92ecedc07"},"vehicle_type_id":"4","last_reported":1718129474,"current_range_meters":1200,"station_id":"ce4bh5p2rcd13ifvqe4g","pricing_plan_id":"cebpf4jnsgd1na2vs0mg"},{"bike_id":"adac15f3-7125-4e72-813d-5c599e8b8897","system_id":"levelo_inurba_marseille","lat":43.302008,"lon":5.394694,"is_reserved":false,"is_disabled":false,"rental_uris":{"android":"levelo://app?vid=adac15f3-7125-4e72-813d-5c599e8b8897","ios":"levelo://app?vid=adac15f3-7125-4e72-813d-5c599e8b8897"},"vehicle_type_id":"4","last_reported":1718129474,"current_range_meters":12400,"station_id":"ce4bh0p2rcd13ifvqd70","pricing_plan_id":"cebpf4jnsgd1na2vs0mg"},{"bike_id":"74381ea8-77ec-4a1f-8c52-5870231acef9","system_id":"levelo_inurba_marseille","lat":43.290779,"lon":5.371482,"is_reserved":false,"is_disabled":false,"rental_uris":{"android":"levelo://app?vid=74381ea8-77ec-4a1f-8c52-5870231acef9","ios":"levelo://app?vid=74381ea8-77ec-4a1f-8c52-5870231acef9"},"vehicle_type_id":"4","last_reported":1718129474,"current_range_meters":0,"station_id":"ce4bh5p2rcd13ifvqe4g","pricing_plan_id":"cebpf4jnsgd1na2vs0mg"},{"bike_id":"b820d779-4a95-4e64-9031-a9877207df69","system_id":"levelo_inurba_marseille","lat":43.302008,"lon":5.394694,"is_reserved":false,"is_disabled":false,"rental_uris":{"android":"levelo://app?vid=b820d779-4a95-4e64-9031-a9877207df69","ios":"levelo://app?vid=b820d779-4a95-4e64-9031-a9877207df69"},"vehicle_type_id":"4","last_reported":1718129474,"current_range_meters":14400,"station_id":"ce4bh0p2rcd13ifvqd70","pricing_plan_id":"cebpf4jnsgd1na2vs0mg"},{"bike_id":"d222bb8f-1740-4486-bbfe-d41b53f39666","system_id":"levelo_inurba_marseille","lat":43.302008,"lon":5.394694,"is_reserved":false,"is_disabled":false,"rental_uris":{"android":"levelo://app?vid=d222bb8f-1740-4486-bbfe-d41b53f39666","ios":"levelo://app?vid=d222bb8f-1740-4486-bbfe-d41b53f39666"},"vehicle_type_id":"4","last_reported":1718129474,"current_range_meters":9600,"station_id":"ce4bh0p2rcd13ifvqd70","pricing_plan_id":"cebpf4jnsgd1na2vs0mg"},{"bike_id":"7272856a-f6d8-4321-892c-ee8e45919572","system_id":"levelo_inurba_marseille","lat":43.302008,"lon":5.394694,"is_reserved":false,"is_disabled":false,"rental_uris":{"android":"levelo://app?vid=7272856a-f6d8-4321-892c-ee8e45919572","ios":"levelo://app?vid=7272856a-f6d8-4321-892c-ee8e45919572"},"vehicle_type_id":"4","last_reported":1718129474,"current_range_meters":28800,"station_id":"ce4bh0p2rcd13ifvqd70","pricing_plan_id":"cebpf4jnsgd1na2vs0mg"},{"bike_id":"4cb3d36a-ddee-4f0b-9d5f-8b69830d5cdf","system_id":"levelo_inurba_marseille","lat":43.302008,"lon":5.394694,"is_reserved":false,"is_disabled":false,"rental_uris":{"android":"levelo://app?vid=4cb3d36a-ddee-4f0b-9d5f-8b69830d5cdf","ios":"levelo://app?vid=4cb3d36a-ddee-4f0b-9d5f-8b69830d5cdf"},"vehicle_type_id":"4","last_reported":1718129474,"current_range_meters":4400,"station_id":"ce4bh0p2rcd13ifvqd70","pricing_plan_id":"cebpf4jnsgd1na2vs0mg"},{"bike_id":"4e2d952c-f5a5-4550-9121-47457d63ea69","system_id":"levelo_inurba_marseille","lat":43.302008,"lon":5.394694,"is_reserved":false,"is_disabled":false,"rental_uris":{"android":"levelo://app?vid=4e2d952c-f5a5-4550-9121-47457d63ea69","ios":"levelo://app?vid=4e2d952c-f5a5-4550-9121-47457d63ea69"},"vehicle_type_id":"4","last_reported":1718129474,"current_range_meters":1200,"station_id":"ce4bh0p2rcd13ifvqd70","pricing_plan_id":"cebpf4jnsgd1na2vs0mg"},{"bike_id":"21f59648-d87e-48f9-b2f8-900851efbc97","system_id":"levelo_inurba_marseille","lat":43.290631,"lon":5.359244,"is_reserved":false,"is_disabled":false,"rental_uris":{"android":"levelo://app?vid=21f59648-d87e-48f9-b2f8-900851efbc97","ios":"levelo://app?vid=21f59648-d87e-48f9-b2f8-900851efbc97"},"vehicle_type_id":"4","last_reported":1718129474,"current_range_meters":25600,"station_id":"ce4bha92rcd13ifvqeg0","pricing_plan_id":"cebpf4jnsgd1na2vs0mg"},{"bike_id":"b0525f83-850b-4023-ae10-28f00746c936","system_id":"levelo_inurba_marseille","lat":43.290631,"lon":5.359244,"is_reserved":false,"is_disabled":false,"rental_uris":{"android":"levelo://app?vid=b0525f83-850b-4023-ae10-28f00746c936","ios":"levelo://app?vid=b0525f83-850b-4023-ae10-28f00746c936"},"vehicle_type_id":"4","last_reported":1718129474,"current_range_meters":3600,"station_id":"ce4bha92rcd13ifvqeg0","pricing_plan_id":"cebpf4jnsgd1na2vs0mg"},{"bike_id":"56ee9c2d-17a3-4560-80bf-5304ac02383d","system_id":"levelo_inurba_marseille","lat":43.286961,"lon":5.373785,"is_reserved":false,"is_disabled":false,"rental_uris":{"android":"levelo://app?vid=56ee9c2d-17a3-4560-80bf-5304ac02383d","ios":"levelo://app?vid=56ee9c2d-17a3-4560-80bf-5304ac02383d"},"vehicle_type_id":"4","last_reported":1718129474,"current_range_meters":20000,"station_id":"ce4bh3p2rcd13ifvqdq0","pricing_plan_id":"cebpf4jnsgd1na2vs0mg"},{"bike_id":"5ff0231b-02fb-446c-913e-18814484ee45","system_id":"levelo_inurba_marseille","lat":43.290624,"lon":5.359245,"is_reserved":false,"is_disabled":false,"rental_uris":{"android":"levelo://app?vid=5ff0231b-02fb-446c-913e-18814484ee45","ios":"levelo://app?vid=5ff0231b-02fb-446c-913e-18814484ee45"},"vehicle_type_id":"4","last_reported":1718129474,"current_range_meters":20400,"station_id":"ce4bha92rcd13ifvqeg0","pricing_plan_id":"cebpf4jnsgd1na2vs0mg"},{"bike_id":"7b4efd04-94c0-48a2-9f2a-4649465896e8","system_id":"levelo_inurba_marseille","lat":43.294193,"lon":5.38619,"is_reserved":false,"is_disabled":false,"rental_uris":{"android":"levelo://app?vid=7b4efd04-94c0-48a2-9f2a-4649465896e8","ios":"levelo://app?vid=7b4efd04-94c0-48a2-9f2a-4649465896e8"},"vehicle_type_id":"4","last_reported":1718129474,"current_range_meters":0,"station_id":"ce4bh2h2rcd13ifvqdh0","pricing_plan_id":"cebpf4jnsgd1na2vs0mg"},{"bike_id":"7ca8f951-26c0-4322-adc2-5db0569764da","system_id":"levelo_inurba_marseille","lat":43.289468,"lon":5.363719,"is_reserved":false,"is_disabled":false,"rental_uris":{"android":"levelo://app?vid=7ca8f951-26c0-4322-adc2-5db0569764da","ios":"levelo://app?vid=7ca8f951-26c0-4322-adc2-5db0569764da"},"vehicle_type_id":"4","last_reported":1718129474,"current_range_meters":12800,"station_id":"ce4bhc92rcd13ifvqetg","pricing_plan_id":"cebpf4jnsgd1na2vs0mg"},{"bike_id":"0d4330ba-1f4d-4286-82ad-07e947816949","system_id":"levelo_inurba_marseille","lat":43.294153,"lon":5.386305,"is_reserved":false,"is_disabled":false,"rental_uris":{"android":"levelo://app?vid=0d4330ba-1f4d-4286-82ad-07e947816949","ios":"levelo://app?vid=0d4330ba-1f4d-4286-82ad-07e947816949"},"vehicle_type_id":"4","last_reported":1718129474,"current_range_meters":3600,"station_id":"ce4bh2h2rcd13ifvqdh0","pricing_plan_id":"cebpf4jnsgd1na2vs0mg"},{"bike_id":"f963633e-ee91-464a-a83b-19bf0325e2c6","system_id":"levelo_inurba_marseille","lat":43.294162,"lon":5.386292,"is_reserved":false,"is_disabled":false,"rental_uris":{"android":"levelo://app?vid=f963633e-ee91-464a-a83b-19bf0325e2c6","ios":"levelo://app?vid=f963633e-ee91-464a-a83b-19bf0325e2c6"},"vehicle_type_id":"4","last_reported":1718129474,"current_range_meters":0,"station_id":"ce4bh2h2rcd13ifvqdh0","pricing_plan_id":"cebpf4jnsgd1na2vs0mg"},{"bike_id":"752e3238-b45d-4c69-9e05-0810bb324cf7","system_id":"levelo_inurba_marseille","lat":43.29418,"lon":5.38624,"is_reserved":false,"is_disabled":false,"rental_uris":{"android":"levelo://app?vid=752e3238-b45d-4c69-9e05-0810bb324cf7","ios":"levelo://app?vid=752e3238-b45d-4c69-9e05-0810bb324cf7"},"vehicle_type_id":"4","last_reported":1718129474,"current_range_meters":6400,"station_id":"ce4bh2h2rcd13ifvqdh0","pricing_plan_id":"cebpf4jnsgd1na2vs0mg"},{"bike_id":"66c5c051-412c-421c-a0f5-454f582378de","system_id":"levelo_inurba_marseille","lat":43.294235,"lon":5.386387,"is_reserved":false,"is_disabled":false,"rental_uris":{"android":"levelo://app?vid=66c5c051-412c-421c-a0f5-454f582378de","ios":"levelo://app?vid=66c5c051-412c-421c-a0f5-454f582378de"},"vehicle_type_id":"4","last_reported":1718129474,"current_range_meters":0,"station_id":"ce4bh2h2rcd13ifvqdh0","pricing_plan_id":"cebpf4jnsgd1na2vs0mg"},{"bike_id":"2a221d2a-078a-415d-a72a-8b0a049a08c4","system_id":"levelo_inurba_marseille","lat":43.294153,"lon":5.386305,"is_reserved":false,"is_disabled":false,"rental_uris":{"android":"levelo://app?vid=2a221d2a-078a-415d-a72a-8b0a049a08c4","ios":"levelo://app?vid=2a221d2a-078a-415d-a72a-8b0a049a08c4"},"vehicle_type_id":"4","last_reported":1718129474,"current_range_meters":5600,"station_id":"ce4bh2h2rcd13ifvqdh0","pricing_plan_id":"cebpf4jnsgd1na2vs0mg"},{"bike_id":"da572934-b4e4-423c-960c-1e9b924860ee","system_id":"levelo_inurba_marseille","lat":43.289184,"lon":5.366408,"is_reserved":false,"is_disabled":false,"rental_uris":{"android":"levelo://app?vid=da572934-b4e4-423c-960c-1e9b924860ee","ios":"levelo://app?vid=da572934-b4e4-423c-960c-1e9b924860ee"},"vehicle_type_id":"4","last_reported":1718129474,"current_range_meters":0,"station_id":"ce4bhap2rcd13ifvqek0","pricing_plan_id":"cebpf4jnsgd1na2vs0mg"},{"bike_id":"4442d33c-cf70-4ba4-8c11-f8942491dbb9","system_id":"levelo_inurba_marseille","lat":43.294162,"lon":5.386292,"is_reserved":false,"is_disabled":false,"rental_uris":{"android":"levelo://app?vid=4442d33c-cf70-4ba4-8c11-f8942491dbb9","ios":"levelo://app?vid=4442d33c-cf70-4ba4-8c11-f8942491dbb9"},"vehicle_type_id":"4","last_reported":1718129474,"current_range_meters":13200,"station_id":"ce4bh2h2rcd13ifvqdh0","pricing_plan_id":"cebpf4jnsgd1na2vs0mg"},{"bike_id":"279743a2-50ac-4f27-8841-3accd3076c8f","system_id":"levelo_inurba_marseille","lat":43.294162,"lon":5.386292,"is_reserved":false,"is_disabled":false,"rental_uris":{"android":"levelo://app?vid=279743a2-50ac-4f27-8841-3accd3076c8f","ios":"levelo://app?vid=279743a2-50ac-4f27-8841-3accd3076c8f"},"vehicle_type_id":"4","last_reported":1718129474,"current_range_meters":27200,"station_id":"ce4bh2h2rcd13ifvqdh0","pricing_plan_id":"cebpf4jnsgd1na2vs0mg"},{"bike_id":"f2496e6e-c519-4289-92c6-b28e02006753","system_id":"levelo_inurba_marseille","lat":43.289468,"lon":5.363719,"is_reserved":false,"is_disabled":false,"rental_uris":{"android":"levelo://app?vid=f2496e6e-c519-4289-92c6-b28e02006753","ios":"levelo://app?vid=f2496e6e-c519-4289-92c6-b28e02006753"},"vehicle_type_id":"4","last_reported":1718129474,"current_range_meters":26400,"station_id":"ce4bhc92rcd13ifvqetg","pricing_plan_id":"cebpf4jnsgd1na2vs0mg"},{"bike_id":"946bded6-efc7-441a-9dd3-b2fa96715f4c","system_id":"levelo_inurba_marseille","lat":43.28937,"lon":5.36634,"is_reserved":false,"is_disabled":false,"rental_uris":{"android":"levelo://app?vid=946bded6-efc7-441a-9dd3-b2fa96715f4c","ios":"levelo://app?vid=946bded6-efc7-441a-9dd3-b2fa96715f4c"},"vehicle_type_id":"4","last_reported":1718129474,"current_range_meters":0,"station_id":"ce4bhap2rcd13ifvqek0","pricing_plan_id":"cebpf4jnsgd1na2vs0mg"},{"bike_id":"fb7b0daa-cd09-4d98-b184-72649aaa703d","system_id":"levelo_inurba_marseille","lat":43.290345,"lon":5.38646,"is_reserved":false,"is_disabled":false,"rental_uris":{"android":"levelo://app?vid=fb7b0daa-cd09-4d98-b184-72649aaa703d","ios":"levelo://app?vid=fb7b0daa-cd09-4d98-b184-72649aaa703d"},"vehicle_type_id":"4","last_reported":1718129474,"current_range_meters":16400,"station_id":"ce4bh4p2rcd13ifvqe0g","pricing_plan_id":"cebpf4jnsgd1na2vs0mg"},{"bike_id":"5bb6ceea-7a5b-45d8-8a03-702ed415af36","system_id":"levelo_inurba_marseille","lat":43.289184,"lon":5.366408,"is_reserved":false,"is_disabled":false,"rental_uris":{"android":"levelo://app?vid=5bb6ceea-7a5b-45d8-8a03-702ed415af36","ios":"levelo://app?vid=5bb6ceea-7a5b-45d8-8a03-702ed415af36"},"vehicle_type_id":"4","last_reported":1718129474,"current_range_meters":17600,"station_id":"ce4bhap2rcd13ifvqek0","pricing_plan_id":"cebpf4jnsgd1na2vs0mg"},{"bike_id":"664b0296-9bf9-48d0-8c5a-fe285c763094","system_id":"levelo_inurba_marseille","lat":43.289184,"lon":5.366408,"is_reserved":false,"is_disabled":false,"rental_uris":{"android":"levelo://app?vid=664b0296-9bf9-48d0-8c5a-fe285c763094","ios":"levelo://app?vid=664b0296-9bf9-48d0-8c5a-fe285c763094"},"vehicle_type_id":"4","last_reported":1718129474,"current_range_meters":22800,"station_id":"ce4bhap2rcd13ifvqek0","pricing_plan_id":"cebpf4jnsgd1na2vs0mg"},{"bike_id":"13f09f69-c705-439f-b6fe-67b6eeb18e88","system_id":"levelo_inurba_marseille","lat":43.289314,"lon":5.366337,"is_reserved":false,"is_disabled":false,"rental_uris":{"android":"levelo://app?vid=13f09f69-c705-439f-b6fe-67b6eeb18e88","ios":"levelo://app?vid=13f09f69-c705-439f-b6fe-67b6eeb18e88"},"vehicle_type_id":"4","last_reported":1718129474,"current_range_meters":8800,"station_id":"ce4bhc92rcd13ifvqetg","pricing_plan_id":"cebpf4jnsgd1na2vs0mg"},{"bike_id":"81e31caf-11ba-4aac-8b94-c587e94a9624","system_id":"levelo_inurba_marseille","lat":43.289184,"lon":5.366408,"is_reserved":false,"is_disabled":false,"rental_uris":{"android":"levelo://app?vid=81e31caf-11ba-4aac-8b94-c587e94a9624","ios":"levelo://app?vid=81e31caf-11ba-4aac-8b94-c587e94a9624"},"vehicle_type_id":"4","last_reported":1718129474,"current_range_meters":0,"station_id":"ce4bhap2rcd13ifvqek0","pricing_plan_id":"cebpf4jnsgd1na2vs0mg"},{"bike_id":"843376d5-c4cc-4d58-adff-232bac5e2256","system_id":"levelo_inurba_marseille","lat":43.289468,"lon":5.363719,"is_reserved":false,"is_disabled":false,"rental_uris":{"android":"levelo://app?vid=843376d5-c4cc-4d58-adff-232bac5e2256","ios":"levelo://app?vid=843376d5-c4cc-4d58-adff-232bac5e2256"},"vehicle_type_id":"4","last_reported":1718129474,"current_range_meters":21600,"station_id":"ce4bhc92rcd13ifvqetg","pricing_plan_id":"cebpf4jnsgd1na2vs0mg"},{"bike_id":"56f52a67-7a6d-4669-b1b8-f8d6b4c7e77f","system_id":"levelo_inurba_marseille","lat":43.289301,"lon":5.36402,"is_reserved":false,"is_disabled":false,"rental_uris":{"android":"levelo://app?vid=56f52a67-7a6d-4669-b1b8-f8d6b4c7e77f","ios":"levelo://app?vid=56f52a67-7a6d-4669-b1b8-f8d6b4c7e77f"},"vehicle_type_id":"4","last_reported":1718129474,"current_range_meters":0,"station_id":"ce4bhc92rcd13ifvqetg","pricing_plan_id":"cebpf4jnsgd1na2vs0mg"},{"bike_id":"0ae082bb-9dd5-4ebd-80c8-0d39e244fd14","system_id":"levelo_inurba_marseille","lat":43.2893,"lon":5.363884,"is_reserved":false,"is_disabled":false,"rental_uris":{"android":"levelo://app?vid=0ae082bb-9dd5-4ebd-80c8-0d39e244fd14","ios":"levelo://app?vid=0ae082bb-9dd5-4ebd-80c8-0d39e244fd14"},"vehicle_type_id":"4","last_reported":1718129474,"current_range_meters":0,"station_id":"ce4bhc92rcd13ifvqetg","pricing_plan_id":"cebpf4jnsgd1na2vs0mg"},{"bike_id":"aabf1471-7843-41d3-91b2-0e718277177b","system_id":"levelo_inurba_marseille","lat":43.304296,"lon":5.397513,"is_reserved":false,"is_disabled":false,"rental_uris":{"android":"levelo://app?vid=aabf1471-7843-41d3-91b2-0e718277177b","ios":"levelo://app?vid=aabf1471-7843-41d3-91b2-0e718277177b"},"vehicle_type_id":"4","last_reported":1718129474,"current_range_meters":29600,"station_id":"ce4bh092rcd13ifvqd20","pricing_plan_id":"cebpf4jnsgd1na2vs0mg"},{"bike_id":"946f9905-a1f2-4171-859b-3040bca28f64","system_id":"levelo_inurba_marseille","lat":43.304296,"lon":5.397513,"is_reserved":false,"is_disabled":false,"rental_uris":{"android":"levelo://app?vid=946f9905-a1f2-4171-859b-3040bca28f64","ios":"levelo://app?vid=946f9905-a1f2-4171-859b-3040bca28f64"},"vehicle_type_id":"4","last_reported":1718129474,"current_range_meters":13200,"station_id":"ce4bh092rcd13ifvqd20","pricing_plan_id":"cebpf4jnsgd1na2vs0mg"},{"bike_id":"63dd917a-3be0-4319-86d4-77483dfbcaa4","system_id":"levelo_inurba_marseille","lat":43.292644,"lon":5.384257,"is_reserved":false,"is_disabled":false,"rental_uris":{"android":"levelo://app?vid=63dd917a-3be0-4319-86d4-77483dfbcaa4","ios":"levelo://app?vid=63dd917a-3be0-4319-86d4-77483dfbcaa4"},"vehicle_type_id":"4","last_reported":1718129474,"current_range_meters":800,"station_id":"ce4bh692rcd13ifvqea0","pricing_plan_id":"cebpf4jnsgd1na2vs0mg"},{"bike_id":"0c86ce87-7880-4eaf-81fa-00fa07305b8b","system_id":"levelo_inurba_marseille","lat":43.292644,"lon":5.384257,"is_reserved":false,"is_disabled":false,"rental_uris":{"android":"levelo://app?vid=0c86ce87-7880-4eaf-81fa-00fa07305b8b","ios":"levelo://app?vid=0c86ce87-7880-4eaf-81fa-00fa07305b8b"},"vehicle_type_id":"4","last_reported":1718129474,"current_range_meters":5200,"station_id":"ce4bh692rcd13ifvqea0","pricing_plan_id":"cebpf4jnsgd1na2vs0mg"},{"bike_id":"179bc9e5-2bc3-4163-9cff-57286dd9d1e3","system_id":"levelo_inurba_marseille","lat":43.292644,"lon":5.384257,"is_reserved":false,"is_disabled":false,"rental_uris":{"android":"levelo://app?vid=179bc9e5-2bc3-4163-9cff-57286dd9d1e3","ios":"levelo://app?vid=179bc9e5-2bc3-4163-9cff-57286dd9d1e3"},"vehicle_type_id":"4","last_reported":1718129474,"current_range_meters":8800,"station_id":"ce4bh692rcd13ifvqea0","pricing_plan_id":"cebpf4jnsgd1na2vs0mg"},{"bike_id":"f4569028-4e3b-42b4-90bb-901b54314c07","system_id":"levelo_inurba_marseille","lat":43.29264,"lon":5.38439,"is_reserved":false,"is_disabled":false,"rental_uris":{"android":"levelo://app?vid=f4569028-4e3b-42b4-90bb-901b54314c07","ios":"levelo://app?vid=f4569028-4e3b-42b4-90bb-901b54314c07"},"vehicle_type_id":"4","last_reported":1718129474,"current_range_meters":6800,"station_id":"ce4bh692rcd13ifvqea0","pricing_plan_id":"cebpf4jnsgd1na2vs0mg"},{"bike_id":"26d64b1c-38b9-4535-b6a4-56efcba24b1b","system_id":"levelo_inurba_marseille","lat":43.29265,"lon":5.38444,"is_reserved":false,"is_disabled":false,"rental_uris":{"android":"levelo://app?vid=26d64b1c-38b9-4535-b6a4-56efcba24b1b","ios":"levelo://app?vid=26d64b1c-38b9-4535-b6a4-56efcba24b1b"},"vehicle_type_id":"4","last_reported":1718129474,"current_range_meters":0,"station_id":"ce4bh692rcd13ifvqea0","pricing_plan_id":"cebpf4jnsgd1na2vs0mg"},{"bike_id":"d4ff5543-2eba-439c-a242-b2e203114024","system_id":"levelo_inurba_marseille","lat":43.292644,"lon":5.384257,"is_reserved":false,"is_disabled":false,"rental_uris":{"android":"levelo://app?vid=d4ff5543-2eba-439c-a242-b2e203114024","ios":"levelo://app?vid=d4ff5543-2eba-439c-a242-b2e203114024"},"vehicle_type_id":"4","last_reported":1718129474,"current_range_meters":400,"station_id":"ce4bh692rcd13ifvqea0","pricing_plan_id":"cebpf4jnsgd1na2vs0mg"},{"bike_id":"409a36c5-d808-4ef5-8559-a5f4dda7ca08","system_id":"levelo_inurba_marseille","lat":43.292642,"lon":5.384254,"is_reserved":false,"is_disabled":false,"rental_uris":{"android":"levelo://app?vid=409a36c5-d808-4ef5-8559-a5f4dda7ca08","ios":"levelo://app?vid=409a36c5-d808-4ef5-8559-a5f4dda7ca08"},"vehicle_type_id":"4","last_reported":1718129474,"current_range_meters":6000,"station_id":"ce4bh692rcd13ifvqea0","pricing_plan_id":"cebpf4jnsgd1na2vs0mg"},{"bike_id":"b518dff8-5f0a-46e1-84cd-4a8c0c1f2dd4","system_id":"levelo_inurba_marseille","lat":43.292642,"lon":5.384254,"is_reserved":false,"is_disabled":false,"rental_uris":{"android":"levelo://app?vid=b518dff8-5f0a-46e1-84cd-4a8c0c1f2dd4","ios":"levelo://app?vid=b518dff8-5f0a-46e1-84cd-4a8c0c1f2dd4"},"vehicle_type_id":"4","last_reported":1718129474,"current_range_meters":11600,"station_id":"ce4bh692rcd13ifvqea0","pricing_plan_id":"cebpf4jnsgd1na2vs0mg"},{"bike_id":"cdcdca81-c02c-429d-aab1-21f9cdecf7e6","system_id":"levelo_inurba_marseille","lat":43.292644,"lon":5.384257,"is_reserved":false,"is_disabled":false,"rental_uris":{"android":"levelo://app?vid=cdcdca81-c02c-429d-aab1-21f9cdecf7e6","ios":"levelo://app?vid=cdcdca81-c02c-429d-aab1-21f9cdecf7e6"},"vehicle_type_id":"4","last_reported":1718129474,"current_range_meters":0,"station_id":"ce4bh692rcd13ifvqea0","pricing_plan_id":"cebpf4jnsgd1na2vs0mg"},{"bike_id":"ff79f9b4-cdcc-44ca-922a-3b9e208fd505","system_id":"levelo_inurba_marseille","lat":43.292644,"lon":5.384257,"is_reserved":false,"is_disabled":false,"rental_uris":{"android":"levelo://app?vid=ff79f9b4-cdcc-44ca-922a-3b9e208fd505","ios":"levelo://app?vid=ff79f9b4-cdcc-44ca-922a-3b9e208fd505"},"vehicle_type_id":"4","last_reported":1718129474,"current_range_meters":0,"station_id":"ce4bh692rcd13ifvqea0","pricing_plan_id":"cebpf4jnsgd1na2vs0mg"},{"bike_id":"b7f1accf-2124-41d2-b884-834b6783fe5d","system_id":"levelo_inurba_marseille","lat":43.292642,"lon":5.384254,"is_reserved":false,"is_disabled":false,"rental_uris":{"android":"levelo://app?vid=b7f1accf-2124-41d2-b884-834b6783fe5d","ios":"levelo://app?vid=b7f1accf-2124-41d2-b884-834b6783fe5d"},"vehicle_type_id":"4","last_reported":1718129474,"current_range_meters":8000,"station_id":"ce4bh692rcd13ifvqea0","pricing_plan_id":"cebpf4jnsgd1na2vs0mg"},{"bike_id":"de6c4caf-57c1-4a1e-8d5a-7b6539fa2acf","system_id":"levelo_inurba_marseille","lat":43.292644,"lon":5.384257,"is_reserved":false,"is_disabled":false,"rental_uris":{"android":"levelo://app?vid=de6c4caf-57c1-4a1e-8d5a-7b6539fa2acf","ios":"levelo://app?vid=de6c4caf-57c1-4a1e-8d5a-7b6539fa2acf"},"vehicle_type_id":"4","last_reported":1718129474,"current_range_meters":7600,"station_id":"ce4bh692rcd13ifvqea0","pricing_plan_id":"cebpf4jnsgd1na2vs0mg"},{"bike_id":"2d5f2601-daee-4c5f-a58b-4ca1d803ce94","system_id":"levelo_inurba_marseille","lat":43.292644,"lon":5.384257,"is_reserved":false,"is_disabled":false,"rental_uris":{"android":"levelo://app?vid=2d5f2601-daee-4c5f-a58b-4ca1d803ce94","ios":"levelo://app?vid=2d5f2601-daee-4c5f-a58b-4ca1d803ce94"},"vehicle_type_id":"4","last_reported":1718129474,"current_range_meters":1600,"station_id":"ce4bh692rcd13ifvqea0","pricing_plan_id":"cebpf4jnsgd1na2vs0mg"},{"bike_id":"ff6ee063-9960-448e-a676-e20935118a21","system_id":"levelo_inurba_marseille","lat":43.292644,"lon":5.384257,"is_reserved":false,"is_disabled":false,"rental_uris":{"android":"levelo://app?vid=ff6ee063-9960-448e-a676-e20935118a21","ios":"levelo://app?vid=ff6ee063-9960-448e-a676-e20935118a21"},"vehicle_type_id":"4","last_reported":1718129474,"current_range_meters":7600,"station_id":"ce4bh692rcd13ifvqea0","pricing_plan_id":"cebpf4jnsgd1na2vs0mg"},{"bike_id":"fef1b900-95f2-46a0-8cdd-0dc856f609c9","system_id":"levelo_inurba_marseille","lat":43.330016,"lon":5.389777,"is_reserved":false,"is_disabled":false,"rental_uris":{"android":"levelo://app?vid=fef1b900-95f2-46a0-8cdd-0dc856f609c9","ios":"levelo://app?vid=fef1b900-95f2-46a0-8cdd-0dc856f609c9"},"vehicle_type_id":"4","last_reported":1718129474,"current_range_meters":11600,"station_id":"ce4bhr92rcd13ifvqhrg","pricing_plan_id":"cebpf4jnsgd1na2vs0mg"},{"bike_id":"885f1305-21a6-4c22-9ffc-a8fe05f65d83","system_id":"levelo_inurba_marseille","lat":43.292642,"lon":5.384254,"is_reserved":false,"is_disabled":false,"rental_uris":{"android":"levelo://app?vid=885f1305-21a6-4c22-9ffc-a8fe05f65d83","ios":"levelo://app?vid=885f1305-21a6-4c22-9ffc-a8fe05f65d83"},"vehicle_type_id":"4","last_reported":1718129474,"current_range_meters":18400,"station_id":"ce4bh692rcd13ifvqea0","pricing_plan_id":"cebpf4jnsgd1na2vs0mg"},{"bike_id":"552e7e42-0823-4c13-9ab8-0ada4ae8aeeb","system_id":"levelo_inurba_marseille","lat":43.290104,"lon":5.356111,"is_reserved":false,"is_disabled":false,"rental_uris":{"android":"levelo://app?vid=552e7e42-0823-4c13-9ab8-0ada4ae8aeeb","ios":"levelo://app?vid=552e7e42-0823-4c13-9ab8-0ada4ae8aeeb"},"vehicle_type_id":"4","last_reported":1718129474,"current_range_meters":26000,"station_id":"ce4bhb92rcd13ifvqen0","pricing_plan_id":"cebpf4jnsgd1na2vs0mg"},{"bike_id":"cb7aff67-c0c8-44c0-823a-87f35e8d88d2","system_id":"levelo_inurba_marseille","lat":43.290103,"lon":5.356114,"is_reserved":false,"is_disabled":false,"rental_uris":{"android":"levelo://app?vid=cb7aff67-c0c8-44c0-823a-87f35e8d88d2","ios":"levelo://app?vid=cb7aff67-c0c8-44c0-823a-87f35e8d88d2"},"vehicle_type_id":"4","last_reported":1718129474,"current_range_meters":0,"station_id":"ce4bhb92rcd13ifvqen0","pricing_plan_id":"cebpf4jnsgd1na2vs0mg"},{"bike_id":"9763828e-97b1-461d-9b77-4c9fe1c2fd82","system_id":"levelo_inurba_marseille","lat":43.290995,"lon":5.381361,"is_reserved":false,"is_disabled":false,"rental_uris":{"android":"levelo://app?vid=9763828e-97b1-461d-9b77-4c9fe1c2fd82","ios":"levelo://app?vid=9763828e-97b1-461d-9b77-4c9fe1c2fd82"},"vehicle_type_id":"4","last_reported":1718129474,"current_range_meters":2400,"station_id":"ce4bh512rcd13ifvqe2g","pricing_plan_id":"cebpf4jnsgd1na2vs0mg"},{"bike_id":"93e0b931-0983-43ee-bd13-5e0ca27d1cc4","system_id":"levelo_inurba_marseille","lat":43.330442,"lon":5.389148,"is_reserved":false,"is_disabled":false,"rental_uris":{"android":"levelo://app?vid=93e0b931-0983-43ee-bd13-5e0ca27d1cc4","ios":"levelo://app?vid=93e0b931-0983-43ee-bd13-5e0ca27d1cc4"},"vehicle_type_id":"4","last_reported":1718129474,"current_range_meters":22000,"station_id":"ce4bhr92rcd13ifvqhrg","pricing_plan_id":"cebpf4jnsgd1na2vs0mg"},{"bike_id":"6e2bacef-c04f-4bf0-90be-497d260d10f1","system_id":"levelo_inurba_marseille","lat":43.329521,"lon":5.391232,"is_reserved":false,"is_disabled":false,"rental_uris":{"android":"levelo://app?vid=6e2bacef-c04f-4bf0-90be-497d260d10f1","ios":"levelo://app?vid=6e2bacef-c04f-4bf0-90be-497d260d10f1"},"vehicle_type_id":"4","last_reported":1718129474,"current_range_meters":3600,"station_id":"","pricing_plan_id":"cebpf4jnsgd1na2vs0mg"},{"bike_id":"3165b76c-973b-4a1e-895c-db954f19e6ca","system_id":"levelo_inurba_marseille","lat":43.289743,"lon":5.378304,"is_reserved":false,"is_disabled":false,"rental_uris":{"android":"levelo://app?vid=3165b76c-973b-4a1e-895c-db954f19e6ca","ios":"levelo://app?vid=3165b76c-973b-4a1e-895c-db954f19e6ca"},"vehicle_type_id":"4","last_reported":1718129474,"current_range_meters":3200,"station_id":"ce4bh9p2rcd13ifvqed0","pricing_plan_id":"cebpf4jnsgd1na2vs0mg"},{"bike_id":"af882211-8e4c-4f45-9144-83ec64f6e59d","system_id":"levelo_inurba_marseille","lat":43.330231,"lon":5.3904,"is_reserved":false,"is_disabled":false,"rental_uris":{"android":"levelo://app?vid=af882211-8e4c-4f45-9144-83ec64f6e59d","ios":"levelo://app?vid=af882211-8e4c-4f45-9144-83ec64f6e59d"},"vehicle_type_id":"4","last_reported":1718129474,"current_range_meters":10800,"station_id":"ce4bhr92rcd13ifvqhrg","pricing_plan_id":"cebpf4jnsgd1na2vs0mg"},{"bike_id":"cfbdce53-8354-49f7-8c26-ac0df3134c14","system_id":"levelo_inurba_marseille","lat":43.292642,"lon":5.384254,"is_reserved":false,"is_disabled":false,"rental_uris":{"android":"levelo://app?vid=cfbdce53-8354-49f7-8c26-ac0df3134c14","ios":"levelo://app?vid=cfbdce53-8354-49f7-8c26-ac0df3134c14"},"vehicle_type_id":"4","last_reported":1718129474,"current_range_meters":12800,"station_id":"ce4bh692rcd13ifvqea0","pricing_plan_id":"cebpf4jnsgd1na2vs0mg"},{"bike_id":"82f40c3c-ad99-468a-ad1a-09c46dc36d4f","system_id":"levelo_inurba_marseille","lat":43.28856,"lon":5.358371,"is_reserved":false,"is_disabled":false,"rental_uris":{"android":"levelo://app?vid=82f40c3c-ad99-468a-ad1a-09c46dc36d4f","ios":"levelo://app?vid=82f40c3c-ad99-468a-ad1a-09c46dc36d4f"},"vehicle_type_id":"4","last_reported":1718129474,"current_range_meters":4800,"station_id":"ce4bhb12rcd13ifvqem0","pricing_plan_id":"cebpf4jnsgd1na2vs0mg"},{"bike_id":"cfe52df5-0333-4d46-908e-12cd3bfaa32f","system_id":"levelo_inurba_marseille","lat":43.29025,"lon":5.38135,"is_reserved":false,"is_disabled":false,"rental_uris":{"android":"levelo://app?vid=cfe52df5-0333-4d46-908e-12cd3bfaa32f","ios":"levelo://app?vid=cfe52df5-0333-4d46-908e-12cd3bfaa32f"},"vehicle_type_id":"4","last_reported":1718129474,"current_range_meters":0,"station_id":"ce4bh4p2rcd13ifvqe1g","pricing_plan_id":"cebpf4jnsgd1na2vs0mg"},{"bike_id":"35433810-e37f-4a94-93f4-d95ed703dc04","system_id":"levelo_inurba_marseille","lat":43.2901,"lon":5.381269,"is_reserved":false,"is_disabled":false,"rental_uris":{"android":"levelo://app?vid=35433810-e37f-4a94-93f4-d95ed703dc04","ios":"levelo://app?vid=35433810-e37f-4a94-93f4-d95ed703dc04"},"vehicle_type_id":"4","last_reported":1718129474,"current_range_meters":0,"station_id":"ce4bh4p2rcd13ifvqe1g","pricing_plan_id":"cebpf4jnsgd1na2vs0mg"},{"bike_id":"eab81016-726a-45d5-ae98-5a5dc871097a","system_id":"levelo_inurba_marseille","lat":43.28856,"lon":5.358371,"is_reserved":false,"is_disabled":false,"rental_uris":{"android":"levelo://app?vid=eab81016-726a-45d5-ae98-5a5dc871097a","ios":"levelo://app?vid=eab81016-726a-45d5-ae98-5a5dc871097a"},"vehicle_type_id":"4","last_reported":1718129474,"current_range_meters":400,"station_id":"ce4bhb12rcd13ifvqem0","pricing_plan_id":"cebpf4jnsgd1na2vs0mg"},{"bike_id":"112a5b3e-37ba-45fa-9408-9e85c518b3ad","system_id":"levelo_inurba_marseille","lat":43.288567,"lon":5.358532,"is_reserved":false,"is_disabled":false,"rental_uris":{"android":"levelo://app?vid=112a5b3e-37ba-45fa-9408-9e85c518b3ad","ios":"levelo://app?vid=112a5b3e-37ba-45fa-9408-9e85c518b3ad"},"vehicle_type_id":"4","last_reported":1718129474,"current_range_meters":4000,"station_id":"ce4bhb12rcd13ifvqem0","pricing_plan_id":"cebpf4jnsgd1na2vs0mg"},{"bike_id":"1c17298a-0b04-4710-a3c7-a696f2bffb99","system_id":"levelo_inurba_marseille","lat":43.28856,"lon":5.358371,"is_reserved":false,"is_disabled":false,"rental_uris":{"android":"levelo://app?vid=1c17298a-0b04-4710-a3c7-a696f2bffb99","ios":"levelo://app?vid=1c17298a-0b04-4710-a3c7-a696f2bffb99"},"vehicle_type_id":"4","last_reported":1718129474,"current_range_meters":0,"station_id":"ce4bhb12rcd13ifvqem0","pricing_plan_id":"cebpf4jnsgd1na2vs0mg"},{"bike_id":"7a05fea3-364c-4505-a754-8cddf0f149d4","system_id":"levelo_inurba_marseille","lat":43.28856,"lon":5.358371,"is_reserved":false,"is_disabled":false,"rental_uris":{"android":"levelo://app?vid=7a05fea3-364c-4505-a754-8cddf0f149d4","ios":"levelo://app?vid=7a05fea3-364c-4505-a754-8cddf0f149d4"},"vehicle_type_id":"4","last_reported":1718129474,"current_range_meters":30800,"station_id":"ce4bhb12rcd13ifvqem0","pricing_plan_id":"cebpf4jnsgd1na2vs0mg"},{"bike_id":"da5b6341-0da9-4fc3-990d-b88e50f20f16","system_id":"levelo_inurba_marseille","lat":43.28856,"lon":5.358371,"is_reserved":false,"is_disabled":false,"rental_uris":{"android":"levelo://app?vid=da5b6341-0da9-4fc3-990d-b88e50f20f16","ios":"levelo://app?vid=da5b6341-0da9-4fc3-990d-b88e50f20f16"},"vehicle_type_id":"4","last_reported":1718129474,"current_range_meters":1600,"station_id":"ce4bhb12rcd13ifvqem0","pricing_plan_id":"cebpf4jnsgd1na2vs0mg"},{"bike_id":"47b2984a-458f-4ce0-ab3f-84e44f6ad43d","system_id":"levelo_inurba_marseille","lat":43.28856,"lon":5.358371,"is_reserved":false,"is_disabled":false,"rental_uris":{"android":"levelo://app?vid=47b2984a-458f-4ce0-ab3f-84e44f6ad43d","ios":"levelo://app?vid=47b2984a-458f-4ce0-ab3f-84e44f6ad43d"},"vehicle_type_id":"4","last_reported":1718129474,"current_range_meters":20000,"station_id":"ce4bhb12rcd13ifvqem0","pricing_plan_id":"cebpf4jnsgd1na2vs0mg"},{"bike_id":"c40cc727-169d-463d-8405-0af29106c25e","system_id":"levelo_inurba_marseille","lat":43.28856,"lon":5.358371,"is_reserved":false,"is_disabled":false,"rental_uris":{"android":"levelo://app?vid=c40cc727-169d-463d-8405-0af29106c25e","ios":"levelo://app?vid=c40cc727-169d-463d-8405-0af29106c25e"},"vehicle_type_id":"4","last_reported":1718129474,"current_range_meters":0,"station_id":"ce4bhb12rcd13ifvqem0","pricing_plan_id":"cebpf4jnsgd1na2vs0mg"},{"bike_id":"b0ffad02-af1e-4bb5-a66e-283a63d5daad","system_id":"levelo_inurba_marseille","lat":43.28856,"lon":5.358371,"is_reserved":false,"is_disabled":false,"rental_uris":{"android":"levelo://app?vid=b0ffad02-af1e-4bb5-a66e-283a63d5daad","ios":"levelo://app?vid=b0ffad02-af1e-4bb5-a66e-283a63d5daad"},"vehicle_type_id":"4","last_reported":1718129474,"current_range_meters":17200,"station_id":"ce4bhb12rcd13ifvqem0","pricing_plan_id":"cebpf4jnsgd1na2vs0mg"},{"bike_id":"ccd571a6-bce0-4574-9589-1007c1a29d19","system_id":"levelo_inurba_marseille","lat":43.28844,"lon":5.35853,"is_reserved":false,"is_disabled":false,"rental_uris":{"android":"levelo://app?vid=ccd571a6-bce0-4574-9589-1007c1a29d19","ios":"levelo://app?vid=ccd571a6-bce0-4574-9589-1007c1a29d19"},"vehicle_type_id":"4","last_reported":1718129474,"current_range_meters":0,"station_id":"","pricing_plan_id":"cebpf4jnsgd1na2vs0mg"},{"bike_id":"3c0324c5-c393-43fa-8dcd-aa986d88a712","system_id":"levelo_inurba_marseille","lat":43.29176,"lon":5.38605,"is_reserved":false,"is_disabled":false,"rental_uris":{"android":"levelo://app?vid=3c0324c5-c393-43fa-8dcd-aa986d88a712","ios":"levelo://app?vid=3c0324c5-c393-43fa-8dcd-aa986d88a712"},"vehicle_type_id":"4","last_reported":1718129474,"current_range_meters":11200,"station_id":"","pricing_plan_id":"cebpf4jnsgd1na2vs0mg"},{"bike_id":"3e31ff81-1037-4c6f-9d69-14d246fb9fa3","system_id":"levelo_inurba_marseille","lat":43.309371,"lon":5.401449,"is_reserved":false,"is_disabled":false,"rental_uris":{"android":"levelo://app?vid=3e31ff81-1037-4c6f-9d69-14d246fb9fa3","ios":"levelo://app?vid=3e31ff81-1037-4c6f-9d69-14d246fb9fa3"},"vehicle_type_id":"4","last_reported":1718129474,"current_range_meters":6800,"station_id":"ce4bgvp2rcd13ifvqct0","pricing_plan_id":"cebpf4jnsgd1na2vs0mg"},{"bike_id":"1969922b-2a4e-451f-aba8-7e053bc0c68e","system_id":"levelo_inurba_marseille","lat":43.3092,"lon":5.40141,"is_reserved":false,"is_disabled":false,"rental_uris":{"android":"levelo://app?vid=1969922b-2a4e-451f-aba8-7e053bc0c68e","ios":"levelo://app?vid=1969922b-2a4e-451f-aba8-7e053bc0c68e"},"vehicle_type_id":"4","last_reported":1718129474,"current_range_meters":0,"station_id":"ce4bgvp2rcd13ifvqct0","pricing_plan_id":"cebpf4jnsgd1na2vs0mg"},{"bike_id":"ad66a201-6efe-4d73-836a-976caef4a30e","system_id":"levelo_inurba_marseille","lat":43.337539,"lon":5.374568,"is_reserved":false,"is_disabled":false,"rental_uris":{"android":"levelo://app?vid=ad66a201-6efe-4d73-836a-976caef4a30e","ios":"levelo://app?vid=ad66a201-6efe-4d73-836a-976caef4a30e"},"vehicle_type_id":"4","last_reported":1718129474,"current_range_meters":26800,"station_id":"","pricing_plan_id":"cebpf4jnsgd1na2vs0mg"},{"bike_id":"86a27a08-ce72-4f4b-aca9-9dcfbf309216","system_id":"levelo_inurba_marseille","lat":43.337562,"lon":5.374545,"is_reserved":false,"is_disabled":false,"rental_uris":{"android":"levelo://app?vid=86a27a08-ce72-4f4b-aca9-9dcfbf309216","ios":"levelo://app?vid=86a27a08-ce72-4f4b-aca9-9dcfbf309216"},"vehicle_type_id":"4","last_reported":1718129474,"current_range_meters":29600,"station_id":"","pricing_plan_id":"cebpf4jnsgd1na2vs0mg"},{"bike_id":"fc0a311a-b514-450c-97c4-df72f4df371d","system_id":"levelo_inurba_marseille","lat":43.312804,"lon":5.401894,"is_reserved":false,"is_disabled":false,"rental_uris":{"android":"levelo://app?vid=fc0a311a-b514-450c-97c4-df72f4df371d","ios":"levelo://app?vid=fc0a311a-b514-450c-97c4-df72f4df371d"},"vehicle_type_id":"4","last_reported":1718129474,"current_range_meters":0,"station_id":"ce4bh092rcd13ifvqd30","pricing_plan_id":"cebpf4jnsgd1na2vs0mg"},{"bike_id":"1094e527-7201-4b81-8bce-90f1e48c2d6e","system_id":"levelo_inurba_marseille","lat":43.30642,"lon":5.401031,"is_reserved":false,"is_disabled":false,"rental_uris":{"android":"levelo://app?vid=1094e527-7201-4b81-8bce-90f1e48c2d6e","ios":"levelo://app?vid=1094e527-7201-4b81-8bce-90f1e48c2d6e"},"vehicle_type_id":"4","last_reported":1718129474,"current_range_meters":0,"station_id":"ce4bh112rcd13ifvqda0","pricing_plan_id":"cebpf4jnsgd1na2vs0mg"},{"bike_id":"e46ad901-fbad-433f-90cf-403df547a04b","system_id":"levelo_inurba_marseille","lat":43.306412,"lon":5.401035,"is_reserved":false,"is_disabled":false,"rental_uris":{"android":"levelo://app?vid=e46ad901-fbad-433f-90cf-403df547a04b","ios":"levelo://app?vid=e46ad901-fbad-433f-90cf-403df547a04b"},"vehicle_type_id":"4","last_reported":1718129474,"current_range_meters":26000,"station_id":"ce4bh112rcd13ifvqda0","pricing_plan_id":"cebpf4jnsgd1na2vs0mg"},{"bike_id":"b049623c-ede2-4cd5-8f84-74c1f5b64932","system_id":"levelo_inurba_marseille","lat":43.301453,"lon":5.39852,"is_reserved":false,"is_disabled":false,"rental_uris":{"android":"levelo://app?vid=b049623c-ede2-4cd5-8f84-74c1f5b64932","ios":"levelo://app?vid=b049623c-ede2-4cd5-8f84-74c1f5b64932"},"vehicle_type_id":"4","last_reported":1718129474,"current_range_meters":0,"station_id":"ce4bh0h2rcd13ifvqd40","pricing_plan_id":"cebpf4jnsgd1na2vs0mg"},{"bike_id":"76595bc1-af03-4be1-b600-73b3b485b9da","system_id":"levelo_inurba_marseille","lat":43.30141,"lon":5.39857,"is_reserved":false,"is_disabled":false,"rental_uris":{"android":"levelo://app?vid=76595bc1-af03-4be1-b600-73b3b485b9da","ios":"levelo://app?vid=76595bc1-af03-4be1-b600-73b3b485b9da"},"vehicle_type_id":"4","last_reported":1718129474,"current_range_meters":0,"station_id":"ce4bh0h2rcd13ifvqd40","pricing_plan_id":"cebpf4jnsgd1na2vs0mg"},{"bike_id":"e079a7df-c6b8-480a-a5c7-bbae9e6494d7","system_id":"levelo_inurba_marseille","lat":43.309076,"lon":5.401861,"is_reserved":false,"is_disabled":false,"rental_uris":{"android":"levelo://app?vid=e079a7df-c6b8-480a-a5c7-bbae9e6494d7","ios":"levelo://app?vid=e079a7df-c6b8-480a-a5c7-bbae9e6494d7"},"vehicle_type_id":"4","last_reported":1718129474,"current_range_meters":0,"station_id":"ce4bgvp2rcd13ifvqct0","pricing_plan_id":"cebpf4jnsgd1na2vs0mg"},{"bike_id":"88b16dfe-5134-4427-b23b-c29788283ed4","system_id":"levelo_inurba_marseille","lat":43.28727,"lon":5.36078,"is_reserved":false,"is_disabled":false,"rental_uris":{"android":"levelo://app?vid=88b16dfe-5134-4427-b23b-c29788283ed4","ios":"levelo://app?vid=88b16dfe-5134-4427-b23b-c29788283ed4"},"vehicle_type_id":"4","last_reported":1718129474,"current_range_meters":4800,"station_id":"cki0cbj6b192h4jlfktg","pricing_plan_id":"cebpf4jnsgd1na2vs0mg"},{"bike_id":"1773ca3a-1a4f-43b2-99ee-ed6c487c75c3","system_id":"levelo_inurba_marseille","lat":43.298681,"lon":5.397225,"is_reserved":false,"is_disabled":false,"rental_uris":{"android":"levelo://app?vid=1773ca3a-1a4f-43b2-99ee-ed6c487c75c3","ios":"levelo://app?vid=1773ca3a-1a4f-43b2-99ee-ed6c487c75c3"},"vehicle_type_id":"4","last_reported":1718129474,"current_range_meters":12000,"station_id":"ce4bh0h2rcd13ifvqd50","pricing_plan_id":"cebpf4jnsgd1na2vs0mg"},{"bike_id":"b479271d-1f50-4f8a-82e1-a043d9833c75","system_id":"levelo_inurba_marseille","lat":43.298681,"lon":5.397225,"is_reserved":false,"is_disabled":false,"rental_uris":{"android":"levelo://app?vid=b479271d-1f50-4f8a-82e1-a043d9833c75","ios":"levelo://app?vid=b479271d-1f50-4f8a-82e1-a043d9833c75"},"vehicle_type_id":"4","last_reported":1718129474,"current_range_meters":9200,"station_id":"ce4bh0h2rcd13ifvqd50","pricing_plan_id":"cebpf4jnsgd1na2vs0mg"},{"bike_id":"4cf697af-a65e-4337-bd0a-96d30dfb8041","system_id":"levelo_inurba_marseille","lat":43.298948,"lon":5.397402,"is_reserved":false,"is_disabled":false,"rental_uris":{"android":"levelo://app?vid=4cf697af-a65e-4337-bd0a-96d30dfb8041","ios":"levelo://app?vid=4cf697af-a65e-4337-bd0a-96d30dfb8041"},"vehicle_type_id":"4","last_reported":1718129474,"current_range_meters":6400,"station_id":"ce4bh0h2rcd13ifvqd50","pricing_plan_id":"cebpf4jnsgd1na2vs0mg"},{"bike_id":"2ad2ef82-d7c3-4b05-8e10-b2aadc03eda7","system_id":"levelo_inurba_marseille","lat":43.317557,"lon":5.390173,"is_reserved":false,"is_disabled":false,"rental_uris":{"android":"levelo://app?vid=2ad2ef82-d7c3-4b05-8e10-b2aadc03eda7","ios":"levelo://app?vid=2ad2ef82-d7c3-4b05-8e10-b2aadc03eda7"},"vehicle_type_id":"4","last_reported":1718129474,"current_range_meters":2400,"station_id":"ce4bhqp2rcd13ifvqhng","pricing_plan_id":"cebpf4jnsgd1na2vs0mg"},{"bike_id":"93c43c31-d1ca-4c87-8416-bdc736bf43b3","system_id":"levelo_inurba_marseille","lat":43.298681,"lon":5.397225,"is_reserved":false,"is_disabled":false,"rental_uris":{"android":"levelo://app?vid=93c43c31-d1ca-4c87-8416-bdc736bf43b3","ios":"levelo://app?vid=93c43c31-d1ca-4c87-8416-bdc736bf43b3"},"vehicle_type_id":"4","last_reported":1718129474,"current_range_meters":6400,"station_id":"ce4bh0h2rcd13ifvqd50","pricing_plan_id":"cebpf4jnsgd1na2vs0mg"},{"bike_id":"1701e149-0293-4152-b3ae-9d8ac5fe92ab","system_id":"levelo_inurba_marseille","lat":43.298681,"lon":5.397225,"is_reserved":false,"is_disabled":false,"rental_uris":{"android":"levelo://app?vid=1701e149-0293-4152-b3ae-9d8ac5fe92ab","ios":"levelo://app?vid=1701e149-0293-4152-b3ae-9d8ac5fe92ab"},"vehicle_type_id":"4","last_reported":1718129474,"current_range_meters":14000,"station_id":"ce4bh0h2rcd13ifvqd50","pricing_plan_id":"cebpf4jnsgd1na2vs0mg"},{"bike_id":"70b71671-969b-4f59-a795-333b378ec2c9","system_id":"levelo_inurba_marseille","lat":43.298681,"lon":5.397225,"is_reserved":false,"is_disabled":false,"rental_uris":{"android":"levelo://app?vid=70b71671-969b-4f59-a795-333b378ec2c9","ios":"levelo://app?vid=70b71671-969b-4f59-a795-333b378ec2c9"},"vehicle_type_id":"4","last_reported":1718129474,"current_range_meters":13600,"station_id":"ce4bh0h2rcd13ifvqd50","pricing_plan_id":"cebpf4jnsgd1na2vs0mg"},{"bike_id":"ae0782b1-c875-4626-9609-8b0df4b50059","system_id":"levelo_inurba_marseille","lat":43.286629,"lon":5.3634,"is_reserved":false,"is_disabled":false,"rental_uris":{"android":"levelo://app?vid=ae0782b1-c875-4626-9609-8b0df4b50059","ios":"levelo://app?vid=ae0782b1-c875-4626-9609-8b0df4b50059"},"vehicle_type_id":"4","last_reported":1718129474,"current_range_meters":10000,"station_id":"ce4bhah2rcd13ifvqej0","pricing_plan_id":"cebpf4jnsgd1na2vs0mg"},{"bike_id":"127c97ee-cf27-409d-804f-211aabc8a35e","system_id":"levelo_inurba_marseille","lat":43.286961,"lon":5.373785,"is_reserved":false,"is_disabled":false,"rental_uris":{"android":"levelo://app?vid=127c97ee-cf27-409d-804f-211aabc8a35e","ios":"levelo://app?vid=127c97ee-cf27-409d-804f-211aabc8a35e"},"vehicle_type_id":"4","last_reported":1718129474,"current_range_meters":2800,"station_id":"ce4bh3p2rcd13ifvqdq0","pricing_plan_id":"cebpf4jnsgd1na2vs0mg"},{"bike_id":"7c621a79-8590-4f18-85cc-1355eb8c0af6","system_id":"levelo_inurba_marseille","lat":43.286591,"lon":5.363346,"is_reserved":false,"is_disabled":false,"rental_uris":{"android":"levelo://app?vid=7c621a79-8590-4f18-85cc-1355eb8c0af6","ios":"levelo://app?vid=7c621a79-8590-4f18-85cc-1355eb8c0af6"},"vehicle_type_id":"4","last_reported":1718129474,"current_range_meters":21600,"station_id":"ce4bhah2rcd13ifvqej0","pricing_plan_id":"cebpf4jnsgd1na2vs0mg"},{"bike_id":"318989b4-1548-4662-80dc-74a50d62c317","system_id":"levelo_inurba_marseille","lat":43.287048,"lon":5.374594,"is_reserved":false,"is_disabled":false,"rental_uris":{"android":"levelo://app?vid=318989b4-1548-4662-80dc-74a50d62c317","ios":"levelo://app?vid=318989b4-1548-4662-80dc-74a50d62c317"},"vehicle_type_id":"4","last_reported":1718129474,"current_range_meters":0,"station_id":"ce4bh3p2rcd13ifvqdq0","pricing_plan_id":"cebpf4jnsgd1na2vs0mg"},{"bike_id":"e09ec0e2-5e5a-4e33-a9fd-225160f2c35a","system_id":"levelo_inurba_marseille","lat":43.295196,"lon":5.39397,"is_reserved":false,"is_disabled":false,"rental_uris":{"android":"levelo://app?vid=e09ec0e2-5e5a-4e33-a9fd-225160f2c35a","ios":"levelo://app?vid=e09ec0e2-5e5a-4e33-a9fd-225160f2c35a"},"vehicle_type_id":"4","last_reported":1718129474,"current_range_meters":2000,"station_id":"ce4bh292rcd13ifvqdf0","pricing_plan_id":"cebpf4jnsgd1na2vs0mg"},