{"last_updated":1708409376,"ttl":30,"version":"2.2","data":{"bikes":[{"bike_id":"8ea4c9e5-7768-45b2-9603-3f9663d1b7e9","system_id":"levelo_inurba_marseille","lat":43.313391,"lon":5.36706,"is_reserved":false,"is_disabled":false,"rental_uris":{"android":"levelo://app?vid=8ea4c9e5-7768-45b2-9603-3f9663d1b7e9","ios":"levelo://app?vid=8ea4c9e5-7768-45b2-9603-3f9663d1b7e9"},"vehicle_type_id":"4","last_reported":1708409376,"current_range_meters":22000,"station_id":"ce4bgr92rcd13ifvqc6g","pricing_plan_id":"cebpf4jnsgd1na2vs0mg"},{"bike_id":"0e5a0c55-dfd0-44b7-af35-f9897ddadb18","system_id":"levelo_inurba_marseille","lat":43.312239,"lon":5.368562,"is_reserved":false,"is_disabled":false,"rental_uris":{"android":"levelo://app?vid=0e5a0c55-dfd0-44b7-af35-f9897ddadb18","ios":"levelo://app?vid=0e5a0c55-dfd0-44b7-af35-f9897ddadb18"},"vehicle_type_id":"4","last_reported":1708409376,"current_range_meters":20400,"station_id":"ce4bgl92rcd13ifvqbq0","pricing_plan_id":"cebpf4jnsgd1na2vs0mg"},{"bike_id":"dd579f94-1c7d-4a43-987b-d3afe4216fe0","system_id":"levelo_inurba_marseille","lat":43.312293,"lon":5.368677,"is_reserved":false,"is_disabled":false,"rental_uris":{"android":"levelo://app?vid=dd579f94-1c7d-4a43-987b-d3afe4216fe0","ios":"levelo://app?vid=dd579f94-1c7d-4a43-987b-d3afe4216fe0"},"vehicle_type_id":"4","last_reported":1708409376,"current_range_meters":5600,"station_id":"ce4bgl92rcd13ifvqbq0","pricing_plan_id":"cebpf4jnsgd1na2vs0mg"},{"bike_id":"c2cb1feb-c640-416b-8db8-ccdbaa5a2b4a","system_id":"levelo_inurba_marseille","lat":43.312239,"lon":5.368562,"is_reserved":false,"is_disabled":false,"rental_uris":{"android":"levelo://app?vid=c2cb1feb-c640-416b-8db8-ccdbaa5a2b4a","ios":"levelo://app?vid=c2cb1feb-c640-416b-8db8-ccdbaa5a2b4a"},"vehicle_type_id":"4","last_reported":1708409376,"current_range_meters":31200,"station_id":"ce4bgl92rcd13ifvqbq0","pricing_plan_id":"cebpf4jnsgd1na2vs0mg"},{"bike_id":"5db6ec52-a876-4c9e-9164-e102f37b17f1","system_id":"levelo_inurba_marseille","lat":43.314891,"lon":5.373012,"is_reserved":false,"is_disabled":false,"rental_uris":{"android":"levelo://app?vid=5db6ec52-a876-4c9e-9164-e102f37b17f1","ios":"levelo://app?vid=5db6ec52-a876-4c9e-9164-e102f37b17f1"},"vehicle_type_id":"4","last_reported":1708409376,"current_range_meters":10000,"station_id":"ce4bgt12rcd13ifvqcd0","pricing_plan_id":"cebpf4jnsgd1na2vs0mg"},{"bike_id":"77a6bfce-d5af-4448-be44-6a3fe72b94f5","system_id":"levelo_inurba_marseille","lat":43.31489,"lon":5.37303,"is_reserved":false,"is_disabled":false,"rental_uris":{"android":"levelo://app?vid=77a6bfce-d5af-4448-be44-6a3fe72b94f5","ios":"levelo://app?vid=77a6bfce-d5af-4448-be44-6a3fe72b94f5"},"vehicle_type_id":"4","last_reported":1708409376,"current_range_meters":30400,"station_id":"ce4bgt12rcd13ifvqcd0","pricing_plan_id":"cebpf4jnsgd1na2vs0mg"},{"bike_id":"46e8e3a1-5d99-48a0-9ef5-d969f002eb1b","system_id":"levelo_inurba_marseille","lat":43.314888,"lon":5.373081,"is_reserved":false,"is_disabled":false,"rental_uris":{"android":"levelo://app?vid=46e8e3a1-5d99-48a0-9ef5-d969f002eb1b","ios":"levelo://app?vid=46e8e3a1-5d99-48a0-9ef5-d969f002eb1b"},"vehicle_type_id":"4","last_reported":1708409376,"current_range_meters":25200,"station_id":"ce4bgt12rcd13ifvqcd0","pricing_plan_id":"cebpf4jnsgd1na2vs0mg"},{"bike_id":"bd58d97e-60bf-45a8-98e5-da27769e8020","system_id":"levelo_inurba_marseille","lat":43.314882,"lon":5.373098,"is_reserved":false,"is_disabled":false,"rental_uris":{"android":"levelo://app?vid=bd58d97e-60bf-45a8-98e5-da27769e8020","ios":"levelo://app?vid=bd58d97e-60bf-45a8-98e5-da27769e8020"},"vehicle_type_id":"4","last_reported":1708409376,"current_range_meters":23600,"station_id":"ce4bgt12rcd13ifvqcd0","pricing_plan_id":"cebpf4jnsgd1na2vs0mg"},{"bike_id":"23744271-cb57-42f6-8237-34746cabc976","system_id":"levelo_inurba_marseille","lat":43.305714,"lon":5.365633,"is_reserved":false,"is_disabled":false,"rental_uris":{"android":"levelo://app?vid=23744271-cb57-42f6-8237-34746cabc976","ios":"levelo://app?vid=23744271-cb57-42f6-8237-34746cabc976"},"vehicle_type_id":"4","last_reported":1708409376,"current_range_meters":21200,"station_id":"ce4bgs12rcd13ifvqcag","pricing_plan_id":"cebpf4jnsgd1na2vs0mg"},{"bike_id":"69303493-bcfc-4ac6-ac53-fac4968ccfa5","system_id":"levelo_inurba_marseille","lat":43.307945,"lon":5.376487,"is_reserved":false,"is_disabled":false,"rental_uris":{"android":"levelo://app?vid=69303493-bcfc-4ac6-ac53-fac4968ccfa5","ios":"levelo://app?vid=69303493-bcfc-4ac6-ac53-fac4968ccfa5"},"vehicle_type_id":"4","last_reported":1708409376,"current_range_meters":24800,"station_id":"ce4bgv92rcd13ifvqcq0","pricing_plan_id":"cebpf4jnsgd1na2vs0mg"},{"bike_id":"e93332c8-71cb-4a70-a2cb-8dae89f30527","system_id":"levelo_inurba_marseille","lat":43.317075,"lon":5.377367,"is_reserved":false,"is_disabled":false,"rental_uris":{"android":"levelo://app?vid=e93332c8-71cb-4a70-a2cb-8dae89f30527","ios":"levelo://app?vid=e93332c8-71cb-4a70-a2cb-8dae89f30527"},"vehicle_type_id":"4","last_reported":1708409376,"current_range_meters":20800,"station_id":"ce4bgth2rcd13ifvqch0","pricing_plan_id":"cebpf4jnsgd1na2vs0mg"},{"bike_id":"96c16fd5-43bc-4bfd-859b-2d52df90c3e3","system_id":"levelo_inurba_marseille","lat":43.317075,"lon":5.377367,"is_reserved":false,"is_disabled":false,"rental_uris":{"android":"levelo://app?vid=96c16fd5-43bc-4bfd-859b-2d52df90c3e3","ios":"levelo://app?vid=96c16fd5-43bc-4bfd-859b-2d52df90c3e3"},"vehicle_type_id":"4","last_reported":1708409376,"current_range_meters":26400,"station_id":"ce4bgth2rcd13ifvqch0","pricing_plan_id":"cebpf4jnsgd1na2vs0mg"},{"bike_id":"d1fc4226-ccbd-444f-9701-c1be595c0055","system_id":"levelo_inurba_marseille","lat":43.30304,"lon":5.368987,"is_reserved":false,"is_disabled":false,"rental_uris":{"android":"levelo://app?vid=d1fc4226-ccbd-444f-9701-c1be595c0055","ios":"levelo://app?vid=d1fc4226-ccbd-444f-9701-c1be595c0055"},"vehicle_type_id":"4","last_reported":1708409376,"current_range_meters":26400,"station_id":"ce4bgqh2rcd13ifvqc5g","pricing_plan_id":"cebpf4jnsgd1na2vs0mg"},{"bike_id":"14623ca0-3e69-483e-9a41-7be7b88db399","system_id":"levelo_inurba_marseille","lat":43.315293,"lon":5.380349,"is_reserved":false,"is_disabled":false,"rental_uris":{"android":"levelo://app?vid=14623ca0-3e69-483e-9a41-7be7b88db399","ios":"levelo://app?vid=14623ca0-3e69-483e-9a41-7be7b88db399"},"vehicle_type_id":"4","last_reported":1708409376,"current_range_meters":25600,"station_id":"ce4bhsp2rcd13ifvqi50","pricing_plan_id":"cebpf4jnsgd1na2vs0mg"},{"bike_id":"ba7abea4-7e24-46bb-9b73-93d8ca3e3719","system_id":"levelo_inurba_marseille","lat":43.315293,"lon":5.380349,"is_reserved":false,"is_disabled":false,"rental_uris":{"android":"levelo://app?vid=ba7abea4-7e24-46bb-9b73-93d8ca3e3719","ios":"levelo://app?vid=ba7abea4-7e24-46bb-9b73-93d8ca3e3719"},"vehicle_type_id":"4","last_reported":1708409376,"current_range_meters":30400,"station_id":"ce4bhsp2rcd13ifvqi50","pricing_plan_id":"cebpf4jnsgd1na2vs0mg"},{"bike_id":"50945769-35d2-4f21-9e60-d8ce3f8699cd","system_id":"levelo_inurba_marseille","lat":43.308012,"lon":5.381511,"is_reserved":false,"is_disabled":false,"rental_uris":{"android":"levelo://app?vid=50945769-35d2-4f21-9e60-d8ce3f8699cd","ios":"levelo://app?vid=50945769-35d2-4f21-9e60-d8ce3f8699cd"},"vehicle_type_id":"4","last_reported":1708409376,"current_range_meters":14400,"station_id":"ce4bgt12rcd13ifvqce0","pricing_plan_id":"cebpf4jnsgd1na2vs0mg"},{"bike_id":"e14941d5-751d-424c-bbe3-452b8901729d","system_id":"levelo_inurba_marseille","lat":43.304606,"lon":5.379026,"is_reserved":false,"is_disabled":false,"rental_uris":{"android":"levelo://app?vid=e14941d5-751d-424c-bbe3-452b8901729d","ios":"levelo://app?vid=e14941d5-751d-424c-bbe3-452b8901729d"},"vehicle_type_id":"4","last_reported":1708409376,"current_range_meters":8800,"station_id":"ce4bgup2rcd13ifvqcn0","pricing_plan_id":"cebpf4jnsgd1na2vs0mg"},{"bike_id":"8d550040-84c1-4e8e-9fbd-8bffe39e349a","system_id":"levelo_inurba_marseille","lat":43.304606,"lon":5.379026,"is_reserved":false,"is_disabled":false,"rental_uris":{"android":"levelo://app?vid=8d550040-84c1-4e8e-9fbd-8bffe39e349a","ios":"levelo://app?vid=8d550040-84c1-4e8e-9fbd-8bffe39e349a"},"vehicle_type_id":"4","last_reported":1708409376,"current_range_meters":22000,"station_id":"ce4bgup2rcd13ifvqcn0","pricing_plan_id":"cebpf4jnsgd1na2vs0mg"},{"bike_id":"e0c08968-fd9b-4916-95e4-ce61dfea9cce","system_id":"levelo_inurba_marseille","lat":43.304606,"lon":5.379026,"is_reserved":false,"is_disabled":false,"rental_uris":{"android":"levelo://app?vid=e0c08968-fd9b-4916-95e4-ce61dfea9cce","ios":"levelo://app?vid=e0c08968-fd9b-4916-95e4-ce61dfea9cce"},"vehicle_type_id":"4","last_reported":1708409376,"current_range_meters":7200,"station_id":"ce4bgup2rcd13ifvqcn0","pricing_plan_id":"cebpf4jnsgd1na2vs0mg"},{"bike_id":"a53c7028-4a14-4ed0-85d0-23c365829254","system_id":"levelo_inurba_marseille","lat":43.304606,"lon":5.379026,"is_reserved":false,"is_disabled":false,"rental_uris":{"android":"levelo://app?vid=a53c7028-4a14-4ed0-85d0-23c365829254","ios":"levelo://app?vid=a53c7028-4a14-4ed0-85d0-23c365829254"},"vehicle_type_id":"4","last_reported":1708409376,"current_range_meters":6400,"station_id":"ce4bgup2rcd13ifvqcn0","pricing_plan_id":"cebpf4jnsgd1na2vs0mg"},{"bike_id":"ecadd3d0-ce2a-4a80-b9b4-f4a7c0142925","system_id":"levelo_inurba_marseille","lat":43.304606,"lon":5.379026,"is_reserved":false,"is_disabled":false,"rental_uris":{"android":"levelo://app?vid=ecadd3d0-ce2a-4a80-b9b4-f4a7c0142925","ios":"levelo://app?vid=ecadd3d0-ce2a-4a80-b9b4-f4a7c0142925"},"vehicle_type_id":"4","last_reported":1708409376,"current_range_meters":30000,"station_id":"ce4bgup2rcd13ifvqcn0","pricing_plan_id":"cebpf4jnsgd1na2vs0mg"},{"bike_id":"7f55c5f7-32ff-4ffe-8195-729ce0df63bd","system_id":"levelo_inurba_marseille","lat":43.304606,"lon":5.379026,"is_reserved":false,"is_disabled":false,"rental_uris":{"android":"levelo://app?vid=7f55c5f7-32ff-4ffe-8195-729ce0df63bd","ios":"levelo://app?vid=7f55c5f7-32ff-4ffe-8195-729ce0df63bd"},"vehicle_type_id":"4","last_reported":1708409376,"current_range_meters":1200,"station_id":"ce4bgup2rcd13ifvqcn0","pricing_plan_id":"cebpf4jnsgd1na2vs0mg"},{"bike_id":"53b0de61-d93a-4846-86df-a52f5484cc34","system_id":"levelo_inurba_marseille","lat":43.304606,"lon":5.379026,"is_reserved":false,"is_disabled":false,"rental_uris":{"android":"levelo://app?vid=53b0de61-d93a-4846-86df-a52f5484cc34","ios":"levelo://app?vid=53b0de61-d93a-4846-86df-a52f5484cc34"},"vehicle_type_id":"4","last_reported":1708409376,"current_range_meters":7600,"station_id":"ce4bgup2rcd13ifvqcn0","pricing_plan_id":"cebpf4jnsgd1na2vs0mg"},{"bike_id":"2d513aad-9bcd-481d-8cd9-53b7db5ed5de","system_id":"levelo_inurba_marseille","lat":43.304606,"lon":5.379026,"is_reserved":false,"is_disabled":false,"rental_uris":{"android":"levelo://app?vid=2d513aad-9bcd-481d-8cd9-53b7db5ed5de","ios":"levelo://app?vid=2d513aad-9bcd-481d-8cd9-53b7db5ed5de"},"vehicle_type_id":"4","last_reported":1708409376,"current_range_meters":11200,"station_id":"ce4bgup2rcd13ifvqcn0","pricing_plan_id":"cebpf4jnsgd1na2vs0mg"},{"bike_id":"ed0a8bdb-4219-4717-8471-576d0e8c3f7b","system_id":"levelo_inurba_marseille","lat":43.304606,"lon":5.379026,"is_reserved":false,"is_disabled":false,"rental_uris":{"android":"levelo://app?vid=ed0a8bdb-4219-4717-8471-576d0e8c3f7b","ios":"levelo://app?vid=ed0a8bdb-4219-4717-8471-576d0e8c3f7b"},"vehicle_type_id":"4","last_reported":1708409376,"current_range_meters":23600,"station_id":"ce4bgup2rcd13ifvqcn0","pricing_plan_id":"cebpf4jnsgd1na2vs0mg"},{"bike_id":"dd29dc10-971e-4c95-bc12-a7781abf89fa","system_id":"levelo_inurba_marseille","lat":43.304606,"lon":5.379026,"is_reserved":false,"is_disabled":false,"rental_uris":{"android":"levelo://app?vid=dd29dc10-971e-4c95-bc12-a7781abf89fa","ios":"levelo://app?vid=dd29dc10-971e-4c95-bc12-a7781abf89fa"},"vehicle_type_id":"4","last_reported":1708409376,"current_range_meters":23600,"station_id":"ce4bgup2rcd13ifvqcn0","pricing_plan_id":"cebpf4jnsgd1na2vs0mg"},{"bike_id":"e2cbe493-7b0e-4dfd-b0b6-b478841d1323","system_id":"levelo_inurba_marseille","lat":43.304606,"lon":5.379026,"is_reserved":false,"is_disabled":false,"rental_uris":{"android":"levelo://app?vid=e2cbe493-7b0e-4dfd-b0b6-b478841d1323","ios":"levelo://app?vid=e2cbe493-7b0e-4dfd-b0b6-b478841d1323"},"vehicle_type_id":"4","last_reported":1708409376,"current_range_meters":0,"station_id":"ce4bgup2rcd13ifvqcn0","pricing_plan_id":"cebpf4jnsgd1na2vs0mg"},{"bike_id":"0b738e99-b6d1-42f2-ab8f-ecbfcc52a742","system_id":"levelo_inurba_marseille","lat":43.304606,"lon":5.379026,"is_reserved":false,"is_disabled":false,"rental_uris":{"android":"levelo://app?vid=0b738e99-b6d1-42f2-ab8f-ecbfcc52a742","ios":"levelo://app?vid=0b738e99-b6d1-42f2-ab8f-ecbfcc52a742"},"vehicle_type_id":"4","last_reported":1708409376,"current_range_meters":12800,"station_id":"ce4bgup2rcd13ifvqcn0","pricing_plan_id":"cebpf4jnsgd1na2vs0mg"},{"bike_id":"cda15912-2df2-49a6-bd3c-e6daabbad799","system_id":"levelo_inurba_marseille","lat":43.304606,"lon":5.379026,"is_reserved":false,"is_disabled":false,"rental_uris":{"android":"levelo://app?vid=cda15912-2df2-49a6-bd3c-e6daabbad799","ios":"levelo://app?vid=cda15912-2df2-49a6-bd3c-e6daabbad799"},"vehicle_type_id":"4","last_reported":1708409376,"current_range_meters":31200,"station_id":"ce4bgup2rcd13ifvqcn0","pricing_plan_id":"cebpf4jnsgd1na2vs0mg"},{"bike_id":"1d70671e-df04-4497-be27-3cb4b7cea532","system_id":"levelo_inurba_marseille","lat":43.304606,"lon":5.379026,"is_reserved":false,"is_disabled":false,"rental_uris":{"android":"levelo://app?vid=1d70671e-df04-4497-be27-3cb4b7cea532","ios":"levelo://app?vid=1d70671e-df04-4497-be27-3cb4b7cea532"},"vehicle_type_id":"4","last_reported":1708409376,"current_range_meters":5200,"station_id":"ce4bgup2rcd13ifvqcn0","pricing_plan_id":"cebpf4jnsgd1na2vs0mg"},{"bike_id":"93ed8d4b-7740-472e-8637-33f5f9095b20","system_id":"levelo_inurba_marseille","lat":43.304606,"lon":5.379026,"is_reserved":false,"is_disabled":false,"rental_uris":{"android":"levelo://app?vid=93ed8d4b-7740-472e-8637-33f5f9095b20","ios":"levelo://app?vid=93ed8d4b-7740-472e-8637-33f5f9095b20"},"vehicle_type_id":"4","last_reported":1708409376,"current_range_meters":28400,"station_id":"ce4bgup2rcd13ifvqcn0","pricing_plan_id":"cebpf4jnsgd1na2vs0mg"},{"bike_id":"4291cd50-6a1a-473b-95eb-36d0775b4b94","system_id":"levelo_inurba_marseille","lat":43.304606,"lon":5.379026,"is_reserved":false,"is_disabled":false,"rental_uris":{"android":"levelo://app?vid=4291cd50-6a1a-473b-95eb-36d0775b4b94","ios":"levelo://app?vid=4291cd50-6a1a-473b-95eb-36d0775b4b94"},"vehicle_type_id":"4","last_reported":1708409376,"current_range_meters":24400,"station_id":"ce4bgup2rcd13ifvqcn0","pricing_plan_id":"cebpf4jnsgd1na2vs0mg"},{"bike_id":"f573daad-fafa-4eeb-ae02-36c51aebadd7","system_id":"levelo_inurba_marseille","lat":43.304606,"lon":5.379026,"is_reserved":false,"is_disabled":false,"rental_uris":{"android":"levelo://app?vid=f573daad-fafa-4eeb-ae02-36c51aebadd7","ios":"levelo://app?vid=f573daad-fafa-4eeb-ae02-36c51aebadd7"},"vehicle_type_id":"4","last_reported":1708409376,"current_range_meters":8000,"station_id":"ce4bgup2rcd13ifvqcn0","pricing_plan_id":"cebpf4jnsgd1na2vs0mg"},{"bike_id":"f6e1c699-9b57-41aa-bd02-e42b5b130501","system_id":"levelo_inurba_marseille","lat":43.304606,"lon":5.379026,"is_reserved":false,"is_disabled":false,"rental_uris":{"android":"levelo://app?vid=f6e1c699-9b57-41aa-bd02-e42b5b130501","ios":"levelo://app?vid=f6e1c699-9b57-41aa-bd02-e42b5b130501"},"vehicle_type_id":"4","last_reported":1708409376,"current_range_meters":18000,"station_id":"ce4bgup2rcd13ifvqcn0","pricing_plan_id":"cebpf4jnsgd1na2vs0mg"},{"bike_id":"0c934d51-c99c-4bcc-8b3a-59dcb286119f","system_id":"levelo_inurba_marseille","lat":43.304606,"lon":5.379026,"is_reserved":false,"is_disabled":false,"rental_uris":{"android":"levelo://app?vid=0c934d51-c99c-4bcc-8b3a-59dcb286119f","ios":"levelo://app?vid=0c934d51-c99c-4bcc-8b3a-59dcb286119f"},"vehicle_type_id":"4","last_reported":1708409376,"current_range_meters":25200,"station_id":"ce4bgup2rcd13ifvqcn0","pricing_plan_id":"cebpf4jnsgd1na2vs0mg"},{"bike_id":"c11ea8ab-d5c2-4bdb-a73e-083710114588","system_id":"levelo_inurba_marseille","lat":43.304606,"lon":5.379026,"is_reserved":false,"is_disabled":false,"rental_uris":{"android":"levelo://app?vid=c11ea8ab-d5c2-4bdb-a73e-083710114588","ios":"levelo://app?vid=c11ea8ab-d5c2-4bdb-a73e-083710114588"},"vehicle_type_id":"4","last_reported":1708409376,"current_range_meters":13200,"station_id":"ce4bgup2rcd13ifvqcn0","pricing_plan_id":"cebpf4jnsgd1na2vs0mg"},{"bike_id":"2d27238c-b82f-4606-962d-742721113225","system_id":"levelo_inurba_marseille","lat":43.304606,"lon":5.379026,"is_reserved":false,"is_disabled":false,"rental_uris":{"android":"levelo://app?vid=2d27238c-b82f-4606-962d-742721113225","ios":"levelo://app?vid=2d27238c-b82f-4606-962d-742721113225"},"vehicle_type_id":"4","last_reported":1708409376,"current_range_meters":28800,"station_id":"ce4bgup2rcd13ifvqcn0","pricing_plan_id":"cebpf4jnsgd1na2vs0mg"},{"bike_id":"9fc2bee8-9a71-4d1a-b13c-b2f6ee571704","system_id":"levelo_inurba_marseille","lat":43.304606,"lon":5.379026,"is_reserved":false,"is_disabled":false,"rental_uris":{"android":"levelo://app?vid=9fc2bee8-9a71-4d1a-b13c-b2f6ee571704","ios":"levelo://app?vid=9fc2bee8-9a71-4d1a-b13c-b2f6ee571704"},"vehicle_type_id":"4","last_reported":1708409376,"current_range_meters":22400,"station_id":"ce4bgup2rcd13ifvqcn0","pricing_plan_id":"cebpf4jnsgd1na2vs0mg"},{"bike_id":"a3ec08d2-0df0-47ef-8440-b1b6ef54eb4e","system_id":"levelo_inurba_marseille","lat":43.304606,"lon":5.379026,"is_reserved":false,"is_disabled":false,"rental_uris":{"android":"levelo://app?vid=a3ec08d2-0df0-47ef-8440-b1b6ef54eb4e","ios":"levelo://app?vid=a3ec08d2-0df0-47ef-8440-b1b6ef54eb4e"},"vehicle_type_id":"4","last_reported":1708409376,"current_range_meters":20400,"station_id":"ce4bgup2rcd13ifvqcn0","pricing_plan_id":"cebpf4jnsgd1na2vs0mg"},{"bike_id":"3f5a95a1-d15b-49dd-b6f4-3a88962268c4","system_id":"levelo_inurba_marseille","lat":43.324771,"lon":5.36557,"is_reserved":false,"is_disabled":false,"rental_uris":{"android":"levelo://app?vid=3f5a95a1-d15b-49dd-b6f4-3a88962268c4","ios":"levelo://app?vid=3f5a95a1-d15b-49dd-b6f4-3a88962268c4"},"vehicle_type_id":"4","last_reported":1708409376,"current_range_meters":31200,"station_id":"ce4bhs12rcd13ifvqhvg","pricing_plan_id":"cebpf4jnsgd1na2vs0mg"},{"bike_id":"55727068-9aae-477e-a080-f4690ca5a475","system_id":"levelo_inurba_marseille","lat":43.304606,"lon":5.379026,"is_reserved":false,"is_disabled":false,"rental_uris":{"android":"levelo://app?vid=55727068-9aae-477e-a080-f4690ca5a475","ios":"levelo://app?vid=55727068-9aae-477e-a080-f4690ca5a475"},"vehicle_type_id":"4","last_reported":1708409376,"current_range_meters":9600,"station_id":"ce4bgup2rcd13ifvqcn0","pricing_plan_id":"cebpf4jnsgd1na2vs0mg"},{"bike_id":"13ed5772-d318-40c2-a1ab-114038408622","system_id":"levelo_inurba_marseille","lat":43.324771,"lon":5.36557,"is_reserved":false,"is_disabled":false,"rental_uris":{"android":"levelo://app?vid=13ed5772-d318-40c2-a1ab-114038408622","ios":"levelo://app?vid=13ed5772-d318-40c2-a1ab-114038408622"},"vehicle_type_id":"4","last_reported":1708409376,"current_range_meters":29200,"station_id":"ce4bhs12rcd13ifvqhvg","pricing_plan_id":"cebpf4jnsgd1na2vs0mg"},{"bike_id":"9b682245-e239-44a4-b1fe-13d370fb9494","system_id":"levelo_inurba_marseille","lat":43.304606,"lon":5.379026,"is_reserved":false,"is_disabled":false,"rental_uris":{"android":"levelo://app?vid=9b682245-e239-44a4-b1fe-13d370fb9494","ios":"levelo://app?vid=9b682245-e239-44a4-b1fe-13d370fb9494"},"vehicle_type_id":"4","last_reported":1708409376,"current_range_meters":800,"station_id":"ce4bgup2rcd13ifvqcn0","pricing_plan_id":"cebpf4jnsgd1na2vs0mg"},{"bike_id":"caaf26f8-fbed-445b-be7b-3ecf625cc521","system_id":"levelo_inurba_marseille","lat":43.324771,"lon":5.36557,"is_reserved":false,"is_disabled":false,"rental_uris":{"android":"levelo://app?vid=caaf26f8-fbed-445b-be7b-3ecf625cc521","ios":"levelo://app?vid=caaf26f8-fbed-445b-be7b-3ecf625cc521"},"vehicle_type_id":"4","last_reported":1708409376,"current_range_meters":31200,"station_id":"ce4bhs12rcd13ifvqhvg","pricing_plan_id":"cebpf4jnsgd1na2vs0mg"},{"bike_id":"4cd60cd3-101b-4a05-9703-76840434a255","system_id":"levelo_inurba_marseille","lat":43.324771,"lon":5.36557,"is_reserved":false,"is_disabled":false,"rental_uris":{"android":"levelo://app?vid=4cd60cd3-101b-4a05-9703-76840434a255","ios":"levelo://app?vid=4cd60cd3-101b-4a05-9703-76840434a255"},"vehicle_type_id":"4","last_reported":1708409376,"current_range_meters":26800,"station_id":"ce4bhs12rcd13ifvqhvg","pricing_plan_id":"cebpf4jnsgd1na2vs0mg"},{"bike_id":"787b97fd-3045-418a-93db-948f0d624107","system_id":"levelo_inurba_marseille","lat":43.324771,"lon":5.36557,"is_reserved":false,"is_disabled":false,"rental_uris":{"android":"levelo://app?vid=787b97fd-3045-418a-93db-948f0d624107","ios":"levelo://app?vid=787b97fd-3045-418a-93db-948f0d624107"},"vehicle_type_id":"4","last_reported":1708409376,"current_range_meters":20000,"station_id":"ce4bhs12rcd13ifvqhvg","pricing_plan_id":"cebpf4jnsgd1na2vs0mg"},{"bike_id":"2c6c36c9-7e02-4a23-ad99-472b535677b4","system_id":"levelo_inurba_marseille","lat":43.324771,"lon":5.36557,"is_reserved":false,"is_disabled":false,"rental_uris":{"android":"levelo://app?vid=2c6c36c9-7e02-4a23-ad99-472b535677b4","ios":"levelo://app?vid=2c6c36c9-7e02-4a23-ad99-472b535677b4"},"vehicle_type_id":"4","last_reported":1708409376,"current_range_meters":6000,"station_id":"ce4bhs12rcd13ifvqhvg","pricing_plan_id":"cebpf4jnsgd1na2vs0mg"},{"bike_id":"e5a43df1-97ba-4067-8df7-f3537edbfa4b","system_id":"levelo_inurba_marseille","lat":43.324771,"lon":5.36557,"is_reserved":false,"is_disabled":false,"rental_uris":{"android":"levelo://app?vid=e5a43df1-97ba-4067-8df7-f3537edbfa4b","ios":"levelo://app?vid=e5a43df1-97ba-4067-8df7-f3537edbfa4b"},"vehicle_type_id":"4","last_reported":1708409376,"current_range_meters":31200,"station_id":"ce4bhs12rcd13ifvqhvg","pricing_plan_id":"cebpf4jnsgd1na2vs0mg"},{"bike_id":"2bda714e-36d3-4f9f-930a-9e0020002dc9","system_id":"levelo_inurba_marseille","lat":43.324771,"lon":5.36557,"is_reserved":false,"is_disabled":false,"rental_uris":{"android":"levelo://app?vid=2bda714e-36d3-4f9f-930a-9e0020002dc9","ios":"levelo://app?vid=2bda714e-36d3-4f9f-930a-9e0020002dc9"},"vehicle_type_id":"4","last_reported":1708409376,"current_range_meters":28400,"station_id":"ce4bhs12rcd13ifvqhvg","pricing_plan_id":"cebpf4jnsgd1na2vs0mg"},{"bike_id":"a1411f93-559d-4c55-b53d-718f28f579af","system_id":"levelo_inurba_marseille","lat":43.324771,"lon":5.36557,"is_reserved":false,"is_disabled":false,"rental_uris":{"android":"levelo://app?vid=a1411f93-559d-4c55-b53d-718f28f579af","ios":"levelo://app?vid=a1411f93-559d-4c55-b53d-718f28f579af"},"vehicle_type_id":"4","last_reported":1708409376,"current_range_meters":800,"station_id":"ce4bhs12rcd13ifvqhvg","pricing_plan_id":"cebpf4jnsgd1na2vs0mg"},{"bike_id":"5f3727da-be6d-4245-8b7a-5c108328736b","system_id":"levelo_inurba_marseille","lat":43.324771,"lon":5.36557,"is_reserved":false,"is_disabled":false,"rental_uris":{"android":"levelo://app?vid=5f3727da-be6d-4245-8b7a-5c108328736b","ios":"levelo://app?vid=5f3727da-be6d-4245-8b7a-5c108328736b"},"vehicle_type_id":"4","last_reported":1708409376,"current_range_meters":1600,"station_id":"ce4bhs12rcd13ifvqhvg","pricing_plan_id":"cebpf4jnsgd1na2vs0mg"},{"bike_id":"ab60f61e-1754-4bab-9316-cbca6ab0249d","system_id":"levelo_inurba_marseille","lat":43.324771,"lon":5.36557,"is_reserved":false,"is_disabled":false,"rental_uris":{"android":"levelo://app?vid=ab60f61e-1754-4bab-9316-cbca6ab0249d","ios":"levelo://app?vid=ab60f61e-1754-4bab-9316-cbca6ab0249d"},"vehicle_type_id":"4","last_reported":1708409376,"current_range_meters":13600,"station_id":"ce4bhs12rcd13ifvqhvg","pricing_plan_id":"cebpf4jnsgd1na2vs0mg"},{"bike_id":"4241c88f-4ed7-4692-b672-5d96e43dcb63","system_id":"levelo_inurba_marseille","lat":43.324771,"lon":5.36557,"is_reserved":false,"is_disabled":false,"rental_uris":{"android":"levelo://app?vid=4241c88f-4ed7-4692-b672-5d96e43dcb63","ios":"levelo://app?vid=4241c88f-4ed7-4692-b672-5d96e43dcb63"},"vehicle_type_id":"4","last_reported":1708409376,"current_range_meters":13200,"station_id":"ce4bhs12rcd13ifvqhvg","pricing_plan_id":"cebpf4jnsgd1na2vs0mg"},{"bike_id":"cda8eb5b-2134-4fe4-b0ac-1209e0bbc329","system_id":"levelo_inurba_marseille","lat":43.324771,"lon":5.36557,"is_reserved":false,"is_disabled":false,"rental_uris":{"android":"levelo://app?vid=cda8eb5b-2134-4fe4-b0ac-1209e0bbc329","ios":"levelo://app?vid=cda8eb5b-2134-4fe4-b0ac-1209e0bbc329"},"vehicle_type_id":"4","last_reported":1708409376,"current_range_meters":19200,"station_id":"ce4bhs12rcd13ifvqhvg","pricing_plan_id":"cebpf4jnsgd1na2vs0mg"},{"bike_id":"0c68f0db-4e50-4629-ba3a-39f94737ad6c","system_id":"levelo_inurba_marseille","lat":43.324771,"lon":5.36557,"is_reserved":false,"is_disabled":false,"rental_uris":{"android":"levelo://app?vid=0c68f0db-4e50-4629-ba3a-39f94737ad6c","ios":"levelo://app?vid=0c68f0db-4e50-4629-ba3a-39f94737ad6c"},"vehicle_type_id":"4","last_reported":1708409376,"current_range_meters":28800,"station_id":"ce4bhs12rcd13ifvqhvg","pricing_plan_id":"cebpf4jnsgd1na2vs0mg"},{"bike_id":"617637a0-a74b-48a2-8e03-a476ae74f235","system_id":"levelo_inurba_marseille","lat":43.310804,"lon":5.38359,"is_reserved":false,"is_disabled":false,"rental_uris":{"android":"levelo://app?vid=617637a0-a74b-48a2-8e03-a476ae74f235","ios":"levelo://app?vid=617637a0-a74b-48a2-8e03-a476ae74f235"},"vehicle_type_id":"4","last_reported":1708409376,"current_range_meters":4800,"station_id":"ce4bgv92rcd13ifvqcr0","pricing_plan_id":"cebpf4jnsgd1na2vs0mg"},{"bike_id":"39d46348-619b-4f16-9327-610310bf3260","system_id":"levelo_inurba_marseille","lat":43.310804,"lon":5.38359,"is_reserved":false,"is_disabled":false,"rental_uris":{"android":"levelo://app?vid=39d46348-619b-4f16-9327-610310bf3260","ios":"levelo://app?vid=39d46348-619b-4f16-9327-610310bf3260"},"vehicle_type_id":"4","last_reported":1708409376,"current_range_meters":25600,"station_id":"ce4bgv92rcd13ifvqcr0","pricing_plan_id":"cebpf4jnsgd1na2vs0mg"},{"bike_id":"9b276ab0-4383-4c4d-91a4-e1f29e012199","system_id":"levelo_inurba_marseille","lat":43.310804,"lon":5.38359,"is_reserved":false,"is_disabled":false,"rental_uris":{"android":"levelo://app?vid=9b276ab0-4383-4c4d-91a4-e1f29e012199","ios":"levelo://app?vid=9b276ab0-4383-4c4d-91a4-e1f29e012199"},"vehicle_type_id":"4","last_reported":1708409376,"current_range_meters":7200,"station_id":"ce4bgv92rcd13ifvqcr0","pricing_plan_id":"cebpf4jnsgd1na2vs0mg"},{"bike_id":"e1d7c7bb-a5db-488d-aa18-c67b8ef2cea1","system_id":"levelo_inurba_marseille","lat":43.310804,"lon":5.38359,"is_reserved":false,"is_disabled":false,"rental_uris":{"android":"levelo://app?vid=e1d7c7bb-a5db-488d-aa18-c67b8ef2cea1","ios":"levelo://app?vid=e1d7c7bb-a5db-488d-aa18-c67b8ef2cea1"},"vehicle_type_id":"4","last_reported":1708409376,"current_range_meters":11600,"station_id":"ce4bgv92rcd13ifvqcr0","pricing_plan_id":"cebpf4jnsgd1na2vs0mg"},{"bike_id":"560b6f24-f3e7-4af3-8d76-60ee43aef603","system_id":"levelo_inurba_marseille","lat":43.302784,"lon":5.377158,"is_reserved":false,"is_disabled":false,"rental_uris":{"android":"levelo://app?vid=560b6f24-f3e7-4af3-8d76-60ee43aef603","ios":"levelo://app?vid=560b6f24-f3e7-4af3-8d76-60ee43aef603"},"vehicle_type_id":"4","last_reported":1708409376,"current_range_meters":5600,"station_id":"ce4bguh2rcd13ifvqcj0","pricing_plan_id":"cebpf4jnsgd1na2vs0mg"},{"bike_id":"4da289ef-a299-4e3e-9d0d-6f2ec4a8c034","system_id":"levelo_inurba_marseille","lat":43.30277,"lon":5.37694,"is_reserved":false,"is_disabled":false,"rental_uris":{"android":"levelo://app?vid=4da289ef-a299-4e3e-9d0d-6f2ec4a8c034","ios":"levelo://app?vid=4da289ef-a299-4e3e-9d0d-6f2ec4a8c034"},"vehicle_type_id":"4","last_reported":1708409376,"current_range_meters":15600,"station_id":"ce4bguh2rcd13ifvqcj0","pricing_plan_id":"cebpf4jnsgd1na2vs0mg"},{"bike_id":"6ae0dc6b-fa28-42a7-8dfc-d8f7c5003e94","system_id":"levelo_inurba_marseille","lat":43.30275,"lon":5.37702,"is_reserved":false,"is_disabled":false,"rental_uris":{"android":"levelo://app?vid=6ae0dc6b-fa28-42a7-8dfc-d8f7c5003e94","ios":"levelo://app?vid=6ae0dc6b-fa28-42a7-8dfc-d8f7c5003e94"},"vehicle_type_id":"4","last_reported":1708409376,"current_range_meters":13200,"station_id":"ce4bguh2rcd13ifvqcj0","pricing_plan_id":"cebpf4jnsgd1na2vs0mg"},{"bike_id":"802f2650-b989-4954-82fb-91a79bdd2ca2","system_id":"levelo_inurba_marseille","lat":43.30277,"lon":5.37706,"is_reserved":false,"is_disabled":false,"rental_uris":{"android":"levelo://app?vid=802f2650-b989-4954-82fb-91a79bdd2ca2","ios":"levelo://app?vid=802f2650-b989-4954-82fb-91a79bdd2ca2"},"vehicle_type_id":"4","last_reported":1708409376,"current_range_meters":26400,"station_id":"ce4bguh2rcd13ifvqcj0","pricing_plan_id":"cebpf4jnsgd1na2vs0mg"},{"bike_id":"3704cf4c-8512-4858-bd94-30b96cc8bc29","system_id":"levelo_inurba_marseille","lat":43.301429,"lon":5.37413,"is_reserved":false,"is_disabled":false,"rental_uris":{"android":"levelo://app?vid=3704cf4c-8512-4858-bd94-30b96cc8bc29","ios":"levelo://app?vid=3704cf4c-8512-4858-bd94-30b96cc8bc29"},"vehicle_type_id":"4","last_reported":1708409376,"current_range_meters":26400,"station_id":"ce4bgs92rcd13ifvqcc0","pricing_plan_id":"cebpf4jnsgd1na2vs0mg"},{"bike_id":"1856b01d-3d58-4cce-91ac-782050d97ec9","system_id":"levelo_inurba_marseille","lat":43.301429,"lon":5.37413,"is_reserved":false,"is_disabled":false,"rental_uris":{"android":"levelo://app?vid=1856b01d-3d58-4cce-91ac-782050d97ec9","ios":"levelo://app?vid=1856b01d-3d58-4cce-91ac-782050d97ec9"},"vehicle_type_id":"4","last_reported":1708409376,"current_range_meters":26000,"station_id":"ce4bgs92rcd13ifvqcc0","pricing_plan_id":"cebpf4jnsgd1na2vs0mg"},{"bike_id":"04a496cd-3281-4485-b21d-c28e32846db5","system_id":"levelo_inurba_marseille","lat":43.30143,"lon":5.37413,"is_reserved":false,"is_disabled":false,"rental_uris":{"android":"levelo://app?vid=04a496cd-3281-4485-b21d-c28e32846db5","ios":"levelo://app?vid=04a496cd-3281-4485-b21d-c28e32846db5"},"vehicle_type_id":"4","last_reported":1708409376,"current_range_meters":18400,"station_id":"ce4bgs92rcd13ifvqcc0","pricing_plan_id":"cebpf4jnsgd1na2vs0mg"},{"bike_id":"10ac69d4-c3b7-4fbf-886a-0323072de053","system_id":"levelo_inurba_marseille","lat":43.301429,"lon":5.37413,"is_reserved":false,"is_disabled":false,"rental_uris":{"android":"levelo://app?vid=10ac69d4-c3b7-4fbf-886a-0323072de053","ios":"levelo://app?vid=10ac69d4-c3b7-4fbf-886a-0323072de053"},"vehicle_type_id":"4","last_reported":1708409376,"current_range_meters":26800,"station_id":"ce4bgs92rcd13ifvqcc0","pricing_plan_id":"cebpf4jnsgd1na2vs0mg"},{"bike_id":"06d31893-7701-4099-bb12-562f1735bf3e","system_id":"levelo_inurba_marseille","lat":43.30143,"lon":5.37413,"is_reserved":false,"is_disabled":false,"rental_uris":{"android":"levelo://app?vid=06d31893-7701-4099-bb12-562f1735bf3e","ios":"levelo://app?vid=06d31893-7701-4099-bb12-562f1735bf3e"},"vehicle_type_id":"4","last_reported":1708409376,"current_range_meters":30000,"station_id":"ce4bgs92rcd13ifvqcc0","pricing_plan_id":"cebpf4jnsgd1na2vs0mg"},{"bike_id":"66bbdbdc-5867-4c8b-b947-260ef36e2177","system_id":"levelo_inurba_marseille","lat":43.301429,"lon":5.37413,"is_reserved":false,"is_disabled":false,"rental_uris":{"android":"levelo://app?vid=66bbdbdc-5867-4c8b-b947-260ef36e2177","ios":"levelo://app?vid=66bbdbdc-5867-4c8b-b947-260ef36e2177"},"vehicle_type_id":"4","last_reported":1708409376,"current_range_meters":28400,"station_id":"ce4bgs92rcd13ifvqcc0","pricing_plan_id":"cebpf4jnsgd1na2vs0mg"},{"bike_id":"2d97ba72-a2b6-4623-9a8a-535f28fc5ec3","system_id":"levelo_inurba_marseille","lat":43.31992,"lon":5.381423,"is_reserved":false,"is_disabled":false,"rental_uris":{"android":"levelo://app?vid=2d97ba72-a2b6-4623-9a8a-535f28fc5ec3","ios":"levelo://app?vid=2d97ba72-a2b6-4623-9a8a-535f28fc5ec3"},"vehicle_type_id":"4","last_reported":1708409376,"current_range_meters":8000,"station_id":"ce4bhr12rcd13ifvqhpg","pricing_plan_id":"cebpf4jnsgd1na2vs0mg"},{"bike_id":"a356a71d-8723-493e-8dd7-0d2f4f5a935a","system_id":"levelo_inurba_marseille","lat":43.31022,"lon":5.38412,"is_reserved":false,"is_disabled":false,"rental_uris":{"android":"levelo://app?vid=a356a71d-8723-493e-8dd7-0d2f4f5a935a","ios":"levelo://app?vid=a356a71d-8723-493e-8dd7-0d2f4f5a935a"},"vehicle_type_id":"4","last_reported":1708409376,"current_range_meters":10800,"station_id":"","pricing_plan_id":"cebpf4jnsgd1na2vs0mg"},{"bike_id":"e8dfff5e-1bb7-477f-8452-42e99fa71ec3","system_id":"levelo_inurba_marseille","lat":43.319982,"lon":5.381487,"is_reserved":false,"is_disabled":false,"rental_uris":{"android":"levelo://app?vid=e8dfff5e-1bb7-477f-8452-42e99fa71ec3","ios":"levelo://app?vid=e8dfff5e-1bb7-477f-8452-42e99fa71ec3"},"vehicle_type_id":"4","last_reported":1708409376,"current_range_meters":18400,"station_id":"ce4bhr12rcd13ifvqhpg","pricing_plan_id":"cebpf4jnsgd1na2vs0mg"},{"bike_id":"e8f31dc1-2999-4c90-a724-42a89a9abba4","system_id":"levelo_inurba_marseille","lat":43.304606,"lon":5.379026,"is_reserved":false,"is_disabled":false,"rental_uris":{"android":"levelo://app?vid=e8f31dc1-2999-4c90-a724-42a89a9abba4","ios":"levelo://app?vid=e8f31dc1-2999-4c90-a724-42a89a9abba4"},"vehicle_type_id":"4","last_reported":1708409376,"current_range_meters":21200,"station_id":"ce4bgup2rcd13ifvqcn0","pricing_plan_id":"cebpf4jnsgd1na2vs0mg"},{"bike_id":"326adc9f-1ebd-49f3-9949-adab05bdfb8f","system_id":"levelo_inurba_marseille","lat":43.31999,"lon":5.38154,"is_reserved":false,"is_disabled":false,"rental_uris":{"android":"levelo://app?vid=326adc9f-1ebd-49f3-9949-adab05bdfb8f","ios":"levelo://app?vid=326adc9f-1ebd-49f3-9949-adab05bdfb8f"},"vehicle_type_id":"4","last_reported":1708409376,"current_range_meters":21200,"station_id":"ce4bhr12rcd13ifvqhpg","pricing_plan_id":"cebpf4jnsgd1na2vs0mg"},{"bike_id":"5c6e0fb2-f144-490a-9cdd-646f5b3972f4","system_id":"levelo_inurba_marseille","lat":43.313571,"lon":5.384829,"is_reserved":false,"is_disabled":false,"rental_uris":{"android":"levelo://app?vid=5c6e0fb2-f144-490a-9cdd-646f5b3972f4","ios":"levelo://app?vid=5c6e0fb2-f144-490a-9cdd-646f5b3972f4"},"vehicle_type_id":"4","last_reported":1708409376,"current_range_meters":30800,"station_id":"ce4bgt92rcd13ifvqcf0","pricing_plan_id":"cebpf4jnsgd1na2vs0mg"},{"bike_id":"f8387d48-5c37-46a2-9809-5aa56bf91c54","system_id":"levelo_inurba_marseille","lat":43.313571,"lon":5.384829,"is_reserved":false,"is_disabled":false,"rental_uris":{"android":"levelo://app?vid=f8387d48-5c37-46a2-9809-5aa56bf91c54","ios":"levelo://app?vid=f8387d48-5c37-46a2-9809-5aa56bf91c54"},"vehicle_type_id":"4","last_reported":1708409376,"current_range_meters":2400,"station_id":"ce4bgt92rcd13ifvqcf0","pricing_plan_id":"cebpf4jnsgd1na2vs0mg"},{"bike_id":"becd6cab-6f79-4e3e-9551-09710b47dd5c","system_id":"levelo_inurba_marseille","lat":43.31368,"lon":5.38495,"is_reserved":false,"is_disabled":false,"rental_uris":{"android":"levelo://app?vid=becd6cab-6f79-4e3e-9551-09710b47dd5c","ios":"levelo://app?vid=becd6cab-6f79-4e3e-9551-09710b47dd5c"},"vehicle_type_id":"4","last_reported":1708409376,"current_range_meters":31200,"station_id":"ce4bgt92rcd13ifvqcf0","pricing_plan_id":"cebpf4jnsgd1na2vs0mg"},{"bike_id":"bb07859f-92b9-47ba-9976-074cac8a8f20","system_id":"levelo_inurba_marseille","lat":43.31351,"lon":5.38497,"is_reserved":false,"is_disabled":false,"rental_uris":{"android":"levelo://app?vid=bb07859f-92b9-47ba-9976-074cac8a8f20","ios":"levelo://app?vid=bb07859f-92b9-47ba-9976-074cac8a8f20"},"vehicle_type_id":"4","last_reported":1708409376,"current_range_meters":29600,"station_id":"ce4bgt92rcd13ifvqcf0","pricing_plan_id":"cebpf4jnsgd1na2vs0mg"},{"bike_id":"28c65787-0a8c-43e3-bc67-a696bd340cbd","system_id":"levelo_inurba_marseille","lat":43.313536,"lon":5.384969,"is_reserved":false,"is_disabled":false,"rental_uris":{"android":"levelo://app?vid=28c65787-0a8c-43e3-bc67-a696bd340cbd","ios":"levelo://app?vid=28c65787-0a8c-43e3-bc67-a696bd340cbd"},"vehicle_type_id":"4","last_reported":1708409376,"current_range_meters":29600,"station_id":"ce4bgt92rcd13ifvqcf0","pricing_plan_id":"cebpf4jnsgd1na2vs0mg"},{"bike_id":"0256e02c-9bd1-4bc2-8316-e151c18c4971","system_id":"levelo_inurba_marseille","lat":43.31358,"lon":5.38498,"is_reserved":false,"is_disabled":false,"rental_uris":{"android":"levelo://app?vid=0256e02c-9bd1-4bc2-8316-e151c18c4971","ios":"levelo://app?vid=0256e02c-9bd1-4bc2-8316-e151c18c4971"},"vehicle_type_id":"4","last_reported":1708409376,"current_range_meters":21200,"station_id":"ce4bgt92rcd13ifvqcf0","pricing_plan_id":"cebpf4jnsgd1na2vs0mg"},{"bike_id":"b903f51f-1d3c-483d-9652-e20aba8c9d81","system_id":"levelo_inurba_marseille","lat":43.313571,"lon":5.384829,"is_reserved":false,"is_disabled":false,"rental_uris":{"android":"levelo://app?vid=b903f51f-1d3c-483d-9652-e20aba8c9d81","ios":"levelo://app?vid=b903f51f-1d3c-483d-9652-e20aba8c9d81"},"vehicle_type_id":"4","last_reported":1708409376,"current_range_meters":16000,"station_id":"ce4bgt92rcd13ifvqcf0","pricing_plan_id":"cebpf4jnsgd1na2vs0mg"},{"bike_id":"ff50e078-e8e8-49b3-a916-bfa6802eb5be","system_id":"levelo_inurba_marseille","lat":43.313571,"lon":5.384829,"is_reserved":false,"is_disabled":false,"rental_uris":{"android":"levelo://app?vid=ff50e078-e8e8-49b3-a916-bfa6802eb5be","ios":"levelo://app?vid=ff50e078-e8e8-49b3-a916-bfa6802eb5be"},"vehicle_type_id":"4","last_reported":1708409376,"current_range_meters":24800,"station_id":"ce4bgt92rcd13ifvqcf0","pricing_plan_id":"cebpf4jnsgd1na2vs0mg"},{"bike_id":"ab10e15e-1612-41a9-a1f8-1ed40565f54b","system_id":"levelo_inurba_marseille","lat":43.313571,"lon":5.384829,"is_reserved":false,"is_disabled":false,"rental_uris":{"android":"levelo://app?vid=ab10e15e-1612-41a9-a1f8-1ed40565f54b","ios":"levelo://app?vid=ab10e15e-1612-41a9-a1f8-1ed40565f54b"},"vehicle_type_id":"4","last_reported":1708409376,"current_range_meters":30000,"station_id":"ce4bgt92rcd13ifvqcf0","pricing_plan_id":"cebpf4jnsgd1na2vs0mg"},{"bike_id":"cd691f77-d9b0-4b4f-9184-3718de57d41c","system_id":"levelo_inurba_marseille","lat":43.313571,"lon":5.384829,"is_reserved":false,"is_disabled":false,"rental_uris":{"android":"levelo://app?vid=cd691f77-d9b0-4b4f-9184-3718de57d41c","ios":"levelo://app?vid=cd691f77-d9b0-4b4f-9184-3718de57d41c"},"vehicle_type_id":"4","last_reported":1708409376,"current_range_meters":30000,"station_id":"ce4bgt92rcd13ifvqcf0","pricing_plan_id":"cebpf4jnsgd1na2vs0mg"},{"bike_id":"fb6930b4-ca3f-4177-ab7d-6c24aab3cf8c","system_id":"levelo_inurba_marseille","lat":43.313571,"lon":5.384829,"is_reserved":false,"is_disabled":false,"rental_uris":{"android":"levelo://app?vid=fb6930b4-ca3f-4177-ab7d-6c24aab3cf8c","ios":"levelo://app?vid=fb6930b4-ca3f-4177-ab7d-6c24aab3cf8c"},"vehicle_type_id":"4","last_reported":1708409376,"current_range_meters":29600,"station_id":"ce4bgt92rcd13ifvqcf0","pricing_plan_id":"cebpf4jnsgd1na2vs0mg"},{"bike_id":"63838351-a6a1-494f-80d2-d6c73201e40e","system_id":"levelo_inurba_marseille","lat":43.31361,"lon":5.38502,"is_reserved":false,"is_disabled":false,"rental_uris":{"android":"levelo://app?vid=63838351-a6a1-494f-80d2-d6c73201e40e","ios":"levelo://app?vid=63838351-a6a1-494f-80d2-d6c73201e40e"},"vehicle_type_id":"4","last_reported":1708409376,"current_range_meters":30400,"station_id":"ce4bgt92rcd13ifvqcf0","pricing_plan_id":"cebpf4jnsgd1na2vs0mg"},{"bike_id":"633c11d0-89d9-4474-b29e-a064b87f2276","system_id":"levelo_inurba_marseille","lat":43.311859,"lon":5.385724,"is_reserved":false,"is_disabled":false,"rental_uris":{"android":"levelo://app?vid=633c11d0-89d9-4474-b29e-a064b87f2276","ios":"levelo://app?vid=633c11d0-89d9-4474-b29e-a064b87f2276"},"vehicle_type_id":"4","last_reported":1708409376,"current_range_meters":10800,"station_id":"","pricing_plan_id":"cebpf4jnsgd1na2vs0mg"},{"bike_id":"8a7f90af-495f-4071-8fa0-66c7a414613a","system_id":"levelo_inurba_marseille","lat":43.311722,"lon":5.387247,"is_reserved":false,"is_disabled":false,"rental_uris":{"android":"levelo://app?vid=8a7f90af-495f-4071-8fa0-66c7a414613a","ios":"levelo://app?vid=8a7f90af-495f-4071-8fa0-66c7a414613a"},"vehicle_type_id":"4","last_reported":1708409376,"current_range_meters":30400,"station_id":"ce4bgv12rcd13ifvqcp0","pricing_plan_id":"cebpf4jnsgd1na2vs0mg"},{"bike_id":"c1c7374d-5be7-4f69-a6f3-24fac5d9fcc7","system_id":"levelo_inurba_marseille","lat":43.298433,"lon":5.362774,"is_reserved":false,"is_disabled":false,"rental_uris":{"android":"levelo://app?vid=c1c7374d-5be7-4f69-a6f3-24fac5d9fcc7","ios":"levelo://app?vid=c1c7374d-5be7-4f69-a6f3-24fac5d9fcc7"},"vehicle_type_id":"4","last_reported":1708409376,"current_range_meters":30800,"station_id":"ce4bgpp2rcd13ifvqc3g","pricing_plan_id":"cebpf4jnsgd1na2vs0mg"},{"bike_id":"b86c2992-7b0a-422b-a9c5-d72d5be1307a","system_id":"levelo_inurba_marseille","lat":43.305364,"lon":5.384119,"is_reserved":false,"is_disabled":false,"rental_uris":{"android":"levelo://app?vid=b86c2992-7b0a-422b-a9c5-d72d5be1307a","ios":"levelo://app?vid=b86c2992-7b0a-422b-a9c5-d72d5be1307a"},"vehicle_type_id":"4","last_reported":1708409376,"current_range_meters":25600,"station_id":"ce4bgg92rcd13ifvqb30","pricing_plan_id":"cebpf4jnsgd1na2vs0mg"},{"bike_id":"24b88d70-c075-4717-869a-818eb3b10672","system_id":"levelo_inurba_marseille","lat":43.305364,"lon":5.384119,"is_reserved":false,"is_disabled":false,"rental_uris":{"android":"levelo://app?vid=24b88d70-c075-4717-869a-818eb3b10672","ios":"levelo://app?vid=24b88d70-c075-4717-869a-818eb3b10672"},"vehicle_type_id":"4","last_reported":1708409376,"current_range_meters":26800,"station_id":"ce4bgg92rcd13ifvqb30","pricing_plan_id":"cebpf4jnsgd1na2vs0mg"},{"bike_id":"3571987e-39cf-4d08-8e97-0689cea1def8","system_id":"levelo_inurba_marseille","lat":43.311722,"lon":5.387247,"is_reserved":false,"is_disabled":false,"rental_uris":{"android":"levelo://app?vid=3571987e-39cf-4d08-8e97-0689cea1def8","ios":"levelo://app?vid=3571987e-39cf-4d08-8e97-0689cea1def8"},"vehicle_type_id":"4","last_reported":1708409376,"current_range_meters":0,"station_id":"ce4bgv12rcd13ifvqcp0","pricing_plan_id":"cebpf4jnsgd1na2vs0mg"},{"bike_id":"8f739cd0-083c-4784-ae71-0c0267c37fd4","system_id":"levelo_inurba_marseille","lat":43.311722,"lon":5.387247,"is_reserved":false,"is_disabled":false,"rental_uris":{"android":"levelo://app?vid=8f739cd0-083c-4784-ae71-0c0267c37fd4","ios":"levelo://app?vid=8f739cd0-083c-4784-ae71-0c0267c37fd4"},"vehicle_type_id":"4","last_reported":1708409376,"current_range_meters":31200,"station_id":"ce4bgv12rcd13ifvqcp0","pricing_plan_id":"cebpf4jnsgd1na2vs0mg"},{"bike_id":"7853d033-42ed-40cd-95b6-d80e81c2c22c","system_id":"levelo_inurba_marseille","lat":43.311722,"lon":5.387247,"is_reserved":false,"is_disabled":false,"rental_uris":{"android":"levelo://app?vid=7853d033-42ed-40cd-95b6-d80e81c2c22c","ios":"levelo://app?vid=7853d033-42ed-40cd-95b6-d80e81c2c22c"},"vehicle_type_id":"4","last_reported":1708409376,"current_range_meters":31200,"station_id":"ce4bgv12rcd13ifvqcp0","pricing_plan_id":"cebpf4jnsgd1na2vs0mg"},{"bike_id":"a5b6aa85-656e-4b76-87c2-65e92f4fcc73","system_id":"levelo_inurba_marseille","lat":43.311722,"lon":5.387247,"is_reserved":false,"is_disabled":false,"rental_uris":{"android":"levelo://app?vid=a5b6aa85-656e-4b76-87c2-65e92f4fcc73","ios":"levelo://app?vid=a5b6aa85-656e-4b76-87c2-65e92f4fcc73"},"vehicle_type_id":"4","last_reported":1708409376,"current_range_meters":25200,"station_id":"ce4bgv12rcd13ifvqcp0","pricing_plan_id":"cebpf4jnsgd1na2vs0mg"},{"bike_id":"d8eb781c-6731-42c9-81a3-96dcb6b2b8a9","system_id":"levelo_inurba_marseille","lat":43.311722,"lon":5.387247,"is_reserved":false,"is_disabled":false,"rental_uris":{"android":"levelo://app?vid=d8eb781c-6731-42c9-81a3-96dcb6b2b8a9","ios":"levelo://app?vid=d8eb781c-6731-42c9-81a3-96dcb6b2b8a9"},"vehicle_type_id":"4","last_reported":1708409376,"current_range_meters":26800,"station_id":"ce4bgv12rcd13ifvqcp0","pricing_plan_id":"cebpf4jnsgd1na2vs0mg"},{"bike_id":"2a048a81-190d-4a33-8016-06985ff052ab","system_id":"levelo_inurba_marseille","lat":43.311722,"lon":5.387247,"is_reserved":false,"is_disabled":false,"rental_uris":{"android":"levelo://app?vid=2a048a81-190d-4a33-8016-06985ff052ab","ios":"levelo://app?vid=2a048a81-190d-4a33-8016-06985ff052ab"},"vehicle_type_id":"4","last_reported":1708409376,"current_range_meters":31600,"station_id":"ce4bgv12rcd13ifvqcp0","pricing_plan_id":"cebpf4jnsgd1na2vs0mg"},{"bike_id":"db7075de-1a49-49cb-868e-aca4dc1f3aaf","system_id":"levelo_inurba_marseille","lat":43.311722,"lon":5.387247,"is_reserved":false,"is_disabled":false,"rental_uris":{"android":"levelo://app?vid=db7075de-1a49-49cb-868e-aca4dc1f3aaf","ios":"levelo://app?vid=db7075de-1a49-49cb-868e-aca4dc1f3aaf"},"vehicle_type_id":"4","last_reported":1708409376,"current_range_meters":29200,"station_id":"ce4bgv12rcd13ifvqcp0","pricing_plan_id":"cebpf4jnsgd1na2vs0mg"},{"bike_id":"59c02530-6aad-4915-b6a5-0a65843b7269","system_id":"levelo_inurba_marseille","lat":43.311722,"lon":5.387247,"is_reserved":false,"is_disabled":false,"rental_uris":{"android":"levelo://app?vid=59c02530-6aad-4915-b6a5-0a65843b7269","ios":"levelo://app?vid=59c02530-6aad-4915-b6a5-0a65843b7269"},"vehicle_type_id":"4","last_reported":1708409376,"current_range_meters":14000,"station_id":"ce4bgv12rcd13ifvqcp0","pricing_plan_id":"cebpf4jnsgd1na2vs0mg"},{"bike_id":"e6d33c2b-0d6c-4bf8-9355-0017f7556f91","system_id":"levelo_inurba_marseille","lat":43.297794,"lon":5.370888,"is_reserved":false,"is_disabled":false,"rental_uris":{"android":"levelo://app?vid=e6d33c2b-0d6c-4bf8-9355-0017f7556f91","ios":"levelo://app?vid=e6d33c2b-0d6c-4bf8-9355-0017f7556f91"},"vehicle_type_id":"4","last_reported":1708409376,"current_range_meters":4800,"station_id":"ce4bgop2rcd13ifvqc1g","pricing_plan_id":"cebpf4jnsgd1na2vs0mg"},{"bike_id":"3abb9479-2707-4d7e-b30c-ba46a05b4b7e","system_id":"levelo_inurba_marseille","lat":43.297794,"lon":5.370888,"is_reserved":false,"is_disabled":false,"rental_uris":{"android":"levelo://app?vid=3abb9479-2707-4d7e-b30c-ba46a05b4b7e","ios":"levelo://app?vid=3abb9479-2707-4d7e-b30c-ba46a05b4b7e"},"vehicle_type_id":"4","last_reported":1708409376,"current_range_meters":31200,"station_id":"ce4bgop2rcd13ifvqc1g","pricing_plan_id":"cebpf4jnsgd1na2vs0mg"},{"bike_id":"87b9dd3b-d0dd-47e4-b430-d07e769ec461","system_id":"levelo_inurba_marseille","lat":43.297794,"lon":5.370888,"is_reserved":false,"is_disabled":false,"rental_uris":{"android":"levelo://app?vid=87b9dd3b-d0dd-47e4-b430-d07e769ec461","ios":"levelo://app?vid=87b9dd3b-d0dd-47e4-b430-d07e769ec461"},"vehicle_type_id":"4","last_reported":1708409376,"current_range_meters":23600,"station_id":"ce4bgop2rcd13ifvqc1g","pricing_plan_id":"cebpf4jnsgd1na2vs0mg"},{"bike_id":"710cc044-5064-496b-a1fc-36b0630d660c","system_id":"levelo_inurba_marseille","lat":43.297794,"lon":5.370888,"is_reserved":false,"is_disabled":false,"rental_uris":{"android":"levelo://app?vid=710cc044-5064-496b-a1fc-36b0630d660c","ios":"levelo://app?vid=710cc044-5064-496b-a1fc-36b0630d660c"},"vehicle_type_id":"4","last_reported":1708409376,"current_range_meters":25200,"station_id":"ce4bgop2rcd13ifvqc1g","pricing_plan_id":"cebpf4jnsgd1na2vs0mg"},{"bike_id":"5c031352-0a90-4fd6-a2be-5686641dafa2","system_id":"levelo_inurba_marseille","lat":43.322872,"lon":5.382756,"is_reserved":false,"is_disabled":false,"rental_uris":{"android":"levelo://app?vid=5c031352-0a90-4fd6-a2be-5686641dafa2","ios":"levelo://app?vid=5c031352-0a90-4fd6-a2be-5686641dafa2"},"vehicle_type_id":"4","last_reported":1708409376,"current_range_meters":12800,"station_id":"ce4bhr12rcd13ifvqhqg","pricing_plan_id":"cebpf4jnsgd1na2vs0mg"},{"bike_id":"9edfbbac-3647-4389-a484-42c4a248ae6c","system_id":"levelo_inurba_marseille","lat":43.322872,"lon":5.382756,"is_reserved":false,"is_disabled":false,"rental_uris":{"android":"levelo://app?vid=9edfbbac-3647-4389-a484-42c4a248ae6c","ios":"levelo://app?vid=9edfbbac-3647-4389-a484-42c4a248ae6c"},"vehicle_type_id":"4","last_reported":1708409376,"current_range_meters":31200,"station_id":"ce4bhr12rcd13ifvqhqg","pricing_plan_id":"cebpf4jnsgd1na2vs0mg"},{"bike_id":"fce4e9eb-f1db-4840-9573-54454ce3f1d6","system_id":"levelo_inurba_marseille","lat":43.322872,"lon":5.382756,"is_reserved":false,"is_disabled":false,"rental_uris":{"android":"levelo://app?vid=fce4e9eb-f1db-4840-9573-54454ce3f1d6","ios":"levelo://app?vid=fce4e9eb-f1db-4840-9573-54454ce3f1d6"},"vehicle_type_id":"4","last_reported":1708409376,"current_range_meters":23600,"station_id":"ce4bhr12rcd13ifvqhqg","pricing_plan_id":"cebpf4jnsgd1na2vs0mg"},{"bike_id":"080b814d-eff9-42cb-8ce2-36cd1bfd738b","system_id":"levelo_inurba_marseille","lat":43.297794,"lon":5.370888,"is_reserved":false,"is_disabled":false,"rental_uris":{"android":"levelo://app?vid=080b814d-eff9-42cb-8ce2-36cd1bfd738b","ios":"levelo://app?vid=080b814d-eff9-42cb-8ce2-36cd1bfd738b"},"vehicle_type_id":"4","last_reported":1708409376,"current_range_meters":1600,"station_id":"ce4bgop2rcd13ifvqc1g","pricing_plan_id":"cebpf4jnsgd1na2vs0mg"},{"bike_id":"91ab4edd-d149-4ede-888b-4d27f7f91f34","system_id":"levelo_inurba_marseille","lat":43.322872,"lon":5.382756,"is_reserved":false,"is_disabled":false,"rental_uris":{"android":"levelo://app?vid=91ab4edd-d149-4ede-888b-4d27f7f91f34","ios":"levelo://app?vid=91ab4edd-d149-4ede-888b-4d27f7f91f34"},"vehicle_type_id":"4","last_reported":1708409376,"current_range_meters":30400,"station_id":"ce4bhr12rcd13ifvqhqg","pricing_plan_id":"cebpf4jnsgd1na2vs0mg"},{"bike_id":"d026edbc-abfe-4769-8eb1-e1acc923139d","system_id":"levelo_inurba_marseille","lat":43.322892,"lon":5.382759,"is_reserved":false,"is_disabled":false,"rental_uris":{"android":"levelo://app?vid=d026edbc-abfe-4769-8eb1-e1acc923139d","ios":"levelo://app?vid=d026edbc-abfe-4769-8eb1-e1acc923139d"},"vehicle_type_id":"4","last_reported":1708409376,"current_range_meters":25200,"station_id":"ce4bhr12rcd13ifvqhqg","pricing_plan_id":"cebpf4jnsgd1na2vs0mg"},{"bike_id":"6aef8ca3-c46e-4b3c-b541-70795449560a","system_id":"levelo_inurba_marseille","lat":43.328293,"lon":5.366897,"is_reserved":false,"is_disabled":false,"rental_uris":{"android":"levelo://app?vid=6aef8ca3-c46e-4b3c-b541-70795449560a","ios":"levelo://app?vid=6aef8ca3-c46e-4b3c-b541-70795449560a"},"vehicle_type_id":"4","last_reported":1708409376,"current_range_meters":8400,"station_id":"","pricing_plan_id":"cebpf4jnsgd1na2vs0mg"},{"bike_id":"add7985a-15aa-4ecf-aefb-9183c2c5c61d","system_id":"levelo_inurba_marseille","lat":43.299618,"lon":5.379134,"is_reserved":false,"is_disabled":false,"rental_uris":{"android":"levelo://app?vid=add7985a-15aa-4ecf-aefb-9183c2c5c61d","ios":"levelo://app?vid=add7985a-15aa-4ecf-aefb-9183c2c5c61d"},"vehicle_type_id":"4","last_reported":1708409376,"current_range_meters":10000,"station_id":"","pricing_plan_id":"cebpf4jnsgd1na2vs0mg"},{"bike_id":"f02a0f6f-66a6-462e-9e55-3dfdd8fe01d9","system_id":"levelo_inurba_marseille","lat":43.329128,"lon":5.367033,"is_reserved":false,"is_disabled":false,"rental_uris":{"android":"levelo://app?vid=f02a0f6f-66a6-462e-9e55-3dfdd8fe01d9","ios":"levelo://app?vid=f02a0f6f-66a6-462e-9e55-3dfdd8fe01d9"},"vehicle_type_id":"4","last_reported":1708409376,"current_range_meters":0,"station_id":"","pricing_plan_id":"cebpf4jnsgd1na2vs0mg"},{"bike_id":"e0928568-3742-476e-979d-28a8bffe42b5","system_id":"levelo_inurba_marseille","lat":43.2968,"lon":5.37291,"is_reserved":false,"is_disabled":false,"rental_uris":{"android":"levelo://app?vid=e0928568-3742-476e-979d-28a8bffe42b5","ios":"levelo://app?vid=e0928568-3742-476e-979d-28a8bffe42b5"},"vehicle_type_id":"4","last_reported":1708409376,"current_range_meters":29600,"station_id":"ce4bgk12rcd13ifvqbj0","pricing_plan_id":"cebpf4jnsgd1na2vs0mg"},{"bike_id":"55c74eed-b29f-41ab-bbf8-13b48ec7c72e","system_id":"levelo_inurba_marseille","lat":43.2968,"lon":5.37291,"is_reserved":false,"is_disabled":false,"rental_uris":{"android":"levelo://app?vid=55c74eed-b29f-41ab-bbf8-13b48ec7c72e","ios":"levelo://app?vid=55c74eed-b29f-41ab-bbf8-13b48ec7c72e"},"vehicle_type_id":"4","last_reported":1708409376,"current_range_meters":26800,"station_id":"ce4bgk12rcd13ifvqbj0","pricing_plan_id":"cebpf4jnsgd1na2vs0mg"},{"bike_id":"0a47f147-3651-4097-830d-027d6e377778","system_id":"levelo_inurba_marseille","lat":43.2968,"lon":5.37291,"is_reserved":false,"is_disabled":false,"rental_uris":{"android":"levelo://app?vid=0a47f147-3651-4097-830d-027d6e377778","ios":"levelo://app?vid=0a47f147-3651-4097-830d-027d6e377778"},"vehicle_type_id":"4","last_reported":1708409376,"current_range_meters":20800,"station_id":"ce4bgk12rcd13ifvqbj0","pricing_plan_id":"cebpf4jnsgd1na2vs0mg"},{"bike_id":"3dfb5fd0-7d35-44e6-8288-48ce916ef44a","system_id":"levelo_inurba_marseille","lat":43.296921,"lon":5.376579,"is_reserved":false,"is_disabled":false,"rental_uris":{"android":"levelo://app?vid=3dfb5fd0-7d35-44e6-8288-48ce916ef44a","ios":"levelo://app?vid=3dfb5fd0-7d35-44e6-8288-48ce916ef44a"},"vehicle_type_id":"4","last_reported":1708409376,"current_range_meters":30000,"station_id":"ce4bgkh2rcd13ifvqbl0","pricing_plan_id":"cebpf4jnsgd1na2vs0mg"},{"bike_id":"7b957247-9272-4568-88b4-8b82bd532804","system_id":"levelo_inurba_marseille","lat":43.31495,"lon":5.390373,"is_reserved":false,"is_disabled":false,"rental_uris":{"android":"levelo://app?vid=7b957247-9272-4568-88b4-8b82bd532804","ios":"levelo://app?vid=7b957247-9272-4568-88b4-8b82bd532804"},"vehicle_type_id":"4","last_reported":1708409376,"current_range_meters":26800,"station_id":"","pricing_plan_id":"cebpf4jnsgd1na2vs0mg"},{"bike_id":"fa0ebd6a-637e-46ea-b2f7-a610900cd054","system_id":"levelo_inurba_marseille","lat":43.299028,"lon":5.381509,"is_reserved":false,"is_disabled":false,"rental_uris":{"android":"levelo://app?vid=fa0ebd6a-637e-46ea-b2f7-a610900cd054","ios":"levelo://app?vid=fa0ebd6a-637e-46ea-b2f7-a610900cd054"},"vehicle_type_id":"4","last_reported":1708409376,"current_range_meters":12000,"station_id":"ce4bgj12rcd13ifvqbc0","pricing_plan_id":"cebpf4jnsgd1na2vs0mg"},{"bike_id":"584c0c27-2e54-4d99-a2a2-16b52e169ff2","system_id":"levelo_inurba_marseille","lat":43.296921,"lon":5.376579,"is_reserved":false,"is_disabled":false,"rental_uris":{"android":"levelo://app?vid=584c0c27-2e54-4d99-a2a2-16b52e169ff2","ios":"levelo://app?vid=584c0c27-2e54-4d99-a2a2-16b52e169ff2"},"vehicle_type_id":"4","last_reported":1708409376,"current_range_meters":31200,"station_id":"ce4bgkh2rcd13ifvqbl0","pricing_plan_id":"cebpf4jnsgd1na2vs0mg"},{"bike_id":"09dbb9fc-e995-413e-8ab0-efb45ddd754a","system_id":"levelo_inurba_marseille","lat":43.296935,"lon":5.376544,"is_reserved":false,"is_disabled":false,"rental_uris":{"android":"levelo://app?vid=09dbb9fc-e995-413e-8ab0-efb45ddd754a","ios":"levelo://app?vid=09dbb9fc-e995-413e-8ab0-efb45ddd754a"},"vehicle_type_id":"4","last_reported":1708409376,"current_range_meters":29600,"station_id":"ce4bgkh2rcd13ifvqbl0","pricing_plan_id":"cebpf4jnsgd1na2vs0mg"},{"bike_id":"f99fe8d7-49cd-4520-bf26-f71aedf8d020","system_id":"levelo_inurba_marseille","lat":43.30957,"lon":5.3904,"is_reserved":false,"is_disabled":false,"rental_uris":{"android":"levelo://app?vid=f99fe8d7-49cd-4520-bf26-f71aedf8d020","ios":"levelo://app?vid=f99fe8d7-49cd-4520-bf26-f71aedf8d020"},"vehicle_type_id":"4","last_reported":1708409376,"current_range_meters":22800,"station_id":"ce4bgup2rcd13ifvqco0","pricing_plan_id":"cebpf4jnsgd1na2vs0mg"},{"bike_id":"bf360b7d-8e8f-4660-beb2-4a17213b8788","system_id":"levelo_inurba_marseille","lat":43.309589,"lon":5.390258,"is_reserved":false,"is_disabled":false,"rental_uris":{"android":"levelo://app?vid=bf360b7d-8e8f-4660-beb2-4a17213b8788","ios":"levelo://app?vid=bf360b7d-8e8f-4660-beb2-4a17213b8788"},"vehicle_type_id":"4","last_reported":1708409376,"current_range_meters":26400,"station_id":"ce4bgup2rcd13ifvqco0","pricing_plan_id":"cebpf4jnsgd1na2vs0mg"},{"bike_id":"916441bb-cb92-4f37-b8a0-768dbff3ea2e","system_id":"levelo_inurba_marseille","lat":43.309524,"lon":5.390445,"is_reserved":false,"is_disabled":false,"rental_uris":{"android":"levelo://app?vid=916441bb-cb92-4f37-b8a0-768dbff3ea2e","ios":"levelo://app?vid=916441bb-cb92-4f37-b8a0-768dbff3ea2e"},"vehicle_type_id":"4","last_reported":1708409376,"current_range_meters":20000,"station_id":"ce4bgup2rcd13ifvqco0","pricing_plan_id":"cebpf4jnsgd1na2vs0mg"},{"bike_id":"f2666d97-f098-4e8d-948b-6ca5cf2b5347","system_id":"levelo_inurba_marseille","lat":43.317557,"lon":5.390173,"is_reserved":false,"is_disabled":false,"rental_uris":{"android":"levelo://app?vid=f2666d97-f098-4e8d-948b-6ca5cf2b5347","ios":"levelo://app?vid=f2666d97-f098-4e8d-948b-6ca5cf2b5347"},"vehicle_type_id":"4","last_reported":1708409376,"current_range_meters":8800,"station_id":"ce4bhqp2rcd13ifvqhng","pricing_plan_id":"cebpf4jnsgd1na2vs0mg"},{"bike_id":"9006dcf1-17d3-4031-81c2-9e818b61b918","system_id":"levelo_inurba_marseille","lat":43.317557,"lon":5.390173,"is_reserved":false,"is_disabled":false,"rental_uris":{"android":"levelo://app?vid=9006dcf1-17d3-4031-81c2-9e818b61b918","ios":"levelo://app?vid=9006dcf1-17d3-4031-81c2-9e818b61b918"},"vehicle_type_id":"4","last_reported":1708409376,"current_range_meters":31200,"station_id":"ce4bhqp2rcd13ifvqhng","pricing_plan_id":"cebpf4jnsgd1na2vs0mg"},{"bike_id":"e3d6a117-f1c2-4286-b6fc-026747e43e8e","system_id":"levelo_inurba_marseille","lat":43.317557,"lon":5.390173,"is_reserved":false,"is_disabled":false,"rental_uris":{"android":"levelo://app?vid=e3d6a117-f1c2-4286-b6fc-026747e43e8e","ios":"levelo://app?vid=e3d6a117-f1c2-4286-b6fc-026747e43e8e"},"vehicle_type_id":"4","last_reported":1708409376,"current_range_meters":15200,"station_id":"ce4bhqp2rcd13ifvqhng","pricing_plan_id":"cebpf4jnsgd1na2vs0mg"},{"bike_id":"f4bab2ed-a891-4499-8c4f-a8c7f5752400","system_id":"levelo_inurba_marseille","lat":43.317557,"lon":5.390173,"is_reserved":false,"is_disabled":false,"rental_uris":{"android":"levelo://app?vid=f4bab2ed-a891-4499-8c4f-a8c7f5752400","ios":"levelo://app?vid=f4bab2ed-a891-4499-8c4f-a8c7f5752400"},"vehicle_type_id":"4","last_reported":1708409376,"current_range_meters":26800,"station_id":"ce4bhqp2rcd13ifvqhng","pricing_plan_id":"cebpf4jnsgd1na2vs0mg"},{"bike_id":"01d234d0-e8e0-45f8-b8bb-c81cf3e028da","system_id":"levelo_inurba_marseille","lat":43.317557,"lon":5.390173,"is_reserved":false,"is_disabled":false,"rental_uris":{"android":"levelo://app?vid=01d234d0-e8e0-45f8-b8bb-c81cf3e028da","ios":"levelo://app?vid=01d234d0-e8e0-45f8-b8bb-c81cf3e028da"},"vehicle_type_id":"4","last_reported":1708409376,"current_range_meters":31200,"station_id":"ce4bhqp2rcd13ifvqhng","pricing_plan_id":"cebpf4jnsgd1na2vs0mg"},{"bike_id":"9b115ebf-65a9-47d3-ab52-8c4b12863dc4","system_id":"levelo_inurba_marseille","lat":43.317557,"lon":5.390173,"is_reserved":false,"is_disabled":false,"rental_uris":{"android":"levelo://app?vid=9b115ebf-65a9-47d3-ab52-8c4b12863dc4","ios":"levelo://app?vid=9b115ebf-65a9-47d3-ab52-8c4b12863dc4"},"vehicle_type_id":"4","last_reported":1708409376,"current_range_meters":6400,"station_id":"ce4bhqp2rcd13ifvqhng","pricing_plan_id":"cebpf4jnsgd1na2vs0mg"},{"bike_id":"a058b8c9-ce73-4233-9ec0-7d21bd3e485a","system_id":"levelo_inurba_marseille","lat":43.317557,"lon":5.390173,"is_reserved":false,"is_disabled":false,"rental_uris":{"android":"levelo://app?vid=a058b8c9-ce73-4233-9ec0-7d21bd3e485a","ios":"levelo://app?vid=a058b8c9-ce73-4233-9ec0-7d21bd3e485a"},"vehicle_type_id":"4","last_reported":1708409376,"current_range_meters":9600,"station_id":"ce4bhqp2rcd13ifvqhng","pricing_plan_id":"cebpf4jnsgd1na2vs0mg"},{"bike_id":"48fa77df-3dcc-42e2-939c-46a48ac9c143","system_id":"levelo_inurba_marseille","lat":43.295748,"lon":5.37522,"is_reserved":false,"is_disabled":false,"rental_uris":{"android":"levelo://app?vid=48fa77df-3dcc-42e2-939c-46a48ac9c143","ios":"levelo://app?vid=48fa77df-3dcc-42e2-939c-46a48ac9c143"},"vehicle_type_id":"4","last_reported":1708409376,"current_range_meters":29200,"station_id":"ce4bgh92rcd13ifvqb50","pricing_plan_id":"cebpf4jnsgd1na2vs0mg"},{"bike_id":"11817364-675c-4fa7-9af8-990a849e4f9a","system_id":"levelo_inurba_marseille","lat":43.298037,"lon":5.381066,"is_reserved":false,"is_disabled":false,"rental_uris":{"android":"levelo://app?vid=11817364-675c-4fa7-9af8-990a849e4f9a","ios":"levelo://app?vid=11817364-675c-4fa7-9af8-990a849e4f9a"},"vehicle_type_id":"4","last_reported":1708409376,"current_range_meters":21200,"station_id":"ce4bgip2rcd13ifvqbb0","pricing_plan_id":"cebpf4jnsgd1na2vs0mg"},{"bike_id":"a03f5c26-43b1-45ec-943f-a1bd53959c3b","system_id":"levelo_inurba_marseille","lat":43.304278,"lon":5.388868,"is_reserved":false,"is_disabled":false,"rental_uris":{"android":"levelo://app?vid=a03f5c26-43b1-45ec-943f-a1bd53959c3b","ios":"levelo://app?vid=a03f5c26-43b1-45ec-943f-a1bd53959c3b"},"vehicle_type_id":"4","last_reported":1708409376,"current_range_meters":4800,"station_id":"ce4bgk12rcd13ifvqbi0","pricing_plan_id":"cebpf4jnsgd1na2vs0mg"},{"bike_id":"93663d55-1c8a-498e-99e3-c0a22156b474","system_id":"levelo_inurba_marseille","lat":43.298037,"lon":5.381066,"is_reserved":false,"is_disabled":false,"rental_uris":{"android":"levelo://app?vid=93663d55-1c8a-498e-99e3-c0a22156b474","ios":"levelo://app?vid=93663d55-1c8a-498e-99e3-c0a22156b474"},"vehicle_type_id":"4","last_reported":1708409376,"current_range_meters":24000,"station_id":"ce4bgip2rcd13ifvqbb0","pricing_plan_id":"cebpf4jnsgd1na2vs0mg"},{"bike_id":"3d80a6b4-456a-4f71-891d-9f1ee12153d5","system_id":"levelo_inurba_marseille","lat":43.30436,"lon":5.38892,"is_reserved":false,"is_disabled":false,"rental_uris":{"android":"levelo://app?vid=3d80a6b4-456a-4f71-891d-9f1ee12153d5","ios":"levelo://app?vid=3d80a6b4-456a-4f71-891d-9f1ee12153d5"},"vehicle_type_id":"4","last_reported":1708409376,"current_range_meters":3200,"station_id":"ce4bgk12rcd13ifvqbi0","pricing_plan_id":"cebpf4jnsgd1na2vs0mg"},{"bike_id":"9850b0c8-fd40-4553-9418-16c78492a3b8","system_id":"levelo_inurba_marseille","lat":43.304268,"lon":5.388916,"is_reserved":false,"is_disabled":false,"rental_uris":{"android":"levelo://app?vid=9850b0c8-fd40-4553-9418-16c78492a3b8","ios":"levelo://app?vid=9850b0c8-fd40-4553-9418-16c78492a3b8"},"vehicle_type_id":"4","last_reported":1708409376,"current_range_meters":11200,"station_id":"ce4bgk12rcd13ifvqbi0","pricing_plan_id":"cebpf4jnsgd1na2vs0mg"},{"bike_id":"db86ba2d-9041-4c6e-a9bb-99c5cf4fa356","system_id":"levelo_inurba_marseille","lat":43.299724,"lon":5.384848,"is_reserved":false,"is_disabled":false,"rental_uris":{"android":"levelo://app?vid=db86ba2d-9041-4c6e-a9bb-99c5cf4fa356","ios":"levelo://app?vid=db86ba2d-9041-4c6e-a9bb-99c5cf4fa356"},"vehicle_type_id":"4","last_reported":1708409376,"current_range_meters":29600,"station_id":"ce4bgj92rcd13ifvqbd0","pricing_plan_id":"cebpf4jnsgd1na2vs0mg"},{"bike_id":"fd958cb9-bd64-48df-bc0a-5c99401ab08a","system_id":"levelo_inurba_marseille","lat":43.295279,"lon":5.375048,"is_reserved":false,"is_disabled":false,"rental_uris":{"android":"levelo://app?vid=fd958cb9-bd64-48df-bc0a-5c99401ab08a","ios":"levelo://app?vid=fd958cb9-bd64-48df-bc0a-5c99401ab08a"},"vehicle_type_id":"4","last_reported":1708409376,"current_range_meters":26400,"station_id":"ce4bgkp2rcd13ifvqbmg","pricing_plan_id":"cebpf4jnsgd1na2vs0mg"},{"bike_id":"4d6cf0d1-56de-4fc5-bd61-cdf25e86cf12","system_id":"levelo_inurba_marseille","lat":43.32367,"lon":5.388836,"is_reserved":false,"is_disabled":false,"rental_uris":{"android":"levelo://app?vid=4d6cf0d1-56de-4fc5-bd61-cdf25e86cf12","ios":"levelo://app?vid=4d6cf0d1-56de-4fc5-bd61-cdf25e86cf12"},"vehicle_type_id":"4","last_reported":1708409376,"current_range_meters":15600,"station_id":"ce4bhqp2rcd13ifvqhog","pricing_plan_id":"cebpf4jnsgd1na2vs0mg"},{"bike_id":"14b2adbd-de5e-493a-919f-cb01d90fdaa2","system_id":"levelo_inurba_marseille","lat":43.32367,"lon":5.388836,"is_reserved":false,"is_disabled":false,"rental_uris":{"android":"levelo://app?vid=14b2adbd-de5e-493a-919f-cb01d90fdaa2","ios":"levelo://app?vid=14b2adbd-de5e-493a-919f-cb01d90fdaa2"},"vehicle_type_id":"4","last_reported":1708409376,"current_range_meters":10400,"station_id":"ce4bhqp2rcd13ifvqhog","pricing_plan_id":"cebpf4jnsgd1na2vs0mg"},{"bike_id":"06618661-616f-491d-abb5-bd362d0e1c2a","system_id":"levelo_inurba_marseille","lat":43.32367,"lon":5.388836,"is_reserved":false,"is_disabled":false,"rental_uris":{"android":"levelo://app?vid=06618661-616f-491d-abb5-bd362d0e1c2a","ios":"levelo://app?vid=06618661-616f-491d-abb5-bd362d0e1c2a"},"vehicle_type_id":"4","last_reported":1708409376,"current_range_meters":15600,"station_id":"ce4bhqp2rcd13ifvqhog","pricing_plan_id":"cebpf4jnsgd1na2vs0mg"},{"bike_id":"c9fa3586-8267-45ec-89a4-7814fdccb94a","system_id":"levelo_inurba_marseille","lat":43.32367,"lon":5.388836,"is_reserved":false,"is_disabled":false,"rental_uris":{"android":"levelo://app?vid=c9fa3586-8267-45ec-89a4-7814fdccb94a","ios":"levelo://app?vid=c9fa3586-8267-45ec-89a4-7814fdccb94a"},"vehicle_type_id":"4","last_reported":1708409376,"current_range_meters":8000,"station_id":"ce4bhqp2rcd13ifvqhog","pricing_plan_id":"cebpf4jnsgd1na2vs0mg"},{"bike_id":"789cb8e6-825b-4df0-904c-2f0cd4d5b374","system_id":"levelo_inurba_marseille","lat":43.29601,"lon":5.381084,"is_reserved":false,"is_disabled":false,"rental_uris":{"android":"levelo://app?vid=789cb8e6-825b-4df0-904c-2f0cd4d5b374","ios":"levelo://app?vid=789cb8e6-825b-4df0-904c-2f0cd4d5b374"},"vehicle_type_id":"4","last_reported":1708409376,"current_range_meters":2400,"station_id":"ce4bgl12rcd13ifvqbo0","pricing_plan_id":"cebpf4jnsgd1na2vs0mg"},{"bike_id":"42175bf9-ec2e-4e82-9a68-bee8236e09ba","system_id":"levelo_inurba_marseille","lat":43.29602,"lon":5.381084,"is_reserved":false,"is_disabled":false,"rental_uris":{"android":"levelo://app?vid=42175bf9-ec2e-4e82-9a68-bee8236e09ba","ios":"levelo://app?vid=42175bf9-ec2e-4e82-9a68-bee8236e09ba"},"vehicle_type_id":"4","last_reported":1708409376,"current_range_meters":27600,"station_id":"ce4bgl12rcd13ifvqbo0","pricing_plan_id":"cebpf4jnsgd1na2vs0mg"},{"bike_id":"acf064fe-ab17-43ec-8953-8b845bdefc41","system_id":"levelo_inurba_marseille","lat":43.305994,"lon":5.393687,"is_reserved":false,"is_disabled":false,"rental_uris":{"android":"levelo://app?vid=acf064fe-ab17-43ec-8953-8b845bdefc41","ios":"levelo://app?vid=acf064fe-ab17-43ec-8953-8b845bdefc41"},"vehicle_type_id":"4","last_reported":1708409376,"current_range_meters":30800,"station_id":"ce4bh0p2rcd13ifvqd80","pricing_plan_id":"cebpf4jnsgd1na2vs0mg"},{"bike_id":"63cc8cff-f3f1-485b-8e54-17dc20f3eb63","system_id":"levelo_inurba_marseille","lat":43.293009,"lon":5.374584,"is_reserved":false,"is_disabled":false,"rental_uris":{"android":"levelo://app?vid=63cc8cff-f3f1-485b-8e54-17dc20f3eb63","ios":"levelo://app?vid=63cc8cff-f3f1-485b-8e54-17dc20f3eb63"},"vehicle_type_id":"4","last_reported":1708409376,"current_range_meters":25600,"station_id":"ce4bgi12rcd13ifvqb70","pricing_plan_id":"cebpf4jnsgd1na2vs0mg"},{"bike_id":"2fa67308-77ff-497b-9994-135f8131c83a","system_id":"levelo_inurba_marseille","lat":43.303002,"lon":5.392142,"is_reserved":false,"is_disabled":false,"rental_uris":{"android":"levelo://app?vid=2fa67308-77ff-497b-9994-135f8131c83a","ios":"levelo://app?vid=2fa67308-77ff-497b-9994-135f8131c83a"},"vehicle_type_id":"4","last_reported":1708409376,"current_range_meters":24000,"station_id":"ce4bgkh2rcd13ifvqbk0","pricing_plan_id":"cebpf4jnsgd1na2vs0mg"},{"bike_id":"0cb405f3-7bf4-4398-8434-282905dede0c","system_id":"levelo_inurba_marseille","lat":43.302992,"lon":5.392136,"is_reserved":false,"is_disabled":false,"rental_uris":{"android":"levelo://app?vid=0cb405f3-7bf4-4398-8434-282905dede0c","ios":"levelo://app?vid=0cb405f3-7bf4-4398-8434-282905dede0c"},"vehicle_type_id":"4","last_reported":1708409376,"current_range_meters":21600,"station_id":"ce4bgkh2rcd13ifvqbk0","pricing_plan_id":"cebpf4jnsgd1na2vs0mg"},{"bike_id":"38e678fc-a604-4448-95f0-758be9a976a8","system_id":"levelo_inurba_marseille","lat":43.292311,"lon":5.360731,"is_reserved":false,"is_disabled":false,"rental_uris":{"android":"levelo://app?vid=38e678fc-a604-4448-95f0-758be9a976a8","ios":"levelo://app?vid=38e678fc-a604-4448-95f0-758be9a976a8"},"vehicle_type_id":"4","last_reported":1708409376,"current_range_meters":8400,"station_id":"ce4bhbh2rcd13ifvqeqg","pricing_plan_id":"cebpf4jnsgd1na2vs0mg"},{"bike_id":"8e85443f-0ff0-4015-ae49-d413041c0343","system_id":"levelo_inurba_marseille","lat":43.292311,"lon":5.360731,"is_reserved":false,"is_disabled":false,"rental_uris":{"android":"levelo://app?vid=8e85443f-0ff0-4015-ae49-d413041c0343","ios":"levelo://app?vid=8e85443f-0ff0-4015-ae49-d413041c0343"},"vehicle_type_id":"4","last_reported":1708409376,"current_range_meters":21200,"station_id":"ce4bhbh2rcd13ifvqeqg","pricing_plan_id":"cebpf4jnsgd1na2vs0mg"},{"bike_id":"5daa5c1d-9385-484d-a521-2b4a15bfdd1c","system_id":"levelo_inurba_marseille","lat":43.292311,"lon":5.360731,"is_reserved":false,"is_disabled":false,"rental_uris":{"android":"levelo://app?vid=5daa5c1d-9385-484d-a521-2b4a15bfdd1c","ios":"levelo://app?vid=5daa5c1d-9385-484d-a521-2b4a15bfdd1c"},"vehicle_type_id":"4","last_reported":1708409376,"current_range_meters":8800,"station_id":"ce4bhbh2rcd13ifvqeqg","pricing_plan_id":"cebpf4jnsgd1na2vs0mg"},{"bike_id":"d6c3809c-1e8d-4616-a250-d7bb200b8a70","system_id":"levelo_inurba_marseille","lat":43.292311,"lon":5.360731,"is_reserved":false,"is_disabled":false,"rental_uris":{"android":"levelo://app?vid=d6c3809c-1e8d-4616-a250-d7bb200b8a70","ios":"levelo://app?vid=d6c3809c-1e8d-4616-a250-d7bb200b8a70"},"vehicle_type_id":"4","last_reported":1708409376,"current_range_meters":24000,"station_id":"ce4bhbh2rcd13ifvqeqg","pricing_plan_id":"cebpf4jnsgd1na2vs0mg"},{"bike_id":"73009c61-112b-484c-9179-3c70d56d1eb5","system_id":"levelo_inurba_marseille","lat":43.292311,"lon":5.360731,"is_reserved":false,"is_disabled":false,"rental_uris":{"android":"levelo://app?vid=73009c61-112b-484c-9179-3c70d56d1eb5","ios":"levelo://app?vid=73009c61-112b-484c-9179-3c70d56d1eb5"},"vehicle_type_id":"4","last_reported":1708409376,"current_range_meters":18800,"station_id":"ce4bhbh2rcd13ifvqeqg","pricing_plan_id":"cebpf4jnsgd1na2vs0mg"},{"bike_id":"f9d18a34-de10-46c7-8864-b6235bb7d3b7","system_id":"levelo_inurba_marseille","lat":43.292273,"lon":5.360481,"is_reserved":false,"is_disabled":false,"rental_uris":{"android":"levelo://app?vid=f9d18a34-de10-46c7-8864-b6235bb7d3b7","ios":"levelo://app?vid=f9d18a34-de10-46c7-8864-b6235bb7d3b7"},"vehicle_type_id":"4","last_reported":1708409376,"current_range_meters":19200,"station_id":"ce4bhbh2rcd13ifvqeqg","pricing_plan_id":"cebpf4jnsgd1na2vs0mg"},{"bike_id":"957c9593-4e58-44c9-b48e-7eb4d50ae96e","system_id":"levelo_inurba_marseille","lat":43.292311,"lon":5.360731,"is_reserved":false,"is_disabled":false,"rental_uris":{"android":"levelo://app?vid=957c9593-4e58-44c9-b48e-7eb4d50ae96e","ios":"levelo://app?vid=957c9593-4e58-44c9-b48e-7eb4d50ae96e"},"vehicle_type_id":"4","last_reported":1708409376,"current_range_meters":22800,"station_id":"ce4bhbh2rcd13ifvqeqg","pricing_plan_id":"cebpf4jnsgd1na2vs0mg"},{"bike_id":"f7a81959-4415-435d-a520-d41cd22ed438","system_id":"levelo_inurba_marseille","lat":43.292311,"lon":5.360731,"is_reserved":false,"is_disabled":false,"rental_uris":{"android":"levelo://app?vid=f7a81959-4415-435d-a520-d41cd22ed438","ios":"levelo://app?vid=f7a81959-4415-435d-a520-d41cd22ed438"},"vehicle_type_id":"4","last_reported":1708409376,"current_range_meters":20000,"station_id":"ce4bhbh2rcd13ifvqeqg","pricing_plan_id":"cebpf4jnsgd1na2vs0mg"},{"bike_id":"a00003a7-2781-49be-afbf-c71bb3c9e01a","system_id":"levelo_inurba_marseille","lat":43.292311,"lon":5.360731,"is_reserved":false,"is_disabled":false,"rental_uris":{"android":"levelo://app?vid=a00003a7-2781-49be-afbf-c71bb3c9e01a","ios":"levelo://app?vid=a00003a7-2781-49be-afbf-c71bb3c9e01a"},"vehicle_type_id":"4","last_reported":1708409376,"current_range_meters":25200,"station_id":"ce4bhbh2rcd13ifvqeqg","pricing_plan_id":"cebpf4jnsgd1na2vs0mg"},{"bike_id":"8ac9a789-ac66-4bfc-937c-cf8bf287d8d7","system_id":"levelo_inurba_marseille","lat":43.292311,"lon":5.360731,"is_reserved":false,"is_disabled":false,"rental_uris":{"android":"levelo://app?vid=8ac9a789-ac66-4bfc-937c-cf8bf287d8d7","ios":"levelo://app?vid=8ac9a789-ac66-4bfc-937c-cf8bf287d8d7"},"vehicle_type_id":"4","last_reported":1708409376,"current_range_meters":22000,"station_id":"ce4bhbh2rcd13ifvqeqg","pricing_plan_id":"cebpf4jnsgd1na2vs0mg"},{"bike_id":"4b27d897-22ea-4e3c-b737-f75584568374","system_id":"levelo_inurba_marseille","lat":43.292311,"lon":5.360731,"is_reserved":false,"is_disabled":false,"rental_uris":{"android":"levelo://app?vid=4b27d897-22ea-4e3c-b737-f75584568374","ios":"levelo://app?vid=4b27d897-22ea-4e3c-b737-f75584568374"},"vehicle_type_id":"4","last_reported":1708409376,"current_range_meters":31200,"station_id":"ce4bhbh2rcd13ifvqeqg","pricing_plan_id":"cebpf4jnsgd1na2vs0mg"},{"bike_id":"7f4d1554-7035-4dbb-a3b5-6508097fdee8","system_id":"levelo_inurba_marseille","lat":43.292194,"lon":5.360722,"is_reserved":false,"is_disabled":false,"rental_uris":{"android":"levelo://app?vid=7f4d1554-7035-4dbb-a3b5-6508097fdee8","ios":"levelo://app?vid=7f4d1554-7035-4dbb-a3b5-6508097fdee8"},"vehicle_type_id":"4","last_reported":1708409376,"current_range_meters":8000,"station_id":"ce4bhbh2rcd13ifvqeqg","pricing_plan_id":"cebpf4jnsgd1na2vs0mg"},{"bike_id":"d32053c2-016f-4013-bb17-9a396e2a21a4","system_id":"levelo_inurba_marseille","lat":43.29222,"lon":5.36054,"is_reserved":false,"is_disabled":false,"rental_uris":{"android":"levelo://app?vid=d32053c2-016f-4013-bb17-9a396e2a21a4","ios":"levelo://app?vid=d32053c2-016f-4013-bb17-9a396e2a21a4"},"vehicle_type_id":"4","last_reported":1708409376,"current_range_meters":27600,"station_id":"ce4bhbh2rcd13ifvqeqg","pricing_plan_id":"cebpf4jnsgd1na2vs0mg"},{"bike_id":"a5d49166-62fe-41bd-8bee-6062b26689ee","system_id":"levelo_inurba_marseille","lat":43.298764,"lon":5.388973,"is_reserved":false,"is_disabled":false,"rental_uris":{"android":"levelo://app?vid=a5d49166-62fe-41bd-8bee-6062b26689ee","ios":"levelo://app?vid=a5d49166-62fe-41bd-8bee-6062b26689ee"},"vehicle_type_id":"4","last_reported":1708409376,"current_range_meters":16800,"station_id":"ce4bh392rcd13ifvqdl0","pricing_plan_id":"cebpf4jnsgd1na2vs0mg"},{"bike_id":"a8adc832-7e45-4c41-9a91-6120d3fa77b4","system_id":"levelo_inurba_marseille","lat":43.298764,"lon":5.388973,"is_reserved":false,"is_disabled":false,"rental_uris":{"android":"levelo://app?vid=a8adc832-7e45-4c41-9a91-6120d3fa77b4","ios":"levelo://app?vid=a8adc832-7e45-4c41-9a91-6120d3fa77b4"},"vehicle_type_id":"4","last_reported":1708409376,"current_range_meters":31200,"station_id":"ce4bh392rcd13ifvqdl0","pricing_plan_id":"cebpf4jnsgd1na2vs0mg"},{"bike_id":"1c339fcf-c461-4568-8e69-9cacc51cddae","system_id":"levelo_inurba_marseille","lat":43.29878,"lon":5.38914,"is_reserved":false,"is_disabled":false,"rental_uris":{"android":"levelo://app?vid=1c339fcf-c461-4568-8e69-9cacc51cddae","ios":"levelo://app?vid=1c339fcf-c461-4568-8e69-9cacc51cddae"},"vehicle_type_id":"4","last_reported":1708409376,"current_range_meters":27200,"station_id":"ce4bh392rcd13ifvqdl0","pricing_plan_id":"cebpf4jnsgd1na2vs0mg"},{"bike_id":"6a8381fa-beae-4cdb-83bd-acb8b5135a35","system_id":"levelo_inurba_marseille","lat":43.298764,"lon":5.388973,"is_reserved":false,"is_disabled":false,"rental_uris":{"android":"levelo://app?vid=6a8381fa-beae-4cdb-83bd-acb8b5135a35","ios":"levelo://app?vid=6a8381fa-beae-4cdb-83bd-acb8b5135a35"},"vehicle_type_id":"4","last_reported":1708409376,"current_range_meters":12800,"station_id":"ce4bh392rcd13ifvqdl0","pricing_plan_id":"cebpf4jnsgd1na2vs0mg"},{"bike_id":"093cabbb-d2e2-4f04-8266-d10050297538","system_id":"levelo_inurba_marseille","lat":43.313291,"lon":5.396838,"is_reserved":false,"is_disabled":false,"rental_uris":{"android":"levelo://app?vid=093cabbb-d2e2-4f04-8266-d10050297538","ios":"levelo://app?vid=093cabbb-d2e2-4f04-8266-d10050297538"},"vehicle_type_id":"4","last_reported":1708409376,"current_range_meters":15600,"station_id":"ce4bgvp2rcd13ifvqcu0","pricing_plan_id":"cebpf4jnsgd1na2vs0mg"},{"bike_id":"9d0e2900-ebe6-4cd6-bbea-66e9a86adecf","system_id":"levelo_inurba_marseille","lat":43.308869,"lon":5.396306,"is_reserved":false,"is_disabled":false,"rental_uris":{"android":"levelo://app?vid=9d0e2900-ebe6-4cd6-bbea-66e9a86adecf","ios":"levelo://app?vid=9d0e2900-ebe6-4cd6-bbea-66e9a86adecf"},"vehicle_type_id":"4","last_reported":1708409376,"current_range_meters":27200,"station_id":"ce4bh012rcd13ifvqcv0","pricing_plan_id":"cebpf4jnsgd1na2vs0mg"},{"bike_id":"4802ada0-0665-4a98-92ad-22de5ae85841","system_id":"levelo_inurba_marseille","lat":43.309038,"lon":5.396546,"is_reserved":false,"is_disabled":false,"rental_uris":{"android":"levelo://app?vid=4802ada0-0665-4a98-92ad-22de5ae85841","ios":"levelo://app?vid=4802ada0-0665-4a98-92ad-22de5ae85841"},"vehicle_type_id":"4","last_reported":1708409376,"current_range_meters":9600,"station_id":"ce4bh012rcd13ifvqcv0","pricing_plan_id":"cebpf4jnsgd1na2vs0mg"},{"bike_id":"9f33d0f2-ce92-4065-a003-d3e306806f1d","system_id":"levelo_inurba_marseille","lat":43.308868,"lon":5.396339,"is_reserved":false,"is_disabled":false,"rental_uris":{"android":"levelo://app?vid=9f33d0f2-ce92-4065-a003-d3e306806f1d","ios":"levelo://app?vid=9f33d0f2-ce92-4065-a003-d3e306806f1d"},"vehicle_type_id":"4","last_reported":1708409376,"current_range_meters":22400,"station_id":"ce4bh012rcd13ifvqcv0","pricing_plan_id":"cebpf4jnsgd1na2vs0mg"},{"bike_id":"5a103a17-b3af-4569-9d8f-18c76ab68a3e","system_id":"levelo_inurba_marseille","lat":43.309038,"lon":5.396546,"is_reserved":false,"is_disabled":false,"rental_uris":{"android":"levelo://app?vid=5a103a17-b3af-4569-9d8f-18c76ab68a3e","ios":"levelo://app?vid=5a103a17-b3af-4569-9d8f-18c76ab68a3e"},"vehicle_type_id":"4","last_reported":1708409376,"current_range_meters":30400,"station_id":"ce4bh012rcd13ifvqcv0","pricing_plan_id":"cebpf4jnsgd1na2vs0mg"},{"bike_id":"4760f9b1-198f-4f50-ad70-2cad0de1d54a","system_id":"levelo_inurba_marseille","lat":43.309038,"lon":5.396546,"is_reserved":false,"is_disabled":false,"rental_uris":{"android":"levelo://app?vid=4760f9b1-198f-4f50-ad70-2cad0de1d54a","ios":"levelo://app?vid=4760f9b1-198f-4f50-ad70-2cad0de1d54a"},"vehicle_type_id":"4","last_reported":1708409376,"current_range_meters":25200,"station_id":"ce4bh012rcd13ifvqcv0","pricing_plan_id":"cebpf4jnsgd1na2vs0mg"},{"bike_id":"f56ab3ba-0120-4e74-8550-905d7dc0e3d1","system_id":"levelo_inurba_marseille","lat":43.309038,"lon":5.396546,"is_reserved":false,"is_disabled":false,"rental_uris":{"android":"levelo://app?vid=f56ab3ba-0120-4e74-8550-905d7dc0e3d1","ios":"levelo://app?vid=f56ab3ba-0120-4e74-8550-905d7dc0e3d1"},"vehicle_type_id":"4","last_reported":1708409376,"current_range_meters":31200,"station_id":"ce4bh012rcd13ifvqcv0","pricing_plan_id":"cebpf4jnsgd1na2vs0mg"},{"bike_id":"496762b4-ed93-457c-9ad5-0d07e9426156","system_id":"levelo_inurba_marseille","lat":43.291994,"lon":5.357886,"is_reserved":false,"is_disabled":false,"rental_uris":{"android":"levelo://app?vid=496762b4-ed93-457c-9ad5-0d07e9426156","ios":"levelo://app?vid=496762b4-ed93-457c-9ad5-0d07e9426156"},"vehicle_type_id":"4","last_reported":1708409376,"current_range_meters":22000,"station_id":"ce4bhb12rcd13ifvqel0","pricing_plan_id":"cebpf4jnsgd1na2vs0mg"},{"bike_id":"022ad871-0efc-4ba3-b813-6250f276730c","system_id":"levelo_inurba_marseille","lat":43.291994,"lon":5.357886,"is_reserved":false,"is_disabled":false,"rental_uris":{"android":"levelo://app?vid=022ad871-0efc-4ba3-b813-6250f276730c","ios":"levelo://app?vid=022ad871-0efc-4ba3-b813-6250f276730c"},"vehicle_type_id":"4","last_reported":1708409376,"current_range_meters":14800,"station_id":"ce4bhb12rcd13ifvqel0","pricing_plan_id":"cebpf4jnsgd1na2vs0mg"},{"bike_id":"7b6840d3-b456-424d-9408-420c15434363","system_id":"levelo_inurba_marseille","lat":43.313291,"lon":5.396838,"is_reserved":false,"is_disabled":false,"rental_uris":{"android":"levelo://app?vid=7b6840d3-b456-424d-9408-420c15434363","ios":"levelo://app?vid=7b6840d3-b456-424d-9408-420c15434363"},"vehicle_type_id":"4","last_reported":1708409376,"current_range_meters":14800,"station_id":"ce4bgvp2rcd13ifvqcu0","pricing_plan_id":"cebpf4jnsgd1na2vs0mg"},{"bike_id":"c8d4e7b1-b71b-4a97-9ef3-5eb5022c38c6","system_id":"levelo_inurba_marseille","lat":43.308838,"lon":5.3964,"is_reserved":false,"is_disabled":false,"rental_uris":{"android":"levelo://app?vid=c8d4e7b1-b71b-4a97-9ef3-5eb5022c38c6","ios":"levelo://app?vid=c8d4e7b1-b71b-4a97-9ef3-5eb5022c38c6"},"vehicle_type_id":"4","last_reported":1708409376,"current_range_meters":30400,"station_id":"ce4bh012rcd13ifvqcv0","pricing_plan_id":"cebpf4jnsgd1na2vs0mg"},{"bike_id":"6c4f712b-8037-4932-99eb-53873955d2e5","system_id":"levelo_inurba_marseille","lat":43.291994,"lon":5.357886,"is_reserved":false,"is_disabled":false,"rental_uris":{"android":"levelo://app?vid=6c4f712b-8037-4932-99eb-53873955d2e5","ios":"levelo://app?vid=6c4f712b-8037-4932-99eb-53873955d2e5"},"vehicle_type_id":"4","last_reported":1708409376,"current_range_meters":29200,"station_id":"ce4bhb12rcd13ifvqel0","pricing_plan_id":"cebpf4jnsgd1na2vs0mg"},{"bike_id":"89a88677-4412-4d78-8ef8-95e41e505077","system_id":"levelo_inurba_marseille","lat":43.3089,"lon":5.39642,"is_reserved":false,"is_disabled":false,"rental_uris":{"android":"levelo://app?vid=89a88677-4412-4d78-8ef8-95e41e505077","ios":"levelo://app?vid=89a88677-4412-4d78-8ef8-95e41e505077"},"vehicle_type_id":"4","last_reported":1708409376,"current_range_meters":29600,"station_id":"ce4bh012rcd13ifvqcv0","pricing_plan_id":"cebpf4jnsgd1na2vs0mg"},{"bike_id":"cb0639bd-179f-44e0-989b-e3b6a05b75a4","system_id":"levelo_inurba_marseille","lat":43.309038,"lon":5.396546,"is_reserved":false,"is_disabled":false,"rental_uris":{"android":"levelo://app?vid=cb0639bd-179f-44e0-989b-e3b6a05b75a4","ios":"levelo://app?vid=cb0639bd-179f-44e0-989b-e3b6a05b75a4"},"vehicle_type_id":"4","last_reported":1708409376,"current_range_meters":6000,"station_id":"ce4bh012rcd13ifvqcv0","pricing_plan_id":"cebpf4jnsgd1na2vs0mg"},{"bike_id":"86ae2794-98a4-4c6c-8dc2-0bd9e685c9e5","system_id":"levelo_inurba_marseille","lat":43.291994,"lon":5.357886,"is_reserved":false,"is_disabled":false,"rental_uris":{"android":"levelo://app?vid=86ae2794-98a4-4c6c-8dc2-0bd9e685c9e5","ios":"levelo://app?vid=86ae2794-98a4-4c6c-8dc2-0bd9e685c9e5"},"vehicle_type_id":"4","last_reported":1708409376,"current_range_meters":29600,"station_id":"ce4bhb12rcd13ifvqel0","pricing_plan_id":"cebpf4jnsgd1na2vs0mg"},{"bike_id":"41bb197a-f577-42a2-a136-d167378f2a20","system_id":"levelo_inurba_marseille","lat":43.30887,"lon":5.39642,"is_reserved":false,"is_disabled":false,"rental_uris":{"android":"levelo://app?vid=41bb197a-f577-42a2-a136-d167378f2a20","ios":"levelo://app?vid=41bb197a-f577-42a2-a136-d167378f2a20"},"vehicle_type_id":"4","last_reported":1708409376,"current_range_meters":28000,"station_id":"ce4bh012rcd13ifvqcv0","pricing_plan_id":"cebpf4jnsgd1na2vs0mg"},{"bike_id":"7bb7ab0c-3a6a-41a9-8d84-9083bd06ac4c","system_id":"levelo_inurba_marseille","lat":43.291912,"lon":5.358041,"is_reserved":false,"is_disabled":false,"rental_uris":{"android":"levelo://app?vid=7bb7ab0c-3a6a-41a9-8d84-9083bd06ac4c","ios":"levelo://app?vid=7bb7ab0c-3a6a-41a9-8d84-9083bd06ac4c"},"vehicle_type_id":"4","last_reported":1708409376,"current_range_meters":21600,"station_id":"ce4bhb12rcd13ifvqel0","pricing_plan_id":"cebpf4jnsgd1na2vs0mg"},{"bike_id":"459f022d-a2e8-40be-a89b-61f69356a3de","system_id":"levelo_inurba_marseille","lat":43.313291,"lon":5.396838,"is_reserved":false,"is_disabled":false,"rental_uris":{"android":"levelo://app?vid=459f022d-a2e8-40be-a89b-61f69356a3de","ios":"levelo://app?vid=459f022d-a2e8-40be-a89b-61f69356a3de"},"vehicle_type_id":"4","last_reported":1708409376,"current_range_meters":15200,"station_id":"ce4bgvp2rcd13ifvqcu0","pricing_plan_id":"cebpf4jnsgd1na2vs0mg"},{"bike_id":"5c2bb1cb-cdf1-4d3e-a120-6a49abc38c4f","system_id":"levelo_inurba_marseille","lat":43.30891,"lon":5.39644,"is_reserved":false,"is_disabled":false,"rental_uris":{"android":"levelo://app?vid=5c2bb1cb-cdf1-4d3e-a120-6a49abc38c4f","ios":"levelo://app?vid=5c2bb1cb-cdf1-4d3e-a120-6a49abc38c4f"},"vehicle_type_id":"4","last_reported":1708409376,"current_range_meters":20800,"station_id":"ce4bh012rcd13ifvqcv0","pricing_plan_id":"cebpf4jnsgd1na2vs0mg"},{"bike_id":"b8a24971-25ad-4674-ae1a-8fdff4dab901","system_id":"levelo_inurba_marseille","lat":43.291994,"lon":5.357886,"is_reserved":false,"is_disabled":false,"rental_uris":{"android":"levelo://app?vid=b8a24971-25ad-4674-ae1a-8fdff4dab901","ios":"levelo://app?vid=b8a24971-25ad-4674-ae1a-8fdff4dab901"},"vehicle_type_id":"4","last_reported":1708409376,"current_range_meters":30400,"station_id":"ce4bhb12rcd13ifvqel0","pricing_plan_id":"cebpf4jnsgd1na2vs0mg"},{"bike_id":"c256e8eb-5561-44ca-aa79-c951a04ed417","system_id":"levelo_inurba_marseille","lat":43.309038,"lon":5.396546,"is_reserved":false,"is_disabled":false,"rental_uris":{"android":"levelo://app?vid=c256e8eb-5561-44ca-aa79-c951a04ed417","ios":"levelo://app?vid=c256e8eb-5561-44ca-aa79-c951a04ed417"},"vehicle_type_id":"4","last_reported":1708409376,"current_range_meters":20800,"station_id":"ce4bh012rcd13ifvqcv0","pricing_plan_id":"cebpf4jnsgd1na2vs0mg"},{"bike_id":"e4bf0dce-11c7-4b90-911c-1cef4a9970b8","system_id":"levelo_inurba_marseille","lat":43.309038,"lon":5.396546,"is_reserved":false,"is_disabled":false,"rental_uris":{"android":"levelo://app?vid=e4bf0dce-11c7-4b90-911c-1cef4a9970b8","ios":"levelo://app?vid=e4bf0dce-11c7-4b90-911c-1cef4a9970b8"},"vehicle_type_id":"4","last_reported":1708409376,"current_range_meters":26400,"station_id":"ce4bh012rcd13ifvqcv0","pricing_plan_id":"cebpf4jnsgd1na2vs0mg"},{"bike_id":"c5851c0f-3d56-4a61-9402-4308a5c9f91c","system_id":"levelo_inurba_marseille","lat":43.313291,"lon":5.396838,"is_reserved":false,"is_disabled":false,"rental_uris":{"android":"levelo://app?vid=c5851c0f-3d56-4a61-9402-4308a5c9f91c","ios":"levelo://app?vid=c5851c0f-3d56-4a61-9402-4308a5c9f91c"},"vehicle_type_id":"4","last_reported":1708409376,"current_range_meters":24800,"station_id":"ce4bgvp2rcd13ifvqcu0","pricing_plan_id":"cebpf4jnsgd1na2vs0mg"},{"bike_id":"aa267cf0-a8e2-4082-ba2e-7ea6faa77ed2","system_id":"levelo_inurba_marseille","lat":43.30886,"lon":5.39647,"is_reserved":false,"is_disabled":false,"rental_uris":{"android":"levelo://app?vid=aa267cf0-a8e2-4082-ba2e-7ea6faa77ed2","ios":"levelo://app?vid=aa267cf0-a8e2-4082-ba2e-7ea6faa77ed2"},"vehicle_type_id":"4","last_reported":1708409376,"current_range_meters":11600,"station_id":"ce4bh012rcd13ifvqcv0","pricing_plan_id":"cebpf4jnsgd1na2vs0mg"},{"bike_id":"0363c036-45a3-429e-ad04-d981cdc4b432","system_id":"levelo_inurba_marseille","lat":43.308878,"lon":5.396476,"is_reserved":false,"is_disabled":false,"rental_uris":{"android":"levelo://app?vid=0363c036-45a3-429e-ad04-d981cdc4b432","ios":"levelo://app?vid=0363c036-45a3-429e-ad04-d981cdc4b432"},"vehicle_type_id":"4","last_reported":1708409376,"current_range_meters":23600,"station_id":"ce4bh012rcd13ifvqcv0","pricing_plan_id":"cebpf4jnsgd1na2vs0mg"},{"bike_id":"c35b1c73-8760-4c1e-af98-17ca5ba0cbcb","system_id":"levelo_inurba_marseille","lat":43.309038,"lon":5.396546,"is_reserved":false,"is_disabled":false,"rental_uris":{"android":"levelo://app?vid=c35b1c73-8760-4c1e-af98-17ca5ba0cbcb","ios":"levelo://app?vid=c35b1c73-8760-4c1e-af98-17ca5ba0cbcb"},"vehicle_type_id":"4","last_reported":1708409376,"current_range_meters":18800,"station_id":"ce4bh012rcd13ifvqcv0","pricing_plan_id":"cebpf4jnsgd1na2vs0mg"},{"bike_id":"1fc12ce2-a675-4af7-9f36-fbefc6f53fbb","system_id":"levelo_inurba_marseille","lat":43.31328,"lon":5.39696,"is_reserved":false,"is_disabled":false,"rental_uris":{"android":"levelo://app?vid=1fc12ce2-a675-4af7-9f36-fbefc6f53fbb","ios":"levelo://app?vid=1fc12ce2-a675-4af7-9f36-fbefc6f53fbb"},"vehicle_type_id":"4","last_reported":1708409376,"current_range_meters":30800,"station_id":"ce4bgvp2rcd13ifvqcu0","pricing_plan_id":"cebpf4jnsgd1na2vs0mg"},{"bike_id":"ab0a9637-9204-474a-93e7-da3d26eaf320","system_id":"levelo_inurba_marseille","lat":43.313291,"lon":5.396838,"is_reserved":false,"is_disabled":false,"rental_uris":{"android":"levelo://app?vid=ab0a9637-9204-474a-93e7-da3d26eaf320","ios":"levelo://app?vid=ab0a9637-9204-474a-93e7-da3d26eaf320"},"vehicle_type_id":"4","last_reported":1708409376,"current_range_meters":27200,"station_id":"ce4bgvp2rcd13ifvqcu0","pricing_plan_id":"cebpf4jnsgd1na2vs0mg"},{"bike_id":"da367d11-5361-4c10-82f2-f255d1ad2afe","system_id":"levelo_inurba_marseille","lat":43.308817,"lon":5.396502,"is_reserved":false,"is_disabled":false,"rental_uris":{"android":"levelo://app?vid=da367d11-5361-4c10-82f2-f255d1ad2afe","ios":"levelo://app?vid=da367d11-5361-4c10-82f2-f255d1ad2afe"},"vehicle_type_id":"4","last_reported":1708409376,"current_range_meters":5200,"station_id":"ce4bh012rcd13ifvqcv0","pricing_plan_id":"cebpf4jnsgd1na2vs0mg"},{"bike_id":"3d03c3fc-bbbe-4f4f-845e-c21932c1a48c","system_id":"levelo_inurba_marseille","lat":43.290741,"lon":5.366042,"is_reserved":false,"is_disabled":false,"rental_uris":{"android":"levelo://app?vid=3d03c3fc-bbbe-4f4f-845e-c21932c1a48c","ios":"levelo://app?vid=3d03c3fc-bbbe-4f4f-845e-c21932c1a48c"},"vehicle_type_id":"4","last_reported":1708409376,"current_range_meters":14800,"station_id":"","pricing_plan_id":"cebpf4jnsgd1na2vs0mg"},{"bike_id":"9dc283db-afd2-47e9-a7db-ec35190ad2f1","system_id":"levelo_inurba_marseille","lat":43.29529,"lon":5.385581,"is_reserved":false,"is_disabled":false,"rental_uris":{"android":"levelo://app?vid=9dc283db-afd2-47e9-a7db-ec35190ad2f1","ios":"levelo://app?vid=9dc283db-afd2-47e9-a7db-ec35190ad2f1"},"vehicle_type_id":"4","last_reported":1708409376,"current_range_meters":28000,"station_id":"ce4bgih2rcd13ifvqba0","pricing_plan_id":"cebpf4jnsgd1na2vs0mg"},{"bike_id":"113b5df0-06f8-432e-9644-6329de3156dc","system_id":"levelo_inurba_marseille","lat":43.302008,"lon":5.394694,"is_reserved":false,"is_disabled":false,"rental_uris":{"android":"levelo://app?vid=113b5df0-06f8-432e-9644-6329de3156dc","ios":"levelo://app?vid=113b5df0-06f8-432e-9644-6329de3156dc"},"vehicle_type_id":"4","last_reported":1708409376,"current_range_meters":26800,"station_id":"ce4bh0p2rcd13ifvqd70","pricing_plan_id":"cebpf4jnsgd1na2vs0mg"},{"bike_id":"ddfe9a5e-8d45-4eb0-bf2d-b08104b9e6f3","system_id":"levelo_inurba_marseille","lat":43.302131,"lon":5.394693,"is_reserved":false,"is_disabled":false,"rental_uris":{"android":"levelo://app?vid=ddfe9a5e-8d45-4eb0-bf2d-b08104b9e6f3","ios":"levelo://app?vid=ddfe9a5e-8d45-4eb0-bf2d-b08104b9e6f3"},"vehicle_type_id":"4","last_reported":1708409376,"current_range_meters":3600,"station_id":"ce4bh0p2rcd13ifvqd70","pricing_plan_id":"cebpf4jnsgd1na2vs0mg"},{"bike_id":"496089c7-353d-4481-ba0a-065883f649b8","system_id":"levelo_inurba_marseille","lat":43.30205,"lon":5.39473,"is_reserved":false,"is_disabled":false,"rental_uris":{"android":"levelo://app?vid=496089c7-353d-4481-ba0a-065883f649b8","ios":"levelo://app?vid=496089c7-353d-4481-ba0a-065883f649b8"},"vehicle_type_id":"4","last_reported":1708409376,"current_range_meters":18800,"station_id":"ce4bh0p2rcd13ifvqd70","pricing_plan_id":"cebpf4jnsgd1na2vs0mg"},{"bike_id":"9c7e6b98-a4b4-401e-8f43-02ee1cb7f319","system_id":"levelo_inurba_marseille","lat":43.302008,"lon":5.394694,"is_reserved":false,"is_disabled":false,"rental_uris":{"android":"levelo://app?vid=9c7e6b98-a4b4-401e-8f43-02ee1cb7f319","ios":"levelo://app?vid=9c7e6b98-a4b4-401e-8f43-02ee1cb7f319"},"vehicle_type_id":"4","last_reported":1708409376,"current_range_meters":31200,"station_id":"ce4bh0p2rcd13ifvqd70","pricing_plan_id":"cebpf4jnsgd1na2vs0mg"},{"bike_id":"3554f62c-eace-48ed-829e-b36afdb688b9","system_id":"levelo_inurba_marseille","lat":43.302008,"lon":5.394694,"is_reserved":false,"is_disabled":false,"rental_uris":{"android":"levelo://app?vid=3554f62c-eace-48ed-829e-b36afdb688b9","ios":"levelo://app?vid=3554f62c-eace-48ed-829e-b36afdb688b9"},"vehicle_type_id":"4","last_reported":1708409376,"current_range_meters":24800,"station_id":"ce4bh0p2rcd13ifvqd70","pricing_plan_id":"cebpf4jnsgd1na2vs0mg"},{"bike_id":"5dc83fb2-0629-4ad0-be5e-663f24091090","system_id":"levelo_inurba_marseille","lat":43.290624,"lon":5.359245,"is_reserved":false,"is_disabled":false,"rental_uris":{"android":"levelo://app?vid=5dc83fb2-0629-4ad0-be5e-663f24091090","ios":"levelo://app?vid=5dc83fb2-0629-4ad0-be5e-663f24091090"},"vehicle_type_id":"4","last_reported":1708409376,"current_range_meters":28000,"station_id":"ce4bha92rcd13ifvqeg0","pricing_plan_id":"cebpf4jnsgd1na2vs0mg"},{"bike_id":"c662e9d1-5a66-4b42-822d-fcc8221d0a4e","system_id":"levelo_inurba_marseille","lat":43.290631,"lon":5.359244,"is_reserved":false,"is_disabled":false,"rental_uris":{"android":"levelo://app?vid=c662e9d1-5a66-4b42-822d-fcc8221d0a4e","ios":"levelo://app?vid=c662e9d1-5a66-4b42-822d-fcc8221d0a4e"},"vehicle_type_id":"4","last_reported":1708409376,"current_range_meters":28800,"station_id":"ce4bha92rcd13ifvqeg0","pricing_plan_id":"cebpf4jnsgd1na2vs0mg"},{"bike_id":"a32df588-7861-4d35-8a36-3120498d3b8f","system_id":"levelo_inurba_marseille","lat":43.290631,"lon":5.359244,"is_reserved":false,"is_disabled":false,"rental_uris":{"android":"levelo://app?vid=a32df588-7861-4d35-8a36-3120498d3b8f","ios":"levelo://app?vid=a32df588-7861-4d35-8a36-3120498d3b8f"},"vehicle_type_id":"4","last_reported":1708409376,"current_range_meters":31200,"station_id":"ce4bha92rcd13ifvqeg0","pricing_plan_id":"cebpf4jnsgd1na2vs0mg"},{"bike_id":"f3621e31-2802-4d00-9575-e569e4cadbd9","system_id":"levelo_inurba_marseille","lat":43.290624,"lon":5.359245,"is_reserved":false,"is_disabled":false,"rental_uris":{"android":"levelo://app?vid=f3621e31-2802-4d00-9575-e569e4cadbd9","ios":"levelo://app?vid=f3621e31-2802-4d00-9575-e569e4cadbd9"},"vehicle_type_id":"4","last_reported":1708409376,"current_range_meters":28800,"station_id":"ce4bha92rcd13ifvqeg0","pricing_plan_id":"cebpf4jnsgd1na2vs0mg"},{"bike_id":"5d03cc1e-44e0-4eed-bdba-6983e04ab8f5","system_id":"levelo_inurba_marseille","lat":43.290631,"lon":5.359244,"is_reserved":false,"is_disabled":false,"rental_uris":{"android":"levelo://app?vid=5d03cc1e-44e0-4eed-bdba-6983e04ab8f5","ios":"levelo://app?vid=5d03cc1e-44e0-4eed-bdba-6983e04ab8f5"},"vehicle_type_id":"4","last_reported":1708409376,"current_range_meters":23200,"station_id":"ce4bha92rcd13ifvqeg0","pricing_plan_id":"cebpf4jnsgd1na2vs0mg"},{"bike_id":"0c7a0d5d-6c59-49e5-877a-8bcd82d44732","system_id":"levelo_inurba_marseille","lat":43.290322,"lon":5.375509,"is_reserved":false,"is_disabled":false,"rental_uris":{"android":"levelo://app?vid=0c7a0d5d-6c59-49e5-877a-8bcd82d44732","ios":"levelo://app?vid=0c7a0d5d-6c59-49e5-877a-8bcd82d44732"},"vehicle_type_id":"4","last_reported":1708409376,"current_range_meters":30000,"station_id":"ce4bh692rcd13ifvqe90","pricing_plan_id":"cebpf4jnsgd1na2vs0mg"},{"bike_id":"6edab4dc-4776-410a-9ad3-d38857e37d3d","system_id":"levelo_inurba_marseille","lat":43.29416,"lon":5.38624,"is_reserved":false,"is_disabled":false,"rental_uris":{"android":"levelo://app?vid=6edab4dc-4776-410a-9ad3-d38857e37d3d","ios":"levelo://app?vid=6edab4dc-4776-410a-9ad3-d38857e37d3d"},"vehicle_type_id":"4","last_reported":1708409376,"current_range_meters":31200,"station_id":"ce4bh2h2rcd13ifvqdh0","pricing_plan_id":"cebpf4jnsgd1na2vs0mg"},{"bike_id":"a4d4c235-7441-426c-b324-bd9d8f9f9e50","system_id":"levelo_inurba_marseille","lat":43.2942,"lon":5.38633,"is_reserved":false,"is_disabled":false,"rental_uris":{"android":"levelo://app?vid=a4d4c235-7441-426c-b324-bd9d8f9f9e50","ios":"levelo://app?vid=a4d4c235-7441-426c-b324-bd9d8f9f9e50"},"vehicle_type_id":"4","last_reported":1708409376,"current_range_meters":29600,"station_id":"ce4bh2h2rcd13ifvqdh0","pricing_plan_id":"cebpf4jnsgd1na2vs0mg"},{"bike_id":"f977660f-f98e-4a5a-9672-3631be908a7c","system_id":"levelo_inurba_marseille","lat":43.292644,"lon":5.384257,"is_reserved":false,"is_disabled":false,"rental_uris":{"android":"levelo://app?vid=f977660f-f98e-4a5a-9672-3631be908a7c","ios":"levelo://app?vid=f977660f-f98e-4a5a-9672-3631be908a7c"},"vehicle_type_id":"4","last_reported":1708409376,"current_range_meters":22400,"station_id":"ce4bh692rcd13ifvqea0","pricing_plan_id":"cebpf4jnsgd1na2vs0mg"},{"bike_id":"58649ad8-6739-4580-849e-401fdebb97e4","system_id":"levelo_inurba_marseille","lat":43.289184,"lon":5.366408,"is_reserved":false,"is_disabled":false,"rental_uris":{"android":"levelo://app?vid=58649ad8-6739-4580-849e-401fdebb97e4","ios":"levelo://app?vid=58649ad8-6739-4580-849e-401fdebb97e4"},"vehicle_type_id":"4","last_reported":1708409376,"current_range_meters":2400,"station_id":"ce4bhap2rcd13ifvqek0","pricing_plan_id":"cebpf4jnsgd1na2vs0mg"},{"bike_id":"7be16c38-c126-4ef6-bb63-caf198488d69","system_id":"levelo_inurba_marseille","lat":43.289184,"lon":5.366408,"is_reserved":false,"is_disabled":false,"rental_uris":{"android":"levelo://app?vid=7be16c38-c126-4ef6-bb63-caf198488d69","ios":"levelo://app?vid=7be16c38-c126-4ef6-bb63-caf198488d69"},"vehicle_type_id":"4","last_reported":1708409376,"current_range_meters":23200,"station_id":"ce4bhap2rcd13ifvqek0","pricing_plan_id":"cebpf4jnsgd1na2vs0mg"},{"bike_id":"d5d47f8c-3d8a-464e-86bc-8dfa7522ca40","system_id":"levelo_inurba_marseille","lat":43.290327,"lon":5.375711,"is_reserved":false,"is_disabled":false,"rental_uris":{"android":"levelo://app?vid=d5d47f8c-3d8a-464e-86bc-8dfa7522ca40","ios":"levelo://app?vid=d5d47f8c-3d8a-464e-86bc-8dfa7522ca40"},"vehicle_type_id":"4","last_reported":1708409376,"current_range_meters":26000,"station_id":"ce4bh692rcd13ifvqe90","pricing_plan_id":"cebpf4jnsgd1na2vs0mg"},{"bike_id":"e025a730-7321-48c5-879f-e8718205d385","system_id":"levelo_inurba_marseille","lat":43.29414,"lon":5.38635,"is_reserved":false,"is_disabled":false,"rental_uris":{"android":"levelo://app?vid=e025a730-7321-48c5-879f-e8718205d385","ios":"levelo://app?vid=e025a730-7321-48c5-879f-e8718205d385"},"vehicle_type_id":"4","last_reported":1708409376,"current_range_meters":31200,"station_id":"ce4bh2h2rcd13ifvqdh0","pricing_plan_id":"cebpf4jnsgd1na2vs0mg"},{"bike_id":"ba2ad5c0-8994-43c1-817c-9699909bb27a","system_id":"levelo_inurba_marseille","lat":43.289184,"lon":5.366408,"is_reserved":false,"is_disabled":false,"rental_uris":{"android":"levelo://app?vid=ba2ad5c0-8994-43c1-817c-9699909bb27a","ios":"levelo://app?vid=ba2ad5c0-8994-43c1-817c-9699909bb27a"},"vehicle_type_id":"4","last_reported":1708409376,"current_range_meters":30400,"station_id":"ce4bhap2rcd13ifvqek0","pricing_plan_id":"cebpf4jnsgd1na2vs0mg"},{"bike_id":"2a213f6e-ebaa-4f39-b5a6-e49b725a1e90","system_id":"levelo_inurba_marseille","lat":43.289184,"lon":5.366408,"is_reserved":false,"is_disabled":false,"rental_uris":{"android":"levelo://app?vid=2a213f6e-ebaa-4f39-b5a6-e49b725a1e90","ios":"levelo://app?vid=2a213f6e-ebaa-4f39-b5a6-e49b725a1e90"},"vehicle_type_id":"4","last_reported":1708409376,"current_range_meters":26000,"station_id":"ce4bhap2rcd13ifvqek0","pricing_plan_id":"cebpf4jnsgd1na2vs0mg"},{"bike_id":"6f019a7d-b778-4691-a788-a594b7368705","system_id":"levelo_inurba_marseille","lat":43.289184,"lon":5.366408,"is_reserved":false,"is_disabled":false,"rental_uris":{"android":"levelo://app?vid=6f019a7d-b778-4691-a788-a594b7368705","ios":"levelo://app?vid=6f019a7d-b778-4691-a788-a594b7368705"},"vehicle_type_id":"4","last_reported":1708409376,"current_range_meters":30000,"station_id":"ce4bhap2rcd13ifvqek0","pricing_plan_id":"cebpf4jnsgd1na2vs0mg"},{"bike_id":"a0adad83-c911-4527-9595-004dd160d60c","system_id":"levelo_inurba_marseille","lat":43.289184,"lon":5.366408,"is_reserved":false,"is_disabled":false,"rental_uris":{"android":"levelo://app?vid=a0adad83-c911-4527-9595-004dd160d60c","ios":"levelo://app?vid=a0adad83-c911-4527-9595-004dd160d60c"},"vehicle_type_id":"4","last_reported":1708409376,"current_range_meters":30800,"station_id":"ce4bhap2rcd13ifvqek0","pricing_plan_id":"cebpf4jnsgd1na2vs0mg"},