{"last_updated":1768980002,"ttl":60,"version":"2.2","data":{"bikes":[{"bike_id":"c19f1c0d-1d29-440c-b073-294df149db54","system_id":"levelo_inurba_marseille","lat":43.31263,"lon":5.40206,"is_reserved":false,"is_disabled":false,"rental_uris":{"android":"levelo://app?vid=c19f1c0d-1d29-440c-b073-294df149db54","ios":"levelo://app?vid=c19f1c0d-1d29-440c-b073-294df149db54"},"vehicle_type_id":"4","last_reported":1768980003,"current_range_meters":2800,"station_id":"ce4bh092rcd13ifvqd30","pricing_plan_id":"cebpf4jnsgd1na2vs0mg"},{"bike_id":"065607da-c5aa-47d8-b9f2-13394469f206","system_id":"levelo_inurba_marseille","lat":43.23784,"lon":5.36643,"is_reserved":false,"is_disabled":false,"rental_uris":{"android":"levelo://app?vid=065607da-c5aa-47d8-b9f2-13394469f206","ios":"levelo://app?vid=065607da-c5aa-47d8-b9f2-13394469f206"},"vehicle_type_id":"4","last_reported":1768980003,"current_range_meters":2800,"station_id":"st_d3nk18o9ro0c73en2l3g","pricing_plan_id":"cebpf4jnsgd1na2vs0mg"},{"bike_id":"9a6fa9d6-bd85-41a0-a1be-8f3bc0337c0a","system_id":"levelo_inurba_marseille","lat":43.24467,"lon":5.42537,"is_reserved":false,"is_disabled":false,"rental_uris":{"android":"levelo://app?vid=9a6fa9d6-bd85-41a0-a1be-8f3bc0337c0a","ios":"levelo://app?vid=9a6fa9d6-bd85-41a0-a1be-8f3bc0337c0a"},"vehicle_type_id":"4","last_reported":1768980003,"current_range_meters":2800,"station_id":"st_d4a3vfp97mjs738cd8kg","pricing_plan_id":"cebpf4jnsgd1na2vs0mg"},{"bike_id":"ecb14014-2335-475e-b72f-b1e48b495e1a","system_id":"levelo_inurba_marseille","lat":43.26271,"lon":5.38882,"is_reserved":false,"is_disabled":false,"rental_uris":{"android":"levelo://app?vid=ecb14014-2335-475e-b72f-b1e48b495e1a","ios":"levelo://app?vid=ecb14014-2335-475e-b72f-b1e48b495e1a"},"vehicle_type_id":"4","last_reported":1768980003,"current_range_meters":2800,"station_id":"","pricing_plan_id":"cebpf4jnsgd1na2vs0mg"},{"bike_id":"5b9eb033-b02c-4503-b213-6457e2457b37","system_id":"levelo_inurba_marseille","lat":43.30136,"lon":5.38777,"is_reserved":false,"is_disabled":true,"rental_uris":{"android":"levelo://app?vid=5b9eb033-b02c-4503-b213-6457e2457b37","ios":"levelo://app?vid=5b9eb033-b02c-4503-b213-6457e2457b37"},"vehicle_type_id":"4","last_reported":1768980003,"current_range_meters":2800,"station_id":"ce4bghh2rcd13ifvqb60","pricing_plan_id":"cebpf4jnsgd1na2vs0mg"},{"bike_id":"e3caaaee-f8d9-44b6-b3d8-e04b5e8c88ba","system_id":"levelo_inurba_marseille","lat":43.27815,"lon":5.40732,"is_reserved":false,"is_disabled":false,"rental_uris":{"android":"levelo://app?vid=e3caaaee-f8d9-44b6-b3d8-e04b5e8c88ba","ios":"levelo://app?vid=e3caaaee-f8d9-44b6-b3d8-e04b5e8c88ba"},"vehicle_type_id":"4","last_reported":1768980003,"current_range_meters":2800,"station_id":"ce4bhnh2rcd13ifvqgtg","pricing_plan_id":"cebpf4jnsgd1na2vs0mg"},{"bike_id":"80ebedea-4857-4f78-b9b4-9e675ef9b1cc","system_id":"levelo_inurba_marseille","lat":43.27207,"lon":5.39185,"is_reserved":false,"is_disabled":false,"rental_uris":{"android":"levelo://app?vid=80ebedea-4857-4f78-b9b4-9e675ef9b1cc","ios":"levelo://app?vid=80ebedea-4857-4f78-b9b4-9e675ef9b1cc"},"vehicle_type_id":"4","last_reported":1768980003,"current_range_meters":2800,"station_id":"ce4bhhp2rcd13ifvqfm0","pricing_plan_id":"cebpf4jnsgd1na2vs0mg"},{"bike_id":"d1656b93-1b71-4e85-bf98-22a1e92bb468","system_id":"levelo_inurba_marseille","lat":43.28874,"lon":5.4251,"is_reserved":false,"is_disabled":false,"rental_uris":{"android":"levelo://app?vid=d1656b93-1b71-4e85-bf98-22a1e92bb468","ios":"levelo://app?vid=d1656b93-1b71-4e85-bf98-22a1e92bb468"},"vehicle_type_id":"4","last_reported":1768980003,"current_range_meters":2800,"station_id":"st_d3b462108ojc7389ooeg","pricing_plan_id":"cebpf4jnsgd1na2vs0mg"},{"bike_id":"5835b14c-9251-4a59-b67d-546209995c34","system_id":"levelo_inurba_marseille","lat":43.268746,"lon":5.38551,"is_reserved":false,"is_disabled":false,"rental_uris":{"android":"levelo://app?vid=5835b14c-9251-4a59-b67d-546209995c34","ios":"levelo://app?vid=5835b14c-9251-4a59-b67d-546209995c34"},"vehicle_type_id":"4","last_reported":1768980003,"current_range_meters":2800,"station_id":"ce4bhg92rcd13ifvqf90","pricing_plan_id":"cebpf4jnsgd1na2vs0mg"},{"bike_id":"ec6e008a-cfa9-450a-9379-4f7ff17c7785","system_id":"levelo_inurba_marseille","lat":43.30152,"lon":5.38108,"is_reserved":false,"is_disabled":false,"rental_uris":{"android":"levelo://app?vid=ec6e008a-cfa9-450a-9379-4f7ff17c7785","ios":"levelo://app?vid=ec6e008a-cfa9-450a-9379-4f7ff17c7785"},"vehicle_type_id":"4","last_reported":1768980003,"current_range_meters":2800,"station_id":"ce4bgjp2rcd13ifvqbh0","pricing_plan_id":"cebpf4jnsgd1na2vs0mg"},{"bike_id":"84169636-b7d0-4f4e-9d3b-d547d59ccce5","system_id":"levelo_inurba_marseille","lat":43.25332,"lon":5.42174,"is_reserved":false,"is_disabled":false,"rental_uris":{"android":"levelo://app?vid=84169636-b7d0-4f4e-9d3b-d547d59ccce5","ios":"levelo://app?vid=84169636-b7d0-4f4e-9d3b-d547d59ccce5"},"vehicle_type_id":"4","last_reported":1768980003,"current_range_meters":3200,"station_id":"st_d2m65c5bi1j21697t3ng","pricing_plan_id":"cebpf4jnsgd1na2vs0mg"},{"bike_id":"2351e1c9-97c0-42ed-8ba7-93d168c64106","system_id":"levelo_inurba_marseille","lat":43.29764,"lon":5.42779,"is_reserved":false,"is_disabled":false,"rental_uris":{"android":"levelo://app?vid=2351e1c9-97c0-42ed-8ba7-93d168c64106","ios":"levelo://app?vid=2351e1c9-97c0-42ed-8ba7-93d168c64106"},"vehicle_type_id":"4","last_reported":1768980003,"current_range_meters":3200,"station_id":"st_d3md5207bmas73dh9klg","pricing_plan_id":"cebpf4jnsgd1na2vs0mg"},{"bike_id":"09862818-671a-4376-a7a2-2bb4e426d3ba","system_id":"levelo_inurba_marseille","lat":43.30403,"lon":5.412764,"is_reserved":false,"is_disabled":false,"rental_uris":{"android":"levelo://app?vid=09862818-671a-4376-a7a2-2bb4e426d3ba","ios":"levelo://app?vid=09862818-671a-4376-a7a2-2bb4e426d3ba"},"vehicle_type_id":"4","last_reported":1768980003,"current_range_meters":3200,"station_id":"ce4bhop2rcd13ifvqh8g","pricing_plan_id":"cebpf4jnsgd1na2vs0mg"},{"bike_id":"e1a94992-82c5-4a6f-b35e-2ede9fbc9a60","system_id":"levelo_inurba_marseille","lat":43.29502,"lon":5.39413,"is_reserved":false,"is_disabled":false,"rental_uris":{"android":"levelo://app?vid=e1a94992-82c5-4a6f-b35e-2ede9fbc9a60","ios":"levelo://app?vid=e1a94992-82c5-4a6f-b35e-2ede9fbc9a60"},"vehicle_type_id":"4","last_reported":1768980003,"current_range_meters":3200,"station_id":"ce4bh292rcd13ifvqdf0","pricing_plan_id":"cebpf4jnsgd1na2vs0mg"},{"bike_id":"40e2667e-f23a-4ded-8ddb-fef4d5eb0dfe","system_id":"levelo_inurba_marseille","lat":43.255046,"lon":5.37658,"is_reserved":false,"is_disabled":false,"rental_uris":{"android":"levelo://app?vid=40e2667e-f23a-4ded-8ddb-fef4d5eb0dfe","ios":"levelo://app?vid=40e2667e-f23a-4ded-8ddb-fef4d5eb0dfe"},"vehicle_type_id":"4","last_reported":1768980003,"current_range_meters":3200,"station_id":"ce4bhh12rcd13ifvqff0","pricing_plan_id":"cebpf4jnsgd1na2vs0mg"},{"bike_id":"6c3a5c15-7423-4a25-87ba-05f3c8d2d87e","system_id":"levelo_inurba_marseille","lat":43.32323,"lon":5.36747,"is_reserved":false,"is_disabled":false,"rental_uris":{"android":"levelo://app?vid=6c3a5c15-7423-4a25-87ba-05f3c8d2d87e","ios":"levelo://app?vid=6c3a5c15-7423-4a25-87ba-05f3c8d2d87e"},"vehicle_type_id":"4","last_reported":1768980003,"current_range_meters":3200,"station_id":"ce4bhsh2rcd13ifvqi2g","pricing_plan_id":"cebpf4jnsgd1na2vs0mg"},{"bike_id":"074d07c8-c853-41a8-84e3-2b158c41d484","system_id":"levelo_inurba_marseille","lat":43.30254,"lon":5.40099,"is_reserved":false,"is_disabled":false,"rental_uris":{"android":"levelo://app?vid=074d07c8-c853-41a8-84e3-2b158c41d484","ios":"levelo://app?vid=074d07c8-c853-41a8-84e3-2b158c41d484"},"vehicle_type_id":"4","last_reported":1768980003,"current_range_meters":3200,"station_id":"ce4bgvh2rcd13ifvqcs0","pricing_plan_id":"cebpf4jnsgd1na2vs0mg"},{"bike_id":"37992cab-e414-4704-a71b-2d66f705684d","system_id":"levelo_inurba_marseille","lat":43.283514,"lon":5.381051,"is_reserved":false,"is_disabled":false,"rental_uris":{"android":"levelo://app?vid=37992cab-e414-4704-a71b-2d66f705684d","ios":"levelo://app?vid=37992cab-e414-4704-a71b-2d66f705684d"},"vehicle_type_id":"4","last_reported":1768980003,"current_range_meters":3600,"station_id":"ce4bh412rcd13ifvqdr0","pricing_plan_id":"cebpf4jnsgd1na2vs0mg"},{"bike_id":"559d694f-c798-4c2d-9960-32d42b032eab","system_id":"levelo_inurba_marseille","lat":43.2892,"lon":5.38398,"is_reserved":false,"is_disabled":false,"rental_uris":{"android":"levelo://app?vid=559d694f-c798-4c2d-9960-32d42b032eab","ios":"levelo://app?vid=559d694f-c798-4c2d-9960-32d42b032eab"},"vehicle_type_id":"4","last_reported":1768980003,"current_range_meters":3600,"station_id":"ce4bh612rcd13ifvqe6g","pricing_plan_id":"cebpf4jnsgd1na2vs0mg"},{"bike_id":"00c927a1-d08e-4450-95b2-0ac1a58c0a42","system_id":"levelo_inurba_marseille","lat":43.29683,"lon":5.3661,"is_reserved":false,"is_disabled":true,"rental_uris":{"android":"levelo://app?vid=00c927a1-d08e-4450-95b2-0ac1a58c0a42","ios":"levelo://app?vid=00c927a1-d08e-4450-95b2-0ac1a58c0a42"},"vehicle_type_id":"4","last_reported":1768980003,"current_range_meters":3600,"station_id":"ce4bgn12rcd13ifvqbt0","pricing_plan_id":"cebpf4jnsgd1na2vs0mg"},{"bike_id":"f5b57ae7-55a9-47fd-82cc-067ffe79b625","system_id":"levelo_inurba_marseille","lat":43.26673,"lon":5.38258,"is_reserved":false,"is_disabled":false,"rental_uris":{"android":"levelo://app?vid=f5b57ae7-55a9-47fd-82cc-067ffe79b625","ios":"levelo://app?vid=f5b57ae7-55a9-47fd-82cc-067ffe79b625"},"vehicle_type_id":"4","last_reported":1768980003,"current_range_meters":3600,"station_id":"ce4bhg92rcd13ifvqf90","pricing_plan_id":"cebpf4jnsgd1na2vs0mg"},{"bike_id":"d398bbee-580e-4669-a6c1-1a6f4f542e54","system_id":"levelo_inurba_marseille","lat":43.29639,"lon":5.3716,"is_reserved":false,"is_disabled":false,"rental_uris":{"android":"levelo://app?vid=d398bbee-580e-4669-a6c1-1a6f4f542e54","ios":"levelo://app?vid=d398bbee-580e-4669-a6c1-1a6f4f542e54"},"vehicle_type_id":"4","last_reported":1768980003,"current_range_meters":3600,"station_id":"ce4bgnh2rcd13ifvqc0g","pricing_plan_id":"cebpf4jnsgd1na2vs0mg"},{"bike_id":"c90f8d49-c464-4abb-b50f-a6f2833250ba","system_id":"levelo_inurba_marseille","lat":43.26076,"lon":5.39408,"is_reserved":false,"is_disabled":false,"rental_uris":{"android":"levelo://app?vid=c90f8d49-c464-4abb-b50f-a6f2833250ba","ios":"levelo://app?vid=c90f8d49-c464-4abb-b50f-a6f2833250ba"},"vehicle_type_id":"4","last_reported":1768980003,"current_range_meters":4000,"station_id":"ce4bhh92rcd13ifvqfj0","pricing_plan_id":"cebpf4jnsgd1na2vs0mg"},{"bike_id":"8a83b555-456d-4d0f-9f0b-46c4fec20bd5","system_id":"levelo_inurba_marseille","lat":43.2534,"lon":5.42168,"is_reserved":false,"is_disabled":false,"rental_uris":{"android":"levelo://app?vid=8a83b555-456d-4d0f-9f0b-46c4fec20bd5","ios":"levelo://app?vid=8a83b555-456d-4d0f-9f0b-46c4fec20bd5"},"vehicle_type_id":"4","last_reported":1768980003,"current_range_meters":4000,"station_id":"st_d2m65c5bi1j21697t3ng","pricing_plan_id":"cebpf4jnsgd1na2vs0mg"},{"bike_id":"fbbedfeb-5767-4a40-9eeb-fb558ba05242","system_id":"levelo_inurba_marseille","lat":43.25004,"lon":5.38931,"is_reserved":false,"is_disabled":false,"rental_uris":{"android":"levelo://app?vid=fbbedfeb-5767-4a40-9eeb-fb558ba05242","ios":"levelo://app?vid=fbbedfeb-5767-4a40-9eeb-fb558ba05242"},"vehicle_type_id":"4","last_reported":1768980003,"current_range_meters":4000,"station_id":"ce4bhgp2rcd13ifvqfd0","pricing_plan_id":"cebpf4jnsgd1na2vs0mg"},{"bike_id":"c766203c-fe51-459b-bf74-dd6b3df74629","system_id":"levelo_inurba_marseille","lat":43.23169,"lon":5.40004,"is_reserved":false,"is_disabled":false,"rental_uris":{"android":"levelo://app?vid=c766203c-fe51-459b-bf74-dd6b3df74629","ios":"levelo://app?vid=c766203c-fe51-459b-bf74-dd6b3df74629"},"vehicle_type_id":"4","last_reported":1768980003,"current_range_meters":4000,"station_id":"ce4bhn12rcd13ifvqgqg","pricing_plan_id":"cebpf4jnsgd1na2vs0mg"},{"bike_id":"f6bff0c7-ae89-4848-9aa2-5b92117be0c7","system_id":"levelo_inurba_marseille","lat":43.27492,"lon":5.42478,"is_reserved":false,"is_disabled":false,"rental_uris":{"android":"levelo://app?vid=f6bff0c7-ae89-4848-9aa2-5b92117be0c7","ios":"levelo://app?vid=f6bff0c7-ae89-4848-9aa2-5b92117be0c7"},"vehicle_type_id":"4","last_reported":1768980003,"current_range_meters":4000,"station_id":"ce4bhn92rcd13ifvqgrg","pricing_plan_id":"cebpf4jnsgd1na2vs0mg"},{"bike_id":"2b708894-293c-4983-8d58-572d37f96294","system_id":"levelo_inurba_marseille","lat":43.29448,"lon":5.39741,"is_reserved":false,"is_disabled":false,"rental_uris":{"android":"levelo://app?vid=2b708894-293c-4983-8d58-572d37f96294","ios":"levelo://app?vid=2b708894-293c-4983-8d58-572d37f96294"},"vehicle_type_id":"4","last_reported":1768980003,"current_range_meters":4000,"station_id":"ce4bh3h2rcd13ifvqdo0","pricing_plan_id":"cebpf4jnsgd1na2vs0mg"},{"bike_id":"ab8f0e9e-82c0-4cd4-ae4a-73fe86db6b63","system_id":"levelo_inurba_marseille","lat":43.30163,"lon":5.38094,"is_reserved":false,"is_disabled":false,"rental_uris":{"android":"levelo://app?vid=ab8f0e9e-82c0-4cd4-ae4a-73fe86db6b63","ios":"levelo://app?vid=ab8f0e9e-82c0-4cd4-ae4a-73fe86db6b63"},"vehicle_type_id":"4","last_reported":1768980003,"current_range_meters":4000,"station_id":"ce4bgjp2rcd13ifvqbh0","pricing_plan_id":"cebpf4jnsgd1na2vs0mg"},{"bike_id":"819700f8-0889-4ce9-83af-72fd9b24b0a9","system_id":"levelo_inurba_marseille","lat":43.27561,"lon":5.38447,"is_reserved":false,"is_disabled":false,"rental_uris":{"android":"levelo://app?vid=819700f8-0889-4ce9-83af-72fd9b24b0a9","ios":"levelo://app?vid=819700f8-0889-4ce9-83af-72fd9b24b0a9"},"vehicle_type_id":"4","last_reported":1768980003,"current_range_meters":4000,"station_id":"ce4bhh92rcd13ifvqfi0","pricing_plan_id":"cebpf4jnsgd1na2vs0mg"},{"bike_id":"ce65da15-5103-4c08-86e5-b4783ea2b238","system_id":"levelo_inurba_marseille","lat":43.29313,"lon":5.37181,"is_reserved":false,"is_disabled":false,"rental_uris":{"android":"levelo://app?vid=ce65da15-5103-4c08-86e5-b4783ea2b238","ios":"levelo://app?vid=ce65da15-5103-4c08-86e5-b4783ea2b238"},"vehicle_type_id":"4","last_reported":1768980003,"current_range_meters":4000,"station_id":"ce4bgh92rcd13ifvqb40","pricing_plan_id":"cebpf4jnsgd1na2vs0mg"},{"bike_id":"e1cff1fb-909a-417f-b3ed-4b78c3cfed41","system_id":"levelo_inurba_marseille","lat":43.2835,"lon":5.38105,"is_reserved":false,"is_disabled":false,"rental_uris":{"android":"levelo://app?vid=e1cff1fb-909a-417f-b3ed-4b78c3cfed41","ios":"levelo://app?vid=e1cff1fb-909a-417f-b3ed-4b78c3cfed41"},"vehicle_type_id":"4","last_reported":1768980003,"current_range_meters":4400,"station_id":"ce4bh412rcd13ifvqdr0","pricing_plan_id":"cebpf4jnsgd1na2vs0mg"},{"bike_id":"6da41b7f-1b51-47f9-b120-78d2637f4366","system_id":"levelo_inurba_marseille","lat":43.29519,"lon":5.37503,"is_reserved":false,"is_disabled":false,"rental_uris":{"android":"levelo://app?vid=6da41b7f-1b51-47f9-b120-78d2637f4366","ios":"levelo://app?vid=6da41b7f-1b51-47f9-b120-78d2637f4366"},"vehicle_type_id":"4","last_reported":1768980003,"current_range_meters":4400,"station_id":"ce4bgkp2rcd13ifvqbmg","pricing_plan_id":"cebpf4jnsgd1na2vs0mg"},{"bike_id":"4d9fb050-4361-4bab-ba3c-960b4264587c","system_id":"levelo_inurba_marseille","lat":43.33066,"lon":5.39052,"is_reserved":false,"is_disabled":false,"rental_uris":{"android":"levelo://app?vid=4d9fb050-4361-4bab-ba3c-960b4264587c","ios":"levelo://app?vid=4d9fb050-4361-4bab-ba3c-960b4264587c"},"vehicle_type_id":"4","last_reported":1768980003,"current_range_meters":4400,"station_id":"","pricing_plan_id":"cebpf4jnsgd1na2vs0mg"},{"bike_id":"9af1d4fe-4636-4caa-9cbd-bbff193f53c9","system_id":"levelo_inurba_marseille","lat":43.28171,"lon":5.42629,"is_reserved":false,"is_disabled":false,"rental_uris":{"android":"levelo://app?vid=9af1d4fe-4636-4caa-9cbd-bbff193f53c9","ios":"levelo://app?vid=9af1d4fe-4636-4caa-9cbd-bbff193f53c9"},"vehicle_type_id":"4","last_reported":1768980003,"current_range_meters":4400,"station_id":"ce4bhnh2rcd13ifvqgug","pricing_plan_id":"cebpf4jnsgd1na2vs0mg"},{"bike_id":"d8bfc846-dd2d-4622-a117-826629f3a35d","system_id":"levelo_inurba_marseille","lat":43.3046,"lon":5.37885,"is_reserved":false,"is_disabled":false,"rental_uris":{"android":"levelo://app?vid=d8bfc846-dd2d-4622-a117-826629f3a35d","ios":"levelo://app?vid=d8bfc846-dd2d-4622-a117-826629f3a35d"},"vehicle_type_id":"4","last_reported":1768980003,"current_range_meters":4400,"station_id":"ce4bgup2rcd13ifvqcn0","pricing_plan_id":"cebpf4jnsgd1na2vs0mg"},{"bike_id":"c1694b88-ccb5-474a-988f-f12d10ed95de","system_id":"levelo_inurba_marseille","lat":43.27817,"lon":5.40705,"is_reserved":false,"is_disabled":false,"rental_uris":{"android":"levelo://app?vid=c1694b88-ccb5-474a-988f-f12d10ed95de","ios":"levelo://app?vid=c1694b88-ccb5-474a-988f-f12d10ed95de"},"vehicle_type_id":"4","last_reported":1768980003,"current_range_meters":4400,"station_id":"ce4bhnh2rcd13ifvqgtg","pricing_plan_id":"cebpf4jnsgd1na2vs0mg"},{"bike_id":"05445378-8a5d-473e-a02e-3796d63a29c8","system_id":"levelo_inurba_marseille","lat":43.26394,"lon":5.41063,"is_reserved":false,"is_disabled":false,"rental_uris":{"android":"levelo://app?vid=05445378-8a5d-473e-a02e-3796d63a29c8","ios":"levelo://app?vid=05445378-8a5d-473e-a02e-3796d63a29c8"},"vehicle_type_id":"4","last_reported":1768980003,"current_range_meters":4400,"station_id":"st_d4e5ca6na9uc73bfl5fg","pricing_plan_id":"cebpf4jnsgd1na2vs0mg"},{"bike_id":"0b626453-15df-4c43-9aad-4424f044c872","system_id":"levelo_inurba_marseille","lat":43.23964,"lon":5.36625,"is_reserved":false,"is_disabled":false,"rental_uris":{"android":"levelo://app?vid=0b626453-15df-4c43-9aad-4424f044c872","ios":"levelo://app?vid=0b626453-15df-4c43-9aad-4424f044c872"},"vehicle_type_id":"4","last_reported":1768980003,"current_range_meters":4400,"station_id":"ce4bhi12rcd13ifvqfp0","pricing_plan_id":"cebpf4jnsgd1na2vs0mg"},{"bike_id":"2ce66643-cd9c-4d5c-9316-62ed6b9c3f3b","system_id":"levelo_inurba_marseille","lat":43.29851,"lon":5.36286,"is_reserved":false,"is_disabled":false,"rental_uris":{"android":"levelo://app?vid=2ce66643-cd9c-4d5c-9316-62ed6b9c3f3b","ios":"levelo://app?vid=2ce66643-cd9c-4d5c-9316-62ed6b9c3f3b"},"vehicle_type_id":"4","last_reported":1768980003,"current_range_meters":4400,"station_id":"ce4bgpp2rcd13ifvqc3g","pricing_plan_id":"cebpf4jnsgd1na2vs0mg"},{"bike_id":"5d6ec190-4e3f-4728-8145-239caf53150f","system_id":"levelo_inurba_marseille","lat":43.30689,"lon":5.40295,"is_reserved":false,"is_disabled":false,"rental_uris":{"android":"levelo://app?vid=5d6ec190-4e3f-4728-8145-239caf53150f","ios":"levelo://app?vid=5d6ec190-4e3f-4728-8145-239caf53150f"},"vehicle_type_id":"4","last_reported":1768980003,"current_range_meters":4400,"station_id":"","pricing_plan_id":"cebpf4jnsgd1na2vs0mg"},{"bike_id":"b56297a5-7db5-43da-9fd6-782ce2af0c6d","system_id":"levelo_inurba_marseille","lat":43.288507,"lon":5.358323,"is_reserved":false,"is_disabled":false,"rental_uris":{"android":"levelo://app?vid=b56297a5-7db5-43da-9fd6-782ce2af0c6d","ios":"levelo://app?vid=b56297a5-7db5-43da-9fd6-782ce2af0c6d"},"vehicle_type_id":"4","last_reported":1768980003,"current_range_meters":4800,"station_id":"ce4bhb12rcd13ifvqem0","pricing_plan_id":"cebpf4jnsgd1na2vs0mg"},{"bike_id":"55e47e04-e28a-449d-b54e-05e358550b08","system_id":"levelo_inurba_marseille","lat":43.29028,"lon":5.386475,"is_reserved":false,"is_disabled":false,"rental_uris":{"android":"levelo://app?vid=55e47e04-e28a-449d-b54e-05e358550b08","ios":"levelo://app?vid=55e47e04-e28a-449d-b54e-05e358550b08"},"vehicle_type_id":"4","last_reported":1768980003,"current_range_meters":4800,"station_id":"ce4bh4p2rcd13ifvqe0g","pricing_plan_id":"cebpf4jnsgd1na2vs0mg"},{"bike_id":"f1d4233d-2911-4edf-a268-ad1589486129","system_id":"levelo_inurba_marseille","lat":43.24188,"lon":5.39735,"is_reserved":false,"is_disabled":false,"rental_uris":{"android":"levelo://app?vid=f1d4233d-2911-4edf-a268-ad1589486129","ios":"levelo://app?vid=f1d4233d-2911-4edf-a268-ad1589486129"},"vehicle_type_id":"4","last_reported":1768980003,"current_range_meters":4800,"station_id":"ce4bhn12rcd13ifvqgpg","pricing_plan_id":"cebpf4jnsgd1na2vs0mg"},{"bike_id":"d2cb0070-0422-466b-b462-1892f78475a2","system_id":"levelo_inurba_marseille","lat":43.22924,"lon":5.35371,"is_reserved":false,"is_disabled":false,"rental_uris":{"android":"levelo://app?vid=d2cb0070-0422-466b-b462-1892f78475a2","ios":"levelo://app?vid=d2cb0070-0422-466b-b462-1892f78475a2"},"vehicle_type_id":"4","last_reported":1768980003,"current_range_meters":4800,"station_id":"cpo3532slgdg3j2ikp40","pricing_plan_id":"cebpf4jnsgd1na2vs0mg"},{"bike_id":"52c85b02-607c-4226-bd7b-fd246dd2dae8","system_id":"levelo_inurba_marseille","lat":43.22564,"lon":5.41629,"is_reserved":false,"is_disabled":false,"rental_uris":{"android":"levelo://app?vid=52c85b02-607c-4226-bd7b-fd246dd2dae8","ios":"levelo://app?vid=52c85b02-607c-4226-bd7b-fd246dd2dae8"},"vehicle_type_id":"4","last_reported":1768980003,"current_range_meters":4800,"station_id":"st_d2o4gvlbi1j2169b742g","pricing_plan_id":"cebpf4jnsgd1na2vs0mg"},{"bike_id":"3e57c784-076f-487c-b622-a075cc851190","system_id":"levelo_inurba_marseille","lat":43.2634,"lon":5.37824,"is_reserved":false,"is_disabled":false,"rental_uris":{"android":"levelo://app?vid=3e57c784-076f-487c-b622-a075cc851190","ios":"levelo://app?vid=3e57c784-076f-487c-b622-a075cc851190"},"vehicle_type_id":"4","last_reported":1768980003,"current_range_meters":4800,"station_id":"ce4bhjp2rcd13ifvqg90","pricing_plan_id":"cebpf4jnsgd1na2vs0mg"},{"bike_id":"7d19daa3-e6ee-4b9b-9eda-394751b93cc0","system_id":"levelo_inurba_marseille","lat":43.26491,"lon":5.39554,"is_reserved":false,"is_disabled":false,"rental_uris":{"android":"levelo://app?vid=7d19daa3-e6ee-4b9b-9eda-394751b93cc0","ios":"levelo://app?vid=7d19daa3-e6ee-4b9b-9eda-394751b93cc0"},"vehicle_type_id":"4","last_reported":1768980003,"current_range_meters":4800,"station_id":"ce4bhi12rcd13ifvqfq0","pricing_plan_id":"cebpf4jnsgd1na2vs0mg"},{"bike_id":"801dc43d-7065-4737-b461-187716c67c34","system_id":"levelo_inurba_marseille","lat":43.24986,"lon":5.38926,"is_reserved":false,"is_disabled":false,"rental_uris":{"android":"levelo://app?vid=801dc43d-7065-4737-b461-187716c67c34","ios":"levelo://app?vid=801dc43d-7065-4737-b461-187716c67c34"},"vehicle_type_id":"4","last_reported":1768980003,"current_range_meters":4800,"station_id":"ce4bhgp2rcd13ifvqfd0","pricing_plan_id":"cebpf4jnsgd1na2vs0mg"},{"bike_id":"60f65044-b3d4-4549-9625-97eed65ff091","system_id":"levelo_inurba_marseille","lat":43.31072,"lon":5.38354,"is_reserved":false,"is_disabled":false,"rental_uris":{"android":"levelo://app?vid=60f65044-b3d4-4549-9625-97eed65ff091","ios":"levelo://app?vid=60f65044-b3d4-4549-9625-97eed65ff091"},"vehicle_type_id":"4","last_reported":1768980003,"current_range_meters":4800,"station_id":"ce4bgv92rcd13ifvqcr0","pricing_plan_id":"cebpf4jnsgd1na2vs0mg"},{"bike_id":"e29b0d2f-e04f-40fd-b11c-8492c81a52ca","system_id":"levelo_inurba_marseille","lat":43.28101,"lon":5.37841,"is_reserved":false,"is_disabled":false,"rental_uris":{"android":"levelo://app?vid=e29b0d2f-e04f-40fd-b11c-8492c81a52ca","ios":"levelo://app?vid=e29b0d2f-e04f-40fd-b11c-8492c81a52ca"},"vehicle_type_id":"4","last_reported":1768980003,"current_range_meters":5600,"station_id":"ce4bha12rcd13ifvqee0","pricing_plan_id":"cebpf4jnsgd1na2vs0mg"},{"bike_id":"c01a2081-77b9-4bca-a28c-0a50c35491c9","system_id":"levelo_inurba_marseille","lat":43.29762,"lon":5.42778,"is_reserved":false,"is_disabled":false,"rental_uris":{"android":"levelo://app?vid=c01a2081-77b9-4bca-a28c-0a50c35491c9","ios":"levelo://app?vid=c01a2081-77b9-4bca-a28c-0a50c35491c9"},"vehicle_type_id":"4","last_reported":1768980003,"current_range_meters":5600,"station_id":"st_d3md5207bmas73dh9klg","pricing_plan_id":"cebpf4jnsgd1na2vs0mg"},{"bike_id":"f9c756b7-6ab4-4842-b242-46f06e32e85d","system_id":"levelo_inurba_marseille","lat":43.28,"lon":5.40006,"is_reserved":false,"is_disabled":false,"rental_uris":{"android":"levelo://app?vid=f9c756b7-6ab4-4842-b242-46f06e32e85d","ios":"levelo://app?vid=f9c756b7-6ab4-4842-b242-46f06e32e85d"},"vehicle_type_id":"4","last_reported":1768980003,"current_range_meters":5600,"station_id":"ce4bho92rcd13ifvqh4g","pricing_plan_id":"cebpf4jnsgd1na2vs0mg"},{"bike_id":"19ca583d-7faf-46a9-bc17-9888cafe49df","system_id":"levelo_inurba_marseille","lat":43.28346,"lon":5.38107,"is_reserved":false,"is_disabled":false,"rental_uris":{"android":"levelo://app?vid=19ca583d-7faf-46a9-bc17-9888cafe49df","ios":"levelo://app?vid=19ca583d-7faf-46a9-bc17-9888cafe49df"},"vehicle_type_id":"4","last_reported":1768980003,"current_range_meters":5600,"station_id":"ce4bh412rcd13ifvqdr0","pricing_plan_id":"cebpf4jnsgd1na2vs0mg"},{"bike_id":"f58dc067-4dd9-4635-8ae5-365aced9c977","system_id":"levelo_inurba_marseille","lat":43.26205,"lon":5.40441,"is_reserved":false,"is_disabled":false,"rental_uris":{"android":"levelo://app?vid=f58dc067-4dd9-4635-8ae5-365aced9c977","ios":"levelo://app?vid=f58dc067-4dd9-4635-8ae5-365aced9c977"},"vehicle_type_id":"4","last_reported":1768980003,"current_range_meters":5600,"station_id":"ce4bhmh2rcd13ifvqgmg","pricing_plan_id":"cebpf4jnsgd1na2vs0mg"},{"bike_id":"8794cdb3-b07a-4a6a-b8a7-d49e68bcc2e0","system_id":"levelo_inurba_marseille","lat":43.27809,"lon":5.40719,"is_reserved":false,"is_disabled":false,"rental_uris":{"android":"levelo://app?vid=8794cdb3-b07a-4a6a-b8a7-d49e68bcc2e0","ios":"levelo://app?vid=8794cdb3-b07a-4a6a-b8a7-d49e68bcc2e0"},"vehicle_type_id":"4","last_reported":1768980003,"current_range_meters":5600,"station_id":"ce4bhnh2rcd13ifvqgtg","pricing_plan_id":"cebpf4jnsgd1na2vs0mg"},{"bike_id":"10483c0a-1726-407f-8492-2530493c0d67","system_id":"levelo_inurba_marseille","lat":43.24997,"lon":5.38916,"is_reserved":false,"is_disabled":false,"rental_uris":{"android":"levelo://app?vid=10483c0a-1726-407f-8492-2530493c0d67","ios":"levelo://app?vid=10483c0a-1726-407f-8492-2530493c0d67"},"vehicle_type_id":"4","last_reported":1768980003,"current_range_meters":5600,"station_id":"ce4bhgp2rcd13ifvqfd0","pricing_plan_id":"cebpf4jnsgd1na2vs0mg"},{"bike_id":"35eb0f0f-42a8-4fd5-956e-bec6aa3f7ee3","system_id":"levelo_inurba_marseille","lat":43.231788,"lon":5.399988,"is_reserved":false,"is_disabled":false,"rental_uris":{"android":"levelo://app?vid=35eb0f0f-42a8-4fd5-956e-bec6aa3f7ee3","ios":"levelo://app?vid=35eb0f0f-42a8-4fd5-956e-bec6aa3f7ee3"},"vehicle_type_id":"4","last_reported":1768980003,"current_range_meters":5600,"station_id":"ce4bhn12rcd13ifvqgqg","pricing_plan_id":"cebpf4jnsgd1na2vs0mg"},{"bike_id":"2cae306f-ef70-4ac0-8308-717918373932","system_id":"levelo_inurba_marseille","lat":43.28631,"lon":5.35088,"is_reserved":false,"is_disabled":false,"rental_uris":{"android":"levelo://app?vid=2cae306f-ef70-4ac0-8308-717918373932","ios":"levelo://app?vid=2cae306f-ef70-4ac0-8308-717918373932"},"vehicle_type_id":"4","last_reported":1768980003,"current_range_meters":5600,"station_id":"ce4bhch2rcd13ifvqeug","pricing_plan_id":"cebpf4jnsgd1na2vs0mg"},{"bike_id":"e775e37a-88b9-408c-8364-888bc63e91d3","system_id":"levelo_inurba_marseille","lat":43.24398,"lon":5.37049,"is_reserved":false,"is_disabled":false,"rental_uris":{"android":"levelo://app?vid=e775e37a-88b9-408c-8364-888bc63e91d3","ios":"levelo://app?vid=e775e37a-88b9-408c-8364-888bc63e91d3"},"vehicle_type_id":"4","last_reported":1768980003,"current_range_meters":5600,"station_id":"ce4bhhh2rcd13ifvqfk0","pricing_plan_id":"cebpf4jnsgd1na2vs0mg"},{"bike_id":"66588bd4-ede7-4f16-9000-80e9462d12b2","system_id":"levelo_inurba_marseille","lat":43.30918,"lon":5.38999,"is_reserved":false,"is_disabled":false,"rental_uris":{"android":"levelo://app?vid=66588bd4-ede7-4f16-9000-80e9462d12b2","ios":"levelo://app?vid=66588bd4-ede7-4f16-9000-80e9462d12b2"},"vehicle_type_id":"4","last_reported":1768980003,"current_range_meters":5600,"station_id":"ce4bgup2rcd13ifvqco0","pricing_plan_id":"cebpf4jnsgd1na2vs0mg"},{"bike_id":"9dff9bae-d519-49ab-850f-a6b93762d1fc","system_id":"levelo_inurba_marseille","lat":43.253391,"lon":5.421694,"is_reserved":false,"is_disabled":false,"rental_uris":{"android":"levelo://app?vid=9dff9bae-d519-49ab-850f-a6b93762d1fc","ios":"levelo://app?vid=9dff9bae-d519-49ab-850f-a6b93762d1fc"},"vehicle_type_id":"4","last_reported":1768980003,"current_range_meters":5600,"station_id":"st_d2m65c5bi1j21697t3ng","pricing_plan_id":"cebpf4jnsgd1na2vs0mg"},{"bike_id":"c9632c24-d4ba-453f-a643-952c5a012a8a","system_id":"levelo_inurba_marseille","lat":43.2257,"lon":5.41621,"is_reserved":false,"is_disabled":false,"rental_uris":{"android":"levelo://app?vid=c9632c24-d4ba-453f-a643-952c5a012a8a","ios":"levelo://app?vid=c9632c24-d4ba-453f-a643-952c5a012a8a"},"vehicle_type_id":"4","last_reported":1768980003,"current_range_meters":6000,"station_id":"st_d2o4gvlbi1j2169b742g","pricing_plan_id":"cebpf4jnsgd1na2vs0mg"},{"bike_id":"00926366-40d2-4692-a7fe-1fb3b69e53b6","system_id":"levelo_inurba_marseille","lat":43.324817,"lon":5.365665,"is_reserved":false,"is_disabled":false,"rental_uris":{"android":"levelo://app?vid=00926366-40d2-4692-a7fe-1fb3b69e53b6","ios":"levelo://app?vid=00926366-40d2-4692-a7fe-1fb3b69e53b6"},"vehicle_type_id":"4","last_reported":1768980003,"current_range_meters":6000,"station_id":"ce4bhs12rcd13ifvqhvg","pricing_plan_id":"cebpf4jnsgd1na2vs0mg"},{"bike_id":"e85180dd-5abd-4670-827f-02f3e4330851","system_id":"levelo_inurba_marseille","lat":43.24645,"lon":5.38896,"is_reserved":false,"is_disabled":false,"rental_uris":{"android":"levelo://app?vid=e85180dd-5abd-4670-827f-02f3e4330851","ios":"levelo://app?vid=e85180dd-5abd-4670-827f-02f3e4330851"},"vehicle_type_id":"4","last_reported":1768980003,"current_range_meters":6000,"station_id":"ce4bhg12rcd13ifvqf60","pricing_plan_id":"cebpf4jnsgd1na2vs0mg"},{"bike_id":"a53ce889-7f48-423c-a39a-8f7e906a512a","system_id":"levelo_inurba_marseille","lat":43.26685,"lon":5.38272,"is_reserved":false,"is_disabled":false,"rental_uris":{"android":"levelo://app?vid=a53ce889-7f48-423c-a39a-8f7e906a512a","ios":"levelo://app?vid=a53ce889-7f48-423c-a39a-8f7e906a512a"},"vehicle_type_id":"4","last_reported":1768980003,"current_range_meters":6000,"station_id":"ce4bhg92rcd13ifvqf90","pricing_plan_id":"cebpf4jnsgd1na2vs0mg"},{"bike_id":"c8b36723-7039-4b4e-b709-3c4707457d93","system_id":"levelo_inurba_marseille","lat":43.239633,"lon":5.366292,"is_reserved":false,"is_disabled":false,"rental_uris":{"android":"levelo://app?vid=c8b36723-7039-4b4e-b709-3c4707457d93","ios":"levelo://app?vid=c8b36723-7039-4b4e-b709-3c4707457d93"},"vehicle_type_id":"4","last_reported":1768980003,"current_range_meters":6000,"station_id":"ce4bhi12rcd13ifvqfp0","pricing_plan_id":"cebpf4jnsgd1na2vs0mg"},{"bike_id":"04d1fa74-7078-4e54-86c0-c9d3f7b08c45","system_id":"levelo_inurba_marseille","lat":43.25575,"lon":5.38236,"is_reserved":false,"is_disabled":false,"rental_uris":{"android":"levelo://app?vid=04d1fa74-7078-4e54-86c0-c9d3f7b08c45","ios":"levelo://app?vid=04d1fa74-7078-4e54-86c0-c9d3f7b08c45"},"vehicle_type_id":"4","last_reported":1768980003,"current_range_meters":6000,"station_id":"ce4bhih2rcd13ifvqfs0","pricing_plan_id":"cebpf4jnsgd1na2vs0mg"},{"bike_id":"7c860edb-32a4-4e9c-bf66-fe03b3b3e5ba","system_id":"levelo_inurba_marseille","lat":43.31722,"lon":5.37769,"is_reserved":false,"is_disabled":false,"rental_uris":{"android":"levelo://app?vid=7c860edb-32a4-4e9c-bf66-fe03b3b3e5ba","ios":"levelo://app?vid=7c860edb-32a4-4e9c-bf66-fe03b3b3e5ba"},"vehicle_type_id":"4","last_reported":1768980003,"current_range_meters":6000,"station_id":"ce4bgth2rcd13ifvqch0","pricing_plan_id":"cebpf4jnsgd1na2vs0mg"},{"bike_id":"7d2f250a-191b-441d-876b-7325dd6245a6","system_id":"levelo_inurba_marseille","lat":43.25002,"lon":5.38938,"is_reserved":false,"is_disabled":false,"rental_uris":{"android":"levelo://app?vid=7d2f250a-191b-441d-876b-7325dd6245a6","ios":"levelo://app?vid=7d2f250a-191b-441d-876b-7325dd6245a6"},"vehicle_type_id":"4","last_reported":1768980003,"current_range_meters":6000,"station_id":"ce4bhgp2rcd13ifvqfd0","pricing_plan_id":"cebpf4jnsgd1na2vs0mg"},{"bike_id":"5dbfcf3f-7cec-4c29-8168-14f9c37f7762","system_id":"levelo_inurba_marseille","lat":43.22555,"lon":5.41637,"is_reserved":false,"is_disabled":false,"rental_uris":{"android":"levelo://app?vid=5dbfcf3f-7cec-4c29-8168-14f9c37f7762","ios":"levelo://app?vid=5dbfcf3f-7cec-4c29-8168-14f9c37f7762"},"vehicle_type_id":"4","last_reported":1768980003,"current_range_meters":6000,"station_id":"st_d2o4gvlbi1j2169b742g","pricing_plan_id":"cebpf4jnsgd1na2vs0mg"},{"bike_id":"66160d64-23f9-4d70-b989-daa254cf260e","system_id":"levelo_inurba_marseille","lat":43.28142,"lon":5.4265,"is_reserved":false,"is_disabled":false,"rental_uris":{"android":"levelo://app?vid=66160d64-23f9-4d70-b989-daa254cf260e","ios":"levelo://app?vid=66160d64-23f9-4d70-b989-daa254cf260e"},"vehicle_type_id":"4","last_reported":1768980003,"current_range_meters":6000,"station_id":"ce4bhnh2rcd13ifvqgug","pricing_plan_id":"cebpf4jnsgd1na2vs0mg"},{"bike_id":"29b3fe27-3155-4bb1-9d12-be92f522d733","system_id":"levelo_inurba_marseille","lat":43.29752,"lon":5.428,"is_reserved":false,"is_disabled":false,"rental_uris":{"android":"levelo://app?vid=29b3fe27-3155-4bb1-9d12-be92f522d733","ios":"levelo://app?vid=29b3fe27-3155-4bb1-9d12-be92f522d733"},"vehicle_type_id":"4","last_reported":1768980003,"current_range_meters":6000,"station_id":"st_d3md5207bmas73dh9klg","pricing_plan_id":"cebpf4jnsgd1na2vs0mg"},{"bike_id":"f28dab8c-22b5-43d8-96b4-ff15ffb80192","system_id":"levelo_inurba_marseille","lat":43.297548,"lon":5.427814,"is_reserved":false,"is_disabled":false,"rental_uris":{"android":"levelo://app?vid=f28dab8c-22b5-43d8-96b4-ff15ffb80192","ios":"levelo://app?vid=f28dab8c-22b5-43d8-96b4-ff15ffb80192"},"vehicle_type_id":"4","last_reported":1768980003,"current_range_meters":6000,"station_id":"st_d3md5207bmas73dh9klg","pricing_plan_id":"cebpf4jnsgd1na2vs0mg"},{"bike_id":"2cf1ea64-26bb-4964-939a-03465aee6659","system_id":"levelo_inurba_marseille","lat":43.22566,"lon":5.41629,"is_reserved":false,"is_disabled":false,"rental_uris":{"android":"levelo://app?vid=2cf1ea64-26bb-4964-939a-03465aee6659","ios":"levelo://app?vid=2cf1ea64-26bb-4964-939a-03465aee6659"},"vehicle_type_id":"4","last_reported":1768980003,"current_range_meters":6000,"station_id":"st_d2o4gvlbi1j2169b742g","pricing_plan_id":"cebpf4jnsgd1na2vs0mg"},{"bike_id":"fbc33a72-4745-4524-a282-41ff07403603","system_id":"levelo_inurba_marseille","lat":43.25337,"lon":5.4216,"is_reserved":false,"is_disabled":false,"rental_uris":{"android":"levelo://app?vid=fbc33a72-4745-4524-a282-41ff07403603","ios":"levelo://app?vid=fbc33a72-4745-4524-a282-41ff07403603"},"vehicle_type_id":"4","last_reported":1768980003,"current_range_meters":6000,"station_id":"","pricing_plan_id":"cebpf4jnsgd1na2vs0mg"},{"bike_id":"1b6edef0-2b6f-4530-b134-4fb09445529a","system_id":"levelo_inurba_marseille","lat":43.24469,"lon":5.42561,"is_reserved":false,"is_disabled":false,"rental_uris":{"android":"levelo://app?vid=1b6edef0-2b6f-4530-b134-4fb09445529a","ios":"levelo://app?vid=1b6edef0-2b6f-4530-b134-4fb09445529a"},"vehicle_type_id":"4","last_reported":1768980003,"current_range_meters":6000,"station_id":"st_d4a3vfp97mjs738cd8kg","pricing_plan_id":"cebpf4jnsgd1na2vs0mg"},{"bike_id":"7ec1dc69-a7dc-4353-8d6a-edbb6a619d45","system_id":"levelo_inurba_marseille","lat":43.29277,"lon":5.40117,"is_reserved":false,"is_disabled":false,"rental_uris":{"android":"levelo://app?vid=7ec1dc69-a7dc-4353-8d6a-edbb6a619d45","ios":"levelo://app?vid=7ec1dc69-a7dc-4353-8d6a-edbb6a619d45"},"vehicle_type_id":"4","last_reported":1768980003,"current_range_meters":6000,"station_id":"ce4bh312rcd13ifvqdk0","pricing_plan_id":"cebpf4jnsgd1na2vs0mg"},{"bike_id":"ae82840e-6713-4278-be7e-382935799675","system_id":"levelo_inurba_marseille","lat":43.323471,"lon":5.385043,"is_reserved":false,"is_disabled":false,"rental_uris":{"android":"levelo://app?vid=ae82840e-6713-4278-be7e-382935799675","ios":"levelo://app?vid=ae82840e-6713-4278-be7e-382935799675"},"vehicle_type_id":"4","last_reported":1768980003,"current_range_meters":6000,"station_id":"st_d45171o9ee8s73djdqug","pricing_plan_id":"cebpf4jnsgd1na2vs0mg"},{"bike_id":"48744978-b1c8-4b94-b483-00e386751f56","system_id":"levelo_inurba_marseille","lat":43.26572,"lon":5.39004,"is_reserved":false,"is_disabled":false,"rental_uris":{"android":"levelo://app?vid=48744978-b1c8-4b94-b483-00e386751f56","ios":"levelo://app?vid=48744978-b1c8-4b94-b483-00e386751f56"},"vehicle_type_id":"4","last_reported":1768980003,"current_range_meters":6000,"station_id":"ce4bhe12rcd13ifvqf30","pricing_plan_id":"cebpf4jnsgd1na2vs0mg"},{"bike_id":"02b19501-ae2b-4d21-ae93-ce26586838ae","system_id":"levelo_inurba_marseille","lat":43.29562,"lon":5.42296,"is_reserved":false,"is_disabled":false,"rental_uris":{"android":"levelo://app?vid=02b19501-ae2b-4d21-ae93-ce26586838ae","ios":"levelo://app?vid=02b19501-ae2b-4d21-ae93-ce26586838ae"},"vehicle_type_id":"4","last_reported":1768980003,"current_range_meters":6400,"station_id":"ce4bhph2rcd13ifvqhdg","pricing_plan_id":"cebpf4jnsgd1na2vs0mg"},{"bike_id":"0999dd0d-3c11-4047-ad26-5111f324c930","system_id":"levelo_inurba_marseille","lat":43.28346,"lon":5.38119,"is_reserved":false,"is_disabled":false,"rental_uris":{"android":"levelo://app?vid=0999dd0d-3c11-4047-ad26-5111f324c930","ios":"levelo://app?vid=0999dd0d-3c11-4047-ad26-5111f324c930"},"vehicle_type_id":"4","last_reported":1768980003,"current_range_meters":6400,"station_id":"ce4bh412rcd13ifvqdr0","pricing_plan_id":"cebpf4jnsgd1na2vs0mg"},{"bike_id":"c103ce9c-0aaa-4a53-b373-a704be8ed706","system_id":"levelo_inurba_marseille","lat":43.253344,"lon":5.421686,"is_reserved":false,"is_disabled":false,"rental_uris":{"android":"levelo://app?vid=c103ce9c-0aaa-4a53-b373-a704be8ed706","ios":"levelo://app?vid=c103ce9c-0aaa-4a53-b373-a704be8ed706"},"vehicle_type_id":"4","last_reported":1768980003,"current_range_meters":6400,"station_id":"st_d2m65c5bi1j21697t3ng","pricing_plan_id":"cebpf4jnsgd1na2vs0mg"},{"bike_id":"16b67fb7-eebc-4c54-a1e9-49a71e8dceb2","system_id":"levelo_inurba_marseille","lat":43.33149,"lon":5.37686,"is_reserved":false,"is_disabled":false,"rental_uris":{"android":"levelo://app?vid=16b67fb7-eebc-4c54-a1e9-49a71e8dceb2","ios":"levelo://app?vid=16b67fb7-eebc-4c54-a1e9-49a71e8dceb2"},"vehicle_type_id":"4","last_reported":1768980003,"current_range_meters":6400,"station_id":"st_d46cu089ee8s73dldbu0","pricing_plan_id":"cebpf4jnsgd1na2vs0mg"},{"bike_id":"95e73064-8526-4285-a55a-6a68055eafcc","system_id":"levelo_inurba_marseille","lat":43.28413,"lon":5.37521,"is_reserved":false,"is_disabled":true,"rental_uris":{"android":"levelo://app?vid=95e73064-8526-4285-a55a-6a68055eafcc","ios":"levelo://app?vid=95e73064-8526-4285-a55a-6a68055eafcc"},"vehicle_type_id":"4","last_reported":1768980003,"current_range_meters":6400,"station_id":"ce4bh412rcd13ifvqds0","pricing_plan_id":"cebpf4jnsgd1na2vs0mg"},{"bike_id":"dcc56798-b289-4f87-8a3a-f6804c63566a","system_id":"levelo_inurba_marseille","lat":43.28517,"lon":5.44097,"is_reserved":false,"is_disabled":false,"rental_uris":{"android":"levelo://app?vid=dcc56798-b289-4f87-8a3a-f6804c63566a","ios":"levelo://app?vid=dcc56798-b289-4f87-8a3a-f6804c63566a"},"vehicle_type_id":"4","last_reported":1768980003,"current_range_meters":6400,"station_id":"st_d3j3df2ikq2c7380ej80","pricing_plan_id":"cebpf4jnsgd1na2vs0mg"},{"bike_id":"9c35b422-d216-44eb-8867-88db04bcc71b","system_id":"levelo_inurba_marseille","lat":43.24066,"lon":5.37759,"is_reserved":false,"is_disabled":false,"rental_uris":{"android":"levelo://app?vid=9c35b422-d216-44eb-8867-88db04bcc71b","ios":"levelo://app?vid=9c35b422-d216-44eb-8867-88db04bcc71b"},"vehicle_type_id":"4","last_reported":1768980003,"current_range_meters":6400,"station_id":"ce4bhnp2rcd13ifvqgvg","pricing_plan_id":"cebpf4jnsgd1na2vs0mg"},{"bike_id":"9457c979-a08e-444a-a9f8-c7da932cc2cb","system_id":"levelo_inurba_marseille","lat":43.27493,"lon":5.4245,"is_reserved":false,"is_disabled":false,"rental_uris":{"android":"levelo://app?vid=9457c979-a08e-444a-a9f8-c7da932cc2cb","ios":"levelo://app?vid=9457c979-a08e-444a-a9f8-c7da932cc2cb"},"vehicle_type_id":"4","last_reported":1768980003,"current_range_meters":6400,"station_id":"ce4bhn92rcd13ifvqgrg","pricing_plan_id":"cebpf4jnsgd1na2vs0mg"},{"bike_id":"ee362b81-2fd3-4392-9e20-4f87e4a9d5bd","system_id":"levelo_inurba_marseille","lat":43.279452,"lon":5.386958,"is_reserved":false,"is_disabled":false,"rental_uris":{"android":"levelo://app?vid=ee362b81-2fd3-4392-9e20-4f87e4a9d5bd","ios":"levelo://app?vid=ee362b81-2fd3-4392-9e20-4f87e4a9d5bd"},"vehicle_type_id":"4","last_reported":1768980003,"current_range_meters":6400,"station_id":"ce4bhg12rcd13ifvqf80","pricing_plan_id":"cebpf4jnsgd1na2vs0mg"},{"bike_id":"dc6a3b2b-9f82-4e51-a058-6377bdf44ec5","system_id":"levelo_inurba_marseille","lat":43.25334,"lon":5.42178,"is_reserved":false,"is_disabled":false,"rental_uris":{"android":"levelo://app?vid=dc6a3b2b-9f82-4e51-a058-6377bdf44ec5","ios":"levelo://app?vid=dc6a3b2b-9f82-4e51-a058-6377bdf44ec5"},"vehicle_type_id":"4","last_reported":1768980003,"current_range_meters":6400,"station_id":"st_d2m65c5bi1j21697t3ng","pricing_plan_id":"cebpf4jnsgd1na2vs0mg"},{"bike_id":"faabe0d6-f78d-4a55-b3ec-5ec493b7232c","system_id":"levelo_inurba_marseille","lat":43.3361,"lon":5.41002,"is_reserved":false,"is_disabled":false,"rental_uris":{"android":"levelo://app?vid=faabe0d6-f78d-4a55-b3ec-5ec493b7232c","ios":"levelo://app?vid=faabe0d6-f78d-4a55-b3ec-5ec493b7232c"},"vehicle_type_id":"4","last_reported":1768980003,"current_range_meters":6400,"station_id":"ce4bhqh2rcd13ifvqhmg","pricing_plan_id":"cebpf4jnsgd1na2vs0mg"},{"bike_id":"83098069-1cb7-423e-af0c-9e55721265a8","system_id":"levelo_inurba_marseille","lat":43.3145,"lon":5.45426,"is_reserved":false,"is_disabled":false,"rental_uris":{"android":"levelo://app?vid=83098069-1cb7-423e-af0c-9e55721265a8","ios":"levelo://app?vid=83098069-1cb7-423e-af0c-9e55721265a8"},"vehicle_type_id":"4","last_reported":1768980003,"current_range_meters":6400,"station_id":"","pricing_plan_id":"cebpf4jnsgd1na2vs0mg"},{"bike_id":"8155f86b-6d64-4287-9ed7-7fbe9d103dde","system_id":"levelo_inurba_marseille","lat":43.22563,"lon":5.41626,"is_reserved":false,"is_disabled":false,"rental_uris":{"android":"levelo://app?vid=8155f86b-6d64-4287-9ed7-7fbe9d103dde","ios":"levelo://app?vid=8155f86b-6d64-4287-9ed7-7fbe9d103dde"},"vehicle_type_id":"4","last_reported":1768980003,"current_range_meters":6400,"station_id":"st_d2o4gvlbi1j2169b742g","pricing_plan_id":"cebpf4jnsgd1na2vs0mg"},{"bike_id":"7f57e4b7-adcc-40f6-a2f9-1294ef7abba0","system_id":"levelo_inurba_marseille","lat":43.30901,"lon":5.36851,"is_reserved":false,"is_disabled":false,"rental_uris":{"android":"levelo://app?vid=7f57e4b7-adcc-40f6-a2f9-1294ef7abba0","ios":"levelo://app?vid=7f57e4b7-adcc-40f6-a2f9-1294ef7abba0"},"vehicle_type_id":"4","last_reported":1768980003,"current_range_meters":6800,"station_id":"ce4bgn92rcd13ifvqbvg","pricing_plan_id":"cebpf4jnsgd1na2vs0mg"},{"bike_id":"67ff9a75-4fe8-45e7-914d-fc416a457597","system_id":"levelo_inurba_marseille","lat":43.32112,"lon":5.36764,"is_reserved":false,"is_disabled":false,"rental_uris":{"android":"levelo://app?vid=67ff9a75-4fe8-45e7-914d-fc416a457597","ios":"levelo://app?vid=67ff9a75-4fe8-45e7-914d-fc416a457597"},"vehicle_type_id":"4","last_reported":1768980003,"current_range_meters":6800,"station_id":"ce4bhrh2rcd13ifvqhug","pricing_plan_id":"cebpf4jnsgd1na2vs0mg"},{"bike_id":"af1c342c-d1af-41b9-8323-acb67fa664e0","system_id":"levelo_inurba_marseille","lat":43.277854,"lon":5.389474,"is_reserved":false,"is_disabled":false,"rental_uris":{"android":"levelo://app?vid=af1c342c-d1af-41b9-8323-acb67fa664e0","ios":"levelo://app?vid=af1c342c-d1af-41b9-8323-acb67fa664e0"},"vehicle_type_id":"4","last_reported":1768980003,"current_range_meters":6800,"station_id":"","pricing_plan_id":"cebpf4jnsgd1na2vs0mg"},{"bike_id":"f7f45999-b135-4f47-bda3-1f1e9b994c9d","system_id":"levelo_inurba_marseille","lat":43.30213,"lon":5.39454,"is_reserved":false,"is_disabled":false,"rental_uris":{"android":"levelo://app?vid=f7f45999-b135-4f47-bda3-1f1e9b994c9d","ios":"levelo://app?vid=f7f45999-b135-4f47-bda3-1f1e9b994c9d"},"vehicle_type_id":"4","last_reported":1768980003,"current_range_meters":6800,"station_id":"ce4bh0p2rcd13ifvqd70","pricing_plan_id":"cebpf4jnsgd1na2vs0mg"},{"bike_id":"ac38a438-4179-4ac1-8c09-396dc592af6b","system_id":"levelo_inurba_marseille","lat":43.23184,"lon":5.39989,"is_reserved":false,"is_disabled":false,"rental_uris":{"android":"levelo://app?vid=ac38a438-4179-4ac1-8c09-396dc592af6b","ios":"levelo://app?vid=ac38a438-4179-4ac1-8c09-396dc592af6b"},"vehicle_type_id":"4","last_reported":1768980003,"current_range_meters":6800,"station_id":"ce4bhn12rcd13ifvqgqg","pricing_plan_id":"cebpf4jnsgd1na2vs0mg"},{"bike_id":"4eba8ab0-a760-4c8f-be2e-adcd88a4d0b1","system_id":"levelo_inurba_marseille","lat":43.26497,"lon":5.39599,"is_reserved":false,"is_disabled":false,"rental_uris":{"android":"levelo://app?vid=4eba8ab0-a760-4c8f-be2e-adcd88a4d0b1","ios":"levelo://app?vid=4eba8ab0-a760-4c8f-be2e-adcd88a4d0b1"},"vehicle_type_id":"4","last_reported":1768980003,"current_range_meters":6800,"station_id":"ce4bhi12rcd13ifvqfq0","pricing_plan_id":"cebpf4jnsgd1na2vs0mg"},{"bike_id":"eca6ff27-9de1-4b33-8808-d05f55f40e0d","system_id":"levelo_inurba_marseille","lat":43.30106,"lon":5.39873,"is_reserved":false,"is_disabled":true,"rental_uris":{"android":"levelo://app?vid=eca6ff27-9de1-4b33-8808-d05f55f40e0d","ios":"levelo://app?vid=eca6ff27-9de1-4b33-8808-d05f55f40e0d"},"vehicle_type_id":"4","last_reported":1768980003,"current_range_meters":6800,"station_id":"ce4bh0h2rcd13ifvqd40","pricing_plan_id":"cebpf4jnsgd1na2vs0mg"},{"bike_id":"6ed8c7ae-caef-4abd-a9d4-aaf7d0882a8a","system_id":"levelo_inurba_marseille","lat":43.29598,"lon":5.37705,"is_reserved":false,"is_disabled":true,"rental_uris":{"android":"levelo://app?vid=6ed8c7ae-caef-4abd-a9d4-aaf7d0882a8a","ios":"levelo://app?vid=6ed8c7ae-caef-4abd-a9d4-aaf7d0882a8a"},"vehicle_type_id":"4","last_reported":1768980003,"current_range_meters":6800,"station_id":"ce4bgi92rcd13ifvqb90","pricing_plan_id":"cebpf4jnsgd1na2vs0mg"},{"bike_id":"3c087dff-0dfb-46c5-8cb7-525bb0a6edcb","system_id":"levelo_inurba_marseille","lat":43.27501,"lon":5.42442,"is_reserved":false,"is_disabled":false,"rental_uris":{"android":"levelo://app?vid=3c087dff-0dfb-46c5-8cb7-525bb0a6edcb","ios":"levelo://app?vid=3c087dff-0dfb-46c5-8cb7-525bb0a6edcb"},"vehicle_type_id":"4","last_reported":1768980003,"current_range_meters":6800,"station_id":"ce4bhn92rcd13ifvqgrg","pricing_plan_id":"cebpf4jnsgd1na2vs0mg"},{"bike_id":"ae14426c-d055-48d5-a4ff-6e0b03ad465f","system_id":"levelo_inurba_marseille","lat":43.25811,"lon":5.39454,"is_reserved":false,"is_disabled":false,"rental_uris":{"android":"levelo://app?vid=ae14426c-d055-48d5-a4ff-6e0b03ad465f","ios":"levelo://app?vid=ae14426c-d055-48d5-a4ff-6e0b03ad465f"},"vehicle_type_id":"4","last_reported":1768980003,"current_range_meters":6800,"station_id":"ce4bhip2rcd13ifvqft0","pricing_plan_id":"cebpf4jnsgd1na2vs0mg"},{"bike_id":"e6a9e3fa-3b63-4853-b0a2-6fccfa1faa43","system_id":"levelo_inurba_marseille","lat":43.24056,"lon":5.37755,"is_reserved":false,"is_disabled":false,"rental_uris":{"android":"levelo://app?vid=e6a9e3fa-3b63-4853-b0a2-6fccfa1faa43","ios":"levelo://app?vid=e6a9e3fa-3b63-4853-b0a2-6fccfa1faa43"},"vehicle_type_id":"4","last_reported":1768980003,"current_range_meters":6800,"station_id":"ce4bhnp2rcd13ifvqgvg","pricing_plan_id":"cebpf4jnsgd1na2vs0mg"},{"bike_id":"8febd614-5e59-4e19-8052-3acbee0581bb","system_id":"levelo_inurba_marseille","lat":43.2557,"lon":5.38226,"is_reserved":false,"is_disabled":false,"rental_uris":{"android":"levelo://app?vid=8febd614-5e59-4e19-8052-3acbee0581bb","ios":"levelo://app?vid=8febd614-5e59-4e19-8052-3acbee0581bb"},"vehicle_type_id":"4","last_reported":1768980003,"current_range_meters":6800,"station_id":"ce4bhih2rcd13ifvqfs0","pricing_plan_id":"cebpf4jnsgd1na2vs0mg"},{"bike_id":"70b5a988-4972-43ed-a646-2bc43fee470e","system_id":"levelo_inurba_marseille","lat":43.304233,"lon":5.373472,"is_reserved":false,"is_disabled":false,"rental_uris":{"android":"levelo://app?vid=70b5a988-4972-43ed-a646-2bc43fee470e","ios":"levelo://app?vid=70b5a988-4972-43ed-a646-2bc43fee470e"},"vehicle_type_id":"4","last_reported":1768980003,"current_range_meters":7200,"station_id":"ce4bgs92rcd13ifvqcc0","pricing_plan_id":"cebpf4jnsgd1na2vs0mg"},{"bike_id":"1ff6f568-57d9-4c13-ac7e-7c29997c7583","system_id":"levelo_inurba_marseille","lat":43.29267,"lon":5.40129,"is_reserved":false,"is_disabled":false,"rental_uris":{"android":"levelo://app?vid=1ff6f568-57d9-4c13-ac7e-7c29997c7583","ios":"levelo://app?vid=1ff6f568-57d9-4c13-ac7e-7c29997c7583"},"vehicle_type_id":"4","last_reported":1768980003,"current_range_meters":7200,"station_id":"ce4bh312rcd13ifvqdk0","pricing_plan_id":"cebpf4jnsgd1na2vs0mg"},{"bike_id":"e9cf4d98-a47d-4cc7-82f6-b2e075f45c6a","system_id":"levelo_inurba_marseille","lat":43.22561,"lon":5.41633,"is_reserved":false,"is_disabled":false,"rental_uris":{"android":"levelo://app?vid=e9cf4d98-a47d-4cc7-82f6-b2e075f45c6a","ios":"levelo://app?vid=e9cf4d98-a47d-4cc7-82f6-b2e075f45c6a"},"vehicle_type_id":"4","last_reported":1768980003,"current_range_meters":7200,"station_id":"st_d2o4gvlbi1j2169b742g","pricing_plan_id":"cebpf4jnsgd1na2vs0mg"},{"bike_id":"993f1288-6929-4206-b35f-06e772769526","system_id":"levelo_inurba_marseille","lat":43.30726,"lon":5.42448,"is_reserved":false,"is_disabled":false,"rental_uris":{"android":"levelo://app?vid=993f1288-6929-4206-b35f-06e772769526","ios":"levelo://app?vid=993f1288-6929-4206-b35f-06e772769526"},"vehicle_type_id":"4","last_reported":1768980003,"current_range_meters":7200,"station_id":"st_cvj6ca6bvosntc0bfgr0","pricing_plan_id":"cebpf4jnsgd1na2vs0mg"},{"bike_id":"bf5c6ed8-bf69-4699-a3d7-ea7aac93a090","system_id":"levelo_inurba_marseille","lat":43.29606,"lon":5.3811,"is_reserved":false,"is_disabled":false,"rental_uris":{"android":"levelo://app?vid=bf5c6ed8-bf69-4699-a3d7-ea7aac93a090","ios":"levelo://app?vid=bf5c6ed8-bf69-4699-a3d7-ea7aac93a090"},"vehicle_type_id":"4","last_reported":1768980003,"current_range_meters":7200,"station_id":"ce4bgl12rcd13ifvqbo0","pricing_plan_id":"cebpf4jnsgd1na2vs0mg"},{"bike_id":"9fe9b7fa-bf5e-456b-b148-d56a572e2392","system_id":"levelo_inurba_marseille","lat":43.22572,"lon":5.41639,"is_reserved":false,"is_disabled":false,"rental_uris":{"android":"levelo://app?vid=9fe9b7fa-bf5e-456b-b148-d56a572e2392","ios":"levelo://app?vid=9fe9b7fa-bf5e-456b-b148-d56a572e2392"},"vehicle_type_id":"4","last_reported":1768980003,"current_range_meters":7200,"station_id":"st_d2o4gvlbi1j2169b742g","pricing_plan_id":"cebpf4jnsgd1na2vs0mg"},{"bike_id":"8069f374-6bb2-4df8-950d-be2e50fcd180","system_id":"levelo_inurba_marseille","lat":43.31121,"lon":5.37779,"is_reserved":false,"is_disabled":false,"rental_uris":{"android":"levelo://app?vid=8069f374-6bb2-4df8-950d-be2e50fcd180","ios":"levelo://app?vid=8069f374-6bb2-4df8-950d-be2e50fcd180"},"vehicle_type_id":"4","last_reported":1768980003,"current_range_meters":7200,"station_id":"ce4bgt92rcd13ifvqcg0","pricing_plan_id":"cebpf4jnsgd1na2vs0mg"},{"bike_id":"c648ce05-faa1-4b25-b283-bb371b3c83ac","system_id":"levelo_inurba_marseille","lat":43.28878,"lon":5.38242,"is_reserved":false,"is_disabled":false,"rental_uris":{"android":"levelo://app?vid=c648ce05-faa1-4b25-b283-bb371b3c83ac","ios":"levelo://app?vid=c648ce05-faa1-4b25-b283-bb371b3c83ac"},"vehicle_type_id":"4","last_reported":1768980003,"current_range_meters":7200,"station_id":"","pricing_plan_id":"cebpf4jnsgd1na2vs0mg"},{"bike_id":"511fc97e-4342-48bd-969a-a85990179b2c","system_id":"levelo_inurba_marseille","lat":43.301479,"lon":5.380679,"is_reserved":false,"is_disabled":false,"rental_uris":{"android":"levelo://app?vid=511fc97e-4342-48bd-969a-a85990179b2c","ios":"levelo://app?vid=511fc97e-4342-48bd-969a-a85990179b2c"},"vehicle_type_id":"4","last_reported":1768980003,"current_range_meters":7200,"station_id":"ce4bgjp2rcd13ifvqbh0","pricing_plan_id":"cebpf4jnsgd1na2vs0mg"},{"bike_id":"56496f15-285b-4dff-92b3-54ffdff3e399","system_id":"levelo_inurba_marseille","lat":43.2682,"lon":5.39592,"is_reserved":false,"is_disabled":false,"rental_uris":{"android":"levelo://app?vid=56496f15-285b-4dff-92b3-54ffdff3e399","ios":"levelo://app?vid=56496f15-285b-4dff-92b3-54ffdff3e399"},"vehicle_type_id":"4","last_reported":1768980003,"current_range_meters":7200,"station_id":"","pricing_plan_id":"cebpf4jnsgd1na2vs0mg"},{"bike_id":"99930023-4f93-4749-9faf-99c0761e2fac","system_id":"levelo_inurba_marseille","lat":43.27818,"lon":5.40743,"is_reserved":false,"is_disabled":false,"rental_uris":{"android":"levelo://app?vid=99930023-4f93-4749-9faf-99c0761e2fac","ios":"levelo://app?vid=99930023-4f93-4749-9faf-99c0761e2fac"},"vehicle_type_id":"4","last_reported":1768980003,"current_range_meters":7200,"station_id":"ce4bhnh2rcd13ifvqgtg","pricing_plan_id":"cebpf4jnsgd1na2vs0mg"},{"bike_id":"31c21be6-18ca-494d-8d01-2f205767068d","system_id":"levelo_inurba_marseille","lat":43.31847,"lon":5.37455,"is_reserved":false,"is_disabled":false,"rental_uris":{"android":"levelo://app?vid=31c21be6-18ca-494d-8d01-2f205767068d","ios":"levelo://app?vid=31c21be6-18ca-494d-8d01-2f205767068d"},"vehicle_type_id":"4","last_reported":1768980003,"current_range_meters":7200,"station_id":"","pricing_plan_id":"cebpf4jnsgd1na2vs0mg"},{"bike_id":"99de495f-b0b4-4b6d-ab33-af826470a1ce","system_id":"levelo_inurba_marseille","lat":43.29478,"lon":5.43304,"is_reserved":false,"is_disabled":false,"rental_uris":{"android":"levelo://app?vid=99de495f-b0b4-4b6d-ab33-af826470a1ce","ios":"levelo://app?vid=99de495f-b0b4-4b6d-ab33-af826470a1ce"},"vehicle_type_id":"4","last_reported":1768980003,"current_range_meters":7200,"station_id":"st_d3j5ugp08ojc73fj9d10","pricing_plan_id":"cebpf4jnsgd1na2vs0mg"},{"bike_id":"bc53fded-5652-4ab5-920f-ec142a69c388","system_id":"levelo_inurba_marseille","lat":43.29786,"lon":5.39339,"is_reserved":false,"is_disabled":true,"rental_uris":{"android":"levelo://app?vid=bc53fded-5652-4ab5-920f-ec142a69c388","ios":"levelo://app?vid=bc53fded-5652-4ab5-920f-ec142a69c388"},"vehicle_type_id":"4","last_reported":1768980003,"current_range_meters":7200,"station_id":"chh1huq6cuj3fo74tm60","pricing_plan_id":"cebpf4jnsgd1na2vs0mg"},{"bike_id":"37bf797b-18ef-4836-9cb3-d3ead8cb520d","system_id":"levelo_inurba_marseille","lat":43.29989,"lon":5.3851,"is_reserved":false,"is_disabled":true,"rental_uris":{"android":"levelo://app?vid=37bf797b-18ef-4836-9cb3-d3ead8cb520d","ios":"levelo://app?vid=37bf797b-18ef-4836-9cb3-d3ead8cb520d"},"vehicle_type_id":"4","last_reported":1768980003,"current_range_meters":7200,"station_id":"ce4bgj92rcd13ifvqbd0","pricing_plan_id":"cebpf4jnsgd1na2vs0mg"},{"bike_id":"fd4d8b30-7951-4a54-b88f-fe537a1705b9","system_id":"levelo_inurba_marseille","lat":43.30429,"lon":5.39744,"is_reserved":false,"is_disabled":false,"rental_uris":{"android":"levelo://app?vid=fd4d8b30-7951-4a54-b88f-fe537a1705b9","ios":"levelo://app?vid=fd4d8b30-7951-4a54-b88f-fe537a1705b9"},"vehicle_type_id":"4","last_reported":1768980003,"current_range_meters":7200,"station_id":"ce4bh092rcd13ifvqd20","pricing_plan_id":"cebpf4jnsgd1na2vs0mg"},{"bike_id":"e71d7be0-4c20-4596-8edf-a9c20c73c110","system_id":"levelo_inurba_marseille","lat":43.279913,"lon":5.416632,"is_reserved":false,"is_disabled":false,"rental_uris":{"android":"levelo://app?vid=e71d7be0-4c20-4596-8edf-a9c20c73c110","ios":"levelo://app?vid=e71d7be0-4c20-4596-8edf-a9c20c73c110"},"vehicle_type_id":"4","last_reported":1768980003,"current_range_meters":7200,"station_id":"ce4bho12rcd13ifvqh1g","pricing_plan_id":"cebpf4jnsgd1na2vs0mg"},{"bike_id":"1e9683fd-3419-4707-ab97-e3b80d5f4bea","system_id":"levelo_inurba_marseille","lat":43.27158,"lon":5.40458,"is_reserved":false,"is_disabled":false,"rental_uris":{"android":"levelo://app?vid=1e9683fd-3419-4707-ab97-e3b80d5f4bea","ios":"levelo://app?vid=1e9683fd-3419-4707-ab97-e3b80d5f4bea"},"vehicle_type_id":"4","last_reported":1768980003,"current_range_meters":7200,"station_id":"","pricing_plan_id":"cebpf4jnsgd1na2vs0mg"},{"bike_id":"2da7b981-9d30-4f15-935f-916de5e14950","system_id":"levelo_inurba_marseille","lat":43.21742,"lon":5.34613,"is_reserved":false,"is_disabled":false,"rental_uris":{"android":"levelo://app?vid=2da7b981-9d30-4f15-935f-916de5e14950","ios":"levelo://app?vid=2da7b981-9d30-4f15-935f-916de5e14950"},"vehicle_type_id":"4","last_reported":1768980003,"current_range_meters":7200,"station_id":"st_cvj6r9ubvosntc0bgbag","pricing_plan_id":"cebpf4jnsgd1na2vs0mg"},{"bike_id":"e6df6fb7-994b-4037-99d6-76175fe9a7d0","system_id":"levelo_inurba_marseille","lat":43.23186,"lon":5.39993,"is_reserved":false,"is_disabled":false,"rental_uris":{"android":"levelo://app?vid=e6df6fb7-994b-4037-99d6-76175fe9a7d0","ios":"levelo://app?vid=e6df6fb7-994b-4037-99d6-76175fe9a7d0"},"vehicle_type_id":"4","last_reported":1768980003,"current_range_meters":7200,"station_id":"ce4bhn12rcd13ifvqgqg","pricing_plan_id":"cebpf4jnsgd1na2vs0mg"},{"bike_id":"e47dfb0a-fd42-4915-8bd4-c942b77cb4c9","system_id":"levelo_inurba_marseille","lat":43.25572,"lon":5.38235,"is_reserved":false,"is_disabled":false,"rental_uris":{"android":"levelo://app?vid=e47dfb0a-fd42-4915-8bd4-c942b77cb4c9","ios":"levelo://app?vid=e47dfb0a-fd42-4915-8bd4-c942b77cb4c9"},"vehicle_type_id":"4","last_reported":1768980003,"current_range_meters":7200,"station_id":"ce4bhih2rcd13ifvqfs0","pricing_plan_id":"cebpf4jnsgd1na2vs0mg"},{"bike_id":"29bfec45-ad76-429c-882a-34b6f5ca4191","system_id":"levelo_inurba_marseille","lat":43.32102,"lon":5.36773,"is_reserved":false,"is_disabled":false,"rental_uris":{"android":"levelo://app?vid=29bfec45-ad76-429c-882a-34b6f5ca4191","ios":"levelo://app?vid=29bfec45-ad76-429c-882a-34b6f5ca4191"},"vehicle_type_id":"4","last_reported":1768980003,"current_range_meters":7200,"station_id":"ce4bhrh2rcd13ifvqhug","pricing_plan_id":"cebpf4jnsgd1na2vs0mg"},{"bike_id":"b0213a31-2a3d-47f3-9767-7abf5d4ef79f","system_id":"levelo_inurba_marseille","lat":43.2926,"lon":5.36849,"is_reserved":false,"is_disabled":true,"rental_uris":{"android":"levelo://app?vid=b0213a31-2a3d-47f3-9767-7abf5d4ef79f","ios":"levelo://app?vid=b0213a31-2a3d-47f3-9767-7abf5d4ef79f"},"vehicle_type_id":"4","last_reported":1768980003,"current_range_meters":8000,"station_id":"ce4bhbp2rcd13ifvqesg","pricing_plan_id":"cebpf4jnsgd1na2vs0mg"},{"bike_id":"f73788f7-dec5-4308-a431-6e346b811946","system_id":"levelo_inurba_marseille","lat":43.3017,"lon":5.38125,"is_reserved":false,"is_disabled":false,"rental_uris":{"android":"levelo://app?vid=f73788f7-dec5-4308-a431-6e346b811946","ios":"levelo://app?vid=f73788f7-dec5-4308-a431-6e346b811946"},"vehicle_type_id":"4","last_reported":1768980003,"current_range_meters":8000,"station_id":"ce4bgjp2rcd13ifvqbh0","pricing_plan_id":"cebpf4jnsgd1na2vs0mg"},{"bike_id":"faffa59f-dc3b-4aa4-bbe3-1720e44336e8","system_id":"levelo_inurba_marseille","lat":43.31371,"lon":5.38502,"is_reserved":false,"is_disabled":false,"rental_uris":{"android":"levelo://app?vid=faffa59f-dc3b-4aa4-bbe3-1720e44336e8","ios":"levelo://app?vid=faffa59f-dc3b-4aa4-bbe3-1720e44336e8"},"vehicle_type_id":"4","last_reported":1768980003,"current_range_meters":8000,"station_id":"ce4bgt92rcd13ifvqcf0","pricing_plan_id":"cebpf4jnsgd1na2vs0mg"},{"bike_id":"99d65f09-c0e6-4f0f-b72f-6e110c0f1bd4","system_id":"levelo_inurba_marseille","lat":43.29022,"lon":5.37602,"is_reserved":false,"is_disabled":false,"rental_uris":{"android":"levelo://app?vid=99d65f09-c0e6-4f0f-b72f-6e110c0f1bd4","ios":"levelo://app?vid=99d65f09-c0e6-4f0f-b72f-6e110c0f1bd4"},"vehicle_type_id":"4","last_reported":1768980003,"current_range_meters":8000,"station_id":"ce4bh692rcd13ifvqe90","pricing_plan_id":"cebpf4jnsgd1na2vs0mg"},{"bike_id":"5f477738-733e-4c98-961a-33429c5938fd","system_id":"levelo_inurba_marseille","lat":43.260586,"lon":5.393984,"is_reserved":false,"is_disabled":false,"rental_uris":{"android":"levelo://app?vid=5f477738-733e-4c98-961a-33429c5938fd","ios":"levelo://app?vid=5f477738-733e-4c98-961a-33429c5938fd"},"vehicle_type_id":"4","last_reported":1768980003,"current_range_meters":8000,"station_id":"ce4bhh92rcd13ifvqfj0","pricing_plan_id":"cebpf4jnsgd1na2vs0mg"},{"bike_id":"4f64c259-7ce5-4526-aee3-891cc5b8f8d0","system_id":"levelo_inurba_marseille","lat":43.269322,"lon":5.402483,"is_reserved":false,"is_disabled":false,"rental_uris":{"android":"levelo://app?vid=4f64c259-7ce5-4526-aee3-891cc5b8f8d0","ios":"levelo://app?vid=4f64c259-7ce5-4526-aee3-891cc5b8f8d0"},"vehicle_type_id":"4","last_reported":1768980003,"current_range_meters":8000,"station_id":"cjm6bp8fraef2m0cb0m0","pricing_plan_id":"cebpf4jnsgd1na2vs0mg"},{"bike_id":"2a9f2cf4-4e16-4b41-870a-2415d738b9bd","system_id":"levelo_inurba_marseille","lat":43.30151,"lon":5.38087,"is_reserved":false,"is_disabled":false,"rental_uris":{"android":"levelo://app?vid=2a9f2cf4-4e16-4b41-870a-2415d738b9bd","ios":"levelo://app?vid=2a9f2cf4-4e16-4b41-870a-2415d738b9bd"},"vehicle_type_id":"4","last_reported":1768980003,"current_range_meters":8000,"station_id":"ce4bgjp2rcd13ifvqbh0","pricing_plan_id":"cebpf4jnsgd1na2vs0mg"},{"bike_id":"00729f81-defe-4949-ab38-da427b717ebf","system_id":"levelo_inurba_marseille","lat":43.26225,"lon":5.40449,"is_reserved":false,"is_disabled":false,"rental_uris":{"android":"levelo://app?vid=00729f81-defe-4949-ab38-da427b717ebf","ios":"levelo://app?vid=00729f81-defe-4949-ab38-da427b717ebf"},"vehicle_type_id":"4","last_reported":1768980003,"current_range_meters":8000,"station_id":"ce4bhmh2rcd13ifvqgmg","pricing_plan_id":"cebpf4jnsgd1na2vs0mg"},{"bike_id":"2ebcf2fc-5d96-45e3-bf46-09b4d5485201","system_id":"levelo_inurba_marseille","lat":43.3134,"lon":5.36724,"is_reserved":false,"is_disabled":false,"rental_uris":{"android":"levelo://app?vid=2ebcf2fc-5d96-45e3-bf46-09b4d5485201","ios":"levelo://app?vid=2ebcf2fc-5d96-45e3-bf46-09b4d5485201"},"vehicle_type_id":"4","last_reported":1768980003,"current_range_meters":8000,"station_id":"ce4bgr92rcd13ifvqc6g","pricing_plan_id":"cebpf4jnsgd1na2vs0mg"},{"bike_id":"a7572f73-98f2-44ea-a6f5-f75305cef497","system_id":"levelo_inurba_marseille","lat":43.28446,"lon":5.35879,"is_reserved":false,"is_disabled":false,"rental_uris":{"android":"levelo://app?vid=a7572f73-98f2-44ea-a6f5-f75305cef497","ios":"levelo://app?vid=a7572f73-98f2-44ea-a6f5-f75305cef497"},"vehicle_type_id":"4","last_reported":1768980003,"current_range_meters":8000,"station_id":"ce4bhah2rcd13ifvqei0","pricing_plan_id":"cebpf4jnsgd1na2vs0mg"},{"bike_id":"054e163b-1e47-4a0a-a038-a7939885860e","system_id":"levelo_inurba_marseille","lat":43.32356,"lon":5.36741,"is_reserved":false,"is_disabled":false,"rental_uris":{"android":"levelo://app?vid=054e163b-1e47-4a0a-a038-a7939885860e","ios":"levelo://app?vid=054e163b-1e47-4a0a-a038-a7939885860e"},"vehicle_type_id":"4","last_reported":1768980003,"current_range_meters":8000,"station_id":"ce4bhsh2rcd13ifvqi2g","pricing_plan_id":"cebpf4jnsgd1na2vs0mg"},{"bike_id":"d98520b4-91a8-4177-8c18-76a9f2e51189","system_id":"levelo_inurba_marseille","lat":43.30071,"lon":5.38171,"is_reserved":false,"is_disabled":false,"rental_uris":{"android":"levelo://app?vid=d98520b4-91a8-4177-8c18-76a9f2e51189","ios":"levelo://app?vid=d98520b4-91a8-4177-8c18-76a9f2e51189"},"vehicle_type_id":"4","last_reported":1768980003,"current_range_meters":8000,"station_id":"ce4bgjp2rcd13ifvqbh0","pricing_plan_id":"cebpf4jnsgd1na2vs0mg"},{"bike_id":"5bdad711-817a-42cc-84b1-10d4beae812a","system_id":"levelo_inurba_marseille","lat":43.22552,"lon":5.41634,"is_reserved":false,"is_disabled":false,"rental_uris":{"android":"levelo://app?vid=5bdad711-817a-42cc-84b1-10d4beae812a","ios":"levelo://app?vid=5bdad711-817a-42cc-84b1-10d4beae812a"},"vehicle_type_id":"4","last_reported":1768980003,"current_range_meters":8000,"station_id":"st_d2o4gvlbi1j2169b742g","pricing_plan_id":"cebpf4jnsgd1na2vs0mg"},{"bike_id":"8c9d9dd5-6ae3-4a8b-ab79-ea51ac5d3931","system_id":"levelo_inurba_marseille","lat":43.27995,"lon":5.41657,"is_reserved":false,"is_disabled":true,"rental_uris":{"android":"levelo://app?vid=8c9d9dd5-6ae3-4a8b-ab79-ea51ac5d3931","ios":"levelo://app?vid=8c9d9dd5-6ae3-4a8b-ab79-ea51ac5d3931"},"vehicle_type_id":"4","last_reported":1768980003,"current_range_meters":8000,"station_id":"ce4bho12rcd13ifvqh1g","pricing_plan_id":"cebpf4jnsgd1na2vs0mg"},{"bike_id":"2e67810b-4f4a-431b-b148-ec05c2d01539","system_id":"levelo_inurba_marseille","lat":43.28159,"lon":5.42634,"is_reserved":false,"is_disabled":false,"rental_uris":{"android":"levelo://app?vid=2e67810b-4f4a-431b-b148-ec05c2d01539","ios":"levelo://app?vid=2e67810b-4f4a-431b-b148-ec05c2d01539"},"vehicle_type_id":"4","last_reported":1768980003,"current_range_meters":8000,"station_id":"ce4bhnh2rcd13ifvqgug","pricing_plan_id":"cebpf4jnsgd1na2vs0mg"},{"bike_id":"b2b1dff7-f6c8-4dbd-b544-d71f01a6a04b","system_id":"levelo_inurba_marseille","lat":43.27994,"lon":5.40014,"is_reserved":false,"is_disabled":false,"rental_uris":{"android":"levelo://app?vid=b2b1dff7-f6c8-4dbd-b544-d71f01a6a04b","ios":"levelo://app?vid=b2b1dff7-f6c8-4dbd-b544-d71f01a6a04b"},"vehicle_type_id":"4","last_reported":1768980003,"current_range_meters":8000,"station_id":"ce4bho92rcd13ifvqh4g","pricing_plan_id":"cebpf4jnsgd1na2vs0mg"},{"bike_id":"c762f7df-12bf-465f-bc69-3cd199e57933","system_id":"levelo_inurba_marseille","lat":43.29016,"lon":5.38134,"is_reserved":false,"is_disabled":false,"rental_uris":{"android":"levelo://app?vid=c762f7df-12bf-465f-bc69-3cd199e57933","ios":"levelo://app?vid=c762f7df-12bf-465f-bc69-3cd199e57933"},"vehicle_type_id":"4","last_reported":1768980003,"current_range_meters":8000,"station_id":"ce4bh4p2rcd13ifvqe1g","pricing_plan_id":"cebpf4jnsgd1na2vs0mg"},{"bike_id":"a8ad6492-d6d4-4502-bd8a-54ae7790b511","system_id":"levelo_inurba_marseille","lat":43.3055,"lon":5.36697,"is_reserved":false,"is_disabled":false,"rental_uris":{"android":"levelo://app?vid=a8ad6492-d6d4-4502-bd8a-54ae7790b511","ios":"levelo://app?vid=a8ad6492-d6d4-4502-bd8a-54ae7790b511"},"vehicle_type_id":"4","last_reported":1768980003,"current_range_meters":8000,"station_id":"ce4bgrp2rcd13ifvqc9g","pricing_plan_id":"cebpf4jnsgd1na2vs0mg"},{"bike_id":"7fb60ffe-6256-45db-9ac1-b3f50b4b0668","system_id":"levelo_inurba_marseille","lat":43.25324,"lon":5.42173,"is_reserved":false,"is_disabled":false,"rental_uris":{"android":"levelo://app?vid=7fb60ffe-6256-45db-9ac1-b3f50b4b0668","ios":"levelo://app?vid=7fb60ffe-6256-45db-9ac1-b3f50b4b0668"},"vehicle_type_id":"4","last_reported":1768980003,"current_range_meters":8000,"station_id":"st_d2m65c5bi1j21697t3ng","pricing_plan_id":"cebpf4jnsgd1na2vs0mg"},{"bike_id":"7c5f6031-1866-4a15-ad5d-fd49ceff227e","system_id":"levelo_inurba_marseille","lat":43.27997,"lon":5.41675,"is_reserved":false,"is_disabled":false,"rental_uris":{"android":"levelo://app?vid=7c5f6031-1866-4a15-ad5d-fd49ceff227e","ios":"levelo://app?vid=7c5f6031-1866-4a15-ad5d-fd49ceff227e"},"vehicle_type_id":"4","last_reported":1768980003,"current_range_meters":8000,"station_id":"ce4bho12rcd13ifvqh1g","pricing_plan_id":"cebpf4jnsgd1na2vs0mg"},{"bike_id":"2c0995a4-2dde-4941-9bf7-449a4c636ac0","system_id":"levelo_inurba_marseille","lat":43.24389,"lon":5.37076,"is_reserved":false,"is_disabled":false,"rental_uris":{"android":"levelo://app?vid=2c0995a4-2dde-4941-9bf7-449a4c636ac0","ios":"levelo://app?vid=2c0995a4-2dde-4941-9bf7-449a4c636ac0"},"vehicle_type_id":"4","last_reported":1768980003,"current_range_meters":8000,"station_id":"ce4bhhh2rcd13ifvqfk0","pricing_plan_id":"cebpf4jnsgd1na2vs0mg"},{"bike_id":"e2c28729-8d62-45b4-8926-9ab1e71d898f","system_id":"levelo_inurba_marseille","lat":43.29818,"lon":5.36606,"is_reserved":false,"is_disabled":false,"rental_uris":{"android":"levelo://app?vid=e2c28729-8d62-45b4-8926-9ab1e71d898f","ios":"levelo://app?vid=e2c28729-8d62-45b4-8926-9ab1e71d898f"},"vehicle_type_id":"4","last_reported":1768980003,"current_range_meters":8000,"station_id":"","pricing_plan_id":"cebpf4jnsgd1na2vs0mg"},{"bike_id":"56993500-8409-483c-9de4-ab940db8d5e8","system_id":"levelo_inurba_marseille","lat":43.3021,"lon":5.39466,"is_reserved":false,"is_disabled":false,"rental_uris":{"android":"levelo://app?vid=56993500-8409-483c-9de4-ab940db8d5e8","ios":"levelo://app?vid=56993500-8409-483c-9de4-ab940db8d5e8"},"vehicle_type_id":"4","last_reported":1768980003,"current_range_meters":8000,"station_id":"ce4bh0p2rcd13ifvqd70","pricing_plan_id":"cebpf4jnsgd1na2vs0mg"},{"bike_id":"88053d98-b8c1-41a1-bfe1-24b0f02293f6","system_id":"levelo_inurba_marseille","lat":43.26555,"lon":5.39016,"is_reserved":false,"is_disabled":false,"rental_uris":{"android":"levelo://app?vid=88053d98-b8c1-41a1-bfe1-24b0f02293f6","ios":"levelo://app?vid=88053d98-b8c1-41a1-bfe1-24b0f02293f6"},"vehicle_type_id":"4","last_reported":1768980003,"current_range_meters":8000,"station_id":"ce4bhe12rcd13ifvqf30","pricing_plan_id":"cebpf4jnsgd1na2vs0mg"},{"bike_id":"416786c9-5441-4ae2-97be-8dd18ff4a833","system_id":"levelo_inurba_marseille","lat":43.26564,"lon":5.40317,"is_reserved":false,"is_disabled":false,"rental_uris":{"android":"levelo://app?vid=416786c9-5441-4ae2-97be-8dd18ff4a833","ios":"levelo://app?vid=416786c9-5441-4ae2-97be-8dd18ff4a833"},"vehicle_type_id":"4","last_reported":1768980003,"current_range_meters":8000,"station_id":"ce4bhmp2rcd13ifvqgng","pricing_plan_id":"cebpf4jnsgd1na2vs0mg"},{"bike_id":"0765e2ef-f3ae-42c4-afc5-bfd5dc135d08","system_id":"levelo_inurba_marseille","lat":43.32747,"lon":5.43623,"is_reserved":false,"is_disabled":false,"rental_uris":{"android":"levelo://app?vid=0765e2ef-f3ae-42c4-afc5-bfd5dc135d08","ios":"levelo://app?vid=0765e2ef-f3ae-42c4-afc5-bfd5dc135d08"},"vehicle_type_id":"4","last_reported":1768980003,"current_range_meters":8000,"station_id":"","pricing_plan_id":"cebpf4jnsgd1na2vs0mg"},{"bike_id":"f09c06aa-a05d-4b00-b228-d8bee2b62b4f","system_id":"levelo_inurba_marseille","lat":43.32357,"lon":5.36735,"is_reserved":false,"is_disabled":false,"rental_uris":{"android":"levelo://app?vid=f09c06aa-a05d-4b00-b228-d8bee2b62b4f","ios":"levelo://app?vid=f09c06aa-a05d-4b00-b228-d8bee2b62b4f"},"vehicle_type_id":"4","last_reported":1768980003,"current_range_meters":8400,"station_id":"ce4bhsh2rcd13ifvqi2g","pricing_plan_id":"cebpf4jnsgd1na2vs0mg"},{"bike_id":"f3a01c85-86e9-4a7c-837b-602faf4bbfde","system_id":"levelo_inurba_marseille","lat":43.27986,"lon":5.38694,"is_reserved":false,"is_disabled":false,"rental_uris":{"android":"levelo://app?vid=f3a01c85-86e9-4a7c-837b-602faf4bbfde","ios":"levelo://app?vid=f3a01c85-86e9-4a7c-837b-602faf4bbfde"},"vehicle_type_id":"4","last_reported":1768980003,"current_range_meters":8400,"station_id":"ce4bhg12rcd13ifvqf80","pricing_plan_id":"cebpf4jnsgd1na2vs0mg"},{"bike_id":"66954d8d-ab08-46d5-92b9-0a3a4c77b375","system_id":"levelo_inurba_marseille","lat":43.28726,"lon":5.36096,"is_reserved":false,"is_disabled":false,"rental_uris":{"android":"levelo://app?vid=66954d8d-ab08-46d5-92b9-0a3a4c77b375","ios":"levelo://app?vid=66954d8d-ab08-46d5-92b9-0a3a4c77b375"},"vehicle_type_id":"4","last_reported":1768980003,"current_range_meters":8400,"station_id":"cki0cbj6b192h4jlfktg","pricing_plan_id":"cebpf4jnsgd1na2vs0mg"},{"bike_id":"f1cf6327-3404-48ac-8d2c-c6075a0483be","system_id":"levelo_inurba_marseille","lat":43.28724,"lon":5.37941,"is_reserved":false,"is_disabled":false,"rental_uris":{"android":"levelo://app?vid=f1cf6327-3404-48ac-8d2c-c6075a0483be","ios":"levelo://app?vid=f1cf6327-3404-48ac-8d2c-c6075a0483be"},"vehicle_type_id":"4","last_reported":1768980003,"current_range_meters":8400,"station_id":"ce4bh9p2rcd13ifvqec0","pricing_plan_id":"cebpf4jnsgd1na2vs0mg"},{"bike_id":"9edda7d6-973a-48a7-8048-344d041b7b42","system_id":"levelo_inurba_marseille","lat":43.28467,"lon":5.38425,"is_reserved":false,"is_disabled":false,"rental_uris":{"android":"levelo://app?vid=9edda7d6-973a-48a7-8048-344d041b7b42","ios":"levelo://app?vid=9edda7d6-973a-48a7-8048-344d041b7b42"},"vehicle_type_id":"4","last_reported":1768980003,"current_range_meters":8400,"station_id":"ce4bh512rcd13ifvqe3g","pricing_plan_id":"cebpf4jnsgd1na2vs0mg"},{"bike_id":"5e4f73e3-15b5-4161-b411-195292d3e766","system_id":"levelo_inurba_marseille","lat":43.244671,"lon":5.425344,"is_reserved":false,"is_disabled":false,"rental_uris":{"android":"levelo://app?vid=5e4f73e3-15b5-4161-b411-195292d3e766","ios":"levelo://app?vid=5e4f73e3-15b5-4161-b411-195292d3e766"},"vehicle_type_id":"4","last_reported":1768980003,"current_range_meters":8400,"station_id":"st_d4a3vfp97mjs738cd8kg","pricing_plan_id":"cebpf4jnsgd1na2vs0mg"},{"bike_id":"4f4ed773-2cf0-4a1e-88c1-db1d7cfd52cc","system_id":"levelo_inurba_marseille","lat":43.28945,"lon":5.36638,"is_reserved":false,"is_disabled":true,"rental_uris":{"android":"levelo://app?vid=4f4ed773-2cf0-4a1e-88c1-db1d7cfd52cc","ios":"levelo://app?vid=4f4ed773-2cf0-4a1e-88c1-db1d7cfd52cc"},"vehicle_type_id":"4","last_reported":1768980003,"current_range_meters":8400,"station_id":"ce4bhap2rcd13ifvqek0","pricing_plan_id":"cebpf4jnsgd1na2vs0mg"},{"bike_id":"bc6ef5b7-7872-4e96-b44b-5c2e054f608e","system_id":"levelo_inurba_marseille","lat":43.310561,"lon":5.371634,"is_reserved":false,"is_disabled":false,"rental_uris":{"android":"levelo://app?vid=bc6ef5b7-7872-4e96-b44b-5c2e054f608e","ios":"levelo://app?vid=bc6ef5b7-7872-4e96-b44b-5c2e054f608e"},"vehicle_type_id":"4","last_reported":1768980003,"current_range_meters":8400,"station_id":"st_d4kl2rp97mjs73e7tdfg","pricing_plan_id":"cebpf4jnsgd1na2vs0mg"},{"bike_id":"d5e755f4-a16e-4389-9990-6a241727efa3","system_id":"levelo_inurba_marseille","lat":43.27344,"lon":5.42411,"is_reserved":false,"is_disabled":false,"rental_uris":{"android":"levelo://app?vid=d5e755f4-a16e-4389-9990-6a241727efa3","ios":"levelo://app?vid=d5e755f4-a16e-4389-9990-6a241727efa3"},"vehicle_type_id":"4","last_reported":1768980003,"current_range_meters":8400,"station_id":"","pricing_plan_id":"cebpf4jnsgd1na2vs0mg"},{"bike_id":"c055199c-bd62-490e-8577-d64c0f179897","system_id":"levelo_inurba_marseille","lat":43.28529,"lon":5.44111,"is_reserved":false,"is_disabled":false,"rental_uris":{"android":"levelo://app?vid=c055199c-bd62-490e-8577-d64c0f179897","ios":"levelo://app?vid=c055199c-bd62-490e-8577-d64c0f179897"},"vehicle_type_id":"4","last_reported":1768980003,"current_range_meters":8400,"station_id":"st_d3j3df2ikq2c7380ej80","pricing_plan_id":"cebpf4jnsgd1na2vs0mg"},{"bike_id":"b26b1a89-bfd7-4ae9-8891-f8a5f84b50c4","system_id":"levelo_inurba_marseille","lat":43.29263,"lon":5.36841,"is_reserved":false,"is_disabled":false,"rental_uris":{"android":"levelo://app?vid=b26b1a89-bfd7-4ae9-8891-f8a5f84b50c4","ios":"levelo://app?vid=b26b1a89-bfd7-4ae9-8891-f8a5f84b50c4"},"vehicle_type_id":"4","last_reported":1768980003,"current_range_meters":8800,"station_id":"ce4bhbp2rcd13ifvqesg","pricing_plan_id":"cebpf4jnsgd1na2vs0mg"},{"bike_id":"b91f503c-8605-4d6a-a4e9-dcdc7e1616c6","system_id":"levelo_inurba_marseille","lat":43.3075,"lon":5.37693,"is_reserved":false,"is_disabled":false,"rental_uris":{"android":"levelo://app?vid=b91f503c-8605-4d6a-a4e9-dcdc7e1616c6","ios":"levelo://app?vid=b91f503c-8605-4d6a-a4e9-dcdc7e1616c6"},"vehicle_type_id":"4","last_reported":1768980003,"current_range_meters":8800,"station_id":"","pricing_plan_id":"cebpf4jnsgd1na2vs0mg"},{"bike_id":"a57784bc-f5d9-4a04-91a0-a0ce88abf185","system_id":"levelo_inurba_marseille","lat":43.24386,"lon":5.37055,"is_reserved":false,"is_disabled":false,"rental_uris":{"android":"levelo://app?vid=a57784bc-f5d9-4a04-91a0-a0ce88abf185","ios":"levelo://app?vid=a57784bc-f5d9-4a04-91a0-a0ce88abf185"},"vehicle_type_id":"4","last_reported":1768980003,"current_range_meters":8800,"station_id":"ce4bhhh2rcd13ifvqfk0","pricing_plan_id":"cebpf4jnsgd1na2vs0mg"},{"bike_id":"bbdf18db-231e-4ed5-8700-c5b9cb7287e0","system_id":"levelo_inurba_marseille","lat":43.248097,"lon":5.374574,"is_reserved":false,"is_disabled":false,"rental_uris":{"android":"levelo://app?vid=bbdf18db-231e-4ed5-8700-c5b9cb7287e0","ios":"levelo://app?vid=bbdf18db-231e-4ed5-8700-c5b9cb7287e0"},"vehicle_type_id":"4","last_reported":1768980003,"current_range_meters":8800,"station_id":"ce4bhgh2rcd13ifvqfb0","pricing_plan_id":"cebpf4jnsgd1na2vs0mg"},{"bike_id":"afcede41-e8c8-492e-a6e3-4b5afc8eead9","system_id":"levelo_inurba_marseille","lat":43.27804,"lon":5.40722,"is_reserved":false,"is_disabled":false,"rental_uris":{"android":"levelo://app?vid=afcede41-e8c8-492e-a6e3-4b5afc8eead9","ios":"levelo://app?vid=afcede41-e8c8-492e-a6e3-4b5afc8eead9"},"vehicle_type_id":"4","last_reported":1768980003,"current_range_meters":8800,"station_id":"ce4bhnh2rcd13ifvqgtg","pricing_plan_id":"cebpf4jnsgd1na2vs0mg"},{"bike_id":"fe2a828f-710f-491e-b529-f22ca09a8365","system_id":"levelo_inurba_marseille","lat":43.30726,"lon":5.40959,"is_reserved":false,"is_disabled":false,"rental_uris":{"android":"levelo://app?vid=fe2a828f-710f-491e-b529-f22ca09a8365","ios":"levelo://app?vid=fe2a828f-710f-491e-b529-f22ca09a8365"},"vehicle_type_id":"4","last_reported":1768980003,"current_range_meters":8800,"station_id":"","pricing_plan_id":"cebpf4jnsgd1na2vs0mg"},{"bike_id":"f245b279-0874-4580-99fa-dc4431352954","system_id":"levelo_inurba_marseille","lat":43.28703,"lon":5.37921,"is_reserved":false,"is_disabled":true,"rental_uris":{"android":"levelo://app?vid=f245b279-0874-4580-99fa-dc4431352954","ios":"levelo://app?vid=f245b279-0874-4580-99fa-dc4431352954"},"vehicle_type_id":"4","last_reported":1768980003,"current_range_meters":8800,"station_id":"ce4bh9p2rcd13ifvqec0","pricing_plan_id":"cebpf4jnsgd1na2vs0mg"},{"bike_id":"5ff33327-f48a-4fb3-9190-f9bf86d3d88c","system_id":"levelo_inurba_marseille","lat":43.31137,"lon":5.38726,"is_reserved":false,"is_disabled":false,"rental_uris":{"android":"levelo://app?vid=5ff33327-f48a-4fb3-9190-f9bf86d3d88c","ios":"levelo://app?vid=5ff33327-f48a-4fb3-9190-f9bf86d3d88c"},"vehicle_type_id":"4","last_reported":1768980003,"current_range_meters":8800,"station_id":"ce4bgv12rcd13ifvqcp0","pricing_plan_id":"cebpf4jnsgd1na2vs0mg"},{"bike_id":"ca1f68a2-e356-46d7-8d5f-503710c9279d","system_id":"levelo_inurba_marseille","lat":43.25581,"lon":5.38233,"is_reserved":false,"is_disabled":false,"rental_uris":{"android":"levelo://app?vid=ca1f68a2-e356-46d7-8d5f-503710c9279d","ios":"levelo://app?vid=ca1f68a2-e356-46d7-8d5f-503710c9279d"},"vehicle_type_id":"4","last_reported":1768980003,"current_range_meters":8800,"station_id":"ce4bhih2rcd13ifvqfs0","pricing_plan_id":"cebpf4jnsgd1na2vs0mg"},{"bike_id":"ed000a20-5fdd-4a1e-860a-e789c3aab9e6","system_id":"levelo_inurba_marseille","lat":43.24548,"lon":5.39514,"is_reserved":false,"is_disabled":false,"rental_uris":{"android":"levelo://app?vid=ed000a20-5fdd-4a1e-860a-e789c3aab9e6","ios":"levelo://app?vid=ed000a20-5fdd-4a1e-860a-e789c3aab9e6"},"vehicle_type_id":"4","last_reported":1768980003,"current_range_meters":8800,"station_id":"ce4bhlp2rcd13ifvqgjg","pricing_plan_id":"cebpf4jnsgd1na2vs0mg"},{"bike_id":"d3a42661-d9b0-4432-8a27-a3866875170d","system_id":"levelo_inurba_marseille","lat":43.27818,"lon":5.40726,"is_reserved":false,"is_disabled":false,"rental_uris":{"android":"levelo://app?vid=d3a42661-d9b0-4432-8a27-a3866875170d","ios":"levelo://app?vid=d3a42661-d9b0-4432-8a27-a3866875170d"},"vehicle_type_id":"4","last_reported":1768980003,"current_range_meters":8800,"station_id":"ce4bhnh2rcd13ifvqgtg","pricing_plan_id":"cebpf4jnsgd1na2vs0mg"},{"bike_id":"36dcd6ff-661c-42a2-bd35-3d96006951ee","system_id":"levelo_inurba_marseille","lat":43.23196,"lon":5.3996,"is_reserved":false,"is_disabled":false,"rental_uris":{"android":"levelo://app?vid=36dcd6ff-661c-42a2-bd35-3d96006951ee","ios":"levelo://app?vid=36dcd6ff-661c-42a2-bd35-3d96006951ee"},"vehicle_type_id":"4","last_reported":1768980003,"current_range_meters":8800,"station_id":"ce4bhn12rcd13ifvqgqg","pricing_plan_id":"cebpf4jnsgd1na2vs0mg"},{"bike_id":"aec5c08c-9f05-47e9-bb02-2d63b83fc483","system_id":"levelo_inurba_marseille","lat":43.26821,"lon":5.39145,"is_reserved":false,"is_disabled":false,"rental_uris":{"android":"levelo://app?vid=aec5c08c-9f05-47e9-bb02-2d63b83fc483","ios":"levelo://app?vid=aec5c08c-9f05-47e9-bb02-2d63b83fc483"},"vehicle_type_id":"4","last_reported":1768980003,"current_range_meters":8800,"station_id":"","pricing_plan_id":"cebpf4jnsgd1na2vs0mg"},{"bike_id":"e10b96cc-cdf7-441b-8565-de90d642fec7","system_id":"levelo_inurba_marseille","lat":43.24362,"lon":5.37114,"is_reserved":false,"is_disabled":false,"rental_uris":{"android":"levelo://app?vid=e10b96cc-cdf7-441b-8565-de90d642fec7","ios":"levelo://app?vid=e10b96cc-cdf7-441b-8565-de90d642fec7"},"vehicle_type_id":"4","last_reported":1768980003,"current_range_meters":8800,"station_id":"ce4bhhh2rcd13ifvqfk0","pricing_plan_id":"cebpf4jnsgd1na2vs0mg"},{"bike_id":"04b69fab-5b0f-4f30-8a15-f916beab87ff","system_id":"levelo_inurba_marseille","lat":43.30578,"lon":5.39368,"is_reserved":false,"is_disabled":false,"rental_uris":{"android":"levelo://app?vid=04b69fab-5b0f-4f30-8a15-f916beab87ff","ios":"levelo://app?vid=04b69fab-5b0f-4f30-8a15-f916beab87ff"},"vehicle_type_id":"4","last_reported":1768980003,"current_range_meters":8800,"station_id":"ce4bh0p2rcd13ifvqd80","pricing_plan_id":"cebpf4jnsgd1na2vs0mg"},{"bike_id":"87376c51-7b52-4611-acd2-49441baafe3f","system_id":"levelo_inurba_marseille","lat":43.24616,"lon":5.40209,"is_reserved":false,"is_disabled":false,"rental_uris":{"android":"levelo://app?vid=87376c51-7b52-4611-acd2-49441baafe3f","ios":"levelo://app?vid=87376c51-7b52-4611-acd2-49441baafe3f"},"vehicle_type_id":"4","last_reported":1768980003,"current_range_meters":8800,"station_id":"","pricing_plan_id":"cebpf4jnsgd1na2vs0mg"},{"bike_id":"52091d03-9a2d-4146-a28b-bfef8db666c3","system_id":"levelo_inurba_marseille","lat":43.26537,"lon":5.40345,"is_reserved":false,"is_disabled":false,"rental_uris":{"android":"levelo://app?vid=52091d03-9a2d-4146-a28b-bfef8db666c3","ios":"levelo://app?vid=52091d03-9a2d-4146-a28b-bfef8db666c3"},"vehicle_type_id":"4","last_reported":1768980003,"current_range_meters":8800,"station_id":"ce4bhmp2rcd13ifvqgng","pricing_plan_id":"cebpf4jnsgd1na2vs0mg"},{"bike_id":"e60b80c1-e035-4d06-8dfd-6a5996278e1f","system_id":"levelo_inurba_marseille","lat":43.24473,"lon":5.42532,"is_reserved":false,"is_disabled":false,"rental_uris":{"android":"levelo://app?vid=e60b80c1-e035-4d06-8dfd-6a5996278e1f","ios":"levelo://app?vid=e60b80c1-e035-4d06-8dfd-6a5996278e1f"},"vehicle_type_id":"4","last_reported":1768980003,"current_range_meters":8800,"station_id":"st_d4a3vfp97mjs738cd8kg","pricing_plan_id":"cebpf4jnsgd1na2vs0mg"},{"bike_id":"b65e5898-fb70-46dc-994d-a863c78055ba","system_id":"levelo_inurba_marseille","lat":43.28857,"lon":5.35871,"is_reserved":false,"is_disabled":false,"rental_uris":{"android":"levelo://app?vid=b65e5898-fb70-46dc-994d-a863c78055ba","ios":"levelo://app?vid=b65e5898-fb70-46dc-994d-a863c78055ba"},"vehicle_type_id":"4","last_reported":1768980003,"current_range_meters":8800,"station_id":"ce4bhb12rcd13ifvqem0","pricing_plan_id":"cebpf4jnsgd1na2vs0mg"},{"bike_id":"131d083d-d299-49de-ae79-91ebeb210640","system_id":"levelo_inurba_marseille","lat":43.25713,"lon":5.41799,"is_reserved":false,"is_disabled":false,"rental_uris":{"android":"levelo://app?vid=131d083d-d299-49de-ae79-91ebeb210640","ios":"levelo://app?vid=131d083d-d299-49de-ae79-91ebeb210640"},"vehicle_type_id":"4","last_reported":1768980003,"current_range_meters":8800,"station_id":"","pricing_plan_id":"cebpf4jnsgd1na2vs0mg"},{"bike_id":"6b3ecfa3-9037-4e23-a840-43535853add1","system_id":"levelo_inurba_marseille","lat":43.28939,"lon":5.39631,"is_reserved":false,"is_disabled":false,"rental_uris":{"android":"levelo://app?vid=6b3ecfa3-9037-4e23-a840-43535853add1","ios":"levelo://app?vid=6b3ecfa3-9037-4e23-a840-43535853add1"},"vehicle_type_id":"4","last_reported":1768980003,"current_range_meters":8800,"station_id":"ce4bh3h2rcd13ifvqdn0","pricing_plan_id":"cebpf4jnsgd1na2vs0mg"},{"bike_id":"3cc919ac-5f01-4454-8978-bc5b0a7c1a98","system_id":"levelo_inurba_marseille","lat":43.32533,"lon":5.41424,"is_reserved":false,"is_disabled":false,"rental_uris":{"android":"levelo://app?vid=3cc919ac-5f01-4454-8978-bc5b0a7c1a98","ios":"levelo://app?vid=3cc919ac-5f01-4454-8978-bc5b0a7c1a98"},"vehicle_type_id":"4","last_reported":1768980003,"current_range_meters":9200,"station_id":"ce4bhq12rcd13ifvqhhg","pricing_plan_id":"cebpf4jnsgd1na2vs0mg"},{"bike_id":"19c9b524-76f1-4e5d-8be9-000b11a19079","system_id":"levelo_inurba_marseille","lat":43.25015,"lon":5.38914,"is_reserved":false,"is_disabled":false,"rental_uris":{"android":"levelo://app?vid=19c9b524-76f1-4e5d-8be9-000b11a19079","ios":"levelo://app?vid=19c9b524-76f1-4e5d-8be9-000b11a19079"},"vehicle_type_id":"4","last_reported":1768980003,"current_range_meters":9200,"station_id":"ce4bhgp2rcd13ifvqfd0","pricing_plan_id":"cebpf4jnsgd1na2vs0mg"},{"bike_id":"f773a9d9-f935-4d99-b378-4e606bac7bc4","system_id":"levelo_inurba_marseille","lat":43.29281,"lon":5.37464,"is_reserved":false,"is_disabled":false,"rental_uris":{"android":"levelo://app?vid=f773a9d9-f935-4d99-b378-4e606bac7bc4","ios":"levelo://app?vid=f773a9d9-f935-4d99-b378-4e606bac7bc4"},"vehicle_type_id":"4","last_reported":1768980003,"current_range_meters":9200,"station_id":"ce4bgi12rcd13ifvqb70","pricing_plan_id":"cebpf4jnsgd1na2vs0mg"},{"bike_id":"ebc59118-e1a4-482d-84d0-eafb34b0b9ea","system_id":"levelo_inurba_marseille","lat":43.2378,"lon":5.36646,"is_reserved":false,"is_disabled":false,"rental_uris":{"android":"levelo://app?vid=ebc59118-e1a4-482d-84d0-eafb34b0b9ea","ios":"levelo://app?vid=ebc59118-e1a4-482d-84d0-eafb34b0b9ea"},"vehicle_type_id":"4","last_reported":1768980003,"current_range_meters":9200,"station_id":"st_d3nk18o9ro0c73en2l3g","pricing_plan_id":"cebpf4jnsgd1na2vs0mg"},{"bike_id":"90fd9743-abf7-4844-951b-b0c621e30ae6","system_id":"levelo_inurba_marseille","lat":43.30908,"lon":5.36855,"is_reserved":false,"is_disabled":false,"rental_uris":{"android":"levelo://app?vid=90fd9743-abf7-4844-951b-b0c621e30ae6","ios":"levelo://app?vid=90fd9743-abf7-4844-951b-b0c621e30ae6"},"vehicle_type_id":"4","last_reported":1768980003,"current_range_meters":9200,"station_id":"ce4bgn92rcd13ifvqbvg","pricing_plan_id":"cebpf4jnsgd1na2vs0mg"},{"bike_id":"fddbb7cb-a21d-46ff-8d07-df9eecd44019","system_id":"levelo_inurba_marseille","lat":43.32105,"lon":5.36765,"is_reserved":false,"is_disabled":false,"rental_uris":{"android":"levelo://app?vid=fddbb7cb-a21d-46ff-8d07-df9eecd44019","ios":"levelo://app?vid=fddbb7cb-a21d-46ff-8d07-df9eecd44019"},"vehicle_type_id":"4","last_reported":1768980003,"current_range_meters":9200,"station_id":"ce4bhrh2rcd13ifvqhug","pricing_plan_id":"cebpf4jnsgd1na2vs0mg"},{"bike_id":"bf9df301-dc0d-41cc-96a1-27301e9f819b","system_id":"levelo_inurba_marseille","lat":43.28475,"lon":5.48394,"is_reserved":false,"is_disabled":false,"rental_uris":{"android":"levelo://app?vid=bf9df301-dc0d-41cc-96a1-27301e9f819b","ios":"levelo://app?vid=bf9df301-dc0d-41cc-96a1-27301e9f819b"},"vehicle_type_id":"4","last_reported":1768980003,"current_range_meters":9200,"station_id":"","pricing_plan_id":"cebpf4jnsgd1na2vs0mg"},{"bike_id":"9eb838f2-7d77-4f99-980e-746abce00d4e","system_id":"levelo_inurba_marseille","lat":43.248,"lon":5.37463,"is_reserved":false,"is_disabled":false,"rental_uris":{"android":"levelo://app?vid=9eb838f2-7d77-4f99-980e-746abce00d4e","ios":"levelo://app?vid=9eb838f2-7d77-4f99-980e-746abce00d4e"},"vehicle_type_id":"4","last_reported":1768980003,"current_range_meters":9200,"station_id":"ce4bhgh2rcd13ifvqfb0","pricing_plan_id":"cebpf4jnsgd1na2vs0mg"},{"bike_id":"186cac83-ddb6-4b01-b2ec-699c3d975dab","system_id":"levelo_inurba_marseille","lat":43.30242,"lon":5.40054,"is_reserved":false,"is_disabled":false,"rental_uris":{"android":"levelo://app?vid=186cac83-ddb6-4b01-b2ec-699c3d975dab","ios":"levelo://app?vid=186cac83-ddb6-4b01-b2ec-699c3d975dab"},"vehicle_type_id":"4","last_reported":1768980003,"current_range_meters":9200,"station_id":"ce4bgvh2rcd13ifvqcs0","pricing_plan_id":"cebpf4jnsgd1na2vs0mg"},{"bike_id":"83461687-2d6f-44e3-8195-fb721f9fb181","system_id":"levelo_inurba_marseille","lat":43.28474,"lon":5.48406,"is_reserved":false,"is_disabled":false,"rental_uris":{"android":"levelo://app?vid=83461687-2d6f-44e3-8195-fb721f9fb181","ios":"levelo://app?vid=83461687-2d6f-44e3-8195-fb721f9fb181"},"vehicle_type_id":"4","last_reported":1768980003,"current_range_meters":9200,"station_id":"","pricing_plan_id":"cebpf4jnsgd1na2vs0mg"},{"bike_id":"08d4b5bb-2524-47d0-805a-b030853100e4","system_id":"levelo_inurba_marseille","lat":43.25902,"lon":5.41685,"is_reserved":false,"is_disabled":false,"rental_uris":{"android":"levelo://app?vid=08d4b5bb-2524-47d0-805a-b030853100e4","ios":"levelo://app?vid=08d4b5bb-2524-47d0-805a-b030853100e4"},"vehicle_type_id":"4","last_reported":1768980003,"current_range_meters":9200,"station_id":"","pricing_plan_id":"cebpf4jnsgd1na2vs0mg"},{"bike_id":"babbe422-28f9-4e25-b94d-b05370be84e3","system_id":"levelo_inurba_marseille","lat":43.25094,"lon":5.40333,"is_reserved":false,"is_disabled":true,"rental_uris":{"android":"levelo://app?vid=babbe422-28f9-4e25-b94d-b05370be84e3","ios":"levelo://app?vid=babbe422-28f9-4e25-b94d-b05370be84e3"},"vehicle_type_id":"4","last_reported":1768980003,"current_range_meters":9200,"station_id":"ce4bhlh2rcd13ifvqgig","pricing_plan_id":"cebpf4jnsgd1na2vs0mg"},{"bike_id":"f733edff-8edc-4a21-9891-a9e1270bd171","system_id":"levelo_inurba_marseille","lat":43.281108,"lon":5.378486,"is_reserved":false,"is_disabled":false,"rental_uris":{"android":"levelo://app?vid=f733edff-8edc-4a21-9891-a9e1270bd171","ios":"levelo://app?vid=f733edff-8edc-4a21-9891-a9e1270bd171"},"vehicle_type_id":"4","last_reported":1768980003,"current_range_meters":9200,"station_id":"ce4bha12rcd13ifvqee0","pricing_plan_id":"cebpf4jnsgd1na2vs0mg"},{"bike_id":"6fb19c91-7ffd-4222-b20e-e8f53699bc07","system_id":"levelo_inurba_marseille","lat":43.31891,"lon":5.40747,"is_reserved":false,"is_disabled":false,"rental_uris":{"android":"levelo://app?vid=6fb19c91-7ffd-4222-b20e-e8f53699bc07","ios":"levelo://app?vid=6fb19c91-7ffd-4222-b20e-e8f53699bc07"},"vehicle_type_id":"4","last_reported":1768980003,"current_range_meters":9600,"station_id":"ce4bhq12rcd13ifvqhig","pricing_plan_id":"cebpf4jnsgd1na2vs0mg"},{"bike_id":"867ac40e-a8dc-48f5-8111-7f82cf98b0b9","system_id":"levelo_inurba_marseille","lat":43.31107,"lon":5.37765,"is_reserved":false,"is_disabled":false,"rental_uris":{"android":"levelo://app?vid=867ac40e-a8dc-48f5-8111-7f82cf98b0b9","ios":"levelo://app?vid=867ac40e-a8dc-48f5-8111-7f82cf98b0b9"},"vehicle_type_id":"4","last_reported":1768980003,"current_range_meters":9600,"station_id":"ce4bgt92rcd13ifvqcg0","pricing_plan_id":"cebpf4jnsgd1na2vs0mg"},{"bike_id":"30eca7a9-4000-4007-87b6-0617595cd5f4","system_id":"levelo_inurba_marseille","lat":43.30467,"lon":5.37906,"is_reserved":false,"is_disabled":false,"rental_uris":{"android":"levelo://app?vid=30eca7a9-4000-4007-87b6-0617595cd5f4","ios":"levelo://app?vid=30eca7a9-4000-4007-87b6-0617595cd5f4"},"vehicle_type_id":"4","last_reported":1768980003,"current_range_meters":9600,"station_id":"ce4bgup2rcd13ifvqcn0","pricing_plan_id":"cebpf4jnsgd1na2vs0mg"},{"bike_id":"e07cc4c7-f8da-43b9-86b7-9b5a29a91e8f","system_id":"levelo_inurba_marseille","lat":43.27912,"lon":5.38058,"is_reserved":false,"is_disabled":false,"rental_uris":{"android":"levelo://app?vid=e07cc4c7-f8da-43b9-86b7-9b5a29a91e8f","ios":"levelo://app?vid=e07cc4c7-f8da-43b9-86b7-9b5a29a91e8f"},"vehicle_type_id":"4","last_reported":1768980003,"current_range_meters":9600,"station_id":"ce4bhf92rcd13ifvqf50","pricing_plan_id":"cebpf4jnsgd1na2vs0mg"},{"bike_id":"ae082b45-528d-4d2d-a946-c7dc2ab87b58","system_id":"levelo_inurba_marseille","lat":43.27388,"lon":5.36267,"is_reserved":false,"is_disabled":true,"rental_uris":{"android":"levelo://app?vid=ae082b45-528d-4d2d-a946-c7dc2ab87b58","ios":"levelo://app?vid=ae082b45-528d-4d2d-a946-c7dc2ab87b58"},"vehicle_type_id":"4","last_reported":1768980003,"current_range_meters":9600,"station_id":"ce4bhbh2rcd13ifvqeo0","pricing_plan_id":"cebpf4jnsgd1na2vs0mg"},{"bike_id":"86fab962-3ac3-4bbf-b258-0c4cf3a7dea9","system_id":"levelo_inurba_marseille","lat":43.28609,"lon":5.37086,"is_reserved":false,"is_disabled":false,"rental_uris":{"android":"levelo://app?vid=86fab962-3ac3-4bbf-b258-0c4cf3a7dea9","ios":"levelo://app?vid=86fab962-3ac3-4bbf-b258-0c4cf3a7dea9"},"vehicle_type_id":"4","last_reported":1768980003,"current_range_meters":9600,"station_id":"ce4bht12rcd13ifvqi60","pricing_plan_id":"cebpf4jnsgd1na2vs0mg"},{"bike_id":"31beee0b-310d-4fa6-8c0d-3f98a82c1c3d","system_id":"levelo_inurba_marseille","lat":43.29797,"lon":5.39328,"is_reserved":false,"is_disabled":false,"rental_uris":{"android":"levelo://app?vid=31beee0b-310d-4fa6-8c0d-3f98a82c1c3d","ios":"levelo://app?vid=31beee0b-310d-4fa6-8c0d-3f98a82c1c3d"},"vehicle_type_id":"4","last_reported":1768980003,"current_range_meters":9600,"station_id":"chh1huq6cuj3fo74tm60","pricing_plan_id":"cebpf4jnsgd1na2vs0mg"},{"bike_id":"3bad2088-c896-4972-b383-acdeca83acb7","system_id":"levelo_inurba_marseille","lat":43.26494,"lon":5.39558,"is_reserved":false,"is_disabled":false,"rental_uris":{"android":"levelo://app?vid=3bad2088-c896-4972-b383-acdeca83acb7","ios":"levelo://app?vid=3bad2088-c896-4972-b383-acdeca83acb7"},"vehicle_type_id":"4","last_reported":1768980003,"current_range_meters":9600,"station_id":"ce4bhi12rcd13ifvqfq0","pricing_plan_id":"cebpf4jnsgd1na2vs0mg"},{"bike_id":"0c854f8e-3157-43a2-a218-3c98ead34c78","system_id":"levelo_inurba_marseille","lat":43.337444,"lon":5.374475,"is_reserved":false,"is_disabled":false,"rental_uris":{"android":"levelo://app?vid=0c854f8e-3157-43a2-a218-3c98ead34c78","ios":"levelo://app?vid=0c854f8e-3157-43a2-a218-3c98ead34c78"},"vehicle_type_id":"4","last_reported":1768980003,"current_range_meters":9600,"station_id":"","pricing_plan_id":"cebpf4jnsgd1na2vs0mg"},{"bike_id":"b3af5828-d55e-4f7d-a788-0b9c5f8f9492","system_id":"levelo_inurba_marseille","lat":43.26489,"lon":5.41912,"is_reserved":false,"is_disabled":true,"rental_uris":{"android":"levelo://app?vid=b3af5828-d55e-4f7d-a788-0b9c5f8f9492","ios":"levelo://app?vid=b3af5828-d55e-4f7d-a788-0b9c5f8f9492"},"vehicle_type_id":"4","last_reported":1768980003,"current_range_meters":9600,"station_id":"","pricing_plan_id":"cebpf4jnsgd1na2vs0mg"},{"bike_id":"5dff584e-04d8-4b32-afe1-ae3c81652a10","system_id":"levelo_inurba_marseille","lat":43.31174,"lon":5.38707,"is_reserved":false,"is_disabled":false,"rental_uris":{"android":"levelo://app?vid=5dff584e-04d8-4b32-afe1-ae3c81652a10","ios":"levelo://app?vid=5dff584e-04d8-4b32-afe1-ae3c81652a10"},"vehicle_type_id":"4","last_reported":1768980003,"current_range_meters":9600,"station_id":"ce4bgv12rcd13ifvqcp0","pricing_plan_id":"cebpf4jnsgd1na2vs0mg"},{"bike_id":"66b52710-c980-4dbe-934a-c3e8ffc0f9e1","system_id":"levelo_inurba_marseille","lat":43.31579,"lon":5.40497,"is_reserved":false,"is_disabled":false,"rental_uris":{"android":"levelo://app?vid=66b52710-c980-4dbe-934a-c3e8ffc0f9e1","ios":"levelo://app?vid=66b52710-c980-4dbe-934a-c3e8ffc0f9e1"},"vehicle_type_id":"4","last_reported":1768980003,"current_range_meters":9600,"station_id":"","pricing_plan_id":"cebpf4jnsgd1na2vs0mg"},{"bike_id":"cccdb4b1-1771-47ab-8eca-948557d1662a","system_id":"levelo_inurba_marseille","lat":43.28841,"lon":5.3932,"is_reserved":false,"is_disabled":false,"rental_uris":{"android":"levelo://app?vid=cccdb4b1-1771-47ab-8eca-948557d1662a","ios":"levelo://app?vid=cccdb4b1-1771-47ab-8eca-948557d1662a"},"vehicle_type_id":"4","last_reported":1768980003,"current_range_meters":9600,"station_id":"ce4bh2p2rcd13ifvqdi0","pricing_plan_id":"cebpf4jnsgd1na2vs0mg"},{"bike_id":"22bc6d8e-7e0c-4234-afe0-c88e2589ac70","system_id":"levelo_inurba_marseille","lat":43.27075,"lon":5.399,"is_reserved":false,"is_disabled":false,"rental_uris":{"android":"levelo://app?vid=22bc6d8e-7e0c-4234-afe0-c88e2589ac70","ios":"levelo://app?vid=22bc6d8e-7e0c-4234-afe0-c88e2589ac70"},"vehicle_type_id":"4","last_reported":1768980003,"current_range_meters":9600,"station_id":"","pricing_plan_id":"cebpf4jnsgd1na2vs0mg"},{"bike_id":"77386d1b-a716-434c-a4f6-ae30c9314cb3","system_id":"levelo_inurba_marseille","lat":43.2292,"lon":5.35388,"is_reserved":false,"is_disabled":false,"rental_uris":{"android":"levelo://app?vid=77386d1b-a716-434c-a4f6-ae30c9314cb3","ios":"levelo://app?vid=77386d1b-a716-434c-a4f6-ae30c9314cb3"},"vehicle_type_id":"4","last_reported":1768980003,"current_range_meters":9600,"station_id":"cpo3532slgdg3j2ikp40","pricing_plan_id":"cebpf4jnsgd1na2vs0mg"},{"bike_id":"3055137b-2ec9-48fb-9677-03d96a1990d3","system_id":"levelo_inurba_marseille","lat":43.31267,"lon":5.4017,"is_reserved":false,"is_disabled":false,"rental_uris":{"android":"levelo://app?vid=3055137b-2ec9-48fb-9677-03d96a1990d3","ios":"levelo://app?vid=3055137b-2ec9-48fb-9677-03d96a1990d3"},"vehicle_type_id":"4","last_reported":1768980003,"current_range_meters":9600,"station_id":"ce4bh092rcd13ifvqd30","pricing_plan_id":"cebpf4jnsgd1na2vs0mg"},{"bike_id":"060f7fae-3acc-4255-9549-4dd0f8bc1ac2","system_id":"levelo_inurba_marseille","lat":43.28735,"lon":5.36089,"is_reserved":false,"is_disabled":false,"rental_uris":{"android":"levelo://app?vid=060f7fae-3acc-4255-9549-4dd0f8bc1ac2","ios":"levelo://app?vid=060f7fae-3acc-4255-9549-4dd0f8bc1ac2"},"vehicle_type_id":"4","last_reported":1768980003,"current_range_meters":9600,"station_id":"cki0cbj6b192h4jlfktg","pricing_plan_id":"cebpf4jnsgd1na2vs0mg"},{"bike_id":"92fae753-14ea-45c8-9fbe-b2f17fe3a0df","system_id":"levelo_inurba_marseille","lat":43.320996,"lon":5.367666,"is_reserved":false,"is_disabled":false,"rental_uris":{"android":"levelo://app?vid=92fae753-14ea-45c8-9fbe-b2f17fe3a0df","ios":"levelo://app?vid=92fae753-14ea-45c8-9fbe-b2f17fe3a0df"},"vehicle_type_id":"4","last_reported":1768980003,"current_range_meters":9600,"station_id":"ce4bhrh2rcd13ifvqhug","pricing_plan_id":"cebpf4jnsgd1na2vs0mg"},{"bike_id":"8d79b599-322a-4b8d-bfb0-fd0690ea34d0","system_id":"levelo_inurba_marseille","lat":43.28806,"lon":5.38044,"is_reserved":false,"is_disabled":false,"rental_uris":{"android":"levelo://app?vid=8d79b599-322a-4b8d-bfb0-fd0690ea34d0","ios":"levelo://app?vid=8d79b599-322a-4b8d-bfb0-fd0690ea34d0"},"vehicle_type_id":"4","last_reported":1768980003,"current_range_meters":9600,"station_id":"","pricing_plan_id":"cebpf4jnsgd1na2vs0mg"},{"bike_id":"3349594b-10bf-4c91-a95a-492fb8e73043","system_id":"levelo_inurba_marseille","lat":43.33347,"lon":5.41093,"is_reserved":false,"is_disabled":false,"rental_uris":{"android":"levelo://app?vid=3349594b-10bf-4c91-a95a-492fb8e73043","ios":"levelo://app?vid=3349594b-10bf-4c91-a95a-492fb8e73043"},"vehicle_type_id":"4","last_reported":1768980003,"current_range_meters":9600,"station_id":"","pricing_plan_id":"cebpf4jnsgd1na2vs0mg"},{"bike_id":"71059e21-6e7c-414b-991b-b5ce09a3392d","system_id":"levelo_inurba_marseille","lat":43.29752,"lon":5.38132,"is_reserved":false,"is_disabled":false,"rental_uris":{"android":"levelo://app?vid=71059e21-6e7c-414b-991b-b5ce09a3392d","ios":"levelo://app?vid=71059e21-6e7c-414b-991b-b5ce09a3392d"},"vehicle_type_id":"4","last_reported":1768980003,"current_range_meters":10000,"station_id":"","pricing_plan_id":"cebpf4jnsgd1na2vs0mg"},{"bike_id":"fc5d102e-6a36-4a5b-99d5-23cf30eec9b5","system_id":"levelo_inurba_marseille","lat":43.23192,"lon":5.3555,"is_reserved":false,"is_disabled":false,"rental_uris":{"android":"levelo://app?vid=fc5d102e-6a36-4a5b-99d5-23cf30eec9b5","ios":"levelo://app?vid=fc5d102e-6a36-4a5b-99d5-23cf30eec9b5"},"vehicle_type_id":"4","last_reported":1768980003,"current_range_meters":10000,"station_id":"ce4bhu92rcd13ifvqi70","pricing_plan_id":"cebpf4jnsgd1na2vs0mg"},{"bike_id":"f00205b2-6d66-452f-bf80-5b2abb7cca69","system_id":"levelo_inurba_marseille","lat":43.292075,"lon":5.393221,"is_reserved":false,"is_disabled":false,"rental_uris":{"android":"levelo://app?vid=f00205b2-6d66-452f-bf80-5b2abb7cca69","ios":"levelo://app?vid=f00205b2-6d66-452f-bf80-5b2abb7cca69"},"vehicle_type_id":"4","last_reported":1768980003,"current_range_meters":10000,"station_id":"ce4bh192rcd13ifvqdd0","pricing_plan_id":"cebpf4jnsgd1na2vs0mg"},