{"last_updated":1705788358,"ttl":30,"version":"2.2","data":{"bikes":[{"bike_id":"535040ec-87b8-49d0-b6a1-4e0df1bed790","system_id":"levelo_inurba_marseille","lat":43.312239,"lon":5.368562,"is_reserved":false,"is_disabled":false,"rental_uris":{"android":"levelo://app?vid=535040ec-87b8-49d0-b6a1-4e0df1bed790","ios":"levelo://app?vid=535040ec-87b8-49d0-b6a1-4e0df1bed790"},"vehicle_type_id":"4","last_reported":1705788358,"current_range_meters":25600,"station_id":"ce4bgl92rcd13ifvqbq0","pricing_plan_id":"free"},{"bike_id":"729219a7-ecda-4bd7-b56e-ed076795c979","system_id":"levelo_inurba_marseille","lat":43.312239,"lon":5.368562,"is_reserved":false,"is_disabled":false,"rental_uris":{"android":"levelo://app?vid=729219a7-ecda-4bd7-b56e-ed076795c979","ios":"levelo://app?vid=729219a7-ecda-4bd7-b56e-ed076795c979"},"vehicle_type_id":"4","last_reported":1705788358,"current_range_meters":16400,"station_id":"ce4bgl92rcd13ifvqbq0","pricing_plan_id":"free"},{"bike_id":"dd4f008f-9d97-4306-af31-f7d9c999c7a3","system_id":"levelo_inurba_marseille","lat":43.312312,"lon":5.368564,"is_reserved":false,"is_disabled":false,"rental_uris":{"android":"levelo://app?vid=dd4f008f-9d97-4306-af31-f7d9c999c7a3","ios":"levelo://app?vid=dd4f008f-9d97-4306-af31-f7d9c999c7a3"},"vehicle_type_id":"4","last_reported":1705788358,"current_range_meters":1600,"station_id":"ce4bgl92rcd13ifvqbq0","pricing_plan_id":"free"},{"bike_id":"a521a0a5-59f2-40d3-8de7-de14f18e15a4","system_id":"levelo_inurba_marseille","lat":43.312239,"lon":5.368562,"is_reserved":false,"is_disabled":false,"rental_uris":{"android":"levelo://app?vid=a521a0a5-59f2-40d3-8de7-de14f18e15a4","ios":"levelo://app?vid=a521a0a5-59f2-40d3-8de7-de14f18e15a4"},"vehicle_type_id":"4","last_reported":1705788358,"current_range_meters":8800,"station_id":"ce4bgl92rcd13ifvqbq0","pricing_plan_id":"free"},{"bike_id":"8956bbe4-5271-4896-ba6e-d25e6599609d","system_id":"levelo_inurba_marseille","lat":43.314811,"lon":5.373103,"is_reserved":false,"is_disabled":false,"rental_uris":{"android":"levelo://app?vid=8956bbe4-5271-4896-ba6e-d25e6599609d","ios":"levelo://app?vid=8956bbe4-5271-4896-ba6e-d25e6599609d"},"vehicle_type_id":"4","last_reported":1705788358,"current_range_meters":1600,"station_id":"ce4bgt12rcd13ifvqcd0","pricing_plan_id":"free"},{"bike_id":"f9dabc1e-f9f7-4f9c-9d3a-3e10ecbc5811","system_id":"levelo_inurba_marseille","lat":43.314811,"lon":5.373103,"is_reserved":false,"is_disabled":false,"rental_uris":{"android":"levelo://app?vid=f9dabc1e-f9f7-4f9c-9d3a-3e10ecbc5811","ios":"levelo://app?vid=f9dabc1e-f9f7-4f9c-9d3a-3e10ecbc5811"},"vehicle_type_id":"4","last_reported":1705788358,"current_range_meters":23600,"station_id":"ce4bgt12rcd13ifvqcd0","pricing_plan_id":"free"},{"bike_id":"960e2057-412f-4e20-a975-1e9c6d457912","system_id":"levelo_inurba_marseille","lat":43.314811,"lon":5.373103,"is_reserved":false,"is_disabled":false,"rental_uris":{"android":"levelo://app?vid=960e2057-412f-4e20-a975-1e9c6d457912","ios":"levelo://app?vid=960e2057-412f-4e20-a975-1e9c6d457912"},"vehicle_type_id":"4","last_reported":1705788358,"current_range_meters":20000,"station_id":"ce4bgt12rcd13ifvqcd0","pricing_plan_id":"free"},{"bike_id":"0cfa87d4-451e-47f2-ba17-cc8ab96f7bfb","system_id":"levelo_inurba_marseille","lat":43.314811,"lon":5.373103,"is_reserved":false,"is_disabled":false,"rental_uris":{"android":"levelo://app?vid=0cfa87d4-451e-47f2-ba17-cc8ab96f7bfb","ios":"levelo://app?vid=0cfa87d4-451e-47f2-ba17-cc8ab96f7bfb"},"vehicle_type_id":"4","last_reported":1705788358,"current_range_meters":15600,"station_id":"ce4bgt12rcd13ifvqcd0","pricing_plan_id":"free"},{"bike_id":"c13706f5-a285-4ae8-9f5c-52fffc076d25","system_id":"levelo_inurba_marseille","lat":43.309039,"lon":5.371797,"is_reserved":false,"is_disabled":false,"rental_uris":{"android":"levelo://app?vid=c13706f5-a285-4ae8-9f5c-52fffc076d25","ios":"levelo://app?vid=c13706f5-a285-4ae8-9f5c-52fffc076d25"},"vehicle_type_id":"4","last_reported":1705788358,"current_range_meters":24800,"station_id":"ce4bguh2rcd13ifvqckg","pricing_plan_id":"free"},{"bike_id":"d99cc874-8fe3-4642-bb15-5da0bab5e6c6","system_id":"levelo_inurba_marseille","lat":43.305989,"lon":5.37225,"is_reserved":false,"is_disabled":false,"rental_uris":{"android":"levelo://app?vid=d99cc874-8fe3-4642-bb15-5da0bab5e6c6","ios":"levelo://app?vid=d99cc874-8fe3-4642-bb15-5da0bab5e6c6"},"vehicle_type_id":"4","last_reported":1705788358,"current_range_meters":25600,"station_id":"ce4bgqh2rcd13ifvqc4g","pricing_plan_id":"free"},{"bike_id":"7c820774-c348-446e-9e87-9725afac3bd0","system_id":"levelo_inurba_marseille","lat":43.311131,"lon":5.377651,"is_reserved":false,"is_disabled":false,"rental_uris":{"android":"levelo://app?vid=7c820774-c348-446e-9e87-9725afac3bd0","ios":"levelo://app?vid=7c820774-c348-446e-9e87-9725afac3bd0"},"vehicle_type_id":"4","last_reported":1705788358,"current_range_meters":0,"station_id":"ce4bgt92rcd13ifvqcg0","pricing_plan_id":"free"},{"bike_id":"d214740b-9e88-4191-aefa-017a428cac29","system_id":"levelo_inurba_marseille","lat":43.311131,"lon":5.377651,"is_reserved":false,"is_disabled":false,"rental_uris":{"android":"levelo://app?vid=d214740b-9e88-4191-aefa-017a428cac29","ios":"levelo://app?vid=d214740b-9e88-4191-aefa-017a428cac29"},"vehicle_type_id":"4","last_reported":1705788358,"current_range_meters":24000,"station_id":"ce4bgt92rcd13ifvqcg0","pricing_plan_id":"free"},{"bike_id":"4e08da87-a30f-4db2-9a50-8e5df3ecbe85","system_id":"levelo_inurba_marseille","lat":43.307945,"lon":5.376487,"is_reserved":false,"is_disabled":false,"rental_uris":{"android":"levelo://app?vid=4e08da87-a30f-4db2-9a50-8e5df3ecbe85","ios":"levelo://app?vid=4e08da87-a30f-4db2-9a50-8e5df3ecbe85"},"vehicle_type_id":"4","last_reported":1705788358,"current_range_meters":14800,"station_id":"ce4bgv92rcd13ifvqcq0","pricing_plan_id":"free"},{"bike_id":"cd7ccd92-eafc-4268-a297-e3c64c0af6c3","system_id":"levelo_inurba_marseille","lat":43.317075,"lon":5.377367,"is_reserved":false,"is_disabled":false,"rental_uris":{"android":"levelo://app?vid=cd7ccd92-eafc-4268-a297-e3c64c0af6c3","ios":"levelo://app?vid=cd7ccd92-eafc-4268-a297-e3c64c0af6c3"},"vehicle_type_id":"4","last_reported":1705788358,"current_range_meters":28000,"station_id":"ce4bgth2rcd13ifvqch0","pricing_plan_id":"free"},{"bike_id":"d7854f2c-e25b-4567-9ca1-100b79dde627","system_id":"levelo_inurba_marseille","lat":43.317075,"lon":5.377367,"is_reserved":false,"is_disabled":false,"rental_uris":{"android":"levelo://app?vid=d7854f2c-e25b-4567-9ca1-100b79dde627","ios":"levelo://app?vid=d7854f2c-e25b-4567-9ca1-100b79dde627"},"vehicle_type_id":"4","last_reported":1705788358,"current_range_meters":21600,"station_id":"ce4bgth2rcd13ifvqch0","pricing_plan_id":"free"},{"bike_id":"c5e37bd6-6f81-4cf3-b74b-87c0ce98b56a","system_id":"levelo_inurba_marseille","lat":43.317095,"lon":5.377454,"is_reserved":false,"is_disabled":false,"rental_uris":{"android":"levelo://app?vid=c5e37bd6-6f81-4cf3-b74b-87c0ce98b56a","ios":"levelo://app?vid=c5e37bd6-6f81-4cf3-b74b-87c0ce98b56a"},"vehicle_type_id":"4","last_reported":1705788358,"current_range_meters":14000,"station_id":"ce4bgth2rcd13ifvqch0","pricing_plan_id":"free"},{"bike_id":"bc5fa535-88b3-406b-bd14-afa0bf9eb036","system_id":"levelo_inurba_marseille","lat":43.317046,"lon":5.377547,"is_reserved":false,"is_disabled":false,"rental_uris":{"android":"levelo://app?vid=bc5fa535-88b3-406b-bd14-afa0bf9eb036","ios":"levelo://app?vid=bc5fa535-88b3-406b-bd14-afa0bf9eb036"},"vehicle_type_id":"4","last_reported":1705788358,"current_range_meters":8400,"station_id":"ce4bgth2rcd13ifvqch0","pricing_plan_id":"free"},{"bike_id":"a91f1b0c-c2f2-4f8d-95b4-3dc81767a0bd","system_id":"levelo_inurba_marseille","lat":43.317075,"lon":5.377367,"is_reserved":false,"is_disabled":false,"rental_uris":{"android":"levelo://app?vid=a91f1b0c-c2f2-4f8d-95b4-3dc81767a0bd","ios":"levelo://app?vid=a91f1b0c-c2f2-4f8d-95b4-3dc81767a0bd"},"vehicle_type_id":"4","last_reported":1705788358,"current_range_meters":26400,"station_id":"ce4bgth2rcd13ifvqch0","pricing_plan_id":"free"},{"bike_id":"12c26ea7-bf34-4d48-af42-41fcadc8a32d","system_id":"levelo_inurba_marseille","lat":43.317075,"lon":5.377367,"is_reserved":false,"is_disabled":false,"rental_uris":{"android":"levelo://app?vid=12c26ea7-bf34-4d48-af42-41fcadc8a32d","ios":"levelo://app?vid=12c26ea7-bf34-4d48-af42-41fcadc8a32d"},"vehicle_type_id":"4","last_reported":1705788358,"current_range_meters":28000,"station_id":"ce4bgth2rcd13ifvqch0","pricing_plan_id":"free"},{"bike_id":"601c5d0b-8b81-4894-afa1-2bf02a9165ff","system_id":"levelo_inurba_marseille","lat":43.303046,"lon":5.368981,"is_reserved":false,"is_disabled":false,"rental_uris":{"android":"levelo://app?vid=601c5d0b-8b81-4894-afa1-2bf02a9165ff","ios":"levelo://app?vid=601c5d0b-8b81-4894-afa1-2bf02a9165ff"},"vehicle_type_id":"4","last_reported":1705788358,"current_range_meters":5200,"station_id":"ce4bgqh2rcd13ifvqc5g","pricing_plan_id":"free"},{"bike_id":"c4413af1-e2e5-4b72-9f9c-fdb7bea27aab","system_id":"levelo_inurba_marseille","lat":43.31534,"lon":5.38029,"is_reserved":false,"is_disabled":false,"rental_uris":{"android":"levelo://app?vid=c4413af1-e2e5-4b72-9f9c-fdb7bea27aab","ios":"levelo://app?vid=c4413af1-e2e5-4b72-9f9c-fdb7bea27aab"},"vehicle_type_id":"4","last_reported":1705788358,"current_range_meters":9200,"station_id":"ce4bhsp2rcd13ifvqi50","pricing_plan_id":"free"},{"bike_id":"3862edf2-e94e-4d3f-94e0-6891a732e7e3","system_id":"levelo_inurba_marseille","lat":43.315293,"lon":5.380349,"is_reserved":false,"is_disabled":false,"rental_uris":{"android":"levelo://app?vid=3862edf2-e94e-4d3f-94e0-6891a732e7e3","ios":"levelo://app?vid=3862edf2-e94e-4d3f-94e0-6891a732e7e3"},"vehicle_type_id":"4","last_reported":1705788358,"current_range_meters":16000,"station_id":"ce4bhsp2rcd13ifvqi50","pricing_plan_id":"free"},{"bike_id":"4c39755b-785e-408e-9884-cbb52d8ecf85","system_id":"levelo_inurba_marseille","lat":43.31537,"lon":5.38038,"is_reserved":false,"is_disabled":false,"rental_uris":{"android":"levelo://app?vid=4c39755b-785e-408e-9884-cbb52d8ecf85","ios":"levelo://app?vid=4c39755b-785e-408e-9884-cbb52d8ecf85"},"vehicle_type_id":"4","last_reported":1705788358,"current_range_meters":5200,"station_id":"ce4bhsp2rcd13ifvqi50","pricing_plan_id":"free"},{"bike_id":"975e867f-1e65-4357-a506-a5336dd4a428","system_id":"levelo_inurba_marseille","lat":43.301939,"lon":5.366286,"is_reserved":false,"is_disabled":false,"rental_uris":{"android":"levelo://app?vid=975e867f-1e65-4357-a506-a5336dd4a428","ios":"levelo://app?vid=975e867f-1e65-4357-a506-a5336dd4a428"},"vehicle_type_id":"4","last_reported":1705788358,"current_range_meters":29200,"station_id":"ce4bgrh2rcd13ifvqc8g","pricing_plan_id":"free"},{"bike_id":"72c18ed3-d901-47d9-84fa-e8b342d9cb60","system_id":"levelo_inurba_marseille","lat":43.301939,"lon":5.366286,"is_reserved":false,"is_disabled":false,"rental_uris":{"android":"levelo://app?vid=72c18ed3-d901-47d9-84fa-e8b342d9cb60","ios":"levelo://app?vid=72c18ed3-d901-47d9-84fa-e8b342d9cb60"},"vehicle_type_id":"4","last_reported":1705788358,"current_range_meters":20000,"station_id":"ce4bgrh2rcd13ifvqc8g","pricing_plan_id":"free"},{"bike_id":"f062aafc-3e01-4d38-9365-0c29ad7606ba","system_id":"levelo_inurba_marseille","lat":43.301939,"lon":5.366286,"is_reserved":false,"is_disabled":false,"rental_uris":{"android":"levelo://app?vid=f062aafc-3e01-4d38-9365-0c29ad7606ba","ios":"levelo://app?vid=f062aafc-3e01-4d38-9365-0c29ad7606ba"},"vehicle_type_id":"4","last_reported":1705788358,"current_range_meters":26000,"station_id":"ce4bgrh2rcd13ifvqc8g","pricing_plan_id":"free"},{"bike_id":"1734f839-a8d8-441a-838c-2f96750dac61","system_id":"levelo_inurba_marseille","lat":43.301939,"lon":5.366286,"is_reserved":false,"is_disabled":false,"rental_uris":{"android":"levelo://app?vid=1734f839-a8d8-441a-838c-2f96750dac61","ios":"levelo://app?vid=1734f839-a8d8-441a-838c-2f96750dac61"},"vehicle_type_id":"4","last_reported":1705788358,"current_range_meters":16400,"station_id":"ce4bgrh2rcd13ifvqc8g","pricing_plan_id":"free"},{"bike_id":"deb2124f-5a8b-408f-99b5-a04bd5b99ccd","system_id":"levelo_inurba_marseille","lat":43.301939,"lon":5.366286,"is_reserved":false,"is_disabled":false,"rental_uris":{"android":"levelo://app?vid=deb2124f-5a8b-408f-99b5-a04bd5b99ccd","ios":"levelo://app?vid=deb2124f-5a8b-408f-99b5-a04bd5b99ccd"},"vehicle_type_id":"4","last_reported":1705788358,"current_range_meters":25200,"station_id":"ce4bgrh2rcd13ifvqc8g","pricing_plan_id":"free"},{"bike_id":"9b732ad6-a7ef-466d-9c8a-4be57953f80c","system_id":"levelo_inurba_marseille","lat":43.308012,"lon":5.381511,"is_reserved":false,"is_disabled":false,"rental_uris":{"android":"levelo://app?vid=9b732ad6-a7ef-466d-9c8a-4be57953f80c","ios":"levelo://app?vid=9b732ad6-a7ef-466d-9c8a-4be57953f80c"},"vehicle_type_id":"4","last_reported":1705788358,"current_range_meters":2000,"station_id":"ce4bgt12rcd13ifvqce0","pricing_plan_id":"free"},{"bike_id":"00f5005b-649e-4afe-ae05-a25f3c39b541","system_id":"levelo_inurba_marseille","lat":43.308012,"lon":5.381511,"is_reserved":false,"is_disabled":false,"rental_uris":{"android":"levelo://app?vid=00f5005b-649e-4afe-ae05-a25f3c39b541","ios":"levelo://app?vid=00f5005b-649e-4afe-ae05-a25f3c39b541"},"vehicle_type_id":"4","last_reported":1705788358,"current_range_meters":6400,"station_id":"ce4bgt12rcd13ifvqce0","pricing_plan_id":"free"},{"bike_id":"473641ac-6aae-4372-b0d6-cad5571f515f","system_id":"levelo_inurba_marseille","lat":43.324771,"lon":5.36557,"is_reserved":false,"is_disabled":false,"rental_uris":{"android":"levelo://app?vid=473641ac-6aae-4372-b0d6-cad5571f515f","ios":"levelo://app?vid=473641ac-6aae-4372-b0d6-cad5571f515f"},"vehicle_type_id":"4","last_reported":1705788358,"current_range_meters":27600,"station_id":"ce4bhs12rcd13ifvqhvg","pricing_plan_id":"free"},{"bike_id":"3cb5ad2b-e743-4194-9d67-007686b421e8","system_id":"levelo_inurba_marseille","lat":43.324771,"lon":5.36557,"is_reserved":false,"is_disabled":false,"rental_uris":{"android":"levelo://app?vid=3cb5ad2b-e743-4194-9d67-007686b421e8","ios":"levelo://app?vid=3cb5ad2b-e743-4194-9d67-007686b421e8"},"vehicle_type_id":"4","last_reported":1705788358,"current_range_meters":15200,"station_id":"ce4bhs12rcd13ifvqhvg","pricing_plan_id":"free"},{"bike_id":"6cbaa73a-5f5e-4107-89bb-de878da68fc1","system_id":"levelo_inurba_marseille","lat":43.304631,"lon":5.379223,"is_reserved":false,"is_disabled":false,"rental_uris":{"android":"levelo://app?vid=6cbaa73a-5f5e-4107-89bb-de878da68fc1","ios":"levelo://app?vid=6cbaa73a-5f5e-4107-89bb-de878da68fc1"},"vehicle_type_id":"4","last_reported":1705788358,"current_range_meters":23600,"station_id":"","pricing_plan_id":"free"},{"bike_id":"2179bf7d-2ef3-478f-ab07-0d1474ed1fd2","system_id":"levelo_inurba_marseille","lat":43.324788,"lon":5.365724,"is_reserved":false,"is_disabled":false,"rental_uris":{"android":"levelo://app?vid=2179bf7d-2ef3-478f-ab07-0d1474ed1fd2","ios":"levelo://app?vid=2179bf7d-2ef3-478f-ab07-0d1474ed1fd2"},"vehicle_type_id":"4","last_reported":1705788358,"current_range_meters":25200,"station_id":"ce4bhs12rcd13ifvqhvg","pricing_plan_id":"free"},{"bike_id":"6fca3aa1-7845-4dc1-bf44-91570d5b1a5a","system_id":"levelo_inurba_marseille","lat":43.324771,"lon":5.36557,"is_reserved":false,"is_disabled":false,"rental_uris":{"android":"levelo://app?vid=6fca3aa1-7845-4dc1-bf44-91570d5b1a5a","ios":"levelo://app?vid=6fca3aa1-7845-4dc1-bf44-91570d5b1a5a"},"vehicle_type_id":"4","last_reported":1705788358,"current_range_meters":22000,"station_id":"ce4bhs12rcd13ifvqhvg","pricing_plan_id":"free"},{"bike_id":"71a126c7-b719-426c-b069-4af1d4a5ba47","system_id":"levelo_inurba_marseille","lat":43.324825,"lon":5.365695,"is_reserved":false,"is_disabled":false,"rental_uris":{"android":"levelo://app?vid=71a126c7-b719-426c-b069-4af1d4a5ba47","ios":"levelo://app?vid=71a126c7-b719-426c-b069-4af1d4a5ba47"},"vehicle_type_id":"4","last_reported":1705788358,"current_range_meters":29200,"station_id":"ce4bhs12rcd13ifvqhvg","pricing_plan_id":"free"},{"bike_id":"d655f5bb-ed30-48d1-8fea-b10c22e797ad","system_id":"levelo_inurba_marseille","lat":43.324771,"lon":5.36557,"is_reserved":false,"is_disabled":false,"rental_uris":{"android":"levelo://app?vid=d655f5bb-ed30-48d1-8fea-b10c22e797ad","ios":"levelo://app?vid=d655f5bb-ed30-48d1-8fea-b10c22e797ad"},"vehicle_type_id":"4","last_reported":1705788358,"current_range_meters":13600,"station_id":"ce4bhs12rcd13ifvqhvg","pricing_plan_id":"free"},{"bike_id":"c7d678ca-5190-4aab-9b8d-cdb0cac2118f","system_id":"levelo_inurba_marseille","lat":43.324771,"lon":5.36557,"is_reserved":false,"is_disabled":false,"rental_uris":{"android":"levelo://app?vid=c7d678ca-5190-4aab-9b8d-cdb0cac2118f","ios":"levelo://app?vid=c7d678ca-5190-4aab-9b8d-cdb0cac2118f"},"vehicle_type_id":"4","last_reported":1705788358,"current_range_meters":11600,"station_id":"ce4bhs12rcd13ifvqhvg","pricing_plan_id":"free"},{"bike_id":"e84949e8-ecc8-4c62-b9c7-ea4d6dec9773","system_id":"levelo_inurba_marseille","lat":43.324885,"lon":5.365715,"is_reserved":false,"is_disabled":false,"rental_uris":{"android":"levelo://app?vid=e84949e8-ecc8-4c62-b9c7-ea4d6dec9773","ios":"levelo://app?vid=e84949e8-ecc8-4c62-b9c7-ea4d6dec9773"},"vehicle_type_id":"4","last_reported":1705788358,"current_range_meters":4800,"station_id":"ce4bhs12rcd13ifvqhvg","pricing_plan_id":"free"},{"bike_id":"e0e67bdf-320d-49b0-a854-3c618a175f30","system_id":"levelo_inurba_marseille","lat":43.30276,"lon":5.37694,"is_reserved":false,"is_disabled":false,"rental_uris":{"android":"levelo://app?vid=e0e67bdf-320d-49b0-a854-3c618a175f30","ios":"levelo://app?vid=e0e67bdf-320d-49b0-a854-3c618a175f30"},"vehicle_type_id":"4","last_reported":1705788358,"current_range_meters":17200,"station_id":"","pricing_plan_id":"free"},{"bike_id":"a9bbecdd-b150-40de-b3b4-6defab6432c8","system_id":"levelo_inurba_marseille","lat":43.301429,"lon":5.37413,"is_reserved":false,"is_disabled":false,"rental_uris":{"android":"levelo://app?vid=a9bbecdd-b150-40de-b3b4-6defab6432c8","ios":"levelo://app?vid=a9bbecdd-b150-40de-b3b4-6defab6432c8"},"vehicle_type_id":"4","last_reported":1705788358,"current_range_meters":2800,"station_id":"ce4bgs92rcd13ifvqcc0","pricing_plan_id":"free"},{"bike_id":"b1411ad7-0900-4640-a8c2-12cf6a56628b","system_id":"levelo_inurba_marseille","lat":43.30143,"lon":5.37413,"is_reserved":false,"is_disabled":false,"rental_uris":{"android":"levelo://app?vid=b1411ad7-0900-4640-a8c2-12cf6a56628b","ios":"levelo://app?vid=b1411ad7-0900-4640-a8c2-12cf6a56628b"},"vehicle_type_id":"4","last_reported":1705788358,"current_range_meters":22000,"station_id":"ce4bgs92rcd13ifvqcc0","pricing_plan_id":"free"},{"bike_id":"2efb11ae-f254-458b-ac9a-cd928c977472","system_id":"levelo_inurba_marseille","lat":43.301429,"lon":5.37413,"is_reserved":false,"is_disabled":false,"rental_uris":{"android":"levelo://app?vid=2efb11ae-f254-458b-ac9a-cd928c977472","ios":"levelo://app?vid=2efb11ae-f254-458b-ac9a-cd928c977472"},"vehicle_type_id":"4","last_reported":1705788358,"current_range_meters":27600,"station_id":"ce4bgs92rcd13ifvqcc0","pricing_plan_id":"free"},{"bike_id":"72d01924-77bf-442f-9297-97b14e6dcd1b","system_id":"levelo_inurba_marseille","lat":43.30143,"lon":5.37413,"is_reserved":false,"is_disabled":false,"rental_uris":{"android":"levelo://app?vid=72d01924-77bf-442f-9297-97b14e6dcd1b","ios":"levelo://app?vid=72d01924-77bf-442f-9297-97b14e6dcd1b"},"vehicle_type_id":"4","last_reported":1705788358,"current_range_meters":28000,"station_id":"ce4bgs92rcd13ifvqcc0","pricing_plan_id":"free"},{"bike_id":"cc24f19f-3914-474c-8fd9-6bbb87405512","system_id":"levelo_inurba_marseille","lat":43.319915,"lon":5.381403,"is_reserved":false,"is_disabled":false,"rental_uris":{"android":"levelo://app?vid=cc24f19f-3914-474c-8fd9-6bbb87405512","ios":"levelo://app?vid=cc24f19f-3914-474c-8fd9-6bbb87405512"},"vehicle_type_id":"4","last_reported":1705788358,"current_range_meters":6000,"station_id":"ce4bhr12rcd13ifvqhpg","pricing_plan_id":"free"},{"bike_id":"b56b44a8-4957-45a0-ab05-24598deb6b43","system_id":"levelo_inurba_marseille","lat":43.319957,"lon":5.381446,"is_reserved":false,"is_disabled":false,"rental_uris":{"android":"levelo://app?vid=b56b44a8-4957-45a0-ab05-24598deb6b43","ios":"levelo://app?vid=b56b44a8-4957-45a0-ab05-24598deb6b43"},"vehicle_type_id":"4","last_reported":1705788358,"current_range_meters":30400,"station_id":"ce4bhr12rcd13ifvqhpg","pricing_plan_id":"free"},{"bike_id":"a5605478-720f-48fe-b19d-580b9c358f06","system_id":"levelo_inurba_marseille","lat":43.31995,"lon":5.38156,"is_reserved":false,"is_disabled":false,"rental_uris":{"android":"levelo://app?vid=a5605478-720f-48fe-b19d-580b9c358f06","ios":"levelo://app?vid=a5605478-720f-48fe-b19d-580b9c358f06"},"vehicle_type_id":"4","last_reported":1705788358,"current_range_meters":26000,"station_id":"ce4bhr12rcd13ifvqhpg","pricing_plan_id":"free"},{"bike_id":"f0e6f343-5d11-4ccd-b521-fba2ec1496b9","system_id":"levelo_inurba_marseille","lat":43.320009,"lon":5.381545,"is_reserved":false,"is_disabled":false,"rental_uris":{"android":"levelo://app?vid=f0e6f343-5d11-4ccd-b521-fba2ec1496b9","ios":"levelo://app?vid=f0e6f343-5d11-4ccd-b521-fba2ec1496b9"},"vehicle_type_id":"4","last_reported":1705788358,"current_range_meters":7600,"station_id":"ce4bhr12rcd13ifvqhpg","pricing_plan_id":"free"},{"bike_id":"54f5fd89-ff6c-4439-b459-e153c5adac72","system_id":"levelo_inurba_marseille","lat":43.320039,"lon":5.381576,"is_reserved":false,"is_disabled":false,"rental_uris":{"android":"levelo://app?vid=54f5fd89-ff6c-4439-b459-e153c5adac72","ios":"levelo://app?vid=54f5fd89-ff6c-4439-b459-e153c5adac72"},"vehicle_type_id":"4","last_reported":1705788358,"current_range_meters":0,"station_id":"ce4bhr12rcd13ifvqhpg","pricing_plan_id":"free"},{"bike_id":"e0d6fe89-0603-4266-9578-6ad94e813855","system_id":"levelo_inurba_marseille","lat":43.313571,"lon":5.384829,"is_reserved":false,"is_disabled":false,"rental_uris":{"android":"levelo://app?vid=e0d6fe89-0603-4266-9578-6ad94e813855","ios":"levelo://app?vid=e0d6fe89-0603-4266-9578-6ad94e813855"},"vehicle_type_id":"4","last_reported":1705788358,"current_range_meters":16400,"station_id":"ce4bgt92rcd13ifvqcf0","pricing_plan_id":"free"},{"bike_id":"a7c3521e-f838-4838-b7b8-7dd239c35660","system_id":"levelo_inurba_marseille","lat":43.31362,"lon":5.38496,"is_reserved":false,"is_disabled":false,"rental_uris":{"android":"levelo://app?vid=a7c3521e-f838-4838-b7b8-7dd239c35660","ios":"levelo://app?vid=a7c3521e-f838-4838-b7b8-7dd239c35660"},"vehicle_type_id":"4","last_reported":1705788358,"current_range_meters":1600,"station_id":"ce4bgt92rcd13ifvqcf0","pricing_plan_id":"free"},{"bike_id":"446064a6-a0c5-46e7-bc5e-428a28ac3133","system_id":"levelo_inurba_marseille","lat":43.299724,"lon":5.371829,"is_reserved":false,"is_disabled":false,"rental_uris":{"android":"levelo://app?vid=446064a6-a0c5-46e7-bc5e-428a28ac3133","ios":"levelo://app?vid=446064a6-a0c5-46e7-bc5e-428a28ac3133"},"vehicle_type_id":"4","last_reported":1705788358,"current_range_meters":6000,"station_id":"ce4bgr92rcd13ifvqc7g","pricing_plan_id":"free"},{"bike_id":"6d6abd61-c1bd-45b5-ab4f-daf18b6de516","system_id":"levelo_inurba_marseille","lat":43.299222,"lon":5.365554,"is_reserved":false,"is_disabled":false,"rental_uris":{"android":"levelo://app?vid=6d6abd61-c1bd-45b5-ab4f-daf18b6de516","ios":"levelo://app?vid=6d6abd61-c1bd-45b5-ab4f-daf18b6de516"},"vehicle_type_id":"4","last_reported":1705788358,"current_range_meters":0,"station_id":"ce4bgm92rcd13ifvqbr0","pricing_plan_id":"free"},{"bike_id":"1a2dd050-6860-44da-ab44-d880de8b0d99","system_id":"levelo_inurba_marseille","lat":43.299724,"lon":5.371829,"is_reserved":false,"is_disabled":false,"rental_uris":{"android":"levelo://app?vid=1a2dd050-6860-44da-ab44-d880de8b0d99","ios":"levelo://app?vid=1a2dd050-6860-44da-ab44-d880de8b0d99"},"vehicle_type_id":"4","last_reported":1705788358,"current_range_meters":13200,"station_id":"ce4bgr92rcd13ifvqc7g","pricing_plan_id":"free"},{"bike_id":"fa8e28df-8165-41c6-af6e-cb91ff43a35c","system_id":"levelo_inurba_marseille","lat":43.299724,"lon":5.371829,"is_reserved":false,"is_disabled":false,"rental_uris":{"android":"levelo://app?vid=fa8e28df-8165-41c6-af6e-cb91ff43a35c","ios":"levelo://app?vid=fa8e28df-8165-41c6-af6e-cb91ff43a35c"},"vehicle_type_id":"4","last_reported":1705788358,"current_range_meters":29600,"station_id":"ce4bgr92rcd13ifvqc7g","pricing_plan_id":"free"},{"bike_id":"2bb16dc6-dfd7-482f-a0d2-1143dfe9ac86","system_id":"levelo_inurba_marseille","lat":43.299724,"lon":5.371829,"is_reserved":false,"is_disabled":false,"rental_uris":{"android":"levelo://app?vid=2bb16dc6-dfd7-482f-a0d2-1143dfe9ac86","ios":"levelo://app?vid=2bb16dc6-dfd7-482f-a0d2-1143dfe9ac86"},"vehicle_type_id":"4","last_reported":1705788358,"current_range_meters":7200,"station_id":"ce4bgr92rcd13ifvqc7g","pricing_plan_id":"free"},{"bike_id":"0d09c1b6-4407-4746-bfcf-1e0e3144b048","system_id":"levelo_inurba_marseille","lat":43.299724,"lon":5.371829,"is_reserved":false,"is_disabled":false,"rental_uris":{"android":"levelo://app?vid=0d09c1b6-4407-4746-bfcf-1e0e3144b048","ios":"levelo://app?vid=0d09c1b6-4407-4746-bfcf-1e0e3144b048"},"vehicle_type_id":"4","last_reported":1705788358,"current_range_meters":24800,"station_id":"ce4bgr92rcd13ifvqc7g","pricing_plan_id":"free"},{"bike_id":"22da6ec8-c878-4df5-9136-025982e24447","system_id":"levelo_inurba_marseille","lat":43.311722,"lon":5.387247,"is_reserved":false,"is_disabled":false,"rental_uris":{"android":"levelo://app?vid=22da6ec8-c878-4df5-9136-025982e24447","ios":"levelo://app?vid=22da6ec8-c878-4df5-9136-025982e24447"},"vehicle_type_id":"4","last_reported":1705788358,"current_range_meters":20000,"station_id":"ce4bgv12rcd13ifvqcp0","pricing_plan_id":"free"},{"bike_id":"3f5857e5-b8e8-48e0-b517-c27d6885534f","system_id":"levelo_inurba_marseille","lat":43.311722,"lon":5.387247,"is_reserved":false,"is_disabled":false,"rental_uris":{"android":"levelo://app?vid=3f5857e5-b8e8-48e0-b517-c27d6885534f","ios":"levelo://app?vid=3f5857e5-b8e8-48e0-b517-c27d6885534f"},"vehicle_type_id":"4","last_reported":1705788358,"current_range_meters":10800,"station_id":"ce4bgv12rcd13ifvqcp0","pricing_plan_id":"free"},{"bike_id":"84f9c5a3-f6c8-498e-906f-003b310cec9c","system_id":"levelo_inurba_marseille","lat":43.299243,"lon":5.37481,"is_reserved":false,"is_disabled":false,"rental_uris":{"android":"levelo://app?vid=84f9c5a3-f6c8-498e-906f-003b310cec9c","ios":"levelo://app?vid=84f9c5a3-f6c8-498e-906f-003b310cec9c"},"vehicle_type_id":"4","last_reported":1705788358,"current_range_meters":29200,"station_id":"ce4bgjh2rcd13ifvqbg0","pricing_plan_id":"free"},{"bike_id":"bcfbc6e0-9cc3-49af-91fa-0d243cb210fa","system_id":"levelo_inurba_marseille","lat":43.311722,"lon":5.387247,"is_reserved":false,"is_disabled":false,"rental_uris":{"android":"levelo://app?vid=bcfbc6e0-9cc3-49af-91fa-0d243cb210fa","ios":"levelo://app?vid=bcfbc6e0-9cc3-49af-91fa-0d243cb210fa"},"vehicle_type_id":"4","last_reported":1705788358,"current_range_meters":20800,"station_id":"ce4bgv12rcd13ifvqcp0","pricing_plan_id":"free"},{"bike_id":"0cae6503-9733-4545-a7dd-fa0b5d53f51b","system_id":"levelo_inurba_marseille","lat":43.299243,"lon":5.374807,"is_reserved":false,"is_disabled":false,"rental_uris":{"android":"levelo://app?vid=0cae6503-9733-4545-a7dd-fa0b5d53f51b","ios":"levelo://app?vid=0cae6503-9733-4545-a7dd-fa0b5d53f51b"},"vehicle_type_id":"4","last_reported":1705788358,"current_range_meters":28400,"station_id":"ce4bgjh2rcd13ifvqbg0","pricing_plan_id":"free"},{"bike_id":"c80f5916-13d5-429e-9745-eeff22ae5200","system_id":"levelo_inurba_marseille","lat":43.299243,"lon":5.37481,"is_reserved":false,"is_disabled":false,"rental_uris":{"android":"levelo://app?vid=c80f5916-13d5-429e-9745-eeff22ae5200","ios":"levelo://app?vid=c80f5916-13d5-429e-9745-eeff22ae5200"},"vehicle_type_id":"4","last_reported":1705788358,"current_range_meters":1600,"station_id":"ce4bgjh2rcd13ifvqbg0","pricing_plan_id":"free"},{"bike_id":"d1da8d70-f4c2-4064-bac5-ba3f328c4021","system_id":"levelo_inurba_marseille","lat":43.322872,"lon":5.382756,"is_reserved":false,"is_disabled":false,"rental_uris":{"android":"levelo://app?vid=d1da8d70-f4c2-4064-bac5-ba3f328c4021","ios":"levelo://app?vid=d1da8d70-f4c2-4064-bac5-ba3f328c4021"},"vehicle_type_id":"4","last_reported":1705788358,"current_range_meters":16800,"station_id":"ce4bhr12rcd13ifvqhqg","pricing_plan_id":"free"},{"bike_id":"583c6f1a-e64f-4c9e-ac8b-28623b01e801","system_id":"levelo_inurba_marseille","lat":43.322872,"lon":5.382756,"is_reserved":false,"is_disabled":false,"rental_uris":{"android":"levelo://app?vid=583c6f1a-e64f-4c9e-ac8b-28623b01e801","ios":"levelo://app?vid=583c6f1a-e64f-4c9e-ac8b-28623b01e801"},"vehicle_type_id":"4","last_reported":1705788358,"current_range_meters":28000,"station_id":"ce4bhr12rcd13ifvqhqg","pricing_plan_id":"free"},{"bike_id":"34c8b400-5074-46e3-aa02-f5d274dfaa4f","system_id":"levelo_inurba_marseille","lat":43.322872,"lon":5.382756,"is_reserved":false,"is_disabled":false,"rental_uris":{"android":"levelo://app?vid=34c8b400-5074-46e3-aa02-f5d274dfaa4f","ios":"levelo://app?vid=34c8b400-5074-46e3-aa02-f5d274dfaa4f"},"vehicle_type_id":"4","last_reported":1705788358,"current_range_meters":24000,"station_id":"ce4bhr12rcd13ifvqhqg","pricing_plan_id":"free"},{"bike_id":"afe2d6ba-ebda-4981-9104-c77037901f05","system_id":"levelo_inurba_marseille","lat":43.322892,"lon":5.382682,"is_reserved":false,"is_disabled":false,"rental_uris":{"android":"levelo://app?vid=afe2d6ba-ebda-4981-9104-c77037901f05","ios":"levelo://app?vid=afe2d6ba-ebda-4981-9104-c77037901f05"},"vehicle_type_id":"4","last_reported":1705788358,"current_range_meters":23600,"station_id":"ce4bhr12rcd13ifvqhqg","pricing_plan_id":"free"},{"bike_id":"c3ab95e9-b05f-4b19-b4ee-7abea1f52c27","system_id":"levelo_inurba_marseille","lat":43.322872,"lon":5.382756,"is_reserved":false,"is_disabled":false,"rental_uris":{"android":"levelo://app?vid=c3ab95e9-b05f-4b19-b4ee-7abea1f52c27","ios":"levelo://app?vid=c3ab95e9-b05f-4b19-b4ee-7abea1f52c27"},"vehicle_type_id":"4","last_reported":1705788358,"current_range_meters":31200,"station_id":"ce4bhr12rcd13ifvqhqg","pricing_plan_id":"free"},{"bike_id":"e9aa2399-b7a6-4ead-9378-7f8a5f8f4a05","system_id":"levelo_inurba_marseille","lat":43.322892,"lon":5.382734,"is_reserved":false,"is_disabled":false,"rental_uris":{"android":"levelo://app?vid=e9aa2399-b7a6-4ead-9378-7f8a5f8f4a05","ios":"levelo://app?vid=e9aa2399-b7a6-4ead-9378-7f8a5f8f4a05"},"vehicle_type_id":"4","last_reported":1705788358,"current_range_meters":6400,"station_id":"ce4bhr12rcd13ifvqhqg","pricing_plan_id":"free"},{"bike_id":"510e4003-ad50-4182-a4bb-6da1b111fff5","system_id":"levelo_inurba_marseille","lat":43.322873,"lon":5.382774,"is_reserved":false,"is_disabled":false,"rental_uris":{"android":"levelo://app?vid=510e4003-ad50-4182-a4bb-6da1b111fff5","ios":"levelo://app?vid=510e4003-ad50-4182-a4bb-6da1b111fff5"},"vehicle_type_id":"4","last_reported":1705788358,"current_range_meters":17600,"station_id":"ce4bhr12rcd13ifvqhqg","pricing_plan_id":"free"},{"bike_id":"572c30ca-2698-4ebb-9720-28d9ee8291d9","system_id":"levelo_inurba_marseille","lat":43.32822,"lon":5.36685,"is_reserved":false,"is_disabled":false,"rental_uris":{"android":"levelo://app?vid=572c30ca-2698-4ebb-9720-28d9ee8291d9","ios":"levelo://app?vid=572c30ca-2698-4ebb-9720-28d9ee8291d9"},"vehicle_type_id":"4","last_reported":1705788358,"current_range_meters":29200,"station_id":"ce4bhs92rcd13ifvqi0g","pricing_plan_id":"free"},{"bike_id":"85cedcff-9e9a-415d-8415-195178ea3cb7","system_id":"levelo_inurba_marseille","lat":43.328243,"lon":5.36682,"is_reserved":false,"is_disabled":false,"rental_uris":{"android":"levelo://app?vid=85cedcff-9e9a-415d-8415-195178ea3cb7","ios":"levelo://app?vid=85cedcff-9e9a-415d-8415-195178ea3cb7"},"vehicle_type_id":"4","last_reported":1705788358,"current_range_meters":4800,"station_id":"ce4bhs92rcd13ifvqi0g","pricing_plan_id":"free"},{"bike_id":"ea0178f3-2c6b-4af6-b062-91b0b8dde1df","system_id":"levelo_inurba_marseille","lat":43.328248,"lon":5.366815,"is_reserved":false,"is_disabled":false,"rental_uris":{"android":"levelo://app?vid=ea0178f3-2c6b-4af6-b062-91b0b8dde1df","ios":"levelo://app?vid=ea0178f3-2c6b-4af6-b062-91b0b8dde1df"},"vehicle_type_id":"4","last_reported":1705788358,"current_range_meters":22000,"station_id":"ce4bhs92rcd13ifvqi0g","pricing_plan_id":"free"},{"bike_id":"6da9db5a-42ba-4fa8-afc9-4fdbb45498c1","system_id":"levelo_inurba_marseille","lat":43.328251,"lon":5.366828,"is_reserved":false,"is_disabled":false,"rental_uris":{"android":"levelo://app?vid=6da9db5a-42ba-4fa8-afc9-4fdbb45498c1","ios":"levelo://app?vid=6da9db5a-42ba-4fa8-afc9-4fdbb45498c1"},"vehicle_type_id":"4","last_reported":1705788358,"current_range_meters":14800,"station_id":"ce4bhs92rcd13ifvqi0g","pricing_plan_id":"free"},{"bike_id":"2849c95b-f1a6-402d-aac7-80ea81f2feb2","system_id":"levelo_inurba_marseille","lat":43.32826,"lon":5.3668,"is_reserved":false,"is_disabled":false,"rental_uris":{"android":"levelo://app?vid=2849c95b-f1a6-402d-aac7-80ea81f2feb2","ios":"levelo://app?vid=2849c95b-f1a6-402d-aac7-80ea81f2feb2"},"vehicle_type_id":"4","last_reported":1705788358,"current_range_meters":19600,"station_id":"ce4bhs92rcd13ifvqi0g","pricing_plan_id":"free"},{"bike_id":"33a5b9b9-aec4-4925-974d-72730cfc5f44","system_id":"levelo_inurba_marseille","lat":43.3283,"lon":5.3669,"is_reserved":false,"is_disabled":false,"rental_uris":{"android":"levelo://app?vid=33a5b9b9-aec4-4925-974d-72730cfc5f44","ios":"levelo://app?vid=33a5b9b9-aec4-4925-974d-72730cfc5f44"},"vehicle_type_id":"4","last_reported":1705788358,"current_range_meters":12400,"station_id":"ce4bhs92rcd13ifvqi0g","pricing_plan_id":"free"},{"bike_id":"8c76cce8-dc76-403d-a9b8-0a976afb5aaf","system_id":"levelo_inurba_marseille","lat":43.3283,"lon":5.36688,"is_reserved":false,"is_disabled":false,"rental_uris":{"android":"levelo://app?vid=8c76cce8-dc76-403d-a9b8-0a976afb5aaf","ios":"levelo://app?vid=8c76cce8-dc76-403d-a9b8-0a976afb5aaf"},"vehicle_type_id":"4","last_reported":1705788358,"current_range_meters":3200,"station_id":"ce4bhs92rcd13ifvqi0g","pricing_plan_id":"free"},{"bike_id":"bbed20d0-b1ed-48ce-b8df-3eedaa717d2e","system_id":"levelo_inurba_marseille","lat":43.32831,"lon":5.36685,"is_reserved":false,"is_disabled":false,"rental_uris":{"android":"levelo://app?vid=bbed20d0-b1ed-48ce-b8df-3eedaa717d2e","ios":"levelo://app?vid=bbed20d0-b1ed-48ce-b8df-3eedaa717d2e"},"vehicle_type_id":"4","last_reported":1705788358,"current_range_meters":0,"station_id":"ce4bhs92rcd13ifvqi0g","pricing_plan_id":"free"},{"bike_id":"6cebbd79-b1a6-4319-a439-893d8762e220","system_id":"levelo_inurba_marseille","lat":43.32831,"lon":5.3668,"is_reserved":false,"is_disabled":false,"rental_uris":{"android":"levelo://app?vid=6cebbd79-b1a6-4319-a439-893d8762e220","ios":"levelo://app?vid=6cebbd79-b1a6-4319-a439-893d8762e220"},"vehicle_type_id":"4","last_reported":1705788358,"current_range_meters":4000,"station_id":"ce4bhs92rcd13ifvqi0g","pricing_plan_id":"free"},{"bike_id":"a1372ffa-3076-49e1-851b-6ec0ac400a60","system_id":"levelo_inurba_marseille","lat":43.328371,"lon":5.366909,"is_reserved":false,"is_disabled":false,"rental_uris":{"android":"levelo://app?vid=a1372ffa-3076-49e1-851b-6ec0ac400a60","ios":"levelo://app?vid=a1372ffa-3076-49e1-851b-6ec0ac400a60"},"vehicle_type_id":"4","last_reported":1705788358,"current_range_meters":8400,"station_id":"ce4bhs92rcd13ifvqi0g","pricing_plan_id":"free"},{"bike_id":"06501570-9b17-4151-8fe4-83c287e0db81","system_id":"levelo_inurba_marseille","lat":43.297163,"lon":5.365866,"is_reserved":false,"is_disabled":false,"rental_uris":{"android":"levelo://app?vid=06501570-9b17-4151-8fe4-83c287e0db81","ios":"levelo://app?vid=06501570-9b17-4151-8fe4-83c287e0db81"},"vehicle_type_id":"4","last_reported":1705788358,"current_range_meters":20400,"station_id":"ce4bgn12rcd13ifvqbt0","pricing_plan_id":"free"},{"bike_id":"289d6ba1-3edf-4a84-8210-90b472d195a5","system_id":"levelo_inurba_marseille","lat":43.328371,"lon":5.366909,"is_reserved":false,"is_disabled":false,"rental_uris":{"android":"levelo://app?vid=289d6ba1-3edf-4a84-8210-90b472d195a5","ios":"levelo://app?vid=289d6ba1-3edf-4a84-8210-90b472d195a5"},"vehicle_type_id":"4","last_reported":1705788358,"current_range_meters":29200,"station_id":"ce4bhs92rcd13ifvqi0g","pricing_plan_id":"free"},{"bike_id":"38082c03-fac1-44d3-a79f-5142b4a113a9","system_id":"levelo_inurba_marseille","lat":43.328373,"lon":5.366902,"is_reserved":false,"is_disabled":false,"rental_uris":{"android":"levelo://app?vid=38082c03-fac1-44d3-a79f-5142b4a113a9","ios":"levelo://app?vid=38082c03-fac1-44d3-a79f-5142b4a113a9"},"vehicle_type_id":"4","last_reported":1705788358,"current_range_meters":7600,"station_id":"ce4bhs92rcd13ifvqi0g","pricing_plan_id":"free"},{"bike_id":"5ace7d10-4c94-4c1f-a180-c96d0515502c","system_id":"levelo_inurba_marseille","lat":43.297163,"lon":5.365866,"is_reserved":false,"is_disabled":false,"rental_uris":{"android":"levelo://app?vid=5ace7d10-4c94-4c1f-a180-c96d0515502c","ios":"levelo://app?vid=5ace7d10-4c94-4c1f-a180-c96d0515502c"},"vehicle_type_id":"4","last_reported":1705788358,"current_range_meters":29600,"station_id":"ce4bgn12rcd13ifvqbt0","pricing_plan_id":"free"},{"bike_id":"8a13e461-515f-4873-b208-c871558b9efa","system_id":"levelo_inurba_marseille","lat":43.297163,"lon":5.365866,"is_reserved":false,"is_disabled":false,"rental_uris":{"android":"levelo://app?vid=8a13e461-515f-4873-b208-c871558b9efa","ios":"levelo://app?vid=8a13e461-515f-4873-b208-c871558b9efa"},"vehicle_type_id":"4","last_reported":1705788358,"current_range_meters":10000,"station_id":"ce4bgn12rcd13ifvqbt0","pricing_plan_id":"free"},{"bike_id":"d87bbe09-149a-4f2f-926b-b529834b4d8c","system_id":"levelo_inurba_marseille","lat":43.29698,"lon":5.36265,"is_reserved":false,"is_disabled":false,"rental_uris":{"android":"levelo://app?vid=d87bbe09-149a-4f2f-926b-b529834b4d8c","ios":"levelo://app?vid=d87bbe09-149a-4f2f-926b-b529834b4d8c"},"vehicle_type_id":"4","last_reported":1705788358,"current_range_meters":18000,"station_id":"","pricing_plan_id":"free"},{"bike_id":"802bf85c-9725-4636-bb08-e844aa651f17","system_id":"levelo_inurba_marseille","lat":43.2962,"lon":5.37154,"is_reserved":false,"is_disabled":false,"rental_uris":{"android":"levelo://app?vid=802bf85c-9725-4636-bb08-e844aa651f17","ios":"levelo://app?vid=802bf85c-9725-4636-bb08-e844aa651f17"},"vehicle_type_id":"4","last_reported":1705788358,"current_range_meters":10400,"station_id":"ce4bgnh2rcd13ifvqc0g","pricing_plan_id":"free"},{"bike_id":"638d9a26-356d-49c8-8461-ca431badb2fb","system_id":"levelo_inurba_marseille","lat":43.296129,"lon":5.370777,"is_reserved":false,"is_disabled":false,"rental_uris":{"android":"levelo://app?vid=638d9a26-356d-49c8-8461-ca431badb2fb","ios":"levelo://app?vid=638d9a26-356d-49c8-8461-ca431badb2fb"},"vehicle_type_id":"4","last_reported":1705788358,"current_range_meters":11600,"station_id":"ce4bgnh2rcd13ifvqc0g","pricing_plan_id":"free"},{"bike_id":"af3c7840-e36b-4084-b1c9-b0cb75eeaea9","system_id":"levelo_inurba_marseille","lat":43.29584,"lon":5.367955,"is_reserved":false,"is_disabled":false,"rental_uris":{"android":"levelo://app?vid=af3c7840-e36b-4084-b1c9-b0cb75eeaea9","ios":"levelo://app?vid=af3c7840-e36b-4084-b1c9-b0cb75eeaea9"},"vehicle_type_id":"4","last_reported":1705788358,"current_range_meters":9200,"station_id":"","pricing_plan_id":"free"},{"bike_id":"e162349b-e0c2-416a-bdbf-fb5db9a682d4","system_id":"levelo_inurba_marseille","lat":43.29581,"lon":5.36745,"is_reserved":false,"is_disabled":false,"rental_uris":{"android":"levelo://app?vid=e162349b-e0c2-416a-bdbf-fb5db9a682d4","ios":"levelo://app?vid=e162349b-e0c2-416a-bdbf-fb5db9a682d4"},"vehicle_type_id":"4","last_reported":1705788358,"current_range_meters":400,"station_id":"ce4bgph2rcd13ifvqc2g","pricing_plan_id":"free"},{"bike_id":"1f32e4d1-3c92-4cd9-b5d4-a47ce02aed2b","system_id":"levelo_inurba_marseille","lat":43.309589,"lon":5.390258,"is_reserved":false,"is_disabled":false,"rental_uris":{"android":"levelo://app?vid=1f32e4d1-3c92-4cd9-b5d4-a47ce02aed2b","ios":"levelo://app?vid=1f32e4d1-3c92-4cd9-b5d4-a47ce02aed2b"},"vehicle_type_id":"4","last_reported":1705788358,"current_range_meters":7600,"station_id":"ce4bgup2rcd13ifvqco0","pricing_plan_id":"free"},{"bike_id":"9fb977ee-d9ae-4e25-b4af-2e5c8209e63c","system_id":"levelo_inurba_marseille","lat":43.309589,"lon":5.390258,"is_reserved":false,"is_disabled":false,"rental_uris":{"android":"levelo://app?vid=9fb977ee-d9ae-4e25-b4af-2e5c8209e63c","ios":"levelo://app?vid=9fb977ee-d9ae-4e25-b4af-2e5c8209e63c"},"vehicle_type_id":"4","last_reported":1705788358,"current_range_meters":3600,"station_id":"ce4bgup2rcd13ifvqco0","pricing_plan_id":"free"},{"bike_id":"9473a5e1-6ee7-4619-adcc-e72fa188f23b","system_id":"levelo_inurba_marseille","lat":43.309589,"lon":5.390258,"is_reserved":false,"is_disabled":false,"rental_uris":{"android":"levelo://app?vid=9473a5e1-6ee7-4619-adcc-e72fa188f23b","ios":"levelo://app?vid=9473a5e1-6ee7-4619-adcc-e72fa188f23b"},"vehicle_type_id":"4","last_reported":1705788358,"current_range_meters":13600,"station_id":"ce4bgup2rcd13ifvqco0","pricing_plan_id":"free"},{"bike_id":"3f10a606-6202-4a95-9673-cbee9ffce27b","system_id":"levelo_inurba_marseille","lat":43.299028,"lon":5.381509,"is_reserved":false,"is_disabled":false,"rental_uris":{"android":"levelo://app?vid=3f10a606-6202-4a95-9673-cbee9ffce27b","ios":"levelo://app?vid=3f10a606-6202-4a95-9673-cbee9ffce27b"},"vehicle_type_id":"4","last_reported":1705788358,"current_range_meters":29200,"station_id":"ce4bgj12rcd13ifvqbc0","pricing_plan_id":"free"},{"bike_id":"d8436429-bb91-40c6-83c0-88d08317b683","system_id":"levelo_inurba_marseille","lat":43.309589,"lon":5.390258,"is_reserved":false,"is_disabled":false,"rental_uris":{"android":"levelo://app?vid=d8436429-bb91-40c6-83c0-88d08317b683","ios":"levelo://app?vid=d8436429-bb91-40c6-83c0-88d08317b683"},"vehicle_type_id":"4","last_reported":1705788358,"current_range_meters":15600,"station_id":"ce4bgup2rcd13ifvqco0","pricing_plan_id":"free"},{"bike_id":"26c86b17-fa7c-4d55-adfe-64670dd08e95","system_id":"levelo_inurba_marseille","lat":43.309589,"lon":5.390258,"is_reserved":false,"is_disabled":false,"rental_uris":{"android":"levelo://app?vid=26c86b17-fa7c-4d55-adfe-64670dd08e95","ios":"levelo://app?vid=26c86b17-fa7c-4d55-adfe-64670dd08e95"},"vehicle_type_id":"4","last_reported":1705788358,"current_range_meters":9600,"station_id":"ce4bgup2rcd13ifvqco0","pricing_plan_id":"free"},{"bike_id":"4624ad1f-df7e-484d-9416-3edd4fbdb819","system_id":"levelo_inurba_marseille","lat":43.309589,"lon":5.390258,"is_reserved":false,"is_disabled":false,"rental_uris":{"android":"levelo://app?vid=4624ad1f-df7e-484d-9416-3edd4fbdb819","ios":"levelo://app?vid=4624ad1f-df7e-484d-9416-3edd4fbdb819"},"vehicle_type_id":"4","last_reported":1705788358,"current_range_meters":29200,"station_id":"ce4bgup2rcd13ifvqco0","pricing_plan_id":"free"},{"bike_id":"f9dc5cce-e3ae-491a-b782-01aa7a3d3afd","system_id":"levelo_inurba_marseille","lat":43.317557,"lon":5.390173,"is_reserved":false,"is_disabled":false,"rental_uris":{"android":"levelo://app?vid=f9dc5cce-e3ae-491a-b782-01aa7a3d3afd","ios":"levelo://app?vid=f9dc5cce-e3ae-491a-b782-01aa7a3d3afd"},"vehicle_type_id":"4","last_reported":1705788358,"current_range_meters":22400,"station_id":"ce4bhqp2rcd13ifvqhng","pricing_plan_id":"free"},{"bike_id":"14c5f667-9776-4aea-9b73-719d1df2cf21","system_id":"levelo_inurba_marseille","lat":43.31756,"lon":5.39018,"is_reserved":false,"is_disabled":false,"rental_uris":{"android":"levelo://app?vid=14c5f667-9776-4aea-9b73-719d1df2cf21","ios":"levelo://app?vid=14c5f667-9776-4aea-9b73-719d1df2cf21"},"vehicle_type_id":"4","last_reported":1705788358,"current_range_meters":0,"station_id":"ce4bhqp2rcd13ifvqhng","pricing_plan_id":"free"},{"bike_id":"1753635b-6dd5-4e4f-b1b1-2b4a15fe1a11","system_id":"levelo_inurba_marseille","lat":43.298037,"lon":5.381066,"is_reserved":false,"is_disabled":false,"rental_uris":{"android":"levelo://app?vid=1753635b-6dd5-4e4f-b1b1-2b4a15fe1a11","ios":"levelo://app?vid=1753635b-6dd5-4e4f-b1b1-2b4a15fe1a11"},"vehicle_type_id":"4","last_reported":1705788358,"current_range_meters":9600,"station_id":"ce4bgip2rcd13ifvqbb0","pricing_plan_id":"free"},{"bike_id":"f7854319-f2eb-4e3e-9642-154de2b5df19","system_id":"levelo_inurba_marseille","lat":43.298037,"lon":5.381066,"is_reserved":false,"is_disabled":false,"rental_uris":{"android":"levelo://app?vid=f7854319-f2eb-4e3e-9642-154de2b5df19","ios":"levelo://app?vid=f7854319-f2eb-4e3e-9642-154de2b5df19"},"vehicle_type_id":"4","last_reported":1705788358,"current_range_meters":13200,"station_id":"ce4bgip2rcd13ifvqbb0","pricing_plan_id":"free"},{"bike_id":"cc316f1c-79bf-4850-8abf-a893acd8b258","system_id":"levelo_inurba_marseille","lat":43.298037,"lon":5.381066,"is_reserved":false,"is_disabled":false,"rental_uris":{"android":"levelo://app?vid=cc316f1c-79bf-4850-8abf-a893acd8b258","ios":"levelo://app?vid=cc316f1c-79bf-4850-8abf-a893acd8b258"},"vehicle_type_id":"4","last_reported":1705788358,"current_range_meters":11600,"station_id":"ce4bgip2rcd13ifvqbb0","pricing_plan_id":"free"},{"bike_id":"58e59b8e-a944-4c98-aed8-f0bc2fb1d20e","system_id":"levelo_inurba_marseille","lat":43.304274,"lon":5.388873,"is_reserved":false,"is_disabled":false,"rental_uris":{"android":"levelo://app?vid=58e59b8e-a944-4c98-aed8-f0bc2fb1d20e","ios":"levelo://app?vid=58e59b8e-a944-4c98-aed8-f0bc2fb1d20e"},"vehicle_type_id":"4","last_reported":1705788358,"current_range_meters":24400,"station_id":"ce4bgk12rcd13ifvqbi0","pricing_plan_id":"free"},{"bike_id":"81eb3297-9973-460a-9007-07fb9156f55c","system_id":"levelo_inurba_marseille","lat":43.30437,"lon":5.38891,"is_reserved":false,"is_disabled":false,"rental_uris":{"android":"levelo://app?vid=81eb3297-9973-460a-9007-07fb9156f55c","ios":"levelo://app?vid=81eb3297-9973-460a-9007-07fb9156f55c"},"vehicle_type_id":"4","last_reported":1705788358,"current_range_meters":0,"station_id":"ce4bgk12rcd13ifvqbi0","pricing_plan_id":"free"},{"bike_id":"57a15707-18fc-4a10-80aa-2d622cf7bc7a","system_id":"levelo_inurba_marseille","lat":43.304274,"lon":5.388873,"is_reserved":false,"is_disabled":false,"rental_uris":{"android":"levelo://app?vid=57a15707-18fc-4a10-80aa-2d622cf7bc7a","ios":"levelo://app?vid=57a15707-18fc-4a10-80aa-2d622cf7bc7a"},"vehicle_type_id":"4","last_reported":1705788358,"current_range_meters":20400,"station_id":"ce4bgk12rcd13ifvqbi0","pricing_plan_id":"free"},{"bike_id":"fe555846-b407-4e5f-b82e-3597f82123d7","system_id":"levelo_inurba_marseille","lat":43.29607,"lon":5.3772,"is_reserved":false,"is_disabled":false,"rental_uris":{"android":"levelo://app?vid=fe555846-b407-4e5f-b82e-3597f82123d7","ios":"levelo://app?vid=fe555846-b407-4e5f-b82e-3597f82123d7"},"vehicle_type_id":"4","last_reported":1705788358,"current_range_meters":14000,"station_id":"ce4bgi92rcd13ifvqb90","pricing_plan_id":"free"},{"bike_id":"96479c82-e6dd-45a3-9c06-03154398c708","system_id":"levelo_inurba_marseille","lat":43.299707,"lon":5.384859,"is_reserved":false,"is_disabled":false,"rental_uris":{"android":"levelo://app?vid=96479c82-e6dd-45a3-9c06-03154398c708","ios":"levelo://app?vid=96479c82-e6dd-45a3-9c06-03154398c708"},"vehicle_type_id":"4","last_reported":1705788358,"current_range_meters":18800,"station_id":"ce4bgj92rcd13ifvqbd0","pricing_plan_id":"free"},{"bike_id":"19834f2f-47ea-4cba-ab02-d3560cfc0459","system_id":"levelo_inurba_marseille","lat":43.299724,"lon":5.384848,"is_reserved":false,"is_disabled":false,"rental_uris":{"android":"levelo://app?vid=19834f2f-47ea-4cba-ab02-d3560cfc0459","ios":"levelo://app?vid=19834f2f-47ea-4cba-ab02-d3560cfc0459"},"vehicle_type_id":"4","last_reported":1705788358,"current_range_meters":14000,"station_id":"ce4bgj92rcd13ifvqbd0","pricing_plan_id":"free"},{"bike_id":"e40a1ee4-2e68-4ad5-9ba6-a85dfafcd6c5","system_id":"levelo_inurba_marseille","lat":43.3237,"lon":5.38874,"is_reserved":false,"is_disabled":false,"rental_uris":{"android":"levelo://app?vid=e40a1ee4-2e68-4ad5-9ba6-a85dfafcd6c5","ios":"levelo://app?vid=e40a1ee4-2e68-4ad5-9ba6-a85dfafcd6c5"},"vehicle_type_id":"4","last_reported":1705788358,"current_range_meters":18800,"station_id":"ce4bhqp2rcd13ifvqhog","pricing_plan_id":"free"},{"bike_id":"a4ee1b65-9fed-4296-92bc-3eb622e4958f","system_id":"levelo_inurba_marseille","lat":43.32367,"lon":5.388836,"is_reserved":false,"is_disabled":false,"rental_uris":{"android":"levelo://app?vid=a4ee1b65-9fed-4296-92bc-3eb622e4958f","ios":"levelo://app?vid=a4ee1b65-9fed-4296-92bc-3eb622e4958f"},"vehicle_type_id":"4","last_reported":1705788358,"current_range_meters":10000,"station_id":"ce4bhqp2rcd13ifvqhog","pricing_plan_id":"free"},{"bike_id":"b061506d-271a-4c55-a4ec-a9c64f6af8ff","system_id":"levelo_inurba_marseille","lat":43.29602,"lon":5.381084,"is_reserved":false,"is_disabled":false,"rental_uris":{"android":"levelo://app?vid=b061506d-271a-4c55-a4ec-a9c64f6af8ff","ios":"levelo://app?vid=b061506d-271a-4c55-a4ec-a9c64f6af8ff"},"vehicle_type_id":"4","last_reported":1705788358,"current_range_meters":30000,"station_id":"ce4bgl12rcd13ifvqbo0","pricing_plan_id":"free"},{"bike_id":"458f0061-844f-4edb-843c-7765090d18a1","system_id":"levelo_inurba_marseille","lat":43.29601,"lon":5.381084,"is_reserved":false,"is_disabled":false,"rental_uris":{"android":"levelo://app?vid=458f0061-844f-4edb-843c-7765090d18a1","ios":"levelo://app?vid=458f0061-844f-4edb-843c-7765090d18a1"},"vehicle_type_id":"4","last_reported":1705788358,"current_range_meters":15200,"station_id":"ce4bgl12rcd13ifvqbo0","pricing_plan_id":"free"},{"bike_id":"099bf60b-966b-498a-998e-72648b7d0e96","system_id":"levelo_inurba_marseille","lat":43.29338,"lon":5.372315,"is_reserved":false,"is_disabled":false,"rental_uris":{"android":"levelo://app?vid=099bf60b-966b-498a-998e-72648b7d0e96","ios":"levelo://app?vid=099bf60b-966b-498a-998e-72648b7d0e96"},"vehicle_type_id":"4","last_reported":1705788358,"current_range_meters":6000,"station_id":"","pricing_plan_id":"free"},{"bike_id":"658961d5-d23e-4984-9f5b-6e773cc412b5","system_id":"levelo_inurba_marseille","lat":43.293259,"lon":5.371586,"is_reserved":false,"is_disabled":false,"rental_uris":{"android":"levelo://app?vid=658961d5-d23e-4984-9f5b-6e773cc412b5","ios":"levelo://app?vid=658961d5-d23e-4984-9f5b-6e773cc412b5"},"vehicle_type_id":"4","last_reported":1705788358,"current_range_meters":10800,"station_id":"ce4bgh92rcd13ifvqb40","pricing_plan_id":"free"},{"bike_id":"31455c77-54b7-43f0-b280-17583bab2eb2","system_id":"levelo_inurba_marseille","lat":43.293259,"lon":5.371586,"is_reserved":false,"is_disabled":false,"rental_uris":{"android":"levelo://app?vid=31455c77-54b7-43f0-b280-17583bab2eb2","ios":"levelo://app?vid=31455c77-54b7-43f0-b280-17583bab2eb2"},"vehicle_type_id":"4","last_reported":1705788358,"current_range_meters":30000,"station_id":"ce4bgh92rcd13ifvqb40","pricing_plan_id":"free"},{"bike_id":"c814f00c-b948-4b00-9297-0cbdf2524624","system_id":"levelo_inurba_marseille","lat":43.292749,"lon":5.368398,"is_reserved":false,"is_disabled":false,"rental_uris":{"android":"levelo://app?vid=c814f00c-b948-4b00-9297-0cbdf2524624","ios":"levelo://app?vid=c814f00c-b948-4b00-9297-0cbdf2524624"},"vehicle_type_id":"4","last_reported":1705788358,"current_range_meters":31200,"station_id":"ce4bhbp2rcd13ifvqesg","pricing_plan_id":"free"},{"bike_id":"cf15975a-305d-4828-a373-99421d562a73","system_id":"levelo_inurba_marseille","lat":43.293259,"lon":5.371586,"is_reserved":false,"is_disabled":false,"rental_uris":{"android":"levelo://app?vid=cf15975a-305d-4828-a373-99421d562a73","ios":"levelo://app?vid=cf15975a-305d-4828-a373-99421d562a73"},"vehicle_type_id":"4","last_reported":1705788358,"current_range_meters":6000,"station_id":"ce4bgh92rcd13ifvqb40","pricing_plan_id":"free"},{"bike_id":"779c52d3-022b-4de2-b795-65e9c121bea3","system_id":"levelo_inurba_marseille","lat":43.305994,"lon":5.393687,"is_reserved":false,"is_disabled":false,"rental_uris":{"android":"levelo://app?vid=779c52d3-022b-4de2-b795-65e9c121bea3","ios":"levelo://app?vid=779c52d3-022b-4de2-b795-65e9c121bea3"},"vehicle_type_id":"4","last_reported":1705788358,"current_range_meters":4400,"station_id":"ce4bh0p2rcd13ifvqd80","pricing_plan_id":"free"},{"bike_id":"bcdbb6c3-b563-479e-b4cb-2b64fb7168ae","system_id":"levelo_inurba_marseille","lat":43.305994,"lon":5.393687,"is_reserved":false,"is_disabled":false,"rental_uris":{"android":"levelo://app?vid=bcdbb6c3-b563-479e-b4cb-2b64fb7168ae","ios":"levelo://app?vid=bcdbb6c3-b563-479e-b4cb-2b64fb7168ae"},"vehicle_type_id":"4","last_reported":1705788358,"current_range_meters":23600,"station_id":"ce4bh0p2rcd13ifvqd80","pricing_plan_id":"free"},{"bike_id":"a49e7c72-8702-4339-8d01-94811c7ab588","system_id":"levelo_inurba_marseille","lat":43.30596,"lon":5.39361,"is_reserved":false,"is_disabled":false,"rental_uris":{"android":"levelo://app?vid=a49e7c72-8702-4339-8d01-94811c7ab588","ios":"levelo://app?vid=a49e7c72-8702-4339-8d01-94811c7ab588"},"vehicle_type_id":"4","last_reported":1705788358,"current_range_meters":3600,"station_id":"ce4bh0p2rcd13ifvqd80","pricing_plan_id":"free"},{"bike_id":"889ba82f-1536-4070-b9e1-805e2fa73091","system_id":"levelo_inurba_marseille","lat":43.29292,"lon":5.37465,"is_reserved":false,"is_disabled":false,"rental_uris":{"android":"levelo://app?vid=889ba82f-1536-4070-b9e1-805e2fa73091","ios":"levelo://app?vid=889ba82f-1536-4070-b9e1-805e2fa73091"},"vehicle_type_id":"4","last_reported":1705788358,"current_range_meters":26400,"station_id":"ce4bgi12rcd13ifvqb70","pricing_plan_id":"free"},{"bike_id":"377f44c6-a1f3-4410-9f5b-269b35b39561","system_id":"levelo_inurba_marseille","lat":43.303002,"lon":5.392142,"is_reserved":false,"is_disabled":false,"rental_uris":{"android":"levelo://app?vid=377f44c6-a1f3-4410-9f5b-269b35b39561","ios":"levelo://app?vid=377f44c6-a1f3-4410-9f5b-269b35b39561"},"vehicle_type_id":"4","last_reported":1705788358,"current_range_meters":6800,"station_id":"ce4bgkh2rcd13ifvqbk0","pricing_plan_id":"free"},{"bike_id":"9d752597-fd4a-43a1-afe5-8fd9e87a4147","system_id":"levelo_inurba_marseille","lat":43.2936,"lon":5.37835,"is_reserved":false,"is_disabled":false,"rental_uris":{"android":"levelo://app?vid=9d752597-fd4a-43a1-afe5-8fd9e87a4147","ios":"levelo://app?vid=9d752597-fd4a-43a1-afe5-8fd9e87a4147"},"vehicle_type_id":"4","last_reported":1705788358,"current_range_meters":18400,"station_id":"ce4bgjh2rcd13ifvqbf0","pricing_plan_id":"free"},{"bike_id":"8090d9f7-3f11-4395-8ccd-bc6b6d0d2c27","system_id":"levelo_inurba_marseille","lat":43.2936,"lon":5.37835,"is_reserved":false,"is_disabled":false,"rental_uris":{"android":"levelo://app?vid=8090d9f7-3f11-4395-8ccd-bc6b6d0d2c27","ios":"levelo://app?vid=8090d9f7-3f11-4395-8ccd-bc6b6d0d2c27"},"vehicle_type_id":"4","last_reported":1705788358,"current_range_meters":30000,"station_id":"ce4bgjh2rcd13ifvqbf0","pricing_plan_id":"free"},{"bike_id":"bfcbab71-65d3-46ee-bfab-0ecba929b18d","system_id":"levelo_inurba_marseille","lat":43.2936,"lon":5.37835,"is_reserved":false,"is_disabled":false,"rental_uris":{"android":"levelo://app?vid=bfcbab71-65d3-46ee-bfab-0ecba929b18d","ios":"levelo://app?vid=bfcbab71-65d3-46ee-bfab-0ecba929b18d"},"vehicle_type_id":"4","last_reported":1705788358,"current_range_meters":25200,"station_id":"ce4bgjh2rcd13ifvqbf0","pricing_plan_id":"free"},{"bike_id":"acab2b43-cd3a-4784-9964-7e3f7315b4a0","system_id":"levelo_inurba_marseille","lat":43.309038,"lon":5.396546,"is_reserved":false,"is_disabled":false,"rental_uris":{"android":"levelo://app?vid=acab2b43-cd3a-4784-9964-7e3f7315b4a0","ios":"levelo://app?vid=acab2b43-cd3a-4784-9964-7e3f7315b4a0"},"vehicle_type_id":"4","last_reported":1705788358,"current_range_meters":17200,"station_id":"ce4bh012rcd13ifvqcv0","pricing_plan_id":"free"},{"bike_id":"8b4d6ebf-f30d-4b78-adb2-3e41b043b797","system_id":"levelo_inurba_marseille","lat":43.309038,"lon":5.396546,"is_reserved":false,"is_disabled":false,"rental_uris":{"android":"levelo://app?vid=8b4d6ebf-f30d-4b78-adb2-3e41b043b797","ios":"levelo://app?vid=8b4d6ebf-f30d-4b78-adb2-3e41b043b797"},"vehicle_type_id":"4","last_reported":1705788358,"current_range_meters":24000,"station_id":"ce4bh012rcd13ifvqcv0","pricing_plan_id":"free"},{"bike_id":"76ae2780-0df7-4bdc-ac90-62437b19e3df","system_id":"levelo_inurba_marseille","lat":43.308843,"lon":5.396393,"is_reserved":false,"is_disabled":false,"rental_uris":{"android":"levelo://app?vid=76ae2780-0df7-4bdc-ac90-62437b19e3df","ios":"levelo://app?vid=76ae2780-0df7-4bdc-ac90-62437b19e3df"},"vehicle_type_id":"4","last_reported":1705788358,"current_range_meters":21200,"station_id":"ce4bh012rcd13ifvqcv0","pricing_plan_id":"free"},{"bike_id":"9233fa9b-0c1f-4a02-8833-c91df612141c","system_id":"levelo_inurba_marseille","lat":43.291994,"lon":5.357886,"is_reserved":false,"is_disabled":false,"rental_uris":{"android":"levelo://app?vid=9233fa9b-0c1f-4a02-8833-c91df612141c","ios":"levelo://app?vid=9233fa9b-0c1f-4a02-8833-c91df612141c"},"vehicle_type_id":"4","last_reported":1705788358,"current_range_meters":0,"station_id":"ce4bhb12rcd13ifvqel0","pricing_plan_id":"free"},{"bike_id":"5fee3607-905b-4ae8-8e0a-e819041d71c4","system_id":"levelo_inurba_marseille","lat":43.295355,"lon":5.385385,"is_reserved":false,"is_disabled":false,"rental_uris":{"android":"levelo://app?vid=5fee3607-905b-4ae8-8e0a-e819041d71c4","ios":"levelo://app?vid=5fee3607-905b-4ae8-8e0a-e819041d71c4"},"vehicle_type_id":"4","last_reported":1705788358,"current_range_meters":16400,"station_id":"ce4bgih2rcd13ifvqba0","pricing_plan_id":"free"},{"bike_id":"d8a630a3-8a26-4a77-90bb-8dfb20bcded9","system_id":"levelo_inurba_marseille","lat":43.29533,"lon":5.38535,"is_reserved":false,"is_disabled":false,"rental_uris":{"android":"levelo://app?vid=d8a630a3-8a26-4a77-90bb-8dfb20bcded9","ios":"levelo://app?vid=d8a630a3-8a26-4a77-90bb-8dfb20bcded9"},"vehicle_type_id":"4","last_reported":1705788358,"current_range_meters":20400,"station_id":"ce4bgih2rcd13ifvqba0","pricing_plan_id":"free"},{"bike_id":"dc03d9bf-a538-452a-b9b2-c92dbb185b51","system_id":"levelo_inurba_marseille","lat":43.29534,"lon":5.38539,"is_reserved":false,"is_disabled":false,"rental_uris":{"android":"levelo://app?vid=dc03d9bf-a538-452a-b9b2-c92dbb185b51","ios":"levelo://app?vid=dc03d9bf-a538-452a-b9b2-c92dbb185b51"},"vehicle_type_id":"4","last_reported":1705788358,"current_range_meters":10800,"station_id":"ce4bgih2rcd13ifvqba0","pricing_plan_id":"free"},{"bike_id":"ff9e52f9-d436-4d13-a634-3c6c04c4f1e4","system_id":"levelo_inurba_marseille","lat":43.29529,"lon":5.385581,"is_reserved":false,"is_disabled":false,"rental_uris":{"android":"levelo://app?vid=ff9e52f9-d436-4d13-a634-3c6c04c4f1e4","ios":"levelo://app?vid=ff9e52f9-d436-4d13-a634-3c6c04c4f1e4"},"vehicle_type_id":"4","last_reported":1705788358,"current_range_meters":2800,"station_id":"ce4bgih2rcd13ifvqba0","pricing_plan_id":"free"},{"bike_id":"18ea9100-b8d1-4d6a-a062-0912956b248b","system_id":"levelo_inurba_marseille","lat":43.29529,"lon":5.385581,"is_reserved":false,"is_disabled":false,"rental_uris":{"android":"levelo://app?vid=18ea9100-b8d1-4d6a-a062-0912956b248b","ios":"levelo://app?vid=18ea9100-b8d1-4d6a-a062-0912956b248b"},"vehicle_type_id":"4","last_reported":1705788358,"current_range_meters":10400,"station_id":"ce4bgih2rcd13ifvqba0","pricing_plan_id":"free"},{"bike_id":"3163d038-d44f-452f-b53b-f68cb7bc8c17","system_id":"levelo_inurba_marseille","lat":43.29529,"lon":5.385581,"is_reserved":false,"is_disabled":false,"rental_uris":{"android":"levelo://app?vid=3163d038-d44f-452f-b53b-f68cb7bc8c17","ios":"levelo://app?vid=3163d038-d44f-452f-b53b-f68cb7bc8c17"},"vehicle_type_id":"4","last_reported":1705788358,"current_range_meters":31600,"station_id":"ce4bgih2rcd13ifvqba0","pricing_plan_id":"free"},{"bike_id":"403d666a-bd00-4e0b-8102-03cb9d77a96c","system_id":"levelo_inurba_marseille","lat":43.29535,"lon":5.385469,"is_reserved":false,"is_disabled":false,"rental_uris":{"android":"levelo://app?vid=403d666a-bd00-4e0b-8102-03cb9d77a96c","ios":"levelo://app?vid=403d666a-bd00-4e0b-8102-03cb9d77a96c"},"vehicle_type_id":"4","last_reported":1705788358,"current_range_meters":20800,"station_id":"ce4bgih2rcd13ifvqba0","pricing_plan_id":"free"},{"bike_id":"48f782c8-9e6b-46fc-9a50-60ce750d7812","system_id":"levelo_inurba_marseille","lat":43.295312,"lon":5.385418,"is_reserved":false,"is_disabled":false,"rental_uris":{"android":"levelo://app?vid=48f782c8-9e6b-46fc-9a50-60ce750d7812","ios":"levelo://app?vid=48f782c8-9e6b-46fc-9a50-60ce750d7812"},"vehicle_type_id":"4","last_reported":1705788358,"current_range_meters":13200,"station_id":"ce4bgih2rcd13ifvqba0","pricing_plan_id":"free"},{"bike_id":"d7e3671c-b7a9-4a21-8d5e-a267b8c58574","system_id":"levelo_inurba_marseille","lat":43.29529,"lon":5.385581,"is_reserved":false,"is_disabled":false,"rental_uris":{"android":"levelo://app?vid=d7e3671c-b7a9-4a21-8d5e-a267b8c58574","ios":"levelo://app?vid=d7e3671c-b7a9-4a21-8d5e-a267b8c58574"},"vehicle_type_id":"4","last_reported":1705788358,"current_range_meters":31200,"station_id":"ce4bgih2rcd13ifvqba0","pricing_plan_id":"free"},{"bike_id":"e303b867-3eca-4adb-9186-a56e1e0bf620","system_id":"levelo_inurba_marseille","lat":43.295301,"lon":5.385404,"is_reserved":false,"is_disabled":false,"rental_uris":{"android":"levelo://app?vid=e303b867-3eca-4adb-9186-a56e1e0bf620","ios":"levelo://app?vid=e303b867-3eca-4adb-9186-a56e1e0bf620"},"vehicle_type_id":"4","last_reported":1705788358,"current_range_meters":18000,"station_id":"ce4bgih2rcd13ifvqba0","pricing_plan_id":"free"},{"bike_id":"a3fa1e61-6105-448f-b621-0c3cd303570f","system_id":"levelo_inurba_marseille","lat":43.295328,"lon":5.385455,"is_reserved":false,"is_disabled":false,"rental_uris":{"android":"levelo://app?vid=a3fa1e61-6105-448f-b621-0c3cd303570f","ios":"levelo://app?vid=a3fa1e61-6105-448f-b621-0c3cd303570f"},"vehicle_type_id":"4","last_reported":1705788358,"current_range_meters":9200,"station_id":"ce4bgih2rcd13ifvqba0","pricing_plan_id":"free"},{"bike_id":"acf6545b-bb96-4aab-a08e-f230d897ad29","system_id":"levelo_inurba_marseille","lat":43.2953,"lon":5.38542,"is_reserved":false,"is_disabled":false,"rental_uris":{"android":"levelo://app?vid=acf6545b-bb96-4aab-a08e-f230d897ad29","ios":"levelo://app?vid=acf6545b-bb96-4aab-a08e-f230d897ad29"},"vehicle_type_id":"4","last_reported":1705788358,"current_range_meters":30800,"station_id":"ce4bgih2rcd13ifvqba0","pricing_plan_id":"free"},{"bike_id":"d4be000e-cfad-4402-b78e-67140cb16558","system_id":"levelo_inurba_marseille","lat":43.29529,"lon":5.385581,"is_reserved":false,"is_disabled":false,"rental_uris":{"android":"levelo://app?vid=d4be000e-cfad-4402-b78e-67140cb16558","ios":"levelo://app?vid=d4be000e-cfad-4402-b78e-67140cb16558"},"vehicle_type_id":"4","last_reported":1705788358,"current_range_meters":26400,"station_id":"ce4bgih2rcd13ifvqba0","pricing_plan_id":"free"},{"bike_id":"100d4291-0183-4ba1-8b92-81259cc85ddc","system_id":"levelo_inurba_marseille","lat":43.295312,"lon":5.38545,"is_reserved":false,"is_disabled":false,"rental_uris":{"android":"levelo://app?vid=100d4291-0183-4ba1-8b92-81259cc85ddc","ios":"levelo://app?vid=100d4291-0183-4ba1-8b92-81259cc85ddc"},"vehicle_type_id":"4","last_reported":1705788358,"current_range_meters":23200,"station_id":"ce4bgih2rcd13ifvqba0","pricing_plan_id":"free"},{"bike_id":"76f1d78e-fdc4-4bcc-a208-b24741f8728e","system_id":"levelo_inurba_marseille","lat":43.29529,"lon":5.385581,"is_reserved":false,"is_disabled":false,"rental_uris":{"android":"levelo://app?vid=76f1d78e-fdc4-4bcc-a208-b24741f8728e","ios":"levelo://app?vid=76f1d78e-fdc4-4bcc-a208-b24741f8728e"},"vehicle_type_id":"4","last_reported":1705788358,"current_range_meters":10800,"station_id":"ce4bgih2rcd13ifvqba0","pricing_plan_id":"free"},{"bike_id":"705b572c-7ffd-4804-916b-3c4ee9773fa1","system_id":"levelo_inurba_marseille","lat":43.295344,"lon":5.38552,"is_reserved":false,"is_disabled":false,"rental_uris":{"android":"levelo://app?vid=705b572c-7ffd-4804-916b-3c4ee9773fa1","ios":"levelo://app?vid=705b572c-7ffd-4804-916b-3c4ee9773fa1"},"vehicle_type_id":"4","last_reported":1705788358,"current_range_meters":31200,"station_id":"ce4bgih2rcd13ifvqba0","pricing_plan_id":"free"},{"bike_id":"5143edea-60b8-4831-9621-a0615982c08b","system_id":"levelo_inurba_marseille","lat":43.295286,"lon":5.385426,"is_reserved":false,"is_disabled":false,"rental_uris":{"android":"levelo://app?vid=5143edea-60b8-4831-9621-a0615982c08b","ios":"levelo://app?vid=5143edea-60b8-4831-9621-a0615982c08b"},"vehicle_type_id":"4","last_reported":1705788358,"current_range_meters":7600,"station_id":"ce4bgih2rcd13ifvqba0","pricing_plan_id":"free"},{"bike_id":"a1cfac58-f3c3-43a4-bc9d-420aa944bb62","system_id":"levelo_inurba_marseille","lat":43.29529,"lon":5.385581,"is_reserved":false,"is_disabled":false,"rental_uris":{"android":"levelo://app?vid=a1cfac58-f3c3-43a4-bc9d-420aa944bb62","ios":"levelo://app?vid=a1cfac58-f3c3-43a4-bc9d-420aa944bb62"},"vehicle_type_id":"4","last_reported":1705788358,"current_range_meters":21200,"station_id":"ce4bgih2rcd13ifvqba0","pricing_plan_id":"free"},{"bike_id":"d447e559-c129-4df8-bce6-a631556945a6","system_id":"levelo_inurba_marseille","lat":43.29528,"lon":5.38542,"is_reserved":false,"is_disabled":false,"rental_uris":{"android":"levelo://app?vid=d447e559-c129-4df8-bce6-a631556945a6","ios":"levelo://app?vid=d447e559-c129-4df8-bce6-a631556945a6"},"vehicle_type_id":"4","last_reported":1705788358,"current_range_meters":12000,"station_id":"ce4bgih2rcd13ifvqba0","pricing_plan_id":"free"},{"bike_id":"9a82bf6f-b3cc-442b-853f-de663054458d","system_id":"levelo_inurba_marseille","lat":43.29529,"lon":5.385581,"is_reserved":false,"is_disabled":false,"rental_uris":{"android":"levelo://app?vid=9a82bf6f-b3cc-442b-853f-de663054458d","ios":"levelo://app?vid=9a82bf6f-b3cc-442b-853f-de663054458d"},"vehicle_type_id":"4","last_reported":1705788358,"current_range_meters":2400,"station_id":"ce4bgih2rcd13ifvqba0","pricing_plan_id":"free"},{"bike_id":"a476409f-d4fa-4cc9-8a9d-ed179b2b8a26","system_id":"levelo_inurba_marseille","lat":43.29529,"lon":5.385581,"is_reserved":false,"is_disabled":false,"rental_uris":{"android":"levelo://app?vid=a476409f-d4fa-4cc9-8a9d-ed179b2b8a26","ios":"levelo://app?vid=a476409f-d4fa-4cc9-8a9d-ed179b2b8a26"},"vehicle_type_id":"4","last_reported":1705788358,"current_range_meters":17600,"station_id":"ce4bgih2rcd13ifvqba0","pricing_plan_id":"free"},{"bike_id":"45318ff3-7044-49ff-95a2-4f822a26333c","system_id":"levelo_inurba_marseille","lat":43.29529,"lon":5.385581,"is_reserved":false,"is_disabled":false,"rental_uris":{"android":"levelo://app?vid=45318ff3-7044-49ff-95a2-4f822a26333c","ios":"levelo://app?vid=45318ff3-7044-49ff-95a2-4f822a26333c"},"vehicle_type_id":"4","last_reported":1705788358,"current_range_meters":26800,"station_id":"ce4bgih2rcd13ifvqba0","pricing_plan_id":"free"},{"bike_id":"90c3ebaa-e3db-4e02-9534-4775e182f6a7","system_id":"levelo_inurba_marseille","lat":43.290779,"lon":5.371482,"is_reserved":false,"is_disabled":false,"rental_uris":{"android":"levelo://app?vid=90c3ebaa-e3db-4e02-9534-4775e182f6a7","ios":"levelo://app?vid=90c3ebaa-e3db-4e02-9534-4775e182f6a7"},"vehicle_type_id":"4","last_reported":1705788358,"current_range_meters":21600,"station_id":"ce4bh5p2rcd13ifvqe4g","pricing_plan_id":"free"},{"bike_id":"86dda815-b3f5-44ff-bc4c-9b57c79b1cd2","system_id":"levelo_inurba_marseille","lat":43.290631,"lon":5.359244,"is_reserved":false,"is_disabled":false,"rental_uris":{"android":"levelo://app?vid=86dda815-b3f5-44ff-bc4c-9b57c79b1cd2","ios":"levelo://app?vid=86dda815-b3f5-44ff-bc4c-9b57c79b1cd2"},"vehicle_type_id":"4","last_reported":1705788358,"current_range_meters":12400,"station_id":"ce4bha92rcd13ifvqeg0","pricing_plan_id":"free"},{"bike_id":"52a2826c-92aa-49a8-a34f-35f68d74448c","system_id":"levelo_inurba_marseille","lat":43.290631,"lon":5.359244,"is_reserved":false,"is_disabled":false,"rental_uris":{"android":"levelo://app?vid=52a2826c-92aa-49a8-a34f-35f68d74448c","ios":"levelo://app?vid=52a2826c-92aa-49a8-a34f-35f68d74448c"},"vehicle_type_id":"4","last_reported":1705788358,"current_range_meters":12800,"station_id":"ce4bha92rcd13ifvqeg0","pricing_plan_id":"free"},{"bike_id":"7bd4511f-977a-49a8-8939-27a0f8b9a0da","system_id":"levelo_inurba_marseille","lat":43.290631,"lon":5.359244,"is_reserved":false,"is_disabled":false,"rental_uris":{"android":"levelo://app?vid=7bd4511f-977a-49a8-8939-27a0f8b9a0da","ios":"levelo://app?vid=7bd4511f-977a-49a8-8939-27a0f8b9a0da"},"vehicle_type_id":"4","last_reported":1705788358,"current_range_meters":13200,"station_id":"ce4bha92rcd13ifvqeg0","pricing_plan_id":"free"},{"bike_id":"7fe6c574-13c3-4dc3-a9b9-2b496fda1cfa","system_id":"levelo_inurba_marseille","lat":43.290631,"lon":5.359244,"is_reserved":false,"is_disabled":false,"rental_uris":{"android":"levelo://app?vid=7fe6c574-13c3-4dc3-a9b9-2b496fda1cfa","ios":"levelo://app?vid=7fe6c574-13c3-4dc3-a9b9-2b496fda1cfa"},"vehicle_type_id":"4","last_reported":1705788358,"current_range_meters":17600,"station_id":"ce4bha92rcd13ifvqeg0","pricing_plan_id":"free"},{"bike_id":"7b03bc98-b942-4348-87bf-ecc8bd0fff5b","system_id":"levelo_inurba_marseille","lat":43.290631,"lon":5.359244,"is_reserved":false,"is_disabled":false,"rental_uris":{"android":"levelo://app?vid=7b03bc98-b942-4348-87bf-ecc8bd0fff5b","ios":"levelo://app?vid=7b03bc98-b942-4348-87bf-ecc8bd0fff5b"},"vehicle_type_id":"4","last_reported":1705788358,"current_range_meters":22400,"station_id":"ce4bha92rcd13ifvqeg0","pricing_plan_id":"free"},{"bike_id":"9f645012-7009-46b2-85c0-905d5e97af3b","system_id":"levelo_inurba_marseille","lat":43.290624,"lon":5.359245,"is_reserved":false,"is_disabled":false,"rental_uris":{"android":"levelo://app?vid=9f645012-7009-46b2-85c0-905d5e97af3b","ios":"levelo://app?vid=9f645012-7009-46b2-85c0-905d5e97af3b"},"vehicle_type_id":"4","last_reported":1705788358,"current_range_meters":6400,"station_id":"ce4bha92rcd13ifvqeg0","pricing_plan_id":"free"},{"bike_id":"a40fd70b-4e0c-47b0-9544-2823f18535c5","system_id":"levelo_inurba_marseille","lat":43.294153,"lon":5.386305,"is_reserved":false,"is_disabled":false,"rental_uris":{"android":"levelo://app?vid=a40fd70b-4e0c-47b0-9544-2823f18535c5","ios":"levelo://app?vid=a40fd70b-4e0c-47b0-9544-2823f18535c5"},"vehicle_type_id":"4","last_reported":1705788358,"current_range_meters":14000,"station_id":"ce4bh2h2rcd13ifvqdh0","pricing_plan_id":"free"},{"bike_id":"f223f907-213b-4e51-af38-54b890266ec5","system_id":"levelo_inurba_marseille","lat":43.289184,"lon":5.366408,"is_reserved":false,"is_disabled":false,"rental_uris":{"android":"levelo://app?vid=f223f907-213b-4e51-af38-54b890266ec5","ios":"levelo://app?vid=f223f907-213b-4e51-af38-54b890266ec5"},"vehicle_type_id":"4","last_reported":1705788358,"current_range_meters":10800,"station_id":"ce4bhap2rcd13ifvqek0","pricing_plan_id":"free"},{"bike_id":"eb34e74f-d237-4830-831b-87a0c643cfec","system_id":"levelo_inurba_marseille","lat":43.294153,"lon":5.386305,"is_reserved":false,"is_disabled":false,"rental_uris":{"android":"levelo://app?vid=eb34e74f-d237-4830-831b-87a0c643cfec","ios":"levelo://app?vid=eb34e74f-d237-4830-831b-87a0c643cfec"},"vehicle_type_id":"4","last_reported":1705788358,"current_range_meters":25200,"station_id":"ce4bh2h2rcd13ifvqdh0","pricing_plan_id":"free"},{"bike_id":"0439bd8e-ead1-445d-ab47-1a0c42cb8060","system_id":"levelo_inurba_marseille","lat":43.294153,"lon":5.386305,"is_reserved":false,"is_disabled":false,"rental_uris":{"android":"levelo://app?vid=0439bd8e-ead1-445d-ab47-1a0c42cb8060","ios":"levelo://app?vid=0439bd8e-ead1-445d-ab47-1a0c42cb8060"},"vehicle_type_id":"4","last_reported":1705788358,"current_range_meters":18000,"station_id":"ce4bh2h2rcd13ifvqdh0","pricing_plan_id":"free"},{"bike_id":"4110cc40-00fb-46fb-ac89-fc9b01bbe2d5","system_id":"levelo_inurba_marseille","lat":43.294153,"lon":5.386305,"is_reserved":false,"is_disabled":false,"rental_uris":{"android":"levelo://app?vid=4110cc40-00fb-46fb-ac89-fc9b01bbe2d5","ios":"levelo://app?vid=4110cc40-00fb-46fb-ac89-fc9b01bbe2d5"},"vehicle_type_id":"4","last_reported":1705788358,"current_range_meters":3600,"station_id":"ce4bh2h2rcd13ifvqdh0","pricing_plan_id":"free"},{"bike_id":"12ef3eb4-2004-4e07-ab15-e1fc760b5526","system_id":"levelo_inurba_marseille","lat":43.294153,"lon":5.386305,"is_reserved":false,"is_disabled":false,"rental_uris":{"android":"levelo://app?vid=12ef3eb4-2004-4e07-ab15-e1fc760b5526","ios":"levelo://app?vid=12ef3eb4-2004-4e07-ab15-e1fc760b5526"},"vehicle_type_id":"4","last_reported":1705788358,"current_range_meters":18800,"station_id":"ce4bh2h2rcd13ifvqdh0","pricing_plan_id":"free"},{"bike_id":"7e5fccc6-7000-4ab1-a115-12612d382787","system_id":"levelo_inurba_marseille","lat":43.294153,"lon":5.386305,"is_reserved":false,"is_disabled":false,"rental_uris":{"android":"levelo://app?vid=7e5fccc6-7000-4ab1-a115-12612d382787","ios":"levelo://app?vid=7e5fccc6-7000-4ab1-a115-12612d382787"},"vehicle_type_id":"4","last_reported":1705788358,"current_range_meters":13200,"station_id":"ce4bh2h2rcd13ifvqdh0","pricing_plan_id":"free"},{"bike_id":"a6185aa8-5ab7-4246-a6e5-c3ede55e362c","system_id":"levelo_inurba_marseille","lat":43.290327,"lon":5.375711,"is_reserved":false,"is_disabled":false,"rental_uris":{"android":"levelo://app?vid=a6185aa8-5ab7-4246-a6e5-c3ede55e362c","ios":"levelo://app?vid=a6185aa8-5ab7-4246-a6e5-c3ede55e362c"},"vehicle_type_id":"4","last_reported":1705788358,"current_range_meters":7600,"station_id":"ce4bh692rcd13ifvqe90","pricing_plan_id":"free"},{"bike_id":"086f92b7-4901-4ffd-bfe7-30a174da9518","system_id":"levelo_inurba_marseille","lat":43.2942,"lon":5.38627,"is_reserved":false,"is_disabled":false,"rental_uris":{"android":"levelo://app?vid=086f92b7-4901-4ffd-bfe7-30a174da9518","ios":"levelo://app?vid=086f92b7-4901-4ffd-bfe7-30a174da9518"},"vehicle_type_id":"4","last_reported":1705788358,"current_range_meters":30400,"station_id":"","pricing_plan_id":"free"},{"bike_id":"9dc55439-78e3-4583-a1f4-dc1588e4d562","system_id":"levelo_inurba_marseille","lat":43.2942,"lon":5.38628,"is_reserved":false,"is_disabled":false,"rental_uris":{"android":"levelo://app?vid=9dc55439-78e3-4583-a1f4-dc1588e4d562","ios":"levelo://app?vid=9dc55439-78e3-4583-a1f4-dc1588e4d562"},"vehicle_type_id":"4","last_reported":1705788358,"current_range_meters":22000,"station_id":"ce4bh2h2rcd13ifvqdh0","pricing_plan_id":"free"},{"bike_id":"40061d23-e485-4ee8-954f-f0b6102cf859","system_id":"levelo_inurba_marseille","lat":43.294153,"lon":5.386305,"is_reserved":false,"is_disabled":false,"rental_uris":{"android":"levelo://app?vid=40061d23-e485-4ee8-954f-f0b6102cf859","ios":"levelo://app?vid=40061d23-e485-4ee8-954f-f0b6102cf859"},"vehicle_type_id":"4","last_reported":1705788358,"current_range_meters":15600,"station_id":"ce4bh2h2rcd13ifvqdh0","pricing_plan_id":"free"},{"bike_id":"99616dff-460b-4b2e-98c3-a3427ae12ba5","system_id":"levelo_inurba_marseille","lat":43.294153,"lon":5.386305,"is_reserved":false,"is_disabled":false,"rental_uris":{"android":"levelo://app?vid=99616dff-460b-4b2e-98c3-a3427ae12ba5","ios":"levelo://app?vid=99616dff-460b-4b2e-98c3-a3427ae12ba5"},"vehicle_type_id":"4","last_reported":1705788358,"current_range_meters":18000,"station_id":"ce4bh2h2rcd13ifvqdh0","pricing_plan_id":"free"},{"bike_id":"5cbc1c31-19c0-4eea-ba5e-c969c4f5ae37","system_id":"levelo_inurba_marseille","lat":43.29416,"lon":5.38624,"is_reserved":false,"is_disabled":false,"rental_uris":{"android":"levelo://app?vid=5cbc1c31-19c0-4eea-ba5e-c969c4f5ae37","ios":"levelo://app?vid=5cbc1c31-19c0-4eea-ba5e-c969c4f5ae37"},"vehicle_type_id":"4","last_reported":1705788358,"current_range_meters":6800,"station_id":"ce4bh2h2rcd13ifvqdh0","pricing_plan_id":"free"},{"bike_id":"3ab5ce3f-01ef-4fc9-8121-c5ce97f358c8","system_id":"levelo_inurba_marseille","lat":43.294153,"lon":5.386305,"is_reserved":false,"is_disabled":false,"rental_uris":{"android":"levelo://app?vid=3ab5ce3f-01ef-4fc9-8121-c5ce97f358c8","ios":"levelo://app?vid=3ab5ce3f-01ef-4fc9-8121-c5ce97f358c8"},"vehicle_type_id":"4","last_reported":1705788358,"current_range_meters":18000,"station_id":"ce4bh2h2rcd13ifvqdh0","pricing_plan_id":"free"},{"bike_id":"6873e2df-ec2e-4ed3-98ba-e902f8bc63aa","system_id":"levelo_inurba_marseille","lat":43.29417,"lon":5.3863,"is_reserved":false,"is_disabled":false,"rental_uris":{"android":"levelo://app?vid=6873e2df-ec2e-4ed3-98ba-e902f8bc63aa","ios":"levelo://app?vid=6873e2df-ec2e-4ed3-98ba-e902f8bc63aa"},"vehicle_type_id":"4","last_reported":1705788358,"current_range_meters":10800,"station_id":"ce4bh2h2rcd13ifvqdh0","pricing_plan_id":"free"},{"bike_id":"71a2eed9-ca85-4bf7-adc0-9016dbb76473","system_id":"levelo_inurba_marseille","lat":43.294153,"lon":5.386305,"is_reserved":false,"is_disabled":false,"rental_uris":{"android":"levelo://app?vid=71a2eed9-ca85-4bf7-adc0-9016dbb76473","ios":"levelo://app?vid=71a2eed9-ca85-4bf7-adc0-9016dbb76473"},"vehicle_type_id":"4","last_reported":1705788358,"current_range_meters":9200,"station_id":"ce4bh2h2rcd13ifvqdh0","pricing_plan_id":"free"},{"bike_id":"e8e1e35d-4ccb-4033-b2f3-348df825a1e6","system_id":"levelo_inurba_marseille","lat":43.289184,"lon":5.366408,"is_reserved":false,"is_disabled":false,"rental_uris":{"android":"levelo://app?vid=e8e1e35d-4ccb-4033-b2f3-348df825a1e6","ios":"levelo://app?vid=e8e1e35d-4ccb-4033-b2f3-348df825a1e6"},"vehicle_type_id":"4","last_reported":1705788358,"current_range_meters":10400,"station_id":"ce4bhap2rcd13ifvqek0","pricing_plan_id":"free"},{"bike_id":"14313637-cb61-445a-9ad1-47ef8c2eb26a","system_id":"levelo_inurba_marseille","lat":43.294162,"lon":5.386292,"is_reserved":false,"is_disabled":false,"rental_uris":{"android":"levelo://app?vid=14313637-cb61-445a-9ad1-47ef8c2eb26a","ios":"levelo://app?vid=14313637-cb61-445a-9ad1-47ef8c2eb26a"},"vehicle_type_id":"4","last_reported":1705788358,"current_range_meters":29200,"station_id":"ce4bh2h2rcd13ifvqdh0","pricing_plan_id":"free"},{"bike_id":"ec2bd82a-7f0d-45c4-a1e9-307797bace1a","system_id":"levelo_inurba_marseille","lat":43.29417,"lon":5.38634,"is_reserved":false,"is_disabled":false,"rental_uris":{"android":"levelo://app?vid=ec2bd82a-7f0d-45c4-a1e9-307797bace1a","ios":"levelo://app?vid=ec2bd82a-7f0d-45c4-a1e9-307797bace1a"},"vehicle_type_id":"4","last_reported":1705788358,"current_range_meters":4800,"station_id":"ce4bh2h2rcd13ifvqdh0","pricing_plan_id":"free"},{"bike_id":"6773d709-dbb1-461e-9b78-00775d1a74c9","system_id":"levelo_inurba_marseille","lat":43.29414,"lon":5.3863,"is_reserved":false,"is_disabled":false,"rental_uris":{"android":"levelo://app?vid=6773d709-dbb1-461e-9b78-00775d1a74c9","ios":"levelo://app?vid=6773d709-dbb1-461e-9b78-00775d1a74c9"},"vehicle_type_id":"4","last_reported":1705788358,"current_range_meters":14000,"station_id":"ce4bh2h2rcd13ifvqdh0","pricing_plan_id":"free"},{"bike_id":"a0811e8b-051b-4397-b56a-440189a5dbdf","system_id":"levelo_inurba_marseille","lat":43.29413,"lon":5.3863,"is_reserved":false,"is_disabled":false,"rental_uris":{"android":"levelo://app?vid=a0811e8b-051b-4397-b56a-440189a5dbdf","ios":"levelo://app?vid=a0811e8b-051b-4397-b56a-440189a5dbdf"},"vehicle_type_id":"4","last_reported":1705788358,"current_range_meters":20800,"station_id":"ce4bh2h2rcd13ifvqdh0","pricing_plan_id":"free"},{"bike_id":"c09a7444-f7d2-4efe-98f1-b6dbb8a410ce","system_id":"levelo_inurba_marseille","lat":43.294153,"lon":5.386305,"is_reserved":false,"is_disabled":false,"rental_uris":{"android":"levelo://app?vid=c09a7444-f7d2-4efe-98f1-b6dbb8a410ce","ios":"levelo://app?vid=c09a7444-f7d2-4efe-98f1-b6dbb8a410ce"},"vehicle_type_id":"4","last_reported":1705788358,"current_range_meters":0,"station_id":"ce4bh2h2rcd13ifvqdh0","pricing_plan_id":"free"},{"bike_id":"f7a8c47b-50c9-4780-b74b-e9be9208eaa3","system_id":"levelo_inurba_marseille","lat":43.29413,"lon":5.38633,"is_reserved":false,"is_disabled":false,"rental_uris":{"android":"levelo://app?vid=f7a8c47b-50c9-4780-b74b-e9be9208eaa3","ios":"levelo://app?vid=f7a8c47b-50c9-4780-b74b-e9be9208eaa3"},"vehicle_type_id":"4","last_reported":1705788358,"current_range_meters":4400,"station_id":"ce4bh2h2rcd13ifvqdh0","pricing_plan_id":"free"},{"bike_id":"29949a25-6cc1-4ee9-87b9-5f19314750fd","system_id":"levelo_inurba_marseille","lat":43.294153,"lon":5.386305,"is_reserved":false,"is_disabled":false,"rental_uris":{"android":"levelo://app?vid=29949a25-6cc1-4ee9-87b9-5f19314750fd","ios":"levelo://app?vid=29949a25-6cc1-4ee9-87b9-5f19314750fd"},"vehicle_type_id":"4","last_reported":1705788358,"current_range_meters":14800,"station_id":"ce4bh2h2rcd13ifvqdh0","pricing_plan_id":"free"},{"bike_id":"06a567c5-a375-40b9-b251-b24038f61365","system_id":"levelo_inurba_marseille","lat":43.29412,"lon":5.38641,"is_reserved":false,"is_disabled":false,"rental_uris":{"android":"levelo://app?vid=06a567c5-a375-40b9-b251-b24038f61365","ios":"levelo://app?vid=06a567c5-a375-40b9-b251-b24038f61365"},"vehicle_type_id":"4","last_reported":1705788358,"current_range_meters":28800,"station_id":"ce4bh2h2rcd13ifvqdh0","pricing_plan_id":"free"},{"bike_id":"467a4274-63f0-44d0-887b-ac592f783a79","system_id":"levelo_inurba_marseille","lat":43.28935,"lon":5.37092,"is_reserved":false,"is_disabled":false,"rental_uris":{"android":"levelo://app?vid=467a4274-63f0-44d0-887b-ac592f783a79","ios":"levelo://app?vid=467a4274-63f0-44d0-887b-ac592f783a79"},"vehicle_type_id":"4","last_reported":1705788358,"current_range_meters":14800,"station_id":"","pricing_plan_id":"free"},{"bike_id":"86c7ecaf-8f95-47c1-91c6-d5ce1347dc63","system_id":"levelo_inurba_marseille","lat":43.29273,"lon":5.38444,"is_reserved":false,"is_disabled":false,"rental_uris":{"android":"levelo://app?vid=86c7ecaf-8f95-47c1-91c6-d5ce1347dc63","ios":"levelo://app?vid=86c7ecaf-8f95-47c1-91c6-d5ce1347dc63"},"vehicle_type_id":"4","last_reported":1705788358,"current_range_meters":30800,"station_id":"ce4bh692rcd13ifvqea0","pricing_plan_id":"free"},{"bike_id":"52fdbfb1-63ae-41c2-87bf-dabb106d7e61","system_id":"levelo_inurba_marseille","lat":43.29272,"lon":5.38448,"is_reserved":false,"is_disabled":false,"rental_uris":{"android":"levelo://app?vid=52fdbfb1-63ae-41c2-87bf-dabb106d7e61","ios":"levelo://app?vid=52fdbfb1-63ae-41c2-87bf-dabb106d7e61"},"vehicle_type_id":"4","last_reported":1705788358,"current_range_meters":31200,"station_id":"ce4bh692rcd13ifvqea0","pricing_plan_id":"free"},{"bike_id":"51b7b348-5989-4b52-8ebe-5322c413c229","system_id":"levelo_inurba_marseille","lat":43.29264,"lon":5.38434,"is_reserved":false,"is_disabled":false,"rental_uris":{"android":"levelo://app?vid=51b7b348-5989-4b52-8ebe-5322c413c229","ios":"levelo://app?vid=51b7b348-5989-4b52-8ebe-5322c413c229"},"vehicle_type_id":"4","last_reported":1705788358,"current_range_meters":30000,"station_id":"ce4bh692rcd13ifvqea0","pricing_plan_id":"free"},{"bike_id":"ba64bc27-90fb-4625-8247-50c3b90c368d","system_id":"levelo_inurba_marseille","lat":43.29266,"lon":5.38441,"is_reserved":false,"is_disabled":false,"rental_uris":{"android":"levelo://app?vid=ba64bc27-90fb-4625-8247-50c3b90c368d","ios":"levelo://app?vid=ba64bc27-90fb-4625-8247-50c3b90c368d"},"vehicle_type_id":"4","last_reported":1705788358,"current_range_meters":14400,"station_id":"ce4bh692rcd13ifvqea0","pricing_plan_id":"free"},{"bike_id":"7b5a115c-c3a3-4ceb-bfee-96d889d95199","system_id":"levelo_inurba_marseille","lat":43.292644,"lon":5.384257,"is_reserved":false,"is_disabled":false,"rental_uris":{"android":"levelo://app?vid=7b5a115c-c3a3-4ceb-bfee-96d889d95199","ios":"levelo://app?vid=7b5a115c-c3a3-4ceb-bfee-96d889d95199"},"vehicle_type_id":"4","last_reported":1705788358,"current_range_meters":4400,"station_id":"ce4bh692rcd13ifvqea0","pricing_plan_id":"free"},{"bike_id":"47822492-c401-4a56-8fd4-e592029025f1","system_id":"levelo_inurba_marseille","lat":43.304274,"lon":5.397513,"is_reserved":false,"is_disabled":false,"rental_uris":{"android":"levelo://app?vid=47822492-c401-4a56-8fd4-e592029025f1","ios":"levelo://app?vid=47822492-c401-4a56-8fd4-e592029025f1"},"vehicle_type_id":"4","last_reported":1705788358,"current_range_meters":14800,"station_id":"ce4bh092rcd13ifvqd20","pricing_plan_id":"free"},{"bike_id":"3d1379db-275e-4989-9389-6a0e032c3d47","system_id":"levelo_inurba_marseille","lat":43.292644,"lon":5.384257,"is_reserved":false,"is_disabled":false,"rental_uris":{"android":"levelo://app?vid=3d1379db-275e-4989-9389-6a0e032c3d47","ios":"levelo://app?vid=3d1379db-275e-4989-9389-6a0e032c3d47"},"vehicle_type_id":"4","last_reported":1705788358,"current_range_meters":24800,"station_id":"ce4bh692rcd13ifvqea0","pricing_plan_id":"free"},{"bike_id":"603151ee-db0c-45cf-90f6-2192cd21b83e","system_id":"levelo_inurba_marseille","lat":43.29265,"lon":5.38445,"is_reserved":false,"is_disabled":false,"rental_uris":{"android":"levelo://app?vid=603151ee-db0c-45cf-90f6-2192cd21b83e","ios":"levelo://app?vid=603151ee-db0c-45cf-90f6-2192cd21b83e"},"vehicle_type_id":"4","last_reported":1705788358,"current_range_meters":2400,"station_id":"ce4bh692rcd13ifvqea0","pricing_plan_id":"free"},{"bike_id":"8fe0d050-22d8-406a-af28-fd2eca073649","system_id":"levelo_inurba_marseille","lat":43.292644,"lon":5.384257,"is_reserved":false,"is_disabled":false,"rental_uris":{"android":"levelo://app?vid=8fe0d050-22d8-406a-af28-fd2eca073649","ios":"levelo://app?vid=8fe0d050-22d8-406a-af28-fd2eca073649"},"vehicle_type_id":"4","last_reported":1705788358,"current_range_meters":15600,"station_id":"ce4bh692rcd13ifvqea0","pricing_plan_id":"free"},{"bike_id":"91fab5ef-a35c-4615-bd68-d012ded2ac76","system_id":"levelo_inurba_marseille","lat":43.292644,"lon":5.384257,"is_reserved":false,"is_disabled":false,"rental_uris":{"android":"levelo://app?vid=91fab5ef-a35c-4615-bd68-d012ded2ac76","ios":"levelo://app?vid=91fab5ef-a35c-4615-bd68-d012ded2ac76"},"vehicle_type_id":"4","last_reported":1705788358,"current_range_meters":25600,"station_id":"ce4bh692rcd13ifvqea0","pricing_plan_id":"free"},{"bike_id":"72395b48-4b63-4d69-b4b9-f4ad3ea2a007","system_id":"levelo_inurba_marseille","lat":43.292642,"lon":5.384254,"is_reserved":false,"is_disabled":false,"rental_uris":{"android":"levelo://app?vid=72395b48-4b63-4d69-b4b9-f4ad3ea2a007","ios":"levelo://app?vid=72395b48-4b63-4d69-b4b9-f4ad3ea2a007"},"vehicle_type_id":"4","last_reported":1705788358,"current_range_meters":13600,"station_id":"ce4bh692rcd13ifvqea0","pricing_plan_id":"free"},{"bike_id":"edb5f983-fdf5-4e33-9558-f622ba5b7ef0","system_id":"levelo_inurba_marseille","lat":43.29263,"lon":5.38447,"is_reserved":false,"is_disabled":false,"rental_uris":{"android":"levelo://app?vid=edb5f983-fdf5-4e33-9558-f622ba5b7ef0","ios":"levelo://app?vid=edb5f983-fdf5-4e33-9558-f622ba5b7ef0"},"vehicle_type_id":"4","last_reported":1705788358,"current_range_meters":23200,"station_id":"ce4bh692rcd13ifvqea0","pricing_plan_id":"free"},{"bike_id":"5704607a-d303-48a5-b07f-526a9e510885","system_id":"levelo_inurba_marseille","lat":43.292642,"lon":5.384254,"is_reserved":false,"is_disabled":false,"rental_uris":{"android":"levelo://app?vid=5704607a-d303-48a5-b07f-526a9e510885","ios":"levelo://app?vid=5704607a-d303-48a5-b07f-526a9e510885"},"vehicle_type_id":"4","last_reported":1705788358,"current_range_meters":27600,"station_id":"ce4bh692rcd13ifvqea0","pricing_plan_id":"free"},{"bike_id":"8e478361-8555-4807-b564-f5d5357a20f6","system_id":"levelo_inurba_marseille","lat":43.292644,"lon":5.384257,"is_reserved":false,"is_disabled":false,"rental_uris":{"android":"levelo://app?vid=8e478361-8555-4807-b564-f5d5357a20f6","ios":"levelo://app?vid=8e478361-8555-4807-b564-f5d5357a20f6"},"vehicle_type_id":"4","last_reported":1705788358,"current_range_meters":15600,"station_id":"ce4bh692rcd13ifvqea0","pricing_plan_id":"free"},{"bike_id":"05eb0323-80b7-4a27-84cb-cf742916de2c","system_id":"levelo_inurba_marseille","lat":43.292607,"lon":5.384467,"is_reserved":false,"is_disabled":false,"rental_uris":{"android":"levelo://app?vid=05eb0323-80b7-4a27-84cb-cf742916de2c","ios":"levelo://app?vid=05eb0323-80b7-4a27-84cb-cf742916de2c"},"vehicle_type_id":"4","last_reported":1705788358,"current_range_meters":31200,"station_id":"ce4bh692rcd13ifvqea0","pricing_plan_id":"free"},{"bike_id":"b4d7ffb1-c921-44da-bae7-91b28d2b717b","system_id":"levelo_inurba_marseille","lat":43.292644,"lon":5.384257,"is_reserved":false,"is_disabled":false,"rental_uris":{"android":"levelo://app?vid=b4d7ffb1-c921-44da-bae7-91b28d2b717b","ios":"levelo://app?vid=b4d7ffb1-c921-44da-bae7-91b28d2b717b"},"vehicle_type_id":"4","last_reported":1705788358,"current_range_meters":30000,"station_id":"ce4bh692rcd13ifvqea0","pricing_plan_id":"free"},{"bike_id":"bb2a5719-5205-464d-9ffd-a7e648c9a543","system_id":"levelo_inurba_marseille","lat":43.29256,"lon":5.38445,"is_reserved":false,"is_disabled":false,"rental_uris":{"android":"levelo://app?vid=bb2a5719-5205-464d-9ffd-a7e648c9a543","ios":"levelo://app?vid=bb2a5719-5205-464d-9ffd-a7e648c9a543"},"vehicle_type_id":"4","last_reported":1705788358,"current_range_meters":31200,"station_id":"ce4bh692rcd13ifvqea0","pricing_plan_id":"free"},{"bike_id":"01dd7b8b-0476-4273-a3e3-52cdf8341df2","system_id":"levelo_inurba_marseille","lat":43.29253,"lon":5.38442,"is_reserved":false,"is_disabled":false,"rental_uris":{"android":"levelo://app?vid=01dd7b8b-0476-4273-a3e3-52cdf8341df2","ios":"levelo://app?vid=01dd7b8b-0476-4273-a3e3-52cdf8341df2"},"vehicle_type_id":"4","last_reported":1705788358,"current_range_meters":30000,"station_id":"ce4bh692rcd13ifvqea0","pricing_plan_id":"free"},{"bike_id":"f20e7da2-0a09-4c95-a962-b771bb67edca","system_id":"levelo_inurba_marseille","lat":43.29109,"lon":5.38126,"is_reserved":false,"is_disabled":false,"rental_uris":{"android":"levelo://app?vid=f20e7da2-0a09-4c95-a962-b771bb67edca","ios":"levelo://app?vid=f20e7da2-0a09-4c95-a962-b771bb67edca"},"vehicle_type_id":"4","last_reported":1705788358,"current_range_meters":12000,"station_id":"ce4bh512rcd13ifvqe2g","pricing_plan_id":"free"},{"bike_id":"c21f2d6e-fbb9-4917-9354-c361dd477ec8","system_id":"levelo_inurba_marseille","lat":43.29098,"lon":5.38137,"is_reserved":false,"is_disabled":false,"rental_uris":{"android":"levelo://app?vid=c21f2d6e-fbb9-4917-9354-c361dd477ec8","ios":"levelo://app?vid=c21f2d6e-fbb9-4917-9354-c361dd477ec8"},"vehicle_type_id":"4","last_reported":1705788358,"current_range_meters":11600,"station_id":"ce4bh512rcd13ifvqe2g","pricing_plan_id":"free"},{"bike_id":"925eaff5-3e49-4fa2-bc92-9f7181735632","system_id":"levelo_inurba_marseille","lat":43.329734,"lon":5.390652,"is_reserved":false,"is_disabled":false,"rental_uris":{"android":"levelo://app?vid=925eaff5-3e49-4fa2-bc92-9f7181735632","ios":"levelo://app?vid=925eaff5-3e49-4fa2-bc92-9f7181735632"},"vehicle_type_id":"4","last_reported":1705788358,"current_range_meters":20400,"station_id":"","pricing_plan_id":"free"},{"bike_id":"84f62bb3-0ff9-42c9-806a-d7797256af13","system_id":"levelo_inurba_marseille","lat":43.33006,"lon":5.39026,"is_reserved":false,"is_disabled":false,"rental_uris":{"android":"levelo://app?vid=84f62bb3-0ff9-42c9-806a-d7797256af13","ios":"levelo://app?vid=84f62bb3-0ff9-42c9-806a-d7797256af13"},"vehicle_type_id":"4","last_reported":1705788358,"current_range_meters":27600,"station_id":"ce4bhr92rcd13ifvqhrg","pricing_plan_id":"free"},{"bike_id":"a9151ad6-2d74-4948-803a-27e85b3073c7","system_id":"levelo_inurba_marseille","lat":43.313575,"lon":5.400254,"is_reserved":false,"is_disabled":false,"rental_uris":{"android":"levelo://app?vid=a9151ad6-2d74-4948-803a-27e85b3073c7","ios":"levelo://app?vid=a9151ad6-2d74-4948-803a-27e85b3073c7"},"vehicle_type_id":"4","last_reported":1705788358,"current_range_meters":0,"station_id":"","pricing_plan_id":"free"},{"bike_id":"4221fd5e-1d98-4d6e-8202-0636e8d7ecfa","system_id":"levelo_inurba_marseille","lat":43.290995,"lon":5.381361,"is_reserved":false,"is_disabled":false,"rental_uris":{"android":"levelo://app?vid=4221fd5e-1d98-4d6e-8202-0636e8d7ecfa","ios":"levelo://app?vid=4221fd5e-1d98-4d6e-8202-0636e8d7ecfa"},"vehicle_type_id":"4","last_reported":1705788358,"current_range_meters":28400,"station_id":"ce4bh512rcd13ifvqe2g","pricing_plan_id":"free"},{"bike_id":"d4ed0efc-33d5-4751-b9a0-532d3e56ca6b","system_id":"levelo_inurba_marseille","lat":43.29098,"lon":5.38177,"is_reserved":false,"is_disabled":false,"rental_uris":{"android":"levelo://app?vid=d4ed0efc-33d5-4751-b9a0-532d3e56ca6b","ios":"levelo://app?vid=d4ed0efc-33d5-4751-b9a0-532d3e56ca6b"},"vehicle_type_id":"4","last_reported":1705788358,"current_range_meters":28000,"station_id":"ce4bh512rcd13ifvqe2g","pricing_plan_id":"free"},{"bike_id":"3e644e07-b3c8-452b-b4f2-79c00d67e841","system_id":"levelo_inurba_marseille","lat":43.33023,"lon":5.39036,"is_reserved":false,"is_disabled":false,"rental_uris":{"android":"levelo://app?vid=3e644e07-b3c8-452b-b4f2-79c00d67e841","ios":"levelo://app?vid=3e644e07-b3c8-452b-b4f2-79c00d67e841"},"vehicle_type_id":"4","last_reported":1705788358,"current_range_meters":2800,"station_id":"ce4bhr92rcd13ifvqhrg","pricing_plan_id":"free"},{"bike_id":"6fde3cfb-702b-4089-a6f6-82265d0c0c9c","system_id":"levelo_inurba_marseille","lat":43.330442,"lon":5.389148,"is_reserved":false,"is_disabled":false,"rental_uris":{"android":"levelo://app?vid=6fde3cfb-702b-4089-a6f6-82265d0c0c9c","ios":"levelo://app?vid=6fde3cfb-702b-4089-a6f6-82265d0c0c9c"},"vehicle_type_id":"4","last_reported":1705788358,"current_range_meters":24800,"station_id":"ce4bhr92rcd13ifvqhrg","pricing_plan_id":"free"},{"bike_id":"ab001c16-e197-4d75-bc32-a8f3a5199351","system_id":"levelo_inurba_marseille","lat":43.33023,"lon":5.39037,"is_reserved":false,"is_disabled":false,"rental_uris":{"android":"levelo://app?vid=ab001c16-e197-4d75-bc32-a8f3a5199351","ios":"levelo://app?vid=ab001c16-e197-4d75-bc32-a8f3a5199351"},"vehicle_type_id":"4","last_reported":1705788358,"current_range_meters":14000,"station_id":"ce4bhr92rcd13ifvqhrg","pricing_plan_id":"free"},{"bike_id":"da4f8d60-2d34-478f-bc2c-cc045151a0fa","system_id":"levelo_inurba_marseille","lat":43.33024,"lon":5.39036,"is_reserved":false,"is_disabled":false,"rental_uris":{"android":"levelo://app?vid=da4f8d60-2d34-478f-bc2c-cc045151a0fa","ios":"levelo://app?vid=da4f8d60-2d34-478f-bc2c-cc045151a0fa"},"vehicle_type_id":"4","last_reported":1705788358,"current_range_meters":0,"station_id":"ce4bhr92rcd13ifvqhrg","pricing_plan_id":"free"},{"bike_id":"9f38b239-3480-4496-b007-61cf910f901d","system_id":"levelo_inurba_marseille","lat":43.295229,"lon":5.390376,"is_reserved":false,"is_disabled":false,"rental_uris":{"android":"levelo://app?vid=9f38b239-3480-4496-b007-61cf910f901d","ios":"levelo://app?vid=9f38b239-3480-4496-b007-61cf910f901d"},"vehicle_type_id":"4","last_reported":1705788358,"current_range_meters":4400,"station_id":"ce4bh3p2rcd13ifvqdp0","pricing_plan_id":"free"},{"bike_id":"99b7c23f-65bc-4761-aa0f-69dca4c32b24","system_id":"levelo_inurba_marseille","lat":43.330442,"lon":5.389148,"is_reserved":false,"is_disabled":false,"rental_uris":{"android":"levelo://app?vid=99b7c23f-65bc-4761-aa0f-69dca4c32b24","ios":"levelo://app?vid=99b7c23f-65bc-4761-aa0f-69dca4c32b24"},"vehicle_type_id":"4","last_reported":1705788358,"current_range_meters":22400,"station_id":"ce4bhr92rcd13ifvqhrg","pricing_plan_id":"free"},{"bike_id":"3f22cc66-e6e6-4179-a9ac-91e5a9e8c660","system_id":"levelo_inurba_marseille","lat":43.33022,"lon":5.39047,"is_reserved":false,"is_disabled":false,"rental_uris":{"android":"levelo://app?vid=3f22cc66-e6e6-4179-a9ac-91e5a9e8c660","ios":"levelo://app?vid=3f22cc66-e6e6-4179-a9ac-91e5a9e8c660"},"vehicle_type_id":"4","last_reported":1705788358,"current_range_meters":15200,"station_id":"ce4bhr92rcd13ifvqhrg","pricing_plan_id":"free"},{"bike_id":"972f7b66-caab-4c28-aaad-2da795546af2","system_id":"levelo_inurba_marseille","lat":43.33025,"lon":5.39044,"is_reserved":false,"is_disabled":false,"rental_uris":{"android":"levelo://app?vid=972f7b66-caab-4c28-aaad-2da795546af2","ios":"levelo://app?vid=972f7b66-caab-4c28-aaad-2da795546af2"},"vehicle_type_id":"4","last_reported":1705788358,"current_range_meters":12000,"station_id":"ce4bhr92rcd13ifvqhrg","pricing_plan_id":"free"},{"bike_id":"730fbd8a-4091-4589-8c38-60e378f1607c","system_id":"levelo_inurba_marseille","lat":43.295164,"lon":5.390372,"is_reserved":false,"is_disabled":false,"rental_uris":{"android":"levelo://app?vid=730fbd8a-4091-4589-8c38-60e378f1607c","ios":"levelo://app?vid=730fbd8a-4091-4589-8c38-60e378f1607c"},"vehicle_type_id":"4","last_reported":1705788358,"current_range_meters":0,"station_id":"ce4bh3p2rcd13ifvqdp0","pricing_plan_id":"free"},{"bike_id":"40566484-89da-412d-a858-1a427538b942","system_id":"levelo_inurba_marseille","lat":43.33024,"lon":5.39049,"is_reserved":false,"is_disabled":false,"rental_uris":{"android":"levelo://app?vid=40566484-89da-412d-a858-1a427538b942","ios":"levelo://app?vid=40566484-89da-412d-a858-1a427538b942"},"vehicle_type_id":"4","last_reported":1705788358,"current_range_meters":10000,"station_id":"ce4bhr92rcd13ifvqhrg","pricing_plan_id":"free"},{"bike_id":"47ce321f-193e-43fc-a3c5-8fb7cd45ad15","system_id":"levelo_inurba_marseille","lat":43.295169,"lon":5.390426,"is_reserved":false,"is_disabled":false,"rental_uris":{"android":"levelo://app?vid=47ce321f-193e-43fc-a3c5-8fb7cd45ad15","ios":"levelo://app?vid=47ce321f-193e-43fc-a3c5-8fb7cd45ad15"},"vehicle_type_id":"4","last_reported":1705788358,"current_range_meters":400,"station_id":"ce4bh3p2rcd13ifvqdp0","pricing_plan_id":"free"},{"bike_id":"a89eb939-a4db-4f7a-89e8-af35fa1d22cc","system_id":"levelo_inurba_marseille","lat":43.2901,"lon":5.381269,"is_reserved":false,"is_disabled":false,"rental_uris":{"android":"levelo://app?vid=a89eb939-a4db-4f7a-89e8-af35fa1d22cc","ios":"levelo://app?vid=a89eb939-a4db-4f7a-89e8-af35fa1d22cc"},"vehicle_type_id":"4","last_reported":1705788358,"current_range_meters":23200,"station_id":"ce4bh4p2rcd13ifvqe1g","pricing_plan_id":"free"},{"bike_id":"71b7112e-2129-4781-a378-40db15070db2","system_id":"levelo_inurba_marseille","lat":43.243884,"lon":5.370737,"is_reserved":false,"is_disabled":false,"rental_uris":{"android":"levelo://app?vid=71b7112e-2129-4781-a378-40db15070db2","ios":"levelo://app?vid=71b7112e-2129-4781-a378-40db15070db2"},"vehicle_type_id":"4","last_reported":1705788358,"current_range_meters":22400,"station_id":"ce4bhhh2rcd13ifvqfk0","pricing_plan_id":"free"},{"bike_id":"9ed7868b-fe58-4192-8b2a-95589f61f3b2","system_id":"levelo_inurba_marseille","lat":43.28856,"lon":5.358371,"is_reserved":false,"is_disabled":false,"rental_uris":{"android":"levelo://app?vid=9ed7868b-fe58-4192-8b2a-95589f61f3b2","ios":"levelo://app?vid=9ed7868b-fe58-4192-8b2a-95589f61f3b2"},"vehicle_type_id":"4","last_reported":1705788358,"current_range_meters":22800,"station_id":"ce4bhb12rcd13ifvqem0","pricing_plan_id":"free"},{"bike_id":"2e346820-cd18-4dfa-b57a-209bb1d7f1c7","system_id":"levelo_inurba_marseille","lat":43.31269,"lon":5.40166,"is_reserved":false,"is_disabled":false,"rental_uris":{"android":"levelo://app?vid=2e346820-cd18-4dfa-b57a-209bb1d7f1c7","ios":"levelo://app?vid=2e346820-cd18-4dfa-b57a-209bb1d7f1c7"},"vehicle_type_id":"4","last_reported":1705788358,"current_range_meters":0,"station_id":"ce4bh092rcd13ifvqd30","pricing_plan_id":"free"},{"bike_id":"bd4475a5-b0f5-44da-9039-038a1c060a60","system_id":"levelo_inurba_marseille","lat":43.30936,"lon":5.40138,"is_reserved":false,"is_disabled":false,"rental_uris":{"android":"levelo://app?vid=bd4475a5-b0f5-44da-9039-038a1c060a60","ios":"levelo://app?vid=bd4475a5-b0f5-44da-9039-038a1c060a60"},"vehicle_type_id":"4","last_reported":1705788358,"current_range_meters":21200,"station_id":"ce4bgvp2rcd13ifvqct0","pricing_plan_id":"free"},{"bike_id":"41b07f16-cee7-47df-a5b9-861694462d64","system_id":"levelo_inurba_marseille","lat":43.312609,"lon":5.401662,"is_reserved":false,"is_disabled":false,"rental_uris":{"android":"levelo://app?vid=41b07f16-cee7-47df-a5b9-861694462d64","ios":"levelo://app?vid=41b07f16-cee7-47df-a5b9-861694462d64"},"vehicle_type_id":"4","last_reported":1705788358,"current_range_meters":10400,"station_id":"ce4bh092rcd13ifvqd30","pricing_plan_id":"free"},