{"last_updated":1770824973,"ttl":60,"version":"2.2","data":{"bikes":[{"bike_id":"8a5d808d-85dc-4393-a160-68c17c3c2d76","system_id":"levelo_inurba_marseille","lat":43.292023,"lon":5.393233,"is_reserved":false,"is_disabled":false,"rental_uris":{"android":"levelo://app?vid=8a5d808d-85dc-4393-a160-68c17c3c2d76","ios":"levelo://app?vid=8a5d808d-85dc-4393-a160-68c17c3c2d76"},"vehicle_type_id":"4","last_reported":1770824974,"current_range_meters":1200,"station_id":"ce4bh192rcd13ifvqdd0","pricing_plan_id":"cebpf4jnsgd1na2vs0mg"},{"bike_id":"0051c05f-f532-4e6d-bb20-78c280206edd","system_id":"levelo_inurba_marseille","lat":43.30898,"lon":5.37194,"is_reserved":false,"is_disabled":false,"rental_uris":{"android":"levelo://app?vid=0051c05f-f532-4e6d-bb20-78c280206edd","ios":"levelo://app?vid=0051c05f-f532-4e6d-bb20-78c280206edd"},"vehicle_type_id":"4","last_reported":1770824974,"current_range_meters":2800,"station_id":"ce4bguh2rcd13ifvqckg","pricing_plan_id":"cebpf4jnsgd1na2vs0mg"},{"bike_id":"4cc97814-bbc8-4e82-9765-fe91d222b77b","system_id":"levelo_inurba_marseille","lat":43.30525,"lon":5.36689,"is_reserved":false,"is_disabled":false,"rental_uris":{"android":"levelo://app?vid=4cc97814-bbc8-4e82-9765-fe91d222b77b","ios":"levelo://app?vid=4cc97814-bbc8-4e82-9765-fe91d222b77b"},"vehicle_type_id":"4","last_reported":1770824974,"current_range_meters":2800,"station_id":"ce4bgrp2rcd13ifvqc9g","pricing_plan_id":"cebpf4jnsgd1na2vs0mg"},{"bike_id":"ef659570-e03f-45e9-8508-aa1a0fd0c05a","system_id":"levelo_inurba_marseille","lat":43.282737,"lon":5.350673,"is_reserved":false,"is_disabled":false,"rental_uris":{"android":"levelo://app?vid=ef659570-e03f-45e9-8508-aa1a0fd0c05a","ios":"levelo://app?vid=ef659570-e03f-45e9-8508-aa1a0fd0c05a"},"vehicle_type_id":"4","last_reported":1770824974,"current_range_meters":2800,"station_id":"ce4bhbp2rcd13ifvqerg","pricing_plan_id":"cebpf4jnsgd1na2vs0mg"},{"bike_id":"7080df34-f09d-47d5-be55-0d618d1ddb54","system_id":"levelo_inurba_marseille","lat":43.27566,"lon":5.38422,"is_reserved":false,"is_disabled":false,"rental_uris":{"android":"levelo://app?vid=7080df34-f09d-47d5-be55-0d618d1ddb54","ios":"levelo://app?vid=7080df34-f09d-47d5-be55-0d618d1ddb54"},"vehicle_type_id":"4","last_reported":1770824974,"current_range_meters":2800,"station_id":"ce4bhh92rcd13ifvqfi0","pricing_plan_id":"cebpf4jnsgd1na2vs0mg"},{"bike_id":"22d8d839-db4c-4efa-bd5d-d78efaca55ca","system_id":"levelo_inurba_marseille","lat":43.27069,"lon":5.38315,"is_reserved":false,"is_disabled":false,"rental_uris":{"android":"levelo://app?vid=22d8d839-db4c-4efa-bd5d-d78efaca55ca","ios":"levelo://app?vid=22d8d839-db4c-4efa-bd5d-d78efaca55ca"},"vehicle_type_id":"4","last_reported":1770824974,"current_range_meters":2800,"station_id":"st_d3n2fo6cfp8s73cte1j0","pricing_plan_id":"cebpf4jnsgd1na2vs0mg"},{"bike_id":"a6d325c3-fd21-40fe-bc76-54b55fe4be71","system_id":"levelo_inurba_marseille","lat":43.27371,"lon":5.36259,"is_reserved":false,"is_disabled":false,"rental_uris":{"android":"levelo://app?vid=a6d325c3-fd21-40fe-bc76-54b55fe4be71","ios":"levelo://app?vid=a6d325c3-fd21-40fe-bc76-54b55fe4be71"},"vehicle_type_id":"4","last_reported":1770824974,"current_range_meters":3200,"station_id":"ce4bhbh2rcd13ifvqeo0","pricing_plan_id":"cebpf4jnsgd1na2vs0mg"},{"bike_id":"efd9d7ca-4b84-4ff5-876b-900e16175b1d","system_id":"levelo_inurba_marseille","lat":43.26205,"lon":5.37451,"is_reserved":false,"is_disabled":false,"rental_uris":{"android":"levelo://app?vid=efd9d7ca-4b84-4ff5-876b-900e16175b1d","ios":"levelo://app?vid=efd9d7ca-4b84-4ff5-876b-900e16175b1d"},"vehicle_type_id":"4","last_reported":1770824974,"current_range_meters":3200,"station_id":"ce4bhgp2rcd13ifvqfc0","pricing_plan_id":"cebpf4jnsgd1na2vs0mg"},{"bike_id":"e0450db0-c8b3-4403-bc43-ed5a007877b8","system_id":"levelo_inurba_marseille","lat":43.24624,"lon":5.43139,"is_reserved":false,"is_disabled":false,"rental_uris":{"android":"levelo://app?vid=e0450db0-c8b3-4403-bc43-ed5a007877b8","ios":"levelo://app?vid=e0450db0-c8b3-4403-bc43-ed5a007877b8"},"vehicle_type_id":"4","last_reported":1770824974,"current_range_meters":3200,"station_id":"st_d2m6c4gdas8pm72e190g","pricing_plan_id":"cebpf4jnsgd1na2vs0mg"},{"bike_id":"652029fd-7389-40d5-a0bd-e85f7aa43d7c","system_id":"levelo_inurba_marseille","lat":43.2256,"lon":5.41629,"is_reserved":false,"is_disabled":false,"rental_uris":{"android":"levelo://app?vid=652029fd-7389-40d5-a0bd-e85f7aa43d7c","ios":"levelo://app?vid=652029fd-7389-40d5-a0bd-e85f7aa43d7c"},"vehicle_type_id":"4","last_reported":1770824974,"current_range_meters":3200,"station_id":"st_d2o4gvlbi1j2169b742g","pricing_plan_id":"cebpf4jnsgd1na2vs0mg"},{"bike_id":"87056c0a-278d-470f-af70-99a4eb084f35","system_id":"levelo_inurba_marseille","lat":43.24633,"lon":5.43145,"is_reserved":false,"is_disabled":false,"rental_uris":{"android":"levelo://app?vid=87056c0a-278d-470f-af70-99a4eb084f35","ios":"levelo://app?vid=87056c0a-278d-470f-af70-99a4eb084f35"},"vehicle_type_id":"4","last_reported":1770824974,"current_range_meters":3200,"station_id":"st_d2m6c4gdas8pm72e190g","pricing_plan_id":"cebpf4jnsgd1na2vs0mg"},{"bike_id":"9fd591d0-2348-4aee-a8e7-84023c5aa352","system_id":"levelo_inurba_marseille","lat":43.284104,"lon":5.375184,"is_reserved":false,"is_disabled":true,"rental_uris":{"android":"levelo://app?vid=9fd591d0-2348-4aee-a8e7-84023c5aa352","ios":"levelo://app?vid=9fd591d0-2348-4aee-a8e7-84023c5aa352"},"vehicle_type_id":"4","last_reported":1770824974,"current_range_meters":3200,"station_id":"ce4bh412rcd13ifvqds0","pricing_plan_id":"cebpf4jnsgd1na2vs0mg"},{"bike_id":"3984d20a-ddcf-4f3e-8141-8af0e40adbc8","system_id":"levelo_inurba_marseille","lat":43.30544,"lon":5.36538,"is_reserved":false,"is_disabled":false,"rental_uris":{"android":"levelo://app?vid=3984d20a-ddcf-4f3e-8141-8af0e40adbc8","ios":"levelo://app?vid=3984d20a-ddcf-4f3e-8141-8af0e40adbc8"},"vehicle_type_id":"4","last_reported":1770824974,"current_range_meters":3200,"station_id":"ce4bgs12rcd13ifvqcag","pricing_plan_id":"cebpf4jnsgd1na2vs0mg"},{"bike_id":"6a2e3f22-2a91-4b17-9c15-61a013e39b64","system_id":"levelo_inurba_marseille","lat":43.29028,"lon":5.3861,"is_reserved":false,"is_disabled":false,"rental_uris":{"android":"levelo://app?vid=6a2e3f22-2a91-4b17-9c15-61a013e39b64","ios":"levelo://app?vid=6a2e3f22-2a91-4b17-9c15-61a013e39b64"},"vehicle_type_id":"4","last_reported":1770824974,"current_range_meters":3200,"station_id":"ce4bh4p2rcd13ifvqe0g","pricing_plan_id":"cebpf4jnsgd1na2vs0mg"},{"bike_id":"d84ccceb-947f-4c98-84f4-d8427853cf88","system_id":"levelo_inurba_marseille","lat":43.30403,"lon":5.41178,"is_reserved":false,"is_disabled":false,"rental_uris":{"android":"levelo://app?vid=d84ccceb-947f-4c98-84f4-d8427853cf88","ios":"levelo://app?vid=d84ccceb-947f-4c98-84f4-d8427853cf88"},"vehicle_type_id":"4","last_reported":1770824974,"current_range_meters":3200,"station_id":"","pricing_plan_id":"cebpf4jnsgd1na2vs0mg"},{"bike_id":"44d17b9a-a696-4502-89c1-4d2b9276205f","system_id":"levelo_inurba_marseille","lat":43.25007,"lon":5.38917,"is_reserved":false,"is_disabled":false,"rental_uris":{"android":"levelo://app?vid=44d17b9a-a696-4502-89c1-4d2b9276205f","ios":"levelo://app?vid=44d17b9a-a696-4502-89c1-4d2b9276205f"},"vehicle_type_id":"4","last_reported":1770824974,"current_range_meters":3200,"station_id":"ce4bhgp2rcd13ifvqfd0","pricing_plan_id":"cebpf4jnsgd1na2vs0mg"},{"bike_id":"d01f5ba5-555f-4fd5-bda1-8012d30858b6","system_id":"levelo_inurba_marseille","lat":43.2848,"lon":5.48392,"is_reserved":false,"is_disabled":false,"rental_uris":{"android":"levelo://app?vid=d01f5ba5-555f-4fd5-bda1-8012d30858b6","ios":"levelo://app?vid=d01f5ba5-555f-4fd5-bda1-8012d30858b6"},"vehicle_type_id":"4","last_reported":1770824974,"current_range_meters":3600,"station_id":"st_d3svhcjqgbts73a3dn0g","pricing_plan_id":"cebpf4jnsgd1na2vs0mg"},{"bike_id":"ee213b40-802c-442b-9390-5e22834db5df","system_id":"levelo_inurba_marseille","lat":43.24164,"lon":5.36411,"is_reserved":false,"is_disabled":false,"rental_uris":{"android":"levelo://app?vid=ee213b40-802c-442b-9390-5e22834db5df","ios":"levelo://app?vid=ee213b40-802c-442b-9390-5e22834db5df"},"vehicle_type_id":"4","last_reported":1770824974,"current_range_meters":3600,"station_id":"cpo36qri1sfpv3e86is0","pricing_plan_id":"cebpf4jnsgd1na2vs0mg"},{"bike_id":"fe6f8294-65ba-45f1-a4f6-c1ee0f12ef18","system_id":"levelo_inurba_marseille","lat":43.22565,"lon":5.41632,"is_reserved":false,"is_disabled":false,"rental_uris":{"android":"levelo://app?vid=fe6f8294-65ba-45f1-a4f6-c1ee0f12ef18","ios":"levelo://app?vid=fe6f8294-65ba-45f1-a4f6-c1ee0f12ef18"},"vehicle_type_id":"4","last_reported":1770824974,"current_range_meters":3600,"station_id":"st_d2o4gvlbi1j2169b742g","pricing_plan_id":"cebpf4jnsgd1na2vs0mg"},{"bike_id":"b145977b-065f-412d-8bfb-38e894ab30e6","system_id":"levelo_inurba_marseille","lat":43.30528,"lon":5.36714,"is_reserved":false,"is_disabled":false,"rental_uris":{"android":"levelo://app?vid=b145977b-065f-412d-8bfb-38e894ab30e6","ios":"levelo://app?vid=b145977b-065f-412d-8bfb-38e894ab30e6"},"vehicle_type_id":"4","last_reported":1770824974,"current_range_meters":3600,"station_id":"ce4bgrp2rcd13ifvqc9g","pricing_plan_id":"cebpf4jnsgd1na2vs0mg"},{"bike_id":"c1583e0e-f8fc-4508-b9dd-442540a19486","system_id":"levelo_inurba_marseille","lat":43.27069,"lon":5.42283,"is_reserved":false,"is_disabled":false,"rental_uris":{"android":"levelo://app?vid=c1583e0e-f8fc-4508-b9dd-442540a19486","ios":"levelo://app?vid=c1583e0e-f8fc-4508-b9dd-442540a19486"},"vehicle_type_id":"4","last_reported":1770824974,"current_range_meters":3600,"station_id":"ce4bhk92rcd13ifvqgb0","pricing_plan_id":"cebpf4jnsgd1na2vs0mg"},{"bike_id":"475fae78-75f9-4675-8012-304224f10313","system_id":"levelo_inurba_marseille","lat":43.33555,"lon":5.37467,"is_reserved":false,"is_disabled":false,"rental_uris":{"android":"levelo://app?vid=475fae78-75f9-4675-8012-304224f10313","ios":"levelo://app?vid=475fae78-75f9-4675-8012-304224f10313"},"vehicle_type_id":"4","last_reported":1770824974,"current_range_meters":3600,"station_id":"st_d46tts09ee8s73dlu43g","pricing_plan_id":"cebpf4jnsgd1na2vs0mg"},{"bike_id":"5f7df976-2770-4b0d-bd16-1a5d3e4bd86a","system_id":"levelo_inurba_marseille","lat":43.26031,"lon":5.37554,"is_reserved":false,"is_disabled":false,"rental_uris":{"android":"levelo://app?vid=5f7df976-2770-4b0d-bd16-1a5d3e4bd86a","ios":"levelo://app?vid=5f7df976-2770-4b0d-bd16-1a5d3e4bd86a"},"vehicle_type_id":"4","last_reported":1770824974,"current_range_meters":3600,"station_id":"ce4bhgh2rcd13ifvqfa0","pricing_plan_id":"cebpf4jnsgd1na2vs0mg"},{"bike_id":"46b69bcd-f35a-433e-b9f1-16ab03d0ac0e","system_id":"levelo_inurba_marseille","lat":43.258805,"lon":5.398963,"is_reserved":false,"is_disabled":false,"rental_uris":{"android":"levelo://app?vid=46b69bcd-f35a-433e-b9f1-16ab03d0ac0e","ios":"levelo://app?vid=46b69bcd-f35a-433e-b9f1-16ab03d0ac0e"},"vehicle_type_id":"4","last_reported":1770824974,"current_range_meters":3600,"station_id":"ce4bhl92rcd13ifvqghg","pricing_plan_id":"cebpf4jnsgd1na2vs0mg"},{"bike_id":"b1429378-b93e-4184-b373-85f0415c9919","system_id":"levelo_inurba_marseille","lat":43.24639,"lon":5.43137,"is_reserved":false,"is_disabled":false,"rental_uris":{"android":"levelo://app?vid=b1429378-b93e-4184-b373-85f0415c9919","ios":"levelo://app?vid=b1429378-b93e-4184-b373-85f0415c9919"},"vehicle_type_id":"4","last_reported":1770824974,"current_range_meters":3600,"station_id":"st_d2m6c4gdas8pm72e190g","pricing_plan_id":"cebpf4jnsgd1na2vs0mg"},{"bike_id":"e1972e28-c5f7-4898-9f3a-cff0aa5fe0de","system_id":"levelo_inurba_marseille","lat":43.24177,"lon":5.39688,"is_reserved":false,"is_disabled":false,"rental_uris":{"android":"levelo://app?vid=e1972e28-c5f7-4898-9f3a-cff0aa5fe0de","ios":"levelo://app?vid=e1972e28-c5f7-4898-9f3a-cff0aa5fe0de"},"vehicle_type_id":"4","last_reported":1770824974,"current_range_meters":3600,"station_id":"ce4bhn12rcd13ifvqgpg","pricing_plan_id":"cebpf4jnsgd1na2vs0mg"},{"bike_id":"5c0ba1cc-16fe-4c6f-9c29-84231371fba5","system_id":"levelo_inurba_marseille","lat":43.24382,"lon":5.37065,"is_reserved":false,"is_disabled":false,"rental_uris":{"android":"levelo://app?vid=5c0ba1cc-16fe-4c6f-9c29-84231371fba5","ios":"levelo://app?vid=5c0ba1cc-16fe-4c6f-9c29-84231371fba5"},"vehicle_type_id":"4","last_reported":1770824974,"current_range_meters":3600,"station_id":"ce4bhhh2rcd13ifvqfk0","pricing_plan_id":"cebpf4jnsgd1na2vs0mg"},{"bike_id":"df33b6c2-4d7d-4d51-98fe-f6e773c9f42e","system_id":"levelo_inurba_marseille","lat":43.23155,"lon":5.43712,"is_reserved":false,"is_disabled":false,"rental_uris":{"android":"levelo://app?vid=df33b6c2-4d7d-4d51-98fe-f6e773c9f42e","ios":"levelo://app?vid=df33b6c2-4d7d-4d51-98fe-f6e773c9f42e"},"vehicle_type_id":"4","last_reported":1770824974,"current_range_meters":4000,"station_id":"ce4bhmp2rcd13ifvqgog","pricing_plan_id":"cebpf4jnsgd1na2vs0mg"},{"bike_id":"7e3ab4cc-f1d0-40c5-93c0-f0b43c67658b","system_id":"levelo_inurba_marseille","lat":43.253363,"lon":5.421737,"is_reserved":false,"is_disabled":false,"rental_uris":{"android":"levelo://app?vid=7e3ab4cc-f1d0-40c5-93c0-f0b43c67658b","ios":"levelo://app?vid=7e3ab4cc-f1d0-40c5-93c0-f0b43c67658b"},"vehicle_type_id":"4","last_reported":1770824974,"current_range_meters":4000,"station_id":"st_d2m65c5bi1j21697t3ng","pricing_plan_id":"cebpf4jnsgd1na2vs0mg"},{"bike_id":"44c6aa93-1f46-4cbd-a298-6cd74e811e92","system_id":"levelo_inurba_marseille","lat":43.21753,"lon":5.34578,"is_reserved":false,"is_disabled":false,"rental_uris":{"android":"levelo://app?vid=44c6aa93-1f46-4cbd-a298-6cd74e811e92","ios":"levelo://app?vid=44c6aa93-1f46-4cbd-a298-6cd74e811e92"},"vehicle_type_id":"4","last_reported":1770824974,"current_range_meters":4000,"station_id":"","pricing_plan_id":"cebpf4jnsgd1na2vs0mg"},{"bike_id":"b0577ca1-afa8-48fa-be5c-f4673c1a2294","system_id":"levelo_inurba_marseille","lat":43.28007,"lon":5.41294,"is_reserved":false,"is_disabled":false,"rental_uris":{"android":"levelo://app?vid=b0577ca1-afa8-48fa-be5c-f4673c1a2294","ios":"levelo://app?vid=b0577ca1-afa8-48fa-be5c-f4673c1a2294"},"vehicle_type_id":"4","last_reported":1770824974,"current_range_meters":4000,"station_id":"","pricing_plan_id":"cebpf4jnsgd1na2vs0mg"},{"bike_id":"32b27b47-6c8b-49c6-8b48-fbeace627871","system_id":"levelo_inurba_marseille","lat":43.31223,"lon":5.36813,"is_reserved":false,"is_disabled":false,"rental_uris":{"android":"levelo://app?vid=32b27b47-6c8b-49c6-8b48-fbeace627871","ios":"levelo://app?vid=32b27b47-6c8b-49c6-8b48-fbeace627871"},"vehicle_type_id":"4","last_reported":1770824974,"current_range_meters":4400,"station_id":"ce4bgl92rcd13ifvqbq0","pricing_plan_id":"cebpf4jnsgd1na2vs0mg"},{"bike_id":"890f56d4-596e-400c-b85e-06636da41b20","system_id":"levelo_inurba_marseille","lat":43.24994,"lon":5.38923,"is_reserved":false,"is_disabled":false,"rental_uris":{"android":"levelo://app?vid=890f56d4-596e-400c-b85e-06636da41b20","ios":"levelo://app?vid=890f56d4-596e-400c-b85e-06636da41b20"},"vehicle_type_id":"4","last_reported":1770824974,"current_range_meters":4400,"station_id":"ce4bhgp2rcd13ifvqfd0","pricing_plan_id":"cebpf4jnsgd1na2vs0mg"},{"bike_id":"d1a208dc-b079-4f67-83b0-5bab6732b044","system_id":"levelo_inurba_marseille","lat":43.2622,"lon":5.37442,"is_reserved":false,"is_disabled":false,"rental_uris":{"android":"levelo://app?vid=d1a208dc-b079-4f67-83b0-5bab6732b044","ios":"levelo://app?vid=d1a208dc-b079-4f67-83b0-5bab6732b044"},"vehicle_type_id":"4","last_reported":1770824974,"current_range_meters":4400,"station_id":"ce4bhgp2rcd13ifvqfc0","pricing_plan_id":"cebpf4jnsgd1na2vs0mg"},{"bike_id":"0a2b81c3-0b69-449b-b7ec-7f1a2a32d63d","system_id":"levelo_inurba_marseille","lat":43.292,"lon":5.35809,"is_reserved":false,"is_disabled":false,"rental_uris":{"android":"levelo://app?vid=0a2b81c3-0b69-449b-b7ec-7f1a2a32d63d","ios":"levelo://app?vid=0a2b81c3-0b69-449b-b7ec-7f1a2a32d63d"},"vehicle_type_id":"4","last_reported":1770824974,"current_range_meters":4400,"station_id":"ce4bhb12rcd13ifvqel0","pricing_plan_id":"cebpf4jnsgd1na2vs0mg"},{"bike_id":"eb54f403-f5f5-4152-9cd4-d31f05df5ad8","system_id":"levelo_inurba_marseille","lat":43.26224,"lon":5.40451,"is_reserved":false,"is_disabled":false,"rental_uris":{"android":"levelo://app?vid=eb54f403-f5f5-4152-9cd4-d31f05df5ad8","ios":"levelo://app?vid=eb54f403-f5f5-4152-9cd4-d31f05df5ad8"},"vehicle_type_id":"4","last_reported":1770824974,"current_range_meters":4400,"station_id":"ce4bhmh2rcd13ifvqgmg","pricing_plan_id":"cebpf4jnsgd1na2vs0mg"},{"bike_id":"7b5f5187-db22-4697-9d69-f1480c720e06","system_id":"levelo_inurba_marseille","lat":43.29734,"lon":5.37706,"is_reserved":false,"is_disabled":false,"rental_uris":{"android":"levelo://app?vid=7b5f5187-db22-4697-9d69-f1480c720e06","ios":"levelo://app?vid=7b5f5187-db22-4697-9d69-f1480c720e06"},"vehicle_type_id":"4","last_reported":1770824974,"current_range_meters":4400,"station_id":"ce4bgkh2rcd13ifvqbl0","pricing_plan_id":"cebpf4jnsgd1na2vs0mg"},{"bike_id":"0bcde07f-348e-4f02-bb70-b4b39b850a6f","system_id":"levelo_inurba_marseille","lat":43.26752,"lon":5.39401,"is_reserved":false,"is_disabled":false,"rental_uris":{"android":"levelo://app?vid=0bcde07f-348e-4f02-bb70-b4b39b850a6f","ios":"levelo://app?vid=0bcde07f-348e-4f02-bb70-b4b39b850a6f"},"vehicle_type_id":"4","last_reported":1770824974,"current_range_meters":4400,"station_id":"ce4bhh12rcd13ifvqfg0","pricing_plan_id":"cebpf4jnsgd1na2vs0mg"},{"bike_id":"bb12e0e4-4186-4e81-9c13-679762a304dc","system_id":"levelo_inurba_marseille","lat":43.29172,"lon":5.3717,"is_reserved":false,"is_disabled":false,"rental_uris":{"android":"levelo://app?vid=bb12e0e4-4186-4e81-9c13-679762a304dc","ios":"levelo://app?vid=bb12e0e4-4186-4e81-9c13-679762a304dc"},"vehicle_type_id":"4","last_reported":1770824974,"current_range_meters":4400,"station_id":"ce4bha92rcd13ifvqeh0","pricing_plan_id":"cebpf4jnsgd1na2vs0mg"},{"bike_id":"f25e3af4-e39e-47d5-ba24-ba1c64c3b46d","system_id":"levelo_inurba_marseille","lat":43.23161,"lon":5.43716,"is_reserved":false,"is_disabled":false,"rental_uris":{"android":"levelo://app?vid=f25e3af4-e39e-47d5-ba24-ba1c64c3b46d","ios":"levelo://app?vid=f25e3af4-e39e-47d5-ba24-ba1c64c3b46d"},"vehicle_type_id":"4","last_reported":1770824974,"current_range_meters":4400,"station_id":"ce4bhmp2rcd13ifvqgog","pricing_plan_id":"cebpf4jnsgd1na2vs0mg"},{"bike_id":"1204f32f-48a7-4bb4-b62a-774e14312070","system_id":"levelo_inurba_marseille","lat":43.24167,"lon":5.364,"is_reserved":false,"is_disabled":false,"rental_uris":{"android":"levelo://app?vid=1204f32f-48a7-4bb4-b62a-774e14312070","ios":"levelo://app?vid=1204f32f-48a7-4bb4-b62a-774e14312070"},"vehicle_type_id":"4","last_reported":1770824974,"current_range_meters":4400,"station_id":"cpo36qri1sfpv3e86is0","pricing_plan_id":"cebpf4jnsgd1na2vs0mg"},{"bike_id":"86669ff1-2356-4a96-881e-9aa5d5acf1b4","system_id":"levelo_inurba_marseille","lat":43.28978,"lon":5.37838,"is_reserved":false,"is_disabled":false,"rental_uris":{"android":"levelo://app?vid=86669ff1-2356-4a96-881e-9aa5d5acf1b4","ios":"levelo://app?vid=86669ff1-2356-4a96-881e-9aa5d5acf1b4"},"vehicle_type_id":"4","last_reported":1770824974,"current_range_meters":4400,"station_id":"ce4bh9p2rcd13ifvqed0","pricing_plan_id":"cebpf4jnsgd1na2vs0mg"},{"bike_id":"890d666c-9da6-4153-bd7e-60e53c0ee9bf","system_id":"levelo_inurba_marseille","lat":43.33769,"lon":5.37475,"is_reserved":false,"is_disabled":true,"rental_uris":{"android":"levelo://app?vid=890d666c-9da6-4153-bd7e-60e53c0ee9bf","ios":"levelo://app?vid=890d666c-9da6-4153-bd7e-60e53c0ee9bf"},"vehicle_type_id":"4","last_reported":1770824974,"current_range_meters":4800,"station_id":"","pricing_plan_id":"cebpf4jnsgd1na2vs0mg"},{"bike_id":"8fa39637-6863-4901-93d1-5e6048ff701a","system_id":"levelo_inurba_marseille","lat":43.295828,"lon":5.375184,"is_reserved":false,"is_disabled":false,"rental_uris":{"android":"levelo://app?vid=8fa39637-6863-4901-93d1-5e6048ff701a","ios":"levelo://app?vid=8fa39637-6863-4901-93d1-5e6048ff701a"},"vehicle_type_id":"4","last_reported":1770824974,"current_range_meters":4800,"station_id":"ce4bgh92rcd13ifvqb50","pricing_plan_id":"cebpf4jnsgd1na2vs0mg"},{"bike_id":"54bd52e6-912c-41e4-90a6-85e5c05a7d3d","system_id":"levelo_inurba_marseille","lat":43.22571,"lon":5.41621,"is_reserved":false,"is_disabled":false,"rental_uris":{"android":"levelo://app?vid=54bd52e6-912c-41e4-90a6-85e5c05a7d3d","ios":"levelo://app?vid=54bd52e6-912c-41e4-90a6-85e5c05a7d3d"},"vehicle_type_id":"4","last_reported":1770824974,"current_range_meters":4800,"station_id":"st_d2o4gvlbi1j2169b742g","pricing_plan_id":"cebpf4jnsgd1na2vs0mg"},{"bike_id":"3cf4412f-4eab-4fb4-bd6a-b9dfe83e38cc","system_id":"levelo_inurba_marseille","lat":43.24176,"lon":5.39741,"is_reserved":false,"is_disabled":false,"rental_uris":{"android":"levelo://app?vid=3cf4412f-4eab-4fb4-bd6a-b9dfe83e38cc","ios":"levelo://app?vid=3cf4412f-4eab-4fb4-bd6a-b9dfe83e38cc"},"vehicle_type_id":"4","last_reported":1770824974,"current_range_meters":4800,"station_id":"ce4bhn12rcd13ifvqgpg","pricing_plan_id":"cebpf4jnsgd1na2vs0mg"},{"bike_id":"d99d8fe4-b2b7-4ecd-b5db-4cee32291c21","system_id":"levelo_inurba_marseille","lat":43.239648,"lon":5.366319,"is_reserved":false,"is_disabled":false,"rental_uris":{"android":"levelo://app?vid=d99d8fe4-b2b7-4ecd-b5db-4cee32291c21","ios":"levelo://app?vid=d99d8fe4-b2b7-4ecd-b5db-4cee32291c21"},"vehicle_type_id":"4","last_reported":1770824974,"current_range_meters":4800,"station_id":"ce4bhi12rcd13ifvqfp0","pricing_plan_id":"cebpf4jnsgd1na2vs0mg"},{"bike_id":"9daf4639-4a72-4831-a222-18aa4ab600cc","system_id":"levelo_inurba_marseille","lat":43.29545,"lon":5.39387,"is_reserved":false,"is_disabled":false,"rental_uris":{"android":"levelo://app?vid=9daf4639-4a72-4831-a222-18aa4ab600cc","ios":"levelo://app?vid=9daf4639-4a72-4831-a222-18aa4ab600cc"},"vehicle_type_id":"4","last_reported":1770824974,"current_range_meters":4800,"station_id":"ce4bh292rcd13ifvqdf0","pricing_plan_id":"cebpf4jnsgd1na2vs0mg"},{"bike_id":"42f8db6c-3bd7-4d3d-94a4-5a0e8d808b76","system_id":"levelo_inurba_marseille","lat":43.288493,"lon":5.3585,"is_reserved":false,"is_disabled":false,"rental_uris":{"android":"levelo://app?vid=42f8db6c-3bd7-4d3d-94a4-5a0e8d808b76","ios":"levelo://app?vid=42f8db6c-3bd7-4d3d-94a4-5a0e8d808b76"},"vehicle_type_id":"4","last_reported":1770824974,"current_range_meters":4800,"station_id":"ce4bhb12rcd13ifvqem0","pricing_plan_id":"cebpf4jnsgd1na2vs0mg"},{"bike_id":"4c41c757-03f3-4913-8e84-0bef9219bbf5","system_id":"levelo_inurba_marseille","lat":43.244268,"lon":5.371833,"is_reserved":false,"is_disabled":false,"rental_uris":{"android":"levelo://app?vid=4c41c757-03f3-4913-8e84-0bef9219bbf5","ios":"levelo://app?vid=4c41c757-03f3-4913-8e84-0bef9219bbf5"},"vehicle_type_id":"4","last_reported":1770824974,"current_range_meters":4800,"station_id":"ce4bhhh2rcd13ifvqfk0","pricing_plan_id":"cebpf4jnsgd1na2vs0mg"},{"bike_id":"9d0a0970-8518-4b1a-ac6f-e9a6ad0d6305","system_id":"levelo_inurba_marseille","lat":43.284225,"lon":5.349724,"is_reserved":false,"is_disabled":false,"rental_uris":{"android":"levelo://app?vid=9d0a0970-8518-4b1a-ac6f-e9a6ad0d6305","ios":"levelo://app?vid=9d0a0970-8518-4b1a-ac6f-e9a6ad0d6305"},"vehicle_type_id":"4","last_reported":1770824974,"current_range_meters":5600,"station_id":"ce4bhbh2rcd13ifvqepg","pricing_plan_id":"cebpf4jnsgd1na2vs0mg"},{"bike_id":"6f6a04ad-dd00-4f4a-bdfd-a835cfa0cc11","system_id":"levelo_inurba_marseille","lat":43.27068,"lon":5.38322,"is_reserved":false,"is_disabled":false,"rental_uris":{"android":"levelo://app?vid=6f6a04ad-dd00-4f4a-bdfd-a835cfa0cc11","ios":"levelo://app?vid=6f6a04ad-dd00-4f4a-bdfd-a835cfa0cc11"},"vehicle_type_id":"4","last_reported":1770824974,"current_range_meters":5600,"station_id":"st_d3n2fo6cfp8s73cte1j0","pricing_plan_id":"cebpf4jnsgd1na2vs0mg"},{"bike_id":"181777f8-f2e9-4556-8faf-fa3e8dce1295","system_id":"levelo_inurba_marseille","lat":43.29066,"lon":5.38012,"is_reserved":false,"is_disabled":false,"rental_uris":{"android":"levelo://app?vid=181777f8-f2e9-4556-8faf-fa3e8dce1295","ios":"levelo://app?vid=181777f8-f2e9-4556-8faf-fa3e8dce1295"},"vehicle_type_id":"4","last_reported":1770824974,"current_range_meters":5600,"station_id":"","pricing_plan_id":"cebpf4jnsgd1na2vs0mg"},{"bike_id":"90ee3013-44b0-4686-907c-1846968ddd2c","system_id":"levelo_inurba_marseille","lat":43.26779,"lon":5.39421,"is_reserved":false,"is_disabled":false,"rental_uris":{"android":"levelo://app?vid=90ee3013-44b0-4686-907c-1846968ddd2c","ios":"levelo://app?vid=90ee3013-44b0-4686-907c-1846968ddd2c"},"vehicle_type_id":"4","last_reported":1770824974,"current_range_meters":5600,"station_id":"ce4bhh12rcd13ifvqfg0","pricing_plan_id":"cebpf4jnsgd1na2vs0mg"},{"bike_id":"42a0c368-d66d-4380-8564-5bb9b2681cca","system_id":"levelo_inurba_marseille","lat":43.30455,"lon":5.36554,"is_reserved":false,"is_disabled":false,"rental_uris":{"android":"levelo://app?vid=42a0c368-d66d-4380-8564-5bb9b2681cca","ios":"levelo://app?vid=42a0c368-d66d-4380-8564-5bb9b2681cca"},"vehicle_type_id":"4","last_reported":1770824974,"current_range_meters":5600,"station_id":"","pricing_plan_id":"cebpf4jnsgd1na2vs0mg"},{"bike_id":"1dcf3562-4dbd-4c4f-b48a-ff6e94dcbfdd","system_id":"levelo_inurba_marseille","lat":43.24652,"lon":5.38181,"is_reserved":false,"is_disabled":false,"rental_uris":{"android":"levelo://app?vid=1dcf3562-4dbd-4c4f-b48a-ff6e94dcbfdd","ios":"levelo://app?vid=1dcf3562-4dbd-4c4f-b48a-ff6e94dcbfdd"},"vehicle_type_id":"4","last_reported":1770824974,"current_range_meters":5600,"station_id":"ce4bhih2rcd13ifvqfr0","pricing_plan_id":"cebpf4jnsgd1na2vs0mg"},{"bike_id":"195129a7-492c-4a00-92c9-6590be19f8d4","system_id":"levelo_inurba_marseille","lat":43.294956,"lon":5.432967,"is_reserved":false,"is_disabled":false,"rental_uris":{"android":"levelo://app?vid=195129a7-492c-4a00-92c9-6590be19f8d4","ios":"levelo://app?vid=195129a7-492c-4a00-92c9-6590be19f8d4"},"vehicle_type_id":"4","last_reported":1770824974,"current_range_meters":6000,"station_id":"st_d3j5ugp08ojc73fj9d10","pricing_plan_id":"cebpf4jnsgd1na2vs0mg"},{"bike_id":"08058266-33f3-4047-a54c-2145f3e0a312","system_id":"levelo_inurba_marseille","lat":43.32544,"lon":5.41417,"is_reserved":false,"is_disabled":false,"rental_uris":{"android":"levelo://app?vid=08058266-33f3-4047-a54c-2145f3e0a312","ios":"levelo://app?vid=08058266-33f3-4047-a54c-2145f3e0a312"},"vehicle_type_id":"4","last_reported":1770824974,"current_range_meters":6000,"station_id":"ce4bhq12rcd13ifvqhhg","pricing_plan_id":"cebpf4jnsgd1na2vs0mg"},{"bike_id":"4659f5f2-43a6-4213-b84f-184d5dec64b3","system_id":"levelo_inurba_marseille","lat":43.33542,"lon":5.37457,"is_reserved":false,"is_disabled":false,"rental_uris":{"android":"levelo://app?vid=4659f5f2-43a6-4213-b84f-184d5dec64b3","ios":"levelo://app?vid=4659f5f2-43a6-4213-b84f-184d5dec64b3"},"vehicle_type_id":"4","last_reported":1770824974,"current_range_meters":6000,"station_id":"st_d46tts09ee8s73dlu43g","pricing_plan_id":"cebpf4jnsgd1na2vs0mg"},{"bike_id":"e4393e86-b30a-45ea-b104-a7a8da4a078d","system_id":"levelo_inurba_marseille","lat":43.337444,"lon":5.374475,"is_reserved":false,"is_disabled":false,"rental_uris":{"android":"levelo://app?vid=e4393e86-b30a-45ea-b104-a7a8da4a078d","ios":"levelo://app?vid=e4393e86-b30a-45ea-b104-a7a8da4a078d"},"vehicle_type_id":"4","last_reported":1770824974,"current_range_meters":6000,"station_id":"","pricing_plan_id":"cebpf4jnsgd1na2vs0mg"},{"bike_id":"0791f832-532b-4a81-8501-1d24505211ed","system_id":"levelo_inurba_marseille","lat":43.29195,"lon":5.35818,"is_reserved":false,"is_disabled":false,"rental_uris":{"android":"levelo://app?vid=0791f832-532b-4a81-8501-1d24505211ed","ios":"levelo://app?vid=0791f832-532b-4a81-8501-1d24505211ed"},"vehicle_type_id":"4","last_reported":1770824974,"current_range_meters":6000,"station_id":"ce4bhb12rcd13ifvqel0","pricing_plan_id":"cebpf4jnsgd1na2vs0mg"},{"bike_id":"c94e8bac-17d7-4355-891a-0ceb5d4e17ae","system_id":"levelo_inurba_marseille","lat":43.24078,"lon":5.37753,"is_reserved":false,"is_disabled":false,"rental_uris":{"android":"levelo://app?vid=c94e8bac-17d7-4355-891a-0ceb5d4e17ae","ios":"levelo://app?vid=c94e8bac-17d7-4355-891a-0ceb5d4e17ae"},"vehicle_type_id":"4","last_reported":1770824974,"current_range_meters":6000,"station_id":"ce4bhnp2rcd13ifvqgvg","pricing_plan_id":"cebpf4jnsgd1na2vs0mg"},{"bike_id":"774647ab-afd2-472c-b3ee-3701d6387862","system_id":"levelo_inurba_marseille","lat":43.305384,"lon":5.367051,"is_reserved":false,"is_disabled":false,"rental_uris":{"android":"levelo://app?vid=774647ab-afd2-472c-b3ee-3701d6387862","ios":"levelo://app?vid=774647ab-afd2-472c-b3ee-3701d6387862"},"vehicle_type_id":"4","last_reported":1770824974,"current_range_meters":6000,"station_id":"ce4bgrp2rcd13ifvqc9g","pricing_plan_id":"cebpf4jnsgd1na2vs0mg"},{"bike_id":"954a9606-149d-46ce-88be-0b9829d3eaa2","system_id":"levelo_inurba_marseille","lat":43.30549,"lon":5.367,"is_reserved":false,"is_disabled":false,"rental_uris":{"android":"levelo://app?vid=954a9606-149d-46ce-88be-0b9829d3eaa2","ios":"levelo://app?vid=954a9606-149d-46ce-88be-0b9829d3eaa2"},"vehicle_type_id":"4","last_reported":1770824974,"current_range_meters":6000,"station_id":"ce4bgrp2rcd13ifvqc9g","pricing_plan_id":"cebpf4jnsgd1na2vs0mg"},{"bike_id":"c5905c63-82ea-4157-aaa6-22b59855d28f","system_id":"levelo_inurba_marseille","lat":43.232,"lon":5.39972,"is_reserved":false,"is_disabled":false,"rental_uris":{"android":"levelo://app?vid=c5905c63-82ea-4157-aaa6-22b59855d28f","ios":"levelo://app?vid=c5905c63-82ea-4157-aaa6-22b59855d28f"},"vehicle_type_id":"4","last_reported":1770824974,"current_range_meters":6000,"station_id":"ce4bhn12rcd13ifvqgqg","pricing_plan_id":"cebpf4jnsgd1na2vs0mg"},{"bike_id":"c07e7bb0-fc86-41c9-b6a4-4b50c1a1afa9","system_id":"levelo_inurba_marseille","lat":43.284039,"lon":5.375066,"is_reserved":false,"is_disabled":false,"rental_uris":{"android":"levelo://app?vid=c07e7bb0-fc86-41c9-b6a4-4b50c1a1afa9","ios":"levelo://app?vid=c07e7bb0-fc86-41c9-b6a4-4b50c1a1afa9"},"vehicle_type_id":"4","last_reported":1770824974,"current_range_meters":6000,"station_id":"ce4bh412rcd13ifvqds0","pricing_plan_id":"cebpf4jnsgd1na2vs0mg"},{"bike_id":"b7ca8244-c9fd-4fb4-a42c-bb5d299fcf09","system_id":"levelo_inurba_marseille","lat":43.29294,"lon":5.37455,"is_reserved":false,"is_disabled":false,"rental_uris":{"android":"levelo://app?vid=b7ca8244-c9fd-4fb4-a42c-bb5d299fcf09","ios":"levelo://app?vid=b7ca8244-c9fd-4fb4-a42c-bb5d299fcf09"},"vehicle_type_id":"4","last_reported":1770824974,"current_range_meters":6000,"station_id":"ce4bgi12rcd13ifvqb70","pricing_plan_id":"cebpf4jnsgd1na2vs0mg"},{"bike_id":"c4ef5bed-2c26-45ce-9600-06cb749f2528","system_id":"levelo_inurba_marseille","lat":43.26559,"lon":5.37297,"is_reserved":false,"is_disabled":false,"rental_uris":{"android":"levelo://app?vid=c4ef5bed-2c26-45ce-9600-06cb749f2528","ios":"levelo://app?vid=c4ef5bed-2c26-45ce-9600-06cb749f2528"},"vehicle_type_id":"4","last_reported":1770824974,"current_range_meters":6400,"station_id":"ce4bhg12rcd13ifvqf70","pricing_plan_id":"cebpf4jnsgd1na2vs0mg"},{"bike_id":"1448c9ce-d568-4f77-9f2b-dca45ac4e256","system_id":"levelo_inurba_marseille","lat":43.27363,"lon":5.36253,"is_reserved":false,"is_disabled":false,"rental_uris":{"android":"levelo://app?vid=1448c9ce-d568-4f77-9f2b-dca45ac4e256","ios":"levelo://app?vid=1448c9ce-d568-4f77-9f2b-dca45ac4e256"},"vehicle_type_id":"4","last_reported":1770824974,"current_range_meters":6400,"station_id":"ce4bhbh2rcd13ifvqeo0","pricing_plan_id":"cebpf4jnsgd1na2vs0mg"},{"bike_id":"cb746bf2-c6a8-4dab-a64d-02007d5a1877","system_id":"levelo_inurba_marseille","lat":43.24812,"lon":5.37464,"is_reserved":false,"is_disabled":false,"rental_uris":{"android":"levelo://app?vid=cb746bf2-c6a8-4dab-a64d-02007d5a1877","ios":"levelo://app?vid=cb746bf2-c6a8-4dab-a64d-02007d5a1877"},"vehicle_type_id":"4","last_reported":1770824974,"current_range_meters":6400,"station_id":"ce4bhgh2rcd13ifvqfb0","pricing_plan_id":"cebpf4jnsgd1na2vs0mg"},{"bike_id":"c6176d61-506f-4755-a0d6-6ccb9566f89a","system_id":"levelo_inurba_marseille","lat":43.25641,"lon":5.4116,"is_reserved":false,"is_disabled":false,"rental_uris":{"android":"levelo://app?vid=c6176d61-506f-4755-a0d6-6ccb9566f89a","ios":"levelo://app?vid=c6176d61-506f-4755-a0d6-6ccb9566f89a"},"vehicle_type_id":"4","last_reported":1770824974,"current_range_meters":6400,"station_id":"","pricing_plan_id":"cebpf4jnsgd1na2vs0mg"},{"bike_id":"1c120683-67bc-428a-aa0f-bec572dfb863","system_id":"levelo_inurba_marseille","lat":43.25565,"lon":5.38236,"is_reserved":false,"is_disabled":false,"rental_uris":{"android":"levelo://app?vid=1c120683-67bc-428a-aa0f-bec572dfb863","ios":"levelo://app?vid=1c120683-67bc-428a-aa0f-bec572dfb863"},"vehicle_type_id":"4","last_reported":1770824974,"current_range_meters":6400,"station_id":"ce4bhih2rcd13ifvqfs0","pricing_plan_id":"cebpf4jnsgd1na2vs0mg"},{"bike_id":"9fcfccf0-d243-432f-84dd-0ebe06471752","system_id":"levelo_inurba_marseille","lat":43.3189,"lon":5.40735,"is_reserved":false,"is_disabled":false,"rental_uris":{"android":"levelo://app?vid=9fcfccf0-d243-432f-84dd-0ebe06471752","ios":"levelo://app?vid=9fcfccf0-d243-432f-84dd-0ebe06471752"},"vehicle_type_id":"4","last_reported":1770824974,"current_range_meters":6400,"station_id":"ce4bhq12rcd13ifvqhig","pricing_plan_id":"cebpf4jnsgd1na2vs0mg"},{"bike_id":"d3ff72dc-5551-4917-81f1-dd8f1a42992a","system_id":"levelo_inurba_marseille","lat":43.313578,"lon":5.367268,"is_reserved":false,"is_disabled":false,"rental_uris":{"android":"levelo://app?vid=d3ff72dc-5551-4917-81f1-dd8f1a42992a","ios":"levelo://app?vid=d3ff72dc-5551-4917-81f1-dd8f1a42992a"},"vehicle_type_id":"4","last_reported":1770824974,"current_range_meters":6400,"station_id":"ce4bgr92rcd13ifvqc6g","pricing_plan_id":"cebpf4jnsgd1na2vs0mg"},{"bike_id":"1c5cf88e-bae0-4a7f-af92-27de33575267","system_id":"levelo_inurba_marseille","lat":43.258797,"lon":5.398882,"is_reserved":false,"is_disabled":false,"rental_uris":{"android":"levelo://app?vid=1c5cf88e-bae0-4a7f-af92-27de33575267","ios":"levelo://app?vid=1c5cf88e-bae0-4a7f-af92-27de33575267"},"vehicle_type_id":"4","last_reported":1770824974,"current_range_meters":6400,"station_id":"ce4bhl92rcd13ifvqghg","pricing_plan_id":"cebpf4jnsgd1na2vs0mg"},{"bike_id":"78bdbec6-3ec1-4b90-8a6c-8222c94ec8b4","system_id":"levelo_inurba_marseille","lat":43.31034,"lon":5.37154,"is_reserved":false,"is_disabled":false,"rental_uris":{"android":"levelo://app?vid=78bdbec6-3ec1-4b90-8a6c-8222c94ec8b4","ios":"levelo://app?vid=78bdbec6-3ec1-4b90-8a6c-8222c94ec8b4"},"vehicle_type_id":"4","last_reported":1770824974,"current_range_meters":6400,"station_id":"st_d4kl2rp97mjs73e7tdfg","pricing_plan_id":"cebpf4jnsgd1na2vs0mg"},{"bike_id":"f566875e-5642-41c3-af4a-390fbf63f0fb","system_id":"levelo_inurba_marseille","lat":43.28343,"lon":5.3811,"is_reserved":false,"is_disabled":false,"rental_uris":{"android":"levelo://app?vid=f566875e-5642-41c3-af4a-390fbf63f0fb","ios":"levelo://app?vid=f566875e-5642-41c3-af4a-390fbf63f0fb"},"vehicle_type_id":"4","last_reported":1770824974,"current_range_meters":6400,"station_id":"ce4bh412rcd13ifvqdr0","pricing_plan_id":"cebpf4jnsgd1na2vs0mg"},{"bike_id":"69cb53c0-4939-4da6-a53e-35e4cb2de7f7","system_id":"levelo_inurba_marseille","lat":43.22556,"lon":5.41643,"is_reserved":false,"is_disabled":false,"rental_uris":{"android":"levelo://app?vid=69cb53c0-4939-4da6-a53e-35e4cb2de7f7","ios":"levelo://app?vid=69cb53c0-4939-4da6-a53e-35e4cb2de7f7"},"vehicle_type_id":"4","last_reported":1770824974,"current_range_meters":6400,"station_id":"st_d2o4gvlbi1j2169b742g","pricing_plan_id":"cebpf4jnsgd1na2vs0mg"},{"bike_id":"2300cf90-f0a9-4dc9-ba56-f761508b401f","system_id":"levelo_inurba_marseille","lat":43.28346,"lon":5.38104,"is_reserved":false,"is_disabled":false,"rental_uris":{"android":"levelo://app?vid=2300cf90-f0a9-4dc9-ba56-f761508b401f","ios":"levelo://app?vid=2300cf90-f0a9-4dc9-ba56-f761508b401f"},"vehicle_type_id":"4","last_reported":1770824974,"current_range_meters":6400,"station_id":"ce4bh412rcd13ifvqdr0","pricing_plan_id":"cebpf4jnsgd1na2vs0mg"},{"bike_id":"5ed0f3ca-c4eb-409c-9eb1-a3eed1b5d0e0","system_id":"levelo_inurba_marseille","lat":43.30383,"lon":5.42478,"is_reserved":false,"is_disabled":false,"rental_uris":{"android":"levelo://app?vid=5ed0f3ca-c4eb-409c-9eb1-a3eed1b5d0e0","ios":"levelo://app?vid=5ed0f3ca-c4eb-409c-9eb1-a3eed1b5d0e0"},"vehicle_type_id":"4","last_reported":1770824974,"current_range_meters":6400,"station_id":"ce4bhoh2rcd13ifvqh6g","pricing_plan_id":"cebpf4jnsgd1na2vs0mg"},{"bike_id":"ae608511-4da9-4dde-9c15-e20a8a580c4d","system_id":"levelo_inurba_marseille","lat":43.29863,"lon":5.36251,"is_reserved":false,"is_disabled":false,"rental_uris":{"android":"levelo://app?vid=ae608511-4da9-4dde-9c15-e20a8a580c4d","ios":"levelo://app?vid=ae608511-4da9-4dde-9c15-e20a8a580c4d"},"vehicle_type_id":"4","last_reported":1770824974,"current_range_meters":6400,"station_id":"ce4bgpp2rcd13ifvqc3g","pricing_plan_id":"cebpf4jnsgd1na2vs0mg"},{"bike_id":"a595811d-e4a2-4edd-bc38-2905c562c34e","system_id":"levelo_inurba_marseille","lat":43.33558,"lon":5.37469,"is_reserved":false,"is_disabled":false,"rental_uris":{"android":"levelo://app?vid=a595811d-e4a2-4edd-bc38-2905c562c34e","ios":"levelo://app?vid=a595811d-e4a2-4edd-bc38-2905c562c34e"},"vehicle_type_id":"4","last_reported":1770824974,"current_range_meters":6400,"station_id":"st_d46tts09ee8s73dlu43g","pricing_plan_id":"cebpf4jnsgd1na2vs0mg"},{"bike_id":"579e344b-54e7-42cf-b834-dd2e0cd79ada","system_id":"levelo_inurba_marseille","lat":43.29529,"lon":5.38549,"is_reserved":false,"is_disabled":false,"rental_uris":{"android":"levelo://app?vid=579e344b-54e7-42cf-b834-dd2e0cd79ada","ios":"levelo://app?vid=579e344b-54e7-42cf-b834-dd2e0cd79ada"},"vehicle_type_id":"4","last_reported":1770824974,"current_range_meters":6400,"station_id":"ce4bgih2rcd13ifvqba0","pricing_plan_id":"cebpf4jnsgd1na2vs0mg"},{"bike_id":"ebf0bbf2-ff06-4d07-9c3a-7e28b3fa2654","system_id":"levelo_inurba_marseille","lat":43.30883,"lon":5.39658,"is_reserved":false,"is_disabled":false,"rental_uris":{"android":"levelo://app?vid=ebf0bbf2-ff06-4d07-9c3a-7e28b3fa2654","ios":"levelo://app?vid=ebf0bbf2-ff06-4d07-9c3a-7e28b3fa2654"},"vehicle_type_id":"4","last_reported":1770824974,"current_range_meters":6800,"station_id":"ce4bh012rcd13ifvqcv0","pricing_plan_id":"cebpf4jnsgd1na2vs0mg"},{"bike_id":"bc58a61e-5dee-4f48-b37b-2d8085ac5b73","system_id":"levelo_inurba_marseille","lat":43.24936,"lon":5.40487,"is_reserved":false,"is_disabled":false,"rental_uris":{"android":"levelo://app?vid=bc58a61e-5dee-4f48-b37b-2d8085ac5b73","ios":"levelo://app?vid=bc58a61e-5dee-4f48-b37b-2d8085ac5b73"},"vehicle_type_id":"4","last_reported":1770824974,"current_range_meters":6800,"station_id":"st_d2ngiaodas8pm72gd1h0","pricing_plan_id":"cebpf4jnsgd1na2vs0mg"},{"bike_id":"ddcf89ea-d06a-409e-b157-ee9a9eb7fed4","system_id":"levelo_inurba_marseille","lat":43.3091,"lon":5.36865,"is_reserved":false,"is_disabled":false,"rental_uris":{"android":"levelo://app?vid=ddcf89ea-d06a-409e-b157-ee9a9eb7fed4","ios":"levelo://app?vid=ddcf89ea-d06a-409e-b157-ee9a9eb7fed4"},"vehicle_type_id":"4","last_reported":1770824974,"current_range_meters":6800,"station_id":"ce4bgn92rcd13ifvqbvg","pricing_plan_id":"cebpf4jnsgd1na2vs0mg"},{"bike_id":"bdde70ef-70ce-4d41-a03b-1cac73853d63","system_id":"levelo_inurba_marseille","lat":43.24168,"lon":5.36397,"is_reserved":false,"is_disabled":false,"rental_uris":{"android":"levelo://app?vid=bdde70ef-70ce-4d41-a03b-1cac73853d63","ios":"levelo://app?vid=bdde70ef-70ce-4d41-a03b-1cac73853d63"},"vehicle_type_id":"4","last_reported":1770824974,"current_range_meters":6800,"station_id":"cpo36qri1sfpv3e86is0","pricing_plan_id":"cebpf4jnsgd1na2vs0mg"},{"bike_id":"d6b9d7ff-4ec2-4ca9-ba28-5a5dad54cfd3","system_id":"levelo_inurba_marseille","lat":43.28486,"lon":5.48395,"is_reserved":false,"is_disabled":false,"rental_uris":{"android":"levelo://app?vid=d6b9d7ff-4ec2-4ca9-ba28-5a5dad54cfd3","ios":"levelo://app?vid=d6b9d7ff-4ec2-4ca9-ba28-5a5dad54cfd3"},"vehicle_type_id":"4","last_reported":1770824974,"current_range_meters":6800,"station_id":"","pricing_plan_id":"cebpf4jnsgd1na2vs0mg"},{"bike_id":"91bc8930-aa61-4cd2-890f-1a9a94fddb55","system_id":"levelo_inurba_marseille","lat":43.27995,"lon":5.41668,"is_reserved":false,"is_disabled":false,"rental_uris":{"android":"levelo://app?vid=91bc8930-aa61-4cd2-890f-1a9a94fddb55","ios":"levelo://app?vid=91bc8930-aa61-4cd2-890f-1a9a94fddb55"},"vehicle_type_id":"4","last_reported":1770824974,"current_range_meters":6800,"station_id":"ce4bho12rcd13ifvqh1g","pricing_plan_id":"cebpf4jnsgd1na2vs0mg"},{"bike_id":"aeb66412-2788-47d4-96b4-819634c535d8","system_id":"levelo_inurba_marseille","lat":43.29925,"lon":5.37477,"is_reserved":false,"is_disabled":false,"rental_uris":{"android":"levelo://app?vid=aeb66412-2788-47d4-96b4-819634c535d8","ios":"levelo://app?vid=aeb66412-2788-47d4-96b4-819634c535d8"},"vehicle_type_id":"4","last_reported":1770824974,"current_range_meters":6800,"station_id":"ce4bgjh2rcd13ifvqbg0","pricing_plan_id":"cebpf4jnsgd1na2vs0mg"},{"bike_id":"238249fa-46de-416c-b2d1-b229a6220ad5","system_id":"levelo_inurba_marseille","lat":43.265728,"lon":5.390144,"is_reserved":false,"is_disabled":false,"rental_uris":{"android":"levelo://app?vid=238249fa-46de-416c-b2d1-b229a6220ad5","ios":"levelo://app?vid=238249fa-46de-416c-b2d1-b229a6220ad5"},"vehicle_type_id":"4","last_reported":1770824974,"current_range_meters":6800,"station_id":"ce4bhe12rcd13ifvqf30","pricing_plan_id":"cebpf4jnsgd1na2vs0mg"},{"bike_id":"1ef2e3fb-a11e-4cc4-96b5-ecbfbbb8d188","system_id":"levelo_inurba_marseille","lat":43.31493,"lon":5.37313,"is_reserved":false,"is_disabled":false,"rental_uris":{"android":"levelo://app?vid=1ef2e3fb-a11e-4cc4-96b5-ecbfbbb8d188","ios":"levelo://app?vid=1ef2e3fb-a11e-4cc4-96b5-ecbfbbb8d188"},"vehicle_type_id":"4","last_reported":1770824974,"current_range_meters":6800,"station_id":"ce4bgt12rcd13ifvqcd0","pricing_plan_id":"cebpf4jnsgd1na2vs0mg"},{"bike_id":"d4ca1552-174d-4ef7-a9fa-51001d780ed8","system_id":"levelo_inurba_marseille","lat":43.317234,"lon":5.437057,"is_reserved":false,"is_disabled":false,"rental_uris":{"android":"levelo://app?vid=d4ca1552-174d-4ef7-a9fa-51001d780ed8","ios":"levelo://app?vid=d4ca1552-174d-4ef7-a9fa-51001d780ed8"},"vehicle_type_id":"4","last_reported":1770824974,"current_range_meters":7200,"station_id":"ce4bhp92rcd13ifvqhcg","pricing_plan_id":"cebpf4jnsgd1na2vs0mg"},{"bike_id":"a8033c18-bf59-458a-9eb0-147256918905","system_id":"levelo_inurba_marseille","lat":43.31052,"lon":5.37168,"is_reserved":false,"is_disabled":false,"rental_uris":{"android":"levelo://app?vid=a8033c18-bf59-458a-9eb0-147256918905","ios":"levelo://app?vid=a8033c18-bf59-458a-9eb0-147256918905"},"vehicle_type_id":"4","last_reported":1770824974,"current_range_meters":7200,"station_id":"st_d4kl2rp97mjs73e7tdfg","pricing_plan_id":"cebpf4jnsgd1na2vs0mg"},{"bike_id":"ab7260d3-0b60-4920-bd6e-553838fbba97","system_id":"levelo_inurba_marseille","lat":43.30471,"lon":5.40218,"is_reserved":false,"is_disabled":false,"rental_uris":{"android":"levelo://app?vid=ab7260d3-0b60-4920-bd6e-553838fbba97","ios":"levelo://app?vid=ab7260d3-0b60-4920-bd6e-553838fbba97"},"vehicle_type_id":"4","last_reported":1770824974,"current_range_meters":7200,"station_id":"","pricing_plan_id":"cebpf4jnsgd1na2vs0mg"},{"bike_id":"f28d6f89-fcc0-4566-8662-51e8789f30aa","system_id":"levelo_inurba_marseille","lat":43.30573,"lon":5.36662,"is_reserved":false,"is_disabled":false,"rental_uris":{"android":"levelo://app?vid=f28d6f89-fcc0-4566-8662-51e8789f30aa","ios":"levelo://app?vid=f28d6f89-fcc0-4566-8662-51e8789f30aa"},"vehicle_type_id":"4","last_reported":1770824974,"current_range_meters":7200,"station_id":"","pricing_plan_id":"cebpf4jnsgd1na2vs0mg"},{"bike_id":"6efe5f0a-6c4f-403e-907f-5428484845d2","system_id":"levelo_inurba_marseille","lat":43.31698,"lon":5.40392,"is_reserved":false,"is_disabled":false,"rental_uris":{"android":"levelo://app?vid=6efe5f0a-6c4f-403e-907f-5428484845d2","ios":"levelo://app?vid=6efe5f0a-6c4f-403e-907f-5428484845d2"},"vehicle_type_id":"4","last_reported":1770824974,"current_range_meters":7200,"station_id":"","pricing_plan_id":"cebpf4jnsgd1na2vs0mg"},{"bike_id":"33352d89-c7bd-4d2f-8796-2f3b2fb0783e","system_id":"levelo_inurba_marseille","lat":43.2815,"lon":5.42676,"is_reserved":false,"is_disabled":false,"rental_uris":{"android":"levelo://app?vid=33352d89-c7bd-4d2f-8796-2f3b2fb0783e","ios":"levelo://app?vid=33352d89-c7bd-4d2f-8796-2f3b2fb0783e"},"vehicle_type_id":"4","last_reported":1770824974,"current_range_meters":7200,"station_id":"ce4bhnh2rcd13ifvqgug","pricing_plan_id":"cebpf4jnsgd1na2vs0mg"},{"bike_id":"fe86c9ba-789d-48cb-b139-57215407552e","system_id":"levelo_inurba_marseille","lat":43.33757,"lon":5.37448,"is_reserved":false,"is_disabled":false,"rental_uris":{"android":"levelo://app?vid=fe86c9ba-789d-48cb-b139-57215407552e","ios":"levelo://app?vid=fe86c9ba-789d-48cb-b139-57215407552e"},"vehicle_type_id":"4","last_reported":1770824974,"current_range_meters":8000,"station_id":"","pricing_plan_id":"cebpf4jnsgd1na2vs0mg"},{"bike_id":"1a0d99f0-ee74-4956-bad4-992b0789ccc7","system_id":"levelo_inurba_marseille","lat":43.21192,"lon":5.35068,"is_reserved":false,"is_disabled":false,"rental_uris":{"android":"levelo://app?vid=1a0d99f0-ee74-4956-bad4-992b0789ccc7","ios":"levelo://app?vid=1a0d99f0-ee74-4956-bad4-992b0789ccc7"},"vehicle_type_id":"4","last_reported":1770824974,"current_range_meters":8000,"station_id":"st_cvj6sg6p6f1abm77japg","pricing_plan_id":"cebpf4jnsgd1na2vs0mg"},{"bike_id":"c9e209dc-3eb4-49f9-a9a6-de1570e4ac6b","system_id":"levelo_inurba_marseille","lat":43.30083,"lon":5.39083,"is_reserved":false,"is_disabled":false,"rental_uris":{"android":"levelo://app?vid=c9e209dc-3eb4-49f9-a9a6-de1570e4ac6b","ios":"levelo://app?vid=c9e209dc-3eb4-49f9-a9a6-de1570e4ac6b"},"vehicle_type_id":"4","last_reported":1770824974,"current_range_meters":8000,"station_id":"ce4bh192rcd13ifvqdb0","pricing_plan_id":"cebpf4jnsgd1na2vs0mg"},{"bike_id":"2b14cda8-f3bd-489e-b3e7-87e7ea87fd93","system_id":"levelo_inurba_marseille","lat":43.30157,"lon":5.37409,"is_reserved":false,"is_disabled":false,"rental_uris":{"android":"levelo://app?vid=2b14cda8-f3bd-489e-b3e7-87e7ea87fd93","ios":"levelo://app?vid=2b14cda8-f3bd-489e-b3e7-87e7ea87fd93"},"vehicle_type_id":"4","last_reported":1770824974,"current_range_meters":8000,"station_id":"ce4bgs92rcd13ifvqcc0","pricing_plan_id":"cebpf4jnsgd1na2vs0mg"},{"bike_id":"8ff4a9fa-0d2e-4f7f-8193-e7a8dba5ca9a","system_id":"levelo_inurba_marseille","lat":43.25331,"lon":5.4219,"is_reserved":false,"is_disabled":false,"rental_uris":{"android":"levelo://app?vid=8ff4a9fa-0d2e-4f7f-8193-e7a8dba5ca9a","ios":"levelo://app?vid=8ff4a9fa-0d2e-4f7f-8193-e7a8dba5ca9a"},"vehicle_type_id":"4","last_reported":1770824974,"current_range_meters":8000,"station_id":"st_d2m65c5bi1j21697t3ng","pricing_plan_id":"cebpf4jnsgd1na2vs0mg"},{"bike_id":"ae861497-9a22-4231-afa9-8238d5c5713c","system_id":"levelo_inurba_marseille","lat":43.24175,"lon":5.36383,"is_reserved":false,"is_disabled":false,"rental_uris":{"android":"levelo://app?vid=ae861497-9a22-4231-afa9-8238d5c5713c","ios":"levelo://app?vid=ae861497-9a22-4231-afa9-8238d5c5713c"},"vehicle_type_id":"4","last_reported":1770824974,"current_range_meters":8000,"station_id":"cpo36qri1sfpv3e86is0","pricing_plan_id":"cebpf4jnsgd1na2vs0mg"},{"bike_id":"d373c67d-1dce-4200-b1fc-e555d3a72522","system_id":"levelo_inurba_marseille","lat":43.30131,"lon":5.3742,"is_reserved":false,"is_disabled":false,"rental_uris":{"android":"levelo://app?vid=d373c67d-1dce-4200-b1fc-e555d3a72522","ios":"levelo://app?vid=d373c67d-1dce-4200-b1fc-e555d3a72522"},"vehicle_type_id":"4","last_reported":1770824974,"current_range_meters":8000,"station_id":"ce4bgs92rcd13ifvqcc0","pricing_plan_id":"cebpf4jnsgd1na2vs0mg"},{"bike_id":"aadb3bd1-d352-46bc-a6dc-751e563babdf","system_id":"levelo_inurba_marseille","lat":43.24376,"lon":5.37047,"is_reserved":false,"is_disabled":false,"rental_uris":{"android":"levelo://app?vid=aadb3bd1-d352-46bc-a6dc-751e563babdf","ios":"levelo://app?vid=aadb3bd1-d352-46bc-a6dc-751e563babdf"},"vehicle_type_id":"4","last_reported":1770824974,"current_range_meters":8000,"station_id":"ce4bhhh2rcd13ifvqfk0","pricing_plan_id":"cebpf4jnsgd1na2vs0mg"},{"bike_id":"2930a765-edec-492b-9fce-2a5b77e68c53","system_id":"levelo_inurba_marseille","lat":43.24092,"lon":5.37738,"is_reserved":false,"is_disabled":false,"rental_uris":{"android":"levelo://app?vid=2930a765-edec-492b-9fce-2a5b77e68c53","ios":"levelo://app?vid=2930a765-edec-492b-9fce-2a5b77e68c53"},"vehicle_type_id":"4","last_reported":1770824974,"current_range_meters":8000,"station_id":"ce4bhnp2rcd13ifvqgvg","pricing_plan_id":"cebpf4jnsgd1na2vs0mg"},{"bike_id":"2a63844a-84ce-42ba-a570-71001293621e","system_id":"levelo_inurba_marseille","lat":43.308248,"lon":5.435405,"is_reserved":false,"is_disabled":false,"rental_uris":{"android":"levelo://app?vid=2a63844a-84ce-42ba-a570-71001293621e","ios":"levelo://app?vid=2a63844a-84ce-42ba-a570-71001293621e"},"vehicle_type_id":"4","last_reported":1770824974,"current_range_meters":8000,"station_id":"","pricing_plan_id":"cebpf4jnsgd1na2vs0mg"},{"bike_id":"924f417a-3be5-4cdd-8a49-c8f1a8be8421","system_id":"levelo_inurba_marseille","lat":43.262259,"lon":5.404564,"is_reserved":false,"is_disabled":false,"rental_uris":{"android":"levelo://app?vid=924f417a-3be5-4cdd-8a49-c8f1a8be8421","ios":"levelo://app?vid=924f417a-3be5-4cdd-8a49-c8f1a8be8421"},"vehicle_type_id":"4","last_reported":1770824974,"current_range_meters":8000,"station_id":"ce4bhmh2rcd13ifvqgmg","pricing_plan_id":"cebpf4jnsgd1na2vs0mg"},{"bike_id":"cc43a2a6-4df1-46ee-89a5-e5908a5338ed","system_id":"levelo_inurba_marseille","lat":43.28476,"lon":5.48387,"is_reserved":false,"is_disabled":false,"rental_uris":{"android":"levelo://app?vid=cc43a2a6-4df1-46ee-89a5-e5908a5338ed","ios":"levelo://app?vid=cc43a2a6-4df1-46ee-89a5-e5908a5338ed"},"vehicle_type_id":"4","last_reported":1770824974,"current_range_meters":8000,"station_id":"st_d3svhcjqgbts73a3dn0g","pricing_plan_id":"cebpf4jnsgd1na2vs0mg"},{"bike_id":"9c4fa197-e784-47a1-9a3e-1e64aa186f14","system_id":"levelo_inurba_marseille","lat":43.25932,"lon":5.40925,"is_reserved":false,"is_disabled":false,"rental_uris":{"android":"levelo://app?vid=9c4fa197-e784-47a1-9a3e-1e64aa186f14","ios":"levelo://app?vid=9c4fa197-e784-47a1-9a3e-1e64aa186f14"},"vehicle_type_id":"4","last_reported":1770824974,"current_range_meters":8400,"station_id":"ce4bhm92rcd13ifvqglg","pricing_plan_id":"cebpf4jnsgd1na2vs0mg"},{"bike_id":"96107b6f-c769-4362-a753-584d3db25c4c","system_id":"levelo_inurba_marseille","lat":43.309422,"lon":5.390646,"is_reserved":false,"is_disabled":false,"rental_uris":{"android":"levelo://app?vid=96107b6f-c769-4362-a753-584d3db25c4c","ios":"levelo://app?vid=96107b6f-c769-4362-a753-584d3db25c4c"},"vehicle_type_id":"4","last_reported":1770824974,"current_range_meters":8400,"station_id":"ce4bgup2rcd13ifvqco0","pricing_plan_id":"cebpf4jnsgd1na2vs0mg"},{"bike_id":"e44df137-3a9f-4865-a2d3-769a6f5bfc14","system_id":"levelo_inurba_marseille","lat":43.30927,"lon":5.36865,"is_reserved":false,"is_disabled":false,"rental_uris":{"android":"levelo://app?vid=e44df137-3a9f-4865-a2d3-769a6f5bfc14","ios":"levelo://app?vid=e44df137-3a9f-4865-a2d3-769a6f5bfc14"},"vehicle_type_id":"4","last_reported":1770824974,"current_range_meters":8400,"station_id":"ce4bgn92rcd13ifvqbvg","pricing_plan_id":"cebpf4jnsgd1na2vs0mg"},{"bike_id":"4878db2c-1746-4e84-a2dc-9ef31135b542","system_id":"levelo_inurba_marseille","lat":43.25862,"lon":5.399124,"is_reserved":false,"is_disabled":false,"rental_uris":{"android":"levelo://app?vid=4878db2c-1746-4e84-a2dc-9ef31135b542","ios":"levelo://app?vid=4878db2c-1746-4e84-a2dc-9ef31135b542"},"vehicle_type_id":"4","last_reported":1770824974,"current_range_meters":8400,"station_id":"ce4bhl92rcd13ifvqghg","pricing_plan_id":"cebpf4jnsgd1na2vs0mg"},{"bike_id":"74994302-e698-4cbe-b587-b988981ebf95","system_id":"levelo_inurba_marseille","lat":43.30956,"lon":5.39015,"is_reserved":false,"is_disabled":false,"rental_uris":{"android":"levelo://app?vid=74994302-e698-4cbe-b587-b988981ebf95","ios":"levelo://app?vid=74994302-e698-4cbe-b587-b988981ebf95"},"vehicle_type_id":"4","last_reported":1770824974,"current_range_meters":8400,"station_id":"ce4bgup2rcd13ifvqco0","pricing_plan_id":"cebpf4jnsgd1na2vs0mg"},{"bike_id":"d997c6b7-acb1-4efa-ae35-2d8c161e2e69","system_id":"levelo_inurba_marseille","lat":43.23195,"lon":5.35529,"is_reserved":false,"is_disabled":false,"rental_uris":{"android":"levelo://app?vid=d997c6b7-acb1-4efa-ae35-2d8c161e2e69","ios":"levelo://app?vid=d997c6b7-acb1-4efa-ae35-2d8c161e2e69"},"vehicle_type_id":"4","last_reported":1770824974,"current_range_meters":8400,"station_id":"ce4bhu92rcd13ifvqi70","pricing_plan_id":"cebpf4jnsgd1na2vs0mg"},{"bike_id":"fdcca747-1f0c-4265-9d25-6a349973ec5d","system_id":"levelo_inurba_marseille","lat":43.33152,"lon":5.37688,"is_reserved":false,"is_disabled":false,"rental_uris":{"android":"levelo://app?vid=fdcca747-1f0c-4265-9d25-6a349973ec5d","ios":"levelo://app?vid=fdcca747-1f0c-4265-9d25-6a349973ec5d"},"vehicle_type_id":"4","last_reported":1770824974,"current_range_meters":8400,"station_id":"st_d46cu089ee8s73dldbu0","pricing_plan_id":"cebpf4jnsgd1na2vs0mg"},{"bike_id":"5fda65b6-7f98-4bf6-b2de-a2c95ed917cc","system_id":"levelo_inurba_marseille","lat":43.25444,"lon":5.38442,"is_reserved":false,"is_disabled":false,"rental_uris":{"android":"levelo://app?vid=5fda65b6-7f98-4bf6-b2de-a2c95ed917cc","ios":"levelo://app?vid=5fda65b6-7f98-4bf6-b2de-a2c95ed917cc"},"vehicle_type_id":"4","last_reported":1770824974,"current_range_meters":8400,"station_id":"","pricing_plan_id":"cebpf4jnsgd1na2vs0mg"},{"bike_id":"ac9a885a-fe7d-4871-905c-95e91acf3aa8","system_id":"levelo_inurba_marseille","lat":43.22566,"lon":5.41624,"is_reserved":false,"is_disabled":false,"rental_uris":{"android":"levelo://app?vid=ac9a885a-fe7d-4871-905c-95e91acf3aa8","ios":"levelo://app?vid=ac9a885a-fe7d-4871-905c-95e91acf3aa8"},"vehicle_type_id":"4","last_reported":1770824974,"current_range_meters":8400,"station_id":"st_d2o4gvlbi1j2169b742g","pricing_plan_id":"cebpf4jnsgd1na2vs0mg"},{"bike_id":"60144355-c5a2-4b27-9517-15dba4ba79a0","system_id":"levelo_inurba_marseille","lat":43.25573,"lon":5.38228,"is_reserved":false,"is_disabled":true,"rental_uris":{"android":"levelo://app?vid=60144355-c5a2-4b27-9517-15dba4ba79a0","ios":"levelo://app?vid=60144355-c5a2-4b27-9517-15dba4ba79a0"},"vehicle_type_id":"4","last_reported":1770824974,"current_range_meters":8400,"station_id":"ce4bhih2rcd13ifvqfs0","pricing_plan_id":"cebpf4jnsgd1na2vs0mg"},{"bike_id":"babdcd4a-655b-4e95-88f5-77a8529739da","system_id":"levelo_inurba_marseille","lat":43.22571,"lon":5.41629,"is_reserved":false,"is_disabled":false,"rental_uris":{"android":"levelo://app?vid=babdcd4a-655b-4e95-88f5-77a8529739da","ios":"levelo://app?vid=babdcd4a-655b-4e95-88f5-77a8529739da"},"vehicle_type_id":"4","last_reported":1770824974,"current_range_meters":8400,"station_id":"st_d2o4gvlbi1j2169b742g","pricing_plan_id":"cebpf4jnsgd1na2vs0mg"},{"bike_id":"5c22b533-5492-411e-bf62-99b42d617d21","system_id":"levelo_inurba_marseille","lat":43.30748,"lon":5.37102,"is_reserved":false,"is_disabled":false,"rental_uris":{"android":"levelo://app?vid=5c22b533-5492-411e-bf62-99b42d617d21","ios":"levelo://app?vid=5c22b533-5492-411e-bf62-99b42d617d21"},"vehicle_type_id":"4","last_reported":1770824974,"current_range_meters":8400,"station_id":"","pricing_plan_id":"cebpf4jnsgd1na2vs0mg"},{"bike_id":"6be359e8-3e00-4d14-894f-47b1af41ef2c","system_id":"levelo_inurba_marseille","lat":43.29627,"lon":5.37148,"is_reserved":false,"is_disabled":false,"rental_uris":{"android":"levelo://app?vid=6be359e8-3e00-4d14-894f-47b1af41ef2c","ios":"levelo://app?vid=6be359e8-3e00-4d14-894f-47b1af41ef2c"},"vehicle_type_id":"4","last_reported":1770824974,"current_range_meters":8400,"station_id":"ce4bgnh2rcd13ifvqc0g","pricing_plan_id":"cebpf4jnsgd1na2vs0mg"},{"bike_id":"fe85a283-164e-4135-8ab7-7e2210250f6e","system_id":"levelo_inurba_marseille","lat":43.26064,"lon":5.39389,"is_reserved":false,"is_disabled":false,"rental_uris":{"android":"levelo://app?vid=fe85a283-164e-4135-8ab7-7e2210250f6e","ios":"levelo://app?vid=fe85a283-164e-4135-8ab7-7e2210250f6e"},"vehicle_type_id":"4","last_reported":1770824974,"current_range_meters":8800,"station_id":"ce4bhh92rcd13ifvqfj0","pricing_plan_id":"cebpf4jnsgd1na2vs0mg"},{"bike_id":"c1d994da-b33c-4a64-a196-28f0ec7412ca","system_id":"levelo_inurba_marseille","lat":43.31714,"lon":5.43693,"is_reserved":false,"is_disabled":false,"rental_uris":{"android":"levelo://app?vid=c1d994da-b33c-4a64-a196-28f0ec7412ca","ios":"levelo://app?vid=c1d994da-b33c-4a64-a196-28f0ec7412ca"},"vehicle_type_id":"4","last_reported":1770824974,"current_range_meters":8800,"station_id":"ce4bhp92rcd13ifvqhcg","pricing_plan_id":"cebpf4jnsgd1na2vs0mg"},{"bike_id":"eb5f1d63-1c9d-49d2-ab3d-5476389f4562","system_id":"levelo_inurba_marseille","lat":43.29571,"lon":5.37531,"is_reserved":false,"is_disabled":false,"rental_uris":{"android":"levelo://app?vid=eb5f1d63-1c9d-49d2-ab3d-5476389f4562","ios":"levelo://app?vid=eb5f1d63-1c9d-49d2-ab3d-5476389f4562"},"vehicle_type_id":"4","last_reported":1770824974,"current_range_meters":8800,"station_id":"ce4bgh92rcd13ifvqb50","pricing_plan_id":"cebpf4jnsgd1na2vs0mg"},{"bike_id":"e0d740b7-65aa-4938-a344-4a4a5af91841","system_id":"levelo_inurba_marseille","lat":43.27811,"lon":5.40715,"is_reserved":false,"is_disabled":false,"rental_uris":{"android":"levelo://app?vid=e0d740b7-65aa-4938-a344-4a4a5af91841","ios":"levelo://app?vid=e0d740b7-65aa-4938-a344-4a4a5af91841"},"vehicle_type_id":"4","last_reported":1770824974,"current_range_meters":8800,"station_id":"ce4bhnh2rcd13ifvqgtg","pricing_plan_id":"cebpf4jnsgd1na2vs0mg"},{"bike_id":"1eacba2a-a2d9-4061-bef4-aea125e4416f","system_id":"levelo_inurba_marseille","lat":43.29211,"lon":5.35807,"is_reserved":false,"is_disabled":false,"rental_uris":{"android":"levelo://app?vid=1eacba2a-a2d9-4061-bef4-aea125e4416f","ios":"levelo://app?vid=1eacba2a-a2d9-4061-bef4-aea125e4416f"},"vehicle_type_id":"4","last_reported":1770824974,"current_range_meters":8800,"station_id":"ce4bhb12rcd13ifvqel0","pricing_plan_id":"cebpf4jnsgd1na2vs0mg"},{"bike_id":"cc8657f3-cee0-4726-8427-1495a502b0dc","system_id":"levelo_inurba_marseille","lat":43.29774,"lon":5.42776,"is_reserved":false,"is_disabled":false,"rental_uris":{"android":"levelo://app?vid=cc8657f3-cee0-4726-8427-1495a502b0dc","ios":"levelo://app?vid=cc8657f3-cee0-4726-8427-1495a502b0dc"},"vehicle_type_id":"4","last_reported":1770824974,"current_range_meters":8800,"station_id":"st_d3md5207bmas73dh9klg","pricing_plan_id":"cebpf4jnsgd1na2vs0mg"},{"bike_id":"9e3bc487-b0e5-43b2-98b8-caa6f87f206e","system_id":"levelo_inurba_marseille","lat":43.31722,"lon":5.37767,"is_reserved":false,"is_disabled":false,"rental_uris":{"android":"levelo://app?vid=9e3bc487-b0e5-43b2-98b8-caa6f87f206e","ios":"levelo://app?vid=9e3bc487-b0e5-43b2-98b8-caa6f87f206e"},"vehicle_type_id":"4","last_reported":1770824974,"current_range_meters":8800,"station_id":"ce4bgth2rcd13ifvqch0","pricing_plan_id":"cebpf4jnsgd1na2vs0mg"},{"bike_id":"1e4a7842-cd51-4881-b298-8b4cc321effe","system_id":"levelo_inurba_marseille","lat":43.24376,"lon":5.37113,"is_reserved":false,"is_disabled":false,"rental_uris":{"android":"levelo://app?vid=1e4a7842-cd51-4881-b298-8b4cc321effe","ios":"levelo://app?vid=1e4a7842-cd51-4881-b298-8b4cc321effe"},"vehicle_type_id":"4","last_reported":1770824974,"current_range_meters":8800,"station_id":"ce4bhhh2rcd13ifvqfk0","pricing_plan_id":"cebpf4jnsgd1na2vs0mg"},{"bike_id":"9b586055-3525-4e43-ae53-8d6c2fff45ed","system_id":"levelo_inurba_marseille","lat":43.24172,"lon":5.36382,"is_reserved":false,"is_disabled":false,"rental_uris":{"android":"levelo://app?vid=9b586055-3525-4e43-ae53-8d6c2fff45ed","ios":"levelo://app?vid=9b586055-3525-4e43-ae53-8d6c2fff45ed"},"vehicle_type_id":"4","last_reported":1770824974,"current_range_meters":8800,"station_id":"cpo36qri1sfpv3e86is0","pricing_plan_id":"cebpf4jnsgd1na2vs0mg"},{"bike_id":"9f9f1ce6-8d45-4ee0-8cad-bfe35e5f3ca5","system_id":"levelo_inurba_marseille","lat":43.25618,"lon":5.41858,"is_reserved":false,"is_disabled":false,"rental_uris":{"android":"levelo://app?vid=9f9f1ce6-8d45-4ee0-8cad-bfe35e5f3ca5","ios":"levelo://app?vid=9f9f1ce6-8d45-4ee0-8cad-bfe35e5f3ca5"},"vehicle_type_id":"4","last_reported":1770824974,"current_range_meters":8800,"station_id":"","pricing_plan_id":"cebpf4jnsgd1na2vs0mg"},{"bike_id":"6af64e8d-c1ed-42a1-8114-ee5a72327546","system_id":"levelo_inurba_marseille","lat":43.29516,"lon":5.3752,"is_reserved":false,"is_disabled":false,"rental_uris":{"android":"levelo://app?vid=6af64e8d-c1ed-42a1-8114-ee5a72327546","ios":"levelo://app?vid=6af64e8d-c1ed-42a1-8114-ee5a72327546"},"vehicle_type_id":"4","last_reported":1770824974,"current_range_meters":8800,"station_id":"ce4bgkp2rcd13ifvqbmg","pricing_plan_id":"cebpf4jnsgd1na2vs0mg"},{"bike_id":"57245aa8-d3bf-45d4-9b38-6d8d209a9018","system_id":"levelo_inurba_marseille","lat":43.29052,"lon":5.386256,"is_reserved":false,"is_disabled":false,"rental_uris":{"android":"levelo://app?vid=57245aa8-d3bf-45d4-9b38-6d8d209a9018","ios":"levelo://app?vid=57245aa8-d3bf-45d4-9b38-6d8d209a9018"},"vehicle_type_id":"4","last_reported":1770824974,"current_range_meters":8800,"station_id":"ce4bh4p2rcd13ifvqe0g","pricing_plan_id":"cebpf4jnsgd1na2vs0mg"},{"bike_id":"7a2bf39a-c9c5-48a5-b92a-048902bad3dc","system_id":"levelo_inurba_marseille","lat":43.27074,"lon":5.42288,"is_reserved":false,"is_disabled":false,"rental_uris":{"android":"levelo://app?vid=7a2bf39a-c9c5-48a5-b92a-048902bad3dc","ios":"levelo://app?vid=7a2bf39a-c9c5-48a5-b92a-048902bad3dc"},"vehicle_type_id":"4","last_reported":1770824974,"current_range_meters":8800,"station_id":"ce4bhk92rcd13ifvqgb0","pricing_plan_id":"cebpf4jnsgd1na2vs0mg"},{"bike_id":"48e51c2c-d55f-4098-8ec5-eb37bd86ae9a","system_id":"levelo_inurba_marseille","lat":43.28397,"lon":5.38943,"is_reserved":false,"is_disabled":false,"rental_uris":{"android":"levelo://app?vid=48e51c2c-d55f-4098-8ec5-eb37bd86ae9a","ios":"levelo://app?vid=48e51c2c-d55f-4098-8ec5-eb37bd86ae9a"},"vehicle_type_id":"4","last_reported":1770824974,"current_range_meters":8800,"station_id":"","pricing_plan_id":"cebpf4jnsgd1na2vs0mg"},{"bike_id":"bca520ac-7e6b-4132-bbcc-e56181c5620d","system_id":"levelo_inurba_marseille","lat":43.28845,"lon":5.4251,"is_reserved":false,"is_disabled":false,"rental_uris":{"android":"levelo://app?vid=bca520ac-7e6b-4132-bbcc-e56181c5620d","ios":"levelo://app?vid=bca520ac-7e6b-4132-bbcc-e56181c5620d"},"vehicle_type_id":"4","last_reported":1770824974,"current_range_meters":8800,"station_id":"st_d3b462108ojc7389ooeg","pricing_plan_id":"cebpf4jnsgd1na2vs0mg"},{"bike_id":"c32d45ac-8290-4436-8257-2ce11ffca061","system_id":"levelo_inurba_marseille","lat":43.25109,"lon":5.40344,"is_reserved":false,"is_disabled":false,"rental_uris":{"android":"levelo://app?vid=c32d45ac-8290-4436-8257-2ce11ffca061","ios":"levelo://app?vid=c32d45ac-8290-4436-8257-2ce11ffca061"},"vehicle_type_id":"4","last_reported":1770824974,"current_range_meters":9200,"station_id":"ce4bhlh2rcd13ifvqgig","pricing_plan_id":"cebpf4jnsgd1na2vs0mg"},{"bike_id":"f80528f9-6bb1-4b22-a63c-5e57ad403fb2","system_id":"levelo_inurba_marseille","lat":43.24664,"lon":5.38161,"is_reserved":false,"is_disabled":false,"rental_uris":{"android":"levelo://app?vid=f80528f9-6bb1-4b22-a63c-5e57ad403fb2","ios":"levelo://app?vid=f80528f9-6bb1-4b22-a63c-5e57ad403fb2"},"vehicle_type_id":"4","last_reported":1770824974,"current_range_meters":9200,"station_id":"ce4bhih2rcd13ifvqfr0","pricing_plan_id":"cebpf4jnsgd1na2vs0mg"},{"bike_id":"406b8143-680c-411e-8da6-8818c609b259","system_id":"levelo_inurba_marseille","lat":43.22931,"lon":5.35384,"is_reserved":false,"is_disabled":false,"rental_uris":{"android":"levelo://app?vid=406b8143-680c-411e-8da6-8818c609b259","ios":"levelo://app?vid=406b8143-680c-411e-8da6-8818c609b259"},"vehicle_type_id":"4","last_reported":1770824974,"current_range_meters":9200,"station_id":"cpo3532slgdg3j2ikp40","pricing_plan_id":"cebpf4jnsgd1na2vs0mg"},{"bike_id":"abb916b3-74af-4c17-94d0-fe9eafd044ff","system_id":"levelo_inurba_marseille","lat":43.29579,"lon":5.37497,"is_reserved":false,"is_disabled":false,"rental_uris":{"android":"levelo://app?vid=abb916b3-74af-4c17-94d0-fe9eafd044ff","ios":"levelo://app?vid=abb916b3-74af-4c17-94d0-fe9eafd044ff"},"vehicle_type_id":"4","last_reported":1770824974,"current_range_meters":9200,"station_id":"ce4bgh92rcd13ifvqb50","pricing_plan_id":"cebpf4jnsgd1na2vs0mg"},{"bike_id":"d6ac2655-5d13-492c-96b2-0753705b3ccf","system_id":"levelo_inurba_marseille","lat":43.3012,"lon":5.37407,"is_reserved":false,"is_disabled":false,"rental_uris":{"android":"levelo://app?vid=d6ac2655-5d13-492c-96b2-0753705b3ccf","ios":"levelo://app?vid=d6ac2655-5d13-492c-96b2-0753705b3ccf"},"vehicle_type_id":"4","last_reported":1770824974,"current_range_meters":9200,"station_id":"ce4bgs92rcd13ifvqcc0","pricing_plan_id":"cebpf4jnsgd1na2vs0mg"},{"bike_id":"46208456-3d25-40ee-b9a7-585c2eb9e61c","system_id":"levelo_inurba_marseille","lat":43.30923,"lon":5.4013,"is_reserved":false,"is_disabled":false,"rental_uris":{"android":"levelo://app?vid=46208456-3d25-40ee-b9a7-585c2eb9e61c","ios":"levelo://app?vid=46208456-3d25-40ee-b9a7-585c2eb9e61c"},"vehicle_type_id":"4","last_reported":1770824974,"current_range_meters":9200,"station_id":"ce4bgvp2rcd13ifvqct0","pricing_plan_id":"cebpf4jnsgd1na2vs0mg"},{"bike_id":"cb9be5fc-0f8f-4012-b222-62b158765b42","system_id":"levelo_inurba_marseille","lat":43.2294,"lon":5.3538,"is_reserved":false,"is_disabled":false,"rental_uris":{"android":"levelo://app?vid=cb9be5fc-0f8f-4012-b222-62b158765b42","ios":"levelo://app?vid=cb9be5fc-0f8f-4012-b222-62b158765b42"},"vehicle_type_id":"4","last_reported":1770824974,"current_range_meters":9200,"station_id":"cpo3532slgdg3j2ikp40","pricing_plan_id":"cebpf4jnsgd1na2vs0mg"},{"bike_id":"cb69b0bb-dc73-4273-8222-ebae34fa9425","system_id":"levelo_inurba_marseille","lat":43.2696,"lon":5.38633,"is_reserved":false,"is_disabled":false,"rental_uris":{"android":"levelo://app?vid=cb69b0bb-dc73-4273-8222-ebae34fa9425","ios":"levelo://app?vid=cb69b0bb-dc73-4273-8222-ebae34fa9425"},"vehicle_type_id":"4","last_reported":1770824974,"current_range_meters":9200,"station_id":"ce4bhh92rcd13ifvqfh0","pricing_plan_id":"cebpf4jnsgd1na2vs0mg"},{"bike_id":"8b4b38ac-f6cb-48ed-90a4-30149ea67fd7","system_id":"levelo_inurba_marseille","lat":43.29047,"lon":5.401847,"is_reserved":false,"is_disabled":false,"rental_uris":{"android":"levelo://app?vid=8b4b38ac-f6cb-48ed-90a4-30149ea67fd7","ios":"levelo://app?vid=8b4b38ac-f6cb-48ed-90a4-30149ea67fd7"},"vehicle_type_id":"4","last_reported":1770824974,"current_range_meters":9200,"station_id":"","pricing_plan_id":"cebpf4jnsgd1na2vs0mg"},{"bike_id":"c66db0ad-2c7f-4464-999e-e8465fece01c","system_id":"levelo_inurba_marseille","lat":43.26934,"lon":5.38983,"is_reserved":false,"is_disabled":false,"rental_uris":{"android":"levelo://app?vid=c66db0ad-2c7f-4464-999e-e8465fece01c","ios":"levelo://app?vid=c66db0ad-2c7f-4464-999e-e8465fece01c"},"vehicle_type_id":"4","last_reported":1770824974,"current_range_meters":9200,"station_id":"ce4bhhh2rcd13ifvqfl0","pricing_plan_id":"cebpf4jnsgd1na2vs0mg"},{"bike_id":"a444677b-f760-475f-b1cf-4e7fc39a990b","system_id":"levelo_inurba_marseille","lat":43.30142,"lon":5.37403,"is_reserved":false,"is_disabled":false,"rental_uris":{"android":"levelo://app?vid=a444677b-f760-475f-b1cf-4e7fc39a990b","ios":"levelo://app?vid=a444677b-f760-475f-b1cf-4e7fc39a990b"},"vehicle_type_id":"4","last_reported":1770824974,"current_range_meters":9200,"station_id":"ce4bgs92rcd13ifvqcc0","pricing_plan_id":"cebpf4jnsgd1na2vs0mg"},{"bike_id":"3ff269f3-454e-44c3-85ac-a8d5a2ccc1f0","system_id":"levelo_inurba_marseille","lat":43.27694,"lon":5.38869,"is_reserved":false,"is_disabled":false,"rental_uris":{"android":"levelo://app?vid=3ff269f3-454e-44c3-85ac-a8d5a2ccc1f0","ios":"levelo://app?vid=3ff269f3-454e-44c3-85ac-a8d5a2ccc1f0"},"vehicle_type_id":"4","last_reported":1770824974,"current_range_meters":9600,"station_id":"ce4bhi12rcd13ifvqfo0","pricing_plan_id":"cebpf4jnsgd1na2vs0mg"},{"bike_id":"59624936-7916-41fd-ae1c-a77a4adb46d4","system_id":"levelo_inurba_marseille","lat":43.274939,"lon":5.424647,"is_reserved":false,"is_disabled":false,"rental_uris":{"android":"levelo://app?vid=59624936-7916-41fd-ae1c-a77a4adb46d4","ios":"levelo://app?vid=59624936-7916-41fd-ae1c-a77a4adb46d4"},"vehicle_type_id":"4","last_reported":1770824974,"current_range_meters":9600,"station_id":"ce4bhn92rcd13ifvqgrg","pricing_plan_id":"cebpf4jnsgd1na2vs0mg"},{"bike_id":"adedccca-d77d-4967-91ed-2661b5b510ba","system_id":"levelo_inurba_marseille","lat":43.22541,"lon":5.41644,"is_reserved":false,"is_disabled":false,"rental_uris":{"android":"levelo://app?vid=adedccca-d77d-4967-91ed-2661b5b510ba","ios":"levelo://app?vid=adedccca-d77d-4967-91ed-2661b5b510ba"},"vehicle_type_id":"4","last_reported":1770824974,"current_range_meters":9600,"station_id":"st_d2o4gvlbi1j2169b742g","pricing_plan_id":"cebpf4jnsgd1na2vs0mg"},{"bike_id":"5068638c-4d4f-48b9-94c9-8b2df037c592","system_id":"levelo_inurba_marseille","lat":43.31264,"lon":5.38509,"is_reserved":false,"is_disabled":false,"rental_uris":{"android":"levelo://app?vid=5068638c-4d4f-48b9-94c9-8b2df037c592","ios":"levelo://app?vid=5068638c-4d4f-48b9-94c9-8b2df037c592"},"vehicle_type_id":"4","last_reported":1770824974,"current_range_meters":9600,"station_id":"","pricing_plan_id":"cebpf4jnsgd1na2vs0mg"},{"bike_id":"9ba15159-bc8a-46ec-906b-7f7ba3003728","system_id":"levelo_inurba_marseille","lat":43.25945,"lon":5.40901,"is_reserved":false,"is_disabled":false,"rental_uris":{"android":"levelo://app?vid=9ba15159-bc8a-46ec-906b-7f7ba3003728","ios":"levelo://app?vid=9ba15159-bc8a-46ec-906b-7f7ba3003728"},"vehicle_type_id":"4","last_reported":1770824974,"current_range_meters":9600,"station_id":"ce4bhm92rcd13ifvqglg","pricing_plan_id":"cebpf4jnsgd1na2vs0mg"},{"bike_id":"f8c2a03c-396c-4124-8d60-3ab09acdd809","system_id":"levelo_inurba_marseille","lat":43.24946,"lon":5.40501,"is_reserved":false,"is_disabled":false,"rental_uris":{"android":"levelo://app?vid=f8c2a03c-396c-4124-8d60-3ab09acdd809","ios":"levelo://app?vid=f8c2a03c-396c-4124-8d60-3ab09acdd809"},"vehicle_type_id":"4","last_reported":1770824974,"current_range_meters":9600,"station_id":"st_d2ngiaodas8pm72gd1h0","pricing_plan_id":"cebpf4jnsgd1na2vs0mg"},{"bike_id":"60fbe695-1590-4d4e-9f79-8ee300fe75b7","system_id":"levelo_inurba_marseille","lat":43.29292,"lon":5.37166,"is_reserved":false,"is_disabled":false,"rental_uris":{"android":"levelo://app?vid=60fbe695-1590-4d4e-9f79-8ee300fe75b7","ios":"levelo://app?vid=60fbe695-1590-4d4e-9f79-8ee300fe75b7"},"vehicle_type_id":"4","last_reported":1770824974,"current_range_meters":9600,"station_id":"ce4bgh92rcd13ifvqb40","pricing_plan_id":"cebpf4jnsgd1na2vs0mg"},{"bike_id":"b3f50f5e-8ed4-4677-9589-55a9e6784359","system_id":"levelo_inurba_marseille","lat":43.30266,"lon":5.37689,"is_reserved":false,"is_disabled":false,"rental_uris":{"android":"levelo://app?vid=b3f50f5e-8ed4-4677-9589-55a9e6784359","ios":"levelo://app?vid=b3f50f5e-8ed4-4677-9589-55a9e6784359"},"vehicle_type_id":"4","last_reported":1770824974,"current_range_meters":9600,"station_id":"ce4bguh2rcd13ifvqcj0","pricing_plan_id":"cebpf4jnsgd1na2vs0mg"},{"bike_id":"03e3cdf9-ea7b-4dff-8a0c-0fc0d6e2d603","system_id":"levelo_inurba_marseille","lat":43.25932,"lon":5.40916,"is_reserved":false,"is_disabled":false,"rental_uris":{"android":"levelo://app?vid=03e3cdf9-ea7b-4dff-8a0c-0fc0d6e2d603","ios":"levelo://app?vid=03e3cdf9-ea7b-4dff-8a0c-0fc0d6e2d603"},"vehicle_type_id":"4","last_reported":1770824974,"current_range_meters":9600,"station_id":"ce4bhm92rcd13ifvqglg","pricing_plan_id":"cebpf4jnsgd1na2vs0mg"},{"bike_id":"31a7a706-1ff4-486d-b0ea-aa0afb881a3f","system_id":"levelo_inurba_marseille","lat":43.31068,"lon":5.38485,"is_reserved":false,"is_disabled":false,"rental_uris":{"android":"levelo://app?vid=31a7a706-1ff4-486d-b0ea-aa0afb881a3f","ios":"levelo://app?vid=31a7a706-1ff4-486d-b0ea-aa0afb881a3f"},"vehicle_type_id":"4","last_reported":1770824974,"current_range_meters":9600,"station_id":"","pricing_plan_id":"cebpf4jnsgd1na2vs0mg"},{"bike_id":"a54ee430-8d06-4c3a-9dd9-33db04f11730","system_id":"levelo_inurba_marseille","lat":43.31167,"lon":5.38698,"is_reserved":false,"is_disabled":false,"rental_uris":{"android":"levelo://app?vid=a54ee430-8d06-4c3a-9dd9-33db04f11730","ios":"levelo://app?vid=a54ee430-8d06-4c3a-9dd9-33db04f11730"},"vehicle_type_id":"4","last_reported":1770824974,"current_range_meters":9600,"station_id":"ce4bgv12rcd13ifvqcp0","pricing_plan_id":"cebpf4jnsgd1na2vs0mg"},{"bike_id":"f362741c-cfbf-4a97-ab40-82bd67ef151c","system_id":"levelo_inurba_marseille","lat":43.275655,"lon":5.384229,"is_reserved":false,"is_disabled":false,"rental_uris":{"android":"levelo://app?vid=f362741c-cfbf-4a97-ab40-82bd67ef151c","ios":"levelo://app?vid=f362741c-cfbf-4a97-ab40-82bd67ef151c"},"vehicle_type_id":"4","last_reported":1770824974,"current_range_meters":9600,"station_id":"ce4bhh92rcd13ifvqfi0","pricing_plan_id":"cebpf4jnsgd1na2vs0mg"},{"bike_id":"9e393b97-50a6-42b0-ae35-8d36ff1f9030","system_id":"levelo_inurba_marseille","lat":43.26374,"lon":5.410649,"is_reserved":false,"is_disabled":false,"rental_uris":{"android":"levelo://app?vid=9e393b97-50a6-42b0-ae35-8d36ff1f9030","ios":"levelo://app?vid=9e393b97-50a6-42b0-ae35-8d36ff1f9030"},"vehicle_type_id":"4","last_reported":1770824974,"current_range_meters":10000,"station_id":"st_d4e5ca6na9uc73bfl5fg","pricing_plan_id":"cebpf4jnsgd1na2vs0mg"},{"bike_id":"bdcba08d-2ba0-4b88-b434-787b64331ca7","system_id":"levelo_inurba_marseille","lat":43.31165,"lon":5.38714,"is_reserved":false,"is_disabled":false,"rental_uris":{"android":"levelo://app?vid=bdcba08d-2ba0-4b88-b434-787b64331ca7","ios":"levelo://app?vid=bdcba08d-2ba0-4b88-b434-787b64331ca7"},"vehicle_type_id":"4","last_reported":1770824974,"current_range_meters":10000,"station_id":"ce4bgv12rcd13ifvqcp0","pricing_plan_id":"cebpf4jnsgd1na2vs0mg"},{"bike_id":"97914c26-4c50-432a-8476-ffd5d8f9b649","system_id":"levelo_inurba_marseille","lat":43.29573,"lon":5.37526,"is_reserved":false,"is_disabled":false,"rental_uris":{"android":"levelo://app?vid=97914c26-4c50-432a-8476-ffd5d8f9b649","ios":"levelo://app?vid=97914c26-4c50-432a-8476-ffd5d8f9b649"},"vehicle_type_id":"4","last_reported":1770824974,"current_range_meters":10000,"station_id":"ce4bgh92rcd13ifvqb50","pricing_plan_id":"cebpf4jnsgd1na2vs0mg"},{"bike_id":"14f61e44-8496-49e1-8819-a0328677c7db","system_id":"levelo_inurba_marseille","lat":43.24961,"lon":5.404888,"is_reserved":false,"is_disabled":false,"rental_uris":{"android":"levelo://app?vid=14f61e44-8496-49e1-8819-a0328677c7db","ios":"levelo://app?vid=14f61e44-8496-49e1-8819-a0328677c7db"},"vehicle_type_id":"4","last_reported":1770824974,"current_range_meters":10000,"station_id":"st_d2ngiaodas8pm72gd1h0","pricing_plan_id":"cebpf4jnsgd1na2vs0mg"},{"bike_id":"78b354ef-7d04-49b5-887b-5c40969538d4","system_id":"levelo_inurba_marseille","lat":43.2316,"lon":5.43698,"is_reserved":false,"is_disabled":false,"rental_uris":{"android":"levelo://app?vid=78b354ef-7d04-49b5-887b-5c40969538d4","ios":"levelo://app?vid=78b354ef-7d04-49b5-887b-5c40969538d4"},"vehicle_type_id":"4","last_reported":1770824974,"current_range_meters":10000,"station_id":"ce4bhmp2rcd13ifvqgog","pricing_plan_id":"cebpf4jnsgd1na2vs0mg"},{"bike_id":"cddf23b4-a831-48c0-83d2-6935cffd36e9","system_id":"levelo_inurba_marseille","lat":43.2604,"lon":5.37541,"is_reserved":false,"is_disabled":false,"rental_uris":{"android":"levelo://app?vid=cddf23b4-a831-48c0-83d2-6935cffd36e9","ios":"levelo://app?vid=cddf23b4-a831-48c0-83d2-6935cffd36e9"},"vehicle_type_id":"4","last_reported":1770824974,"current_range_meters":10000,"station_id":"ce4bhgh2rcd13ifvqfa0","pricing_plan_id":"cebpf4jnsgd1na2vs0mg"},{"bike_id":"048b85e1-5a53-4c85-9711-e9625c85da14","system_id":"levelo_inurba_marseille","lat":43.296179,"lon":5.377155,"is_reserved":false,"is_disabled":false,"rental_uris":{"android":"levelo://app?vid=048b85e1-5a53-4c85-9711-e9625c85da14","ios":"levelo://app?vid=048b85e1-5a53-4c85-9711-e9625c85da14"},"vehicle_type_id":"4","last_reported":1770824974,"current_range_meters":10000,"station_id":"ce4bgi92rcd13ifvqb90","pricing_plan_id":"cebpf4jnsgd1na2vs0mg"},{"bike_id":"b3b1cfa9-06d9-4251-9ec7-9fecdb5ce4ba","system_id":"levelo_inurba_marseille","lat":43.31188,"lon":5.39051,"is_reserved":false,"is_disabled":false,"rental_uris":{"android":"levelo://app?vid=b3b1cfa9-06d9-4251-9ec7-9fecdb5ce4ba","ios":"levelo://app?vid=b3b1cfa9-06d9-4251-9ec7-9fecdb5ce4ba"},"vehicle_type_id":"4","last_reported":1770824974,"current_range_meters":10000,"station_id":"","pricing_plan_id":"cebpf4jnsgd1na2vs0mg"},{"bike_id":"d98f09ff-8b59-4519-baee-c61bc86adc1e","system_id":"levelo_inurba_marseille","lat":43.29488,"lon":5.43298,"is_reserved":false,"is_disabled":false,"rental_uris":{"android":"levelo://app?vid=d98f09ff-8b59-4519-baee-c61bc86adc1e","ios":"levelo://app?vid=d98f09ff-8b59-4519-baee-c61bc86adc1e"},"vehicle_type_id":"4","last_reported":1770824974,"current_range_meters":10000,"station_id":"st_d3j5ugp08ojc73fj9d10","pricing_plan_id":"cebpf4jnsgd1na2vs0mg"},{"bike_id":"2209ef8d-bd27-438f-86b3-f981234cb150","system_id":"levelo_inurba_marseille","lat":43.309147,"lon":5.3685,"is_reserved":false,"is_disabled":false,"rental_uris":{"android":"levelo://app?vid=2209ef8d-bd27-438f-86b3-f981234cb150","ios":"levelo://app?vid=2209ef8d-bd27-438f-86b3-f981234cb150"},"vehicle_type_id":"4","last_reported":1770824974,"current_range_meters":10000,"station_id":"ce4bgn92rcd13ifvqbvg","pricing_plan_id":"cebpf4jnsgd1na2vs0mg"},{"bike_id":"464590f7-013f-45c9-96ea-74fca7d439b2","system_id":"levelo_inurba_marseille","lat":43.30525,"lon":5.36889,"is_reserved":false,"is_disabled":false,"rental_uris":{"android":"levelo://app?vid=464590f7-013f-45c9-96ea-74fca7d439b2","ios":"levelo://app?vid=464590f7-013f-45c9-96ea-74fca7d439b2"},"vehicle_type_id":"4","last_reported":1770824974,"current_range_meters":10000,"station_id":"","pricing_plan_id":"cebpf4jnsgd1na2vs0mg"},{"bike_id":"5ecdca59-da81-4119-a256-c37296e94b7b","system_id":"levelo_inurba_marseille","lat":43.29503,"lon":5.433,"is_reserved":false,"is_disabled":false,"rental_uris":{"android":"levelo://app?vid=5ecdca59-da81-4119-a256-c37296e94b7b","ios":"levelo://app?vid=5ecdca59-da81-4119-a256-c37296e94b7b"},"vehicle_type_id":"4","last_reported":1770824974,"current_range_meters":10000,"station_id":"st_d3j5ugp08ojc73fj9d10","pricing_plan_id":"cebpf4jnsgd1na2vs0mg"},{"bike_id":"96932ba1-cd7c-4641-96e9-577dfe7c6958","system_id":"levelo_inurba_marseille","lat":43.30501,"lon":5.36724,"is_reserved":false,"is_disabled":false,"rental_uris":{"android":"levelo://app?vid=96932ba1-cd7c-4641-96e9-577dfe7c6958","ios":"levelo://app?vid=96932ba1-cd7c-4641-96e9-577dfe7c6958"},"vehicle_type_id":"4","last_reported":1770824974,"current_range_meters":10000,"station_id":"ce4bgrp2rcd13ifvqc9g","pricing_plan_id":"cebpf4jnsgd1na2vs0mg"},{"bike_id":"7445ea4f-ba53-4bae-ba57-cea702dae189","system_id":"levelo_inurba_marseille","lat":43.30935,"lon":5.3686,"is_reserved":false,"is_disabled":false,"rental_uris":{"android":"levelo://app?vid=7445ea4f-ba53-4bae-ba57-cea702dae189","ios":"levelo://app?vid=7445ea4f-ba53-4bae-ba57-cea702dae189"},"vehicle_type_id":"4","last_reported":1770824974,"current_range_meters":10000,"station_id":"ce4bgn92rcd13ifvqbvg","pricing_plan_id":"cebpf4jnsgd1na2vs0mg"},{"bike_id":"94dc121d-32fd-4e14-af9e-c88878a4511c","system_id":"levelo_inurba_marseille","lat":43.29522,"lon":5.38523,"is_reserved":false,"is_disabled":false,"rental_uris":{"android":"levelo://app?vid=94dc121d-32fd-4e14-af9e-c88878a4511c","ios":"levelo://app?vid=94dc121d-32fd-4e14-af9e-c88878a4511c"},"vehicle_type_id":"4","last_reported":1770824974,"current_range_meters":10000,"station_id":"ce4bgih2rcd13ifvqba0","pricing_plan_id":"cebpf4jnsgd1na2vs0mg"},{"bike_id":"1666b265-643d-41e7-bcc3-6167a6d49f91","system_id":"levelo_inurba_marseille","lat":43.22542,"lon":5.34828,"is_reserved":false,"is_disabled":false,"rental_uris":{"android":"levelo://app?vid=1666b265-643d-41e7-bcc3-6167a6d49f91","ios":"levelo://app?vid=1666b265-643d-41e7-bcc3-6167a6d49f91"},"vehicle_type_id":"4","last_reported":1770824974,"current_range_meters":10800,"station_id":"","pricing_plan_id":"cebpf4jnsgd1na2vs0mg"},{"bike_id":"e42620f4-183e-485a-af88-c36a22e64d51","system_id":"levelo_inurba_marseille","lat":43.23194,"lon":5.39976,"is_reserved":false,"is_disabled":false,"rental_uris":{"android":"levelo://app?vid=e42620f4-183e-485a-af88-c36a22e64d51","ios":"levelo://app?vid=e42620f4-183e-485a-af88-c36a22e64d51"},"vehicle_type_id":"4","last_reported":1770824974,"current_range_meters":10800,"station_id":"ce4bhn12rcd13ifvqgqg","pricing_plan_id":"cebpf4jnsgd1na2vs0mg"},{"bike_id":"a84af548-128a-475d-8cc1-ec45d03ba369","system_id":"levelo_inurba_marseille","lat":43.292778,"lon":5.401144,"is_reserved":false,"is_disabled":false,"rental_uris":{"android":"levelo://app?vid=a84af548-128a-475d-8cc1-ec45d03ba369","ios":"levelo://app?vid=a84af548-128a-475d-8cc1-ec45d03ba369"},"vehicle_type_id":"4","last_reported":1770824974,"current_range_meters":10800,"station_id":"ce4bh312rcd13ifvqdk0","pricing_plan_id":"cebpf4jnsgd1na2vs0mg"},{"bike_id":"bb6faa0c-4182-45af-b174-e42f3eae8837","system_id":"levelo_inurba_marseille","lat":43.24648,"lon":5.38891,"is_reserved":false,"is_disabled":false,"rental_uris":{"android":"levelo://app?vid=bb6faa0c-4182-45af-b174-e42f3eae8837","ios":"levelo://app?vid=bb6faa0c-4182-45af-b174-e42f3eae8837"},"vehicle_type_id":"4","last_reported":1770824974,"current_range_meters":10800,"station_id":"ce4bhg12rcd13ifvqf60","pricing_plan_id":"cebpf4jnsgd1na2vs0mg"},{"bike_id":"57c7335a-6e31-409f-9d2c-42a2b3f19b20","system_id":"levelo_inurba_marseille","lat":43.31034,"lon":5.37164,"is_reserved":false,"is_disabled":false,"rental_uris":{"android":"levelo://app?vid=57c7335a-6e31-409f-9d2c-42a2b3f19b20","ios":"levelo://app?vid=57c7335a-6e31-409f-9d2c-42a2b3f19b20"},"vehicle_type_id":"4","last_reported":1770824974,"current_range_meters":10800,"station_id":"st_d4kl2rp97mjs73e7tdfg","pricing_plan_id":"cebpf4jnsgd1na2vs0mg"},{"bike_id":"8f3a9ea3-3d5f-4beb-8e6c-40222b0c90d4","system_id":"levelo_inurba_marseille","lat":43.28353,"lon":5.35333,"is_reserved":false,"is_disabled":false,"rental_uris":{"android":"levelo://app?vid=8f3a9ea3-3d5f-4beb-8e6c-40222b0c90d4","ios":"levelo://app?vid=8f3a9ea3-3d5f-4beb-8e6c-40222b0c90d4"},"vehicle_type_id":"4","last_reported":1770824974,"current_range_meters":10800,"station_id":"","pricing_plan_id":"cebpf4jnsgd1na2vs0mg"},{"bike_id":"6ba9185d-71ad-4e8b-a126-8907666795b8","system_id":"levelo_inurba_marseille","lat":43.265641,"lon":5.372926,"is_reserved":false,"is_disabled":false,"rental_uris":{"android":"levelo://app?vid=6ba9185d-71ad-4e8b-a126-8907666795b8","ios":"levelo://app?vid=6ba9185d-71ad-4e8b-a126-8907666795b8"},"vehicle_type_id":"4","last_reported":1770824974,"current_range_meters":10800,"station_id":"ce4bhg12rcd13ifvqf70","pricing_plan_id":"cebpf4jnsgd1na2vs0mg"},{"bike_id":"a6a2abc2-13d8-4c9a-b978-8487fe9fcbf5","system_id":"levelo_inurba_marseille","lat":43.25856,"lon":5.39403,"is_reserved":false,"is_disabled":false,"rental_uris":{"android":"levelo://app?vid=a6a2abc2-13d8-4c9a-b978-8487fe9fcbf5","ios":"levelo://app?vid=a6a2abc2-13d8-4c9a-b978-8487fe9fcbf5"},"vehicle_type_id":"4","last_reported":1770824974,"current_range_meters":10800,"station_id":"ce4bhip2rcd13ifvqft0","pricing_plan_id":"cebpf4jnsgd1na2vs0mg"},{"bike_id":"b112456f-204f-4ffb-9c24-da9ed4432c9f","system_id":"levelo_inurba_marseille","lat":43.279474,"lon":5.410477,"is_reserved":false,"is_disabled":false,"rental_uris":{"android":"levelo://app?vid=b112456f-204f-4ffb-9c24-da9ed4432c9f","ios":"levelo://app?vid=b112456f-204f-4ffb-9c24-da9ed4432c9f"},"vehicle_type_id":"4","last_reported":1770824974,"current_range_meters":10800,"station_id":"ce4bhnp2rcd13ifvqh0g","pricing_plan_id":"cebpf4jnsgd1na2vs0mg"},{"bike_id":"820102d8-4bf3-43d0-bf33-9724fbbf610e","system_id":"levelo_inurba_marseille","lat":43.28152,"lon":5.42639,"is_reserved":false,"is_disabled":false,"rental_uris":{"android":"levelo://app?vid=820102d8-4bf3-43d0-bf33-9724fbbf610e","ios":"levelo://app?vid=820102d8-4bf3-43d0-bf33-9724fbbf610e"},"vehicle_type_id":"4","last_reported":1770824974,"current_range_meters":10800,"station_id":"ce4bhnh2rcd13ifvqgug","pricing_plan_id":"cebpf4jnsgd1na2vs0mg"},{"bike_id":"f5dfc69a-605e-4870-9f15-288a758bb79e","system_id":"levelo_inurba_marseille","lat":43.2976,"lon":5.42786,"is_reserved":false,"is_disabled":false,"rental_uris":{"android":"levelo://app?vid=f5dfc69a-605e-4870-9f15-288a758bb79e","ios":"levelo://app?vid=f5dfc69a-605e-4870-9f15-288a758bb79e"},"vehicle_type_id":"4","last_reported":1770824974,"current_range_meters":10800,"station_id":"st_d3md5207bmas73dh9klg","pricing_plan_id":"cebpf4jnsgd1na2vs0mg"},{"bike_id":"2f1bbf1c-d797-43b7-9e60-86921d585ff7","system_id":"levelo_inurba_marseille","lat":43.28113,"lon":5.37816,"is_reserved":false,"is_disabled":false,"rental_uris":{"android":"levelo://app?vid=2f1bbf1c-d797-43b7-9e60-86921d585ff7","ios":"levelo://app?vid=2f1bbf1c-d797-43b7-9e60-86921d585ff7"},"vehicle_type_id":"4","last_reported":1770824974,"current_range_meters":10800,"station_id":"ce4bha12rcd13ifvqee0","pricing_plan_id":"cebpf4jnsgd1na2vs0mg"},{"bike_id":"0bd0023f-da6b-4c9a-8898-a505f61d5f0d","system_id":"levelo_inurba_marseille","lat":43.25866,"lon":5.39901,"is_reserved":false,"is_disabled":false,"rental_uris":{"android":"levelo://app?vid=0bd0023f-da6b-4c9a-8898-a505f61d5f0d","ios":"levelo://app?vid=0bd0023f-da6b-4c9a-8898-a505f61d5f0d"},"vehicle_type_id":"4","last_reported":1770824974,"current_range_meters":10800,"station_id":"ce4bhl92rcd13ifvqghg","pricing_plan_id":"cebpf4jnsgd1na2vs0mg"},{"bike_id":"86e1d4c5-f0d5-4ac9-a3b4-b01be4b40ffe","system_id":"levelo_inurba_marseille","lat":43.26545,"lon":5.37299,"is_reserved":false,"is_disabled":false,"rental_uris":{"android":"levelo://app?vid=86e1d4c5-f0d5-4ac9-a3b4-b01be4b40ffe","ios":"levelo://app?vid=86e1d4c5-f0d5-4ac9-a3b4-b01be4b40ffe"},"vehicle_type_id":"4","last_reported":1770824974,"current_range_meters":10800,"station_id":"ce4bhg12rcd13ifvqf70","pricing_plan_id":"cebpf4jnsgd1na2vs0mg"},{"bike_id":"46795c32-d155-4823-a0f3-872b06d1e11d","system_id":"levelo_inurba_marseille","lat":43.21743,"lon":5.34594,"is_reserved":false,"is_disabled":false,"rental_uris":{"android":"levelo://app?vid=46795c32-d155-4823-a0f3-872b06d1e11d","ios":"levelo://app?vid=46795c32-d155-4823-a0f3-872b06d1e11d"},"vehicle_type_id":"4","last_reported":1770824974,"current_range_meters":10800,"station_id":"","pricing_plan_id":"cebpf4jnsgd1na2vs0mg"},{"bike_id":"b7bf7d7f-c31e-4fa8-b03c-85d565332666","system_id":"levelo_inurba_marseille","lat":43.29528,"lon":5.38542,"is_reserved":false,"is_disabled":false,"rental_uris":{"android":"levelo://app?vid=b7bf7d7f-c31e-4fa8-b03c-85d565332666","ios":"levelo://app?vid=b7bf7d7f-c31e-4fa8-b03c-85d565332666"},"vehicle_type_id":"4","last_reported":1770824974,"current_range_meters":10800,"station_id":"ce4bgih2rcd13ifvqba0","pricing_plan_id":"cebpf4jnsgd1na2vs0mg"},{"bike_id":"5f6ae4c8-a7cd-4f3b-9adf-671bbd618c70","system_id":"levelo_inurba_marseille","lat":43.255729,"lon":5.382466,"is_reserved":false,"is_disabled":false,"rental_uris":{"android":"levelo://app?vid=5f6ae4c8-a7cd-4f3b-9adf-671bbd618c70","ios":"levelo://app?vid=5f6ae4c8-a7cd-4f3b-9adf-671bbd618c70"},"vehicle_type_id":"4","last_reported":1770824974,"current_range_meters":11200,"station_id":"ce4bhih2rcd13ifvqfs0","pricing_plan_id":"cebpf4jnsgd1na2vs0mg"},{"bike_id":"39ae4df6-4f49-47cf-9236-8d7aa73e74b5","system_id":"levelo_inurba_marseille","lat":43.23147,"lon":5.43723,"is_reserved":false,"is_disabled":false,"rental_uris":{"android":"levelo://app?vid=39ae4df6-4f49-47cf-9236-8d7aa73e74b5","ios":"levelo://app?vid=39ae4df6-4f49-47cf-9236-8d7aa73e74b5"},"vehicle_type_id":"4","last_reported":1770824974,"current_range_meters":11200,"station_id":"ce4bhmp2rcd13ifvqgog","pricing_plan_id":"cebpf4jnsgd1na2vs0mg"},{"bike_id":"73022bc6-390d-4043-a19d-d1ca32a8b2f8","system_id":"levelo_inurba_marseille","lat":43.25333,"lon":5.42155,"is_reserved":false,"is_disabled":false,"rental_uris":{"android":"levelo://app?vid=73022bc6-390d-4043-a19d-d1ca32a8b2f8","ios":"levelo://app?vid=73022bc6-390d-4043-a19d-d1ca32a8b2f8"},"vehicle_type_id":"4","last_reported":1770824974,"current_range_meters":11200,"station_id":"st_d2m65c5bi1j21697t3ng","pricing_plan_id":"cebpf4jnsgd1na2vs0mg"},{"bike_id":"e61f8348-ac76-4cea-92f8-334c0273949b","system_id":"levelo_inurba_marseille","lat":43.24632,"lon":5.431477,"is_reserved":false,"is_disabled":false,"rental_uris":{"android":"levelo://app?vid=e61f8348-ac76-4cea-92f8-334c0273949b","ios":"levelo://app?vid=e61f8348-ac76-4cea-92f8-334c0273949b"},"vehicle_type_id":"4","last_reported":1770824974,"current_range_meters":11200,"station_id":"st_d2m6c4gdas8pm72e190g","pricing_plan_id":"cebpf4jnsgd1na2vs0mg"},{"bike_id":"ee3e7b52-b948-428d-848e-2ec63c95f748","system_id":"levelo_inurba_marseille","lat":43.29977,"lon":5.38484,"is_reserved":false,"is_disabled":false,"rental_uris":{"android":"levelo://app?vid=ee3e7b52-b948-428d-848e-2ec63c95f748","ios":"levelo://app?vid=ee3e7b52-b948-428d-848e-2ec63c95f748"},"vehicle_type_id":"4","last_reported":1770824974,"current_range_meters":11200,"station_id":"ce4bgj92rcd13ifvqbd0","pricing_plan_id":"cebpf4jnsgd1na2vs0mg"},{"bike_id":"55fe947a-0d30-4c28-8bdf-0c4b751ac7a3","system_id":"levelo_inurba_marseille","lat":43.29928,"lon":5.38143,"is_reserved":false,"is_disabled":false,"rental_uris":{"android":"levelo://app?vid=55fe947a-0d30-4c28-8bdf-0c4b751ac7a3","ios":"levelo://app?vid=55fe947a-0d30-4c28-8bdf-0c4b751ac7a3"},"vehicle_type_id":"4","last_reported":1770824974,"current_range_meters":11200,"station_id":"ce4bgj12rcd13ifvqbc0","pricing_plan_id":"cebpf4jnsgd1na2vs0mg"},{"bike_id":"3cc7a217-8a5d-4f0d-a2f6-cc9421ef843b","system_id":"levelo_inurba_marseille","lat":43.245378,"lon":5.3952,"is_reserved":false,"is_disabled":false,"rental_uris":{"android":"levelo://app?vid=3cc7a217-8a5d-4f0d-a2f6-cc9421ef843b","ios":"levelo://app?vid=3cc7a217-8a5d-4f0d-a2f6-cc9421ef843b"},"vehicle_type_id":"4","last_reported":1770824974,"current_range_meters":11200,"station_id":"ce4bhlp2rcd13ifvqgjg","pricing_plan_id":"cebpf4jnsgd1na2vs0mg"},{"bike_id":"05797971-b1fa-4e10-9a08-cd7f223bbe55","system_id":"levelo_inurba_marseille","lat":43.21745,"lon":5.34603,"is_reserved":false,"is_disabled":false,"rental_uris":{"android":"levelo://app?vid=05797971-b1fa-4e10-9a08-cd7f223bbe55","ios":"levelo://app?vid=05797971-b1fa-4e10-9a08-cd7f223bbe55"},"vehicle_type_id":"4","last_reported":1770824974,"current_range_meters":11200,"station_id":"","pricing_plan_id":"cebpf4jnsgd1na2vs0mg"},{"bike_id":"0a6e3619-d593-4712-808b-96b42bd586a8","system_id":"levelo_inurba_marseille","lat":43.29986,"lon":5.38479,"is_reserved":false,"is_disabled":false,"rental_uris":{"android":"levelo://app?vid=0a6e3619-d593-4712-808b-96b42bd586a8","ios":"levelo://app?vid=0a6e3619-d593-4712-808b-96b42bd586a8"},"vehicle_type_id":"4","last_reported":1770824974,"current_range_meters":11200,"station_id":"ce4bgj92rcd13ifvqbd0","pricing_plan_id":"cebpf4jnsgd1na2vs0mg"},{"bike_id":"70e591b0-f2cc-4dab-99cf-08bb3c1008b4","system_id":"levelo_inurba_marseille","lat":43.27391,"lon":5.42686,"is_reserved":false,"is_disabled":false,"rental_uris":{"android":"levelo://app?vid=70e591b0-f2cc-4dab-99cf-08bb3c1008b4","ios":"levelo://app?vid=70e591b0-f2cc-4dab-99cf-08bb3c1008b4"},"vehicle_type_id":"4","last_reported":1770824974,"current_range_meters":11200,"station_id":"","pricing_plan_id":"cebpf4jnsgd1na2vs0mg"},{"bike_id":"ac4b8eef-a358-4c3a-a537-f2cfeb9f6c05","system_id":"levelo_inurba_marseille","lat":43.24181,"lon":5.39739,"is_reserved":false,"is_disabled":false,"rental_uris":{"android":"levelo://app?vid=ac4b8eef-a358-4c3a-a537-f2cfeb9f6c05","ios":"levelo://app?vid=ac4b8eef-a358-4c3a-a537-f2cfeb9f6c05"},"vehicle_type_id":"4","last_reported":1770824974,"current_range_meters":11200,"station_id":"ce4bhn12rcd13ifvqgpg","pricing_plan_id":"cebpf4jnsgd1na2vs0mg"},{"bike_id":"989b5b08-d948-4be9-bc29-7318c8ff2142","system_id":"levelo_inurba_marseille","lat":43.24637,"lon":5.43126,"is_reserved":false,"is_disabled":false,"rental_uris":{"android":"levelo://app?vid=989b5b08-d948-4be9-bc29-7318c8ff2142","ios":"levelo://app?vid=989b5b08-d948-4be9-bc29-7318c8ff2142"},"vehicle_type_id":"4","last_reported":1770824974,"current_range_meters":11200,"station_id":"st_d2m6c4gdas8pm72e190g","pricing_plan_id":"cebpf4jnsgd1na2vs0mg"},{"bike_id":"543c662f-9399-4cc6-b7ab-d888ecae6b2a","system_id":"levelo_inurba_marseille","lat":43.29285,"lon":5.40124,"is_reserved":false,"is_disabled":false,"rental_uris":{"android":"levelo://app?vid=543c662f-9399-4cc6-b7ab-d888ecae6b2a","ios":"levelo://app?vid=543c662f-9399-4cc6-b7ab-d888ecae6b2a"},"vehicle_type_id":"4","last_reported":1770824974,"current_range_meters":11200,"station_id":"ce4bh312rcd13ifvqdk0","pricing_plan_id":"cebpf4jnsgd1na2vs0mg"},{"bike_id":"791cfe6e-b600-4713-b2d6-5c9796bd9648","system_id":"levelo_inurba_marseille","lat":43.33155,"lon":5.37711,"is_reserved":false,"is_disabled":false,"rental_uris":{"android":"levelo://app?vid=791cfe6e-b600-4713-b2d6-5c9796bd9648","ios":"levelo://app?vid=791cfe6e-b600-4713-b2d6-5c9796bd9648"},"vehicle_type_id":"4","last_reported":1770824974,"current_range_meters":11200,"station_id":"st_d46cu089ee8s73dldbu0","pricing_plan_id":"cebpf4jnsgd1na2vs0mg"},{"bike_id":"ab2b49aa-7574-41ea-aafd-20e44f598b0a","system_id":"levelo_inurba_marseille","lat":43.33158,"lon":5.37692,"is_reserved":false,"is_disabled":false,"rental_uris":{"android":"levelo://app?vid=ab2b49aa-7574-41ea-aafd-20e44f598b0a","ios":"levelo://app?vid=ab2b49aa-7574-41ea-aafd-20e44f598b0a"},"vehicle_type_id":"4","last_reported":1770824974,"current_range_meters":11200,"station_id":"st_d46cu089ee8s73dldbu0","pricing_plan_id":"cebpf4jnsgd1na2vs0mg"},{"bike_id":"2966434a-921f-4f6a-8543-92544bd2c40c","system_id":"levelo_inurba_marseille","lat":43.29914,"lon":5.36284,"is_reserved":false,"is_disabled":false,"rental_uris":{"android":"levelo://app?vid=2966434a-921f-4f6a-8543-92544bd2c40c","ios":"levelo://app?vid=2966434a-921f-4f6a-8543-92544bd2c40c"},"vehicle_type_id":"4","last_reported":1770824974,"current_range_meters":11200,"station_id":"","pricing_plan_id":"cebpf4jnsgd1na2vs0mg"},{"bike_id":"7f2f1057-5b67-4c2f-8d61-67a793630ffb","system_id":"levelo_inurba_marseille","lat":43.28469,"lon":5.35879,"is_reserved":false,"is_disabled":false,"rental_uris":{"android":"levelo://app?vid=7f2f1057-5b67-4c2f-8d61-67a793630ffb","ios":"levelo://app?vid=7f2f1057-5b67-4c2f-8d61-67a793630ffb"},"vehicle_type_id":"4","last_reported":1770824974,"current_range_meters":11200,"station_id":"ce4bhah2rcd13ifvqei0","pricing_plan_id":"cebpf4jnsgd1na2vs0mg"},{"bike_id":"a2fdfd5b-8695-4dea-a540-fab87c94bb92","system_id":"levelo_inurba_marseille","lat":43.29224,"lon":5.36064,"is_reserved":false,"is_disabled":false,"rental_uris":{"android":"levelo://app?vid=a2fdfd5b-8695-4dea-a540-fab87c94bb92","ios":"levelo://app?vid=a2fdfd5b-8695-4dea-a540-fab87c94bb92"},"vehicle_type_id":"4","last_reported":1770824974,"current_range_meters":11600,"station_id":"ce4bhbh2rcd13ifvqeqg","pricing_plan_id":"cebpf4jnsgd1na2vs0mg"},{"bike_id":"0ec30676-56ca-4510-8e35-7b13d7b746e9","system_id":"levelo_inurba_marseille","lat":43.24177,"lon":5.39726,"is_reserved":false,"is_disabled":false,"rental_uris":{"android":"levelo://app?vid=0ec30676-56ca-4510-8e35-7b13d7b746e9","ios":"levelo://app?vid=0ec30676-56ca-4510-8e35-7b13d7b746e9"},"vehicle_type_id":"4","last_reported":1770824974,"current_range_meters":11600,"station_id":"ce4bhn12rcd13ifvqgpg","pricing_plan_id":"cebpf4jnsgd1na2vs0mg"},{"bike_id":"5ff157dc-e3aa-4305-ad39-dfa58cf64b9c","system_id":"levelo_inurba_marseille","lat":43.240717,"lon":5.377272,"is_reserved":false,"is_disabled":false,"rental_uris":{"android":"levelo://app?vid=5ff157dc-e3aa-4305-ad39-dfa58cf64b9c","ios":"levelo://app?vid=5ff157dc-e3aa-4305-ad39-dfa58cf64b9c"},"vehicle_type_id":"4","last_reported":1770824974,"current_range_meters":11600,"station_id":"ce4bhnp2rcd13ifvqgvg","pricing_plan_id":"cebpf4jnsgd1na2vs0mg"},{"bike_id":"48ef2e5e-395e-487a-9e41-360aad012a1f","system_id":"levelo_inurba_marseille","lat":43.2622,"lon":5.37459,"is_reserved":false,"is_disabled":false,"rental_uris":{"android":"levelo://app?vid=48ef2e5e-395e-487a-9e41-360aad012a1f","ios":"levelo://app?vid=48ef2e5e-395e-487a-9e41-360aad012a1f"},"vehicle_type_id":"4","last_reported":1770824974,"current_range_meters":11600,"station_id":"ce4bhgp2rcd13ifvqfc0","pricing_plan_id":"cebpf4jnsgd1na2vs0mg"},{"bike_id":"91758b42-8ea3-480e-91d9-317db3dde73c","system_id":"levelo_inurba_marseille","lat":43.30594,"lon":5.39371,"is_reserved":false,"is_disabled":false,"rental_uris":{"android":"levelo://app?vid=91758b42-8ea3-480e-91d9-317db3dde73c","ios":"levelo://app?vid=91758b42-8ea3-480e-91d9-317db3dde73c"},"vehicle_type_id":"4","last_reported":1770824974,"current_range_meters":11600,"station_id":"ce4bh0p2rcd13ifvqd80","pricing_plan_id":"cebpf4jnsgd1na2vs0mg"},{"bike_id":"c5dd3154-a407-455e-8c49-f6ecc4783dd7","system_id":"levelo_inurba_marseille","lat":43.23379,"lon":5.41245,"is_reserved":false,"is_disabled":false,"rental_uris":{"android":"levelo://app?vid=c5dd3154-a407-455e-8c49-f6ecc4783dd7","ios":"levelo://app?vid=c5dd3154-a407-455e-8c49-f6ecc4783dd7"},"vehicle_type_id":"4","last_reported":1770824974,"current_range_meters":11600,"station_id":"","pricing_plan_id":"cebpf4jnsgd1na2vs0mg"},{"bike_id":"6f96faff-2f74-43fe-a87c-a87ba51b50e0","system_id":"levelo_inurba_marseille","lat":43.31723,"lon":5.37743,"is_reserved":false,"is_disabled":false,"rental_uris":{"android":"levelo://app?vid=6f96faff-2f74-43fe-a87c-a87ba51b50e0","ios":"levelo://app?vid=6f96faff-2f74-43fe-a87c-a87ba51b50e0"},"vehicle_type_id":"4","last_reported":1770824974,"current_range_meters":11600,"station_id":"ce4bgth2rcd13ifvqch0","pricing_plan_id":"cebpf4jnsgd1na2vs0mg"},{"bike_id":"e9468caf-217a-4996-8a77-320c847b05f4","system_id":"levelo_inurba_marseille","lat":43.30432,"lon":5.39734,"is_reserved":false,"is_disabled":false,"rental_uris":{"android":"levelo://app?vid=e9468caf-217a-4996-8a77-320c847b05f4","ios":"levelo://app?vid=e9468caf-217a-4996-8a77-320c847b05f4"},"vehicle_type_id":"4","last_reported":1770824974,"current_range_meters":11600,"station_id":"ce4bh092rcd13ifvqd20","pricing_plan_id":"cebpf4jnsgd1na2vs0mg"},{"bike_id":"fd530780-2290-452c-823d-8193631d0919","system_id":"levelo_inurba_marseille","lat":43.28867,"lon":5.42518,"is_reserved":false,"is_disabled":false,"rental_uris":{"android":"levelo://app?vid=fd530780-2290-452c-823d-8193631d0919","ios":"levelo://app?vid=fd530780-2290-452c-823d-8193631d0919"},"vehicle_type_id":"4","last_reported":1770824974,"current_range_meters":11600,"station_id":"st_d3b462108ojc7389ooeg","pricing_plan_id":"cebpf4jnsgd1na2vs0mg"},{"bike_id":"ad1c73a7-80cd-4fd9-9cbe-bd9c902be31f","system_id":"levelo_inurba_marseille","lat":43.245592,"lon":5.395249,"is_reserved":false,"is_disabled":false,"rental_uris":{"android":"levelo://app?vid=ad1c73a7-80cd-4fd9-9cbe-bd9c902be31f","ios":"levelo://app?vid=ad1c73a7-80cd-4fd9-9cbe-bd9c902be31f"},"vehicle_type_id":"4","last_reported":1770824974,"current_range_meters":12000,"station_id":"ce4bhlp2rcd13ifvqgjg","pricing_plan_id":"cebpf4jnsgd1na2vs0mg"},{"bike_id":"52c5007b-88c9-4d1c-9fe2-488c4cdcfbef","system_id":"levelo_inurba_marseille","lat":43.25868,"lon":5.39888,"is_reserved":false,"is_disabled":false,"rental_uris":{"android":"levelo://app?vid=52c5007b-88c9-4d1c-9fe2-488c4cdcfbef","ios":"levelo://app?vid=52c5007b-88c9-4d1c-9fe2-488c4cdcfbef"},"vehicle_type_id":"4","last_reported":1770824974,"current_range_meters":12000,"station_id":"ce4bhl92rcd13ifvqghg","pricing_plan_id":"cebpf4jnsgd1na2vs0mg"},