{"last_updated":1734595977,"ttl":60,"version":"2.2","data":{"bikes":[{"bike_id":"efd3baf0-d6cb-458c-9685-429603436550","system_id":"levelo_inurba_marseille","lat":43.24986,"lon":5.38917,"is_reserved":false,"is_disabled":false,"rental_uris":{"android":"levelo://app?vid=efd3baf0-d6cb-458c-9685-429603436550","ios":"levelo://app?vid=efd3baf0-d6cb-458c-9685-429603436550"},"vehicle_type_id":"4","last_reported":1734595978,"current_range_meters":19600,"station_id":"ce4bhgp2rcd13ifvqfd0","pricing_plan_id":"cebpf4jnsgd1na2vs0mg"},{"bike_id":"b8829d85-2ac3-47d9-a3f0-e980ddf998e1","system_id":"levelo_inurba_marseille","lat":43.30139,"lon":5.37422,"is_reserved":false,"is_disabled":false,"rental_uris":{"android":"levelo://app?vid=b8829d85-2ac3-47d9-a3f0-e980ddf998e1","ios":"levelo://app?vid=b8829d85-2ac3-47d9-a3f0-e980ddf998e1"},"vehicle_type_id":"4","last_reported":1734595978,"current_range_meters":27200,"station_id":"ce4bgs92rcd13ifvqcc0","pricing_plan_id":"cebpf4jnsgd1na2vs0mg"},{"bike_id":"1f2bbb0b-2329-4cf5-95f7-6ae500f7dd74","system_id":"levelo_inurba_marseille","lat":43.28939,"lon":5.36639,"is_reserved":false,"is_disabled":false,"rental_uris":{"android":"levelo://app?vid=1f2bbb0b-2329-4cf5-95f7-6ae500f7dd74","ios":"levelo://app?vid=1f2bbb0b-2329-4cf5-95f7-6ae500f7dd74"},"vehicle_type_id":"4","last_reported":1734595978,"current_range_meters":19200,"station_id":"ce4bhap2rcd13ifvqek0","pricing_plan_id":"cebpf4jnsgd1na2vs0mg"},{"bike_id":"d11baf8e-015c-40b5-a1e6-f2929fc6cc45","system_id":"levelo_inurba_marseille","lat":43.232003,"lon":5.399904,"is_reserved":false,"is_disabled":false,"rental_uris":{"android":"levelo://app?vid=d11baf8e-015c-40b5-a1e6-f2929fc6cc45","ios":"levelo://app?vid=d11baf8e-015c-40b5-a1e6-f2929fc6cc45"},"vehicle_type_id":"4","last_reported":1734595978,"current_range_meters":38000,"station_id":"ce4bhn12rcd13ifvqgqg","pricing_plan_id":"cebpf4jnsgd1na2vs0mg"},{"bike_id":"adc013f9-0576-4610-9b99-b3b9fcc6fdbf","system_id":"levelo_inurba_marseille","lat":43.28158,"lon":5.42631,"is_reserved":false,"is_disabled":false,"rental_uris":{"android":"levelo://app?vid=adc013f9-0576-4610-9b99-b3b9fcc6fdbf","ios":"levelo://app?vid=adc013f9-0576-4610-9b99-b3b9fcc6fdbf"},"vehicle_type_id":"4","last_reported":1734595978,"current_range_meters":38000,"station_id":"ce4bhnh2rcd13ifvqgug","pricing_plan_id":"cebpf4jnsgd1na2vs0mg"},{"bike_id":"c6e8192e-4a6b-435d-a069-cdf8fac506ca","system_id":"levelo_inurba_marseille","lat":43.25721,"lon":5.41108,"is_reserved":false,"is_disabled":true,"rental_uris":{"android":"levelo://app?vid=c6e8192e-4a6b-435d-a069-cdf8fac506ca","ios":"levelo://app?vid=c6e8192e-4a6b-435d-a069-cdf8fac506ca"},"vehicle_type_id":"4","last_reported":1734595978,"current_range_meters":37600,"station_id":"ce4bhkp2rcd13ifvqgd0","pricing_plan_id":"cebpf4jnsgd1na2vs0mg"},{"bike_id":"0b3c962c-40d1-4375-b60d-644d72aaacf1","system_id":"levelo_inurba_marseille","lat":43.28011,"lon":5.40394,"is_reserved":false,"is_disabled":true,"rental_uris":{"android":"levelo://app?vid=0b3c962c-40d1-4375-b60d-644d72aaacf1","ios":"levelo://app?vid=0b3c962c-40d1-4375-b60d-644d72aaacf1"},"vehicle_type_id":"4","last_reported":1734595978,"current_range_meters":0,"station_id":"","pricing_plan_id":"cebpf4jnsgd1na2vs0mg"},{"bike_id":"51ec80ae-f628-4048-9438-1f7a59640daf","system_id":"levelo_inurba_marseille","lat":43.28465,"lon":5.38405,"is_reserved":false,"is_disabled":false,"rental_uris":{"android":"levelo://app?vid=51ec80ae-f628-4048-9438-1f7a59640daf","ios":"levelo://app?vid=51ec80ae-f628-4048-9438-1f7a59640daf"},"vehicle_type_id":"4","last_reported":1734595978,"current_range_meters":7200,"station_id":"ce4bh512rcd13ifvqe3g","pricing_plan_id":"cebpf4jnsgd1na2vs0mg"},{"bike_id":"57d20e8e-d2b1-4223-8734-4f1a79f0524a","system_id":"levelo_inurba_marseille","lat":43.28939,"lon":5.36397,"is_reserved":false,"is_disabled":false,"rental_uris":{"android":"levelo://app?vid=57d20e8e-d2b1-4223-8734-4f1a79f0524a","ios":"levelo://app?vid=57d20e8e-d2b1-4223-8734-4f1a79f0524a"},"vehicle_type_id":"4","last_reported":1734595978,"current_range_meters":36000,"station_id":"ce4bhc92rcd13ifvqetg","pricing_plan_id":"cebpf4jnsgd1na2vs0mg"},{"bike_id":"3b5b02e2-92a0-43fc-8f2d-a81d0fb57fe6","system_id":"levelo_inurba_marseille","lat":43.23154,"lon":5.43709,"is_reserved":false,"is_disabled":true,"rental_uris":{"android":"levelo://app?vid=3b5b02e2-92a0-43fc-8f2d-a81d0fb57fe6","ios":"levelo://app?vid=3b5b02e2-92a0-43fc-8f2d-a81d0fb57fe6"},"vehicle_type_id":"4","last_reported":1734595978,"current_range_meters":18800,"station_id":"ce4bhmp2rcd13ifvqgog","pricing_plan_id":"cebpf4jnsgd1na2vs0mg"},{"bike_id":"ac745913-4386-4e1c-8f66-6f1417d5ae3c","system_id":"levelo_inurba_marseille","lat":43.30795,"lon":5.38164,"is_reserved":false,"is_disabled":false,"rental_uris":{"android":"levelo://app?vid=ac745913-4386-4e1c-8f66-6f1417d5ae3c","ios":"levelo://app?vid=ac745913-4386-4e1c-8f66-6f1417d5ae3c"},"vehicle_type_id":"4","last_reported":1734595978,"current_range_meters":38800,"station_id":"ce4bgt12rcd13ifvqce0","pricing_plan_id":"cebpf4jnsgd1na2vs0mg"},{"bike_id":"465880c3-4bbb-4bda-9abc-a68131cdb490","system_id":"levelo_inurba_marseille","lat":43.29795,"lon":5.38091,"is_reserved":false,"is_disabled":true,"rental_uris":{"android":"levelo://app?vid=465880c3-4bbb-4bda-9abc-a68131cdb490","ios":"levelo://app?vid=465880c3-4bbb-4bda-9abc-a68131cdb490"},"vehicle_type_id":"4","last_reported":1734595978,"current_range_meters":38800,"station_id":"ce4bgip2rcd13ifvqbb0","pricing_plan_id":"cebpf4jnsgd1na2vs0mg"},{"bike_id":"559cfcac-8801-4974-b261-7bab8f98273b","system_id":"levelo_inurba_marseille","lat":43.28429,"lon":5.39175,"is_reserved":false,"is_disabled":true,"rental_uris":{"android":"levelo://app?vid=559cfcac-8801-4974-b261-7bab8f98273b","ios":"levelo://app?vid=559cfcac-8801-4974-b261-7bab8f98273b"},"vehicle_type_id":"4","last_reported":1734595978,"current_range_meters":0,"station_id":"ce4bhoh2rcd13ifvqh5g","pricing_plan_id":"cebpf4jnsgd1na2vs0mg"},{"bike_id":"ff610d27-d5cb-4745-9097-2a4cd2db407c","system_id":"levelo_inurba_marseille","lat":43.2408,"lon":5.37752,"is_reserved":false,"is_disabled":false,"rental_uris":{"android":"levelo://app?vid=ff610d27-d5cb-4745-9097-2a4cd2db407c","ios":"levelo://app?vid=ff610d27-d5cb-4745-9097-2a4cd2db407c"},"vehicle_type_id":"4","last_reported":1734595978,"current_range_meters":28800,"station_id":"ce4bhnp2rcd13ifvqgvg","pricing_plan_id":"cebpf4jnsgd1na2vs0mg"},{"bike_id":"f69b8f76-fe8c-4abb-896e-8c2ac1e32ce2","system_id":"levelo_inurba_marseille","lat":43.30314,"lon":5.36887,"is_reserved":false,"is_disabled":false,"rental_uris":{"android":"levelo://app?vid=f69b8f76-fe8c-4abb-896e-8c2ac1e32ce2","ios":"levelo://app?vid=f69b8f76-fe8c-4abb-896e-8c2ac1e32ce2"},"vehicle_type_id":"4","last_reported":1734595978,"current_range_meters":23200,"station_id":"ce4bgqh2rcd13ifvqc5g","pricing_plan_id":"cebpf4jnsgd1na2vs0mg"},{"bike_id":"3417d897-84a9-44ba-81ef-40200cfed818","system_id":"levelo_inurba_marseille","lat":43.25722,"lon":5.41108,"is_reserved":false,"is_disabled":false,"rental_uris":{"android":"levelo://app?vid=3417d897-84a9-44ba-81ef-40200cfed818","ios":"levelo://app?vid=3417d897-84a9-44ba-81ef-40200cfed818"},"vehicle_type_id":"4","last_reported":1734595978,"current_range_meters":35200,"station_id":"ce4bhkp2rcd13ifvqgd0","pricing_plan_id":"cebpf4jnsgd1na2vs0mg"},{"bike_id":"b155d5a0-3e81-4d75-bdb4-ce0f25d7ca7a","system_id":"levelo_inurba_marseille","lat":43.30948,"lon":5.39022,"is_reserved":false,"is_disabled":true,"rental_uris":{"android":"levelo://app?vid=b155d5a0-3e81-4d75-bdb4-ce0f25d7ca7a","ios":"levelo://app?vid=b155d5a0-3e81-4d75-bdb4-ce0f25d7ca7a"},"vehicle_type_id":"4","last_reported":1734595978,"current_range_meters":0,"station_id":"ce4bgup2rcd13ifvqco0","pricing_plan_id":"cebpf4jnsgd1na2vs0mg"},{"bike_id":"ba009d8e-0840-435f-99ae-ad353dc413fa","system_id":"levelo_inurba_marseille","lat":43.29609,"lon":5.37735,"is_reserved":false,"is_disabled":false,"rental_uris":{"android":"levelo://app?vid=ba009d8e-0840-435f-99ae-ad353dc413fa","ios":"levelo://app?vid=ba009d8e-0840-435f-99ae-ad353dc413fa"},"vehicle_type_id":"4","last_reported":1734595978,"current_range_meters":38400,"station_id":"ce4bgi92rcd13ifvqb90","pricing_plan_id":"cebpf4jnsgd1na2vs0mg"},{"bike_id":"53c5dd90-208e-4b14-9aec-3133385e99e3","system_id":"levelo_inurba_marseille","lat":43.29557,"lon":5.42294,"is_reserved":false,"is_disabled":false,"rental_uris":{"android":"levelo://app?vid=53c5dd90-208e-4b14-9aec-3133385e99e3","ios":"levelo://app?vid=53c5dd90-208e-4b14-9aec-3133385e99e3"},"vehicle_type_id":"4","last_reported":1734595978,"current_range_meters":8400,"station_id":"ce4bhph2rcd13ifvqhdg","pricing_plan_id":"cebpf4jnsgd1na2vs0mg"},{"bike_id":"1aec29cd-dc50-4387-9691-f0550a02daa1","system_id":"levelo_inurba_marseille","lat":43.3091,"lon":5.36849,"is_reserved":false,"is_disabled":false,"rental_uris":{"android":"levelo://app?vid=1aec29cd-dc50-4387-9691-f0550a02daa1","ios":"levelo://app?vid=1aec29cd-dc50-4387-9691-f0550a02daa1"},"vehicle_type_id":"4","last_reported":1734595978,"current_range_meters":24000,"station_id":"ce4bgn92rcd13ifvqbvg","pricing_plan_id":"cebpf4jnsgd1na2vs0mg"},{"bike_id":"0bdf3fda-8f7b-4d72-abce-208da0d05923","system_id":"levelo_inurba_marseille","lat":43.2962,"lon":5.37156,"is_reserved":false,"is_disabled":false,"rental_uris":{"android":"levelo://app?vid=0bdf3fda-8f7b-4d72-abce-208da0d05923","ios":"levelo://app?vid=0bdf3fda-8f7b-4d72-abce-208da0d05923"},"vehicle_type_id":"4","last_reported":1734595978,"current_range_meters":22800,"station_id":"ce4bgnh2rcd13ifvqc0g","pricing_plan_id":"cebpf4jnsgd1na2vs0mg"},{"bike_id":"54a9caf8-763e-49d0-b17e-a4e6766fab85","system_id":"levelo_inurba_marseille","lat":43.30937,"lon":5.40138,"is_reserved":false,"is_disabled":false,"rental_uris":{"android":"levelo://app?vid=54a9caf8-763e-49d0-b17e-a4e6766fab85","ios":"levelo://app?vid=54a9caf8-763e-49d0-b17e-a4e6766fab85"},"vehicle_type_id":"4","last_reported":1734595978,"current_range_meters":16400,"station_id":"ce4bgvp2rcd13ifvqct0","pricing_plan_id":"cebpf4jnsgd1na2vs0mg"},{"bike_id":"e90d0e3a-83bd-4dc8-95ce-feed3f7807ca","system_id":"levelo_inurba_marseille","lat":43.31483,"lon":5.37311,"is_reserved":false,"is_disabled":false,"rental_uris":{"android":"levelo://app?vid=e90d0e3a-83bd-4dc8-95ce-feed3f7807ca","ios":"levelo://app?vid=e90d0e3a-83bd-4dc8-95ce-feed3f7807ca"},"vehicle_type_id":"4","last_reported":1734595978,"current_range_meters":19200,"station_id":"ce4bgt12rcd13ifvqcd0","pricing_plan_id":"cebpf4jnsgd1na2vs0mg"},{"bike_id":"277519f5-d25e-46cc-83cb-95d36aa49ee0","system_id":"levelo_inurba_marseille","lat":43.26571,"lon":5.39015,"is_reserved":false,"is_disabled":true,"rental_uris":{"android":"levelo://app?vid=277519f5-d25e-46cc-83cb-95d36aa49ee0","ios":"levelo://app?vid=277519f5-d25e-46cc-83cb-95d36aa49ee0"},"vehicle_type_id":"4","last_reported":1734595978,"current_range_meters":26800,"station_id":"ce4bhe12rcd13ifvqf30","pricing_plan_id":"cebpf4jnsgd1na2vs0mg"},{"bike_id":"3e015d29-b4b2-4e77-aad8-90ff923cae16","system_id":"levelo_inurba_marseille","lat":43.32658,"lon":5.40991,"is_reserved":false,"is_disabled":false,"rental_uris":{"android":"levelo://app?vid=3e015d29-b4b2-4e77-aad8-90ff923cae16","ios":"levelo://app?vid=3e015d29-b4b2-4e77-aad8-90ff923cae16"},"vehicle_type_id":"4","last_reported":1734595978,"current_range_meters":22000,"station_id":"ce4bhpp2rcd13ifvqhgg","pricing_plan_id":"cebpf4jnsgd1na2vs0mg"},{"bike_id":"1f834613-72c8-4bef-a54d-6ea138016033","system_id":"levelo_inurba_marseille","lat":43.23195,"lon":5.35546,"is_reserved":false,"is_disabled":false,"rental_uris":{"android":"levelo://app?vid=1f834613-72c8-4bef-a54d-6ea138016033","ios":"levelo://app?vid=1f834613-72c8-4bef-a54d-6ea138016033"},"vehicle_type_id":"4","last_reported":1734595978,"current_range_meters":38800,"station_id":"ce4bhu92rcd13ifvqi70","pricing_plan_id":"cebpf4jnsgd1na2vs0mg"},{"bike_id":"d0bd959c-e232-4c53-824f-cf83fda0d3e8","system_id":"levelo_inurba_marseille","lat":43.31534,"lon":5.38041,"is_reserved":false,"is_disabled":true,"rental_uris":{"android":"levelo://app?vid=d0bd959c-e232-4c53-824f-cf83fda0d3e8","ios":"levelo://app?vid=d0bd959c-e232-4c53-824f-cf83fda0d3e8"},"vehicle_type_id":"4","last_reported":1734595978,"current_range_meters":0,"station_id":"ce4bhsp2rcd13ifvqi50","pricing_plan_id":"cebpf4jnsgd1na2vs0mg"},{"bike_id":"bec40a7c-d6af-4aad-8945-d38c44edcda9","system_id":"levelo_inurba_marseille","lat":43.29313,"lon":5.37181,"is_reserved":false,"is_disabled":false,"rental_uris":{"android":"levelo://app?vid=bec40a7c-d6af-4aad-8945-d38c44edcda9","ios":"levelo://app?vid=bec40a7c-d6af-4aad-8945-d38c44edcda9"},"vehicle_type_id":"4","last_reported":1734595978,"current_range_meters":37600,"station_id":"ce4bgh92rcd13ifvqb40","pricing_plan_id":"cebpf4jnsgd1na2vs0mg"},{"bike_id":"cece21bd-76d6-4f19-b3ff-0220eec8a48b","system_id":"levelo_inurba_marseille","lat":43.29196,"lon":5.35791,"is_reserved":false,"is_disabled":false,"rental_uris":{"android":"levelo://app?vid=cece21bd-76d6-4f19-b3ff-0220eec8a48b","ios":"levelo://app?vid=cece21bd-76d6-4f19-b3ff-0220eec8a48b"},"vehicle_type_id":"4","last_reported":1734595978,"current_range_meters":38400,"station_id":"ce4bhb12rcd13ifvqel0","pricing_plan_id":"cebpf4jnsgd1na2vs0mg"},{"bike_id":"81184675-88bc-4625-bb8f-5bf260b16b12","system_id":"levelo_inurba_marseille","lat":43.32539,"lon":5.41421,"is_reserved":false,"is_disabled":true,"rental_uris":{"android":"levelo://app?vid=81184675-88bc-4625-bb8f-5bf260b16b12","ios":"levelo://app?vid=81184675-88bc-4625-bb8f-5bf260b16b12"},"vehicle_type_id":"4","last_reported":1734595978,"current_range_meters":24400,"station_id":"ce4bhq12rcd13ifvqhhg","pricing_plan_id":"cebpf4jnsgd1na2vs0mg"},{"bike_id":"21d59a90-3465-4ae0-adfc-6143386798fb","system_id":"levelo_inurba_marseille","lat":43.24079,"lon":5.37754,"is_reserved":false,"is_disabled":false,"rental_uris":{"android":"levelo://app?vid=21d59a90-3465-4ae0-adfc-6143386798fb","ios":"levelo://app?vid=21d59a90-3465-4ae0-adfc-6143386798fb"},"vehicle_type_id":"4","last_reported":1734595978,"current_range_meters":36400,"station_id":"ce4bhnp2rcd13ifvqgvg","pricing_plan_id":"cebpf4jnsgd1na2vs0mg"},{"bike_id":"e0cd68ca-6592-4a0b-8ec1-158f1189ddb3","system_id":"levelo_inurba_marseille","lat":43.29713,"lon":5.37701,"is_reserved":false,"is_disabled":false,"rental_uris":{"android":"levelo://app?vid=e0cd68ca-6592-4a0b-8ec1-158f1189ddb3","ios":"levelo://app?vid=e0cd68ca-6592-4a0b-8ec1-158f1189ddb3"},"vehicle_type_id":"4","last_reported":1734595978,"current_range_meters":8400,"station_id":"ce4bgkh2rcd13ifvqbl0","pricing_plan_id":"cebpf4jnsgd1na2vs0mg"},{"bike_id":"714b968a-6ecb-4bfa-a210-b7fbcf0c5de1","system_id":"levelo_inurba_marseille","lat":43.29977,"lon":5.37182,"is_reserved":false,"is_disabled":false,"rental_uris":{"android":"levelo://app?vid=714b968a-6ecb-4bfa-a210-b7fbcf0c5de1","ios":"levelo://app?vid=714b968a-6ecb-4bfa-a210-b7fbcf0c5de1"},"vehicle_type_id":"4","last_reported":1734595978,"current_range_meters":38400,"station_id":"ce4bgr92rcd13ifvqc7g","pricing_plan_id":"cebpf4jnsgd1na2vs0mg"},{"bike_id":"4cb2ad4d-0b7d-497c-b467-6d51f447e8a9","system_id":"levelo_inurba_marseille","lat":43.30151,"lon":5.3742,"is_reserved":false,"is_disabled":false,"rental_uris":{"android":"levelo://app?vid=4cb2ad4d-0b7d-497c-b467-6d51f447e8a9","ios":"levelo://app?vid=4cb2ad4d-0b7d-497c-b467-6d51f447e8a9"},"vehicle_type_id":"4","last_reported":1734595978,"current_range_meters":39200,"station_id":"ce4bgs92rcd13ifvqcc0","pricing_plan_id":"cebpf4jnsgd1na2vs0mg"},{"bike_id":"2491c714-f3f7-493b-9790-9992e16c8fb6","system_id":"levelo_inurba_marseille","lat":43.34141,"lon":5.40889,"is_reserved":false,"is_disabled":false,"rental_uris":{"android":"levelo://app?vid=2491c714-f3f7-493b-9790-9992e16c8fb6","ios":"levelo://app?vid=2491c714-f3f7-493b-9790-9992e16c8fb6"},"vehicle_type_id":"4","last_reported":1734595978,"current_range_meters":38800,"station_id":"ce4bhqh2rcd13ifvqhlg","pricing_plan_id":"cebpf4jnsgd1na2vs0mg"},{"bike_id":"d8f5e76e-f9f7-4677-b4d2-89d449c9f02e","system_id":"levelo_inurba_marseille","lat":43.2989,"lon":5.43648,"is_reserved":false,"is_disabled":false,"rental_uris":{"android":"levelo://app?vid=d8f5e76e-f9f7-4677-b4d2-89d449c9f02e","ios":"levelo://app?vid=d8f5e76e-f9f7-4677-b4d2-89d449c9f02e"},"vehicle_type_id":"4","last_reported":1734595978,"current_range_meters":14800,"station_id":"ce4bhpp2rcd13ifvqhfg","pricing_plan_id":"cebpf4jnsgd1na2vs0mg"},{"bike_id":"ea1ee0a0-f240-4d25-84d9-e6fb6fc7a18c","system_id":"levelo_inurba_marseille","lat":43.33776,"lon":5.42097,"is_reserved":false,"is_disabled":true,"rental_uris":{"android":"levelo://app?vid=ea1ee0a0-f240-4d25-84d9-e6fb6fc7a18c","ios":"levelo://app?vid=ea1ee0a0-f240-4d25-84d9-e6fb6fc7a18c"},"vehicle_type_id":"4","last_reported":1734595978,"current_range_meters":0,"station_id":"","pricing_plan_id":"cebpf4jnsgd1na2vs0mg"},{"bike_id":"d3d03a2b-f0c2-42b4-8d44-f8cd025d87af","system_id":"levelo_inurba_marseille","lat":43.28702,"lon":5.39991,"is_reserved":false,"is_disabled":false,"rental_uris":{"android":"levelo://app?vid=d3d03a2b-f0c2-42b4-8d44-f8cd025d87af","ios":"levelo://app?vid=d3d03a2b-f0c2-42b4-8d44-f8cd025d87af"},"vehicle_type_id":"4","last_reported":1734595978,"current_range_meters":32400,"station_id":"ce4bho92rcd13ifvqh3g","pricing_plan_id":"cebpf4jnsgd1na2vs0mg"},{"bike_id":"77687ff1-bc20-46fa-b2be-6f78d26f691e","system_id":"levelo_inurba_marseille","lat":43.2893,"lon":5.3663,"is_reserved":false,"is_disabled":false,"rental_uris":{"android":"levelo://app?vid=77687ff1-bc20-46fa-b2be-6f78d26f691e","ios":"levelo://app?vid=77687ff1-bc20-46fa-b2be-6f78d26f691e"},"vehicle_type_id":"4","last_reported":1734595978,"current_range_meters":38400,"station_id":"ce4bhap2rcd13ifvqek0","pricing_plan_id":"cebpf4jnsgd1na2vs0mg"},{"bike_id":"707db191-0ff4-4b90-a1d1-c510d8062d82","system_id":"levelo_inurba_marseille","lat":43.3047,"lon":5.37911,"is_reserved":false,"is_disabled":false,"rental_uris":{"android":"levelo://app?vid=707db191-0ff4-4b90-a1d1-c510d8062d82","ios":"levelo://app?vid=707db191-0ff4-4b90-a1d1-c510d8062d82"},"vehicle_type_id":"4","last_reported":1734595978,"current_range_meters":18800,"station_id":"ce4bgup2rcd13ifvqcn0","pricing_plan_id":"cebpf4jnsgd1na2vs0mg"},{"bike_id":"ab5dbf9c-472f-4f0c-b8c8-e0605d7c93eb","system_id":"levelo_inurba_marseille","lat":43.27921,"lon":5.39574,"is_reserved":false,"is_disabled":true,"rental_uris":{"android":"levelo://app?vid=ab5dbf9c-472f-4f0c-b8c8-e0605d7c93eb","ios":"levelo://app?vid=ab5dbf9c-472f-4f0c-b8c8-e0605d7c93eb"},"vehicle_type_id":"4","last_reported":1734595978,"current_range_meters":13600,"station_id":"ce4bhf92rcd13ifvqf40","pricing_plan_id":"cebpf4jnsgd1na2vs0mg"},{"bike_id":"b86c971b-9802-4846-a4a5-db36664b6661","system_id":"levelo_inurba_marseille","lat":43.27323,"lon":5.3911,"is_reserved":false,"is_disabled":false,"rental_uris":{"android":"levelo://app?vid=b86c971b-9802-4846-a4a5-db36664b6661","ios":"levelo://app?vid=b86c971b-9802-4846-a4a5-db36664b6661"},"vehicle_type_id":"4","last_reported":1734595978,"current_range_meters":30000,"station_id":"ce4bhgp2rcd13ifvqfe0","pricing_plan_id":"cebpf4jnsgd1na2vs0mg"},{"bike_id":"78281728-c824-4f99-b142-21981ed585f2","system_id":"levelo_inurba_marseille","lat":43.30467,"lon":5.37912,"is_reserved":false,"is_disabled":false,"rental_uris":{"android":"levelo://app?vid=78281728-c824-4f99-b142-21981ed585f2","ios":"levelo://app?vid=78281728-c824-4f99-b142-21981ed585f2"},"vehicle_type_id":"4","last_reported":1734595978,"current_range_meters":20800,"station_id":"ce4bgup2rcd13ifvqcn0","pricing_plan_id":"cebpf4jnsgd1na2vs0mg"},{"bike_id":"79c02cd1-ea43-4e08-8ed3-73cfd9af8b96","system_id":"levelo_inurba_marseille","lat":43.26058,"lon":5.39398,"is_reserved":false,"is_disabled":false,"rental_uris":{"android":"levelo://app?vid=79c02cd1-ea43-4e08-8ed3-73cfd9af8b96","ios":"levelo://app?vid=79c02cd1-ea43-4e08-8ed3-73cfd9af8b96"},"vehicle_type_id":"4","last_reported":1734595978,"current_range_meters":28000,"station_id":"ce4bhh92rcd13ifvqfj0","pricing_plan_id":"cebpf4jnsgd1na2vs0mg"},{"bike_id":"45ce6170-ceb2-4bc0-ad0c-030a9fb307ff","system_id":"levelo_inurba_marseille","lat":43.26687,"lon":5.38277,"is_reserved":false,"is_disabled":false,"rental_uris":{"android":"levelo://app?vid=45ce6170-ceb2-4bc0-ad0c-030a9fb307ff","ios":"levelo://app?vid=45ce6170-ceb2-4bc0-ad0c-030a9fb307ff"},"vehicle_type_id":"4","last_reported":1734595978,"current_range_meters":22000,"station_id":"ce4bhg92rcd13ifvqf90","pricing_plan_id":"cebpf4jnsgd1na2vs0mg"},{"bike_id":"77592e58-7330-482c-98aa-1362dec7556c","system_id":"levelo_inurba_marseille","lat":43.30536,"lon":5.36558,"is_reserved":false,"is_disabled":false,"rental_uris":{"android":"levelo://app?vid=77592e58-7330-482c-98aa-1362dec7556c","ios":"levelo://app?vid=77592e58-7330-482c-98aa-1362dec7556c"},"vehicle_type_id":"4","last_reported":1734595978,"current_range_meters":38800,"station_id":"ce4bgs12rcd13ifvqcag","pricing_plan_id":"cebpf4jnsgd1na2vs0mg"},{"bike_id":"8bfac80e-1fb6-4c29-8a7a-e5d1d210dc81","system_id":"levelo_inurba_marseille","lat":43.31007,"lon":5.38075,"is_reserved":false,"is_disabled":false,"rental_uris":{"android":"levelo://app?vid=8bfac80e-1fb6-4c29-8a7a-e5d1d210dc81","ios":"levelo://app?vid=8bfac80e-1fb6-4c29-8a7a-e5d1d210dc81"},"vehicle_type_id":"4","last_reported":1734595978,"current_range_meters":18800,"station_id":"","pricing_plan_id":"cebpf4jnsgd1na2vs0mg"},{"bike_id":"eb037c1f-10a0-4305-ad91-41eb8f7f8fd0","system_id":"levelo_inurba_marseille","lat":43.30153,"lon":5.38082,"is_reserved":false,"is_disabled":true,"rental_uris":{"android":"levelo://app?vid=eb037c1f-10a0-4305-ad91-41eb8f7f8fd0","ios":"levelo://app?vid=eb037c1f-10a0-4305-ad91-41eb8f7f8fd0"},"vehicle_type_id":"4","last_reported":1734595978,"current_range_meters":0,"station_id":"ce4bgjp2rcd13ifvqbh0","pricing_plan_id":"cebpf4jnsgd1na2vs0mg"},{"bike_id":"3d5343bc-3c9a-4082-84d7-94a4fb11543e","system_id":"levelo_inurba_marseille","lat":43.24073,"lon":5.37746,"is_reserved":false,"is_disabled":false,"rental_uris":{"android":"levelo://app?vid=3d5343bc-3c9a-4082-84d7-94a4fb11543e","ios":"levelo://app?vid=3d5343bc-3c9a-4082-84d7-94a4fb11543e"},"vehicle_type_id":"4","last_reported":1734595978,"current_range_meters":36400,"station_id":"ce4bhnp2rcd13ifvqgvg","pricing_plan_id":"cebpf4jnsgd1na2vs0mg"},{"bike_id":"c5f2de50-0e80-4b06-ad55-210f54c57b07","system_id":"levelo_inurba_marseille","lat":43.28346,"lon":5.38089,"is_reserved":false,"is_disabled":false,"rental_uris":{"android":"levelo://app?vid=c5f2de50-0e80-4b06-ad55-210f54c57b07","ios":"levelo://app?vid=c5f2de50-0e80-4b06-ad55-210f54c57b07"},"vehicle_type_id":"4","last_reported":1734595978,"current_range_meters":31200,"station_id":"ce4bh412rcd13ifvqdr0","pricing_plan_id":"cebpf4jnsgd1na2vs0mg"},{"bike_id":"1e6eff8e-116f-4b22-8200-b5c27347bee3","system_id":"levelo_inurba_marseille","lat":43.24676,"lon":5.38148,"is_reserved":false,"is_disabled":true,"rental_uris":{"android":"levelo://app?vid=1e6eff8e-116f-4b22-8200-b5c27347bee3","ios":"levelo://app?vid=1e6eff8e-116f-4b22-8200-b5c27347bee3"},"vehicle_type_id":"4","last_reported":1734595978,"current_range_meters":36000,"station_id":"ce4bhih2rcd13ifvqfr0","pricing_plan_id":"cebpf4jnsgd1na2vs0mg"},{"bike_id":"e1df2675-c7ab-4ce8-91ff-d96e491eab89","system_id":"levelo_inurba_marseille","lat":43.29648,"lon":5.37177,"is_reserved":false,"is_disabled":true,"rental_uris":{"android":"levelo://app?vid=e1df2675-c7ab-4ce8-91ff-d96e491eab89","ios":"levelo://app?vid=e1df2675-c7ab-4ce8-91ff-d96e491eab89"},"vehicle_type_id":"4","last_reported":1734595978,"current_range_meters":0,"station_id":"ce4bgnh2rcd13ifvqc0g","pricing_plan_id":"cebpf4jnsgd1na2vs0mg"},{"bike_id":"0361e0da-50a7-4ddd-9d37-cf16ab600ce4","system_id":"levelo_inurba_marseille","lat":43.27946,"lon":5.38761,"is_reserved":false,"is_disabled":true,"rental_uris":{"android":"levelo://app?vid=0361e0da-50a7-4ddd-9d37-cf16ab600ce4","ios":"levelo://app?vid=0361e0da-50a7-4ddd-9d37-cf16ab600ce4"},"vehicle_type_id":"4","last_reported":1734595978,"current_range_meters":38000,"station_id":"ce4bhg12rcd13ifvqf80","pricing_plan_id":"cebpf4jnsgd1na2vs0mg"},{"bike_id":"04160c74-0c14-43dc-a1ea-014ddd2d56b6","system_id":"levelo_inurba_marseille","lat":43.29557,"lon":5.42272,"is_reserved":false,"is_disabled":false,"rental_uris":{"android":"levelo://app?vid=04160c74-0c14-43dc-a1ea-014ddd2d56b6","ios":"levelo://app?vid=04160c74-0c14-43dc-a1ea-014ddd2d56b6"},"vehicle_type_id":"4","last_reported":1734595978,"current_range_meters":31200,"station_id":"ce4bhph2rcd13ifvqhdg","pricing_plan_id":"cebpf4jnsgd1na2vs0mg"},{"bike_id":"ec606711-aabe-4b94-92c3-f45479c4d155","system_id":"levelo_inurba_marseille","lat":43.30464,"lon":5.37899,"is_reserved":false,"is_disabled":false,"rental_uris":{"android":"levelo://app?vid=ec606711-aabe-4b94-92c3-f45479c4d155","ios":"levelo://app?vid=ec606711-aabe-4b94-92c3-f45479c4d155"},"vehicle_type_id":"4","last_reported":1734595978,"current_range_meters":24000,"station_id":"ce4bgup2rcd13ifvqcn0","pricing_plan_id":"cebpf4jnsgd1na2vs0mg"},{"bike_id":"3dd36642-e336-4db0-90a2-cd049dfc80a9","system_id":"levelo_inurba_marseille","lat":43.30948,"lon":5.39034,"is_reserved":false,"is_disabled":false,"rental_uris":{"android":"levelo://app?vid=3dd36642-e336-4db0-90a2-cd049dfc80a9","ios":"levelo://app?vid=3dd36642-e336-4db0-90a2-cd049dfc80a9"},"vehicle_type_id":"4","last_reported":1734595978,"current_range_meters":32000,"station_id":"ce4bgup2rcd13ifvqco0","pricing_plan_id":"cebpf4jnsgd1na2vs0mg"},{"bike_id":"0d4cf357-cd32-43d3-8971-89a7a2f06824","system_id":"levelo_inurba_marseille","lat":43.25574,"lon":5.38237,"is_reserved":false,"is_disabled":false,"rental_uris":{"android":"levelo://app?vid=0d4cf357-cd32-43d3-8971-89a7a2f06824","ios":"levelo://app?vid=0d4cf357-cd32-43d3-8971-89a7a2f06824"},"vehicle_type_id":"4","last_reported":1734595978,"current_range_meters":38000,"station_id":"ce4bhih2rcd13ifvqfs0","pricing_plan_id":"cebpf4jnsgd1na2vs0mg"},{"bike_id":"e7915aaf-2344-45ff-8491-a77eaa650ec6","system_id":"levelo_inurba_marseille","lat":43.32545,"lon":5.41442,"is_reserved":false,"is_disabled":false,"rental_uris":{"android":"levelo://app?vid=e7915aaf-2344-45ff-8491-a77eaa650ec6","ios":"levelo://app?vid=e7915aaf-2344-45ff-8491-a77eaa650ec6"},"vehicle_type_id":"4","last_reported":1734595978,"current_range_meters":35600,"station_id":"ce4bhq12rcd13ifvqhhg","pricing_plan_id":"cebpf4jnsgd1na2vs0mg"},{"bike_id":"b11dec3c-37ae-4e5f-a182-7db8571c22d2","system_id":"levelo_inurba_marseille","lat":43.29902,"lon":5.43649,"is_reserved":false,"is_disabled":false,"rental_uris":{"android":"levelo://app?vid=b11dec3c-37ae-4e5f-a182-7db8571c22d2","ios":"levelo://app?vid=b11dec3c-37ae-4e5f-a182-7db8571c22d2"},"vehicle_type_id":"4","last_reported":1734595978,"current_range_meters":37600,"station_id":"ce4bhpp2rcd13ifvqhfg","pricing_plan_id":"cebpf4jnsgd1na2vs0mg"},{"bike_id":"3fa68d7b-99f2-4b3e-a477-87ac1d8f415c","system_id":"levelo_inurba_marseille","lat":43.29256,"lon":5.38434,"is_reserved":false,"is_disabled":true,"rental_uris":{"android":"levelo://app?vid=3fa68d7b-99f2-4b3e-a477-87ac1d8f415c","ios":"levelo://app?vid=3fa68d7b-99f2-4b3e-a477-87ac1d8f415c"},"vehicle_type_id":"4","last_reported":1734595978,"current_range_meters":400,"station_id":"ce4bh692rcd13ifvqea0","pricing_plan_id":"cebpf4jnsgd1na2vs0mg"},{"bike_id":"6e62f14a-e70c-4891-9053-3720563c81cd","system_id":"levelo_inurba_marseille","lat":43.27369,"lon":5.3626,"is_reserved":false,"is_disabled":false,"rental_uris":{"android":"levelo://app?vid=6e62f14a-e70c-4891-9053-3720563c81cd","ios":"levelo://app?vid=6e62f14a-e70c-4891-9053-3720563c81cd"},"vehicle_type_id":"4","last_reported":1734595978,"current_range_meters":6800,"station_id":"ce4bhbh2rcd13ifvqeo0","pricing_plan_id":"cebpf4jnsgd1na2vs0mg"},{"bike_id":"72492ff3-d3e5-4b81-822b-1d3357339451","system_id":"levelo_inurba_marseille","lat":43.29081,"lon":5.39923,"is_reserved":false,"is_disabled":true,"rental_uris":{"android":"levelo://app?vid=72492ff3-d3e5-4b81-822b-1d3357339451","ios":"levelo://app?vid=72492ff3-d3e5-4b81-822b-1d3357339451"},"vehicle_type_id":"4","last_reported":1734595978,"current_range_meters":36800,"station_id":"","pricing_plan_id":"cebpf4jnsgd1na2vs0mg"},{"bike_id":"700554ee-bd44-4e8d-bc99-75529e011aa1","system_id":"levelo_inurba_marseille","lat":43.30909,"lon":5.36843,"is_reserved":false,"is_disabled":false,"rental_uris":{"android":"levelo://app?vid=700554ee-bd44-4e8d-bc99-75529e011aa1","ios":"levelo://app?vid=700554ee-bd44-4e8d-bc99-75529e011aa1"},"vehicle_type_id":"4","last_reported":1734595978,"current_range_meters":34800,"station_id":"ce4bgn92rcd13ifvqbvg","pricing_plan_id":"cebpf4jnsgd1na2vs0mg"},{"bike_id":"dc180631-4489-4d7a-9391-997dda0ef0e7","system_id":"levelo_inurba_marseille","lat":43.27119,"lon":5.40404,"is_reserved":false,"is_disabled":false,"rental_uris":{"android":"levelo://app?vid=dc180631-4489-4d7a-9391-997dda0ef0e7","ios":"levelo://app?vid=dc180631-4489-4d7a-9391-997dda0ef0e7"},"vehicle_type_id":"4","last_reported":1734595978,"current_range_meters":9200,"station_id":"ce4bhk92rcd13ifvqgc0","pricing_plan_id":"cebpf4jnsgd1na2vs0mg"},{"bike_id":"505b86f2-3b5c-4b61-985e-9291feb6732a","system_id":"levelo_inurba_marseille","lat":43.29993,"lon":5.37169,"is_reserved":false,"is_disabled":false,"rental_uris":{"android":"levelo://app?vid=505b86f2-3b5c-4b61-985e-9291feb6732a","ios":"levelo://app?vid=505b86f2-3b5c-4b61-985e-9291feb6732a"},"vehicle_type_id":"4","last_reported":1734595978,"current_range_meters":22800,"station_id":"ce4bgr92rcd13ifvqc7g","pricing_plan_id":"cebpf4jnsgd1na2vs0mg"},{"bike_id":"92dbe881-4d12-4807-9474-87af83394dc5","system_id":"levelo_inurba_marseille","lat":43.31359,"lon":5.36702,"is_reserved":false,"is_disabled":false,"rental_uris":{"android":"levelo://app?vid=92dbe881-4d12-4807-9474-87af83394dc5","ios":"levelo://app?vid=92dbe881-4d12-4807-9474-87af83394dc5"},"vehicle_type_id":"4","last_reported":1734595978,"current_range_meters":31200,"station_id":"ce4bgr92rcd13ifvqc6g","pricing_plan_id":"cebpf4jnsgd1na2vs0mg"},{"bike_id":"c8f91bf5-24db-4528-a1fe-4d8519cff350","system_id":"levelo_inurba_marseille","lat":43.32476,"lon":5.36564,"is_reserved":false,"is_disabled":false,"rental_uris":{"android":"levelo://app?vid=c8f91bf5-24db-4528-a1fe-4d8519cff350","ios":"levelo://app?vid=c8f91bf5-24db-4528-a1fe-4d8519cff350"},"vehicle_type_id":"4","last_reported":1734595978,"current_range_meters":29600,"station_id":"ce4bhs12rcd13ifvqhvg","pricing_plan_id":"cebpf4jnsgd1na2vs0mg"},{"bike_id":"c3f48430-88a8-4dc3-a8f8-d2830ffbfb45","system_id":"levelo_inurba_marseille","lat":43.34139,"lon":5.40907,"is_reserved":false,"is_disabled":true,"rental_uris":{"android":"levelo://app?vid=c3f48430-88a8-4dc3-a8f8-d2830ffbfb45","ios":"levelo://app?vid=c3f48430-88a8-4dc3-a8f8-d2830ffbfb45"},"vehicle_type_id":"4","last_reported":1734595978,"current_range_meters":31200,"station_id":"ce4bhqh2rcd13ifvqhlg","pricing_plan_id":"cebpf4jnsgd1na2vs0mg"},{"bike_id":"87fc453f-2ac0-47a7-95c7-3d3cc5dabe17","system_id":"levelo_inurba_marseille","lat":43.30888,"lon":5.37184,"is_reserved":false,"is_disabled":false,"rental_uris":{"android":"levelo://app?vid=87fc453f-2ac0-47a7-95c7-3d3cc5dabe17","ios":"levelo://app?vid=87fc453f-2ac0-47a7-95c7-3d3cc5dabe17"},"vehicle_type_id":"4","last_reported":1734595978,"current_range_meters":35200,"station_id":"ce4bguh2rcd13ifvqckg","pricing_plan_id":"cebpf4jnsgd1na2vs0mg"},{"bike_id":"70e48f2f-d672-4928-acd4-a82d09a4c087","system_id":"levelo_inurba_marseille","lat":43.27207,"lon":5.39185,"is_reserved":false,"is_disabled":false,"rental_uris":{"android":"levelo://app?vid=70e48f2f-d672-4928-acd4-a82d09a4c087","ios":"levelo://app?vid=70e48f2f-d672-4928-acd4-a82d09a4c087"},"vehicle_type_id":"4","last_reported":1734595978,"current_range_meters":28000,"station_id":"ce4bhhp2rcd13ifvqfm0","pricing_plan_id":"cebpf4jnsgd1na2vs0mg"},{"bike_id":"3e1d0fc6-d668-4df4-9650-63e151d1989a","system_id":"levelo_inurba_marseille","lat":43.33599,"lon":5.41024,"is_reserved":false,"is_disabled":false,"rental_uris":{"android":"levelo://app?vid=3e1d0fc6-d668-4df4-9650-63e151d1989a","ios":"levelo://app?vid=3e1d0fc6-d668-4df4-9650-63e151d1989a"},"vehicle_type_id":"4","last_reported":1734595978,"current_range_meters":22400,"station_id":"ce4bhqh2rcd13ifvqhmg","pricing_plan_id":"cebpf4jnsgd1na2vs0mg"},{"bike_id":"782bcbf2-b7de-4b04-bebc-aaa0329dd90c","system_id":"levelo_inurba_marseille","lat":43.231903,"lon":5.355573,"is_reserved":false,"is_disabled":false,"rental_uris":{"android":"levelo://app?vid=782bcbf2-b7de-4b04-bebc-aaa0329dd90c","ios":"levelo://app?vid=782bcbf2-b7de-4b04-bebc-aaa0329dd90c"},"vehicle_type_id":"4","last_reported":1734595978,"current_range_meters":38800,"station_id":"ce4bhu92rcd13ifvqi70","pricing_plan_id":"cebpf4jnsgd1na2vs0mg"},{"bike_id":"34c093a5-a738-48e9-b204-7018370ef5a5","system_id":"levelo_inurba_marseille","lat":43.27675,"lon":5.38875,"is_reserved":false,"is_disabled":false,"rental_uris":{"android":"levelo://app?vid=34c093a5-a738-48e9-b204-7018370ef5a5","ios":"levelo://app?vid=34c093a5-a738-48e9-b204-7018370ef5a5"},"vehicle_type_id":"4","last_reported":1734595978,"current_range_meters":38000,"station_id":"ce4bhi12rcd13ifvqfo0","pricing_plan_id":"cebpf4jnsgd1na2vs0mg"},{"bike_id":"96ff88dc-8cf7-4b0f-a345-fa00220da932","system_id":"levelo_inurba_marseille","lat":43.27415,"lon":5.42389,"is_reserved":false,"is_disabled":true,"rental_uris":{"android":"levelo://app?vid=96ff88dc-8cf7-4b0f-a345-fa00220da932","ios":"levelo://app?vid=96ff88dc-8cf7-4b0f-a345-fa00220da932"},"vehicle_type_id":"4","last_reported":1734595978,"current_range_meters":0,"station_id":"","pricing_plan_id":"cebpf4jnsgd1na2vs0mg"},{"bike_id":"d033e481-cf2c-436a-88d8-e136b48caeda","system_id":"levelo_inurba_marseille","lat":43.24394,"lon":5.37066,"is_reserved":false,"is_disabled":true,"rental_uris":{"android":"levelo://app?vid=d033e481-cf2c-436a-88d8-e136b48caeda","ios":"levelo://app?vid=d033e481-cf2c-436a-88d8-e136b48caeda"},"vehicle_type_id":"4","last_reported":1734595978,"current_range_meters":16000,"station_id":"ce4bhhh2rcd13ifvqfk0","pricing_plan_id":"cebpf4jnsgd1na2vs0mg"},{"bike_id":"a1b435b2-bfa1-44b3-9b8d-bd3ddb4cfb38","system_id":"levelo_inurba_marseille","lat":43.3095,"lon":5.39028,"is_reserved":false,"is_disabled":false,"rental_uris":{"android":"levelo://app?vid=a1b435b2-bfa1-44b3-9b8d-bd3ddb4cfb38","ios":"levelo://app?vid=a1b435b2-bfa1-44b3-9b8d-bd3ddb4cfb38"},"vehicle_type_id":"4","last_reported":1734595978,"current_range_meters":6400,"station_id":"ce4bgup2rcd13ifvqco0","pricing_plan_id":"cebpf4jnsgd1na2vs0mg"},{"bike_id":"3e93a6e4-3e18-468b-b6e7-0e8c2388fb9f","system_id":"levelo_inurba_marseille","lat":43.30941,"lon":5.39034,"is_reserved":false,"is_disabled":true,"rental_uris":{"android":"levelo://app?vid=3e93a6e4-3e18-468b-b6e7-0e8c2388fb9f","ios":"levelo://app?vid=3e93a6e4-3e18-468b-b6e7-0e8c2388fb9f"},"vehicle_type_id":"4","last_reported":1734595978,"current_range_meters":8800,"station_id":"ce4bgup2rcd13ifvqco0","pricing_plan_id":"cebpf4jnsgd1na2vs0mg"},{"bike_id":"4ae904db-8a8f-40cd-8f5d-f5586810f8af","system_id":"levelo_inurba_marseille","lat":43.27961,"lon":5.38718,"is_reserved":false,"is_disabled":true,"rental_uris":{"android":"levelo://app?vid=4ae904db-8a8f-40cd-8f5d-f5586810f8af","ios":"levelo://app?vid=4ae904db-8a8f-40cd-8f5d-f5586810f8af"},"vehicle_type_id":"4","last_reported":1734595978,"current_range_meters":37600,"station_id":"ce4bhg12rcd13ifvqf80","pricing_plan_id":"cebpf4jnsgd1na2vs0mg"},{"bike_id":"11c98b2d-b225-48c1-9cba-f10fe3b28612","system_id":"levelo_inurba_marseille","lat":43.2796,"lon":5.38746,"is_reserved":false,"is_disabled":false,"rental_uris":{"android":"levelo://app?vid=11c98b2d-b225-48c1-9cba-f10fe3b28612","ios":"levelo://app?vid=11c98b2d-b225-48c1-9cba-f10fe3b28612"},"vehicle_type_id":"4","last_reported":1734595978,"current_range_meters":15200,"station_id":"ce4bhg12rcd13ifvqf80","pricing_plan_id":"cebpf4jnsgd1na2vs0mg"},{"bike_id":"8d22bae6-db5b-4219-9bf6-3f87beca267e","system_id":"levelo_inurba_marseille","lat":43.29382,"lon":5.37844,"is_reserved":false,"is_disabled":true,"rental_uris":{"android":"levelo://app?vid=8d22bae6-db5b-4219-9bf6-3f87beca267e","ios":"levelo://app?vid=8d22bae6-db5b-4219-9bf6-3f87beca267e"},"vehicle_type_id":"4","last_reported":1734595978,"current_range_meters":38000,"station_id":"ce4bgjh2rcd13ifvqbf0","pricing_plan_id":"cebpf4jnsgd1na2vs0mg"},{"bike_id":"e0c58e14-0fb2-48ae-ada1-f5faae476746","system_id":"levelo_inurba_marseille","lat":43.292953,"lon":5.374664,"is_reserved":false,"is_disabled":false,"rental_uris":{"android":"levelo://app?vid=e0c58e14-0fb2-48ae-ada1-f5faae476746","ios":"levelo://app?vid=e0c58e14-0fb2-48ae-ada1-f5faae476746"},"vehicle_type_id":"4","last_reported":1734595978,"current_range_meters":26000,"station_id":"ce4bgi12rcd13ifvqb70","pricing_plan_id":"cebpf4jnsgd1na2vs0mg"},{"bike_id":"9d5da678-09c9-4821-be96-925bbb872001","system_id":"levelo_inurba_marseille","lat":43.29066,"lon":5.37176,"is_reserved":false,"is_disabled":false,"rental_uris":{"android":"levelo://app?vid=9d5da678-09c9-4821-be96-925bbb872001","ios":"levelo://app?vid=9d5da678-09c9-4821-be96-925bbb872001"},"vehicle_type_id":"4","last_reported":1734595978,"current_range_meters":5600,"station_id":"ce4bh5p2rcd13ifvqe4g","pricing_plan_id":"cebpf4jnsgd1na2vs0mg"},{"bike_id":"0797b004-8dd5-4e74-8eb9-1d81bf29fc2f","system_id":"levelo_inurba_marseille","lat":43.27913,"lon":5.39579,"is_reserved":false,"is_disabled":false,"rental_uris":{"android":"levelo://app?vid=0797b004-8dd5-4e74-8eb9-1d81bf29fc2f","ios":"levelo://app?vid=0797b004-8dd5-4e74-8eb9-1d81bf29fc2f"},"vehicle_type_id":"4","last_reported":1734595978,"current_range_meters":21600,"station_id":"ce4bhf92rcd13ifvqf40","pricing_plan_id":"cebpf4jnsgd1na2vs0mg"},{"bike_id":"24eb95e4-26aa-43bc-9693-9ef8344c2f0a","system_id":"levelo_inurba_marseille","lat":43.30596,"lon":5.39357,"is_reserved":false,"is_disabled":true,"rental_uris":{"android":"levelo://app?vid=24eb95e4-26aa-43bc-9693-9ef8344c2f0a","ios":"levelo://app?vid=24eb95e4-26aa-43bc-9693-9ef8344c2f0a"},"vehicle_type_id":"4","last_reported":1734595978,"current_range_meters":8400,"station_id":"ce4bh0p2rcd13ifvqd80","pricing_plan_id":"cebpf4jnsgd1na2vs0mg"},{"bike_id":"44127e4e-8e84-4a38-89f7-8f4efb63f7a5","system_id":"levelo_inurba_marseille","lat":43.31182,"lon":5.36759,"is_reserved":false,"is_disabled":true,"rental_uris":{"android":"levelo://app?vid=44127e4e-8e84-4a38-89f7-8f4efb63f7a5","ios":"levelo://app?vid=44127e4e-8e84-4a38-89f7-8f4efb63f7a5"},"vehicle_type_id":"4","last_reported":1734595978,"current_range_meters":2000,"station_id":"","pricing_plan_id":"cebpf4jnsgd1na2vs0mg"},{"bike_id":"7d09273d-79a9-425c-beb2-b3df834a8486","system_id":"levelo_inurba_marseille","lat":43.27498,"lon":5.42452,"is_reserved":false,"is_disabled":false,"rental_uris":{"android":"levelo://app?vid=7d09273d-79a9-425c-beb2-b3df834a8486","ios":"levelo://app?vid=7d09273d-79a9-425c-beb2-b3df834a8486"},"vehicle_type_id":"4","last_reported":1734595978,"current_range_meters":30400,"station_id":"ce4bhn92rcd13ifvqgrg","pricing_plan_id":"cebpf4jnsgd1na2vs0mg"},{"bike_id":"0f14848f-4ddd-4767-9201-bfe422815dd7","system_id":"levelo_inurba_marseille","lat":43.32572,"lon":5.41503,"is_reserved":false,"is_disabled":false,"rental_uris":{"android":"levelo://app?vid=0f14848f-4ddd-4767-9201-bfe422815dd7","ios":"levelo://app?vid=0f14848f-4ddd-4767-9201-bfe422815dd7"},"vehicle_type_id":"4","last_reported":1734595978,"current_range_meters":31200,"station_id":"ce4bhq12rcd13ifvqhhg","pricing_plan_id":"cebpf4jnsgd1na2vs0mg"},{"bike_id":"6f0ce49e-ebe5-42fe-b7d1-98f07cbdb9c6","system_id":"levelo_inurba_marseille","lat":43.29976,"lon":5.38494,"is_reserved":false,"is_disabled":true,"rental_uris":{"android":"levelo://app?vid=6f0ce49e-ebe5-42fe-b7d1-98f07cbdb9c6","ios":"levelo://app?vid=6f0ce49e-ebe5-42fe-b7d1-98f07cbdb9c6"},"vehicle_type_id":"4","last_reported":1734595978,"current_range_meters":0,"station_id":"ce4bgj92rcd13ifvqbd0","pricing_plan_id":"cebpf4jnsgd1na2vs0mg"},{"bike_id":"39abffba-476f-44d5-aaa0-fe5bed1d8a08","system_id":"levelo_inurba_marseille","lat":43.29619,"lon":5.37155,"is_reserved":false,"is_disabled":false,"rental_uris":{"android":"levelo://app?vid=39abffba-476f-44d5-aaa0-fe5bed1d8a08","ios":"levelo://app?vid=39abffba-476f-44d5-aaa0-fe5bed1d8a08"},"vehicle_type_id":"4","last_reported":1734595978,"current_range_meters":19200,"station_id":"ce4bgnh2rcd13ifvqc0g","pricing_plan_id":"cebpf4jnsgd1na2vs0mg"},{"bike_id":"9980b572-51d1-4425-8eb7-b6f74d35ae8b","system_id":"levelo_inurba_marseille","lat":43.29091,"lon":5.38155,"is_reserved":false,"is_disabled":false,"rental_uris":{"android":"levelo://app?vid=9980b572-51d1-4425-8eb7-b6f74d35ae8b","ios":"levelo://app?vid=9980b572-51d1-4425-8eb7-b6f74d35ae8b"},"vehicle_type_id":"4","last_reported":1734595978,"current_range_meters":27200,"station_id":"ce4bh512rcd13ifvqe2g","pricing_plan_id":"cebpf4jnsgd1na2vs0mg"},{"bike_id":"f3f44ddf-6020-441b-87c2-50cc664c5494","system_id":"levelo_inurba_marseille","lat":43.30278,"lon":5.37696,"is_reserved":false,"is_disabled":false,"rental_uris":{"android":"levelo://app?vid=f3f44ddf-6020-441b-87c2-50cc664c5494","ios":"levelo://app?vid=f3f44ddf-6020-441b-87c2-50cc664c5494"},"vehicle_type_id":"4","last_reported":1734595978,"current_range_meters":27600,"station_id":"ce4bguh2rcd13ifvqcj0","pricing_plan_id":"cebpf4jnsgd1na2vs0mg"},{"bike_id":"6c5427f1-2384-470d-b564-3bb4f4f2f275","system_id":"levelo_inurba_marseille","lat":43.31328,"lon":5.39698,"is_reserved":false,"is_disabled":true,"rental_uris":{"android":"levelo://app?vid=6c5427f1-2384-470d-b564-3bb4f4f2f275","ios":"levelo://app?vid=6c5427f1-2384-470d-b564-3bb4f4f2f275"},"vehicle_type_id":"4","last_reported":1734595978,"current_range_meters":27600,"station_id":"ce4bgvp2rcd13ifvqcu0","pricing_plan_id":"cebpf4jnsgd1na2vs0mg"},{"bike_id":"ca9c76f2-e5c8-4632-90b9-3a2250cde576","system_id":"levelo_inurba_marseille","lat":43.31356,"lon":5.38489,"is_reserved":false,"is_disabled":false,"rental_uris":{"android":"levelo://app?vid=ca9c76f2-e5c8-4632-90b9-3a2250cde576","ios":"levelo://app?vid=ca9c76f2-e5c8-4632-90b9-3a2250cde576"},"vehicle_type_id":"4","last_reported":1734595978,"current_range_meters":14800,"station_id":"ce4bgt92rcd13ifvqcf0","pricing_plan_id":"cebpf4jnsgd1na2vs0mg"},{"bike_id":"860b12b0-5d39-41cd-a6b2-0a1f113b6cdd","system_id":"levelo_inurba_marseille","lat":43.284569,"lon":5.358931,"is_reserved":false,"is_disabled":false,"rental_uris":{"android":"levelo://app?vid=860b12b0-5d39-41cd-a6b2-0a1f113b6cdd","ios":"levelo://app?vid=860b12b0-5d39-41cd-a6b2-0a1f113b6cdd"},"vehicle_type_id":"4","last_reported":1734595978,"current_range_meters":11600,"station_id":"ce4bhah2rcd13ifvqei0","pricing_plan_id":"cebpf4jnsgd1na2vs0mg"},{"bike_id":"ba60245e-88fd-4aa5-9df5-baee3ef1d4e4","system_id":"levelo_inurba_marseille","lat":43.28706,"lon":5.37952,"is_reserved":false,"is_disabled":true,"rental_uris":{"android":"levelo://app?vid=ba60245e-88fd-4aa5-9df5-baee3ef1d4e4","ios":"levelo://app?vid=ba60245e-88fd-4aa5-9df5-baee3ef1d4e4"},"vehicle_type_id":"4","last_reported":1734595978,"current_range_meters":20000,"station_id":"ce4bh9p2rcd13ifvqec0","pricing_plan_id":"cebpf4jnsgd1na2vs0mg"},{"bike_id":"b60895b8-d9b8-4ce0-ab87-94bea46129a2","system_id":"levelo_inurba_marseille","lat":43.29777,"lon":5.3808,"is_reserved":false,"is_disabled":false,"rental_uris":{"android":"levelo://app?vid=b60895b8-d9b8-4ce0-ab87-94bea46129a2","ios":"levelo://app?vid=b60895b8-d9b8-4ce0-ab87-94bea46129a2"},"vehicle_type_id":"4","last_reported":1734595978,"current_range_meters":21600,"station_id":"ce4bgip2rcd13ifvqbb0","pricing_plan_id":"cebpf4jnsgd1na2vs0mg"},{"bike_id":"b3bec2b2-1f55-4aa9-bf02-40acba001163","system_id":"levelo_inurba_marseille","lat":43.29846,"lon":5.36275,"is_reserved":false,"is_disabled":false,"rental_uris":{"android":"levelo://app?vid=b3bec2b2-1f55-4aa9-bf02-40acba001163","ios":"levelo://app?vid=b3bec2b2-1f55-4aa9-bf02-40acba001163"},"vehicle_type_id":"4","last_reported":1734595978,"current_range_meters":38000,"station_id":"ce4bgpp2rcd13ifvqc3g","pricing_plan_id":"cebpf4jnsgd1na2vs0mg"},{"bike_id":"4c8b14c1-a279-4e3d-b684-d6545dbf4d61","system_id":"levelo_inurba_marseille","lat":43.3106,"lon":5.37557,"is_reserved":false,"is_disabled":false,"rental_uris":{"android":"levelo://app?vid=4c8b14c1-a279-4e3d-b684-d6545dbf4d61","ios":"levelo://app?vid=4c8b14c1-a279-4e3d-b684-d6545dbf4d61"},"vehicle_type_id":"4","last_reported":1734595978,"current_range_meters":28800,"station_id":"","pricing_plan_id":"cebpf4jnsgd1na2vs0mg"},{"bike_id":"84de6005-e6b0-4bd2-8676-ca4461fc883c","system_id":"levelo_inurba_marseille","lat":43.30149,"lon":5.38079,"is_reserved":false,"is_disabled":false,"rental_uris":{"android":"levelo://app?vid=84de6005-e6b0-4bd2-8676-ca4461fc883c","ios":"levelo://app?vid=84de6005-e6b0-4bd2-8676-ca4461fc883c"},"vehicle_type_id":"4","last_reported":1734595978,"current_range_meters":34000,"station_id":"ce4bgjp2rcd13ifvqbh0","pricing_plan_id":"cebpf4jnsgd1na2vs0mg"},{"bike_id":"e0c2eddf-4ba9-4754-b0b5-efd80badee74","system_id":"levelo_inurba_marseille","lat":43.2587,"lon":5.39423,"is_reserved":false,"is_disabled":true,"rental_uris":{"android":"levelo://app?vid=e0c2eddf-4ba9-4754-b0b5-efd80badee74","ios":"levelo://app?vid=e0c2eddf-4ba9-4754-b0b5-efd80badee74"},"vehicle_type_id":"4","last_reported":1734595978,"current_range_meters":0,"station_id":"","pricing_plan_id":"cebpf4jnsgd1na2vs0mg"},{"bike_id":"171d375c-18ea-47b4-9afc-7b2025b0138d","system_id":"levelo_inurba_marseille","lat":43.2795,"lon":5.4105,"is_reserved":false,"is_disabled":true,"rental_uris":{"android":"levelo://app?vid=171d375c-18ea-47b4-9afc-7b2025b0138d","ios":"levelo://app?vid=171d375c-18ea-47b4-9afc-7b2025b0138d"},"vehicle_type_id":"4","last_reported":1734595978,"current_range_meters":38800,"station_id":"ce4bhnp2rcd13ifvqh0g","pricing_plan_id":"cebpf4jnsgd1na2vs0mg"},{"bike_id":"7d7f8ff7-1dc0-4e93-95f4-ebf561c73d31","system_id":"levelo_inurba_marseille","lat":43.31355,"lon":5.38491,"is_reserved":false,"is_disabled":false,"rental_uris":{"android":"levelo://app?vid=7d7f8ff7-1dc0-4e93-95f4-ebf561c73d31","ios":"levelo://app?vid=7d7f8ff7-1dc0-4e93-95f4-ebf561c73d31"},"vehicle_type_id":"4","last_reported":1734595978,"current_range_meters":22400,"station_id":"ce4bgt92rcd13ifvqcf0","pricing_plan_id":"cebpf4jnsgd1na2vs0mg"},{"bike_id":"09e268b6-773b-47db-ba60-90178c642a29","system_id":"levelo_inurba_marseille","lat":43.30586,"lon":5.39353,"is_reserved":false,"is_disabled":true,"rental_uris":{"android":"levelo://app?vid=09e268b6-773b-47db-ba60-90178c642a29","ios":"levelo://app?vid=09e268b6-773b-47db-ba60-90178c642a29"},"vehicle_type_id":"4","last_reported":1734595978,"current_range_meters":30000,"station_id":"ce4bh0p2rcd13ifvqd80","pricing_plan_id":"cebpf4jnsgd1na2vs0mg"},{"bike_id":"3b31c2da-b8e0-4766-a4e5-a7923c3a12fe","system_id":"levelo_inurba_marseille","lat":43.2315,"lon":5.4372,"is_reserved":false,"is_disabled":false,"rental_uris":{"android":"levelo://app?vid=3b31c2da-b8e0-4766-a4e5-a7923c3a12fe","ios":"levelo://app?vid=3b31c2da-b8e0-4766-a4e5-a7923c3a12fe"},"vehicle_type_id":"4","last_reported":1734595978,"current_range_meters":38800,"station_id":"ce4bhmp2rcd13ifvqgog","pricing_plan_id":"cebpf4jnsgd1na2vs0mg"},{"bike_id":"84f0b69b-a17f-4438-b374-7cc27b3c7578","system_id":"levelo_inurba_marseille","lat":43.30197,"lon":5.36624,"is_reserved":false,"is_disabled":false,"rental_uris":{"android":"levelo://app?vid=84f0b69b-a17f-4438-b374-7cc27b3c7578","ios":"levelo://app?vid=84f0b69b-a17f-4438-b374-7cc27b3c7578"},"vehicle_type_id":"4","last_reported":1734595978,"current_range_meters":36800,"station_id":"ce4bgrh2rcd13ifvqc8g","pricing_plan_id":"cebpf4jnsgd1na2vs0mg"},{"bike_id":"ef3a3b70-a16f-4feb-9d71-73b6a7226c94","system_id":"levelo_inurba_marseille","lat":43.25001,"lon":5.38922,"is_reserved":false,"is_disabled":false,"rental_uris":{"android":"levelo://app?vid=ef3a3b70-a16f-4feb-9d71-73b6a7226c94","ios":"levelo://app?vid=ef3a3b70-a16f-4feb-9d71-73b6a7226c94"},"vehicle_type_id":"4","last_reported":1734595978,"current_range_meters":4400,"station_id":"ce4bhgp2rcd13ifvqfd0","pricing_plan_id":"cebpf4jnsgd1na2vs0mg"},{"bike_id":"8a0aa02e-a2c0-493a-9c71-ada57ba5fcb8","system_id":"levelo_inurba_marseille","lat":43.30457,"lon":5.37896,"is_reserved":false,"is_disabled":false,"rental_uris":{"android":"levelo://app?vid=8a0aa02e-a2c0-493a-9c71-ada57ba5fcb8","ios":"levelo://app?vid=8a0aa02e-a2c0-493a-9c71-ada57ba5fcb8"},"vehicle_type_id":"4","last_reported":1734595978,"current_range_meters":35200,"station_id":"ce4bgup2rcd13ifvqcn0","pricing_plan_id":"cebpf4jnsgd1na2vs0mg"},{"bike_id":"e54609c4-f464-4bed-9071-1210c80424f9","system_id":"levelo_inurba_marseille","lat":43.34142,"lon":5.40911,"is_reserved":false,"is_disabled":false,"rental_uris":{"android":"levelo://app?vid=e54609c4-f464-4bed-9071-1210c80424f9","ios":"levelo://app?vid=e54609c4-f464-4bed-9071-1210c80424f9"},"vehicle_type_id":"4","last_reported":1734595978,"current_range_meters":29600,"station_id":"ce4bhqh2rcd13ifvqhlg","pricing_plan_id":"cebpf4jnsgd1na2vs0mg"},{"bike_id":"bf48a643-7e83-4567-8645-86e4d1bebaf5","system_id":"levelo_inurba_marseille","lat":43.2731,"lon":5.39083,"is_reserved":false,"is_disabled":false,"rental_uris":{"android":"levelo://app?vid=bf48a643-7e83-4567-8645-86e4d1bebaf5","ios":"levelo://app?vid=bf48a643-7e83-4567-8645-86e4d1bebaf5"},"vehicle_type_id":"4","last_reported":1734595978,"current_range_meters":11200,"station_id":"ce4bhgp2rcd13ifvqfe0","pricing_plan_id":"cebpf4jnsgd1na2vs0mg"},{"bike_id":"e6f867be-a98b-43bd-be0b-12f5af66c6c4","system_id":"levelo_inurba_marseille","lat":43.30967,"lon":5.39807,"is_reserved":false,"is_disabled":false,"rental_uris":{"android":"levelo://app?vid=e6f867be-a98b-43bd-be0b-12f5af66c6c4","ios":"levelo://app?vid=e6f867be-a98b-43bd-be0b-12f5af66c6c4"},"vehicle_type_id":"4","last_reported":1734595978,"current_range_meters":32400,"station_id":"","pricing_plan_id":"cebpf4jnsgd1na2vs0mg"},{"bike_id":"9b05cfc1-2d4b-4f17-8696-e339befd3794","system_id":"levelo_inurba_marseille","lat":43.2959,"lon":5.381,"is_reserved":false,"is_disabled":false,"rental_uris":{"android":"levelo://app?vid=9b05cfc1-2d4b-4f17-8696-e339befd3794","ios":"levelo://app?vid=9b05cfc1-2d4b-4f17-8696-e339befd3794"},"vehicle_type_id":"4","last_reported":1734595978,"current_range_meters":38800,"station_id":"ce4bgl12rcd13ifvqbo0","pricing_plan_id":"cebpf4jnsgd1na2vs0mg"},{"bike_id":"bb337245-7c41-4671-900b-a4d92ae562c6","system_id":"levelo_inurba_marseille","lat":43.29528,"lon":5.39022,"is_reserved":false,"is_disabled":true,"rental_uris":{"android":"levelo://app?vid=bb337245-7c41-4671-900b-a4d92ae562c6","ios":"levelo://app?vid=bb337245-7c41-4671-900b-a4d92ae562c6"},"vehicle_type_id":"4","last_reported":1734595978,"current_range_meters":0,"station_id":"ce4bh3p2rcd13ifvqdp0","pricing_plan_id":"cebpf4jnsgd1na2vs0mg"},{"bike_id":"230bd479-cac1-4ef3-966a-e2f300527d57","system_id":"levelo_inurba_marseille","lat":43.31226,"lon":5.368307,"is_reserved":false,"is_disabled":false,"rental_uris":{"android":"levelo://app?vid=230bd479-cac1-4ef3-966a-e2f300527d57","ios":"levelo://app?vid=230bd479-cac1-4ef3-966a-e2f300527d57"},"vehicle_type_id":"4","last_reported":1734595978,"current_range_meters":14000,"station_id":"ce4bgl92rcd13ifvqbq0","pricing_plan_id":"cebpf4jnsgd1na2vs0mg"},{"bike_id":"dc55444f-0845-4280-ba2d-e9af2de66195","system_id":"levelo_inurba_marseille","lat":43.29372,"lon":5.3783,"is_reserved":false,"is_disabled":false,"rental_uris":{"android":"levelo://app?vid=dc55444f-0845-4280-ba2d-e9af2de66195","ios":"levelo://app?vid=dc55444f-0845-4280-ba2d-e9af2de66195"},"vehicle_type_id":"4","last_reported":1734595978,"current_range_meters":8000,"station_id":"ce4bgjh2rcd13ifvqbf0","pricing_plan_id":"cebpf4jnsgd1na2vs0mg"},{"bike_id":"e0d25bfb-a4ab-4f62-93ce-5814eaaaf7b9","system_id":"levelo_inurba_marseille","lat":43.34142,"lon":5.409,"is_reserved":false,"is_disabled":false,"rental_uris":{"android":"levelo://app?vid=e0d25bfb-a4ab-4f62-93ce-5814eaaaf7b9","ios":"levelo://app?vid=e0d25bfb-a4ab-4f62-93ce-5814eaaaf7b9"},"vehicle_type_id":"4","last_reported":1734595978,"current_range_meters":38000,"station_id":"ce4bhqh2rcd13ifvqhlg","pricing_plan_id":"cebpf4jnsgd1na2vs0mg"},{"bike_id":"acd4a33d-3a2b-4f88-a998-5a3954113a0b","system_id":"levelo_inurba_marseille","lat":43.31688,"lon":5.40475,"is_reserved":false,"is_disabled":true,"rental_uris":{"android":"levelo://app?vid=acd4a33d-3a2b-4f88-a998-5a3954113a0b","ios":"levelo://app?vid=acd4a33d-3a2b-4f88-a998-5a3954113a0b"},"vehicle_type_id":"4","last_reported":1734595978,"current_range_meters":25600,"station_id":"ce4bh012rcd13ifvqd00","pricing_plan_id":"cebpf4jnsgd1na2vs0mg"},{"bike_id":"caa55ce0-17b5-40dc-ab3f-e4561e64d4cf","system_id":"levelo_inurba_marseille","lat":43.30942,"lon":5.40135,"is_reserved":false,"is_disabled":false,"rental_uris":{"android":"levelo://app?vid=caa55ce0-17b5-40dc-ab3f-e4561e64d4cf","ios":"levelo://app?vid=caa55ce0-17b5-40dc-ab3f-e4561e64d4cf"},"vehicle_type_id":"4","last_reported":1734595978,"current_range_meters":24800,"station_id":"ce4bgvp2rcd13ifvqct0","pricing_plan_id":"cebpf4jnsgd1na2vs0mg"},{"bike_id":"3bc7e65e-db25-43f1-84f9-8bb379b5bba6","system_id":"levelo_inurba_marseille","lat":43.28977,"lon":5.36602,"is_reserved":false,"is_disabled":true,"rental_uris":{"android":"levelo://app?vid=3bc7e65e-db25-43f1-84f9-8bb379b5bba6","ios":"levelo://app?vid=3bc7e65e-db25-43f1-84f9-8bb379b5bba6"},"vehicle_type_id":"4","last_reported":1734595978,"current_range_meters":38800,"station_id":"","pricing_plan_id":"cebpf4jnsgd1na2vs0mg"},{"bike_id":"704e6abe-f5d6-4063-b80b-bc51f5a6e383","system_id":"levelo_inurba_marseille","lat":43.28978,"lon":5.37824,"is_reserved":false,"is_disabled":true,"rental_uris":{"android":"levelo://app?vid=704e6abe-f5d6-4063-b80b-bc51f5a6e383","ios":"levelo://app?vid=704e6abe-f5d6-4063-b80b-bc51f5a6e383"},"vehicle_type_id":"4","last_reported":1734595978,"current_range_meters":36800,"station_id":"ce4bh9p2rcd13ifvqed0","pricing_plan_id":"cebpf4jnsgd1na2vs0mg"},{"bike_id":"3bec605b-2ea4-40c6-8567-2dcb62a17266","system_id":"levelo_inurba_marseille","lat":43.29272,"lon":5.36843,"is_reserved":false,"is_disabled":true,"rental_uris":{"android":"levelo://app?vid=3bec605b-2ea4-40c6-8567-2dcb62a17266","ios":"levelo://app?vid=3bec605b-2ea4-40c6-8567-2dcb62a17266"},"vehicle_type_id":"4","last_reported":1734595978,"current_range_meters":32400,"station_id":"ce4bhbp2rcd13ifvqesg","pricing_plan_id":"cebpf4jnsgd1na2vs0mg"},{"bike_id":"17b2d2b0-9855-46b4-a478-0bd9c7277056","system_id":"levelo_inurba_marseille","lat":43.30909,"lon":5.37831,"is_reserved":false,"is_disabled":true,"rental_uris":{"android":"levelo://app?vid=17b2d2b0-9855-46b4-a478-0bd9c7277056","ios":"levelo://app?vid=17b2d2b0-9855-46b4-a478-0bd9c7277056"},"vehicle_type_id":"4","last_reported":1734595978,"current_range_meters":0,"station_id":"","pricing_plan_id":"cebpf4jnsgd1na2vs0mg"},{"bike_id":"7448830e-8418-4753-ac56-c801b75e9294","system_id":"levelo_inurba_marseille","lat":43.2961,"lon":5.37685,"is_reserved":false,"is_disabled":false,"rental_uris":{"android":"levelo://app?vid=7448830e-8418-4753-ac56-c801b75e9294","ios":"levelo://app?vid=7448830e-8418-4753-ac56-c801b75e9294"},"vehicle_type_id":"4","last_reported":1734595978,"current_range_meters":8000,"station_id":"ce4bgi92rcd13ifvqb90","pricing_plan_id":"cebpf4jnsgd1na2vs0mg"},{"bike_id":"a72b05a0-553d-4606-89ed-559596aa6693","system_id":"levelo_inurba_marseille","lat":43.31486,"lon":5.37306,"is_reserved":false,"is_disabled":false,"rental_uris":{"android":"levelo://app?vid=a72b05a0-553d-4606-89ed-559596aa6693","ios":"levelo://app?vid=a72b05a0-553d-4606-89ed-559596aa6693"},"vehicle_type_id":"4","last_reported":1734595978,"current_range_meters":9200,"station_id":"ce4bgt12rcd13ifvqcd0","pricing_plan_id":"cebpf4jnsgd1na2vs0mg"},{"bike_id":"67e28fa1-5c05-45ba-804f-23ff1db322b7","system_id":"levelo_inurba_marseille","lat":43.29625,"lon":5.37719,"is_reserved":false,"is_disabled":false,"rental_uris":{"android":"levelo://app?vid=67e28fa1-5c05-45ba-804f-23ff1db322b7","ios":"levelo://app?vid=67e28fa1-5c05-45ba-804f-23ff1db322b7"},"vehicle_type_id":"4","last_reported":1734595978,"current_range_meters":33200,"station_id":"ce4bgi92rcd13ifvqb90","pricing_plan_id":"cebpf4jnsgd1na2vs0mg"},{"bike_id":"9f97f512-1b19-443a-b67f-86de027e5577","system_id":"levelo_inurba_marseille","lat":43.34549,"lon":5.37605,"is_reserved":false,"is_disabled":true,"rental_uris":{"android":"levelo://app?vid=9f97f512-1b19-443a-b67f-86de027e5577","ios":"levelo://app?vid=9f97f512-1b19-443a-b67f-86de027e5577"},"vehicle_type_id":"4","last_reported":1734595978,"current_range_meters":24000,"station_id":"","pricing_plan_id":"cebpf4jnsgd1na2vs0mg"},{"bike_id":"590947b3-055a-44f9-be2a-846212eec52a","system_id":"levelo_inurba_marseille","lat":43.27619,"lon":5.36112,"is_reserved":false,"is_disabled":false,"rental_uris":{"android":"levelo://app?vid=590947b3-055a-44f9-be2a-846212eec52a","ios":"levelo://app?vid=590947b3-055a-44f9-be2a-846212eec52a"},"vehicle_type_id":"4","last_reported":1734595978,"current_range_meters":38800,"station_id":"ce4bgj92rcd13ifvqbe0","pricing_plan_id":"cebpf4jnsgd1na2vs0mg"},{"bike_id":"e76ad41c-6112-4b4b-b83a-86e0aa04f671","system_id":"levelo_inurba_marseille","lat":43.26951,"lon":5.38633,"is_reserved":false,"is_disabled":false,"rental_uris":{"android":"levelo://app?vid=e76ad41c-6112-4b4b-b83a-86e0aa04f671","ios":"levelo://app?vid=e76ad41c-6112-4b4b-b83a-86e0aa04f671"},"vehicle_type_id":"4","last_reported":1734595978,"current_range_meters":23200,"station_id":"ce4bhh92rcd13ifvqfh0","pricing_plan_id":"cebpf4jnsgd1na2vs0mg"},{"bike_id":"32e2177a-a150-4fc1-8f4b-7b7586ce0edf","system_id":"levelo_inurba_marseille","lat":43.27493,"lon":5.42456,"is_reserved":false,"is_disabled":true,"rental_uris":{"android":"levelo://app?vid=32e2177a-a150-4fc1-8f4b-7b7586ce0edf","ios":"levelo://app?vid=32e2177a-a150-4fc1-8f4b-7b7586ce0edf"},"vehicle_type_id":"4","last_reported":1734595978,"current_range_meters":36400,"station_id":"ce4bhn92rcd13ifvqgrg","pricing_plan_id":"cebpf4jnsgd1na2vs0mg"},{"bike_id":"3a9f2c58-168a-43b6-bf1c-ba85eecd8717","system_id":"levelo_inurba_marseille","lat":43.30138,"lon":5.37419,"is_reserved":false,"is_disabled":false,"rental_uris":{"android":"levelo://app?vid=3a9f2c58-168a-43b6-bf1c-ba85eecd8717","ios":"levelo://app?vid=3a9f2c58-168a-43b6-bf1c-ba85eecd8717"},"vehicle_type_id":"4","last_reported":1734595978,"current_range_meters":19600,"station_id":"ce4bgs92rcd13ifvqcc0","pricing_plan_id":"cebpf4jnsgd1na2vs0mg"},{"bike_id":"5c647802-296a-44aa-bfb5-f5eddac6df9c","system_id":"levelo_inurba_marseille","lat":43.30306,"lon":5.36885,"is_reserved":false,"is_disabled":false,"rental_uris":{"android":"levelo://app?vid=5c647802-296a-44aa-bfb5-f5eddac6df9c","ios":"levelo://app?vid=5c647802-296a-44aa-bfb5-f5eddac6df9c"},"vehicle_type_id":"4","last_reported":1734595978,"current_range_meters":14400,"station_id":"ce4bgqh2rcd13ifvqc5g","pricing_plan_id":"cebpf4jnsgd1na2vs0mg"},{"bike_id":"b60518e2-bd30-4342-a131-bcbd6fc43482","system_id":"levelo_inurba_marseille","lat":43.30541,"lon":5.38419,"is_reserved":false,"is_disabled":false,"rental_uris":{"android":"levelo://app?vid=b60518e2-bd30-4342-a131-bcbd6fc43482","ios":"levelo://app?vid=b60518e2-bd30-4342-a131-bcbd6fc43482"},"vehicle_type_id":"4","last_reported":1734595978,"current_range_meters":38800,"station_id":"ce4bgg92rcd13ifvqb30","pricing_plan_id":"cebpf4jnsgd1na2vs0mg"},{"bike_id":"6d90c9d4-0b5c-43bf-b682-e7561e654b2c","system_id":"levelo_inurba_marseille","lat":43.295187,"lon":5.394018,"is_reserved":false,"is_disabled":true,"rental_uris":{"android":"levelo://app?vid=6d90c9d4-0b5c-43bf-b682-e7561e654b2c","ios":"levelo://app?vid=6d90c9d4-0b5c-43bf-b682-e7561e654b2c"},"vehicle_type_id":"4","last_reported":1734595978,"current_range_meters":3200,"station_id":"ce4bh292rcd13ifvqdf0","pricing_plan_id":"cebpf4jnsgd1na2vs0mg"},{"bike_id":"da708de4-c602-4244-8495-8ce716405c97","system_id":"levelo_inurba_marseille","lat":43.324456,"lon":5.406605,"is_reserved":false,"is_disabled":true,"rental_uris":{"android":"levelo://app?vid=da708de4-c602-4244-8495-8ce716405c97","ios":"levelo://app?vid=da708de4-c602-4244-8495-8ce716405c97"},"vehicle_type_id":"4","last_reported":1734595978,"current_range_meters":0,"station_id":"ce4bhq92rcd13ifvqhjg","pricing_plan_id":"cebpf4jnsgd1na2vs0mg"},{"bike_id":"cab67c56-8084-4995-8f0f-951105b0200f","system_id":"levelo_inurba_marseille","lat":43.27564,"lon":5.38418,"is_reserved":false,"is_disabled":false,"rental_uris":{"android":"levelo://app?vid=cab67c56-8084-4995-8f0f-951105b0200f","ios":"levelo://app?vid=cab67c56-8084-4995-8f0f-951105b0200f"},"vehicle_type_id":"4","last_reported":1734595978,"current_range_meters":38000,"station_id":"ce4bhh92rcd13ifvqfi0","pricing_plan_id":"cebpf4jnsgd1na2vs0mg"},{"bike_id":"63ac9ec0-94d0-4b1e-8838-1ee7b4295fda","system_id":"levelo_inurba_marseille","lat":43.32108,"lon":5.36769,"is_reserved":false,"is_disabled":false,"rental_uris":{"android":"levelo://app?vid=63ac9ec0-94d0-4b1e-8838-1ee7b4295fda","ios":"levelo://app?vid=63ac9ec0-94d0-4b1e-8838-1ee7b4295fda"},"vehicle_type_id":"4","last_reported":1734595978,"current_range_meters":36000,"station_id":"ce4bhrh2rcd13ifvqhug","pricing_plan_id":"cebpf4jnsgd1na2vs0mg"},{"bike_id":"715e1817-e4c3-4b84-8839-0db90c54e932","system_id":"levelo_inurba_marseille","lat":43.30465,"lon":5.37908,"is_reserved":false,"is_disabled":false,"rental_uris":{"android":"levelo://app?vid=715e1817-e4c3-4b84-8839-0db90c54e932","ios":"levelo://app?vid=715e1817-e4c3-4b84-8839-0db90c54e932"},"vehicle_type_id":"4","last_reported":1734595978,"current_range_meters":14800,"station_id":"ce4bgup2rcd13ifvqcn0","pricing_plan_id":"cebpf4jnsgd1na2vs0mg"},{"bike_id":"004d260c-9135-4244-94e5-751830b1074a","system_id":"levelo_inurba_marseille","lat":43.24063,"lon":5.37755,"is_reserved":false,"is_disabled":false,"rental_uris":{"android":"levelo://app?vid=004d260c-9135-4244-94e5-751830b1074a","ios":"levelo://app?vid=004d260c-9135-4244-94e5-751830b1074a"},"vehicle_type_id":"4","last_reported":1734595978,"current_range_meters":39200,"station_id":"ce4bhnp2rcd13ifvqgvg","pricing_plan_id":"cebpf4jnsgd1na2vs0mg"},{"bike_id":"34c63c6a-d747-44b4-9ae2-cc8776dcbf77","system_id":"levelo_inurba_marseille","lat":43.2972,"lon":5.37697,"is_reserved":false,"is_disabled":false,"rental_uris":{"android":"levelo://app?vid=34c63c6a-d747-44b4-9ae2-cc8776dcbf77","ios":"levelo://app?vid=34c63c6a-d747-44b4-9ae2-cc8776dcbf77"},"vehicle_type_id":"4","last_reported":1734595978,"current_range_meters":32400,"station_id":"ce4bgkh2rcd13ifvqbl0","pricing_plan_id":"cebpf4jnsgd1na2vs0mg"},{"bike_id":"d7d936a4-b0e5-4d31-bc8e-8479d85c38ac","system_id":"levelo_inurba_marseille","lat":43.30943,"lon":5.39035,"is_reserved":false,"is_disabled":true,"rental_uris":{"android":"levelo://app?vid=d7d936a4-b0e5-4d31-bc8e-8479d85c38ac","ios":"levelo://app?vid=d7d936a4-b0e5-4d31-bc8e-8479d85c38ac"},"vehicle_type_id":"4","last_reported":1734595978,"current_range_meters":400,"station_id":"ce4bgup2rcd13ifvqco0","pricing_plan_id":"cebpf4jnsgd1na2vs0mg"},{"bike_id":"375c964c-ed28-419a-9b34-a747a7df7726","system_id":"levelo_inurba_marseille","lat":43.30208,"lon":5.39467,"is_reserved":false,"is_disabled":true,"rental_uris":{"android":"levelo://app?vid=375c964c-ed28-419a-9b34-a747a7df7726","ios":"levelo://app?vid=375c964c-ed28-419a-9b34-a747a7df7726"},"vehicle_type_id":"4","last_reported":1734595978,"current_range_meters":38800,"station_id":"ce4bh0p2rcd13ifvqd70","pricing_plan_id":"cebpf4jnsgd1na2vs0mg"},{"bike_id":"8bc50c6c-0739-429c-8ea9-92f9736d81e1","system_id":"levelo_inurba_marseille","lat":43.29076,"lon":5.37181,"is_reserved":false,"is_disabled":false,"rental_uris":{"android":"levelo://app?vid=8bc50c6c-0739-429c-8ea9-92f9736d81e1","ios":"levelo://app?vid=8bc50c6c-0739-429c-8ea9-92f9736d81e1"},"vehicle_type_id":"4","last_reported":1734595978,"current_range_meters":37600,"station_id":"ce4bh5p2rcd13ifvqe4g","pricing_plan_id":"cebpf4jnsgd1na2vs0mg"},{"bike_id":"e1680d2a-06eb-45d0-9cc3-43eefab94c3a","system_id":"levelo_inurba_marseille","lat":43.28478,"lon":5.38541,"is_reserved":false,"is_disabled":false,"rental_uris":{"android":"levelo://app?vid=e1680d2a-06eb-45d0-9cc3-43eefab94c3a","ios":"levelo://app?vid=e1680d2a-06eb-45d0-9cc3-43eefab94c3a"},"vehicle_type_id":"4","last_reported":1734595978,"current_range_meters":20800,"station_id":"ce4bh8p2rcd13ifvqeb0","pricing_plan_id":"cebpf4jnsgd1na2vs0mg"},{"bike_id":"6f5955f2-f150-4390-9828-ed9fb50a410b","system_id":"levelo_inurba_marseille","lat":43.29551,"lon":5.42278,"is_reserved":false,"is_disabled":false,"rental_uris":{"android":"levelo://app?vid=6f5955f2-f150-4390-9828-ed9fb50a410b","ios":"levelo://app?vid=6f5955f2-f150-4390-9828-ed9fb50a410b"},"vehicle_type_id":"4","last_reported":1734595978,"current_range_meters":20800,"station_id":"ce4bhph2rcd13ifvqhdg","pricing_plan_id":"cebpf4jnsgd1na2vs0mg"},{"bike_id":"8501341e-9399-4c44-8aec-bb185daf6b3e","system_id":"levelo_inurba_marseille","lat":43.30463,"lon":5.37902,"is_reserved":false,"is_disabled":false,"rental_uris":{"android":"levelo://app?vid=8501341e-9399-4c44-8aec-bb185daf6b3e","ios":"levelo://app?vid=8501341e-9399-4c44-8aec-bb185daf6b3e"},"vehicle_type_id":"4","last_reported":1734595978,"current_range_meters":14400,"station_id":"ce4bgup2rcd13ifvqcn0","pricing_plan_id":"cebpf4jnsgd1na2vs0mg"},{"bike_id":"a95bd765-07cb-4b0f-a776-70b91836fb02","system_id":"levelo_inurba_marseille","lat":43.29382,"lon":5.37838,"is_reserved":false,"is_disabled":false,"rental_uris":{"android":"levelo://app?vid=a95bd765-07cb-4b0f-a776-70b91836fb02","ios":"levelo://app?vid=a95bd765-07cb-4b0f-a776-70b91836fb02"},"vehicle_type_id":"4","last_reported":1734595978,"current_range_meters":17200,"station_id":"ce4bgjh2rcd13ifvqbf0","pricing_plan_id":"cebpf4jnsgd1na2vs0mg"},{"bike_id":"7e781bab-7fbd-4675-b69a-fe327a28b5fd","system_id":"levelo_inurba_marseille","lat":43.27679,"lon":5.38885,"is_reserved":false,"is_disabled":true,"rental_uris":{"android":"levelo://app?vid=7e781bab-7fbd-4675-b69a-fe327a28b5fd","ios":"levelo://app?vid=7e781bab-7fbd-4675-b69a-fe327a28b5fd"},"vehicle_type_id":"4","last_reported":1734595978,"current_range_meters":38800,"station_id":"ce4bhi12rcd13ifvqfo0","pricing_plan_id":"cebpf4jnsgd1na2vs0mg"},{"bike_id":"f1822f9b-5585-44a0-a71f-09e31941c980","system_id":"levelo_inurba_marseille","lat":43.28481,"lon":5.38405,"is_reserved":false,"is_disabled":false,"rental_uris":{"android":"levelo://app?vid=f1822f9b-5585-44a0-a71f-09e31941c980","ios":"levelo://app?vid=f1822f9b-5585-44a0-a71f-09e31941c980"},"vehicle_type_id":"4","last_reported":1734595978,"current_range_meters":38800,"station_id":"ce4bh512rcd13ifvqe3g","pricing_plan_id":"cebpf4jnsgd1na2vs0mg"},{"bike_id":"2195649b-0159-46f7-bb80-04bd88c2ee17","system_id":"levelo_inurba_marseille","lat":43.26201,"lon":5.37928,"is_reserved":false,"is_disabled":false,"rental_uris":{"android":"levelo://app?vid=2195649b-0159-46f7-bb80-04bd88c2ee17","ios":"levelo://app?vid=2195649b-0159-46f7-bb80-04bd88c2ee17"},"vehicle_type_id":"4","last_reported":1734595978,"current_range_meters":13600,"station_id":"ce4bhjp2rcd13ifvqg90","pricing_plan_id":"cebpf4jnsgd1na2vs0mg"},{"bike_id":"f55a55a9-091b-45cd-bafe-e68f26f7c5a7","system_id":"levelo_inurba_marseille","lat":43.29846,"lon":5.36263,"is_reserved":false,"is_disabled":false,"rental_uris":{"android":"levelo://app?vid=f55a55a9-091b-45cd-bafe-e68f26f7c5a7","ios":"levelo://app?vid=f55a55a9-091b-45cd-bafe-e68f26f7c5a7"},"vehicle_type_id":"4","last_reported":1734595978,"current_range_meters":24800,"station_id":"ce4bgpp2rcd13ifvqc3g","pricing_plan_id":"cebpf4jnsgd1na2vs0mg"},{"bike_id":"f0f98e1e-00ea-404a-8ec2-c3d3f0edd605","system_id":"levelo_inurba_marseille","lat":43.33604,"lon":5.41033,"is_reserved":false,"is_disabled":false,"rental_uris":{"android":"levelo://app?vid=f0f98e1e-00ea-404a-8ec2-c3d3f0edd605","ios":"levelo://app?vid=f0f98e1e-00ea-404a-8ec2-c3d3f0edd605"},"vehicle_type_id":"4","last_reported":1734595978,"current_range_meters":10800,"station_id":"ce4bhqh2rcd13ifvqhmg","pricing_plan_id":"cebpf4jnsgd1na2vs0mg"},{"bike_id":"f02c8fac-7e68-486d-8833-4aee179559b3","system_id":"levelo_inurba_marseille","lat":43.27066,"lon":5.42279,"is_reserved":false,"is_disabled":false,"rental_uris":{"android":"levelo://app?vid=f02c8fac-7e68-486d-8833-4aee179559b3","ios":"levelo://app?vid=f02c8fac-7e68-486d-8833-4aee179559b3"},"vehicle_type_id":"4","last_reported":1734595978,"current_range_meters":22000,"station_id":"ce4bhk92rcd13ifvqgb0","pricing_plan_id":"cebpf4jnsgd1na2vs0mg"},{"bike_id":"399bc108-63c0-47cd-8a6e-7e7902d036d2","system_id":"levelo_inurba_marseille","lat":43.30276,"lon":5.37696,"is_reserved":false,"is_disabled":false,"rental_uris":{"android":"levelo://app?vid=399bc108-63c0-47cd-8a6e-7e7902d036d2","ios":"levelo://app?vid=399bc108-63c0-47cd-8a6e-7e7902d036d2"},"vehicle_type_id":"4","last_reported":1734595978,"current_range_meters":38800,"station_id":"ce4bguh2rcd13ifvqcj0","pricing_plan_id":"cebpf4jnsgd1na2vs0mg"},{"bike_id":"073a929d-4e5f-46c1-a47a-23cc5ce8318c","system_id":"levelo_inurba_marseille","lat":43.3095,"lon":5.39043,"is_reserved":false,"is_disabled":false,"rental_uris":{"android":"levelo://app?vid=073a929d-4e5f-46c1-a47a-23cc5ce8318c","ios":"levelo://app?vid=073a929d-4e5f-46c1-a47a-23cc5ce8318c"},"vehicle_type_id":"4","last_reported":1734595978,"current_range_meters":14000,"station_id":"ce4bgup2rcd13ifvqco0","pricing_plan_id":"cebpf4jnsgd1na2vs0mg"},{"bike_id":"a6507411-9c66-4600-a27b-20c00afbcb30","system_id":"levelo_inurba_marseille","lat":43.24807,"lon":5.37457,"is_reserved":false,"is_disabled":true,"rental_uris":{"android":"levelo://app?vid=a6507411-9c66-4600-a27b-20c00afbcb30","ios":"levelo://app?vid=a6507411-9c66-4600-a27b-20c00afbcb30"},"vehicle_type_id":"4","last_reported":1734595978,"current_range_meters":30000,"station_id":"ce4bhgh2rcd13ifvqfb0","pricing_plan_id":"cebpf4jnsgd1na2vs0mg"},{"bike_id":"53586763-e6eb-40b6-bde6-7786af1effe6","system_id":"levelo_inurba_marseille","lat":43.31195,"lon":5.36778,"is_reserved":false,"is_disabled":false,"rental_uris":{"android":"levelo://app?vid=53586763-e6eb-40b6-bde6-7786af1effe6","ios":"levelo://app?vid=53586763-e6eb-40b6-bde6-7786af1effe6"},"vehicle_type_id":"4","last_reported":1734595978,"current_range_meters":24000,"station_id":"","pricing_plan_id":"cebpf4jnsgd1na2vs0mg"},{"bike_id":"2f980219-d14d-4677-88c3-4b41cebfc38b","system_id":"levelo_inurba_marseille","lat":43.32287,"lon":5.38264,"is_reserved":false,"is_disabled":false,"rental_uris":{"android":"levelo://app?vid=2f980219-d14d-4677-88c3-4b41cebfc38b","ios":"levelo://app?vid=2f980219-d14d-4677-88c3-4b41cebfc38b"},"vehicle_type_id":"4","last_reported":1734595978,"current_range_meters":38000,"station_id":"ce4bhr12rcd13ifvqhqg","pricing_plan_id":"cebpf4jnsgd1na2vs0mg"},{"bike_id":"699be605-c3f4-4276-babe-4ba137c46c01","system_id":"levelo_inurba_marseille","lat":43.26683,"lon":5.38272,"is_reserved":false,"is_disabled":false,"rental_uris":{"android":"levelo://app?vid=699be605-c3f4-4276-babe-4ba137c46c01","ios":"levelo://app?vid=699be605-c3f4-4276-babe-4ba137c46c01"},"vehicle_type_id":"4","last_reported":1734595978,"current_range_meters":30400,"station_id":"ce4bhg92rcd13ifvqf90","pricing_plan_id":"cebpf4jnsgd1na2vs0mg"},{"bike_id":"5d229ec1-843c-42dd-b2d5-c6bbdc4852c3","system_id":"levelo_inurba_marseille","lat":43.33598,"lon":5.4099,"is_reserved":false,"is_disabled":true,"rental_uris":{"android":"levelo://app?vid=5d229ec1-843c-42dd-b2d5-c6bbdc4852c3","ios":"levelo://app?vid=5d229ec1-843c-42dd-b2d5-c6bbdc4852c3"},"vehicle_type_id":"4","last_reported":1734595978,"current_range_meters":25200,"station_id":"ce4bhqh2rcd13ifvqhmg","pricing_plan_id":"cebpf4jnsgd1na2vs0mg"},{"bike_id":"dd8c5b4c-64c3-4fbb-8df7-3b1a11a1b585","system_id":"levelo_inurba_marseille","lat":43.27618,"lon":5.36108,"is_reserved":false,"is_disabled":false,"rental_uris":{"android":"levelo://app?vid=dd8c5b4c-64c3-4fbb-8df7-3b1a11a1b585","ios":"levelo://app?vid=dd8c5b4c-64c3-4fbb-8df7-3b1a11a1b585"},"vehicle_type_id":"4","last_reported":1734595978,"current_range_meters":38000,"station_id":"ce4bgj92rcd13ifvqbe0","pricing_plan_id":"cebpf4jnsgd1na2vs0mg"},{"bike_id":"bc170678-5b7f-4a4d-b656-697a9c7c0eea","system_id":"levelo_inurba_marseille","lat":43.30934,"lon":5.40142,"is_reserved":false,"is_disabled":false,"rental_uris":{"android":"levelo://app?vid=bc170678-5b7f-4a4d-b656-697a9c7c0eea","ios":"levelo://app?vid=bc170678-5b7f-4a4d-b656-697a9c7c0eea"},"vehicle_type_id":"4","last_reported":1734595978,"current_range_meters":38000,"station_id":"ce4bgvp2rcd13ifvqct0","pricing_plan_id":"cebpf4jnsgd1na2vs0mg"},{"bike_id":"1f6c8910-0ea0-4154-9c68-3c4db09f57ea","system_id":"levelo_inurba_marseille","lat":43.30272,"lon":5.3771,"is_reserved":false,"is_disabled":false,"rental_uris":{"android":"levelo://app?vid=1f6c8910-0ea0-4154-9c68-3c4db09f57ea","ios":"levelo://app?vid=1f6c8910-0ea0-4154-9c68-3c4db09f57ea"},"vehicle_type_id":"4","last_reported":1734595978,"current_range_meters":23200,"station_id":"ce4bguh2rcd13ifvqcj0","pricing_plan_id":"cebpf4jnsgd1na2vs0mg"},{"bike_id":"7b159d3a-4c20-4472-bbed-20c5dde0f167","system_id":"levelo_inurba_marseille","lat":43.2407,"lon":5.37714,"is_reserved":false,"is_disabled":false,"rental_uris":{"android":"levelo://app?vid=7b159d3a-4c20-4472-bbed-20c5dde0f167","ios":"levelo://app?vid=7b159d3a-4c20-4472-bbed-20c5dde0f167"},"vehicle_type_id":"4","last_reported":1734595978,"current_range_meters":4800,"station_id":"ce4bhnp2rcd13ifvqgvg","pricing_plan_id":"cebpf4jnsgd1na2vs0mg"},{"bike_id":"9294b7c4-f950-43f8-8e30-fdbb56a51003","system_id":"levelo_inurba_marseille","lat":43.3147,"lon":5.36875,"is_reserved":false,"is_disabled":false,"rental_uris":{"android":"levelo://app?vid=9294b7c4-f950-43f8-8e30-fdbb56a51003","ios":"levelo://app?vid=9294b7c4-f950-43f8-8e30-fdbb56a51003"},"vehicle_type_id":"4","last_reported":1734595978,"current_range_meters":7200,"station_id":"","pricing_plan_id":"cebpf4jnsgd1na2vs0mg"},{"bike_id":"cf3ef334-d29e-4443-8b3c-2a11d5fc9407","system_id":"levelo_inurba_marseille","lat":43.26773,"lon":5.39417,"is_reserved":false,"is_disabled":false,"rental_uris":{"android":"levelo://app?vid=cf3ef334-d29e-4443-8b3c-2a11d5fc9407","ios":"levelo://app?vid=cf3ef334-d29e-4443-8b3c-2a11d5fc9407"},"vehicle_type_id":"4","last_reported":1734595978,"current_range_meters":36000,"station_id":"ce4bhh12rcd13ifvqfg0","pricing_plan_id":"cebpf4jnsgd1na2vs0mg"},{"bike_id":"7f57bf80-19a3-401b-97ed-97dc1bed5ff5","system_id":"levelo_inurba_marseille","lat":43.29164,"lon":5.37163,"is_reserved":false,"is_disabled":false,"rental_uris":{"android":"levelo://app?vid=7f57bf80-19a3-401b-97ed-97dc1bed5ff5","ios":"levelo://app?vid=7f57bf80-19a3-401b-97ed-97dc1bed5ff5"},"vehicle_type_id":"4","last_reported":1734595978,"current_range_meters":38800,"station_id":"ce4bha92rcd13ifvqeh0","pricing_plan_id":"cebpf4jnsgd1na2vs0mg"},{"bike_id":"bf07d676-981b-43e2-a6eb-39625201122b","system_id":"levelo_inurba_marseille","lat":43.2893,"lon":5.36638,"is_reserved":false,"is_disabled":false,"rental_uris":{"android":"levelo://app?vid=bf07d676-981b-43e2-a6eb-39625201122b","ios":"levelo://app?vid=bf07d676-981b-43e2-a6eb-39625201122b"},"vehicle_type_id":"4","last_reported":1734595978,"current_range_meters":19200,"station_id":"ce4bhap2rcd13ifvqek0","pricing_plan_id":"cebpf4jnsgd1na2vs0mg"},{"bike_id":"c3496803-beea-44f5-a957-15aa7bb7cfab","system_id":"levelo_inurba_marseille","lat":43.24084,"lon":5.37753,"is_reserved":false,"is_disabled":false,"rental_uris":{"android":"levelo://app?vid=c3496803-beea-44f5-a957-15aa7bb7cfab","ios":"levelo://app?vid=c3496803-beea-44f5-a957-15aa7bb7cfab"},"vehicle_type_id":"4","last_reported":1734595978,"current_range_meters":30800,"station_id":"ce4bhnp2rcd13ifvqgvg","pricing_plan_id":"cebpf4jnsgd1na2vs0mg"},{"bike_id":"8d1b5f91-ba60-4d3f-8a8c-fab96de6ed94","system_id":"levelo_inurba_marseille","lat":43.26206,"lon":5.37929,"is_reserved":false,"is_disabled":false,"rental_uris":{"android":"levelo://app?vid=8d1b5f91-ba60-4d3f-8a8c-fab96de6ed94","ios":"levelo://app?vid=8d1b5f91-ba60-4d3f-8a8c-fab96de6ed94"},"vehicle_type_id":"4","last_reported":1734595978,"current_range_meters":38000,"station_id":"ce4bhjp2rcd13ifvqg90","pricing_plan_id":"cebpf4jnsgd1na2vs0mg"},{"bike_id":"a3232108-6d4d-45f4-ac66-cd85d6391bc7","system_id":"levelo_inurba_marseille","lat":43.23057,"lon":5.35482,"is_reserved":false,"is_disabled":true,"rental_uris":{"android":"levelo://app?vid=a3232108-6d4d-45f4-ac66-cd85d6391bc7","ios":"levelo://app?vid=a3232108-6d4d-45f4-ac66-cd85d6391bc7"},"vehicle_type_id":"4","last_reported":1734595978,"current_range_meters":35600,"station_id":"cpo3342slgdg3j2ifvpg","pricing_plan_id":"cebpf4jnsgd1na2vs0mg"},{"bike_id":"14aaf123-bea1-4665-8d2d-c5a3f7c2f0cb","system_id":"levelo_inurba_marseille","lat":43.26952,"lon":5.38636,"is_reserved":false,"is_disabled":false,"rental_uris":{"android":"levelo://app?vid=14aaf123-bea1-4665-8d2d-c5a3f7c2f0cb","ios":"levelo://app?vid=14aaf123-bea1-4665-8d2d-c5a3f7c2f0cb"},"vehicle_type_id":"4","last_reported":1734595978,"current_range_meters":28800,"station_id":"ce4bhh92rcd13ifvqfh0","pricing_plan_id":"cebpf4jnsgd1na2vs0mg"},{"bike_id":"bfdbf40f-5e66-4db0-8bcd-06dd4772d0ad","system_id":"levelo_inurba_marseille","lat":43.29688,"lon":5.37287,"is_reserved":false,"is_disabled":false,"rental_uris":{"android":"levelo://app?vid=bfdbf40f-5e66-4db0-8bcd-06dd4772d0ad","ios":"levelo://app?vid=bfdbf40f-5e66-4db0-8bcd-06dd4772d0ad"},"vehicle_type_id":"4","last_reported":1734595978,"current_range_meters":32400,"station_id":"ce4bgk12rcd13ifvqbj0","pricing_plan_id":"cebpf4jnsgd1na2vs0mg"},{"bike_id":"f0c0db8e-1ba6-4f9a-830c-1ca1f2f300c7","system_id":"levelo_inurba_marseille","lat":43.29725,"lon":5.37692,"is_reserved":false,"is_disabled":false,"rental_uris":{"android":"levelo://app?vid=f0c0db8e-1ba6-4f9a-830c-1ca1f2f300c7","ios":"levelo://app?vid=f0c0db8e-1ba6-4f9a-830c-1ca1f2f300c7"},"vehicle_type_id":"4","last_reported":1734595978,"current_range_meters":31200,"station_id":"ce4bgkh2rcd13ifvqbl0","pricing_plan_id":"cebpf4jnsgd1na2vs0mg"},{"bike_id":"35c55a77-c774-4274-b708-d5d20f3c0c48","system_id":"levelo_inurba_marseille","lat":43.30141,"lon":5.37422,"is_reserved":false,"is_disabled":false,"rental_uris":{"android":"levelo://app?vid=35c55a77-c774-4274-b708-d5d20f3c0c48","ios":"levelo://app?vid=35c55a77-c774-4274-b708-d5d20f3c0c48"},"vehicle_type_id":"4","last_reported":1734595978,"current_range_meters":22400,"station_id":"ce4bgs92rcd13ifvqcc0","pricing_plan_id":"cebpf4jnsgd1na2vs0mg"},{"bike_id":"45f34b4f-33e2-463f-b4f3-e9cdd91ae7c7","system_id":"levelo_inurba_marseille","lat":43.31242,"lon":5.36868,"is_reserved":false,"is_disabled":false,"rental_uris":{"android":"levelo://app?vid=45f34b4f-33e2-463f-b4f3-e9cdd91ae7c7","ios":"levelo://app?vid=45f34b4f-33e2-463f-b4f3-e9cdd91ae7c7"},"vehicle_type_id":"4","last_reported":1734595978,"current_range_meters":36800,"station_id":"ce4bgl92rcd13ifvqbq0","pricing_plan_id":"cebpf4jnsgd1na2vs0mg"},{"bike_id":"55908842-5677-4a26-9838-98b487742c62","system_id":"levelo_inurba_marseille","lat":43.29283,"lon":5.37492,"is_reserved":false,"is_disabled":false,"rental_uris":{"android":"levelo://app?vid=55908842-5677-4a26-9838-98b487742c62","ios":"levelo://app?vid=55908842-5677-4a26-9838-98b487742c62"},"vehicle_type_id":"4","last_reported":1734595978,"current_range_meters":5600,"station_id":"ce4bgi12rcd13ifvqb70","pricing_plan_id":"cebpf4jnsgd1na2vs0mg"},{"bike_id":"8a69556b-539f-4941-97ca-485adf4aa568","system_id":"levelo_inurba_marseille","lat":43.29964,"lon":5.38492,"is_reserved":false,"is_disabled":true,"rental_uris":{"android":"levelo://app?vid=8a69556b-539f-4941-97ca-485adf4aa568","ios":"levelo://app?vid=8a69556b-539f-4941-97ca-485adf4aa568"},"vehicle_type_id":"4","last_reported":1734595978,"current_range_meters":28000,"station_id":"ce4bgj92rcd13ifvqbd0","pricing_plan_id":"cebpf4jnsgd1na2vs0mg"},{"bike_id":"f5c894fa-8ab9-469e-9f79-8e652d96deb0","system_id":"levelo_inurba_marseille","lat":43.26936,"lon":5.38638,"is_reserved":false,"is_disabled":false,"rental_uris":{"android":"levelo://app?vid=f5c894fa-8ab9-469e-9f79-8e652d96deb0","ios":"levelo://app?vid=f5c894fa-8ab9-469e-9f79-8e652d96deb0"},"vehicle_type_id":"4","last_reported":1734595978,"current_range_meters":38000,"station_id":"ce4bhh92rcd13ifvqfh0","pricing_plan_id":"cebpf4jnsgd1na2vs0mg"},{"bike_id":"770c8a0f-b880-442b-87cf-71649e45ea8a","system_id":"levelo_inurba_marseille","lat":43.30275,"lon":5.37701,"is_reserved":false,"is_disabled":false,"rental_uris":{"android":"levelo://app?vid=770c8a0f-b880-442b-87cf-71649e45ea8a","ios":"levelo://app?vid=770c8a0f-b880-442b-87cf-71649e45ea8a"},"vehicle_type_id":"4","last_reported":1734595978,"current_range_meters":38800,"station_id":"ce4bguh2rcd13ifvqcj0","pricing_plan_id":"cebpf4jnsgd1na2vs0mg"},{"bike_id":"614ca12a-3413-46a7-8fd1-4e5043baf841","system_id":"levelo_inurba_marseille","lat":43.23199,"lon":5.39962,"is_reserved":false,"is_disabled":false,"rental_uris":{"android":"levelo://app?vid=614ca12a-3413-46a7-8fd1-4e5043baf841","ios":"levelo://app?vid=614ca12a-3413-46a7-8fd1-4e5043baf841"},"vehicle_type_id":"4","last_reported":1734595978,"current_range_meters":38000,"station_id":"ce4bhn12rcd13ifvqgqg","pricing_plan_id":"cebpf4jnsgd1na2vs0mg"},{"bike_id":"932a0eff-dbb6-402b-a065-9d4f4dd20895","system_id":"levelo_inurba_marseille","lat":43.2954,"lon":5.36544,"is_reserved":false,"is_disabled":true,"rental_uris":{"android":"levelo://app?vid=932a0eff-dbb6-402b-a065-9d4f4dd20895","ios":"levelo://app?vid=932a0eff-dbb6-402b-a065-9d4f4dd20895"},"vehicle_type_id":"4","last_reported":1734595978,"current_range_meters":1200,"station_id":"","pricing_plan_id":"cebpf4jnsgd1na2vs0mg"},{"bike_id":"c6fc1f35-949d-4dc4-925e-046f798f5cdb","system_id":"levelo_inurba_marseille","lat":43.30417,"lon":5.4128,"is_reserved":false,"is_disabled":true,"rental_uris":{"android":"levelo://app?vid=c6fc1f35-949d-4dc4-925e-046f798f5cdb","ios":"levelo://app?vid=c6fc1f35-949d-4dc4-925e-046f798f5cdb"},"vehicle_type_id":"4","last_reported":1734595978,"current_range_meters":38800,"station_id":"ce4bhop2rcd13ifvqh8g","pricing_plan_id":"cebpf4jnsgd1na2vs0mg"},{"bike_id":"fa1740e4-2a62-4900-a169-7c74aa4dd627","system_id":"levelo_inurba_marseille","lat":43.28002,"lon":5.40004,"is_reserved":false,"is_disabled":false,"rental_uris":{"android":"levelo://app?vid=fa1740e4-2a62-4900-a169-7c74aa4dd627","ios":"levelo://app?vid=fa1740e4-2a62-4900-a169-7c74aa4dd627"},"vehicle_type_id":"4","last_reported":1734595978,"current_range_meters":37600,"station_id":"ce4bho92rcd13ifvqh4g","pricing_plan_id":"cebpf4jnsgd1na2vs0mg"},{"bike_id":"43213517-bf9a-4e83-a8fa-bab75368f158","system_id":"levelo_inurba_marseille","lat":43.26952,"lon":5.38635,"is_reserved":false,"is_disabled":false,"rental_uris":{"android":"levelo://app?vid=43213517-bf9a-4e83-a8fa-bab75368f158","ios":"levelo://app?vid=43213517-bf9a-4e83-a8fa-bab75368f158"},"vehicle_type_id":"4","last_reported":1734595978,"current_range_meters":22000,"station_id":"ce4bhh92rcd13ifvqfh0","pricing_plan_id":"cebpf4jnsgd1na2vs0mg"},{"bike_id":"cf46b794-f843-4c73-9b47-49de3373d707","system_id":"levelo_inurba_marseille","lat":43.27484,"lon":5.42463,"is_reserved":false,"is_disabled":false,"rental_uris":{"android":"levelo://app?vid=cf46b794-f843-4c73-9b47-49de3373d707","ios":"levelo://app?vid=cf46b794-f843-4c73-9b47-49de3373d707"},"vehicle_type_id":"4","last_reported":1734595978,"current_range_meters":16000,"station_id":"ce4bhn92rcd13ifvqgrg","pricing_plan_id":"cebpf4jnsgd1na2vs0mg"},{"bike_id":"c8399855-72d4-4f25-aa5a-52a18924a7b8","system_id":"levelo_inurba_marseille","lat":43.24166,"lon":5.36396,"is_reserved":false,"is_disabled":false,"rental_uris":{"android":"levelo://app?vid=c8399855-72d4-4f25-aa5a-52a18924a7b8","ios":"levelo://app?vid=c8399855-72d4-4f25-aa5a-52a18924a7b8"},"vehicle_type_id":"4","last_reported":1734595978,"current_range_meters":37600,"station_id":"cpo36qri1sfpv3e86is0","pricing_plan_id":"cebpf4jnsgd1na2vs0mg"},{"bike_id":"4a208263-5683-4c02-b8c0-8842a35d3fff","system_id":"levelo_inurba_marseille","lat":43.30534,"lon":5.36529,"is_reserved":false,"is_disabled":false,"rental_uris":{"android":"levelo://app?vid=4a208263-5683-4c02-b8c0-8842a35d3fff","ios":"levelo://app?vid=4a208263-5683-4c02-b8c0-8842a35d3fff"},"vehicle_type_id":"4","last_reported":1734595978,"current_range_meters":38800,"station_id":"ce4bgs12rcd13ifvqcag","pricing_plan_id":"cebpf4jnsgd1na2vs0mg"},{"bike_id":"053881df-da8a-46b6-b7c2-6294a3aea8a1","system_id":"levelo_inurba_marseille","lat":43.29031,"lon":5.37561,"is_reserved":false,"is_disabled":false,"rental_uris":{"android":"levelo://app?vid=053881df-da8a-46b6-b7c2-6294a3aea8a1","ios":"levelo://app?vid=053881df-da8a-46b6-b7c2-6294a3aea8a1"},"vehicle_type_id":"4","last_reported":1734595978,"current_range_meters":31200,"station_id":"ce4bh692rcd13ifvqe90","pricing_plan_id":"cebpf4jnsgd1na2vs0mg"},{"bike_id":"491cd5f5-1302-4f0c-88d5-50ce7aca75de","system_id":"levelo_inurba_marseille","lat":43.27496,"lon":5.4246,"is_reserved":false,"is_disabled":false,"rental_uris":{"android":"levelo://app?vid=491cd5f5-1302-4f0c-88d5-50ce7aca75de","ios":"levelo://app?vid=491cd5f5-1302-4f0c-88d5-50ce7aca75de"},"vehicle_type_id":"4","last_reported":1734595978,"current_range_meters":28000,"station_id":"ce4bhn92rcd13ifvqgrg","pricing_plan_id":"cebpf4jnsgd1na2vs0mg"},{"bike_id":"ce227b36-292b-4d08-86a1-392affe1a046","system_id":"levelo_inurba_marseille","lat":43.29253,"lon":5.38441,"is_reserved":false,"is_disabled":true,"rental_uris":{"android":"levelo://app?vid=ce227b36-292b-4d08-86a1-392affe1a046","ios":"levelo://app?vid=ce227b36-292b-4d08-86a1-392affe1a046"},"vehicle_type_id":"4","last_reported":1734595978,"current_range_meters":5600,"station_id":"ce4bh692rcd13ifvqea0","pricing_plan_id":"cebpf4jnsgd1na2vs0mg"},{"bike_id":"c5aa0bd6-1618-41ab-a575-402eeb1785be","system_id":"levelo_inurba_marseille","lat":43.30304,"lon":5.39213,"is_reserved":false,"is_disabled":true,"rental_uris":{"android":"levelo://app?vid=c5aa0bd6-1618-41ab-a575-402eeb1785be","ios":"levelo://app?vid=c5aa0bd6-1618-41ab-a575-402eeb1785be"},"vehicle_type_id":"4","last_reported":1734595978,"current_range_meters":37600,"station_id":"ce4bgkh2rcd13ifvqbk0","pricing_plan_id":"cebpf4jnsgd1na2vs0mg"},{"bike_id":"816e864a-157c-4c08-915b-e9db63afcee0","system_id":"levelo_inurba_marseille","lat":43.24177,"lon":5.39724,"is_reserved":false,"is_disabled":true,"rental_uris":{"android":"levelo://app?vid=816e864a-157c-4c08-915b-e9db63afcee0","ios":"levelo://app?vid=816e864a-157c-4c08-915b-e9db63afcee0"},"vehicle_type_id":"4","last_reported":1734595978,"current_range_meters":0,"station_id":"ce4bhn12rcd13ifvqgpg","pricing_plan_id":"cebpf4jnsgd1na2vs0mg"},{"bike_id":"149f6e59-92f2-4391-ad8d-a3c211e76bb2","system_id":"levelo_inurba_marseille","lat":43.23201,"lon":5.35546,"is_reserved":false,"is_disabled":false,"rental_uris":{"android":"levelo://app?vid=149f6e59-92f2-4391-ad8d-a3c211e76bb2","ios":"levelo://app?vid=149f6e59-92f2-4391-ad8d-a3c211e76bb2"},"vehicle_type_id":"4","last_reported":1734595978,"current_range_meters":38000,"station_id":"ce4bhu92rcd13ifvqi70","pricing_plan_id":"cebpf4jnsgd1na2vs0mg"},{"bike_id":"b34a414e-6b61-44a5-b00a-9ee7b3d9a129","system_id":"levelo_inurba_marseille","lat":43.30606,"lon":5.3675,"is_reserved":false,"is_disabled":true,"rental_uris":{"android":"levelo://app?vid=b34a414e-6b61-44a5-b00a-9ee7b3d9a129","ios":"levelo://app?vid=b34a414e-6b61-44a5-b00a-9ee7b3d9a129"},"vehicle_type_id":"4","last_reported":1734595978,"current_range_meters":37600,"station_id":"ce4bgrp2rcd13ifvqc9g","pricing_plan_id":"cebpf4jnsgd1na2vs0mg"},{"bike_id":"134c85f7-06be-4fcf-a857-6ee071f6d4d1","system_id":"levelo_inurba_marseille","lat":43.29372,"lon":5.37829,"is_reserved":false,"is_disabled":false,"rental_uris":{"android":"levelo://app?vid=134c85f7-06be-4fcf-a857-6ee071f6d4d1","ios":"levelo://app?vid=134c85f7-06be-4fcf-a857-6ee071f6d4d1"},"vehicle_type_id":"4","last_reported":1734595978,"current_range_meters":38800,"station_id":"ce4bgjh2rcd13ifvqbf0","pricing_plan_id":"cebpf4jnsgd1na2vs0mg"},{"bike_id":"25fbff89-a5d7-4935-bafe-3a7a2f605c5a","system_id":"levelo_inurba_marseille","lat":43.31173,"lon":5.38703,"is_reserved":false,"is_disabled":true,"rental_uris":{"android":"levelo://app?vid=25fbff89-a5d7-4935-bafe-3a7a2f605c5a","ios":"levelo://app?vid=25fbff89-a5d7-4935-bafe-3a7a2f605c5a"},"vehicle_type_id":"4","last_reported":1734595978,"current_range_meters":6400,"station_id":"ce4bgv12rcd13ifvqcp0","pricing_plan_id":"cebpf4jnsgd1na2vs0mg"},{"bike_id":"55049629-c7e5-4379-82b1-cf4c1b7c5860","system_id":"levelo_inurba_marseille","lat":43.28964,"lon":5.37833,"is_reserved":false,"is_disabled":true,"rental_uris":{"android":"levelo://app?vid=55049629-c7e5-4379-82b1-cf4c1b7c5860","ios":"levelo://app?vid=55049629-c7e5-4379-82b1-cf4c1b7c5860"},"vehicle_type_id":"4","last_reported":1734595978,"current_range_meters":37600,"station_id":"ce4bh9p2rcd13ifvqed0","pricing_plan_id":"cebpf4jnsgd1na2vs0mg"},{"bike_id":"9d2aefec-f4a3-4a23-a13a-c09b46ffe2e4","system_id":"levelo_inurba_marseille","lat":43.31163,"lon":5.36678,"is_reserved":false,"is_disabled":false,"rental_uris":{"android":"levelo://app?vid=9d2aefec-f4a3-4a23-a13a-c09b46ffe2e4","ios":"levelo://app?vid=9d2aefec-f4a3-4a23-a13a-c09b46ffe2e4"},"vehicle_type_id":"4","last_reported":1734595978,"current_range_meters":32400,"station_id":"","pricing_plan_id":"cebpf4jnsgd1na2vs0mg"},{"bike_id":"3cc08093-500d-408c-a431-9d1286640b3b","system_id":"levelo_inurba_marseille","lat":43.30145,"lon":5.37422,"is_reserved":false,"is_disabled":true,"rental_uris":{"android":"levelo://app?vid=3cc08093-500d-408c-a431-9d1286640b3b","ios":"levelo://app?vid=3cc08093-500d-408c-a431-9d1286640b3b"},"vehicle_type_id":"4","last_reported":1734595978,"current_range_meters":800,"station_id":"ce4bgs92rcd13ifvqcc0","pricing_plan_id":"cebpf4jnsgd1na2vs0mg"},{"bike_id":"fdb00e72-6d85-4d61-9e62-d139d7971bf0","system_id":"levelo_inurba_marseille","lat":43.26947,"lon":5.3863,"is_reserved":false,"is_disabled":false,"rental_uris":{"android":"levelo://app?vid=fdb00e72-6d85-4d61-9e62-d139d7971bf0","ios":"levelo://app?vid=fdb00e72-6d85-4d61-9e62-d139d7971bf0"},"vehicle_type_id":"4","last_reported":1734595978,"current_range_meters":9600,"station_id":"ce4bhh92rcd13ifvqfh0","pricing_plan_id":"cebpf4jnsgd1na2vs0mg"},{"bike_id":"41360683-0f69-4c62-8b87-4868ce57f8d5","system_id":"levelo_inurba_marseille","lat":43.31495,"lon":5.37308,"is_reserved":false,"is_disabled":false,"rental_uris":{"android":"levelo://app?vid=41360683-0f69-4c62-8b87-4868ce57f8d5","ios":"levelo://app?vid=41360683-0f69-4c62-8b87-4868ce57f8d5"},"vehicle_type_id":"4","last_reported":1734595978,"current_range_meters":6800,"station_id":"ce4bgt12rcd13ifvqcd0","pricing_plan_id":"cebpf4jnsgd1na2vs0mg"},{"bike_id":"c8ff0633-c7c0-4b79-9a35-09b7f45ed4c4","system_id":"levelo_inurba_marseille","lat":43.25582,"lon":5.38239,"is_reserved":false,"is_disabled":false,"rental_uris":{"android":"levelo://app?vid=c8ff0633-c7c0-4b79-9a35-09b7f45ed4c4","ios":"levelo://app?vid=c8ff0633-c7c0-4b79-9a35-09b7f45ed4c4"},"vehicle_type_id":"4","last_reported":1734595978,"current_range_meters":24400,"station_id":"ce4bhih2rcd13ifvqfs0","pricing_plan_id":"cebpf4jnsgd1na2vs0mg"},{"bike_id":"26312ccf-8c7f-4cef-9746-9e32e9db571f","system_id":"levelo_inurba_marseille","lat":43.33602,"lon":5.41025,"is_reserved":false,"is_disabled":false,"rental_uris":{"android":"levelo://app?vid=26312ccf-8c7f-4cef-9746-9e32e9db571f","ios":"levelo://app?vid=26312ccf-8c7f-4cef-9746-9e32e9db571f"},"vehicle_type_id":"4","last_reported":1734595978,"current_range_meters":9200,"station_id":"ce4bhqh2rcd13ifvqhmg","pricing_plan_id":"cebpf4jnsgd1na2vs0mg"},{"bike_id":"2f8de738-9cbb-45b9-9473-332b080b948c","system_id":"levelo_inurba_marseille","lat":43.28406,"lon":5.34976,"is_reserved":false,"is_disabled":true,"rental_uris":{"android":"levelo://app?vid=2f8de738-9cbb-45b9-9473-332b080b948c","ios":"levelo://app?vid=2f8de738-9cbb-45b9-9473-332b080b948c"},"vehicle_type_id":"4","last_reported":1734595978,"current_range_meters":36800,"station_id":"ce4bhbh2rcd13ifvqepg","pricing_plan_id":"cebpf4jnsgd1na2vs0mg"},{"bike_id":"a93f5889-7aac-49e5-85ca-81f1aa7b4d91","system_id":"levelo_inurba_marseille","lat":43.30882,"lon":5.37194,"is_reserved":false,"is_disabled":true,"rental_uris":{"android":"levelo://app?vid=a93f5889-7aac-49e5-85ca-81f1aa7b4d91","ios":"levelo://app?vid=a93f5889-7aac-49e5-85ca-81f1aa7b4d91"},"vehicle_type_id":"4","last_reported":1734595978,"current_range_meters":9200,"station_id":"","pricing_plan_id":"cebpf4jnsgd1na2vs0mg"},{"bike_id":"f0377741-7cf6-450d-a6fd-153237b93a8a","system_id":"levelo_inurba_marseille","lat":43.25926,"lon":5.40874,"is_reserved":false,"is_disabled":false,"rental_uris":{"android":"levelo://app?vid=f0377741-7cf6-450d-a6fd-153237b93a8a","ios":"levelo://app?vid=f0377741-7cf6-450d-a6fd-153237b93a8a"},"vehicle_type_id":"4","last_reported":1734595978,"current_range_meters":18800,"station_id":"ce4bhm92rcd13ifvqglg","pricing_plan_id":"cebpf4jnsgd1na2vs0mg"},{"bike_id":"40b862ad-c49e-4129-acbb-5e704d7d9dcd","system_id":"levelo_inurba_marseille","lat":43.2979,"lon":5.36595,"is_reserved":false,"is_disabled":true,"rental_uris":{"android":"levelo://app?vid=40b862ad-c49e-4129-acbb-5e704d7d9dcd","ios":"levelo://app?vid=40b862ad-c49e-4129-acbb-5e704d7d9dcd"},"vehicle_type_id":"4","last_reported":1734595978,"current_range_meters":13600,"station_id":"ce4bhb92rcd13ifvqen0","pricing_plan_id":"cebpf4jnsgd1na2vs0mg"},{"bike_id":"82f7f145-591c-4ce0-8f76-660882a2845e","system_id":"levelo_inurba_marseille","lat":43.33607,"lon":5.40991,"is_reserved":false,"is_disabled":false,"rental_uris":{"android":"levelo://app?vid=82f7f145-591c-4ce0-8f76-660882a2845e","ios":"levelo://app?vid=82f7f145-591c-4ce0-8f76-660882a2845e"},"vehicle_type_id":"4","last_reported":1734595978,"current_range_meters":26000,"station_id":"ce4bhqh2rcd13ifvqhmg","pricing_plan_id":"cebpf4jnsgd1na2vs0mg"},{"bike_id":"c43144b8-701d-4fef-8260-134b7f7dba42","system_id":"levelo_inurba_marseille","lat":43.26203,"lon":5.37934,"is_reserved":false,"is_disabled":false,"rental_uris":{"android":"levelo://app?vid=c43144b8-701d-4fef-8260-134b7f7dba42","ios":"levelo://app?vid=c43144b8-701d-4fef-8260-134b7f7dba42"},"vehicle_type_id":"4","last_reported":1734595978,"current_range_meters":39200,"station_id":"ce4bhjp2rcd13ifvqg90","pricing_plan_id":"cebpf4jnsgd1na2vs0mg"},{"bike_id":"ac7c5f56-daad-496c-965f-9103737000e8","system_id":"levelo_inurba_marseille","lat":43.2397,"lon":5.36631,"is_reserved":false,"is_disabled":false,"rental_uris":{"android":"levelo://app?vid=ac7c5f56-daad-496c-965f-9103737000e8","ios":"levelo://app?vid=ac7c5f56-daad-496c-965f-9103737000e8"},"vehicle_type_id":"4","last_reported":1734595978,"current_range_meters":38800,"station_id":"ce4bhi12rcd13ifvqfp0","pricing_plan_id":"cebpf4jnsgd1na2vs0mg"},{"bike_id":"dcb465a6-f04a-4b0a-825e-cacb154b89a5","system_id":"levelo_inurba_marseille","lat":43.28407,"lon":5.37512,"is_reserved":false,"is_disabled":false,"rental_uris":{"android":"levelo://app?vid=dcb465a6-f04a-4b0a-825e-cacb154b89a5","ios":"levelo://app?vid=dcb465a6-f04a-4b0a-825e-cacb154b89a5"},"vehicle_type_id":"4","last_reported":1734595978,"current_range_meters":22800,"station_id":"ce4bh412rcd13ifvqds0","pricing_plan_id":"cebpf4jnsgd1na2vs0mg"},{"bike_id":"0cef6d55-09da-4dff-80ee-facea058c7a5","system_id":"levelo_inurba_marseille","lat":43.30055,"lon":5.36969,"is_reserved":false,"is_disabled":false,"rental_uris":{"android":"levelo://app?vid=0cef6d55-09da-4dff-80ee-facea058c7a5","ios":"levelo://app?vid=0cef6d55-09da-4dff-80ee-facea058c7a5"},"vehicle_type_id":"4","last_reported":1734595978,"current_range_meters":34000,"station_id":"","pricing_plan_id":"cebpf4jnsgd1na2vs0mg"},{"bike_id":"64f984cf-960d-4797-b4ec-be4ed476533e","system_id":"levelo_inurba_marseille","lat":43.33779,"lon":5.37454,"is_reserved":false,"is_disabled":false,"rental_uris":{"android":"levelo://app?vid=64f984cf-960d-4797-b4ec-be4ed476533e","ios":"levelo://app?vid=64f984cf-960d-4797-b4ec-be4ed476533e"},"vehicle_type_id":"4","last_reported":1734595978,"current_range_meters":38800,"station_id":"","pricing_plan_id":"cebpf4jnsgd1na2vs0mg"},{"bike_id":"23a049cd-2a20-411e-a25c-f3e09482729c","system_id":"levelo_inurba_marseille","lat":43.29965,"lon":5.37172,"is_reserved":false,"is_disabled":false,"rental_uris":{"android":"levelo://app?vid=23a049cd-2a20-411e-a25c-f3e09482729c","ios":"levelo://app?vid=23a049cd-2a20-411e-a25c-f3e09482729c"},"vehicle_type_id":"4","last_reported":1734595978,"current_range_meters":38000,"station_id":"ce4bgr92rcd13ifvqc7g","pricing_plan_id":"cebpf4jnsgd1na2vs0mg"},{"bike_id":"13edb3e7-da4c-406a-8861-02386d5cb39e","system_id":"levelo_inurba_marseille","lat":43.31359,"lon":5.36714,"is_reserved":false,"is_disabled":false,"rental_uris":{"android":"levelo://app?vid=13edb3e7-da4c-406a-8861-02386d5cb39e","ios":"levelo://app?vid=13edb3e7-da4c-406a-8861-02386d5cb39e"},"vehicle_type_id":"4","last_reported":1734595978,"current_range_meters":38800,"station_id":"ce4bgr92rcd13ifvqc6g","pricing_plan_id":"cebpf4jnsgd1na2vs0mg"},{"bike_id":"b9e0dcf9-3bb4-4708-81c1-daf6a6b0f76c","system_id":"levelo_inurba_marseille","lat":43.32115,"lon":5.368,"is_reserved":false,"is_disabled":true,"rental_uris":{"android":"levelo://app?vid=b9e0dcf9-3bb4-4708-81c1-daf6a6b0f76c","ios":"levelo://app?vid=b9e0dcf9-3bb4-4708-81c1-daf6a6b0f76c"},"vehicle_type_id":"4","last_reported":1734595978,"current_range_meters":30800,"station_id":"ce4bhrh2rcd13ifvqhug","pricing_plan_id":"cebpf4jnsgd1na2vs0mg"},{"bike_id":"d908618f-8da1-4d41-a49b-8864e8a5d208","system_id":"levelo_inurba_marseille","lat":43.24547,"lon":5.39511,"is_reserved":false,"is_disabled":false,"rental_uris":{"android":"levelo://app?vid=d908618f-8da1-4d41-a49b-8864e8a5d208","ios":"levelo://app?vid=d908618f-8da1-4d41-a49b-8864e8a5d208"},"vehicle_type_id":"4","last_reported":1734595978,"current_range_meters":24800,"station_id":"ce4bhlp2rcd13ifvqgjg","pricing_plan_id":"cebpf4jnsgd1na2vs0mg"},{"bike_id":"ff201bcf-1433-41ae-b3fa-223a5d4ed296","system_id":"levelo_inurba_marseille","lat":43.26783,"lon":5.39412,"is_reserved":false,"is_disabled":false,"rental_uris":{"android":"levelo://app?vid=ff201bcf-1433-41ae-b3fa-223a5d4ed296","ios":"levelo://app?vid=ff201bcf-1433-41ae-b3fa-223a5d4ed296"},"vehicle_type_id":"4","last_reported":1734595978,"current_range_meters":16000,"station_id":"ce4bhh12rcd13ifvqfg0","pricing_plan_id":"cebpf4jnsgd1na2vs0mg"},{"bike_id":"5674f058-cefa-4f66-9b49-5d24a36200a9","system_id":"levelo_inurba_marseille","lat":43.32476,"lon":5.36565,"is_reserved":false,"is_disabled":false,"rental_uris":{"android":"levelo://app?vid=5674f058-cefa-4f66-9b49-5d24a36200a9","ios":"levelo://app?vid=5674f058-cefa-4f66-9b49-5d24a36200a9"},"vehicle_type_id":"4","last_reported":1734595978,"current_range_meters":30800,"station_id":"ce4bhs12rcd13ifvqhvg","pricing_plan_id":"cebpf4jnsgd1na2vs0mg"},{"bike_id":"7b305c6f-361b-46c6-bcc8-6b2d9fd084fa","system_id":"levelo_inurba_marseille","lat":43.28119,"lon":5.4422,"is_reserved":false,"is_disabled":true,"rental_uris":{"android":"levelo://app?vid=7b305c6f-361b-46c6-bcc8-6b2d9fd084fa","ios":"levelo://app?vid=7b305c6f-361b-46c6-bcc8-6b2d9fd084fa"},"vehicle_type_id":"4","last_reported":1734595978,"current_range_meters":0,"station_id":"","pricing_plan_id":"cebpf4jnsgd1na2vs0mg"},{"bike_id":"db3b69a0-7e5e-43b6-84b6-8ee913ebb392","system_id":"levelo_inurba_marseille","lat":43.31759,"lon":5.39017,"is_reserved":false,"is_disabled":false,"rental_uris":{"android":"levelo://app?vid=db3b69a0-7e5e-43b6-84b6-8ee913ebb392","ios":"levelo://app?vid=db3b69a0-7e5e-43b6-84b6-8ee913ebb392"},