{"last_updated":1742227987,"ttl":60,"version":"2.2","data":{"bikes":[{"bike_id":"42edd003-cfdd-4f75-9c1f-4122b069f6fb","system_id":"levelo_inurba_marseille","lat":43.28703,"lon":5.35197,"is_reserved":false,"is_disabled":false,"rental_uris":{"android":"levelo://app?vid=42edd003-cfdd-4f75-9c1f-4122b069f6fb","ios":"levelo://app?vid=42edd003-cfdd-4f75-9c1f-4122b069f6fb"},"vehicle_type_id":"4","last_reported":1742227987,"current_range_meters":2800,"station_id":"","pricing_plan_id":"cebpf4jnsgd1na2vs0mg"},{"bike_id":"d8c4eeb1-7702-42d9-a2cf-4055ac17f159","system_id":"levelo_inurba_marseille","lat":43.27834,"lon":5.392,"is_reserved":false,"is_disabled":true,"rental_uris":{"android":"levelo://app?vid=d8c4eeb1-7702-42d9-a2cf-4055ac17f159","ios":"levelo://app?vid=d8c4eeb1-7702-42d9-a2cf-4055ac17f159"},"vehicle_type_id":"4","last_reported":1742227987,"current_range_meters":2800,"station_id":"ce4bhjp2rcd13ifvqga0","pricing_plan_id":"cebpf4jnsgd1na2vs0mg"},{"bike_id":"6ffbdcaa-0cb2-4ca1-9c1c-5b6bbf4de4d5","system_id":"levelo_inurba_marseille","lat":43.28935,"lon":5.39626,"is_reserved":false,"is_disabled":false,"rental_uris":{"android":"levelo://app?vid=6ffbdcaa-0cb2-4ca1-9c1c-5b6bbf4de4d5","ios":"levelo://app?vid=6ffbdcaa-0cb2-4ca1-9c1c-5b6bbf4de4d5"},"vehicle_type_id":"4","last_reported":1742227987,"current_range_meters":2800,"station_id":"ce4bh3h2rcd13ifvqdn0","pricing_plan_id":"cebpf4jnsgd1na2vs0mg"},{"bike_id":"9a2de320-196e-44b6-91b6-0d424eaa2a88","system_id":"levelo_inurba_marseille","lat":43.2571,"lon":5.42176,"is_reserved":false,"is_disabled":false,"rental_uris":{"android":"levelo://app?vid=9a2de320-196e-44b6-91b6-0d424eaa2a88","ios":"levelo://app?vid=9a2de320-196e-44b6-91b6-0d424eaa2a88"},"vehicle_type_id":"4","last_reported":1742227987,"current_range_meters":3200,"station_id":"","pricing_plan_id":"cebpf4jnsgd1na2vs0mg"},{"bike_id":"35e9903e-e9dc-44ba-81a8-0afb0435a462","system_id":"levelo_inurba_marseille","lat":43.302497,"lon":5.400732,"is_reserved":false,"is_disabled":false,"rental_uris":{"android":"levelo://app?vid=35e9903e-e9dc-44ba-81a8-0afb0435a462","ios":"levelo://app?vid=35e9903e-e9dc-44ba-81a8-0afb0435a462"},"vehicle_type_id":"4","last_reported":1742227987,"current_range_meters":3200,"station_id":"ce4bgvh2rcd13ifvqcs0","pricing_plan_id":"cebpf4jnsgd1na2vs0mg"},{"bike_id":"7515b60c-c37b-4021-875c-6f16850d40e9","system_id":"levelo_inurba_marseille","lat":43.28391,"lon":5.37529,"is_reserved":false,"is_disabled":false,"rental_uris":{"android":"levelo://app?vid=7515b60c-c37b-4021-875c-6f16850d40e9","ios":"levelo://app?vid=7515b60c-c37b-4021-875c-6f16850d40e9"},"vehicle_type_id":"4","last_reported":1742227987,"current_range_meters":2800,"station_id":"ce4bh412rcd13ifvqds0","pricing_plan_id":"cebpf4jnsgd1na2vs0mg"},{"bike_id":"523b7796-49a5-49be-adfd-bdd642857ba4","system_id":"levelo_inurba_marseille","lat":43.29585,"lon":5.36746,"is_reserved":false,"is_disabled":false,"rental_uris":{"android":"levelo://app?vid=523b7796-49a5-49be-adfd-bdd642857ba4","ios":"levelo://app?vid=523b7796-49a5-49be-adfd-bdd642857ba4"},"vehicle_type_id":"4","last_reported":1742227987,"current_range_meters":3200,"station_id":"ce4bgph2rcd13ifvqc2g","pricing_plan_id":"cebpf4jnsgd1na2vs0mg"},{"bike_id":"2887c066-6a70-419a-a4ca-eafa05f6ec89","system_id":"levelo_inurba_marseille","lat":43.24646,"lon":5.43629,"is_reserved":false,"is_disabled":false,"rental_uris":{"android":"levelo://app?vid=2887c066-6a70-419a-a4ca-eafa05f6ec89","ios":"levelo://app?vid=2887c066-6a70-419a-a4ca-eafa05f6ec89"},"vehicle_type_id":"4","last_reported":1742227987,"current_range_meters":3200,"station_id":"","pricing_plan_id":"cebpf4jnsgd1na2vs0mg"},{"bike_id":"2588dd17-49fa-4378-a5d4-772b19bd8e6a","system_id":"levelo_inurba_marseille","lat":43.23148,"lon":5.43709,"is_reserved":false,"is_disabled":false,"rental_uris":{"android":"levelo://app?vid=2588dd17-49fa-4378-a5d4-772b19bd8e6a","ios":"levelo://app?vid=2588dd17-49fa-4378-a5d4-772b19bd8e6a"},"vehicle_type_id":"4","last_reported":1742227987,"current_range_meters":3200,"station_id":"ce4bhmp2rcd13ifvqgog","pricing_plan_id":"cebpf4jnsgd1na2vs0mg"},{"bike_id":"47d8b4f1-77f1-4030-968e-5a091bad7d2b","system_id":"levelo_inurba_marseille","lat":43.28693,"lon":5.37393,"is_reserved":false,"is_disabled":false,"rental_uris":{"android":"levelo://app?vid=47d8b4f1-77f1-4030-968e-5a091bad7d2b","ios":"levelo://app?vid=47d8b4f1-77f1-4030-968e-5a091bad7d2b"},"vehicle_type_id":"4","last_reported":1742227987,"current_range_meters":4000,"station_id":"ce4bh3p2rcd13ifvqdq0","pricing_plan_id":"cebpf4jnsgd1na2vs0mg"},{"bike_id":"fe535ac1-f859-4328-a553-181bec5165fc","system_id":"levelo_inurba_marseille","lat":43.24982,"lon":5.38918,"is_reserved":false,"is_disabled":false,"rental_uris":{"android":"levelo://app?vid=fe535ac1-f859-4328-a553-181bec5165fc","ios":"levelo://app?vid=fe535ac1-f859-4328-a553-181bec5165fc"},"vehicle_type_id":"4","last_reported":1742227987,"current_range_meters":3200,"station_id":"ce4bhgp2rcd13ifvqfd0","pricing_plan_id":"cebpf4jnsgd1na2vs0mg"},{"bike_id":"75eca607-f4fe-4195-b2a5-9ee078b9149d","system_id":"levelo_inurba_marseille","lat":43.29554,"lon":5.42282,"is_reserved":false,"is_disabled":false,"rental_uris":{"android":"levelo://app?vid=75eca607-f4fe-4195-b2a5-9ee078b9149d","ios":"levelo://app?vid=75eca607-f4fe-4195-b2a5-9ee078b9149d"},"vehicle_type_id":"4","last_reported":1742227987,"current_range_meters":4000,"station_id":"ce4bhph2rcd13ifvqhdg","pricing_plan_id":"cebpf4jnsgd1na2vs0mg"},{"bike_id":"bf2c9aa1-e792-4fb6-9fd7-08fd9e5dd890","system_id":"levelo_inurba_marseille","lat":43.31765,"lon":5.39025,"is_reserved":false,"is_disabled":false,"rental_uris":{"android":"levelo://app?vid=bf2c9aa1-e792-4fb6-9fd7-08fd9e5dd890","ios":"levelo://app?vid=bf2c9aa1-e792-4fb6-9fd7-08fd9e5dd890"},"vehicle_type_id":"4","last_reported":1742227987,"current_range_meters":4000,"station_id":"ce4bhqp2rcd13ifvqhng","pricing_plan_id":"cebpf4jnsgd1na2vs0mg"},{"bike_id":"204af4ff-d601-406c-9577-41ee62a0bb5b","system_id":"levelo_inurba_marseille","lat":43.28579,"lon":5.38882,"is_reserved":false,"is_disabled":false,"rental_uris":{"android":"levelo://app?vid=204af4ff-d601-406c-9577-41ee62a0bb5b","ios":"levelo://app?vid=204af4ff-d601-406c-9577-41ee62a0bb5b"},"vehicle_type_id":"4","last_reported":1742227987,"current_range_meters":4000,"station_id":"","pricing_plan_id":"cebpf4jnsgd1na2vs0mg"},{"bike_id":"1a78b677-0b29-4d1c-b6d3-e4582c0b9473","system_id":"levelo_inurba_marseille","lat":43.29006,"lon":5.35615,"is_reserved":false,"is_disabled":false,"rental_uris":{"android":"levelo://app?vid=1a78b677-0b29-4d1c-b6d3-e4582c0b9473","ios":"levelo://app?vid=1a78b677-0b29-4d1c-b6d3-e4582c0b9473"},"vehicle_type_id":"4","last_reported":1742227987,"current_range_meters":4400,"station_id":"ce4bhb92rcd13ifvqen0","pricing_plan_id":"cebpf4jnsgd1na2vs0mg"},{"bike_id":"d6b75a7d-09be-4fd4-bd8c-7d1ca00ef63e","system_id":"levelo_inurba_marseille","lat":43.31247,"lon":5.3686,"is_reserved":false,"is_disabled":false,"rental_uris":{"android":"levelo://app?vid=d6b75a7d-09be-4fd4-bd8c-7d1ca00ef63e","ios":"levelo://app?vid=d6b75a7d-09be-4fd4-bd8c-7d1ca00ef63e"},"vehicle_type_id":"4","last_reported":1742227987,"current_range_meters":4400,"station_id":"ce4bgl92rcd13ifvqbq0","pricing_plan_id":"cebpf4jnsgd1na2vs0mg"},{"bike_id":"da4af89f-b57e-4338-a2dc-1fb2e55820b1","system_id":"levelo_inurba_marseille","lat":43.23057,"lon":5.35487,"is_reserved":false,"is_disabled":false,"rental_uris":{"android":"levelo://app?vid=da4af89f-b57e-4338-a2dc-1fb2e55820b1","ios":"levelo://app?vid=da4af89f-b57e-4338-a2dc-1fb2e55820b1"},"vehicle_type_id":"4","last_reported":1742227987,"current_range_meters":4400,"station_id":"cpo3342slgdg3j2ifvpg","pricing_plan_id":"cebpf4jnsgd1na2vs0mg"},{"bike_id":"d112da52-cd71-4963-b379-eb72de448d1a","system_id":"levelo_inurba_marseille","lat":43.26551,"lon":5.37291,"is_reserved":false,"is_disabled":false,"rental_uris":{"android":"levelo://app?vid=d112da52-cd71-4963-b379-eb72de448d1a","ios":"levelo://app?vid=d112da52-cd71-4963-b379-eb72de448d1a"},"vehicle_type_id":"4","last_reported":1742227987,"current_range_meters":4400,"station_id":"ce4bhg12rcd13ifvqf70","pricing_plan_id":"cebpf4jnsgd1na2vs0mg"},{"bike_id":"73b61836-b4cf-477e-9eac-fcad244321fe","system_id":"levelo_inurba_marseille","lat":43.24647,"lon":5.38892,"is_reserved":false,"is_disabled":false,"rental_uris":{"android":"levelo://app?vid=73b61836-b4cf-477e-9eac-fcad244321fe","ios":"levelo://app?vid=73b61836-b4cf-477e-9eac-fcad244321fe"},"vehicle_type_id":"4","last_reported":1742227987,"current_range_meters":4400,"station_id":"ce4bhg12rcd13ifvqf60","pricing_plan_id":"cebpf4jnsgd1na2vs0mg"},{"bike_id":"c0ff9ab0-f1e9-4856-9b7f-49fa55447bfb","system_id":"levelo_inurba_marseille","lat":43.25031,"lon":5.37527,"is_reserved":false,"is_disabled":false,"rental_uris":{"android":"levelo://app?vid=c0ff9ab0-f1e9-4856-9b7f-49fa55447bfb","ios":"levelo://app?vid=c0ff9ab0-f1e9-4856-9b7f-49fa55447bfb"},"vehicle_type_id":"4","last_reported":1742227987,"current_range_meters":4400,"station_id":"","pricing_plan_id":"cebpf4jnsgd1na2vs0mg"},{"bike_id":"3e92abe6-a48e-4b89-a345-2da3810e47cd","system_id":"levelo_inurba_marseille","lat":43.23151,"lon":5.43707,"is_reserved":false,"is_disabled":false,"rental_uris":{"android":"levelo://app?vid=3e92abe6-a48e-4b89-a345-2da3810e47cd","ios":"levelo://app?vid=3e92abe6-a48e-4b89-a345-2da3810e47cd"},"vehicle_type_id":"4","last_reported":1742227987,"current_range_meters":4800,"station_id":"ce4bhmp2rcd13ifvqgog","pricing_plan_id":"cebpf4jnsgd1na2vs0mg"},{"bike_id":"5d3dbd3a-1365-40c0-af69-8ba2c314a313","system_id":"levelo_inurba_marseille","lat":43.29876,"lon":5.43688,"is_reserved":false,"is_disabled":false,"rental_uris":{"android":"levelo://app?vid=5d3dbd3a-1365-40c0-af69-8ba2c314a313","ios":"levelo://app?vid=5d3dbd3a-1365-40c0-af69-8ba2c314a313"},"vehicle_type_id":"4","last_reported":1742227987,"current_range_meters":4800,"station_id":"ce4bhpp2rcd13ifvqhfg","pricing_plan_id":"cebpf4jnsgd1na2vs0mg"},{"bike_id":"77c892da-55ac-4a92-9d7f-2b1a45c68b9c","system_id":"levelo_inurba_marseille","lat":43.28471,"lon":5.38415,"is_reserved":false,"is_disabled":false,"rental_uris":{"android":"levelo://app?vid=77c892da-55ac-4a92-9d7f-2b1a45c68b9c","ios":"levelo://app?vid=77c892da-55ac-4a92-9d7f-2b1a45c68b9c"},"vehicle_type_id":"4","last_reported":1742227987,"current_range_meters":4800,"station_id":"ce4bh512rcd13ifvqe3g","pricing_plan_id":"cebpf4jnsgd1na2vs0mg"},{"bike_id":"20e0a5b3-595b-4a82-b23f-00884f840406","system_id":"levelo_inurba_marseille","lat":43.23153,"lon":5.43697,"is_reserved":false,"is_disabled":false,"rental_uris":{"android":"levelo://app?vid=20e0a5b3-595b-4a82-b23f-00884f840406","ios":"levelo://app?vid=20e0a5b3-595b-4a82-b23f-00884f840406"},"vehicle_type_id":"4","last_reported":1742227987,"current_range_meters":4800,"station_id":"ce4bhmp2rcd13ifvqgog","pricing_plan_id":"cebpf4jnsgd1na2vs0mg"},{"bike_id":"8ed44c16-481d-47e7-84de-e2b6ec5cb9fb","system_id":"levelo_inurba_marseille","lat":43.3044,"lon":5.38882,"is_reserved":false,"is_disabled":false,"rental_uris":{"android":"levelo://app?vid=8ed44c16-481d-47e7-84de-e2b6ec5cb9fb","ios":"levelo://app?vid=8ed44c16-481d-47e7-84de-e2b6ec5cb9fb"},"vehicle_type_id":"4","last_reported":1742227987,"current_range_meters":5600,"station_id":"ce4bgk12rcd13ifvqbi0","pricing_plan_id":"cebpf4jnsgd1na2vs0mg"},{"bike_id":"8c22fc81-786a-4bec-a5a3-2d221747978e","system_id":"levelo_inurba_marseille","lat":43.27069,"lon":5.42278,"is_reserved":false,"is_disabled":false,"rental_uris":{"android":"levelo://app?vid=8c22fc81-786a-4bec-a5a3-2d221747978e","ios":"levelo://app?vid=8c22fc81-786a-4bec-a5a3-2d221747978e"},"vehicle_type_id":"4","last_reported":1742227987,"current_range_meters":5600,"station_id":"ce4bhk92rcd13ifvqgb0","pricing_plan_id":"cebpf4jnsgd1na2vs0mg"},{"bike_id":"0a3ff77a-f6cb-482c-9917-268affcb77c5","system_id":"levelo_inurba_marseille","lat":43.29111,"lon":5.38134,"is_reserved":false,"is_disabled":false,"rental_uris":{"android":"levelo://app?vid=0a3ff77a-f6cb-482c-9917-268affcb77c5","ios":"levelo://app?vid=0a3ff77a-f6cb-482c-9917-268affcb77c5"},"vehicle_type_id":"4","last_reported":1742227987,"current_range_meters":4800,"station_id":"ce4bh512rcd13ifvqe2g","pricing_plan_id":"cebpf4jnsgd1na2vs0mg"},{"bike_id":"cd6bd228-ec34-418f-8538-14abbf44a6a3","system_id":"levelo_inurba_marseille","lat":43.31966,"lon":5.37436,"is_reserved":false,"is_disabled":false,"rental_uris":{"android":"levelo://app?vid=cd6bd228-ec34-418f-8538-14abbf44a6a3","ios":"levelo://app?vid=cd6bd228-ec34-418f-8538-14abbf44a6a3"},"vehicle_type_id":"4","last_reported":1742227987,"current_range_meters":5600,"station_id":"","pricing_plan_id":"cebpf4jnsgd1na2vs0mg"},{"bike_id":"6ae6f76c-6a01-4d75-9d3f-dfa610803a78","system_id":"levelo_inurba_marseille","lat":43.2307,"lon":5.35503,"is_reserved":false,"is_disabled":false,"rental_uris":{"android":"levelo://app?vid=6ae6f76c-6a01-4d75-9d3f-dfa610803a78","ios":"levelo://app?vid=6ae6f76c-6a01-4d75-9d3f-dfa610803a78"},"vehicle_type_id":"4","last_reported":1742227987,"current_range_meters":5600,"station_id":"cpo3342slgdg3j2ifvpg","pricing_plan_id":"cebpf4jnsgd1na2vs0mg"},{"bike_id":"f68ffcf7-f4e2-4dd2-9b11-063dd8c4705d","system_id":"levelo_inurba_marseille","lat":43.28,"lon":5.41662,"is_reserved":false,"is_disabled":false,"rental_uris":{"android":"levelo://app?vid=f68ffcf7-f4e2-4dd2-9b11-063dd8c4705d","ios":"levelo://app?vid=f68ffcf7-f4e2-4dd2-9b11-063dd8c4705d"},"vehicle_type_id":"4","last_reported":1742227987,"current_range_meters":5600,"station_id":"ce4bho12rcd13ifvqh1g","pricing_plan_id":"cebpf4jnsgd1na2vs0mg"},{"bike_id":"7585bcf1-3ee3-49e6-9366-36294f796753","system_id":"levelo_inurba_marseille","lat":43.31358,"lon":5.38491,"is_reserved":false,"is_disabled":true,"rental_uris":{"android":"levelo://app?vid=7585bcf1-3ee3-49e6-9366-36294f796753","ios":"levelo://app?vid=7585bcf1-3ee3-49e6-9366-36294f796753"},"vehicle_type_id":"4","last_reported":1742227987,"current_range_meters":5600,"station_id":"ce4bgt92rcd13ifvqcf0","pricing_plan_id":"cebpf4jnsgd1na2vs0mg"},{"bike_id":"436163ae-329e-4516-a54b-ab951f1eae33","system_id":"levelo_inurba_marseille","lat":43.25572,"lon":5.3825,"is_reserved":false,"is_disabled":false,"rental_uris":{"android":"levelo://app?vid=436163ae-329e-4516-a54b-ab951f1eae33","ios":"levelo://app?vid=436163ae-329e-4516-a54b-ab951f1eae33"},"vehicle_type_id":"4","last_reported":1742227987,"current_range_meters":5600,"station_id":"ce4bhih2rcd13ifvqfs0","pricing_plan_id":"cebpf4jnsgd1na2vs0mg"},{"bike_id":"d87d01b0-53bb-405d-a34e-24df13294a43","system_id":"levelo_inurba_marseille","lat":43.29199,"lon":5.39312,"is_reserved":false,"is_disabled":true,"rental_uris":{"android":"levelo://app?vid=d87d01b0-53bb-405d-a34e-24df13294a43","ios":"levelo://app?vid=d87d01b0-53bb-405d-a34e-24df13294a43"},"vehicle_type_id":"4","last_reported":1742227987,"current_range_meters":5600,"station_id":"ce4bh192rcd13ifvqdd0","pricing_plan_id":"cebpf4jnsgd1na2vs0mg"},{"bike_id":"4b1cc1e3-70d0-46ec-af1b-3547c853f7a6","system_id":"levelo_inurba_marseille","lat":43.28004,"lon":5.40013,"is_reserved":false,"is_disabled":false,"rental_uris":{"android":"levelo://app?vid=4b1cc1e3-70d0-46ec-af1b-3547c853f7a6","ios":"levelo://app?vid=4b1cc1e3-70d0-46ec-af1b-3547c853f7a6"},"vehicle_type_id":"4","last_reported":1742227987,"current_range_meters":6000,"station_id":"ce4bho92rcd13ifvqh4g","pricing_plan_id":"cebpf4jnsgd1na2vs0mg"},{"bike_id":"b6c81d8e-325e-4857-b5d1-b13a1aaefc5f","system_id":"levelo_inurba_marseille","lat":43.31279,"lon":5.40169,"is_reserved":false,"is_disabled":false,"rental_uris":{"android":"levelo://app?vid=b6c81d8e-325e-4857-b5d1-b13a1aaefc5f","ios":"levelo://app?vid=b6c81d8e-325e-4857-b5d1-b13a1aaefc5f"},"vehicle_type_id":"4","last_reported":1742227987,"current_range_meters":5600,"station_id":"ce4bh092rcd13ifvqd30","pricing_plan_id":"cebpf4jnsgd1na2vs0mg"},{"bike_id":"995f26b5-130b-4eec-b3a2-62a80d1057b3","system_id":"levelo_inurba_marseille","lat":43.28428,"lon":5.34996,"is_reserved":false,"is_disabled":false,"rental_uris":{"android":"levelo://app?vid=995f26b5-130b-4eec-b3a2-62a80d1057b3","ios":"levelo://app?vid=995f26b5-130b-4eec-b3a2-62a80d1057b3"},"vehicle_type_id":"4","last_reported":1742227987,"current_range_meters":5600,"station_id":"ce4bhbh2rcd13ifvqepg","pricing_plan_id":"cebpf4jnsgd1na2vs0mg"},{"bike_id":"fc16ee92-6551-4a27-b881-008c3ab42d8d","system_id":"levelo_inurba_marseille","lat":43.28741,"lon":5.36076,"is_reserved":false,"is_disabled":false,"rental_uris":{"android":"levelo://app?vid=fc16ee92-6551-4a27-b881-008c3ab42d8d","ios":"levelo://app?vid=fc16ee92-6551-4a27-b881-008c3ab42d8d"},"vehicle_type_id":"4","last_reported":1742227987,"current_range_meters":5600,"station_id":"cki0cbj6b192h4jlfktg","pricing_plan_id":"cebpf4jnsgd1na2vs0mg"},{"bike_id":"f762fd6f-ca69-45f6-995f-65c0e25825a3","system_id":"levelo_inurba_marseille","lat":43.32536,"lon":5.41455,"is_reserved":false,"is_disabled":true,"rental_uris":{"android":"levelo://app?vid=f762fd6f-ca69-45f6-995f-65c0e25825a3","ios":"levelo://app?vid=f762fd6f-ca69-45f6-995f-65c0e25825a3"},"vehicle_type_id":"4","last_reported":1742227987,"current_range_meters":6000,"station_id":"ce4bhq12rcd13ifvqhhg","pricing_plan_id":"cebpf4jnsgd1na2vs0mg"},{"bike_id":"6fc12898-2397-4b4f-ac69-eddefb442ad6","system_id":"levelo_inurba_marseille","lat":43.27956,"lon":5.41042,"is_reserved":false,"is_disabled":false,"rental_uris":{"android":"levelo://app?vid=6fc12898-2397-4b4f-ac69-eddefb442ad6","ios":"levelo://app?vid=6fc12898-2397-4b4f-ac69-eddefb442ad6"},"vehicle_type_id":"4","last_reported":1742227987,"current_range_meters":6000,"station_id":"ce4bhnp2rcd13ifvqh0g","pricing_plan_id":"cebpf4jnsgd1na2vs0mg"},{"bike_id":"d68f26de-7501-47f2-90e2-0d330aa5f198","system_id":"levelo_inurba_marseille","lat":43.24169,"lon":5.3639,"is_reserved":false,"is_disabled":false,"rental_uris":{"android":"levelo://app?vid=d68f26de-7501-47f2-90e2-0d330aa5f198","ios":"levelo://app?vid=d68f26de-7501-47f2-90e2-0d330aa5f198"},"vehicle_type_id":"4","last_reported":1742227987,"current_range_meters":6000,"station_id":"cpo36qri1sfpv3e86is0","pricing_plan_id":"cebpf4jnsgd1na2vs0mg"},{"bike_id":"8acd17cc-8964-4ec0-8c3a-d00f99282917","system_id":"levelo_inurba_marseille","lat":43.28428,"lon":5.34987,"is_reserved":false,"is_disabled":false,"rental_uris":{"android":"levelo://app?vid=8acd17cc-8964-4ec0-8c3a-d00f99282917","ios":"levelo://app?vid=8acd17cc-8964-4ec0-8c3a-d00f99282917"},"vehicle_type_id":"4","last_reported":1742227987,"current_range_meters":6000,"station_id":"ce4bhbh2rcd13ifvqepg","pricing_plan_id":"cebpf4jnsgd1na2vs0mg"},{"bike_id":"df9862b0-ca88-48b2-8066-706e3312b9d1","system_id":"levelo_inurba_marseille","lat":43.24804,"lon":5.37456,"is_reserved":false,"is_disabled":false,"rental_uris":{"android":"levelo://app?vid=df9862b0-ca88-48b2-8066-706e3312b9d1","ios":"levelo://app?vid=df9862b0-ca88-48b2-8066-706e3312b9d1"},"vehicle_type_id":"4","last_reported":1742227987,"current_range_meters":5600,"station_id":"ce4bhgh2rcd13ifvqfb0","pricing_plan_id":"cebpf4jnsgd1na2vs0mg"},{"bike_id":"5d33ee2e-ab8c-4d48-b2e3-8df7c0b816e1","system_id":"levelo_inurba_marseille","lat":43.2307,"lon":5.35495,"is_reserved":false,"is_disabled":false,"rental_uris":{"android":"levelo://app?vid=5d33ee2e-ab8c-4d48-b2e3-8df7c0b816e1","ios":"levelo://app?vid=5d33ee2e-ab8c-4d48-b2e3-8df7c0b816e1"},"vehicle_type_id":"4","last_reported":1742227987,"current_range_meters":6000,"station_id":"cpo3342slgdg3j2ifvpg","pricing_plan_id":"cebpf4jnsgd1na2vs0mg"},{"bike_id":"48063809-af43-473e-ae7e-a44807ae1227","system_id":"levelo_inurba_marseille","lat":43.28507,"lon":5.38455,"is_reserved":false,"is_disabled":false,"rental_uris":{"android":"levelo://app?vid=48063809-af43-473e-ae7e-a44807ae1227","ios":"levelo://app?vid=48063809-af43-473e-ae7e-a44807ae1227"},"vehicle_type_id":"4","last_reported":1742227987,"current_range_meters":6000,"station_id":"ce4bh512rcd13ifvqe3g","pricing_plan_id":"cebpf4jnsgd1na2vs0mg"},{"bike_id":"f4c3f84f-5c54-494d-9fce-8eee4678f7fc","system_id":"levelo_inurba_marseille","lat":43.29026,"lon":5.38635,"is_reserved":false,"is_disabled":false,"rental_uris":{"android":"levelo://app?vid=f4c3f84f-5c54-494d-9fce-8eee4678f7fc","ios":"levelo://app?vid=f4c3f84f-5c54-494d-9fce-8eee4678f7fc"},"vehicle_type_id":"4","last_reported":1742227987,"current_range_meters":6000,"station_id":"ce4bh4p2rcd13ifvqe0g","pricing_plan_id":"cebpf4jnsgd1na2vs0mg"},{"bike_id":"92d6acd4-36fe-4541-9cb8-b5cac76d15fb","system_id":"levelo_inurba_marseille","lat":43.29187,"lon":5.35802,"is_reserved":false,"is_disabled":false,"rental_uris":{"android":"levelo://app?vid=92d6acd4-36fe-4541-9cb8-b5cac76d15fb","ios":"levelo://app?vid=92d6acd4-36fe-4541-9cb8-b5cac76d15fb"},"vehicle_type_id":"4","last_reported":1742227987,"current_range_meters":6000,"station_id":"ce4bhb12rcd13ifvqel0","pricing_plan_id":"cebpf4jnsgd1na2vs0mg"},{"bike_id":"58e7e064-7a4f-486f-9a9c-3032c1ac8404","system_id":"levelo_inurba_marseille","lat":43.32466,"lon":5.36546,"is_reserved":false,"is_disabled":false,"rental_uris":{"android":"levelo://app?vid=58e7e064-7a4f-486f-9a9c-3032c1ac8404","ios":"levelo://app?vid=58e7e064-7a4f-486f-9a9c-3032c1ac8404"},"vehicle_type_id":"4","last_reported":1742227987,"current_range_meters":6000,"station_id":"ce4bhs12rcd13ifvqhvg","pricing_plan_id":"cebpf4jnsgd1na2vs0mg"},{"bike_id":"6222df0f-bda6-41d5-ade4-b4d3ca5dc59e","system_id":"levelo_inurba_marseille","lat":43.25726,"lon":5.41108,"is_reserved":false,"is_disabled":false,"rental_uris":{"android":"levelo://app?vid=6222df0f-bda6-41d5-ade4-b4d3ca5dc59e","ios":"levelo://app?vid=6222df0f-bda6-41d5-ade4-b4d3ca5dc59e"},"vehicle_type_id":"4","last_reported":1742227987,"current_range_meters":6400,"station_id":"ce4bhkp2rcd13ifvqgd0","pricing_plan_id":"cebpf4jnsgd1na2vs0mg"},{"bike_id":"885d86e3-ae7b-46be-9ae6-874590c0ea3b","system_id":"levelo_inurba_marseille","lat":43.2894,"lon":5.36388,"is_reserved":false,"is_disabled":false,"rental_uris":{"android":"levelo://app?vid=885d86e3-ae7b-46be-9ae6-874590c0ea3b","ios":"levelo://app?vid=885d86e3-ae7b-46be-9ae6-874590c0ea3b"},"vehicle_type_id":"4","last_reported":1742227987,"current_range_meters":6400,"station_id":"ce4bhc92rcd13ifvqetg","pricing_plan_id":"cebpf4jnsgd1na2vs0mg"},{"bike_id":"7821f6a8-da79-4f9c-b784-b63f987ffda5","system_id":"levelo_inurba_marseille","lat":43.3123,"lon":5.36883,"is_reserved":false,"is_disabled":false,"rental_uris":{"android":"levelo://app?vid=7821f6a8-da79-4f9c-b784-b63f987ffda5","ios":"levelo://app?vid=7821f6a8-da79-4f9c-b784-b63f987ffda5"},"vehicle_type_id":"4","last_reported":1742227987,"current_range_meters":6400,"station_id":"ce4bgl92rcd13ifvqbq0","pricing_plan_id":"cebpf4jnsgd1na2vs0mg"},{"bike_id":"04e5e5b7-50fc-4eb1-90d6-364e3b03b2d6","system_id":"levelo_inurba_marseille","lat":43.24075,"lon":5.3775,"is_reserved":false,"is_disabled":true,"rental_uris":{"android":"levelo://app?vid=04e5e5b7-50fc-4eb1-90d6-364e3b03b2d6","ios":"levelo://app?vid=04e5e5b7-50fc-4eb1-90d6-364e3b03b2d6"},"vehicle_type_id":"4","last_reported":1742227987,"current_range_meters":6400,"station_id":"ce4bhnp2rcd13ifvqgvg","pricing_plan_id":"cebpf4jnsgd1na2vs0mg"},{"bike_id":"67e45879-f63f-477c-99d3-a1cf8df0b3ef","system_id":"levelo_inurba_marseille","lat":43.26218,"lon":5.37442,"is_reserved":false,"is_disabled":false,"rental_uris":{"android":"levelo://app?vid=67e45879-f63f-477c-99d3-a1cf8df0b3ef","ios":"levelo://app?vid=67e45879-f63f-477c-99d3-a1cf8df0b3ef"},"vehicle_type_id":"4","last_reported":1742227987,"current_range_meters":6400,"station_id":"ce4bhgp2rcd13ifvqfc0","pricing_plan_id":"cebpf4jnsgd1na2vs0mg"},{"bike_id":"f31da457-6e9b-4ad6-be1d-5ffba7cbc733","system_id":"levelo_inurba_marseille","lat":43.25003,"lon":5.38929,"is_reserved":false,"is_disabled":false,"rental_uris":{"android":"levelo://app?vid=f31da457-6e9b-4ad6-be1d-5ffba7cbc733","ios":"levelo://app?vid=f31da457-6e9b-4ad6-be1d-5ffba7cbc733"},"vehicle_type_id":"4","last_reported":1742227987,"current_range_meters":6400,"station_id":"ce4bhgp2rcd13ifvqfd0","pricing_plan_id":"cebpf4jnsgd1na2vs0mg"},{"bike_id":"50bcbe03-8566-442f-baf0-cc555aa6f669","system_id":"levelo_inurba_marseille","lat":43.29043,"lon":5.35918,"is_reserved":false,"is_disabled":false,"rental_uris":{"android":"levelo://app?vid=50bcbe03-8566-442f-baf0-cc555aa6f669","ios":"levelo://app?vid=50bcbe03-8566-442f-baf0-cc555aa6f669"},"vehicle_type_id":"4","last_reported":1742227987,"current_range_meters":6400,"station_id":"ce4bha92rcd13ifvqeg0","pricing_plan_id":"cebpf4jnsgd1na2vs0mg"},{"bike_id":"b9986c13-dafe-47d6-ae12-51ee59fc03fc","system_id":"levelo_inurba_marseille","lat":43.31334,"lon":5.39688,"is_reserved":false,"is_disabled":false,"rental_uris":{"android":"levelo://app?vid=b9986c13-dafe-47d6-ae12-51ee59fc03fc","ios":"levelo://app?vid=b9986c13-dafe-47d6-ae12-51ee59fc03fc"},"vehicle_type_id":"4","last_reported":1742227987,"current_range_meters":6000,"station_id":"ce4bgvp2rcd13ifvqcu0","pricing_plan_id":"cebpf4jnsgd1na2vs0mg"},{"bike_id":"a1652038-ac69-46c1-96cf-f0a7292a55cd","system_id":"levelo_inurba_marseille","lat":43.28618,"lon":5.35098,"is_reserved":false,"is_disabled":false,"rental_uris":{"android":"levelo://app?vid=a1652038-ac69-46c1-96cf-f0a7292a55cd","ios":"levelo://app?vid=a1652038-ac69-46c1-96cf-f0a7292a55cd"},"vehicle_type_id":"4","last_reported":1742227987,"current_range_meters":6400,"station_id":"ce4bhch2rcd13ifvqeug","pricing_plan_id":"cebpf4jnsgd1na2vs0mg"},{"bike_id":"1f2ca29d-df46-4c07-80be-ce982efa349b","system_id":"levelo_inurba_marseille","lat":43.23077,"lon":5.35496,"is_reserved":false,"is_disabled":false,"rental_uris":{"android":"levelo://app?vid=1f2ca29d-df46-4c07-80be-ce982efa349b","ios":"levelo://app?vid=1f2ca29d-df46-4c07-80be-ce982efa349b"},"vehicle_type_id":"4","last_reported":1742227987,"current_range_meters":6400,"station_id":"cpo3342slgdg3j2ifvpg","pricing_plan_id":"cebpf4jnsgd1na2vs0mg"},{"bike_id":"2cad790d-8767-4dde-a366-83aeeac91662","system_id":"levelo_inurba_marseille","lat":43.24185,"lon":5.39749,"is_reserved":false,"is_disabled":false,"rental_uris":{"android":"levelo://app?vid=2cad790d-8767-4dde-a366-83aeeac91662","ios":"levelo://app?vid=2cad790d-8767-4dde-a366-83aeeac91662"},"vehicle_type_id":"4","last_reported":1742227987,"current_range_meters":6400,"station_id":"ce4bhn12rcd13ifvqgpg","pricing_plan_id":"cebpf4jnsgd1na2vs0mg"},{"bike_id":"cc15e210-f7bf-4599-93be-6ee01d8146d0","system_id":"levelo_inurba_marseille","lat":43.23154,"lon":5.43716,"is_reserved":false,"is_disabled":false,"rental_uris":{"android":"levelo://app?vid=cc15e210-f7bf-4599-93be-6ee01d8146d0","ios":"levelo://app?vid=cc15e210-f7bf-4599-93be-6ee01d8146d0"},"vehicle_type_id":"4","last_reported":1742227987,"current_range_meters":6800,"station_id":"ce4bhmp2rcd13ifvqgog","pricing_plan_id":"cebpf4jnsgd1na2vs0mg"},{"bike_id":"e9559d40-e622-420d-ac9e-3df2db6fe4dd","system_id":"levelo_inurba_marseille","lat":43.23151,"lon":5.43721,"is_reserved":false,"is_disabled":false,"rental_uris":{"android":"levelo://app?vid=e9559d40-e622-420d-ac9e-3df2db6fe4dd","ios":"levelo://app?vid=e9559d40-e622-420d-ac9e-3df2db6fe4dd"},"vehicle_type_id":"4","last_reported":1742227987,"current_range_meters":6800,"station_id":"ce4bhmp2rcd13ifvqgog","pricing_plan_id":"cebpf4jnsgd1na2vs0mg"},{"bike_id":"2b75ccb3-67fd-47af-848f-f0f3e93e992b","system_id":"levelo_inurba_marseille","lat":43.30356,"lon":5.41878,"is_reserved":false,"is_disabled":false,"rental_uris":{"android":"levelo://app?vid=2b75ccb3-67fd-47af-848f-f0f3e93e992b","ios":"levelo://app?vid=2b75ccb3-67fd-47af-848f-f0f3e93e992b"},"vehicle_type_id":"4","last_reported":1742227987,"current_range_meters":6800,"station_id":"ce4bhop2rcd13ifvqh7g","pricing_plan_id":"cebpf4jnsgd1na2vs0mg"},{"bike_id":"d62841a2-6dc2-4a3c-a2b1-52e5b3d95014","system_id":"levelo_inurba_marseille","lat":43.26562,"lon":5.38992,"is_reserved":false,"is_disabled":false,"rental_uris":{"android":"levelo://app?vid=d62841a2-6dc2-4a3c-a2b1-52e5b3d95014","ios":"levelo://app?vid=d62841a2-6dc2-4a3c-a2b1-52e5b3d95014"},"vehicle_type_id":"4","last_reported":1742227987,"current_range_meters":6800,"station_id":"ce4bhe12rcd13ifvqf30","pricing_plan_id":"cebpf4jnsgd1na2vs0mg"},{"bike_id":"1c71fad2-506d-41a2-816a-e30221977347","system_id":"levelo_inurba_marseille","lat":43.27073,"lon":5.42279,"is_reserved":false,"is_disabled":false,"rental_uris":{"android":"levelo://app?vid=1c71fad2-506d-41a2-816a-e30221977347","ios":"levelo://app?vid=1c71fad2-506d-41a2-816a-e30221977347"},"vehicle_type_id":"4","last_reported":1742227987,"current_range_meters":6800,"station_id":"ce4bhk92rcd13ifvqgb0","pricing_plan_id":"cebpf4jnsgd1na2vs0mg"},{"bike_id":"f10e6576-582b-4e87-8665-7affc4e6a99f","system_id":"levelo_inurba_marseille","lat":43.30582,"lon":5.37237,"is_reserved":false,"is_disabled":false,"rental_uris":{"android":"levelo://app?vid=f10e6576-582b-4e87-8665-7affc4e6a99f","ios":"levelo://app?vid=f10e6576-582b-4e87-8665-7affc4e6a99f"},"vehicle_type_id":"4","last_reported":1742227987,"current_range_meters":6400,"station_id":"ce4bgqh2rcd13ifvqc4g","pricing_plan_id":"cebpf4jnsgd1na2vs0mg"},{"bike_id":"fb66672a-7a19-4a16-b02c-5721e740ee81","system_id":"levelo_inurba_marseille","lat":43.32663,"lon":5.4099,"is_reserved":false,"is_disabled":false,"rental_uris":{"android":"levelo://app?vid=fb66672a-7a19-4a16-b02c-5721e740ee81","ios":"levelo://app?vid=fb66672a-7a19-4a16-b02c-5721e740ee81"},"vehicle_type_id":"4","last_reported":1742227987,"current_range_meters":6800,"station_id":"ce4bhpp2rcd13ifvqhgg","pricing_plan_id":"cebpf4jnsgd1na2vs0mg"},{"bike_id":"39668642-435c-4ad1-a6a7-c94f002cdc42","system_id":"levelo_inurba_marseille","lat":43.26787,"lon":5.39413,"is_reserved":false,"is_disabled":false,"rental_uris":{"android":"levelo://app?vid=39668642-435c-4ad1-a6a7-c94f002cdc42","ios":"levelo://app?vid=39668642-435c-4ad1-a6a7-c94f002cdc42"},"vehicle_type_id":"4","last_reported":1742227987,"current_range_meters":6800,"station_id":"ce4bhh12rcd13ifvqfg0","pricing_plan_id":"cebpf4jnsgd1na2vs0mg"},{"bike_id":"c462825a-c7d7-4317-922b-8a6345adb8ee","system_id":"levelo_inurba_marseille","lat":43.27379,"lon":5.36252,"is_reserved":false,"is_disabled":false,"rental_uris":{"android":"levelo://app?vid=c462825a-c7d7-4317-922b-8a6345adb8ee","ios":"levelo://app?vid=c462825a-c7d7-4317-922b-8a6345adb8ee"},"vehicle_type_id":"4","last_reported":1742227987,"current_range_meters":7200,"station_id":"ce4bhbh2rcd13ifvqeo0","pricing_plan_id":"cebpf4jnsgd1na2vs0mg"},{"bike_id":"b29a0463-5e75-49d5-8955-7693d791a747","system_id":"levelo_inurba_marseille","lat":43.27615,"lon":5.36114,"is_reserved":false,"is_disabled":false,"rental_uris":{"android":"levelo://app?vid=b29a0463-5e75-49d5-8955-7693d791a747","ios":"levelo://app?vid=b29a0463-5e75-49d5-8955-7693d791a747"},"vehicle_type_id":"4","last_reported":1742227987,"current_range_meters":6800,"station_id":"ce4bgj92rcd13ifvqbe0","pricing_plan_id":"cebpf4jnsgd1na2vs0mg"},{"bike_id":"abd48a52-c8cc-4abb-a801-8dce64155a4a","system_id":"levelo_inurba_marseille","lat":43.24999,"lon":5.38939,"is_reserved":false,"is_disabled":false,"rental_uris":{"android":"levelo://app?vid=abd48a52-c8cc-4abb-a801-8dce64155a4a","ios":"levelo://app?vid=abd48a52-c8cc-4abb-a801-8dce64155a4a"},"vehicle_type_id":"4","last_reported":1742227987,"current_range_meters":7200,"station_id":"ce4bhgp2rcd13ifvqfd0","pricing_plan_id":"cebpf4jnsgd1na2vs0mg"},{"bike_id":"14cd229a-e82f-4d5d-bc54-5bd7b491925a","system_id":"levelo_inurba_marseille","lat":43.23198,"lon":5.39982,"is_reserved":false,"is_disabled":false,"rental_uris":{"android":"levelo://app?vid=14cd229a-e82f-4d5d-bc54-5bd7b491925a","ios":"levelo://app?vid=14cd229a-e82f-4d5d-bc54-5bd7b491925a"},"vehicle_type_id":"4","last_reported":1742227987,"current_range_meters":7200,"station_id":"ce4bhn12rcd13ifvqgqg","pricing_plan_id":"cebpf4jnsgd1na2vs0mg"},{"bike_id":"74620aff-b1f0-4b60-8841-bc8a0a2edc3e","system_id":"levelo_inurba_marseille","lat":43.23199,"lon":5.35555,"is_reserved":false,"is_disabled":false,"rental_uris":{"android":"levelo://app?vid=74620aff-b1f0-4b60-8841-bc8a0a2edc3e","ios":"levelo://app?vid=74620aff-b1f0-4b60-8841-bc8a0a2edc3e"},"vehicle_type_id":"4","last_reported":1742227987,"current_range_meters":8000,"station_id":"ce4bhu92rcd13ifvqi70","pricing_plan_id":"cebpf4jnsgd1na2vs0mg"},{"bike_id":"3ce2d2b6-3963-48ef-a09b-03dbdbe0f66a","system_id":"levelo_inurba_marseille","lat":43.26224,"lon":5.40451,"is_reserved":false,"is_disabled":false,"rental_uris":{"android":"levelo://app?vid=3ce2d2b6-3963-48ef-a09b-03dbdbe0f66a","ios":"levelo://app?vid=3ce2d2b6-3963-48ef-a09b-03dbdbe0f66a"},"vehicle_type_id":"4","last_reported":1742227987,"current_range_meters":8000,"station_id":"ce4bhmh2rcd13ifvqgmg","pricing_plan_id":"cebpf4jnsgd1na2vs0mg"},{"bike_id":"05398b67-af1b-4020-97ec-f9cca790bec0","system_id":"levelo_inurba_marseille","lat":43.28642,"lon":5.35057,"is_reserved":false,"is_disabled":false,"rental_uris":{"android":"levelo://app?vid=05398b67-af1b-4020-97ec-f9cca790bec0","ios":"levelo://app?vid=05398b67-af1b-4020-97ec-f9cca790bec0"},"vehicle_type_id":"4","last_reported":1742227987,"current_range_meters":8000,"station_id":"ce4bhch2rcd13ifvqeug","pricing_plan_id":"cebpf4jnsgd1na2vs0mg"},{"bike_id":"ef9b20c2-24a5-462d-8f71-a0b89cbc915f","system_id":"levelo_inurba_marseille","lat":43.26038,"lon":5.41763,"is_reserved":false,"is_disabled":false,"rental_uris":{"android":"levelo://app?vid=ef9b20c2-24a5-462d-8f71-a0b89cbc915f","ios":"levelo://app?vid=ef9b20c2-24a5-462d-8f71-a0b89cbc915f"},"vehicle_type_id":"4","last_reported":1742227987,"current_range_meters":8000,"station_id":"","pricing_plan_id":"cebpf4jnsgd1na2vs0mg"},{"bike_id":"2fe6b5d4-c6f7-40d2-9a0b-4798d57f392b","system_id":"levelo_inurba_marseille","lat":43.23061,"lon":5.35506,"is_reserved":false,"is_disabled":false,"rental_uris":{"android":"levelo://app?vid=2fe6b5d4-c6f7-40d2-9a0b-4798d57f392b","ios":"levelo://app?vid=2fe6b5d4-c6f7-40d2-9a0b-4798d57f392b"},"vehicle_type_id":"4","last_reported":1742227987,"current_range_meters":8000,"station_id":"cpo3342slgdg3j2ifvpg","pricing_plan_id":"cebpf4jnsgd1na2vs0mg"},{"bike_id":"e39f083d-4542-4f7b-9173-1e8fe9e09597","system_id":"levelo_inurba_marseille","lat":43.27491,"lon":5.42464,"is_reserved":false,"is_disabled":true,"rental_uris":{"android":"levelo://app?vid=e39f083d-4542-4f7b-9173-1e8fe9e09597","ios":"levelo://app?vid=e39f083d-4542-4f7b-9173-1e8fe9e09597"},"vehicle_type_id":"4","last_reported":1742227987,"current_range_meters":8000,"station_id":"ce4bhn92rcd13ifvqgrg","pricing_plan_id":"cebpf4jnsgd1na2vs0mg"},{"bike_id":"8328075f-d508-4d51-8cda-eb51cdd3db9d","system_id":"levelo_inurba_marseille","lat":43.32114,"lon":5.36757,"is_reserved":false,"is_disabled":false,"rental_uris":{"android":"levelo://app?vid=8328075f-d508-4d51-8cda-eb51cdd3db9d","ios":"levelo://app?vid=8328075f-d508-4d51-8cda-eb51cdd3db9d"},"vehicle_type_id":"4","last_reported":1742227987,"current_range_meters":8000,"station_id":"ce4bhrh2rcd13ifvqhug","pricing_plan_id":"cebpf4jnsgd1na2vs0mg"},{"bike_id":"021238b5-2b9d-46d2-b80c-a5e816fdc135","system_id":"levelo_inurba_marseille","lat":43.29518,"lon":5.42488,"is_reserved":false,"is_disabled":false,"rental_uris":{"android":"levelo://app?vid=021238b5-2b9d-46d2-b80c-a5e816fdc135","ios":"levelo://app?vid=021238b5-2b9d-46d2-b80c-a5e816fdc135"},"vehicle_type_id":"4","last_reported":1742227987,"current_range_meters":8000,"station_id":"","pricing_plan_id":"cebpf4jnsgd1na2vs0mg"},{"bike_id":"a561f3af-dc1c-4af4-b9a4-ead55b35e495","system_id":"levelo_inurba_marseille","lat":43.23192,"lon":5.35558,"is_reserved":false,"is_disabled":false,"rental_uris":{"android":"levelo://app?vid=a561f3af-dc1c-4af4-b9a4-ead55b35e495","ios":"levelo://app?vid=a561f3af-dc1c-4af4-b9a4-ead55b35e495"},"vehicle_type_id":"4","last_reported":1742227987,"current_range_meters":8000,"station_id":"ce4bhu92rcd13ifvqi70","pricing_plan_id":"cebpf4jnsgd1na2vs0mg"},{"bike_id":"be18c2f4-2b27-4418-a28c-39b5435b3b34","system_id":"levelo_inurba_marseille","lat":43.32538,"lon":5.41429,"is_reserved":false,"is_disabled":false,"rental_uris":{"android":"levelo://app?vid=be18c2f4-2b27-4418-a28c-39b5435b3b34","ios":"levelo://app?vid=be18c2f4-2b27-4418-a28c-39b5435b3b34"},"vehicle_type_id":"4","last_reported":1742227987,"current_range_meters":7200,"station_id":"ce4bhq12rcd13ifvqhhg","pricing_plan_id":"cebpf4jnsgd1na2vs0mg"},{"bike_id":"5ae3389f-4861-401c-8ef6-b6dce59ed540","system_id":"levelo_inurba_marseille","lat":43.32088,"lon":5.36763,"is_reserved":false,"is_disabled":false,"rental_uris":{"android":"levelo://app?vid=5ae3389f-4861-401c-8ef6-b6dce59ed540","ios":"levelo://app?vid=5ae3389f-4861-401c-8ef6-b6dce59ed540"},"vehicle_type_id":"4","last_reported":1742227987,"current_range_meters":8000,"station_id":"ce4bhrh2rcd13ifvqhug","pricing_plan_id":"cebpf4jnsgd1na2vs0mg"},{"bike_id":"8abf5c72-692f-4fd9-8537-22fe861d9366","system_id":"levelo_inurba_marseille","lat":43.32341,"lon":5.36735,"is_reserved":false,"is_disabled":false,"rental_uris":{"android":"levelo://app?vid=8abf5c72-692f-4fd9-8537-22fe861d9366","ios":"levelo://app?vid=8abf5c72-692f-4fd9-8537-22fe861d9366"},"vehicle_type_id":"4","last_reported":1742227987,"current_range_meters":8000,"station_id":"ce4bhsh2rcd13ifvqi2g","pricing_plan_id":"cebpf4jnsgd1na2vs0mg"},{"bike_id":"4a82e9fa-897e-4db9-9848-eca7bdecdfdc","system_id":"levelo_inurba_marseille","lat":43.27916,"lon":5.38233,"is_reserved":false,"is_disabled":false,"rental_uris":{"android":"levelo://app?vid=4a82e9fa-897e-4db9-9848-eca7bdecdfdc","ios":"levelo://app?vid=4a82e9fa-897e-4db9-9848-eca7bdecdfdc"},"vehicle_type_id":"4","last_reported":1742227987,"current_range_meters":8000,"station_id":"","pricing_plan_id":"cebpf4jnsgd1na2vs0mg"},{"bike_id":"58a278f8-8ea4-4b76-a9bf-0d4dc0e128dc","system_id":"levelo_inurba_marseille","lat":43.25827,"lon":5.39428,"is_reserved":false,"is_disabled":false,"rental_uris":{"android":"levelo://app?vid=58a278f8-8ea4-4b76-a9bf-0d4dc0e128dc","ios":"levelo://app?vid=58a278f8-8ea4-4b76-a9bf-0d4dc0e128dc"},"vehicle_type_id":"4","last_reported":1742227987,"current_range_meters":8000,"station_id":"ce4bhip2rcd13ifvqft0","pricing_plan_id":"cebpf4jnsgd1na2vs0mg"},{"bike_id":"6b8ffa9f-0e09-4bfb-a7c9-f730a8d18a65","system_id":"levelo_inurba_marseille","lat":43.24416,"lon":5.36996,"is_reserved":false,"is_disabled":false,"rental_uris":{"android":"levelo://app?vid=6b8ffa9f-0e09-4bfb-a7c9-f730a8d18a65","ios":"levelo://app?vid=6b8ffa9f-0e09-4bfb-a7c9-f730a8d18a65"},"vehicle_type_id":"4","last_reported":1742227987,"current_range_meters":8000,"station_id":"","pricing_plan_id":"cebpf4jnsgd1na2vs0mg"},{"bike_id":"4ffdacba-034c-421f-8d42-ca57612cd8c0","system_id":"levelo_inurba_marseille","lat":43.32356,"lon":5.36757,"is_reserved":false,"is_disabled":false,"rental_uris":{"android":"levelo://app?vid=4ffdacba-034c-421f-8d42-ca57612cd8c0","ios":"levelo://app?vid=4ffdacba-034c-421f-8d42-ca57612cd8c0"},"vehicle_type_id":"4","last_reported":1742227987,"current_range_meters":8000,"station_id":"ce4bhsh2rcd13ifvqi2g","pricing_plan_id":"cebpf4jnsgd1na2vs0mg"},{"bike_id":"584afa3f-48c1-4f25-a5dc-28dc6ad9e4c6","system_id":"levelo_inurba_marseille","lat":43.29546,"lon":5.42265,"is_reserved":false,"is_disabled":false,"rental_uris":{"android":"levelo://app?vid=584afa3f-48c1-4f25-a5dc-28dc6ad9e4c6","ios":"levelo://app?vid=584afa3f-48c1-4f25-a5dc-28dc6ad9e4c6"},"vehicle_type_id":"4","last_reported":1742227987,"current_range_meters":8400,"station_id":"ce4bhph2rcd13ifvqhdg","pricing_plan_id":"cebpf4jnsgd1na2vs0mg"},{"bike_id":"6b205c45-c94c-4a83-8523-fb65e584dfe8","system_id":"levelo_inurba_marseille","lat":43.31714,"lon":5.37731,"is_reserved":false,"is_disabled":false,"rental_uris":{"android":"levelo://app?vid=6b205c45-c94c-4a83-8523-fb65e584dfe8","ios":"levelo://app?vid=6b205c45-c94c-4a83-8523-fb65e584dfe8"},"vehicle_type_id":"4","last_reported":1742227987,"current_range_meters":8000,"station_id":"ce4bgth2rcd13ifvqch0","pricing_plan_id":"cebpf4jnsgd1na2vs0mg"},{"bike_id":"3b2e71df-8810-4af3-a956-fdecfb5ad41f","system_id":"levelo_inurba_marseille","lat":43.23158,"lon":5.43717,"is_reserved":false,"is_disabled":false,"rental_uris":{"android":"levelo://app?vid=3b2e71df-8810-4af3-a956-fdecfb5ad41f","ios":"levelo://app?vid=3b2e71df-8810-4af3-a956-fdecfb5ad41f"},"vehicle_type_id":"4","last_reported":1742227987,"current_range_meters":8400,"station_id":"ce4bhmp2rcd13ifvqgog","pricing_plan_id":"cebpf4jnsgd1na2vs0mg"},{"bike_id":"7fbeed54-aaa6-4d83-b3c5-d1822d9cd28d","system_id":"levelo_inurba_marseille","lat":43.29444,"lon":5.39747,"is_reserved":false,"is_disabled":false,"rental_uris":{"android":"levelo://app?vid=7fbeed54-aaa6-4d83-b3c5-d1822d9cd28d","ios":"levelo://app?vid=7fbeed54-aaa6-4d83-b3c5-d1822d9cd28d"},"vehicle_type_id":"4","last_reported":1742227987,"current_range_meters":8400,"station_id":"ce4bh3h2rcd13ifvqdo0","pricing_plan_id":"cebpf4jnsgd1na2vs0mg"},{"bike_id":"6f289570-d328-4b01-be16-d5739848cc96","system_id":"levelo_inurba_marseille","lat":43.283142,"lon":5.350241,"is_reserved":false,"is_disabled":false,"rental_uris":{"android":"levelo://app?vid=6f289570-d328-4b01-be16-d5739848cc96","ios":"levelo://app?vid=6f289570-d328-4b01-be16-d5739848cc96"},"vehicle_type_id":"4","last_reported":1742227987,"current_range_meters":8400,"station_id":"ce4bgr92rcd13ifvqc6g","pricing_plan_id":"cebpf4jnsgd1na2vs0mg"},{"bike_id":"af5bae97-6704-49b0-bd42-e0d0384f88be","system_id":"levelo_inurba_marseille","lat":43.28025,"lon":5.36955,"is_reserved":false,"is_disabled":false,"rental_uris":{"android":"levelo://app?vid=af5bae97-6704-49b0-bd42-e0d0384f88be","ios":"levelo://app?vid=af5bae97-6704-49b0-bd42-e0d0384f88be"},"vehicle_type_id":"4","last_reported":1742227987,"current_range_meters":8400,"station_id":"ce4bha12rcd13ifvqef0","pricing_plan_id":"cebpf4jnsgd1na2vs0mg"},{"bike_id":"9dcb622a-e621-4cef-b659-02a845217b91","system_id":"levelo_inurba_marseille","lat":43.32342,"lon":5.38892,"is_reserved":false,"is_disabled":false,"rental_uris":{"android":"levelo://app?vid=9dcb622a-e621-4cef-b659-02a845217b91","ios":"levelo://app?vid=9dcb622a-e621-4cef-b659-02a845217b91"},"vehicle_type_id":"4","last_reported":1742227987,"current_range_meters":8400,"station_id":"ce4bhqp2rcd13ifvqhog","pricing_plan_id":"cebpf4jnsgd1na2vs0mg"},{"bike_id":"33fbc675-b2e4-450d-abf9-d682b7526796","system_id":"levelo_inurba_marseille","lat":43.29506,"lon":5.3856,"is_reserved":false,"is_disabled":false,"rental_uris":{"android":"levelo://app?vid=33fbc675-b2e4-450d-abf9-d682b7526796","ios":"levelo://app?vid=33fbc675-b2e4-450d-abf9-d682b7526796"},"vehicle_type_id":"4","last_reported":1742227987,"current_range_meters":8400,"station_id":"ce4bgih2rcd13ifvqba0","pricing_plan_id":"cebpf4jnsgd1na2vs0mg"},{"bike_id":"b1caf000-cb2b-4aa7-9447-b41fe156b415","system_id":"levelo_inurba_marseille","lat":43.25968,"lon":5.40807,"is_reserved":false,"is_disabled":false,"rental_uris":{"android":"levelo://app?vid=b1caf000-cb2b-4aa7-9447-b41fe156b415","ios":"levelo://app?vid=b1caf000-cb2b-4aa7-9447-b41fe156b415"},"vehicle_type_id":"4","last_reported":1742227987,"current_range_meters":8400,"station_id":"","pricing_plan_id":"cebpf4jnsgd1na2vs0mg"},{"bike_id":"2b7011fc-7dee-42c2-86d6-7293fa23c29b","system_id":"levelo_inurba_marseille","lat":43.286136,"lon":5.35108,"is_reserved":false,"is_disabled":true,"rental_uris":{"android":"levelo://app?vid=2b7011fc-7dee-42c2-86d6-7293fa23c29b","ios":"levelo://app?vid=2b7011fc-7dee-42c2-86d6-7293fa23c29b"},"vehicle_type_id":"4","last_reported":1742227987,"current_range_meters":8400,"station_id":"","pricing_plan_id":"cebpf4jnsgd1na2vs0mg"},{"bike_id":"9ee8265a-0fdc-4849-933f-8351e6c3b1de","system_id":"levelo_inurba_marseille","lat":43.232,"lon":5.40002,"is_reserved":false,"is_disabled":false,"rental_uris":{"android":"levelo://app?vid=9ee8265a-0fdc-4849-933f-8351e6c3b1de","ios":"levelo://app?vid=9ee8265a-0fdc-4849-933f-8351e6c3b1de"},"vehicle_type_id":"4","last_reported":1742227987,"current_range_meters":8400,"station_id":"ce4bhn12rcd13ifvqgqg","pricing_plan_id":"cebpf4jnsgd1na2vs0mg"},{"bike_id":"0a018086-283c-4259-a1ff-a9304b066761","system_id":"levelo_inurba_marseille","lat":43.25019,"lon":5.38938,"is_reserved":false,"is_disabled":false,"rental_uris":{"android":"levelo://app?vid=0a018086-283c-4259-a1ff-a9304b066761","ios":"levelo://app?vid=0a018086-283c-4259-a1ff-a9304b066761"},"vehicle_type_id":"4","last_reported":1742227987,"current_range_meters":8400,"station_id":"ce4bhgp2rcd13ifvqfd0","pricing_plan_id":"cebpf4jnsgd1na2vs0mg"},{"bike_id":"f859b8d0-7b43-4f72-ac07-1d65276805eb","system_id":"levelo_inurba_marseille","lat":43.28949,"lon":5.39631,"is_reserved":false,"is_disabled":false,"rental_uris":{"android":"levelo://app?vid=f859b8d0-7b43-4f72-ac07-1d65276805eb","ios":"levelo://app?vid=f859b8d0-7b43-4f72-ac07-1d65276805eb"},"vehicle_type_id":"4","last_reported":1742227987,"current_range_meters":8800,"station_id":"ce4bh3h2rcd13ifvqdn0","pricing_plan_id":"cebpf4jnsgd1na2vs0mg"},{"bike_id":"e0e721b1-c009-4a6b-a340-c83a0d53ecc1","system_id":"levelo_inurba_marseille","lat":43.3236,"lon":5.36766,"is_reserved":false,"is_disabled":false,"rental_uris":{"android":"levelo://app?vid=e0e721b1-c009-4a6b-a340-c83a0d53ecc1","ios":"levelo://app?vid=e0e721b1-c009-4a6b-a340-c83a0d53ecc1"},"vehicle_type_id":"4","last_reported":1742227987,"current_range_meters":8800,"station_id":"ce4bhsh2rcd13ifvqi2g","pricing_plan_id":"cebpf4jnsgd1na2vs0mg"},{"bike_id":"0fae1b1e-a6a8-4198-8b7e-8d4abf05d9fd","system_id":"levelo_inurba_marseille","lat":43.32061,"lon":5.41547,"is_reserved":false,"is_disabled":false,"rental_uris":{"android":"levelo://app?vid=0fae1b1e-a6a8-4198-8b7e-8d4abf05d9fd","ios":"levelo://app?vid=0fae1b1e-a6a8-4198-8b7e-8d4abf05d9fd"},"vehicle_type_id":"4","last_reported":1742227987,"current_range_meters":8800,"station_id":"ce4bhq92rcd13ifvqhkg","pricing_plan_id":"cebpf4jnsgd1na2vs0mg"},{"bike_id":"3f3917b2-0edf-47a4-83c9-ca8fcf5cba45","system_id":"levelo_inurba_marseille","lat":43.27643,"lon":5.42504,"is_reserved":false,"is_disabled":false,"rental_uris":{"android":"levelo://app?vid=3f3917b2-0edf-47a4-83c9-ca8fcf5cba45","ios":"levelo://app?vid=3f3917b2-0edf-47a4-83c9-ca8fcf5cba45"},"vehicle_type_id":"4","last_reported":1742227987,"current_range_meters":8800,"station_id":"","pricing_plan_id":"cebpf4jnsgd1na2vs0mg"},{"bike_id":"c610338b-0008-4d1e-8a0a-c61418d52eac","system_id":"levelo_inurba_marseille","lat":43.31105,"lon":5.42394,"is_reserved":false,"is_disabled":false,"rental_uris":{"android":"levelo://app?vid=c610338b-0008-4d1e-8a0a-c61418d52eac","ios":"levelo://app?vid=c610338b-0008-4d1e-8a0a-c61418d52eac"},"vehicle_type_id":"4","last_reported":1742227987,"current_range_meters":8800,"station_id":"ce4bhp92rcd13ifvqhag","pricing_plan_id":"cebpf4jnsgd1na2vs0mg"},{"bike_id":"53442fe7-de68-45d4-9150-aea310bd7291","system_id":"levelo_inurba_marseille","lat":43.23177,"lon":5.43728,"is_reserved":false,"is_disabled":false,"rental_uris":{"android":"levelo://app?vid=53442fe7-de68-45d4-9150-aea310bd7291","ios":"levelo://app?vid=53442fe7-de68-45d4-9150-aea310bd7291"},"vehicle_type_id":"4","last_reported":1742227987,"current_range_meters":9200,"station_id":"ce4bhmp2rcd13ifvqgog","pricing_plan_id":"cebpf4jnsgd1na2vs0mg"},{"bike_id":"73ba6054-b256-49f9-a881-8617a962027d","system_id":"levelo_inurba_marseille","lat":43.2306,"lon":5.35491,"is_reserved":false,"is_disabled":false,"rental_uris":{"android":"levelo://app?vid=73ba6054-b256-49f9-a881-8617a962027d","ios":"levelo://app?vid=73ba6054-b256-49f9-a881-8617a962027d"},"vehicle_type_id":"4","last_reported":1742227987,"current_range_meters":9200,"station_id":"cpo3342slgdg3j2ifvpg","pricing_plan_id":"cebpf4jnsgd1na2vs0mg"},{"bike_id":"e95151cd-abc4-4dae-8ab5-1de4cba734f5","system_id":"levelo_inurba_marseille","lat":43.24179,"lon":5.39725,"is_reserved":false,"is_disabled":false,"rental_uris":{"android":"levelo://app?vid=e95151cd-abc4-4dae-8ab5-1de4cba734f5","ios":"levelo://app?vid=e95151cd-abc4-4dae-8ab5-1de4cba734f5"},"vehicle_type_id":"4","last_reported":1742227987,"current_range_meters":9200,"station_id":"ce4bhn12rcd13ifvqgpg","pricing_plan_id":"cebpf4jnsgd1na2vs0mg"},{"bike_id":"3c66297c-8706-4fc8-b82a-01f18fe81815","system_id":"levelo_inurba_marseille","lat":43.25499,"lon":5.37649,"is_reserved":false,"is_disabled":false,"rental_uris":{"android":"levelo://app?vid=3c66297c-8706-4fc8-b82a-01f18fe81815","ios":"levelo://app?vid=3c66297c-8706-4fc8-b82a-01f18fe81815"},"vehicle_type_id":"4","last_reported":1742227987,"current_range_meters":9200,"station_id":"ce4bh292rcd13ifvqdf0","pricing_plan_id":"cebpf4jnsgd1na2vs0mg"},{"bike_id":"4fde3d06-da33-44ef-ab6d-add15f3e8626","system_id":"levelo_inurba_marseille","lat":43.23149,"lon":5.43701,"is_reserved":false,"is_disabled":false,"rental_uris":{"android":"levelo://app?vid=4fde3d06-da33-44ef-ab6d-add15f3e8626","ios":"levelo://app?vid=4fde3d06-da33-44ef-ab6d-add15f3e8626"},"vehicle_type_id":"4","last_reported":1742227987,"current_range_meters":9200,"station_id":"ce4bhmp2rcd13ifvqgog","pricing_plan_id":"cebpf4jnsgd1na2vs0mg"},{"bike_id":"fa5f15ab-8994-45e1-84de-31aa4c8b3ced","system_id":"levelo_inurba_marseille","lat":43.232,"lon":5.35555,"is_reserved":false,"is_disabled":false,"rental_uris":{"android":"levelo://app?vid=fa5f15ab-8994-45e1-84de-31aa4c8b3ced","ios":"levelo://app?vid=fa5f15ab-8994-45e1-84de-31aa4c8b3ced"},"vehicle_type_id":"4","last_reported":1742227987,"current_range_meters":9200,"station_id":"ce4bhu92rcd13ifvqi70","pricing_plan_id":"cebpf4jnsgd1na2vs0mg"},{"bike_id":"3dc197c2-0da6-44af-a063-b69df50bc677","system_id":"levelo_inurba_marseille","lat":43.23156,"lon":5.43711,"is_reserved":false,"is_disabled":false,"rental_uris":{"android":"levelo://app?vid=3dc197c2-0da6-44af-a063-b69df50bc677","ios":"levelo://app?vid=3dc197c2-0da6-44af-a063-b69df50bc677"},"vehicle_type_id":"4","last_reported":1742227987,"current_range_meters":9200,"station_id":"ce4bhmp2rcd13ifvqgog","pricing_plan_id":"cebpf4jnsgd1na2vs0mg"},{"bike_id":"b54a649d-2707-4569-87ee-d2c230e19409","system_id":"levelo_inurba_marseille","lat":43.27473,"lon":5.40893,"is_reserved":false,"is_disabled":false,"rental_uris":{"android":"levelo://app?vid=b54a649d-2707-4569-87ee-d2c230e19409","ios":"levelo://app?vid=b54a649d-2707-4569-87ee-d2c230e19409"},"vehicle_type_id":"4","last_reported":1742227987,"current_range_meters":9200,"station_id":"","pricing_plan_id":"cebpf4jnsgd1na2vs0mg"},{"bike_id":"1ecb9fc8-c55f-4906-a6b3-3b2b095fb135","system_id":"levelo_inurba_marseille","lat":43.29551,"lon":5.42291,"is_reserved":false,"is_disabled":false,"rental_uris":{"android":"levelo://app?vid=1ecb9fc8-c55f-4906-a6b3-3b2b095fb135","ios":"levelo://app?vid=1ecb9fc8-c55f-4906-a6b3-3b2b095fb135"},"vehicle_type_id":"4","last_reported":1742227987,"current_range_meters":9200,"station_id":"ce4bhph2rcd13ifvqhdg","pricing_plan_id":"cebpf4jnsgd1na2vs0mg"},{"bike_id":"dd117a7c-a536-40a1-91af-43693b0b8fe5","system_id":"levelo_inurba_marseille","lat":43.25951,"lon":5.40899,"is_reserved":false,"is_disabled":false,"rental_uris":{"android":"levelo://app?vid=dd117a7c-a536-40a1-91af-43693b0b8fe5","ios":"levelo://app?vid=dd117a7c-a536-40a1-91af-43693b0b8fe5"},"vehicle_type_id":"4","last_reported":1742227987,"current_range_meters":9200,"station_id":"ce4bhm92rcd13ifvqglg","pricing_plan_id":"cebpf4jnsgd1na2vs0mg"},{"bike_id":"2caf4a9a-0fdc-4be8-99c3-92290684314e","system_id":"levelo_inurba_marseille","lat":43.24993,"lon":5.38921,"is_reserved":false,"is_disabled":false,"rental_uris":{"android":"levelo://app?vid=2caf4a9a-0fdc-4be8-99c3-92290684314e","ios":"levelo://app?vid=2caf4a9a-0fdc-4be8-99c3-92290684314e"},"vehicle_type_id":"4","last_reported":1742227987,"current_range_meters":9600,"station_id":"ce4bhgp2rcd13ifvqfd0","pricing_plan_id":"cebpf4jnsgd1na2vs0mg"},{"bike_id":"6d8e8090-a4c7-4966-a3f4-a833922b9e5a","system_id":"levelo_inurba_marseille","lat":43.23194,"lon":5.35556,"is_reserved":false,"is_disabled":false,"rental_uris":{"android":"levelo://app?vid=6d8e8090-a4c7-4966-a3f4-a833922b9e5a","ios":"levelo://app?vid=6d8e8090-a4c7-4966-a3f4-a833922b9e5a"},"vehicle_type_id":"4","last_reported":1742227987,"current_range_meters":9600,"station_id":"ce4bhu92rcd13ifvqi70","pricing_plan_id":"cebpf4jnsgd1na2vs0mg"},{"bike_id":"4c1bd7e0-d65d-418a-9990-8a5deb59c20f","system_id":"levelo_inurba_marseille","lat":43.28622,"lon":5.35101,"is_reserved":false,"is_disabled":false,"rental_uris":{"android":"levelo://app?vid=4c1bd7e0-d65d-418a-9990-8a5deb59c20f","ios":"levelo://app?vid=4c1bd7e0-d65d-418a-9990-8a5deb59c20f"},"vehicle_type_id":"4","last_reported":1742227987,"current_range_meters":9600,"station_id":"ce4bhch2rcd13ifvqeug","pricing_plan_id":"cebpf4jnsgd1na2vs0mg"},{"bike_id":"d155b6d7-4f04-4869-a663-a1baa5b8f97e","system_id":"levelo_inurba_marseille","lat":43.23195,"lon":5.35565,"is_reserved":false,"is_disabled":false,"rental_uris":{"android":"levelo://app?vid=d155b6d7-4f04-4869-a663-a1baa5b8f97e","ios":"levelo://app?vid=d155b6d7-4f04-4869-a663-a1baa5b8f97e"},"vehicle_type_id":"4","last_reported":1742227987,"current_range_meters":9600,"station_id":"ce4bhu92rcd13ifvqi70","pricing_plan_id":"cebpf4jnsgd1na2vs0mg"},{"bike_id":"9a9d22e6-644c-4f24-8b3d-0519b9101cb3","system_id":"levelo_inurba_marseille","lat":43.292791,"lon":5.401339,"is_reserved":false,"is_disabled":false,"rental_uris":{"android":"levelo://app?vid=9a9d22e6-644c-4f24-8b3d-0519b9101cb3","ios":"levelo://app?vid=9a9d22e6-644c-4f24-8b3d-0519b9101cb3"},"vehicle_type_id":"4","last_reported":1742227987,"current_range_meters":9600,"station_id":"ce4bh312rcd13ifvqdk0","pricing_plan_id":"cebpf4jnsgd1na2vs0mg"},{"bike_id":"68c57267-0826-45b1-820f-19fbd105c8f5","system_id":"levelo_inurba_marseille","lat":43.25503,"lon":5.37647,"is_reserved":false,"is_disabled":false,"rental_uris":{"android":"levelo://app?vid=68c57267-0826-45b1-820f-19fbd105c8f5","ios":"levelo://app?vid=68c57267-0826-45b1-820f-19fbd105c8f5"},"vehicle_type_id":"4","last_reported":1742227987,"current_range_meters":9600,"station_id":"ce4bhh12rcd13ifvqff0","pricing_plan_id":"cebpf4jnsgd1na2vs0mg"},{"bike_id":"5476dac3-5d06-4737-a83c-a1b74595ffce","system_id":"levelo_inurba_marseille","lat":43.31727,"lon":5.43714,"is_reserved":false,"is_disabled":false,"rental_uris":{"android":"levelo://app?vid=5476dac3-5d06-4737-a83c-a1b74595ffce","ios":"levelo://app?vid=5476dac3-5d06-4737-a83c-a1b74595ffce"},"vehicle_type_id":"4","last_reported":1742227987,"current_range_meters":9600,"station_id":"ce4bhp92rcd13ifvqhcg","pricing_plan_id":"cebpf4jnsgd1na2vs0mg"},{"bike_id":"32d316ac-fbff-4a46-b089-c9659d2f694c","system_id":"levelo_inurba_marseille","lat":43.33024,"lon":5.3904,"is_reserved":false,"is_disabled":false,"rental_uris":{"android":"levelo://app?vid=32d316ac-fbff-4a46-b089-c9659d2f694c","ios":"levelo://app?vid=32d316ac-fbff-4a46-b089-c9659d2f694c"},"vehicle_type_id":"4","last_reported":1742227987,"current_range_meters":9600,"station_id":"ce4bhr92rcd13ifvqhrg","pricing_plan_id":"cebpf4jnsgd1na2vs0mg"},{"bike_id":"836e6160-43fb-4e74-bca4-6228c501760e","system_id":"levelo_inurba_marseille","lat":43.25501,"lon":5.37657,"is_reserved":false,"is_disabled":false,"rental_uris":{"android":"levelo://app?vid=836e6160-43fb-4e74-bca4-6228c501760e","ios":"levelo://app?vid=836e6160-43fb-4e74-bca4-6228c501760e"},"vehicle_type_id":"4","last_reported":1742227987,"current_range_meters":9600,"station_id":"ce4bhh12rcd13ifvqff0","pricing_plan_id":"cebpf4jnsgd1na2vs0mg"},{"bike_id":"4d37376e-5944-402f-8fbb-7d0f48a208aa","system_id":"levelo_inurba_marseille","lat":43.32354,"lon":5.36748,"is_reserved":false,"is_disabled":false,"rental_uris":{"android":"levelo://app?vid=4d37376e-5944-402f-8fbb-7d0f48a208aa","ios":"levelo://app?vid=4d37376e-5944-402f-8fbb-7d0f48a208aa"},"vehicle_type_id":"4","last_reported":1742227987,"current_range_meters":9600,"station_id":"ce4bhsh2rcd13ifvqi2g","pricing_plan_id":"cebpf4jnsgd1na2vs0mg"},{"bike_id":"fbec38d7-a785-412d-b793-121527d1d6b6","system_id":"levelo_inurba_marseille","lat":43.23191,"lon":5.35547,"is_reserved":false,"is_disabled":false,"rental_uris":{"android":"levelo://app?vid=fbec38d7-a785-412d-b793-121527d1d6b6","ios":"levelo://app?vid=fbec38d7-a785-412d-b793-121527d1d6b6"},"vehicle_type_id":"4","last_reported":1742227987,"current_range_meters":10000,"station_id":"ce4bhu92rcd13ifvqi70","pricing_plan_id":"cebpf4jnsgd1na2vs0mg"},{"bike_id":"6fc8f3d1-538d-4a6a-b6c2-ed8c477c10e0","system_id":"levelo_inurba_marseille","lat":43.25116,"lon":5.40324,"is_reserved":false,"is_disabled":false,"rental_uris":{"android":"levelo://app?vid=6fc8f3d1-538d-4a6a-b6c2-ed8c477c10e0","ios":"levelo://app?vid=6fc8f3d1-538d-4a6a-b6c2-ed8c477c10e0"},"vehicle_type_id":"4","last_reported":1742227987,"current_range_meters":10000,"station_id":"ce4bhlh2rcd13ifvqgig","pricing_plan_id":"cebpf4jnsgd1na2vs0mg"},{"bike_id":"2ae7c7a5-411c-4c94-a787-b0c4b417f9fb","system_id":"levelo_inurba_marseille","lat":43.29519,"lon":5.394,"is_reserved":false,"is_disabled":false,"rental_uris":{"android":"levelo://app?vid=2ae7c7a5-411c-4c94-a787-b0c4b417f9fb","ios":"levelo://app?vid=2ae7c7a5-411c-4c94-a787-b0c4b417f9fb"},"vehicle_type_id":"4","last_reported":1742227987,"current_range_meters":9600,"station_id":"ce4bh292rcd13ifvqdf0","pricing_plan_id":"cebpf4jnsgd1na2vs0mg"},{"bike_id":"2cfea23f-97b4-4970-9375-fe39f97bb29e","system_id":"levelo_inurba_marseille","lat":43.26197,"lon":5.3793,"is_reserved":false,"is_disabled":false,"rental_uris":{"android":"levelo://app?vid=2cfea23f-97b4-4970-9375-fe39f97bb29e","ios":"levelo://app?vid=2cfea23f-97b4-4970-9375-fe39f97bb29e"},"vehicle_type_id":"4","last_reported":1742227987,"current_range_meters":10000,"station_id":"ce4bhjp2rcd13ifvqg90","pricing_plan_id":"cebpf4jnsgd1na2vs0mg"},{"bike_id":"70cae1f3-5abb-4f8b-b484-647e3631bfaa","system_id":"levelo_inurba_marseille","lat":43.28162,"lon":5.42638,"is_reserved":false,"is_disabled":false,"rental_uris":{"android":"levelo://app?vid=70cae1f3-5abb-4f8b-b484-647e3631bfaa","ios":"levelo://app?vid=70cae1f3-5abb-4f8b-b484-647e3631bfaa"},"vehicle_type_id":"4","last_reported":1742227987,"current_range_meters":10000,"station_id":"ce4bhnh2rcd13ifvqgug","pricing_plan_id":"cebpf4jnsgd1na2vs0mg"},{"bike_id":"6058ab2c-87c6-4f09-ba9f-87089400e41b","system_id":"levelo_inurba_marseille","lat":43.298981,"lon":5.397265,"is_reserved":false,"is_disabled":false,"rental_uris":{"android":"levelo://app?vid=6058ab2c-87c6-4f09-ba9f-87089400e41b","ios":"levelo://app?vid=6058ab2c-87c6-4f09-ba9f-87089400e41b"},"vehicle_type_id":"4","last_reported":1742227987,"current_range_meters":10000,"station_id":"ce4bh0h2rcd13ifvqd50","pricing_plan_id":"cebpf4jnsgd1na2vs0mg"},{"bike_id":"cd691eb3-cfed-4c4e-8524-616bc7c6695a","system_id":"levelo_inurba_marseille","lat":43.26196,"lon":5.37445,"is_reserved":false,"is_disabled":false,"rental_uris":{"android":"levelo://app?vid=cd691eb3-cfed-4c4e-8524-616bc7c6695a","ios":"levelo://app?vid=cd691eb3-cfed-4c4e-8524-616bc7c6695a"},"vehicle_type_id":"4","last_reported":1742227987,"current_range_meters":10000,"station_id":"ce4bhgp2rcd13ifvqfc0","pricing_plan_id":"cebpf4jnsgd1na2vs0mg"},{"bike_id":"00620a36-546f-4468-8a2c-399aef8da33b","system_id":"levelo_inurba_marseille","lat":43.28172,"lon":5.42654,"is_reserved":false,"is_disabled":false,"rental_uris":{"android":"levelo://app?vid=00620a36-546f-4468-8a2c-399aef8da33b","ios":"levelo://app?vid=00620a36-546f-4468-8a2c-399aef8da33b"},"vehicle_type_id":"4","last_reported":1742227987,"current_range_meters":10000,"station_id":"ce4bhnh2rcd13ifvqgug","pricing_plan_id":"cebpf4jnsgd1na2vs0mg"},{"bike_id":"ef4ae94b-255a-46c7-906c-25509fa19963","system_id":"levelo_inurba_marseille","lat":43.24186,"lon":5.39732,"is_reserved":false,"is_disabled":false,"rental_uris":{"android":"levelo://app?vid=ef4ae94b-255a-46c7-906c-25509fa19963","ios":"levelo://app?vid=ef4ae94b-255a-46c7-906c-25509fa19963"},"vehicle_type_id":"4","last_reported":1742227987,"current_range_meters":10000,"station_id":"ce4bhn12rcd13ifvqgpg","pricing_plan_id":"cebpf4jnsgd1na2vs0mg"},{"bike_id":"df448c6d-6924-434b-8ae3-6cf65499fa37","system_id":"levelo_inurba_marseille","lat":43.28121,"lon":5.39608,"is_reserved":false,"is_disabled":false,"rental_uris":{"android":"levelo://app?vid=df448c6d-6924-434b-8ae3-6cf65499fa37","ios":"levelo://app?vid=df448c6d-6924-434b-8ae3-6cf65499fa37"},"vehicle_type_id":"4","last_reported":1742227987,"current_range_meters":10000,"station_id":"","pricing_plan_id":"cebpf4jnsgd1na2vs0mg"},{"bike_id":"8bc80813-f3bb-41e4-97cf-cc743cd40b6c","system_id":"levelo_inurba_marseille","lat":43.26219,"lon":5.37437,"is_reserved":false,"is_disabled":false,"rental_uris":{"android":"levelo://app?vid=8bc80813-f3bb-41e4-97cf-cc743cd40b6c","ios":"levelo://app?vid=8bc80813-f3bb-41e4-97cf-cc743cd40b6c"},"vehicle_type_id":"4","last_reported":1742227987,"current_range_meters":10000,"station_id":"ce4bhgp2rcd13ifvqfc0","pricing_plan_id":"cebpf4jnsgd1na2vs0mg"},{"bike_id":"2f02d14a-8139-486d-9467-2b89696aeef7","system_id":"levelo_inurba_marseille","lat":43.26565,"lon":5.39008,"is_reserved":false,"is_disabled":false,"rental_uris":{"android":"levelo://app?vid=2f02d14a-8139-486d-9467-2b89696aeef7","ios":"levelo://app?vid=2f02d14a-8139-486d-9467-2b89696aeef7"},"vehicle_type_id":"4","last_reported":1742227987,"current_range_meters":10800,"station_id":"ce4bhe12rcd13ifvqf30","pricing_plan_id":"cebpf4jnsgd1na2vs0mg"},{"bike_id":"b1b41327-66f3-4983-ac80-93a6af2a034d","system_id":"levelo_inurba_marseille","lat":43.23072,"lon":5.35482,"is_reserved":false,"is_disabled":false,"rental_uris":{"android":"levelo://app?vid=b1b41327-66f3-4983-ac80-93a6af2a034d","ios":"levelo://app?vid=b1b41327-66f3-4983-ac80-93a6af2a034d"},"vehicle_type_id":"4","last_reported":1742227987,"current_range_meters":10800,"station_id":"cpo3342slgdg3j2ifvpg","pricing_plan_id":"cebpf4jnsgd1na2vs0mg"},{"bike_id":"a73e9e33-c6d5-49cb-8505-512b343341fc","system_id":"levelo_inurba_marseille","lat":43.28573,"lon":5.39501,"is_reserved":false,"is_disabled":false,"rental_uris":{"android":"levelo://app?vid=a73e9e33-c6d5-49cb-8505-512b343341fc","ios":"levelo://app?vid=a73e9e33-c6d5-49cb-8505-512b343341fc"},"vehicle_type_id":"4","last_reported":1742227987,"current_range_meters":10800,"station_id":"ce4bh292rcd13ifvqdg0","pricing_plan_id":"cebpf4jnsgd1na2vs0mg"},{"bike_id":"50d5a895-aeab-4551-8d24-4548fb8a1c51","system_id":"levelo_inurba_marseille","lat":43.27906,"lon":5.38013,"is_reserved":false,"is_disabled":false,"rental_uris":{"android":"levelo://app?vid=50d5a895-aeab-4551-8d24-4548fb8a1c51","ios":"levelo://app?vid=50d5a895-aeab-4551-8d24-4548fb8a1c51"},"vehicle_type_id":"4","last_reported":1742227987,"current_range_meters":10800,"station_id":"ce4bhf92rcd13ifvqf50","pricing_plan_id":"cebpf4jnsgd1na2vs0mg"},{"bike_id":"fddb55d4-2f6d-458b-a063-69a98e83f2fb","system_id":"levelo_inurba_marseille","lat":43.24169,"lon":5.3972,"is_reserved":false,"is_disabled":false,"rental_uris":{"android":"levelo://app?vid=fddb55d4-2f6d-458b-a063-69a98e83f2fb","ios":"levelo://app?vid=fddb55d4-2f6d-458b-a063-69a98e83f2fb"},"vehicle_type_id":"4","last_reported":1742227987,"current_range_meters":10800,"station_id":"ce4bhn12rcd13ifvqgpg","pricing_plan_id":"cebpf4jnsgd1na2vs0mg"},{"bike_id":"0d3accb9-853e-4df0-b9d8-4607b8048f46","system_id":"levelo_inurba_marseille","lat":43.24165,"lon":5.36401,"is_reserved":false,"is_disabled":false,"rental_uris":{"android":"levelo://app?vid=0d3accb9-853e-4df0-b9d8-4607b8048f46","ios":"levelo://app?vid=0d3accb9-853e-4df0-b9d8-4607b8048f46"},"vehicle_type_id":"4","last_reported":1742227987,"current_range_meters":10800,"station_id":"cpo36qri1sfpv3e86is0","pricing_plan_id":"cebpf4jnsgd1na2vs0mg"},{"bike_id":"9ec32ab7-716f-40a7-9f2b-6d8d9884f5cf","system_id":"levelo_inurba_marseille","lat":43.27843,"lon":5.39207,"is_reserved":false,"is_disabled":false,"rental_uris":{"android":"levelo://app?vid=9ec32ab7-716f-40a7-9f2b-6d8d9884f5cf","ios":"levelo://app?vid=9ec32ab7-716f-40a7-9f2b-6d8d9884f5cf"},"vehicle_type_id":"4","last_reported":1742227987,"current_range_meters":10000,"station_id":"ce4bhjp2rcd13ifvqga0","pricing_plan_id":"cebpf4jnsgd1na2vs0mg"},{"bike_id":"6f269e2d-5984-437a-a538-7f120c4fc7dd","system_id":"levelo_inurba_marseille","lat":43.23038,"lon":5.35479,"is_reserved":false,"is_disabled":false,"rental_uris":{"android":"levelo://app?vid=6f269e2d-5984-437a-a538-7f120c4fc7dd","ios":"levelo://app?vid=6f269e2d-5984-437a-a538-7f120c4fc7dd"},"vehicle_type_id":"4","last_reported":1742227987,"current_range_meters":10800,"station_id":"cpo3342slgdg3j2ifvpg","pricing_plan_id":"cebpf4jnsgd1na2vs0mg"},{"bike_id":"8fe7e33b-57fc-439c-ba02-015988635c80","system_id":"levelo_inurba_marseille","lat":43.27078,"lon":5.4227,"is_reserved":false,"is_disabled":true,"rental_uris":{"android":"levelo://app?vid=8fe7e33b-57fc-439c-ba02-015988635c80","ios":"levelo://app?vid=8fe7e33b-57fc-439c-ba02-015988635c80"},"vehicle_type_id":"4","last_reported":1742227987,"current_range_meters":10800,"station_id":"ce4bhk92rcd13ifvqgb0","pricing_plan_id":"cebpf4jnsgd1na2vs0mg"},{"bike_id":"aec1e65c-daab-454b-8910-46f19c20e587","system_id":"levelo_inurba_marseille","lat":43.25948,"lon":5.40909,"is_reserved":false,"is_disabled":false,"rental_uris":{"android":"levelo://app?vid=aec1e65c-daab-454b-8910-46f19c20e587","ios":"levelo://app?vid=aec1e65c-daab-454b-8910-46f19c20e587"},"vehicle_type_id":"4","last_reported":1742227987,"current_range_meters":10800,"station_id":"ce4bhm92rcd13ifvqglg","pricing_plan_id":"cebpf4jnsgd1na2vs0mg"},{"bike_id":"6b253abf-7994-482f-bc50-dbc81bb41634","system_id":"levelo_inurba_marseille","lat":43.31721,"lon":5.40439,"is_reserved":false,"is_disabled":false,"rental_uris":{"android":"levelo://app?vid=6b253abf-7994-482f-bc50-dbc81bb41634","ios":"levelo://app?vid=6b253abf-7994-482f-bc50-dbc81bb41634"},"vehicle_type_id":"4","last_reported":1742227987,"current_range_meters":10800,"station_id":"","pricing_plan_id":"cebpf4jnsgd1na2vs0mg"},{"bike_id":"7a8a8ccb-b5ee-4bab-9535-af226cc12302","system_id":"levelo_inurba_marseille","lat":43.29063,"lon":5.4238,"is_reserved":false,"is_disabled":false,"rental_uris":{"android":"levelo://app?vid=7a8a8ccb-b5ee-4bab-9535-af226cc12302","ios":"levelo://app?vid=7a8a8ccb-b5ee-4bab-9535-af226cc12302"},"vehicle_type_id":"4","last_reported":1742227987,"current_range_meters":10800,"station_id":"","pricing_plan_id":"cebpf4jnsgd1na2vs0mg"},{"bike_id":"6ce6594f-1460-4d62-8c26-35226d190255","system_id":"levelo_inurba_marseille","lat":43.2842,"lon":5.3498,"is_reserved":false,"is_disabled":false,"rental_uris":{"android":"levelo://app?vid=6ce6594f-1460-4d62-8c26-35226d190255","ios":"levelo://app?vid=6ce6594f-1460-4d62-8c26-35226d190255"},"vehicle_type_id":"4","last_reported":1742227987,"current_range_meters":10800,"station_id":"ce4bhbh2rcd13ifvqepg","pricing_plan_id":"cebpf4jnsgd1na2vs0mg"},{"bike_id":"04930a3f-f779-4ec9-a042-1a78200bfd29","system_id":"levelo_inurba_marseille","lat":43.30544,"lon":5.36695,"is_reserved":false,"is_disabled":false,"rental_uris":{"android":"levelo://app?vid=04930a3f-f779-4ec9-a042-1a78200bfd29","ios":"levelo://app?vid=04930a3f-f779-4ec9-a042-1a78200bfd29"},"vehicle_type_id":"4","last_reported":1742227987,"current_range_meters":10800,"station_id":"ce4bgrp2rcd13ifvqc9g","pricing_plan_id":"cebpf4jnsgd1na2vs0mg"},{"bike_id":"6c44f636-3e0a-4011-8a8b-744a22a5f795","system_id":"levelo_inurba_marseille","lat":43.23157,"lon":5.43714,"is_reserved":false,"is_disabled":false,"rental_uris":{"android":"levelo://app?vid=6c44f636-3e0a-4011-8a8b-744a22a5f795","ios":"levelo://app?vid=6c44f636-3e0a-4011-8a8b-744a22a5f795"},"vehicle_type_id":"4","last_reported":1742227987,"current_range_meters":10800,"station_id":"ce4bhmp2rcd13ifvqgog","pricing_plan_id":"cebpf4jnsgd1na2vs0mg"},{"bike_id":"c81541cf-ce84-496e-8cf0-57a1bb760979","system_id":"levelo_inurba_marseille","lat":43.2587,"lon":5.39901,"is_reserved":false,"is_disabled":false,"rental_uris":{"android":"levelo://app?vid=c81541cf-ce84-496e-8cf0-57a1bb760979","ios":"levelo://app?vid=c81541cf-ce84-496e-8cf0-57a1bb760979"},"vehicle_type_id":"4","last_reported":1742227987,"current_range_meters":11600,"station_id":"ce4bhl92rcd13ifvqghg","pricing_plan_id":"cebpf4jnsgd1na2vs0mg"},{"bike_id":"be16e40a-5767-44ed-aa75-2a81c0e433d3","system_id":"levelo_inurba_marseille","lat":43.32547,"lon":5.41452,"is_reserved":false,"is_disabled":false,"rental_uris":{"android":"levelo://app?vid=be16e40a-5767-44ed-aa75-2a81c0e433d3","ios":"levelo://app?vid=be16e40a-5767-44ed-aa75-2a81c0e433d3"},"vehicle_type_id":"4","last_reported":1742227987,"current_range_meters":11200,"station_id":"ce4bhq12rcd13ifvqhhg","pricing_plan_id":"cebpf4jnsgd1na2vs0mg"},{"bike_id":"c34aaf33-0bee-4add-b585-91bc8a67854f","system_id":"levelo_inurba_marseille","lat":43.31972,"lon":5.381367,"is_reserved":false,"is_disabled":false,"rental_uris":{"android":"levelo://app?vid=c34aaf33-0bee-4add-b585-91bc8a67854f","ios":"levelo://app?vid=c34aaf33-0bee-4add-b585-91bc8a67854f"},"vehicle_type_id":"4","last_reported":1742227987,"current_range_meters":11200,"station_id":"ce4bhr12rcd13ifvqhpg","pricing_plan_id":"cebpf4jnsgd1na2vs0mg"},{"bike_id":"7942320b-553c-44c9-a01b-3406ea11dabb","system_id":"levelo_inurba_marseille","lat":43.28074,"lon":5.39656,"is_reserved":false,"is_disabled":false,"rental_uris":{"android":"levelo://app?vid=7942320b-553c-44c9-a01b-3406ea11dabb","ios":"levelo://app?vid=7942320b-553c-44c9-a01b-3406ea11dabb"},"vehicle_type_id":"4","last_reported":1742227987,"current_range_meters":11200,"station_id":"ce4bho12rcd13ifvqh2g","pricing_plan_id":"cebpf4jnsgd1na2vs0mg"},{"bike_id":"19c2ec97-9aed-4a1a-802d-f6071ab823d4","system_id":"levelo_inurba_marseille","lat":43.28414,"lon":5.34976,"is_reserved":false,"is_disabled":false,"rental_uris":{"android":"levelo://app?vid=19c2ec97-9aed-4a1a-802d-f6071ab823d4","ios":"levelo://app?vid=19c2ec97-9aed-4a1a-802d-f6071ab823d4"},"vehicle_type_id":"4","last_reported":1742227987,"current_range_meters":11200,"station_id":"ce4bhbh2rcd13ifvqepg","pricing_plan_id":"cebpf4jnsgd1na2vs0mg"},{"bike_id":"2665cc4b-07ed-4ae6-a66f-2b09983c709d","system_id":"levelo_inurba_marseille","lat":43.33761,"lon":5.37489,"is_reserved":false,"is_disabled":false,"rental_uris":{"android":"levelo://app?vid=2665cc4b-07ed-4ae6-a66f-2b09983c709d","ios":"levelo://app?vid=2665cc4b-07ed-4ae6-a66f-2b09983c709d"},"vehicle_type_id":"4","last_reported":1742227987,"current_range_meters":11200,"station_id":"","pricing_plan_id":"cebpf4jnsgd1na2vs0mg"},{"bike_id":"656398e1-29ec-4d93-bd7f-64e000b88478","system_id":"levelo_inurba_marseille","lat":43.284392,"lon":5.349939,"is_reserved":false,"is_disabled":false,"rental_uris":{"android":"levelo://app?vid=656398e1-29ec-4d93-bd7f-64e000b88478","ios":"levelo://app?vid=656398e1-29ec-4d93-bd7f-64e000b88478"},"vehicle_type_id":"4","last_reported":1742227987,"current_range_meters":11200,"station_id":"ce4bgnh2rcd13ifvqc0g","pricing_plan_id":"cebpf4jnsgd1na2vs0mg"},{"bike_id":"e8242d0d-3b15-4ca0-b108-ab68f9d5c098","system_id":"levelo_inurba_marseille","lat":43.28272,"lon":5.35069,"is_reserved":false,"is_disabled":false,"rental_uris":{"android":"levelo://app?vid=e8242d0d-3b15-4ca0-b108-ab68f9d5c098","ios":"levelo://app?vid=e8242d0d-3b15-4ca0-b108-ab68f9d5c098"},"vehicle_type_id":"4","last_reported":1742227987,"current_range_meters":10800,"station_id":"ce4bhbp2rcd13ifvqerg","pricing_plan_id":"cebpf4jnsgd1na2vs0mg"},{"bike_id":"ba17eb78-f062-4f77-b8b0-1a4a31d62a9e","system_id":"levelo_inurba_marseille","lat":43.25741,"lon":5.41072,"is_reserved":false,"is_disabled":true,"rental_uris":{"android":"levelo://app?vid=ba17eb78-f062-4f77-b8b0-1a4a31d62a9e","ios":"levelo://app?vid=ba17eb78-f062-4f77-b8b0-1a4a31d62a9e"},"vehicle_type_id":"4","last_reported":1742227987,"current_range_meters":11200,"station_id":"ce4bhkp2rcd13ifvqgd0","pricing_plan_id":"cebpf4jnsgd1na2vs0mg"},{"bike_id":"5b16aed7-8938-479c-aa3e-e4d89876125d","system_id":"levelo_inurba_marseille","lat":43.31087,"lon":5.42431,"is_reserved":false,"is_disabled":false,"rental_uris":{"android":"levelo://app?vid=5b16aed7-8938-479c-aa3e-e4d89876125d","ios":"levelo://app?vid=5b16aed7-8938-479c-aa3e-e4d89876125d"},"vehicle_type_id":"4","last_reported":1742227987,"current_range_meters":11600,"station_id":"ce4bhp92rcd13ifvqhag","pricing_plan_id":"cebpf4jnsgd1na2vs0mg"},{"bike_id":"50880c48-0462-48f5-8c72-b6c9f168342d","system_id":"levelo_inurba_marseille","lat":43.30108,"lon":5.39862,"is_reserved":false,"is_disabled":false,"rental_uris":{"android":"levelo://app?vid=50880c48-0462-48f5-8c72-b6c9f168342d","ios":"levelo://app?vid=50880c48-0462-48f5-8c72-b6c9f168342d"},"vehicle_type_id":"4","last_reported":1742227987,"current_range_meters":11200,"station_id":"ce4bh0h2rcd13ifvqd40","pricing_plan_id":"cebpf4jnsgd1na2vs0mg"},{"bike_id":"a7739d61-c0cc-4810-bd3f-6273fe964104","system_id":"levelo_inurba_marseille","lat":43.28636,"lon":5.35062,"is_reserved":false,"is_disabled":false,"rental_uris":{"android":"levelo://app?vid=a7739d61-c0cc-4810-bd3f-6273fe964104","ios":"levelo://app?vid=a7739d61-c0cc-4810-bd3f-6273fe964104"},"vehicle_type_id":"4","last_reported":1742227987,"current_range_meters":11600,"station_id":"ce4bhch2rcd13ifvqeug","pricing_plan_id":"cebpf4jnsgd1na2vs0mg"},{"bike_id":"57ef593f-f618-45ca-8b97-31a47543ae66","system_id":"levelo_inurba_marseille","lat":43.23195,"lon":5.35555,"is_reserved":false,"is_disabled":false,"rental_uris":{"android":"levelo://app?vid=57ef593f-f618-45ca-8b97-31a47543ae66","ios":"levelo://app?vid=57ef593f-f618-45ca-8b97-31a47543ae66"},"vehicle_type_id":"4","last_reported":1742227987,"current_range_meters":11600,"station_id":"ce4bhu92rcd13ifvqi70","pricing_plan_id":"cebpf4jnsgd1na2vs0mg"},{"bike_id":"7ba1e3fe-e301-487b-a701-faf19b9271bc","system_id":"levelo_inurba_marseille","lat":43.25923,"lon":5.40924,"is_reserved":false,"is_disabled":false,"rental_uris":{"android":"levelo://app?vid=7ba1e3fe-e301-487b-a701-faf19b9271bc","ios":"levelo://app?vid=7ba1e3fe-e301-487b-a701-faf19b9271bc"},"vehicle_type_id":"4","last_reported":1742227987,"current_range_meters":11600,"station_id":"ce4bhm92rcd13ifvqglg","pricing_plan_id":"cebpf4jnsgd1na2vs0mg"},{"bike_id":"e7e26a65-28e6-421c-acdb-b97426bbe40c","system_id":"levelo_inurba_marseille","lat":43.30957,"lon":5.40162,"is_reserved":false,"is_disabled":false,"rental_uris":{"android":"levelo://app?vid=e7e26a65-28e6-421c-acdb-b97426bbe40c","ios":"levelo://app?vid=e7e26a65-28e6-421c-acdb-b97426bbe40c"},"vehicle_type_id":"4","last_reported":1742227987,"current_range_meters":11200,"station_id":"ce4bgvp2rcd13ifvqct0","pricing_plan_id":"cebpf4jnsgd1na2vs0mg"},{"bike_id":"09ea51cc-600c-4022-90a2-99fd08c38c67","system_id":"levelo_inurba_marseille","lat":43.30878,"lon":5.37194,"is_reserved":false,"is_disabled":false,"rental_uris":{"android":"levelo://app?vid=09ea51cc-600c-4022-90a2-99fd08c38c67","ios":"levelo://app?vid=09ea51cc-600c-4022-90a2-99fd08c38c67"},"vehicle_type_id":"4","last_reported":1742227987,"current_range_meters":11200,"station_id":"ce4bguh2rcd13ifvqckg","pricing_plan_id":"cebpf4jnsgd1na2vs0mg"},{"bike_id":"bf53558a-323c-40e3-9c37-ac64ba388e1c","system_id":"levelo_inurba_marseille","lat":43.23958,"lon":5.36631,"is_reserved":false,"is_disabled":false,"rental_uris":{"android":"levelo://app?vid=bf53558a-323c-40e3-9c37-ac64ba388e1c","ios":"levelo://app?vid=bf53558a-323c-40e3-9c37-ac64ba388e1c"},"vehicle_type_id":"4","last_reported":1742227987,"current_range_meters":11600,"station_id":"ce4bhi12rcd13ifvqfp0","pricing_plan_id":"cebpf4jnsgd1na2vs0mg"},{"bike_id":"dbd1b010-db93-4f81-b7a3-13c8e443c4e3","system_id":"levelo_inurba_marseille","lat":43.31769,"lon":5.39023,"is_reserved":false,"is_disabled":false,"rental_uris":{"android":"levelo://app?vid=dbd1b010-db93-4f81-b7a3-13c8e443c4e3","ios":"levelo://app?vid=dbd1b010-db93-4f81-b7a3-13c8e443c4e3"},"vehicle_type_id":"4","last_reported":1742227987,"current_range_meters":12000,"station_id":"ce4bhqp2rcd13ifvqhng","pricing_plan_id":"cebpf4jnsgd1na2vs0mg"},{"bike_id":"eb7c2bfe-28aa-4d40-884d-376e9312bfc1","system_id":"levelo_inurba_marseille","lat":43.262,"lon":5.37928,"is_reserved":false,"is_disabled":false,"rental_uris":{"android":"levelo://app?vid=eb7c2bfe-28aa-4d40-884d-376e9312bfc1","ios":"levelo://app?vid=eb7c2bfe-28aa-4d40-884d-376e9312bfc1"},"vehicle_type_id":"4","last_reported":1742227987,"current_range_meters":12000,"station_id":"ce4bhjp2rcd13ifvqg90","pricing_plan_id":"cebpf4jnsgd1na2vs0mg"},{"bike_id":"a7980da2-4288-4666-8134-462ffc16783b","system_id":"levelo_inurba_marseille","lat":43.2316,"lon":5.43693,"is_reserved":false,"is_disabled":false,"rental_uris":{"android":"levelo://app?vid=a7980da2-4288-4666-8134-462ffc16783b","ios":"levelo://app?vid=a7980da2-4288-4666-8134-462ffc16783b"},"vehicle_type_id":"4","last_reported":1742227987,"current_range_meters":12000,"station_id":"ce4bhi12rcd13ifvqfq0","pricing_plan_id":"cebpf4jnsgd1na2vs0mg"},{"bike_id":"0e4a6ceb-c544-4658-812a-2d3d591bac4e","system_id":"levelo_inurba_marseille","lat":43.30111,"lon":5.39846,"is_reserved":false,"is_disabled":false,"rental_uris":{"android":"levelo://app?vid=0e4a6ceb-c544-4658-812a-2d3d591bac4e","ios":"levelo://app?vid=0e4a6ceb-c544-4658-812a-2d3d591bac4e"},"vehicle_type_id":"4","last_reported":1742227987,"current_range_meters":11600,"station_id":"ce4bh0h2rcd13ifvqd40","pricing_plan_id":"cebpf4jnsgd1na2vs0mg"},{"bike_id":"ef387ae4-9c87-4cd0-8124-b4fc4eb0cbb8","system_id":"levelo_inurba_marseille","lat":43.28417,"lon":5.3499,"is_reserved":false,"is_disabled":false,"rental_uris":{"android":"levelo://app?vid=ef387ae4-9c87-4cd0-8124-b4fc4eb0cbb8","ios":"levelo://app?vid=ef387ae4-9c87-4cd0-8124-b4fc4eb0cbb8"},"vehicle_type_id":"4","last_reported":1742227987,"current_range_meters":12000,"station_id":"ce4bhbh2rcd13ifvqepg","pricing_plan_id":"cebpf4jnsgd1na2vs0mg"},{"bike_id":"42e35520-f310-4cc9-afe0-cc69621e6853","system_id":"levelo_inurba_marseille","lat":43.32368,"lon":5.38889,"is_reserved":false,"is_disabled":false,"rental_uris":{"android":"levelo://app?vid=42e35520-f310-4cc9-afe0-cc69621e6853","ios":"levelo://app?vid=42e35520-f310-4cc9-afe0-cc69621e6853"},"vehicle_type_id":"4","last_reported":1742227987,"current_range_meters":12000,"station_id":"ce4bhqp2rcd13ifvqhog","pricing_plan_id":"cebpf4jnsgd1na2vs0mg"},{"bike_id":"ee54ac11-db4c-4dd1-9f8e-34ff11e58d2c","system_id":"levelo_inurba_marseille","lat":43.26728,"lon":5.38204,"is_reserved":false,"is_disabled":false,"rental_uris":{"android":"levelo://app?vid=ee54ac11-db4c-4dd1-9f8e-34ff11e58d2c","ios":"levelo://app?vid=ee54ac11-db4c-4dd1-9f8e-34ff11e58d2c"},"vehicle_type_id":"4","last_reported":1742227987,"current_range_meters":12000,"station_id":"","pricing_plan_id":"cebpf4jnsgd1na2vs0mg"},{"bike_id":"72968ab5-326c-46fb-b7e7-a0c4378bdb39","system_id":"levelo_inurba_marseille","lat":43.30805,"lon":5.43524,"is_reserved":false,"is_disabled":false,"rental_uris":{"android":"levelo://app?vid=72968ab5-326c-46fb-b7e7-a0c4378bdb39","ios":"levelo://app?vid=72968ab5-326c-46fb-b7e7-a0c4378bdb39"},"vehicle_type_id":"4","last_reported":1742227987,"current_range_meters":12000,"station_id":"ce4bhph2rcd13ifvqheg","pricing_plan_id":"cebpf4jnsgd1na2vs0mg"},{"bike_id":"68efa26f-19bd-4d41-bebe-c8935b4d7da9","system_id":"levelo_inurba_marseille","lat":43.33026,"lon":5.3904,"is_reserved":false,"is_disabled":false,"rental_uris":{"android":"levelo://app?vid=68efa26f-19bd-4d41-bebe-c8935b4d7da9","ios":"levelo://app?vid=68efa26f-19bd-4d41-bebe-c8935b4d7da9"},"vehicle_type_id":"4","last_reported":1742227987,"current_range_meters":12400,"station_id":"ce4bhr92rcd13ifvqhrg","pricing_plan_id":"cebpf4jnsgd1na2vs0mg"},{"bike_id":"d4c13dca-82c8-46c1-8ae6-72c39643151f","system_id":"levelo_inurba_marseille","lat":43.28943,"lon":5.36399,"is_reserved":false,"is_disabled":false,"rental_uris":{"android":"levelo://app?vid=d4c13dca-82c8-46c1-8ae6-72c39643151f","ios":"levelo://app?vid=d4c13dca-82c8-46c1-8ae6-72c39643151f"},"vehicle_type_id":"4","last_reported":1742227987,"current_range_meters":12400,"station_id":"ce4bhc92rcd13ifvqetg","pricing_plan_id":"cebpf4jnsgd1na2vs0mg"},{"bike_id":"63b9368e-44a3-4950-b4a9-27e0a37a7c06","system_id":"levelo_inurba_marseille","lat":43.26549,"lon":5.37297,"is_reserved":false,"is_disabled":false,"rental_uris":{"android":"levelo://app?vid=63b9368e-44a3-4950-b4a9-27e0a37a7c06","ios":"levelo://app?vid=63b9368e-44a3-4950-b4a9-27e0a37a7c06"},"vehicle_type_id":"4","last_reported":1742227987,"current_range_meters":12800,"station_id":"ce4bhg12rcd13ifvqf70","pricing_plan_id":"cebpf4jnsgd1na2vs0mg"},{"bike_id":"c16ac4e9-9604-44a8-b213-255959ff7c04","system_id":"levelo_inurba_marseille","lat":43.28275,"lon":5.35072,"is_reserved":false,"is_disabled":false,"rental_uris":{"android":"levelo://app?vid=c16ac4e9-9604-44a8-b213-255959ff7c04","ios":"levelo://app?vid=c16ac4e9-9604-44a8-b213-255959ff7c04"},"vehicle_type_id":"4","last_reported":1742227987,"current_range_meters":12800,"station_id":"ce4bhbp2rcd13ifvqerg","pricing_plan_id":"cebpf4jnsgd1na2vs0mg"},{"bike_id":"09be20b3-ccfa-43d5-8616-036d82fe33a0","system_id":"levelo_inurba_marseille","lat":43.25005,"lon":5.38928,"is_reserved":false,"is_disabled":false,"rental_uris":{"android":"levelo://app?vid=09be20b3-ccfa-43d5-8616-036d82fe33a0","ios":"levelo://app?vid=09be20b3-ccfa-43d5-8616-036d82fe33a0"},"vehicle_type_id":"4","last_reported":1742227987,"current_range_meters":12800,"station_id":"ce4bhgp2rcd13ifvqfd0","pricing_plan_id":"cebpf4jnsgd1na2vs0mg"},{"bike_id":"66605c12-7747-43fb-bd66-de32f35cdd22","system_id":"levelo_inurba_marseille","lat":43.28621,"lon":5.35105,"is_reserved":false,"is_disabled":false,"rental_uris":{"android":"levelo://app?vid=66605c12-7747-43fb-bd66-de32f35cdd22","ios":"levelo://app?vid=66605c12-7747-43fb-bd66-de32f35cdd22"},"vehicle_type_id":"4","last_reported":1742227987,"current_range_meters":12800,"station_id":"ce4bhch2rcd13ifvqeug","pricing_plan_id":"cebpf4jnsgd1na2vs0mg"},{"bike_id":"f93ea0c4-d4ae-419b-a2b4-6782da5455ad","system_id":"levelo_inurba_marseille","lat":43.2827,"lon":5.35081,"is_reserved":false,"is_disabled":false,"rental_uris":{"android":"levelo://app?vid=f93ea0c4-d4ae-419b-a2b4-6782da5455ad","ios":"levelo://app?vid=f93ea0c4-d4ae-419b-a2b4-6782da5455ad"},"vehicle_type_id":"4","last_reported":1742227987,"current_range_meters":13600,"station_id":"ce4bhbp2rcd13ifvqerg","pricing_plan_id":"cebpf4jnsgd1na2vs0mg"},{"bike_id":"d5df88ae-5b46-46bb-8522-51d1234ccff8","system_id":"levelo_inurba_marseille","lat":43.23192,"lon":5.3555,"is_reserved":false,"is_disabled":false,"rental_uris":{"android":"levelo://app?vid=d5df88ae-5b46-46bb-8522-51d1234ccff8","ios":"levelo://app?vid=d5df88ae-5b46-46bb-8522-51d1234ccff8"},"vehicle_type_id":"4","last_reported":1742227987,"current_range_meters":13600,"station_id":"ce4bhu92rcd13ifvqi70","pricing_plan_id":"cebpf4jnsgd1na2vs0mg"},{"bike_id":"cb151f2f-c8d4-493c-8040-3bc4d320acac","system_id":"levelo_inurba_marseille","lat":43.30806,"lon":5.38152,"is_reserved":false,"is_disabled":true,"rental_uris":{"android":"levelo://app?vid=cb151f2f-c8d4-493c-8040-3bc4d320acac","ios":"levelo://app?vid=cb151f2f-c8d4-493c-8040-3bc4d320acac"},"vehicle_type_id":"4","last_reported":1742227987,"current_range_meters":13600,"station_id":"ce4bgt12rcd13ifvqce0","pricing_plan_id":"cebpf4jnsgd1na2vs0mg"},{"bike_id":"4e950670-b096-4049-8c8c-3012830ea5a4","system_id":"levelo_inurba_marseille","lat":43.24393,"lon":5.37054,"is_reserved":false,"is_disabled":false,"rental_uris":{"android":"levelo://app?vid=4e950670-b096-4049-8c8c-3012830ea5a4","ios":"levelo://app?vid=4e950670-b096-4049-8c8c-3012830ea5a4"},"vehicle_type_id":"4","last_reported":1742227987,"current_range_meters":13600,"station_id":"ce4bhhh2rcd13ifvqfk0","pricing_plan_id":"cebpf4jnsgd1na2vs0mg"},{"bike_id":"487a563f-cc57-4145-a4cd-9ad6fdc53a4f","system_id":"levelo_inurba_marseille","lat":43.25111,"lon":5.40317,"is_reserved":false,"is_disabled":false,"rental_uris":{"android":"levelo://app?vid=487a563f-cc57-4145-a4cd-9ad6fdc53a4f","ios":"levelo://app?vid=487a563f-cc57-4145-a4cd-9ad6fdc53a4f"},"vehicle_type_id":"4","last_reported":1742227987,"current_range_meters":14000,"station_id":"ce4bhlh2rcd13ifvqgig","pricing_plan_id":"cebpf4jnsgd1na2vs0mg"},{"bike_id":"b53f170c-3af0-4269-83b6-8b209cc22157","system_id":"levelo_inurba_marseille","lat":43.25931,"lon":5.40893,"is_reserved":false,"is_disabled":false,"rental_uris":{"android":"levelo://app?vid=b53f170c-3af0-4269-83b6-8b209cc22157","ios":"levelo://app?vid=b53f170c-3af0-4269-83b6-8b209cc22157"},"vehicle_type_id":"4","last_reported":1742227987,"current_range_meters":14000,"station_id":"ce4bhm92rcd13ifvqglg","pricing_plan_id":"cebpf4jnsgd1na2vs0mg"},{"bike_id":"46e9cbe0-4bec-4368-889b-87912b57c2b1","system_id":"levelo_inurba_marseille","lat":43.26023,"lon":5.41735,"is_reserved":false,"is_disabled":false,"rental_uris":{"android":"levelo://app?vid=46e9cbe0-4bec-4368-889b-87912b57c2b1","ios":"levelo://app?vid=46e9cbe0-4bec-4368-889b-87912b57c2b1"},"vehicle_type_id":"4","last_reported":1742227987,"current_range_meters":14000,"station_id":"","pricing_plan_id":"cebpf4jnsgd1na2vs0mg"},{"bike_id":"c140f702-33a8-4761-aa51-c7457480bfc2","system_id":"levelo_inurba_marseille","lat":43.29904,"lon":5.39739,"is_reserved":false,"is_disabled":false,"rental_uris":{"android":"levelo://app?vid=c140f702-33a8-4761-aa51-c7457480bfc2","ios":"levelo://app?vid=c140f702-33a8-4761-aa51-c7457480bfc2"},"vehicle_type_id":"4","last_reported":1742227987,"current_range_meters":14000,"station_id":"ce4bh0h2rcd13ifvqd50","pricing_plan_id":"cebpf4jnsgd1na2vs0mg"},{"bike_id":"13cf58df-5147-4d91-a162-42dc98b9d75b","system_id":"levelo_inurba_marseille","lat":43.31046,"lon":5.38095,"is_reserved":false,"is_disabled":false,"rental_uris":{"android":"levelo://app?vid=13cf58df-5147-4d91-a162-42dc98b9d75b","ios":"levelo://app?vid=13cf58df-5147-4d91-a162-42dc98b9d75b"},"vehicle_type_id":"4","last_reported":1742227987,"current_range_meters":14000,"station_id":"","pricing_plan_id":"cebpf4jnsgd1na2vs0mg"},{"bike_id":"f1f054bb-0316-4296-a3b8-ff19981ad8c9","system_id":"levelo_inurba_marseille","lat":43.29744,"lon":5.37078,"is_reserved":false,"is_disabled":false,"rental_uris":{"android":"levelo://app?vid=f1f054bb-0316-4296-a3b8-ff19981ad8c9","ios":"levelo://app?vid=f1f054bb-0316-4296-a3b8-ff19981ad8c9"},"vehicle_type_id":"4","last_reported":1742227987,"current_range_meters":14000,"station_id":"ce4bgop2rcd13ifvqc1g","pricing_plan_id":"cebpf4jnsgd1na2vs0mg"},{"bike_id":"738d5a2a-1fe0-49dd-a3a3-3b9ad8ed3acf","system_id":"levelo_inurba_marseille","lat":43.29416,"lon":5.38593,"is_reserved":false,"is_disabled":true,"rental_uris":{"android":"levelo://app?vid=738d5a2a-1fe0-49dd-a3a3-3b9ad8ed3acf","ios":"levelo://app?vid=738d5a2a-1fe0-49dd-a3a3-3b9ad8ed3acf"},"vehicle_type_id":"4","last_reported":1742227987,"current_range_meters":14000,"station_id":"ce4bh2h2rcd13ifvqdh0","pricing_plan_id":"cebpf4jnsgd1na2vs0mg"},{"bike_id":"99ae784b-f0ff-4f7b-bf5d-6bcb02a50bcc","system_id":"levelo_inurba_marseille","lat":43.2887,"lon":5.35836,"is_reserved":false,"is_disabled":false,"rental_uris":{"android":"levelo://app?vid=99ae784b-f0ff-4f7b-bf5d-6bcb02a50bcc","ios":"levelo://app?vid=99ae784b-f0ff-4f7b-bf5d-6bcb02a50bcc"},"vehicle_type_id":"4","last_reported":1742227987,"current_range_meters":14000,"station_id":"ce4bhb12rcd13ifvqem0","pricing_plan_id":"cebpf4jnsgd1na2vs0mg"},{"bike_id":"93a3df3d-e94e-49d7-9f41-4bd43695a4a4","system_id":"levelo_inurba_marseille","lat":43.33401,"lon":5.40052,"is_reserved":false,"is_disabled":false,"rental_uris":{"android":"levelo://app?vid=93a3df3d-e94e-49d7-9f41-4bd43695a4a4","ios":"levelo://app?vid=93a3df3d-e94e-49d7-9f41-4bd43695a4a4"},"vehicle_type_id":"4","last_reported":1742227987,"current_range_meters":14400,"station_id":"","pricing_plan_id":"cebpf4jnsgd1na2vs0mg"},{"bike_id":"96e89a39-929a-49fe-8d6c-e47bf8ca7a6f","system_id":"levelo_inurba_marseille","lat":43.23051,"lon":5.355,"is_reserved":false,"is_disabled":false,"rental_uris":{"android":"levelo://app?vid=96e89a39-929a-49fe-8d6c-e47bf8ca7a6f","ios":"levelo://app?vid=96e89a39-929a-49fe-8d6c-e47bf8ca7a6f"},"vehicle_type_id":"4","last_reported":1742227987,"current_range_meters":14800,"station_id":"cpo3342slgdg3j2ifvpg","pricing_plan_id":"cebpf4jnsgd1na2vs0mg"},{"bike_id":"6d72b2ae-e69d-45cf-8485-77eb40fead5b","system_id":"levelo_inurba_marseille","lat":43.28162,"lon":5.42635,"is_reserved":false,"is_disabled":false,"rental_uris":{"android":"levelo://app?vid=6d72b2ae-e69d-45cf-8485-77eb40fead5b","ios":"levelo://app?vid=6d72b2ae-e69d-45cf-8485-77eb40fead5b"},"vehicle_type_id":"4","last_reported":1742227987,"current_range_meters":14400,"station_id":"ce4bhnh2rcd13ifvqgug","pricing_plan_id":"cebpf4jnsgd1na2vs0mg"},{"bike_id":"087601f6-e802-4d63-9e34-1805e79d2ebe","system_id":"levelo_inurba_marseille","lat":43.26035,"lon":5.37547,"is_reserved":false,"is_disabled":false,"rental_uris":{"android":"levelo://app?vid=087601f6-e802-4d63-9e34-1805e79d2ebe","ios":"levelo://app?vid=087601f6-e802-4d63-9e34-1805e79d2ebe"},"vehicle_type_id":"4","last_reported":1742227987,"current_range_meters":14000,"station_id":"ce4bhgh2rcd13ifvqfa0","pricing_plan_id":"cebpf4jnsgd1na2vs0mg"},{"bike_id":"295a6c74-fc7c-4f90-b548-248be6496957","system_id":"levelo_inurba_marseille","lat":43.295837,"lon":5.367435,"is_reserved":false,"is_disabled":false,"rental_uris":{"android":"levelo://app?vid=295a6c74-fc7c-4f90-b548-248be6496957","ios":"levelo://app?vid=295a6c74-fc7c-4f90-b548-248be6496957"},"vehicle_type_id":"4","last_reported":1742227987,"current_range_meters":14400,"station_id":"ce4bhbh2rcd13ifvqeo0","pricing_plan_id":"cebpf4jnsgd1na2vs0mg"},{"bike_id":"39d2df96-c36f-4593-8a68-432fe8c8d072","system_id":"levelo_inurba_marseille","lat":43.29901,"lon":5.43663,"is_reserved":false,"is_disabled":false,"rental_uris":{"android":"levelo://app?vid=39d2df96-c36f-4593-8a68-432fe8c8d072","ios":"levelo://app?vid=39d2df96-c36f-4593-8a68-432fe8c8d072"},"vehicle_type_id":"4","last_reported":1742227987,"current_range_meters":14800,"station_id":"ce4bhpp2rcd13ifvqhfg","pricing_plan_id":"cebpf4jnsgd1na2vs0mg"},{"bike_id":"522f99cb-f105-4bf1-8b05-dccec75ba908","system_id":"levelo_inurba_marseille","lat":43.302756,"lon":5.37683,"is_reserved":false,"is_disabled":false,"rental_uris":{"android":"levelo://app?vid=522f99cb-f105-4bf1-8b05-dccec75ba908","ios":"levelo://app?vid=522f99cb-f105-4bf1-8b05-dccec75ba908"},"vehicle_type_id":"4","last_reported":1742227987,"current_range_meters":14800,"station_id":"","pricing_plan_id":"cebpf4jnsgd1na2vs0mg"},{"bike_id":"5258970b-1d85-4751-b981-1764829cf202","system_id":"levelo_inurba_marseille","lat":43.28418,"lon":5.34991,"is_reserved":false,"is_disabled":false,"rental_uris":{"android":"levelo://app?vid=5258970b-1d85-4751-b981-1764829cf202","ios":"levelo://app?vid=5258970b-1d85-4751-b981-1764829cf202"},"vehicle_type_id":"4","last_reported":1742227987,"current_range_meters":14800,"station_id":"ce4bhbh2rcd13ifvqepg","pricing_plan_id":"cebpf4jnsgd1na2vs0mg"},{"bike_id":"519efbbc-7577-4063-8eac-658ef30e98a3","system_id":"levelo_inurba_marseille","lat":43.25003,"lon":5.38939,"is_reserved":false,"is_disabled":false,"rental_uris":{"android":"levelo://app?vid=519efbbc-7577-4063-8eac-658ef30e98a3","ios":"levelo://app?vid=519efbbc-7577-4063-8eac-658ef30e98a3"},"vehicle_type_id":"4","last_reported":1742227987,"current_range_meters":14800,"station_id":"ce4bhgp2rcd13ifvqfd0","pricing_plan_id":"cebpf4jnsgd1na2vs0mg"},{"bike_id":"acb972a8-071b-4fe7-b152-8fbaf9927cae","system_id":"levelo_inurba_marseille","lat":43.30647,"lon":5.40069,"is_reserved":false,"is_disabled":false,"rental_uris":{"android":"levelo://app?vid=acb972a8-071b-4fe7-b152-8fbaf9927cae","ios":"levelo://app?vid=acb972a8-071b-4fe7-b152-8fbaf9927cae"},"vehicle_type_id":"4","last_reported":1742227987,"current_range_meters":14800,"station_id":"ce4bh112rcd13ifvqda0","pricing_plan_id":"cebpf4jnsgd1na2vs0mg"},{"bike_id":"952ddd16-fae0-403c-ab91-ed613481aae3","system_id":"levelo_inurba_marseille","lat":43.25124,"lon":5.40315,"is_reserved":false,"is_disabled":false,"rental_uris":{"android":"levelo://app?vid=952ddd16-fae0-403c-ab91-ed613481aae3","ios":"levelo://app?vid=952ddd16-fae0-403c-ab91-ed613481aae3"},"vehicle_type_id":"4","last_reported":1742227987,"current_range_meters":14800,"station_id":"ce4bhlh2rcd13ifvqgig","pricing_plan_id":"cebpf4jnsgd1na2vs0mg"},{"bike_id":"b611c071-f0bb-41a2-aa25-420b921bc079","system_id":"levelo_inurba_marseille","lat":43.23041,"lon":5.35475,"is_reserved":false,"is_disabled":false,"rental_uris":{"android":"levelo://app?vid=b611c071-f0bb-41a2-aa25-420b921bc079","ios":"levelo://app?vid=b611c071-f0bb-41a2-aa25-420b921bc079"},"vehicle_type_id":"4","last_reported":1742227987,"current_range_meters":15200,"station_id":"cpo3342slgdg3j2ifvpg","pricing_plan_id":"cebpf4jnsgd1na2vs0mg"},{"bike_id":"89cebc95-3fbb-4522-8431-221a7028da79","system_id":"levelo_inurba_marseille","lat":43.25493,"lon":5.3765,"is_reserved":false,"is_disabled":false,"rental_uris":{"android":"levelo://app?vid=89cebc95-3fbb-4522-8431-221a7028da79","ios":"levelo://app?vid=89cebc95-3fbb-4522-8431-221a7028da79"},"vehicle_type_id":"4","last_reported":1742227987,"current_range_meters":14800,"station_id":"ce4bhh12rcd13ifvqff0","pricing_plan_id":"cebpf4jnsgd1na2vs0mg"},{"bike_id":"64259b83-ec33-4278-bf2f-5b2ba1216c3b","system_id":"levelo_inurba_marseille","lat":43.27815,"lon":5.4071,"is_reserved":false,"is_disabled":false,"rental_uris":{"android":"levelo://app?vid=64259b83-ec33-4278-bf2f-5b2ba1216c3b","ios":"levelo://app?vid=64259b83-ec33-4278-bf2f-5b2ba1216c3b"},"vehicle_type_id":"4","last_reported":1742227987,"current_range_meters":15200,"station_id":"ce4bhnh2rcd13ifvqgtg","pricing_plan_id":"cebpf4jnsgd1na2vs0mg"},{"bike_id":"9e949051-a101-42b6-8f28-1f6a165ab437","system_id":"levelo_inurba_marseille","lat":43.31335,"lon":5.39698,"is_reserved":false,"is_disabled":false,"rental_uris":{"android":"levelo://app?vid=9e949051-a101-42b6-8f28-1f6a165ab437","ios":"levelo://app?vid=9e949051-a101-42b6-8f28-1f6a165ab437"},"vehicle_type_id":"4","last_reported":1742227987,"current_range_meters":15200,"station_id":"ce4bgvp2rcd13ifvqcu0","pricing_plan_id":"cebpf4jnsgd1na2vs0mg"},{"bike_id":"bae53788-0465-4ea6-ac11-f5aefb09d19a","system_id":"levelo_inurba_marseille","lat":43.27366,"lon":5.36272,"is_reserved":false,"is_disabled":false,"rental_uris":{"android":"levelo://app?vid=bae53788-0465-4ea6-ac11-f5aefb09d19a","ios":"levelo://app?vid=bae53788-0465-4ea6-ac11-f5aefb09d19a"},"vehicle_type_id":"4","last_reported":1742227987,"current_range_meters":16000,"station_id":"ce4bhbh2rcd13ifvqeo0","pricing_plan_id":"cebpf4jnsgd1na2vs0mg"},{"bike_id":"35984984-0f0b-43b2-b1cd-67e0b9a4ef25","system_id":"levelo_inurba_marseille","lat":43.28621,"lon":5.35096,"is_reserved":false,"is_disabled":false,"rental_uris":{"android":"levelo://app?vid=35984984-0f0b-43b2-b1cd-67e0b9a4ef25","ios":"levelo://app?vid=35984984-0f0b-43b2-b1cd-67e0b9a4ef25"},"vehicle_type_id":"4","last_reported":1742227987,"current_range_meters":16000,"station_id":"ce4bhch2rcd13ifvqeug","pricing_plan_id":"cebpf4jnsgd1na2vs0mg"},{"bike_id":"251242e5-d117-4c44-98b5-4a3328b64ff9","system_id":"levelo_inurba_marseille","lat":43.30356,"lon":5.41877,"is_reserved":false,"is_disabled":false,"rental_uris":{"android":"levelo://app?vid=251242e5-d117-4c44-98b5-4a3328b64ff9","ios":"levelo://app?vid=251242e5-d117-4c44-98b5-4a3328b64ff9"},"vehicle_type_id":"4","last_reported":1742227987,"current_range_meters":15200,"station_id":"ce4bhop2rcd13ifvqh7g","pricing_plan_id":"cebpf4jnsgd1na2vs0mg"},{"bike_id":"7f7736fb-327d-441e-baf9-b30194a9e4f5","system_id":"levelo_inurba_marseille","lat":43.30902,"lon":5.37189,"is_reserved":false,"is_disabled":false,"rental_uris":{"android":"levelo://app?vid=7f7736fb-327d-441e-baf9-b30194a9e4f5","ios":"levelo://app?vid=7f7736fb-327d-441e-baf9-b30194a9e4f5"},"vehicle_type_id":"4","last_reported":1742227987,"current_range_meters":16000,"station_id":"ce4bguh2rcd13ifvqckg","pricing_plan_id":"cebpf4jnsgd1na2vs0mg"},{"bike_id":"47023a57-5f99-40b5-87e4-16f0b57f3a80","system_id":"levelo_inurba_marseille","lat":43.32123,"lon":5.36785,"is_reserved":false,"is_disabled":false,"rental_uris":{"android":"levelo://app?vid=47023a57-5f99-40b5-87e4-16f0b57f3a80","ios":"levelo://app?vid=47023a57-5f99-40b5-87e4-16f0b57f3a80"},"vehicle_type_id":"4","last_reported":1742227987,"current_range_meters":16000,"station_id":"ce4bhrh2rcd13ifvqhug","pricing_plan_id":"cebpf4jnsgd1na2vs0mg"},{"bike_id":"729ad7d5-b442-4816-a178-371967a2f350","system_id":"levelo_inurba_marseille","lat":43.31205,"lon":5.36823,"is_reserved":false,"is_disabled":false,"rental_uris":{"android":"levelo://app?vid=729ad7d5-b442-4816-a178-371967a2f350","ios":"levelo://app?vid=729ad7d5-b442-4816-a178-371967a2f350"},"vehicle_type_id":"4","last_reported":1742227987,"current_range_meters":16000,"station_id":"ce4bgl92rcd13ifvqbq0","pricing_plan_id":"cebpf4jnsgd1na2vs0mg"},{"bike_id":"de8cb9d2-f9a5-4c1f-921f-3381c292af9e","system_id":"levelo_inurba_marseille","lat":43.28622,"lon":5.35095,"is_reserved":false,"is_disabled":false,"rental_uris":{"android":"levelo://app?vid=de8cb9d2-f9a5-4c1f-921f-3381c292af9e","ios":"levelo://app?vid=de8cb9d2-f9a5-4c1f-921f-3381c292af9e"},"vehicle_type_id":"4","last_reported":1742227987,"current_range_meters":16000,"station_id":"ce4bhch2rcd13ifvqeug","pricing_plan_id":"cebpf4jnsgd1na2vs0mg"},{"bike_id":"4cf76d93-f4e2-4c0e-b3c0-90576e421a81","system_id":"levelo_inurba_marseille","lat":43.26594,"lon":5.3903,"is_reserved":false,"is_disabled":false,"rental_uris":{"android":"levelo://app?vid=4cf76d93-f4e2-4c0e-b3c0-90576e421a81","ios":"levelo://app?vid=4cf76d93-f4e2-4c0e-b3c0-90576e421a81"},"vehicle_type_id":"4","last_reported":1742227987,"current_range_meters":16000,"station_id":"ce4bhe12rcd13ifvqf30","pricing_plan_id":"cebpf4jnsgd1na2vs0mg"},{"bike_id":"04de93f6-684a-4810-a82f-954900bd63c7","system_id":"levelo_inurba_marseille","lat":43.28457,"lon":5.35869,"is_reserved":false,"is_disabled":false,"rental_uris":{"android":"levelo://app?vid=04de93f6-684a-4810-a82f-954900bd63c7","ios":"levelo://app?vid=04de93f6-684a-4810-a82f-954900bd63c7"},"vehicle_type_id":"4","last_reported":1742227987,"current_range_meters":16000,"station_id":"ce4bhah2rcd13ifvqei0","pricing_plan_id":"cebpf4jnsgd1na2vs0mg"},{"bike_id":"c73ee963-217f-4a3f-a07c-d274484e9e55","system_id":"levelo_inurba_marseille","lat":43.284546,"lon":5.358875,"is_reserved":false,"is_disabled":false,"rental_uris":{"android":"levelo://app?vid=c73ee963-217f-4a3f-a07c-d274484e9e55","ios":"levelo://app?vid=c73ee963-217f-4a3f-a07c-d274484e9e55"},"vehicle_type_id":"4","last_reported":1742227987,"current_range_meters":15200,"station_id":"ce4bhah2rcd13ifvqei0","pricing_plan_id":"cebpf4jnsgd1na2vs0mg"},{"bike_id":"5a23195c-ff72-418b-b779-c5388021155d","system_id":"levelo_inurba_marseille","lat":43.27883,"lon":5.38008,"is_reserved":false,"is_disabled":false,"rental_uris":{"android":"levelo://app?vid=5a23195c-ff72-418b-b779-c5388021155d","ios":"levelo://app?vid=5a23195c-ff72-418b-b779-c5388021155d"},"vehicle_type_id":"4","last_reported":1742227987,"current_range_meters":16400,"station_id":"ce4bhf92rcd13ifvqf50","pricing_plan_id":"cebpf4jnsgd1na2vs0mg"},{"bike_id":"c25102eb-e6c6-4717-87f0-f604207dc31d","system_id":"levelo_inurba_marseille","lat":43.28274,"lon":5.35057,"is_reserved":false,"is_disabled":false,"rental_uris":{"android":"levelo://app?vid=c25102eb-e6c6-4717-87f0-f604207dc31d","ios":"levelo://app?vid=c25102eb-e6c6-4717-87f0-f604207dc31d"},"vehicle_type_id":"4","last_reported":1742227987,"current_range_meters":16400,"station_id":"ce4bhbp2rcd13ifvqerg","pricing_plan_id":"cebpf4jnsgd1na2vs0mg"},{"bike_id":"7290a94f-baed-4769-b7d2-0375842dbe50","system_id":"levelo_inurba_marseille","lat":43.30331,"lon":5.40427,"is_reserved":false,"is_disabled":false,"rental_uris":{"android":"levelo://app?vid=7290a94f-baed-4769-b7d2-0375842dbe50","ios":"levelo://app?vid=7290a94f-baed-4769-b7d2-0375842dbe50"},"vehicle_type_id":"4","last_reported":1742227987,"current_range_meters":16400,"station_id":"ce4bh012rcd13ifvqd10","pricing_plan_id":"cebpf4jnsgd1na2vs0mg"},