{"last_updated":1741295347,"ttl":60,"version":"2.2","data":{"bikes":[{"bike_id":"23a74ba7-944b-47c5-899c-c5932fd50b50","system_id":"levelo_inurba_marseille","lat":43.292999,"lon":5.369114,"is_reserved":false,"is_disabled":true,"rental_uris":{"android":"levelo://app?vid=23a74ba7-944b-47c5-899c-c5932fd50b50","ios":"levelo://app?vid=23a74ba7-944b-47c5-899c-c5932fd50b50"},"vehicle_type_id":"4","last_reported":1741295348,"current_range_meters":0,"station_id":"","pricing_plan_id":"cebpf4jnsgd1na2vs0mg"},{"bike_id":"ec80c42b-fdc8-4c07-b00f-00c8b6ce5619","system_id":"levelo_inurba_marseille","lat":43.304862,"lon":5.372907,"is_reserved":false,"is_disabled":true,"rental_uris":{"android":"levelo://app?vid=ec80c42b-fdc8-4c07-b00f-00c8b6ce5619","ios":"levelo://app?vid=ec80c42b-fdc8-4c07-b00f-00c8b6ce5619"},"vehicle_type_id":"4","last_reported":1741295348,"current_range_meters":0,"station_id":"","pricing_plan_id":"cebpf4jnsgd1na2vs0mg"},{"bike_id":"f06f53d3-05d3-4654-b19d-104f82345199","system_id":"levelo_inurba_marseille","lat":43.31518,"lon":5.36888,"is_reserved":false,"is_disabled":true,"rental_uris":{"android":"levelo://app?vid=f06f53d3-05d3-4654-b19d-104f82345199","ios":"levelo://app?vid=f06f53d3-05d3-4654-b19d-104f82345199"},"vehicle_type_id":"4","last_reported":1741295348,"current_range_meters":0,"station_id":"","pricing_plan_id":"cebpf4jnsgd1na2vs0mg"},{"bike_id":"309bc93c-9380-4348-827e-18192145bcae","system_id":"levelo_inurba_marseille","lat":43.28626,"lon":5.35097,"is_reserved":false,"is_disabled":true,"rental_uris":{"android":"levelo://app?vid=309bc93c-9380-4348-827e-18192145bcae","ios":"levelo://app?vid=309bc93c-9380-4348-827e-18192145bcae"},"vehicle_type_id":"4","last_reported":1741295348,"current_range_meters":0,"station_id":"ce4bhch2rcd13ifvqeug","pricing_plan_id":"cebpf4jnsgd1na2vs0mg"},{"bike_id":"41caadfd-71f1-4c9f-b5ef-e4383d71cf2a","system_id":"levelo_inurba_marseille","lat":43.2783,"lon":5.39206,"is_reserved":false,"is_disabled":true,"rental_uris":{"android":"levelo://app?vid=41caadfd-71f1-4c9f-b5ef-e4383d71cf2a","ios":"levelo://app?vid=41caadfd-71f1-4c9f-b5ef-e4383d71cf2a"},"vehicle_type_id":"4","last_reported":1741295348,"current_range_meters":0,"station_id":"ce4bhjp2rcd13ifvqga0","pricing_plan_id":"cebpf4jnsgd1na2vs0mg"},{"bike_id":"56211509-3dde-4afe-aa12-720766568946","system_id":"levelo_inurba_marseille","lat":43.32344,"lon":5.38862,"is_reserved":false,"is_disabled":true,"rental_uris":{"android":"levelo://app?vid=56211509-3dde-4afe-aa12-720766568946","ios":"levelo://app?vid=56211509-3dde-4afe-aa12-720766568946"},"vehicle_type_id":"4","last_reported":1741295348,"current_range_meters":0,"station_id":"ce4bhqp2rcd13ifvqhog","pricing_plan_id":"cebpf4jnsgd1na2vs0mg"},{"bike_id":"ba3130e7-75a9-4a7e-b87c-88b0149ba329","system_id":"levelo_inurba_marseille","lat":43.32006,"lon":5.3815,"is_reserved":false,"is_disabled":true,"rental_uris":{"android":"levelo://app?vid=ba3130e7-75a9-4a7e-b87c-88b0149ba329","ios":"levelo://app?vid=ba3130e7-75a9-4a7e-b87c-88b0149ba329"},"vehicle_type_id":"4","last_reported":1741295348,"current_range_meters":0,"station_id":"ce4bhr12rcd13ifvqhpg","pricing_plan_id":"cebpf4jnsgd1na2vs0mg"},{"bike_id":"a014c85b-e46f-45ab-a8fe-830afd691234","system_id":"levelo_inurba_marseille","lat":43.33025,"lon":5.39023,"is_reserved":false,"is_disabled":true,"rental_uris":{"android":"levelo://app?vid=a014c85b-e46f-45ab-a8fe-830afd691234","ios":"levelo://app?vid=a014c85b-e46f-45ab-a8fe-830afd691234"},"vehicle_type_id":"4","last_reported":1741295348,"current_range_meters":0,"station_id":"ce4bhr92rcd13ifvqhrg","pricing_plan_id":"cebpf4jnsgd1na2vs0mg"},{"bike_id":"ee1d2ad1-36ca-49dd-a328-f2a9a9994ecb","system_id":"levelo_inurba_marseille","lat":43.31091,"lon":5.38129,"is_reserved":false,"is_disabled":true,"rental_uris":{"android":"levelo://app?vid=ee1d2ad1-36ca-49dd-a328-f2a9a9994ecb","ios":"levelo://app?vid=ee1d2ad1-36ca-49dd-a328-f2a9a9994ecb"},"vehicle_type_id":"4","last_reported":1741295348,"current_range_meters":400,"station_id":"","pricing_plan_id":"cebpf4jnsgd1na2vs0mg"},{"bike_id":"4cd2ed9c-f121-4bbd-85a4-47d0684e71f9","system_id":"levelo_inurba_marseille","lat":43.27173,"lon":5.40991,"is_reserved":false,"is_disabled":true,"rental_uris":{"android":"levelo://app?vid=4cd2ed9c-f121-4bbd-85a4-47d0684e71f9","ios":"levelo://app?vid=4cd2ed9c-f121-4bbd-85a4-47d0684e71f9"},"vehicle_type_id":"4","last_reported":1741295348,"current_range_meters":400,"station_id":"ce4bhl12rcd13ifvqgf0","pricing_plan_id":"cebpf4jnsgd1na2vs0mg"},{"bike_id":"a7d1500a-e807-4b3f-a9b9-836914d673c3","system_id":"levelo_inurba_marseille","lat":43.24077,"lon":5.37761,"is_reserved":false,"is_disabled":true,"rental_uris":{"android":"levelo://app?vid=a7d1500a-e807-4b3f-a9b9-836914d673c3","ios":"levelo://app?vid=a7d1500a-e807-4b3f-a9b9-836914d673c3"},"vehicle_type_id":"4","last_reported":1741295348,"current_range_meters":400,"station_id":"ce4bhnp2rcd13ifvqgvg","pricing_plan_id":"cebpf4jnsgd1na2vs0mg"},{"bike_id":"2a972045-d0ec-4563-8767-f92add00ebc5","system_id":"levelo_inurba_marseille","lat":43.31181,"lon":5.3871,"is_reserved":false,"is_disabled":true,"rental_uris":{"android":"levelo://app?vid=2a972045-d0ec-4563-8767-f92add00ebc5","ios":"levelo://app?vid=2a972045-d0ec-4563-8767-f92add00ebc5"},"vehicle_type_id":"4","last_reported":1741295348,"current_range_meters":800,"station_id":"ce4bgv12rcd13ifvqcp0","pricing_plan_id":"cebpf4jnsgd1na2vs0mg"},{"bike_id":"36a0e2d2-fc54-4af5-8abc-508192c51d95","system_id":"levelo_inurba_marseille","lat":43.30433,"lon":5.39749,"is_reserved":false,"is_disabled":true,"rental_uris":{"android":"levelo://app?vid=36a0e2d2-fc54-4af5-8abc-508192c51d95","ios":"levelo://app?vid=36a0e2d2-fc54-4af5-8abc-508192c51d95"},"vehicle_type_id":"4","last_reported":1741295348,"current_range_meters":800,"station_id":"ce4bh092rcd13ifvqd20","pricing_plan_id":"cebpf4jnsgd1na2vs0mg"},{"bike_id":"675b3dc9-9abe-4d06-a8ab-9ce8f149dc5a","system_id":"levelo_inurba_marseille","lat":43.23144,"lon":5.43717,"is_reserved":false,"is_disabled":true,"rental_uris":{"android":"levelo://app?vid=675b3dc9-9abe-4d06-a8ab-9ce8f149dc5a","ios":"levelo://app?vid=675b3dc9-9abe-4d06-a8ab-9ce8f149dc5a"},"vehicle_type_id":"4","last_reported":1741295348,"current_range_meters":800,"station_id":"ce4bhmp2rcd13ifvqgog","pricing_plan_id":"cebpf4jnsgd1na2vs0mg"},{"bike_id":"6314cab2-0793-4e2b-bbf3-cba910af8b5a","system_id":"levelo_inurba_marseille","lat":43.33002,"lon":5.39046,"is_reserved":false,"is_disabled":true,"rental_uris":{"android":"levelo://app?vid=6314cab2-0793-4e2b-bbf3-cba910af8b5a","ios":"levelo://app?vid=6314cab2-0793-4e2b-bbf3-cba910af8b5a"},"vehicle_type_id":"4","last_reported":1741295348,"current_range_meters":800,"station_id":"ce4bhr92rcd13ifvqhrg","pricing_plan_id":"cebpf4jnsgd1na2vs0mg"},{"bike_id":"ca04a9de-dfd5-41fe-90c2-96cd598cf98b","system_id":"levelo_inurba_marseille","lat":43.27812,"lon":5.40713,"is_reserved":false,"is_disabled":true,"rental_uris":{"android":"levelo://app?vid=ca04a9de-dfd5-41fe-90c2-96cd598cf98b","ios":"levelo://app?vid=ca04a9de-dfd5-41fe-90c2-96cd598cf98b"},"vehicle_type_id":"4","last_reported":1741295348,"current_range_meters":1200,"station_id":"ce4bhnh2rcd13ifvqgtg","pricing_plan_id":"cebpf4jnsgd1na2vs0mg"},{"bike_id":"988a038f-1e37-42c6-84c0-4def4595f0fd","system_id":"levelo_inurba_marseille","lat":43.32375,"lon":5.38902,"is_reserved":false,"is_disabled":true,"rental_uris":{"android":"levelo://app?vid=988a038f-1e37-42c6-84c0-4def4595f0fd","ios":"levelo://app?vid=988a038f-1e37-42c6-84c0-4def4595f0fd"},"vehicle_type_id":"4","last_reported":1741295348,"current_range_meters":1200,"station_id":"ce4bhqp2rcd13ifvqhog","pricing_plan_id":"cebpf4jnsgd1na2vs0mg"},{"bike_id":"bc8ff6b1-5f31-4a54-acbd-69a780d68c90","system_id":"levelo_inurba_marseille","lat":43.33008,"lon":5.39036,"is_reserved":false,"is_disabled":true,"rental_uris":{"android":"levelo://app?vid=bc8ff6b1-5f31-4a54-acbd-69a780d68c90","ios":"levelo://app?vid=bc8ff6b1-5f31-4a54-acbd-69a780d68c90"},"vehicle_type_id":"4","last_reported":1741295348,"current_range_meters":1200,"station_id":"ce4bhr92rcd13ifvqhrg","pricing_plan_id":"cebpf4jnsgd1na2vs0mg"},{"bike_id":"af6f5321-ae2f-4a2c-855a-ff8ce729e71a","system_id":"levelo_inurba_marseille","lat":43.31068,"lon":5.38349,"is_reserved":false,"is_disabled":true,"rental_uris":{"android":"levelo://app?vid=af6f5321-ae2f-4a2c-855a-ff8ce729e71a","ios":"levelo://app?vid=af6f5321-ae2f-4a2c-855a-ff8ce729e71a"},"vehicle_type_id":"4","last_reported":1741295348,"current_range_meters":1600,"station_id":"ce4bgv92rcd13ifvqcr0","pricing_plan_id":"cebpf4jnsgd1na2vs0mg"},{"bike_id":"2c643458-9a65-44cf-b2fa-b789b6213ac2","system_id":"levelo_inurba_marseille","lat":43.30647,"lon":5.40081,"is_reserved":false,"is_disabled":true,"rental_uris":{"android":"levelo://app?vid=2c643458-9a65-44cf-b2fa-b789b6213ac2","ios":"levelo://app?vid=2c643458-9a65-44cf-b2fa-b789b6213ac2"},"vehicle_type_id":"4","last_reported":1741295348,"current_range_meters":1600,"station_id":"ce4bh112rcd13ifvqda0","pricing_plan_id":"cebpf4jnsgd1na2vs0mg"},{"bike_id":"81ef2014-b2a7-4089-807d-39a80d988311","system_id":"levelo_inurba_marseille","lat":43.33013,"lon":5.39026,"is_reserved":false,"is_disabled":true,"rental_uris":{"android":"levelo://app?vid=81ef2014-b2a7-4089-807d-39a80d988311","ios":"levelo://app?vid=81ef2014-b2a7-4089-807d-39a80d988311"},"vehicle_type_id":"4","last_reported":1741295348,"current_range_meters":1600,"station_id":"ce4bhr92rcd13ifvqhrg","pricing_plan_id":"cebpf4jnsgd1na2vs0mg"},{"bike_id":"9413c010-0cd1-41b8-bfec-86f00033f12c","system_id":"levelo_inurba_marseille","lat":43.31215,"lon":5.41674,"is_reserved":false,"is_disabled":true,"rental_uris":{"android":"levelo://app?vid=9413c010-0cd1-41b8-bfec-86f00033f12c","ios":"levelo://app?vid=9413c010-0cd1-41b8-bfec-86f00033f12c"},"vehicle_type_id":"4","last_reported":1741295348,"current_range_meters":2000,"station_id":"","pricing_plan_id":"cebpf4jnsgd1na2vs0mg"},{"bike_id":"69f02c89-3363-42db-9f28-93aa8552cab7","system_id":"levelo_inurba_marseille","lat":43.31118,"lon":5.3778,"is_reserved":false,"is_disabled":true,"rental_uris":{"android":"levelo://app?vid=69f02c89-3363-42db-9f28-93aa8552cab7","ios":"levelo://app?vid=69f02c89-3363-42db-9f28-93aa8552cab7"},"vehicle_type_id":"4","last_reported":1741295348,"current_range_meters":2000,"station_id":"ce4bgt92rcd13ifvqcg0","pricing_plan_id":"cebpf4jnsgd1na2vs0mg"},{"bike_id":"24aa3ca9-801a-4278-89ef-50a70975fc02","system_id":"levelo_inurba_marseille","lat":43.29544,"lon":5.42289,"is_reserved":false,"is_disabled":true,"rental_uris":{"android":"levelo://app?vid=24aa3ca9-801a-4278-89ef-50a70975fc02","ios":"levelo://app?vid=24aa3ca9-801a-4278-89ef-50a70975fc02"},"vehicle_type_id":"4","last_reported":1741295348,"current_range_meters":2000,"station_id":"ce4bhph2rcd13ifvqhdg","pricing_plan_id":"cebpf4jnsgd1na2vs0mg"},{"bike_id":"be8f2f0b-bfa2-4b7d-b9be-c3ab89c4dae0","system_id":"levelo_inurba_marseille","lat":43.29902,"lon":5.43672,"is_reserved":false,"is_disabled":true,"rental_uris":{"android":"levelo://app?vid=be8f2f0b-bfa2-4b7d-b9be-c3ab89c4dae0","ios":"levelo://app?vid=be8f2f0b-bfa2-4b7d-b9be-c3ab89c4dae0"},"vehicle_type_id":"4","last_reported":1741295348,"current_range_meters":2800,"station_id":"ce4bhpp2rcd13ifvqhfg","pricing_plan_id":"cebpf4jnsgd1na2vs0mg"},{"bike_id":"6d963bf5-438a-4f1b-877b-794bfc4bb2bc","system_id":"levelo_inurba_marseille","lat":43.27894,"lon":5.35418,"is_reserved":false,"is_disabled":false,"rental_uris":{"android":"levelo://app?vid=6d963bf5-438a-4f1b-877b-794bfc4bb2bc","ios":"levelo://app?vid=6d963bf5-438a-4f1b-877b-794bfc4bb2bc"},"vehicle_type_id":"4","last_reported":1741295348,"current_range_meters":3200,"station_id":"","pricing_plan_id":"cebpf4jnsgd1na2vs0mg"},{"bike_id":"ebf8161a-cab7-4028-b35f-3388767cbc46","system_id":"levelo_inurba_marseille","lat":43.23068,"lon":5.35504,"is_reserved":false,"is_disabled":false,"rental_uris":{"android":"levelo://app?vid=ebf8161a-cab7-4028-b35f-3388767cbc46","ios":"levelo://app?vid=ebf8161a-cab7-4028-b35f-3388767cbc46"},"vehicle_type_id":"4","last_reported":1741295348,"current_range_meters":3200,"station_id":"cpo3342slgdg3j2ifvpg","pricing_plan_id":"cebpf4jnsgd1na2vs0mg"},{"bike_id":"bf342717-63c0-499a-a753-35e922ba7de5","system_id":"levelo_inurba_marseille","lat":43.24988,"lon":5.38921,"is_reserved":false,"is_disabled":false,"rental_uris":{"android":"levelo://app?vid=bf342717-63c0-499a-a753-35e922ba7de5","ios":"levelo://app?vid=bf342717-63c0-499a-a753-35e922ba7de5"},"vehicle_type_id":"4","last_reported":1741295348,"current_range_meters":3600,"station_id":"ce4bhgp2rcd13ifvqfd0","pricing_plan_id":"cebpf4jnsgd1na2vs0mg"},{"bike_id":"5335ccc2-c2fe-4324-aa16-1eec29e362db","system_id":"levelo_inurba_marseille","lat":43.29451,"lon":5.38234,"is_reserved":false,"is_disabled":false,"rental_uris":{"android":"levelo://app?vid=5335ccc2-c2fe-4324-aa16-1eec29e362db","ios":"levelo://app?vid=5335ccc2-c2fe-4324-aa16-1eec29e362db"},"vehicle_type_id":"4","last_reported":1741295348,"current_range_meters":4000,"station_id":"","pricing_plan_id":"cebpf4jnsgd1na2vs0mg"},{"bike_id":"1f132c1e-e148-4077-af9a-0548dfc6de8d","system_id":"levelo_inurba_marseille","lat":43.27918,"lon":5.39579,"is_reserved":false,"is_disabled":false,"rental_uris":{"android":"levelo://app?vid=1f132c1e-e148-4077-af9a-0548dfc6de8d","ios":"levelo://app?vid=1f132c1e-e148-4077-af9a-0548dfc6de8d"},"vehicle_type_id":"4","last_reported":1741295348,"current_range_meters":4000,"station_id":"ce4bhf92rcd13ifvqf40","pricing_plan_id":"cebpf4jnsgd1na2vs0mg"},{"bike_id":"030085c6-037d-4de4-b06f-79952f3babe0","system_id":"levelo_inurba_marseille","lat":43.27965,"lon":5.41045,"is_reserved":false,"is_disabled":false,"rental_uris":{"android":"levelo://app?vid=030085c6-037d-4de4-b06f-79952f3babe0","ios":"levelo://app?vid=030085c6-037d-4de4-b06f-79952f3babe0"},"vehicle_type_id":"4","last_reported":1741295348,"current_range_meters":4000,"station_id":"ce4bhnp2rcd13ifvqh0g","pricing_plan_id":"cebpf4jnsgd1na2vs0mg"},{"bike_id":"d22219fb-2409-4f26-8dc0-8fe89cf332e9","system_id":"levelo_inurba_marseille","lat":43.28409,"lon":5.37515,"is_reserved":false,"is_disabled":false,"rental_uris":{"android":"levelo://app?vid=d22219fb-2409-4f26-8dc0-8fe89cf332e9","ios":"levelo://app?vid=d22219fb-2409-4f26-8dc0-8fe89cf332e9"},"vehicle_type_id":"4","last_reported":1741295348,"current_range_meters":4800,"station_id":"ce4bh412rcd13ifvqds0","pricing_plan_id":"cebpf4jnsgd1na2vs0mg"},{"bike_id":"b91af796-15bf-4f79-a412-f28e51230de5","system_id":"levelo_inurba_marseille","lat":43.31165,"lon":5.38695,"is_reserved":false,"is_disabled":false,"rental_uris":{"android":"levelo://app?vid=b91af796-15bf-4f79-a412-f28e51230de5","ios":"levelo://app?vid=b91af796-15bf-4f79-a412-f28e51230de5"},"vehicle_type_id":"4","last_reported":1741295348,"current_range_meters":5600,"station_id":"ce4bgv12rcd13ifvqcp0","pricing_plan_id":"cebpf4jnsgd1na2vs0mg"},{"bike_id":"d377e128-9e44-49c8-968a-40f70b6c4b19","system_id":"levelo_inurba_marseille","lat":43.28927,"lon":5.38412,"is_reserved":false,"is_disabled":false,"rental_uris":{"android":"levelo://app?vid=d377e128-9e44-49c8-968a-40f70b6c4b19","ios":"levelo://app?vid=d377e128-9e44-49c8-968a-40f70b6c4b19"},"vehicle_type_id":"4","last_reported":1741295348,"current_range_meters":5600,"station_id":"ce4bh612rcd13ifvqe6g","pricing_plan_id":"cebpf4jnsgd1na2vs0mg"},{"bike_id":"f732301c-5814-4217-889c-43168a540117","system_id":"levelo_inurba_marseille","lat":43.25581,"lon":5.38254,"is_reserved":false,"is_disabled":false,"rental_uris":{"android":"levelo://app?vid=f732301c-5814-4217-889c-43168a540117","ios":"levelo://app?vid=f732301c-5814-4217-889c-43168a540117"},"vehicle_type_id":"4","last_reported":1741295348,"current_range_meters":5600,"station_id":"ce4bhih2rcd13ifvqfs0","pricing_plan_id":"cebpf4jnsgd1na2vs0mg"},{"bike_id":"85619d78-08e2-4af5-a784-af1a433afa2f","system_id":"levelo_inurba_marseille","lat":43.24077,"lon":5.37754,"is_reserved":false,"is_disabled":false,"rental_uris":{"android":"levelo://app?vid=85619d78-08e2-4af5-a784-af1a433afa2f","ios":"levelo://app?vid=85619d78-08e2-4af5-a784-af1a433afa2f"},"vehicle_type_id":"4","last_reported":1741295348,"current_range_meters":5600,"station_id":"ce4bhnp2rcd13ifvqgvg","pricing_plan_id":"cebpf4jnsgd1na2vs0mg"},{"bike_id":"2c241975-e73a-4b7f-848a-bc98cf940be1","system_id":"levelo_inurba_marseille","lat":43.28358,"lon":5.38642,"is_reserved":false,"is_disabled":false,"rental_uris":{"android":"levelo://app?vid=2c241975-e73a-4b7f-848a-bc98cf940be1","ios":"levelo://app?vid=2c241975-e73a-4b7f-848a-bc98cf940be1"},"vehicle_type_id":"4","last_reported":1741295348,"current_range_meters":6000,"station_id":"ce4bh492rcd13ifvqdvg","pricing_plan_id":"cebpf4jnsgd1na2vs0mg"},{"bike_id":"42f39da3-2d91-4cd3-bf2c-fe13da9002ad","system_id":"levelo_inurba_marseille","lat":43.25582,"lon":5.38227,"is_reserved":false,"is_disabled":false,"rental_uris":{"android":"levelo://app?vid=42f39da3-2d91-4cd3-bf2c-fe13da9002ad","ios":"levelo://app?vid=42f39da3-2d91-4cd3-bf2c-fe13da9002ad"},"vehicle_type_id":"4","last_reported":1741295348,"current_range_meters":6000,"station_id":"ce4bhih2rcd13ifvqfs0","pricing_plan_id":"cebpf4jnsgd1na2vs0mg"},{"bike_id":"33667961-93ec-4e9b-86e4-ef8e26358669","system_id":"levelo_inurba_marseille","lat":43.27999,"lon":5.40021,"is_reserved":false,"is_disabled":false,"rental_uris":{"android":"levelo://app?vid=33667961-93ec-4e9b-86e4-ef8e26358669","ios":"levelo://app?vid=33667961-93ec-4e9b-86e4-ef8e26358669"},"vehicle_type_id":"4","last_reported":1741295348,"current_range_meters":6000,"station_id":"ce4bho92rcd13ifvqh4g","pricing_plan_id":"cebpf4jnsgd1na2vs0mg"},{"bike_id":"740df627-5ddd-4847-9d55-a8f5b4da2f4e","system_id":"levelo_inurba_marseille","lat":43.31629,"lon":5.40564,"is_reserved":false,"is_disabled":false,"rental_uris":{"android":"levelo://app?vid=740df627-5ddd-4847-9d55-a8f5b4da2f4e","ios":"levelo://app?vid=740df627-5ddd-4847-9d55-a8f5b4da2f4e"},"vehicle_type_id":"4","last_reported":1741295348,"current_range_meters":6400,"station_id":"","pricing_plan_id":"cebpf4jnsgd1na2vs0mg"},{"bike_id":"12a0f8a0-f887-4da5-868b-03d02ec00711","system_id":"levelo_inurba_marseille","lat":43.31367,"lon":5.38483,"is_reserved":false,"is_disabled":false,"rental_uris":{"android":"levelo://app?vid=12a0f8a0-f887-4da5-868b-03d02ec00711","ios":"levelo://app?vid=12a0f8a0-f887-4da5-868b-03d02ec00711"},"vehicle_type_id":"4","last_reported":1741295348,"current_range_meters":6400,"station_id":"ce4bgt92rcd13ifvqcf0","pricing_plan_id":"cebpf4jnsgd1na2vs0mg"},{"bike_id":"6189731a-6ad3-4dd8-81b0-37923a566591","system_id":"levelo_inurba_marseille","lat":43.26078,"lon":5.394,"is_reserved":false,"is_disabled":false,"rental_uris":{"android":"levelo://app?vid=6189731a-6ad3-4dd8-81b0-37923a566591","ios":"levelo://app?vid=6189731a-6ad3-4dd8-81b0-37923a566591"},"vehicle_type_id":"4","last_reported":1741295348,"current_range_meters":6400,"station_id":"ce4bhh92rcd13ifvqfj0","pricing_plan_id":"cebpf4jnsgd1na2vs0mg"},{"bike_id":"30b8be40-3d2e-4f7d-a831-74ba3450c49d","system_id":"levelo_inurba_marseille","lat":43.26072,"lon":5.39391,"is_reserved":false,"is_disabled":false,"rental_uris":{"android":"levelo://app?vid=30b8be40-3d2e-4f7d-a831-74ba3450c49d","ios":"levelo://app?vid=30b8be40-3d2e-4f7d-a831-74ba3450c49d"},"vehicle_type_id":"4","last_reported":1741295348,"current_range_meters":6400,"station_id":"ce4bhh92rcd13ifvqfj0","pricing_plan_id":"cebpf4jnsgd1na2vs0mg"},{"bike_id":"3c50795f-fafe-4f72-a26c-0718c239e2e3","system_id":"levelo_inurba_marseille","lat":43.287288,"lon":5.361008,"is_reserved":false,"is_disabled":false,"rental_uris":{"android":"levelo://app?vid=3c50795f-fafe-4f72-a26c-0718c239e2e3","ios":"levelo://app?vid=3c50795f-fafe-4f72-a26c-0718c239e2e3"},"vehicle_type_id":"4","last_reported":1741295348,"current_range_meters":6400,"station_id":"cki0cbj6b192h4jlfktg","pricing_plan_id":"cebpf4jnsgd1na2vs0mg"},{"bike_id":"3fffc9cd-f418-41de-9fba-0cc23722d684","system_id":"levelo_inurba_marseille","lat":43.230674,"lon":5.354912,"is_reserved":false,"is_disabled":false,"rental_uris":{"android":"levelo://app?vid=3fffc9cd-f418-41de-9fba-0cc23722d684","ios":"levelo://app?vid=3fffc9cd-f418-41de-9fba-0cc23722d684"},"vehicle_type_id":"4","last_reported":1741295348,"current_range_meters":6400,"station_id":"cpo3342slgdg3j2ifvpg","pricing_plan_id":"cebpf4jnsgd1na2vs0mg"},{"bike_id":"bd012427-fc8f-4fad-a296-ffd84f9acf1e","system_id":"levelo_inurba_marseille","lat":43.31065,"lon":5.38344,"is_reserved":false,"is_disabled":false,"rental_uris":{"android":"levelo://app?vid=bd012427-fc8f-4fad-a296-ffd84f9acf1e","ios":"levelo://app?vid=bd012427-fc8f-4fad-a296-ffd84f9acf1e"},"vehicle_type_id":"4","last_reported":1741295348,"current_range_meters":6800,"station_id":"ce4bgv92rcd13ifvqcr0","pricing_plan_id":"cebpf4jnsgd1na2vs0mg"},{"bike_id":"50ef45ed-3c4c-476d-bdb8-f0f24a94b687","system_id":"levelo_inurba_marseille","lat":43.24657,"lon":5.38171,"is_reserved":false,"is_disabled":false,"rental_uris":{"android":"levelo://app?vid=50ef45ed-3c4c-476d-bdb8-f0f24a94b687","ios":"levelo://app?vid=50ef45ed-3c4c-476d-bdb8-f0f24a94b687"},"vehicle_type_id":"4","last_reported":1741295348,"current_range_meters":6800,"station_id":"ce4bhih2rcd13ifvqfr0","pricing_plan_id":"cebpf4jnsgd1na2vs0mg"},{"bike_id":"7d16bed4-3ac4-41ff-8cf6-b40c61a14a96","system_id":"levelo_inurba_marseille","lat":43.28566,"lon":5.39504,"is_reserved":false,"is_disabled":false,"rental_uris":{"android":"levelo://app?vid=7d16bed4-3ac4-41ff-8cf6-b40c61a14a96","ios":"levelo://app?vid=7d16bed4-3ac4-41ff-8cf6-b40c61a14a96"},"vehicle_type_id":"4","last_reported":1741295348,"current_range_meters":7200,"station_id":"ce4bh292rcd13ifvqdg0","pricing_plan_id":"cebpf4jnsgd1na2vs0mg"},{"bike_id":"dfab4c71-491a-4d8e-867e-0f0f845245be","system_id":"levelo_inurba_marseille","lat":43.28351,"lon":5.38099,"is_reserved":false,"is_disabled":false,"rental_uris":{"android":"levelo://app?vid=dfab4c71-491a-4d8e-867e-0f0f845245be","ios":"levelo://app?vid=dfab4c71-491a-4d8e-867e-0f0f845245be"},"vehicle_type_id":"4","last_reported":1741295348,"current_range_meters":7200,"station_id":"ce4bh412rcd13ifvqdr0","pricing_plan_id":"cebpf4jnsgd1na2vs0mg"},{"bike_id":"26d2696b-f894-454f-9934-59cabb72aea4","system_id":"levelo_inurba_marseille","lat":43.27377,"lon":5.36261,"is_reserved":false,"is_disabled":false,"rental_uris":{"android":"levelo://app?vid=26d2696b-f894-454f-9934-59cabb72aea4","ios":"levelo://app?vid=26d2696b-f894-454f-9934-59cabb72aea4"},"vehicle_type_id":"4","last_reported":1741295348,"current_range_meters":7200,"station_id":"ce4bhbh2rcd13ifvqeo0","pricing_plan_id":"cebpf4jnsgd1na2vs0mg"},{"bike_id":"7bdf6528-cded-4e31-bdcd-05e5503236cb","system_id":"levelo_inurba_marseille","lat":43.30798,"lon":5.43536,"is_reserved":false,"is_disabled":false,"rental_uris":{"android":"levelo://app?vid=7bdf6528-cded-4e31-bdcd-05e5503236cb","ios":"levelo://app?vid=7bdf6528-cded-4e31-bdcd-05e5503236cb"},"vehicle_type_id":"4","last_reported":1741295348,"current_range_meters":7200,"station_id":"ce4bhph2rcd13ifvqheg","pricing_plan_id":"cebpf4jnsgd1na2vs0mg"},{"bike_id":"853154b5-8925-42f6-b73b-a83a6335302f","system_id":"levelo_inurba_marseille","lat":43.28721,"lon":5.36098,"is_reserved":false,"is_disabled":false,"rental_uris":{"android":"levelo://app?vid=853154b5-8925-42f6-b73b-a83a6335302f","ios":"levelo://app?vid=853154b5-8925-42f6-b73b-a83a6335302f"},"vehicle_type_id":"4","last_reported":1741295348,"current_range_meters":7200,"station_id":"cki0cbj6b192h4jlfktg","pricing_plan_id":"cebpf4jnsgd1na2vs0mg"},{"bike_id":"b0c50bd3-91e3-421a-b21b-813b3034663a","system_id":"levelo_inurba_marseille","lat":43.30492,"lon":5.37158,"is_reserved":false,"is_disabled":false,"rental_uris":{"android":"levelo://app?vid=b0c50bd3-91e3-421a-b21b-813b3034663a","ios":"levelo://app?vid=b0c50bd3-91e3-421a-b21b-813b3034663a"},"vehicle_type_id":"4","last_reported":1741295348,"current_range_meters":8000,"station_id":"","pricing_plan_id":"cebpf4jnsgd1na2vs0mg"},{"bike_id":"d2fd960f-0af3-4bf9-bd6a-b0c4aa4544af","system_id":"levelo_inurba_marseille","lat":43.23199,"lon":5.39991,"is_reserved":false,"is_disabled":false,"rental_uris":{"android":"levelo://app?vid=d2fd960f-0af3-4bf9-bd6a-b0c4aa4544af","ios":"levelo://app?vid=d2fd960f-0af3-4bf9-bd6a-b0c4aa4544af"},"vehicle_type_id":"4","last_reported":1741295348,"current_range_meters":8000,"station_id":"ce4bhn12rcd13ifvqgqg","pricing_plan_id":"cebpf4jnsgd1na2vs0mg"},{"bike_id":"fdde8103-1f2a-4455-bcfa-e1d74ecb0194","system_id":"levelo_inurba_marseille","lat":43.27821,"lon":5.40724,"is_reserved":false,"is_disabled":false,"rental_uris":{"android":"levelo://app?vid=fdde8103-1f2a-4455-bcfa-e1d74ecb0194","ios":"levelo://app?vid=fdde8103-1f2a-4455-bcfa-e1d74ecb0194"},"vehicle_type_id":"4","last_reported":1741295348,"current_range_meters":8000,"station_id":"ce4bhnh2rcd13ifvqgtg","pricing_plan_id":"cebpf4jnsgd1na2vs0mg"},{"bike_id":"b128a848-1fbe-452d-aa99-802041786fec","system_id":"levelo_inurba_marseille","lat":43.29549,"lon":5.42278,"is_reserved":false,"is_disabled":false,"rental_uris":{"android":"levelo://app?vid=b128a848-1fbe-452d-aa99-802041786fec","ios":"levelo://app?vid=b128a848-1fbe-452d-aa99-802041786fec"},"vehicle_type_id":"4","last_reported":1741295348,"current_range_meters":8000,"station_id":"ce4bhph2rcd13ifvqhdg","pricing_plan_id":"cebpf4jnsgd1na2vs0mg"},{"bike_id":"ef97e956-481c-4cc7-9a35-76bd87314731","system_id":"levelo_inurba_marseille","lat":43.31088,"lon":5.38362,"is_reserved":false,"is_disabled":false,"rental_uris":{"android":"levelo://app?vid=ef97e956-481c-4cc7-9a35-76bd87314731","ios":"levelo://app?vid=ef97e956-481c-4cc7-9a35-76bd87314731"},"vehicle_type_id":"4","last_reported":1741295348,"current_range_meters":8400,"station_id":"ce4bgv92rcd13ifvqcr0","pricing_plan_id":"cebpf4jnsgd1na2vs0mg"},{"bike_id":"06ad26a7-c4da-4834-91eb-c640cacd7b48","system_id":"levelo_inurba_marseille","lat":43.30332,"lon":5.40454,"is_reserved":false,"is_disabled":false,"rental_uris":{"android":"levelo://app?vid=06ad26a7-c4da-4834-91eb-c640cacd7b48","ios":"levelo://app?vid=06ad26a7-c4da-4834-91eb-c640cacd7b48"},"vehicle_type_id":"4","last_reported":1741295348,"current_range_meters":8400,"station_id":"ce4bh012rcd13ifvqd10","pricing_plan_id":"cebpf4jnsgd1na2vs0mg"},{"bike_id":"e32e5309-5cf3-4586-ab57-38cd5f2cf148","system_id":"levelo_inurba_marseille","lat":43.24392,"lon":5.37061,"is_reserved":false,"is_disabled":false,"rental_uris":{"android":"levelo://app?vid=e32e5309-5cf3-4586-ab57-38cd5f2cf148","ios":"levelo://app?vid=e32e5309-5cf3-4586-ab57-38cd5f2cf148"},"vehicle_type_id":"4","last_reported":1741295348,"current_range_meters":8400,"station_id":"ce4bhhh2rcd13ifvqfk0","pricing_plan_id":"cebpf4jnsgd1na2vs0mg"},{"bike_id":"fd570e3e-777b-4122-9306-c335bf003eb6","system_id":"levelo_inurba_marseille","lat":43.23194,"lon":5.39986,"is_reserved":false,"is_disabled":false,"rental_uris":{"android":"levelo://app?vid=fd570e3e-777b-4122-9306-c335bf003eb6","ios":"levelo://app?vid=fd570e3e-777b-4122-9306-c335bf003eb6"},"vehicle_type_id":"4","last_reported":1741295348,"current_range_meters":8400,"station_id":"ce4bhn12rcd13ifvqgqg","pricing_plan_id":"cebpf4jnsgd1na2vs0mg"},{"bike_id":"e0c0bec3-454a-410d-a60f-3aed516ec149","system_id":"levelo_inurba_marseille","lat":43.23201,"lon":5.35539,"is_reserved":false,"is_disabled":false,"rental_uris":{"android":"levelo://app?vid=e0c0bec3-454a-410d-a60f-3aed516ec149","ios":"levelo://app?vid=e0c0bec3-454a-410d-a60f-3aed516ec149"},"vehicle_type_id":"4","last_reported":1741295348,"current_range_meters":8400,"station_id":"ce4bhu92rcd13ifvqi70","pricing_plan_id":"cebpf4jnsgd1na2vs0mg"},{"bike_id":"81220ab9-fb8e-4638-a084-692a6595df85","system_id":"levelo_inurba_marseille","lat":43.26204,"lon":5.4206,"is_reserved":false,"is_disabled":false,"rental_uris":{"android":"levelo://app?vid=81220ab9-fb8e-4638-a084-692a6595df85","ios":"levelo://app?vid=81220ab9-fb8e-4638-a084-692a6595df85"},"vehicle_type_id":"4","last_reported":1741295348,"current_range_meters":8800,"station_id":"","pricing_plan_id":"cebpf4jnsgd1na2vs0mg"},{"bike_id":"0c93b654-fa53-4416-bf24-88fa6b15d03a","system_id":"levelo_inurba_marseille","lat":43.25729,"lon":5.41109,"is_reserved":false,"is_disabled":false,"rental_uris":{"android":"levelo://app?vid=0c93b654-fa53-4416-bf24-88fa6b15d03a","ios":"levelo://app?vid=0c93b654-fa53-4416-bf24-88fa6b15d03a"},"vehicle_type_id":"4","last_reported":1741295348,"current_range_meters":8800,"station_id":"ce4bhkp2rcd13ifvqgd0","pricing_plan_id":"cebpf4jnsgd1na2vs0mg"},{"bike_id":"fd58e227-be2e-4eff-a5f3-1890c8f37b75","system_id":"levelo_inurba_marseille","lat":43.25109,"lon":5.40332,"is_reserved":false,"is_disabled":false,"rental_uris":{"android":"levelo://app?vid=fd58e227-be2e-4eff-a5f3-1890c8f37b75","ios":"levelo://app?vid=fd58e227-be2e-4eff-a5f3-1890c8f37b75"},"vehicle_type_id":"4","last_reported":1741295348,"current_range_meters":8800,"station_id":"ce4bhlh2rcd13ifvqgig","pricing_plan_id":"cebpf4jnsgd1na2vs0mg"},{"bike_id":"6152b505-bdaa-4154-9904-8e28b1c35e0b","system_id":"levelo_inurba_marseille","lat":43.27813,"lon":5.40726,"is_reserved":false,"is_disabled":false,"rental_uris":{"android":"levelo://app?vid=6152b505-bdaa-4154-9904-8e28b1c35e0b","ios":"levelo://app?vid=6152b505-bdaa-4154-9904-8e28b1c35e0b"},"vehicle_type_id":"4","last_reported":1741295348,"current_range_meters":8800,"station_id":"ce4bhnh2rcd13ifvqgtg","pricing_plan_id":"cebpf4jnsgd1na2vs0mg"},{"bike_id":"3c5e0350-07a6-4d3d-b526-00ffb41b6d3e","system_id":"levelo_inurba_marseille","lat":43.27948,"lon":5.41048,"is_reserved":false,"is_disabled":false,"rental_uris":{"android":"levelo://app?vid=3c5e0350-07a6-4d3d-b526-00ffb41b6d3e","ios":"levelo://app?vid=3c5e0350-07a6-4d3d-b526-00ffb41b6d3e"},"vehicle_type_id":"4","last_reported":1741295348,"current_range_meters":8800,"station_id":"ce4bhnp2rcd13ifvqh0g","pricing_plan_id":"cebpf4jnsgd1na2vs0mg"},{"bike_id":"7f1905bf-da4d-4f13-af14-c5d46804e585","system_id":"levelo_inurba_marseille","lat":43.23188,"lon":5.35564,"is_reserved":false,"is_disabled":false,"rental_uris":{"android":"levelo://app?vid=7f1905bf-da4d-4f13-af14-c5d46804e585","ios":"levelo://app?vid=7f1905bf-da4d-4f13-af14-c5d46804e585"},"vehicle_type_id":"4","last_reported":1741295348,"current_range_meters":8800,"station_id":"ce4bhu92rcd13ifvqi70","pricing_plan_id":"cebpf4jnsgd1na2vs0mg"},{"bike_id":"c5d9a748-fb84-4751-9008-dc4467d9ed9a","system_id":"levelo_inurba_marseille","lat":43.23185,"lon":5.35546,"is_reserved":false,"is_disabled":false,"rental_uris":{"android":"levelo://app?vid=c5d9a748-fb84-4751-9008-dc4467d9ed9a","ios":"levelo://app?vid=c5d9a748-fb84-4751-9008-dc4467d9ed9a"},"vehicle_type_id":"4","last_reported":1741295348,"current_range_meters":8800,"station_id":"ce4bhu92rcd13ifvqi70","pricing_plan_id":"cebpf4jnsgd1na2vs0mg"},{"bike_id":"24fed381-61cf-4846-9932-4e6bdd4afd57","system_id":"levelo_inurba_marseille","lat":43.27627,"lon":5.36125,"is_reserved":false,"is_disabled":false,"rental_uris":{"android":"levelo://app?vid=24fed381-61cf-4846-9932-4e6bdd4afd57","ios":"levelo://app?vid=24fed381-61cf-4846-9932-4e6bdd4afd57"},"vehicle_type_id":"4","last_reported":1741295348,"current_range_meters":9200,"station_id":"ce4bgj92rcd13ifvqbe0","pricing_plan_id":"cebpf4jnsgd1na2vs0mg"},{"bike_id":"b78e97e0-b73c-457d-8c7d-7e3411a2624d","system_id":"levelo_inurba_marseille","lat":43.30426,"lon":5.38894,"is_reserved":false,"is_disabled":false,"rental_uris":{"android":"levelo://app?vid=b78e97e0-b73c-457d-8c7d-7e3411a2624d","ios":"levelo://app?vid=b78e97e0-b73c-457d-8c7d-7e3411a2624d"},"vehicle_type_id":"4","last_reported":1741295348,"current_range_meters":9200,"station_id":"ce4bgk12rcd13ifvqbi0","pricing_plan_id":"cebpf4jnsgd1na2vs0mg"},{"bike_id":"5175302d-6b4a-4bd7-b559-41881226159c","system_id":"levelo_inurba_marseille","lat":43.27379,"lon":5.36258,"is_reserved":false,"is_disabled":false,"rental_uris":{"android":"levelo://app?vid=5175302d-6b4a-4bd7-b559-41881226159c","ios":"levelo://app?vid=5175302d-6b4a-4bd7-b559-41881226159c"},"vehicle_type_id":"4","last_reported":1741295348,"current_range_meters":9200,"station_id":"ce4bhbh2rcd13ifvqeo0","pricing_plan_id":"cebpf4jnsgd1na2vs0mg"},{"bike_id":"0919134a-2f1e-4a6f-8cc1-645830073618","system_id":"levelo_inurba_marseille","lat":43.23963,"lon":5.36647,"is_reserved":false,"is_disabled":false,"rental_uris":{"android":"levelo://app?vid=0919134a-2f1e-4a6f-8cc1-645830073618","ios":"levelo://app?vid=0919134a-2f1e-4a6f-8cc1-645830073618"},"vehicle_type_id":"4","last_reported":1741295348,"current_range_meters":9200,"station_id":"ce4bhi12rcd13ifvqfp0","pricing_plan_id":"cebpf4jnsgd1na2vs0mg"},{"bike_id":"c262f8cf-6400-4efd-af91-c8aabadab203","system_id":"levelo_inurba_marseille","lat":43.23211,"lon":5.40018,"is_reserved":false,"is_disabled":false,"rental_uris":{"android":"levelo://app?vid=c262f8cf-6400-4efd-af91-c8aabadab203","ios":"levelo://app?vid=c262f8cf-6400-4efd-af91-c8aabadab203"},"vehicle_type_id":"4","last_reported":1741295348,"current_range_meters":9200,"station_id":"ce4bhn12rcd13ifvqgqg","pricing_plan_id":"cebpf4jnsgd1na2vs0mg"},{"bike_id":"32d1f900-0344-4b56-aaa5-564d19ec802c","system_id":"levelo_inurba_marseille","lat":43.27937,"lon":5.41046,"is_reserved":false,"is_disabled":false,"rental_uris":{"android":"levelo://app?vid=32d1f900-0344-4b56-aaa5-564d19ec802c","ios":"levelo://app?vid=32d1f900-0344-4b56-aaa5-564d19ec802c"},"vehicle_type_id":"4","last_reported":1741295348,"current_range_meters":9200,"station_id":"ce4bhnp2rcd13ifvqh0g","pricing_plan_id":"cebpf4jnsgd1na2vs0mg"},{"bike_id":"6016bdb3-4e9f-416b-88df-1ab71f5d0176","system_id":"levelo_inurba_marseille","lat":43.31325,"lon":5.39693,"is_reserved":false,"is_disabled":false,"rental_uris":{"android":"levelo://app?vid=6016bdb3-4e9f-416b-88df-1ab71f5d0176","ios":"levelo://app?vid=6016bdb3-4e9f-416b-88df-1ab71f5d0176"},"vehicle_type_id":"4","last_reported":1741295348,"current_range_meters":9600,"station_id":"ce4bgvp2rcd13ifvqcu0","pricing_plan_id":"cebpf4jnsgd1na2vs0mg"},{"bike_id":"facee40c-456b-43e5-8519-d86640fbb654","system_id":"levelo_inurba_marseille","lat":43.29036,"lon":5.39954,"is_reserved":false,"is_disabled":false,"rental_uris":{"android":"levelo://app?vid=facee40c-456b-43e5-8519-d86640fbb654","ios":"levelo://app?vid=facee40c-456b-43e5-8519-d86640fbb654"},"vehicle_type_id":"4","last_reported":1741295348,"current_range_meters":9600,"station_id":"ce4bh392rcd13ifvqdm0","pricing_plan_id":"cebpf4jnsgd1na2vs0mg"},{"bike_id":"ced7820d-f394-440a-8e85-ce362b340d0a","system_id":"levelo_inurba_marseille","lat":43.28928,"lon":5.36405,"is_reserved":false,"is_disabled":false,"rental_uris":{"android":"levelo://app?vid=ced7820d-f394-440a-8e85-ce362b340d0a","ios":"levelo://app?vid=ced7820d-f394-440a-8e85-ce362b340d0a"},"vehicle_type_id":"4","last_reported":1741295348,"current_range_meters":9600,"station_id":"ce4bhc92rcd13ifvqetg","pricing_plan_id":"cebpf4jnsgd1na2vs0mg"},{"bike_id":"c02718d2-20cf-4c51-b231-08ba621c84d3","system_id":"levelo_inurba_marseille","lat":43.27834,"lon":5.40707,"is_reserved":false,"is_disabled":false,"rental_uris":{"android":"levelo://app?vid=c02718d2-20cf-4c51-b231-08ba621c84d3","ios":"levelo://app?vid=c02718d2-20cf-4c51-b231-08ba621c84d3"},"vehicle_type_id":"4","last_reported":1741295348,"current_range_meters":9600,"station_id":"ce4bhnh2rcd13ifvqgtg","pricing_plan_id":"cebpf4jnsgd1na2vs0mg"},{"bike_id":"a6a152b5-8aab-4c82-b82d-e07034bbdf6f","system_id":"levelo_inurba_marseille","lat":43.299,"lon":5.43663,"is_reserved":false,"is_disabled":false,"rental_uris":{"android":"levelo://app?vid=a6a152b5-8aab-4c82-b82d-e07034bbdf6f","ios":"levelo://app?vid=a6a152b5-8aab-4c82-b82d-e07034bbdf6f"},"vehicle_type_id":"4","last_reported":1741295348,"current_range_meters":9600,"station_id":"ce4bhpp2rcd13ifvqhfg","pricing_plan_id":"cebpf4jnsgd1na2vs0mg"},{"bike_id":"1b34c58c-f011-43f3-baac-47c6cf7523c0","system_id":"levelo_inurba_marseille","lat":43.29901,"lon":5.43663,"is_reserved":false,"is_disabled":false,"rental_uris":{"android":"levelo://app?vid=1b34c58c-f011-43f3-baac-47c6cf7523c0","ios":"levelo://app?vid=1b34c58c-f011-43f3-baac-47c6cf7523c0"},"vehicle_type_id":"4","last_reported":1741295348,"current_range_meters":9600,"station_id":"ce4bhpp2rcd13ifvqhfg","pricing_plan_id":"cebpf4jnsgd1na2vs0mg"},{"bike_id":"f927a9c8-5d84-472f-b8fd-88f2fc3bc3e6","system_id":"levelo_inurba_marseille","lat":43.29911,"lon":5.43648,"is_reserved":false,"is_disabled":false,"rental_uris":{"android":"levelo://app?vid=f927a9c8-5d84-472f-b8fd-88f2fc3bc3e6","ios":"levelo://app?vid=f927a9c8-5d84-472f-b8fd-88f2fc3bc3e6"},"vehicle_type_id":"4","last_reported":1741295348,"current_range_meters":9600,"station_id":"ce4bhpp2rcd13ifvqhfg","pricing_plan_id":"cebpf4jnsgd1na2vs0mg"},{"bike_id":"1d58c1aa-c2e6-4f70-996c-fcd10458b8c6","system_id":"levelo_inurba_marseille","lat":43.2953,"lon":5.39019,"is_reserved":false,"is_disabled":false,"rental_uris":{"android":"levelo://app?vid=1d58c1aa-c2e6-4f70-996c-fcd10458b8c6","ios":"levelo://app?vid=1d58c1aa-c2e6-4f70-996c-fcd10458b8c6"},"vehicle_type_id":"4","last_reported":1741295348,"current_range_meters":10000,"station_id":"ce4bh3p2rcd13ifvqdp0","pricing_plan_id":"cebpf4jnsgd1na2vs0mg"},{"bike_id":"03b2a53b-cd6d-4353-957f-2760b29c52f8","system_id":"levelo_inurba_marseille","lat":43.28414,"lon":5.34982,"is_reserved":false,"is_disabled":false,"rental_uris":{"android":"levelo://app?vid=03b2a53b-cd6d-4353-957f-2760b29c52f8","ios":"levelo://app?vid=03b2a53b-cd6d-4353-957f-2760b29c52f8"},"vehicle_type_id":"4","last_reported":1741295348,"current_range_meters":10000,"station_id":"ce4bhbh2rcd13ifvqepg","pricing_plan_id":"cebpf4jnsgd1na2vs0mg"},{"bike_id":"b2c94af5-bdff-4efc-819d-12cc6aa4c843","system_id":"levelo_inurba_marseille","lat":43.24068,"lon":5.37772,"is_reserved":false,"is_disabled":false,"rental_uris":{"android":"levelo://app?vid=b2c94af5-bdff-4efc-819d-12cc6aa4c843","ios":"levelo://app?vid=b2c94af5-bdff-4efc-819d-12cc6aa4c843"},"vehicle_type_id":"4","last_reported":1741295348,"current_range_meters":10000,"station_id":"ce4bhnp2rcd13ifvqgvg","pricing_plan_id":"cebpf4jnsgd1na2vs0mg"},{"bike_id":"d9b4e821-0c42-42c8-b88c-ec7f1d7ab942","system_id":"levelo_inurba_marseille","lat":43.24082,"lon":5.37763,"is_reserved":false,"is_disabled":false,"rental_uris":{"android":"levelo://app?vid=d9b4e821-0c42-42c8-b88c-ec7f1d7ab942","ios":"levelo://app?vid=d9b4e821-0c42-42c8-b88c-ec7f1d7ab942"},"vehicle_type_id":"4","last_reported":1741295348,"current_range_meters":10000,"station_id":"ce4bhnp2rcd13ifvqgvg","pricing_plan_id":"cebpf4jnsgd1na2vs0mg"},{"bike_id":"f9ee82ab-cde9-4b3a-a16e-bc635da42d45","system_id":"levelo_inurba_marseille","lat":43.2996,"lon":5.41318,"is_reserved":false,"is_disabled":false,"rental_uris":{"android":"levelo://app?vid=f9ee82ab-cde9-4b3a-a16e-bc635da42d45","ios":"levelo://app?vid=f9ee82ab-cde9-4b3a-a16e-bc635da42d45"},"vehicle_type_id":"4","last_reported":1741295348,"current_range_meters":10000,"station_id":"ce4bhp12rcd13ifvqh9g","pricing_plan_id":"cebpf4jnsgd1na2vs0mg"},{"bike_id":"347c53d6-db16-4ef5-8e36-2948eccc705e","system_id":"levelo_inurba_marseille","lat":43.30802,"lon":5.43526,"is_reserved":false,"is_disabled":false,"rental_uris":{"android":"levelo://app?vid=347c53d6-db16-4ef5-8e36-2948eccc705e","ios":"levelo://app?vid=347c53d6-db16-4ef5-8e36-2948eccc705e"},"vehicle_type_id":"4","last_reported":1741295348,"current_range_meters":10000,"station_id":"ce4bhph2rcd13ifvqheg","pricing_plan_id":"cebpf4jnsgd1na2vs0mg"},{"bike_id":"357f6b0d-7429-4870-b5b1-c540923d954d","system_id":"levelo_inurba_marseille","lat":43.23068,"lon":5.3549,"is_reserved":false,"is_disabled":false,"rental_uris":{"android":"levelo://app?vid=357f6b0d-7429-4870-b5b1-c540923d954d","ios":"levelo://app?vid=357f6b0d-7429-4870-b5b1-c540923d954d"},"vehicle_type_id":"4","last_reported":1741295348,"current_range_meters":10000,"station_id":"cpo3342slgdg3j2ifvpg","pricing_plan_id":"cebpf4jnsgd1na2vs0mg"},{"bike_id":"db630754-fd4e-4326-b7b5-61471a5b29a8","system_id":"levelo_inurba_marseille","lat":43.35538,"lon":5.35741,"is_reserved":false,"is_disabled":false,"rental_uris":{"android":"levelo://app?vid=db630754-fd4e-4326-b7b5-61471a5b29a8","ios":"levelo://app?vid=db630754-fd4e-4326-b7b5-61471a5b29a8"},"vehicle_type_id":"4","last_reported":1741295348,"current_range_meters":10800,"station_id":"","pricing_plan_id":"cebpf4jnsgd1na2vs0mg"},{"bike_id":"0236009d-b83e-4481-b97e-6a8e1f189885","system_id":"levelo_inurba_marseille","lat":43.2983,"lon":5.38117,"is_reserved":false,"is_disabled":false,"rental_uris":{"android":"levelo://app?vid=0236009d-b83e-4481-b97e-6a8e1f189885","ios":"levelo://app?vid=0236009d-b83e-4481-b97e-6a8e1f189885"},"vehicle_type_id":"4","last_reported":1741295348,"current_range_meters":10800,"station_id":"ce4bgip2rcd13ifvqbb0","pricing_plan_id":"cebpf4jnsgd1na2vs0mg"},{"bike_id":"2d872c79-f034-4bbd-8552-df7dc13b2e3b","system_id":"levelo_inurba_marseille","lat":43.29037,"lon":5.3997,"is_reserved":false,"is_disabled":false,"rental_uris":{"android":"levelo://app?vid=2d872c79-f034-4bbd-8552-df7dc13b2e3b","ios":"levelo://app?vid=2d872c79-f034-4bbd-8552-df7dc13b2e3b"},"vehicle_type_id":"4","last_reported":1741295348,"current_range_meters":10800,"station_id":"ce4bh392rcd13ifvqdm0","pricing_plan_id":"cebpf4jnsgd1na2vs0mg"},{"bike_id":"4e71c0f9-d48c-46c2-82e0-124f3e2a9638","system_id":"levelo_inurba_marseille","lat":43.24682,"lon":5.38169,"is_reserved":false,"is_disabled":false,"rental_uris":{"android":"levelo://app?vid=4e71c0f9-d48c-46c2-82e0-124f3e2a9638","ios":"levelo://app?vid=4e71c0f9-d48c-46c2-82e0-124f3e2a9638"},"vehicle_type_id":"4","last_reported":1741295348,"current_range_meters":10800,"station_id":"ce4bhih2rcd13ifvqfr0","pricing_plan_id":"cebpf4jnsgd1na2vs0mg"},{"bike_id":"ff7bf805-56be-4b38-8b82-9ba57a872519","system_id":"levelo_inurba_marseille","lat":43.28154,"lon":5.42648,"is_reserved":false,"is_disabled":false,"rental_uris":{"android":"levelo://app?vid=ff7bf805-56be-4b38-8b82-9ba57a872519","ios":"levelo://app?vid=ff7bf805-56be-4b38-8b82-9ba57a872519"},"vehicle_type_id":"4","last_reported":1741295348,"current_range_meters":10800,"station_id":"ce4bhnh2rcd13ifvqgug","pricing_plan_id":"cebpf4jnsgd1na2vs0mg"},{"bike_id":"72b2c94b-f07a-43ce-9b67-7b7b6c9a789a","system_id":"levelo_inurba_marseille","lat":43.30807,"lon":5.43534,"is_reserved":false,"is_disabled":false,"rental_uris":{"android":"levelo://app?vid=72b2c94b-f07a-43ce-9b67-7b7b6c9a789a","ios":"levelo://app?vid=72b2c94b-f07a-43ce-9b67-7b7b6c9a789a"},"vehicle_type_id":"4","last_reported":1741295348,"current_range_meters":10800,"station_id":"ce4bhph2rcd13ifvqheg","pricing_plan_id":"cebpf4jnsgd1na2vs0mg"},{"bike_id":"ca12585f-73af-4492-8c7b-b40081c4d639","system_id":"levelo_inurba_marseille","lat":43.30609,"lon":5.37142,"is_reserved":false,"is_disabled":false,"rental_uris":{"android":"levelo://app?vid=ca12585f-73af-4492-8c7b-b40081c4d639","ios":"levelo://app?vid=ca12585f-73af-4492-8c7b-b40081c4d639"},"vehicle_type_id":"4","last_reported":1741295348,"current_range_meters":11200,"station_id":"","pricing_plan_id":"cebpf4jnsgd1na2vs0mg"},{"bike_id":"549f0e20-712f-455b-8868-0f3f9588d3f7","system_id":"levelo_inurba_marseille","lat":43.23183,"lon":5.39987,"is_reserved":false,"is_disabled":false,"rental_uris":{"android":"levelo://app?vid=549f0e20-712f-455b-8868-0f3f9588d3f7","ios":"levelo://app?vid=549f0e20-712f-455b-8868-0f3f9588d3f7"},"vehicle_type_id":"4","last_reported":1741295348,"current_range_meters":11200,"station_id":"ce4bhn12rcd13ifvqgqg","pricing_plan_id":"cebpf4jnsgd1na2vs0mg"},{"bike_id":"93bf5a61-b8a8-49cd-8b33-574a28d9bdf3","system_id":"levelo_inurba_marseille","lat":43.24077,"lon":5.37778,"is_reserved":false,"is_disabled":false,"rental_uris":{"android":"levelo://app?vid=93bf5a61-b8a8-49cd-8b33-574a28d9bdf3","ios":"levelo://app?vid=93bf5a61-b8a8-49cd-8b33-574a28d9bdf3"},"vehicle_type_id":"4","last_reported":1741295348,"current_range_meters":11200,"station_id":"ce4bhnp2rcd13ifvqgvg","pricing_plan_id":"cebpf4jnsgd1na2vs0mg"},{"bike_id":"d015e1e7-8b4f-4898-a841-104d62c0d9ad","system_id":"levelo_inurba_marseille","lat":43.23182,"lon":5.39987,"is_reserved":false,"is_disabled":false,"rental_uris":{"android":"levelo://app?vid=d015e1e7-8b4f-4898-a841-104d62c0d9ad","ios":"levelo://app?vid=d015e1e7-8b4f-4898-a841-104d62c0d9ad"},"vehicle_type_id":"4","last_reported":1741295348,"current_range_meters":11600,"station_id":"ce4bhn12rcd13ifvqgqg","pricing_plan_id":"cebpf4jnsgd1na2vs0mg"},{"bike_id":"351698fb-b342-4b37-bea8-683f20ba6fde","system_id":"levelo_inurba_marseille","lat":43.27611,"lon":5.36101,"is_reserved":false,"is_disabled":false,"rental_uris":{"android":"levelo://app?vid=351698fb-b342-4b37-bea8-683f20ba6fde","ios":"levelo://app?vid=351698fb-b342-4b37-bea8-683f20ba6fde"},"vehicle_type_id":"4","last_reported":1741295348,"current_range_meters":12000,"station_id":"ce4bgj92rcd13ifvqbe0","pricing_plan_id":"cebpf4jnsgd1na2vs0mg"},{"bike_id":"47b1c164-33c7-4340-b460-373aba354cd3","system_id":"levelo_inurba_marseille","lat":43.31075,"lon":5.38354,"is_reserved":false,"is_disabled":false,"rental_uris":{"android":"levelo://app?vid=47b1c164-33c7-4340-b460-373aba354cd3","ios":"levelo://app?vid=47b1c164-33c7-4340-b460-373aba354cd3"},"vehicle_type_id":"4","last_reported":1741295348,"current_range_meters":12000,"station_id":"ce4bgv92rcd13ifvqcr0","pricing_plan_id":"cebpf4jnsgd1na2vs0mg"},{"bike_id":"be9b83a6-6264-4fb1-973d-988ca67efbc5","system_id":"levelo_inurba_marseille","lat":43.28948,"lon":5.36634,"is_reserved":false,"is_disabled":false,"rental_uris":{"android":"levelo://app?vid=be9b83a6-6264-4fb1-973d-988ca67efbc5","ios":"levelo://app?vid=be9b83a6-6264-4fb1-973d-988ca67efbc5"},"vehicle_type_id":"4","last_reported":1741295348,"current_range_meters":12000,"station_id":"ce4bhap2rcd13ifvqek0","pricing_plan_id":"cebpf4jnsgd1na2vs0mg"},{"bike_id":"c16ccb51-1ff7-4b93-8e4d-d5c1c6809677","system_id":"levelo_inurba_marseille","lat":43.30423,"lon":5.413,"is_reserved":false,"is_disabled":false,"rental_uris":{"android":"levelo://app?vid=c16ccb51-1ff7-4b93-8e4d-d5c1c6809677","ios":"levelo://app?vid=c16ccb51-1ff7-4b93-8e4d-d5c1c6809677"},"vehicle_type_id":"4","last_reported":1741295348,"current_range_meters":12000,"station_id":"ce4bhop2rcd13ifvqh8g","pricing_plan_id":"cebpf4jnsgd1na2vs0mg"},{"bike_id":"9f0f0224-b72b-4ee3-a38d-b5ba80204629","system_id":"levelo_inurba_marseille","lat":43.23191,"lon":5.35561,"is_reserved":false,"is_disabled":false,"rental_uris":{"android":"levelo://app?vid=9f0f0224-b72b-4ee3-a38d-b5ba80204629","ios":"levelo://app?vid=9f0f0224-b72b-4ee3-a38d-b5ba80204629"},"vehicle_type_id":"4","last_reported":1741295348,"current_range_meters":12000,"station_id":"ce4bhu92rcd13ifvqi70","pricing_plan_id":"cebpf4jnsgd1na2vs0mg"},{"bike_id":"5ad76988-d6c6-4cf2-a2fc-f0009360e321","system_id":"levelo_inurba_marseille","lat":43.2958,"lon":5.36742,"is_reserved":false,"is_disabled":false,"rental_uris":{"android":"levelo://app?vid=5ad76988-d6c6-4cf2-a2fc-f0009360e321","ios":"levelo://app?vid=5ad76988-d6c6-4cf2-a2fc-f0009360e321"},"vehicle_type_id":"4","last_reported":1741295348,"current_range_meters":12400,"station_id":"ce4bgph2rcd13ifvqc2g","pricing_plan_id":"cebpf4jnsgd1na2vs0mg"},{"bike_id":"16b01717-2ca3-4307-8047-d1c2c98a6c61","system_id":"levelo_inurba_marseille","lat":43.29431,"lon":5.38651,"is_reserved":false,"is_disabled":false,"rental_uris":{"android":"levelo://app?vid=16b01717-2ca3-4307-8047-d1c2c98a6c61","ios":"levelo://app?vid=16b01717-2ca3-4307-8047-d1c2c98a6c61"},"vehicle_type_id":"4","last_reported":1741295348,"current_range_meters":12400,"station_id":"ce4bh2h2rcd13ifvqdh0","pricing_plan_id":"cebpf4jnsgd1na2vs0mg"},{"bike_id":"209861b9-e713-4629-847a-dc2b6461110e","system_id":"levelo_inurba_marseille","lat":43.29523,"lon":5.3904,"is_reserved":false,"is_disabled":false,"rental_uris":{"android":"levelo://app?vid=209861b9-e713-4629-847a-dc2b6461110e","ios":"levelo://app?vid=209861b9-e713-4629-847a-dc2b6461110e"},"vehicle_type_id":"4","last_reported":1741295348,"current_range_meters":12400,"station_id":"ce4bh3p2rcd13ifvqdp0","pricing_plan_id":"cebpf4jnsgd1na2vs0mg"},{"bike_id":"95b542f3-c569-4c6a-917a-09559b8d5d92","system_id":"levelo_inurba_marseille","lat":43.28269,"lon":5.35059,"is_reserved":false,"is_disabled":false,"rental_uris":{"android":"levelo://app?vid=95b542f3-c569-4c6a-917a-09559b8d5d92","ios":"levelo://app?vid=95b542f3-c569-4c6a-917a-09559b8d5d92"},"vehicle_type_id":"4","last_reported":1741295348,"current_range_meters":12400,"station_id":"ce4bhbp2rcd13ifvqerg","pricing_plan_id":"cebpf4jnsgd1na2vs0mg"},{"bike_id":"34aa14cc-09e2-478d-a4d8-f2c0b44526ae","system_id":"levelo_inurba_marseille","lat":43.2624,"lon":5.40472,"is_reserved":false,"is_disabled":false,"rental_uris":{"android":"levelo://app?vid=34aa14cc-09e2-478d-a4d8-f2c0b44526ae","ios":"levelo://app?vid=34aa14cc-09e2-478d-a4d8-f2c0b44526ae"},"vehicle_type_id":"4","last_reported":1741295348,"current_range_meters":12400,"station_id":"ce4bhmh2rcd13ifvqgmg","pricing_plan_id":"cebpf4jnsgd1na2vs0mg"},{"bike_id":"23fd01b3-a5b9-4def-8318-003ef97cf778","system_id":"levelo_inurba_marseille","lat":43.32102,"lon":5.39013,"is_reserved":false,"is_disabled":false,"rental_uris":{"android":"levelo://app?vid=23fd01b3-a5b9-4def-8318-003ef97cf778","ios":"levelo://app?vid=23fd01b3-a5b9-4def-8318-003ef97cf778"},"vehicle_type_id":"4","last_reported":1741295348,"current_range_meters":12800,"station_id":"","pricing_plan_id":"cebpf4jnsgd1na2vs0mg"},{"bike_id":"3aee71a7-e479-43e8-a4bf-6b6d0f74e218","system_id":"levelo_inurba_marseille","lat":43.29259,"lon":5.37629,"is_reserved":false,"is_disabled":false,"rental_uris":{"android":"levelo://app?vid=3aee71a7-e479-43e8-a4bf-6b6d0f74e218","ios":"levelo://app?vid=3aee71a7-e479-43e8-a4bf-6b6d0f74e218"},"vehicle_type_id":"4","last_reported":1741295348,"current_range_meters":12800,"station_id":"ce4bgi12rcd13ifvqb80","pricing_plan_id":"cebpf4jnsgd1na2vs0mg"},{"bike_id":"f8216d96-1f84-45e8-8042-84e0e3a0fe62","system_id":"levelo_inurba_marseille","lat":43.26933,"lon":5.38922,"is_reserved":false,"is_disabled":false,"rental_uris":{"android":"levelo://app?vid=f8216d96-1f84-45e8-8042-84e0e3a0fe62","ios":"levelo://app?vid=f8216d96-1f84-45e8-8042-84e0e3a0fe62"},"vehicle_type_id":"4","last_reported":1741295348,"current_range_meters":12800,"station_id":"ce4bhhh2rcd13ifvqfl0","pricing_plan_id":"cebpf4jnsgd1na2vs0mg"},{"bike_id":"2b1de8ba-6297-479a-97e0-c4ffcb43060b","system_id":"levelo_inurba_marseille","lat":43.23209,"lon":5.39989,"is_reserved":false,"is_disabled":false,"rental_uris":{"android":"levelo://app?vid=2b1de8ba-6297-479a-97e0-c4ffcb43060b","ios":"levelo://app?vid=2b1de8ba-6297-479a-97e0-c4ffcb43060b"},"vehicle_type_id":"4","last_reported":1741295348,"current_range_meters":12800,"station_id":"ce4bhn12rcd13ifvqgqg","pricing_plan_id":"cebpf4jnsgd1na2vs0mg"},{"bike_id":"764f3258-213a-4186-b4ff-850e4e5fe869","system_id":"levelo_inurba_marseille","lat":43.30462,"lon":5.41292,"is_reserved":false,"is_disabled":false,"rental_uris":{"android":"levelo://app?vid=764f3258-213a-4186-b4ff-850e4e5fe869","ios":"levelo://app?vid=764f3258-213a-4186-b4ff-850e4e5fe869"},"vehicle_type_id":"4","last_reported":1741295348,"current_range_meters":12800,"station_id":"ce4bhop2rcd13ifvqh8g","pricing_plan_id":"cebpf4jnsgd1na2vs0mg"},{"bike_id":"8bd4b128-b85d-4e21-ad3f-ceffde0e548c","system_id":"levelo_inurba_marseille","lat":43.31322,"lon":5.39704,"is_reserved":false,"is_disabled":false,"rental_uris":{"android":"levelo://app?vid=8bd4b128-b85d-4e21-ad3f-ceffde0e548c","ios":"levelo://app?vid=8bd4b128-b85d-4e21-ad3f-ceffde0e548c"},"vehicle_type_id":"4","last_reported":1741295348,"current_range_meters":13600,"station_id":"ce4bgvp2rcd13ifvqcu0","pricing_plan_id":"cebpf4jnsgd1na2vs0mg"},{"bike_id":"03341ac4-86bb-44de-bc88-ab4a56fc83d3","system_id":"levelo_inurba_marseille","lat":43.28042,"lon":5.36957,"is_reserved":false,"is_disabled":false,"rental_uris":{"android":"levelo://app?vid=03341ac4-86bb-44de-bc88-ab4a56fc83d3","ios":"levelo://app?vid=03341ac4-86bb-44de-bc88-ab4a56fc83d3"},"vehicle_type_id":"4","last_reported":1741295348,"current_range_meters":13600,"station_id":"ce4bha12rcd13ifvqef0","pricing_plan_id":"cebpf4jnsgd1na2vs0mg"},{"bike_id":"46cc9b13-e53d-45c3-b03a-e66964b78e31","system_id":"levelo_inurba_marseille","lat":43.28616,"lon":5.351,"is_reserved":false,"is_disabled":false,"rental_uris":{"android":"levelo://app?vid=46cc9b13-e53d-45c3-b03a-e66964b78e31","ios":"levelo://app?vid=46cc9b13-e53d-45c3-b03a-e66964b78e31"},"vehicle_type_id":"4","last_reported":1741295348,"current_range_meters":13600,"station_id":"ce4bhch2rcd13ifvqeug","pricing_plan_id":"cebpf4jnsgd1na2vs0mg"},{"bike_id":"e4eb1f42-cc35-42cc-98ac-8057b1f0e7f9","system_id":"levelo_inurba_marseille","lat":43.26793,"lon":5.39417,"is_reserved":false,"is_disabled":false,"rental_uris":{"android":"levelo://app?vid=e4eb1f42-cc35-42cc-98ac-8057b1f0e7f9","ios":"levelo://app?vid=e4eb1f42-cc35-42cc-98ac-8057b1f0e7f9"},"vehicle_type_id":"4","last_reported":1741295348,"current_range_meters":13600,"station_id":"ce4bhh12rcd13ifvqfg0","pricing_plan_id":"cebpf4jnsgd1na2vs0mg"},{"bike_id":"985324b2-53ea-4df0-8c32-5d6941d2d733","system_id":"levelo_inurba_marseille","lat":43.25582,"lon":5.38235,"is_reserved":false,"is_disabled":false,"rental_uris":{"android":"levelo://app?vid=985324b2-53ea-4df0-8c32-5d6941d2d733","ios":"levelo://app?vid=985324b2-53ea-4df0-8c32-5d6941d2d733"},"vehicle_type_id":"4","last_reported":1741295348,"current_range_meters":13600,"station_id":"ce4bhih2rcd13ifvqfs0","pricing_plan_id":"cebpf4jnsgd1na2vs0mg"},{"bike_id":"26c73216-6e14-4525-8862-2d8008d7d7db","system_id":"levelo_inurba_marseille","lat":43.25871,"lon":5.39909,"is_reserved":false,"is_disabled":false,"rental_uris":{"android":"levelo://app?vid=26c73216-6e14-4525-8862-2d8008d7d7db","ios":"levelo://app?vid=26c73216-6e14-4525-8862-2d8008d7d7db"},"vehicle_type_id":"4","last_reported":1741295348,"current_range_meters":13600,"station_id":"ce4bhl92rcd13ifvqghg","pricing_plan_id":"cebpf4jnsgd1na2vs0mg"},{"bike_id":"dd1656d4-1155-44af-98eb-e63022b2f728","system_id":"levelo_inurba_marseille","lat":43.313277,"lon":5.39697,"is_reserved":false,"is_disabled":false,"rental_uris":{"android":"levelo://app?vid=dd1656d4-1155-44af-98eb-e63022b2f728","ios":"levelo://app?vid=dd1656d4-1155-44af-98eb-e63022b2f728"},"vehicle_type_id":"4","last_reported":1741295348,"current_range_meters":14000,"station_id":"ce4bgvp2rcd13ifvqcu0","pricing_plan_id":"cebpf4jnsgd1na2vs0mg"},{"bike_id":"436be741-d4f3-4d02-b014-7fb9168d5010","system_id":"levelo_inurba_marseille","lat":43.28694,"lon":5.37385,"is_reserved":false,"is_disabled":false,"rental_uris":{"android":"levelo://app?vid=436be741-d4f3-4d02-b014-7fb9168d5010","ios":"levelo://app?vid=436be741-d4f3-4d02-b014-7fb9168d5010"},"vehicle_type_id":"4","last_reported":1741295348,"current_range_meters":14000,"station_id":"ce4bh3p2rcd13ifvqdq0","pricing_plan_id":"cebpf4jnsgd1na2vs0mg"},{"bike_id":"2d31bd33-7bbc-485d-a4dd-59c0e816926e","system_id":"levelo_inurba_marseille","lat":43.258229,"lon":5.394365,"is_reserved":false,"is_disabled":false,"rental_uris":{"android":"levelo://app?vid=2d31bd33-7bbc-485d-a4dd-59c0e816926e","ios":"levelo://app?vid=2d31bd33-7bbc-485d-a4dd-59c0e816926e"},"vehicle_type_id":"4","last_reported":1741295348,"current_range_meters":14000,"station_id":"ce4bhip2rcd13ifvqft0","pricing_plan_id":"cebpf4jnsgd1na2vs0mg"},{"bike_id":"2bf9485e-de87-466c-a213-313681c6760e","system_id":"levelo_inurba_marseille","lat":43.28177,"lon":5.42618,"is_reserved":false,"is_disabled":false,"rental_uris":{"android":"levelo://app?vid=2bf9485e-de87-466c-a213-313681c6760e","ios":"levelo://app?vid=2bf9485e-de87-466c-a213-313681c6760e"},"vehicle_type_id":"4","last_reported":1741295348,"current_range_meters":14000,"station_id":"ce4bhnh2rcd13ifvqgug","pricing_plan_id":"cebpf4jnsgd1na2vs0mg"},{"bike_id":"a37aa460-4797-4802-885f-6053c820f844","system_id":"levelo_inurba_marseille","lat":43.24078,"lon":5.3776,"is_reserved":false,"is_disabled":false,"rental_uris":{"android":"levelo://app?vid=a37aa460-4797-4802-885f-6053c820f844","ios":"levelo://app?vid=a37aa460-4797-4802-885f-6053c820f844"},"vehicle_type_id":"4","last_reported":1741295348,"current_range_meters":14000,"station_id":"ce4bhnp2rcd13ifvqgvg","pricing_plan_id":"cebpf4jnsgd1na2vs0mg"},{"bike_id":"ab1a5428-c03b-4328-a21b-252d071edf9e","system_id":"levelo_inurba_marseille","lat":43.28482,"lon":5.3841,"is_reserved":false,"is_disabled":false,"rental_uris":{"android":"levelo://app?vid=ab1a5428-c03b-4328-a21b-252d071edf9e","ios":"levelo://app?vid=ab1a5428-c03b-4328-a21b-252d071edf9e"},"vehicle_type_id":"4","last_reported":1741295348,"current_range_meters":14400,"station_id":"ce4bh512rcd13ifvqe3g","pricing_plan_id":"cebpf4jnsgd1na2vs0mg"},{"bike_id":"6a1366c1-41ed-4dda-b62f-b12cda709bc4","system_id":"levelo_inurba_marseille","lat":43.32368,"lon":5.3889,"is_reserved":false,"is_disabled":false,"rental_uris":{"android":"levelo://app?vid=6a1366c1-41ed-4dda-b62f-b12cda709bc4","ios":"levelo://app?vid=6a1366c1-41ed-4dda-b62f-b12cda709bc4"},"vehicle_type_id":"4","last_reported":1741295348,"current_range_meters":14400,"station_id":"ce4bhqp2rcd13ifvqhog","pricing_plan_id":"cebpf4jnsgd1na2vs0mg"},{"bike_id":"daa48c53-c5de-46aa-94fc-655cbd710c8c","system_id":"levelo_inurba_marseille","lat":43.2292,"lon":5.35378,"is_reserved":false,"is_disabled":false,"rental_uris":{"android":"levelo://app?vid=daa48c53-c5de-46aa-94fc-655cbd710c8c","ios":"levelo://app?vid=daa48c53-c5de-46aa-94fc-655cbd710c8c"},"vehicle_type_id":"4","last_reported":1741295348,"current_range_meters":14400,"station_id":"cpo3532slgdg3j2ikp40","pricing_plan_id":"cebpf4jnsgd1na2vs0mg"},{"bike_id":"1c9694b8-cec0-4ec5-91da-e51c493b1522","system_id":"levelo_inurba_marseille","lat":43.2953,"lon":5.38552,"is_reserved":false,"is_disabled":false,"rental_uris":{"android":"levelo://app?vid=1c9694b8-cec0-4ec5-91da-e51c493b1522","ios":"levelo://app?vid=1c9694b8-cec0-4ec5-91da-e51c493b1522"},"vehicle_type_id":"4","last_reported":1741295348,"current_range_meters":14800,"station_id":"ce4bgih2rcd13ifvqba0","pricing_plan_id":"cebpf4jnsgd1na2vs0mg"},{"bike_id":"99644652-5c73-416b-b0b7-17829ba04b60","system_id":"levelo_inurba_marseille","lat":43.2942,"lon":5.38645,"is_reserved":false,"is_disabled":false,"rental_uris":{"android":"levelo://app?vid=99644652-5c73-416b-b0b7-17829ba04b60","ios":"levelo://app?vid=99644652-5c73-416b-b0b7-17829ba04b60"},"vehicle_type_id":"4","last_reported":1741295348,"current_range_meters":14800,"station_id":"ce4bh2h2rcd13ifvqdh0","pricing_plan_id":"cebpf4jnsgd1na2vs0mg"},{"bike_id":"75814dd5-07d3-4c24-b590-1ae64109e719","system_id":"levelo_inurba_marseille","lat":43.29043,"lon":5.38648,"is_reserved":false,"is_disabled":false,"rental_uris":{"android":"levelo://app?vid=75814dd5-07d3-4c24-b590-1ae64109e719","ios":"levelo://app?vid=75814dd5-07d3-4c24-b590-1ae64109e719"},"vehicle_type_id":"4","last_reported":1741295348,"current_range_meters":14800,"station_id":"ce4bh4p2rcd13ifvqe0g","pricing_plan_id":"cebpf4jnsgd1na2vs0mg"},{"bike_id":"816ec87c-26ba-415b-b02d-d75b22feb9ab","system_id":"levelo_inurba_marseille","lat":43.28633,"lon":5.35097,"is_reserved":false,"is_disabled":false,"rental_uris":{"android":"levelo://app?vid=816ec87c-26ba-415b-b02d-d75b22feb9ab","ios":"levelo://app?vid=816ec87c-26ba-415b-b02d-d75b22feb9ab"},"vehicle_type_id":"4","last_reported":1741295348,"current_range_meters":14800,"station_id":"ce4bhch2rcd13ifvqeug","pricing_plan_id":"cebpf4jnsgd1na2vs0mg"},{"bike_id":"becf5e38-2c56-4fce-862d-4abc9e5b3435","system_id":"levelo_inurba_marseille","lat":43.25132,"lon":5.40309,"is_reserved":false,"is_disabled":false,"rental_uris":{"android":"levelo://app?vid=becf5e38-2c56-4fce-862d-4abc9e5b3435","ios":"levelo://app?vid=becf5e38-2c56-4fce-862d-4abc9e5b3435"},"vehicle_type_id":"4","last_reported":1741295348,"current_range_meters":14800,"station_id":"ce4bhlh2rcd13ifvqgig","pricing_plan_id":"cebpf4jnsgd1na2vs0mg"},{"bike_id":"d0a9e0b6-7460-48af-b167-fa241d6b44c3","system_id":"levelo_inurba_marseille","lat":43.32103,"lon":5.36781,"is_reserved":false,"is_disabled":false,"rental_uris":{"android":"levelo://app?vid=d0a9e0b6-7460-48af-b167-fa241d6b44c3","ios":"levelo://app?vid=d0a9e0b6-7460-48af-b167-fa241d6b44c3"},"vehicle_type_id":"4","last_reported":1741295348,"current_range_meters":15200,"station_id":"ce4bhrh2rcd13ifvqhug","pricing_plan_id":"cebpf4jnsgd1na2vs0mg"},{"bike_id":"cc669f9b-4f4c-45ed-8061-f9c3d4fad60c","system_id":"levelo_inurba_marseille","lat":43.31182,"lon":5.38693,"is_reserved":false,"is_disabled":false,"rental_uris":{"android":"levelo://app?vid=cc669f9b-4f4c-45ed-8061-f9c3d4fad60c","ios":"levelo://app?vid=cc669f9b-4f4c-45ed-8061-f9c3d4fad60c"},"vehicle_type_id":"4","last_reported":1741295348,"current_range_meters":16000,"station_id":"ce4bgv12rcd13ifvqcp0","pricing_plan_id":"cebpf4jnsgd1na2vs0mg"},{"bike_id":"99ff4a4d-52c2-4dda-9b47-0d1d11158607","system_id":"levelo_inurba_marseille","lat":43.28403,"lon":5.37519,"is_reserved":false,"is_disabled":false,"rental_uris":{"android":"levelo://app?vid=99ff4a4d-52c2-4dda-9b47-0d1d11158607","ios":"levelo://app?vid=99ff4a4d-52c2-4dda-9b47-0d1d11158607"},"vehicle_type_id":"4","last_reported":1741295348,"current_range_meters":16000,"station_id":"ce4bh412rcd13ifvqds0","pricing_plan_id":"cebpf4jnsgd1na2vs0mg"},{"bike_id":"2c861e0b-d0b8-4f92-8091-d6b0c2859052","system_id":"levelo_inurba_marseille","lat":43.28461,"lon":5.35886,"is_reserved":false,"is_disabled":false,"rental_uris":{"android":"levelo://app?vid=2c861e0b-d0b8-4f92-8091-d6b0c2859052","ios":"levelo://app?vid=2c861e0b-d0b8-4f92-8091-d6b0c2859052"},"vehicle_type_id":"4","last_reported":1741295348,"current_range_meters":16000,"station_id":"ce4bhah2rcd13ifvqei0","pricing_plan_id":"cebpf4jnsgd1na2vs0mg"},{"bike_id":"448175e3-31c8-47da-81c6-b5fb03c52f34","system_id":"levelo_inurba_marseille","lat":43.28933,"lon":5.3663,"is_reserved":false,"is_disabled":false,"rental_uris":{"android":"levelo://app?vid=448175e3-31c8-47da-81c6-b5fb03c52f34","ios":"levelo://app?vid=448175e3-31c8-47da-81c6-b5fb03c52f34"},"vehicle_type_id":"4","last_reported":1741295348,"current_range_meters":16000,"station_id":"ce4bhap2rcd13ifvqek0","pricing_plan_id":"cebpf4jnsgd1na2vs0mg"},{"bike_id":"c05e10c0-ab92-4e55-b3d6-0f34ded537e1","system_id":"levelo_inurba_marseille","lat":43.24645,"lon":5.38916,"is_reserved":false,"is_disabled":false,"rental_uris":{"android":"levelo://app?vid=c05e10c0-ab92-4e55-b3d6-0f34ded537e1","ios":"levelo://app?vid=c05e10c0-ab92-4e55-b3d6-0f34ded537e1"},"vehicle_type_id":"4","last_reported":1741295348,"current_range_meters":16000,"station_id":"ce4bhg12rcd13ifvqf60","pricing_plan_id":"cebpf4jnsgd1na2vs0mg"},{"bike_id":"6d7e0450-89ad-4e81-9f4f-61db2e3e009a","system_id":"levelo_inurba_marseille","lat":43.29905,"lon":5.43676,"is_reserved":false,"is_disabled":false,"rental_uris":{"android":"levelo://app?vid=6d7e0450-89ad-4e81-9f4f-61db2e3e009a","ios":"levelo://app?vid=6d7e0450-89ad-4e81-9f4f-61db2e3e009a"},"vehicle_type_id":"4","last_reported":1741295348,"current_range_meters":16000,"station_id":"ce4bhpp2rcd13ifvqhfg","pricing_plan_id":"cebpf4jnsgd1na2vs0mg"},{"bike_id":"2d340159-37c8-41dc-a62f-ca06729e55bc","system_id":"levelo_inurba_marseille","lat":43.32364,"lon":5.36754,"is_reserved":false,"is_disabled":false,"rental_uris":{"android":"levelo://app?vid=2d340159-37c8-41dc-a62f-ca06729e55bc","ios":"levelo://app?vid=2d340159-37c8-41dc-a62f-ca06729e55bc"},"vehicle_type_id":"4","last_reported":1741295348,"current_range_meters":16000,"station_id":"ce4bhsh2rcd13ifvqi2g","pricing_plan_id":"cebpf4jnsgd1na2vs0mg"},{"bike_id":"8495ea94-8913-4fd4-93bf-d7ec0a8cbe57","system_id":"levelo_inurba_marseille","lat":43.31075,"lon":5.38355,"is_reserved":false,"is_disabled":false,"rental_uris":{"android":"levelo://app?vid=8495ea94-8913-4fd4-93bf-d7ec0a8cbe57","ios":"levelo://app?vid=8495ea94-8913-4fd4-93bf-d7ec0a8cbe57"},"vehicle_type_id":"4","last_reported":1741295348,"current_range_meters":16400,"station_id":"ce4bgv92rcd13ifvqcr0","pricing_plan_id":"cebpf4jnsgd1na2vs0mg"},{"bike_id":"227f812f-10c8-47ca-b2c3-3eaa752b9a2d","system_id":"levelo_inurba_marseille","lat":43.30874,"lon":5.39646,"is_reserved":false,"is_disabled":false,"rental_uris":{"android":"levelo://app?vid=227f812f-10c8-47ca-b2c3-3eaa752b9a2d","ios":"levelo://app?vid=227f812f-10c8-47ca-b2c3-3eaa752b9a2d"},"vehicle_type_id":"4","last_reported":1741295348,"current_range_meters":16400,"station_id":"ce4bh012rcd13ifvqcv0","pricing_plan_id":"cebpf4jnsgd1na2vs0mg"},{"bike_id":"13500853-781a-4abe-b50a-683e7e195de1","system_id":"levelo_inurba_marseille","lat":43.28851,"lon":5.39315,"is_reserved":false,"is_disabled":false,"rental_uris":{"android":"levelo://app?vid=13500853-781a-4abe-b50a-683e7e195de1","ios":"levelo://app?vid=13500853-781a-4abe-b50a-683e7e195de1"},"vehicle_type_id":"4","last_reported":1741295348,"current_range_meters":16400,"station_id":"ce4bh2p2rcd13ifvqdi0","pricing_plan_id":"cebpf4jnsgd1na2vs0mg"},{"bike_id":"59c3d8fe-b076-479c-afaf-8585bd3fcf1f","system_id":"levelo_inurba_marseille","lat":43.28673,"lon":5.38674,"is_reserved":false,"is_disabled":false,"rental_uris":{"android":"levelo://app?vid=59c3d8fe-b076-479c-afaf-8585bd3fcf1f","ios":"levelo://app?vid=59c3d8fe-b076-479c-afaf-8585bd3fcf1f"},"vehicle_type_id":"4","last_reported":1741295348,"current_range_meters":16400,"station_id":"ce4bh492rcd13ifvqdug","pricing_plan_id":"cebpf4jnsgd1na2vs0mg"},{"bike_id":"88d55705-11a3-4e8d-984b-1fcdc0cb6706","system_id":"levelo_inurba_marseille","lat":43.28985,"lon":5.36441,"is_reserved":false,"is_disabled":false,"rental_uris":{"android":"levelo://app?vid=88d55705-11a3-4e8d-984b-1fcdc0cb6706","ios":"levelo://app?vid=88d55705-11a3-4e8d-984b-1fcdc0cb6706"},"vehicle_type_id":"4","last_reported":1741295348,"current_range_meters":16400,"station_id":"ce4bhc92rcd13ifvqetg","pricing_plan_id":"cebpf4jnsgd1na2vs0mg"},{"bike_id":"07803b89-56e8-449f-8324-d35c1acff8c9","system_id":"levelo_inurba_marseille","lat":43.27832,"lon":5.39212,"is_reserved":false,"is_disabled":false,"rental_uris":{"android":"levelo://app?vid=07803b89-56e8-449f-8324-d35c1acff8c9","ios":"levelo://app?vid=07803b89-56e8-449f-8324-d35c1acff8c9"},"vehicle_type_id":"4","last_reported":1741295348,"current_range_meters":16400,"station_id":"ce4bhjp2rcd13ifvqga0","pricing_plan_id":"cebpf4jnsgd1na2vs0mg"},{"bike_id":"563c9629-05cf-49ef-8ac6-4e5ef18e4f1d","system_id":"levelo_inurba_marseille","lat":43.25084,"lon":5.39537,"is_reserved":false,"is_disabled":false,"rental_uris":{"android":"levelo://app?vid=563c9629-05cf-49ef-8ac6-4e5ef18e4f1d","ios":"levelo://app?vid=563c9629-05cf-49ef-8ac6-4e5ef18e4f1d"},"vehicle_type_id":"4","last_reported":1741295348,"current_range_meters":16400,"station_id":"ce4bhm12rcd13ifvqgkg","pricing_plan_id":"cebpf4jnsgd1na2vs0mg"},{"bike_id":"e2c9a10f-d165-47fa-bcc3-3b72ae9367ad","system_id":"levelo_inurba_marseille","lat":43.23186,"lon":5.39976,"is_reserved":false,"is_disabled":false,"rental_uris":{"android":"levelo://app?vid=e2c9a10f-d165-47fa-bcc3-3b72ae9367ad","ios":"levelo://app?vid=e2c9a10f-d165-47fa-bcc3-3b72ae9367ad"},"vehicle_type_id":"4","last_reported":1741295348,"current_range_meters":16400,"station_id":"ce4bhn12rcd13ifvqgqg","pricing_plan_id":"cebpf4jnsgd1na2vs0mg"},{"bike_id":"9efbff90-6380-4e58-8359-a0c4a1eca8c5","system_id":"levelo_inurba_marseille","lat":43.32377,"lon":5.38908,"is_reserved":false,"is_disabled":false,"rental_uris":{"android":"levelo://app?vid=9efbff90-6380-4e58-8359-a0c4a1eca8c5","ios":"levelo://app?vid=9efbff90-6380-4e58-8359-a0c4a1eca8c5"},"vehicle_type_id":"4","last_reported":1741295348,"current_range_meters":16400,"station_id":"ce4bhqp2rcd13ifvqhog","pricing_plan_id":"cebpf4jnsgd1na2vs0mg"},{"bike_id":"e0e8520a-b423-44f9-8f44-f921dcc4c382","system_id":"levelo_inurba_marseille","lat":43.30881,"lon":5.39631,"is_reserved":false,"is_disabled":false,"rental_uris":{"android":"levelo://app?vid=e0e8520a-b423-44f9-8f44-f921dcc4c382","ios":"levelo://app?vid=e0e8520a-b423-44f9-8f44-f921dcc4c382"},"vehicle_type_id":"4","last_reported":1741295348,"current_range_meters":16800,"station_id":"ce4bh012rcd13ifvqcv0","pricing_plan_id":"cebpf4jnsgd1na2vs0mg"},{"bike_id":"95a4ee13-4d54-429d-b678-25bfffe660bf","system_id":"levelo_inurba_marseille","lat":43.28937,"lon":5.36391,"is_reserved":false,"is_disabled":false,"rental_uris":{"android":"levelo://app?vid=95a4ee13-4d54-429d-b678-25bfffe660bf","ios":"levelo://app?vid=95a4ee13-4d54-429d-b678-25bfffe660bf"},"vehicle_type_id":"4","last_reported":1741295348,"current_range_meters":16800,"station_id":"ce4bhc92rcd13ifvqetg","pricing_plan_id":"cebpf4jnsgd1na2vs0mg"},{"bike_id":"641cd285-392d-4839-8906-e9d9e621038b","system_id":"levelo_inurba_marseille","lat":43.27917,"lon":5.38028,"is_reserved":false,"is_disabled":false,"rental_uris":{"android":"levelo://app?vid=641cd285-392d-4839-8906-e9d9e621038b","ios":"levelo://app?vid=641cd285-392d-4839-8906-e9d9e621038b"},"vehicle_type_id":"4","last_reported":1741295348,"current_range_meters":16800,"station_id":"ce4bhf92rcd13ifvqf50","pricing_plan_id":"cebpf4jnsgd1na2vs0mg"},{"bike_id":"6ae77951-a909-4dfa-a933-35324bca41b7","system_id":"levelo_inurba_marseille","lat":43.25013,"lon":5.38937,"is_reserved":false,"is_disabled":false,"rental_uris":{"android":"levelo://app?vid=6ae77951-a909-4dfa-a933-35324bca41b7","ios":"levelo://app?vid=6ae77951-a909-4dfa-a933-35324bca41b7"},"vehicle_type_id":"4","last_reported":1741295348,"current_range_meters":16800,"station_id":"ce4bhgp2rcd13ifvqfd0","pricing_plan_id":"cebpf4jnsgd1na2vs0mg"},{"bike_id":"2ede08b9-0b2b-4772-aa5d-3c795aee5d59","system_id":"levelo_inurba_marseille","lat":43.26075,"lon":5.39389,"is_reserved":false,"is_disabled":false,"rental_uris":{"android":"levelo://app?vid=2ede08b9-0b2b-4772-aa5d-3c795aee5d59","ios":"levelo://app?vid=2ede08b9-0b2b-4772-aa5d-3c795aee5d59"},"vehicle_type_id":"4","last_reported":1741295348,"current_range_meters":16800,"station_id":"ce4bhh92rcd13ifvqfj0","pricing_plan_id":"cebpf4jnsgd1na2vs0mg"},{"bike_id":"84e08939-1d3c-40f9-9f06-3f4762cc7f07","system_id":"levelo_inurba_marseille","lat":43.24562,"lon":5.39537,"is_reserved":false,"is_disabled":false,"rental_uris":{"android":"levelo://app?vid=84e08939-1d3c-40f9-9f06-3f4762cc7f07","ios":"levelo://app?vid=84e08939-1d3c-40f9-9f06-3f4762cc7f07"},"vehicle_type_id":"4","last_reported":1741295348,"current_range_meters":16800,"station_id":"ce4bhlp2rcd13ifvqgjg","pricing_plan_id":"cebpf4jnsgd1na2vs0mg"},{"bike_id":"4780d75a-ea78-4889-9be5-abee8640617a","system_id":"levelo_inurba_marseille","lat":43.28072,"lon":5.39637,"is_reserved":false,"is_disabled":false,"rental_uris":{"android":"levelo://app?vid=4780d75a-ea78-4889-9be5-abee8640617a","ios":"levelo://app?vid=4780d75a-ea78-4889-9be5-abee8640617a"},"vehicle_type_id":"4","last_reported":1741295348,"current_range_meters":16800,"station_id":"ce4bho12rcd13ifvqh2g","pricing_plan_id":"cebpf4jnsgd1na2vs0mg"},{"bike_id":"aadaa07e-0b05-425f-a930-f27bd7b4fe4f","system_id":"levelo_inurba_marseille","lat":43.28441,"lon":5.39194,"is_reserved":false,"is_disabled":false,"rental_uris":{"android":"levelo://app?vid=aadaa07e-0b05-425f-a930-f27bd7b4fe4f","ios":"levelo://app?vid=aadaa07e-0b05-425f-a930-f27bd7b4fe4f"},"vehicle_type_id":"4","last_reported":1741295348,"current_range_meters":16800,"station_id":"ce4bhoh2rcd13ifvqh5g","pricing_plan_id":"cebpf4jnsgd1na2vs0mg"},{"bike_id":"8d203f57-3343-4bc0-8a9c-79d1c1be1625","system_id":"levelo_inurba_marseille","lat":43.26812,"lon":5.40259,"is_reserved":false,"is_disabled":false,"rental_uris":{"android":"levelo://app?vid=8d203f57-3343-4bc0-8a9c-79d1c1be1625","ios":"levelo://app?vid=8d203f57-3343-4bc0-8a9c-79d1c1be1625"},"vehicle_type_id":"4","last_reported":1741295348,"current_range_meters":16800,"station_id":"ce501612rcd8frsf0b60","pricing_plan_id":"cebpf4jnsgd1na2vs0mg"},{"bike_id":"b6f36978-39d4-4b7f-9cb4-d3c235f51993","system_id":"levelo_inurba_marseille","lat":43.229314,"lon":5.353747,"is_reserved":false,"is_disabled":false,"rental_uris":{"android":"levelo://app?vid=b6f36978-39d4-4b7f-9cb4-d3c235f51993","ios":"levelo://app?vid=b6f36978-39d4-4b7f-9cb4-d3c235f51993"},"vehicle_type_id":"4","last_reported":1741295348,"current_range_meters":16800,"station_id":"cpo3532slgdg3j2ikp40","pricing_plan_id":"cebpf4jnsgd1na2vs0mg"},{"bike_id":"e3936ecd-bc2f-4535-ae1e-23167a131007","system_id":"levelo_inurba_marseille","lat":43.33411,"lon":5.40076,"is_reserved":false,"is_disabled":false,"rental_uris":{"android":"levelo://app?vid=e3936ecd-bc2f-4535-ae1e-23167a131007","ios":"levelo://app?vid=e3936ecd-bc2f-4535-ae1e-23167a131007"},"vehicle_type_id":"4","last_reported":1741295348,"current_range_meters":17200,"station_id":"","pricing_plan_id":"cebpf4jnsgd1na2vs0mg"},{"bike_id":"e742bfb0-25aa-4c8a-9be4-9b25a2d8fae9","system_id":"levelo_inurba_marseille","lat":43.29533,"lon":5.38542,"is_reserved":false,"is_disabled":false,"rental_uris":{"android":"levelo://app?vid=e742bfb0-25aa-4c8a-9be4-9b25a2d8fae9","ios":"levelo://app?vid=e742bfb0-25aa-4c8a-9be4-9b25a2d8fae9"},"vehicle_type_id":"4","last_reported":1741295348,"current_range_meters":17200,"station_id":"ce4bgih2rcd13ifvqba0","pricing_plan_id":"cebpf4jnsgd1na2vs0mg"},{"bike_id":"25a9cef1-a08f-4466-8b60-a32adf711e6a","system_id":"levelo_inurba_marseille","lat":43.30617,"lon":5.39338,"is_reserved":false,"is_disabled":false,"rental_uris":{"android":"levelo://app?vid=25a9cef1-a08f-4466-8b60-a32adf711e6a","ios":"levelo://app?vid=25a9cef1-a08f-4466-8b60-a32adf711e6a"},"vehicle_type_id":"4","last_reported":1741295348,"current_range_meters":17200,"station_id":"ce4bh0p2rcd13ifvqd80","pricing_plan_id":"cebpf4jnsgd1na2vs0mg"},{"bike_id":"aeda9500-f6d6-48df-8fed-12c66f234416","system_id":"levelo_inurba_marseille","lat":43.29525,"lon":5.39419,"is_reserved":false,"is_disabled":false,"rental_uris":{"android":"levelo://app?vid=aeda9500-f6d6-48df-8fed-12c66f234416","ios":"levelo://app?vid=aeda9500-f6d6-48df-8fed-12c66f234416"},"vehicle_type_id":"4","last_reported":1741295348,"current_range_meters":17200,"station_id":"ce4bh292rcd13ifvqdf0","pricing_plan_id":"cebpf4jnsgd1na2vs0mg"},{"bike_id":"1c06ae28-9894-4142-a9ab-80422c79bda3","system_id":"levelo_inurba_marseille","lat":43.294296,"lon":5.397414,"is_reserved":false,"is_disabled":false,"rental_uris":{"android":"levelo://app?vid=1c06ae28-9894-4142-a9ab-80422c79bda3","ios":"levelo://app?vid=1c06ae28-9894-4142-a9ab-80422c79bda3"},"vehicle_type_id":"4","last_reported":1741295348,"current_range_meters":17200,"station_id":"ce4bh3h2rcd13ifvqdo0","pricing_plan_id":"cebpf4jnsgd1na2vs0mg"},{"bike_id":"0464b775-72ec-4bdd-92cb-9dcc39786da9","system_id":"levelo_inurba_marseille","lat":43.28705,"lon":5.37385,"is_reserved":false,"is_disabled":false,"rental_uris":{"android":"levelo://app?vid=0464b775-72ec-4bdd-92cb-9dcc39786da9","ios":"levelo://app?vid=0464b775-72ec-4bdd-92cb-9dcc39786da9"},"vehicle_type_id":"4","last_reported":1741295348,"current_range_meters":17200,"station_id":"ce4bh3p2rcd13ifvqdq0","pricing_plan_id":"cebpf4jnsgd1na2vs0mg"},{"bike_id":"04b8010c-1d8e-4bbc-a882-fcda2e9bfe6b","system_id":"levelo_inurba_marseille","lat":43.2841,"lon":5.37518,"is_reserved":false,"is_disabled":false,"rental_uris":{"android":"levelo://app?vid=04b8010c-1d8e-4bbc-a882-fcda2e9bfe6b","ios":"levelo://app?vid=04b8010c-1d8e-4bbc-a882-fcda2e9bfe6b"},"vehicle_type_id":"4","last_reported":1741295348,"current_range_meters":17200,"station_id":"ce4bh412rcd13ifvqds0","pricing_plan_id":"cebpf4jnsgd1na2vs0mg"},{"bike_id":"fec7415f-20c5-4112-bf90-914aaec150be","system_id":"levelo_inurba_marseille","lat":43.28929,"lon":5.38391,"is_reserved":false,"is_disabled":false,"rental_uris":{"android":"levelo://app?vid=fec7415f-20c5-4112-bf90-914aaec150be","ios":"levelo://app?vid=fec7415f-20c5-4112-bf90-914aaec150be"},"vehicle_type_id":"4","last_reported":1741295348,"current_range_meters":17200,"station_id":"ce4bh612rcd13ifvqe6g","pricing_plan_id":"cebpf4jnsgd1na2vs0mg"},{"bike_id":"60dbdfe4-0290-459f-80b1-32d771207de8","system_id":"levelo_inurba_marseille","lat":43.25012,"lon":5.38916,"is_reserved":false,"is_disabled":false,"rental_uris":{"android":"levelo://app?vid=60dbdfe4-0290-459f-80b1-32d771207de8","ios":"levelo://app?vid=60dbdfe4-0290-459f-80b1-32d771207de8"},"vehicle_type_id":"4","last_reported":1741295348,"current_range_meters":17200,"station_id":"ce4bhgp2rcd13ifvqfd0","pricing_plan_id":"cebpf4jnsgd1na2vs0mg"},{"bike_id":"0526cfc7-294a-4c9b-9466-442f591045bc","system_id":"levelo_inurba_marseille","lat":43.23195,"lon":5.39979,"is_reserved":false,"is_disabled":false,"rental_uris":{"android":"levelo://app?vid=0526cfc7-294a-4c9b-9466-442f591045bc","ios":"levelo://app?vid=0526cfc7-294a-4c9b-9466-442f591045bc"},"vehicle_type_id":"4","last_reported":1741295348,"current_range_meters":17200,"station_id":"ce4bhn12rcd13ifvqgqg","pricing_plan_id":"cebpf4jnsgd1na2vs0mg"},{"bike_id":"2f80fa14-45f3-40fd-8835-a76e0d67388f","system_id":"levelo_inurba_marseille","lat":43.29561,"lon":5.42292,"is_reserved":false,"is_disabled":false,"rental_uris":{"android":"levelo://app?vid=2f80fa14-45f3-40fd-8835-a76e0d67388f","ios":"levelo://app?vid=2f80fa14-45f3-40fd-8835-a76e0d67388f"},"vehicle_type_id":"4","last_reported":1741295348,"current_range_meters":17200,"station_id":"ce4bhph2rcd13ifvqhdg","pricing_plan_id":"cebpf4jnsgd1na2vs0mg"},{"bike_id":"c46e731c-43c9-42f7-b0e2-2a75bf008757","system_id":"levelo_inurba_marseille","lat":43.298595,"lon":5.3972,"is_reserved":false,"is_disabled":false,"rental_uris":{"android":"levelo://app?vid=c46e731c-43c9-42f7-b0e2-2a75bf008757","ios":"levelo://app?vid=c46e731c-43c9-42f7-b0e2-2a75bf008757"},"vehicle_type_id":"4","last_reported":1741295348,"current_range_meters":17600,"station_id":"ce4bgvp2rcd13ifvqcu0","pricing_plan_id":"cebpf4jnsgd1na2vs0mg"},{"bike_id":"adf7f1ec-95dc-418e-9686-1323ae4e33f9","system_id":"levelo_inurba_marseille","lat":43.306,"lon":5.39366,"is_reserved":false,"is_disabled":false,"rental_uris":{"android":"levelo://app?vid=adf7f1ec-95dc-418e-9686-1323ae4e33f9","ios":"levelo://app?vid=adf7f1ec-95dc-418e-9686-1323ae4e33f9"},"vehicle_type_id":"4","last_reported":1741295348,"current_range_meters":17600,"station_id":"ce4bh0p2rcd13ifvqd80","pricing_plan_id":"cebpf4jnsgd1na2vs0mg"},{"bike_id":"87b331b5-b6a1-4a33-be76-2da35ac03a1a","system_id":"levelo_inurba_marseille","lat":43.29431,"lon":5.39751,"is_reserved":false,"is_disabled":false,"rental_uris":{"android":"levelo://app?vid=87b331b5-b6a1-4a33-be76-2da35ac03a1a","ios":"levelo://app?vid=87b331b5-b6a1-4a33-be76-2da35ac03a1a"},"vehicle_type_id":"4","last_reported":1741295348,"current_range_meters":17600,"station_id":"ce4bh3h2rcd13ifvqdo0","pricing_plan_id":"cebpf4jnsgd1na2vs0mg"},{"bike_id":"068aad30-8343-49b3-85dc-1c9329acd3ed","system_id":"levelo_inurba_marseille","lat":43.28946,"lon":5.36393,"is_reserved":false,"is_disabled":false,"rental_uris":{"android":"levelo://app?vid=068aad30-8343-49b3-85dc-1c9329acd3ed","ios":"levelo://app?vid=068aad30-8343-49b3-85dc-1c9329acd3ed"},"vehicle_type_id":"4","last_reported":1741295348,"current_range_meters":17600,"station_id":"ce4bhc92rcd13ifvqetg","pricing_plan_id":"cebpf4jnsgd1na2vs0mg"},{"bike_id":"ad9a8406-e1b8-4c43-83e7-6ca47ad1435f","system_id":"levelo_inurba_marseille","lat":43.25001,"lon":5.38927,"is_reserved":false,"is_disabled":false,"rental_uris":{"android":"levelo://app?vid=ad9a8406-e1b8-4c43-83e7-6ca47ad1435f","ios":"levelo://app?vid=ad9a8406-e1b8-4c43-83e7-6ca47ad1435f"},"vehicle_type_id":"4","last_reported":1741295348,"current_range_meters":17600,"station_id":"ce4bhgp2rcd13ifvqfd0","pricing_plan_id":"cebpf4jnsgd1na2vs0mg"},{"bike_id":"a0927b8a-2b4f-4559-9a29-b7863a22957b","system_id":"levelo_inurba_marseille","lat":43.27067,"lon":5.42272,"is_reserved":false,"is_disabled":false,"rental_uris":{"android":"levelo://app?vid=a0927b8a-2b4f-4559-9a29-b7863a22957b","ios":"levelo://app?vid=a0927b8a-2b4f-4559-9a29-b7863a22957b"},"vehicle_type_id":"4","last_reported":1741295348,"current_range_meters":17600,"station_id":"ce4bhk92rcd13ifvqgb0","pricing_plan_id":"cebpf4jnsgd1na2vs0mg"},{"bike_id":"657e2d9d-897c-4dac-9809-30bdf58caf31","system_id":"levelo_inurba_marseille","lat":43.30427,"lon":5.41313,"is_reserved":false,"is_disabled":false,"rental_uris":{"android":"levelo://app?vid=657e2d9d-897c-4dac-9809-30bdf58caf31","ios":"levelo://app?vid=657e2d9d-897c-4dac-9809-30bdf58caf31"},"vehicle_type_id":"4","last_reported":1741295348,"current_range_meters":17600,"station_id":"ce4bhop2rcd13ifvqh8g","pricing_plan_id":"cebpf4jnsgd1na2vs0mg"},{"bike_id":"e524bcef-a391-41b2-bad2-673eae53ea51","system_id":"levelo_inurba_marseille","lat":43.31715,"lon":5.43701,"is_reserved":false,"is_disabled":false,"rental_uris":{"android":"levelo://app?vid=e524bcef-a391-41b2-bad2-673eae53ea51","ios":"levelo://app?vid=e524bcef-a391-41b2-bad2-673eae53ea51"},"vehicle_type_id":"4","last_reported":1741295348,"current_range_meters":17600,"station_id":"ce4bhp92rcd13ifvqhcg","pricing_plan_id":"cebpf4jnsgd1na2vs0mg"},{"bike_id":"d44d1f0d-089b-4712-acec-6159946190a1","system_id":"levelo_inurba_marseille","lat":43.24165,"lon":5.36396,"is_reserved":false,"is_disabled":false,"rental_uris":{"android":"levelo://app?vid=d44d1f0d-089b-4712-acec-6159946190a1","ios":"levelo://app?vid=d44d1f0d-089b-4712-acec-6159946190a1"},"vehicle_type_id":"4","last_reported":1741295348,"current_range_meters":17600,"station_id":"cpo36qri1sfpv3e86is0","pricing_plan_id":"cebpf4jnsgd1na2vs0mg"},{"bike_id":"2078e11a-a252-49a1-a9a5-96f034916550","system_id":"levelo_inurba_marseille","lat":43.28174,"lon":5.4044,"is_reserved":false,"is_disabled":false,"rental_uris":{"android":"levelo://app?vid=2078e11a-a252-49a1-a9a5-96f034916550","ios":"levelo://app?vid=2078e11a-a252-49a1-a9a5-96f034916550"},"vehicle_type_id":"4","last_reported":1741295348,"current_range_meters":18000,"station_id":"","pricing_plan_id":"cebpf4jnsgd1na2vs0mg"},{"bike_id":"9e9a17a4-5918-4e28-aed9-2ae02ffb0f1d","system_id":"levelo_inurba_marseille","lat":43.3117,"lon":5.38722,"is_reserved":false,"is_disabled":false,"rental_uris":{"android":"levelo://app?vid=9e9a17a4-5918-4e28-aed9-2ae02ffb0f1d","ios":"levelo://app?vid=9e9a17a4-5918-4e28-aed9-2ae02ffb0f1d"},"vehicle_type_id":"4","last_reported":1741295348,"current_range_meters":18000,"station_id":"ce4bgv12rcd13ifvqcp0","pricing_plan_id":"cebpf4jnsgd1na2vs0mg"},{"bike_id":"64aee591-3971-4972-97c5-3fe3d3278826","system_id":"levelo_inurba_marseille","lat":43.308796,"lon":5.396517,"is_reserved":false,"is_disabled":false,"rental_uris":{"android":"levelo://app?vid=64aee591-3971-4972-97c5-3fe3d3278826","ios":"levelo://app?vid=64aee591-3971-4972-97c5-3fe3d3278826"},"vehicle_type_id":"4","last_reported":1741295348,"current_range_meters":18000,"station_id":"ce4bh012rcd13ifvqcv0","pricing_plan_id":"cebpf4jnsgd1na2vs0mg"},{"bike_id":"d8cc96c1-c1e2-4a86-bb47-f72a628806c6","system_id":"levelo_inurba_marseille","lat":43.28692,"lon":5.37389,"is_reserved":false,"is_disabled":false,"rental_uris":{"android":"levelo://app?vid=d8cc96c1-c1e2-4a86-bb47-f72a628806c6","ios":"levelo://app?vid=d8cc96c1-c1e2-4a86-bb47-f72a628806c6"},"vehicle_type_id":"4","last_reported":1741295348,"current_range_meters":18000,"station_id":"ce4bh3p2rcd13ifvqdq0","pricing_plan_id":"cebpf4jnsgd1na2vs0mg"},{"bike_id":"a20ecd9b-c412-4953-9cc5-0ca9354c3bf7","system_id":"levelo_inurba_marseille","lat":43.27939,"lon":5.39602,"is_reserved":false,"is_disabled":false,"rental_uris":{"android":"levelo://app?vid=a20ecd9b-c412-4953-9cc5-0ca9354c3bf7","ios":"levelo://app?vid=a20ecd9b-c412-4953-9cc5-0ca9354c3bf7"},"vehicle_type_id":"4","last_reported":1741295348,"current_range_meters":18000,"station_id":"ce4bhf92rcd13ifvqf40","pricing_plan_id":"cebpf4jnsgd1na2vs0mg"},{"bike_id":"975fa86d-1215-4f11-9def-f80adfd3d7ee","system_id":"levelo_inurba_marseille","lat":43.25576,"lon":5.38228,"is_reserved":false,"is_disabled":false,"rental_uris":{"android":"levelo://app?vid=975fa86d-1215-4f11-9def-f80adfd3d7ee","ios":"levelo://app?vid=975fa86d-1215-4f11-9def-f80adfd3d7ee"},"vehicle_type_id":"4","last_reported":1741295348,"current_range_meters":18000,"station_id":"ce4bhih2rcd13ifvqfs0","pricing_plan_id":"cebpf4jnsgd1na2vs0mg"},{"bike_id":"db1c7047-7b9f-4b56-96ef-3b289cb537df","system_id":"levelo_inurba_marseille","lat":43.30827,"lon":5.37423,"is_reserved":false,"is_disabled":false,"rental_uris":{"android":"levelo://app?vid=db1c7047-7b9f-4b56-96ef-3b289cb537df","ios":"levelo://app?vid=db1c7047-7b9f-4b56-96ef-3b289cb537df"},"vehicle_type_id":"4","last_reported":1741295348,"current_range_meters":18800,"station_id":"","pricing_plan_id":"cebpf4jnsgd1na2vs0mg"},{"bike_id":"94bb4b42-765a-4dcc-84e5-1e56175a727a","system_id":"levelo_inurba_marseille","lat":43.33759,"lon":5.37432,"is_reserved":false,"is_disabled":false,"rental_uris":{"android":"levelo://app?vid=94bb4b42-765a-4dcc-84e5-1e56175a727a","ios":"levelo://app?vid=94bb4b42-765a-4dcc-84e5-1e56175a727a"},"vehicle_type_id":"4","last_reported":1741295348,"current_range_meters":18800,"station_id":"","pricing_plan_id":"cebpf4jnsgd1na2vs0mg"},{"bike_id":"2583e770-3609-492c-a925-131f9b4570e3","system_id":"levelo_inurba_marseille","lat":43.299241,"lon":5.37471,"is_reserved":false,"is_disabled":false,"rental_uris":{"android":"levelo://app?vid=2583e770-3609-492c-a925-131f9b4570e3","ios":"levelo://app?vid=2583e770-3609-492c-a925-131f9b4570e3"},"vehicle_type_id":"4","last_reported":1741295348,"current_range_meters":18800,"station_id":"ce4bgjh2rcd13ifvqbg0","pricing_plan_id":"cebpf4jnsgd1na2vs0mg"},{"bike_id":"9f2bb1f2-e121-4a2a-b7f3-951325add88a","system_id":"levelo_inurba_marseille","lat":43.30093,"lon":5.39076,"is_reserved":false,"is_disabled":false,"rental_uris":{"android":"levelo://app?vid=9f2bb1f2-e121-4a2a-b7f3-951325add88a","ios":"levelo://app?vid=9f2bb1f2-e121-4a2a-b7f3-951325add88a"},"vehicle_type_id":"4","last_reported":1741295348,"current_range_meters":18800,"station_id":"ce4bh192rcd13ifvqdb0","pricing_plan_id":"cebpf4jnsgd1na2vs0mg"},{"bike_id":"8cb8a93a-b07b-4781-9fe6-60acd25d63d9","system_id":"levelo_inurba_marseille","lat":43.28847,"lon":5.35874,"is_reserved":false,"is_disabled":false,"rental_uris":{"android":"levelo://app?vid=8cb8a93a-b07b-4781-9fe6-60acd25d63d9","ios":"levelo://app?vid=8cb8a93a-b07b-4781-9fe6-60acd25d63d9"},"vehicle_type_id":"4","last_reported":1741295348,"current_range_meters":18800,"station_id":"ce4bhb12rcd13ifvqem0","pricing_plan_id":"cebpf4jnsgd1na2vs0mg"},{"bike_id":"f57f3f69-b9c6-4495-8b25-ff020cd0c112","system_id":"levelo_inurba_marseille","lat":43.27071,"lon":5.42279,"is_reserved":false,"is_disabled":false,"rental_uris":{"android":"levelo://app?vid=f57f3f69-b9c6-4495-8b25-ff020cd0c112","ios":"levelo://app?vid=f57f3f69-b9c6-4495-8b25-ff020cd0c112"},"vehicle_type_id":"4","last_reported":1741295348,"current_range_meters":18800,"station_id":"ce4bhk92rcd13ifvqgb0","pricing_plan_id":"cebpf4jnsgd1na2vs0mg"},{"bike_id":"fd6296bd-f750-4893-b30b-28489933da7e","system_id":"levelo_inurba_marseille","lat":43.2406,"lon":5.37756,"is_reserved":false,"is_disabled":false,"rental_uris":{"android":"levelo://app?vid=fd6296bd-f750-4893-b30b-28489933da7e","ios":"levelo://app?vid=fd6296bd-f750-4893-b30b-28489933da7e"},"vehicle_type_id":"4","last_reported":1741295348,"current_range_meters":18800,"station_id":"ce4bhnp2rcd13ifvqgvg","pricing_plan_id":"cebpf4jnsgd1na2vs0mg"},{"bike_id":"34fca5e7-8353-4d68-89e6-b1d671353da7","system_id":"levelo_inurba_marseille","lat":43.32366,"lon":5.38888,"is_reserved":false,"is_disabled":false,"rental_uris":{"android":"levelo://app?vid=34fca5e7-8353-4d68-89e6-b1d671353da7","ios":"levelo://app?vid=34fca5e7-8353-4d68-89e6-b1d671353da7"},"vehicle_type_id":"4","last_reported":1741295348,"current_range_meters":18800,"station_id":"ce4bhqp2rcd13ifvqhog","pricing_plan_id":"cebpf4jnsgd1na2vs0mg"},{"bike_id":"cd05325e-0268-495e-8a07-58124158f18e","system_id":"levelo_inurba_marseille","lat":43.28731,"lon":5.36081,"is_reserved":false,"is_disabled":false,"rental_uris":{"android":"levelo://app?vid=cd05325e-0268-495e-8a07-58124158f18e","ios":"levelo://app?vid=cd05325e-0268-495e-8a07-58124158f18e"},"vehicle_type_id":"4","last_reported":1741295348,"current_range_meters":18800,"station_id":"cki0cbj6b192h4jlfktg","pricing_plan_id":"cebpf4jnsgd1na2vs0mg"},{"bike_id":"2d2e4fab-e8c6-43dc-ae7d-34729409b6c2","system_id":"levelo_inurba_marseille","lat":43.282608,"lon":5.350687,"is_reserved":false,"is_disabled":false,"rental_uris":{"android":"levelo://app?vid=2d2e4fab-e8c6-43dc-ae7d-34729409b6c2","ios":"levelo://app?vid=2d2e4fab-e8c6-43dc-ae7d-34729409b6c2"},"vehicle_type_id":"4","last_reported":1741295348,"current_range_meters":19200,"station_id":"ce4bgk12rcd13ifvqbj0","pricing_plan_id":"cebpf4jnsgd1na2vs0mg"},{"bike_id":"3093899b-a870-4dca-9404-d6e96a3b872e","system_id":"levelo_inurba_marseille","lat":43.31491,"lon":5.37311,"is_reserved":false,"is_disabled":false,"rental_uris":{"android":"levelo://app?vid=3093899b-a870-4dca-9404-d6e96a3b872e","ios":"levelo://app?vid=3093899b-a870-4dca-9404-d6e96a3b872e"},"vehicle_type_id":"4","last_reported":1741295348,"current_range_meters":19200,"station_id":"ce4bgt12rcd13ifvqcd0","pricing_plan_id":"cebpf4jnsgd1na2vs0mg"},{"bike_id":"a73c26bb-2cb5-447d-bd3a-b4255d793277","system_id":"levelo_inurba_marseille","lat":43.307999,"lon":5.381551,"is_reserved":false,"is_disabled":false,"rental_uris":{"android":"levelo://app?vid=a73c26bb-2cb5-447d-bd3a-b4255d793277","ios":"levelo://app?vid=a73c26bb-2cb5-447d-bd3a-b4255d793277"},"vehicle_type_id":"4","last_reported":1741295348,"current_range_meters":19200,"station_id":"ce4bgvp2rcd13ifvqct0","pricing_plan_id":"cebpf4jnsgd1na2vs0mg"},{"bike_id":"42b43d64-f312-4ca8-ba23-51a15941154e","system_id":"levelo_inurba_marseille","lat":43.30099,"lon":5.39068,"is_reserved":false,"is_disabled":false,"rental_uris":{"android":"levelo://app?vid=42b43d64-f312-4ca8-ba23-51a15941154e","ios":"levelo://app?vid=42b43d64-f312-4ca8-ba23-51a15941154e"},"vehicle_type_id":"4","last_reported":1741295348,"current_range_meters":19200,"station_id":"ce4bh192rcd13ifvqdb0","pricing_plan_id":"cebpf4jnsgd1na2vs0mg"},{"bike_id":"7346a75e-1116-4293-a968-89450b7306a3","system_id":"levelo_inurba_marseille","lat":43.28352,"lon":5.38098,"is_reserved":false,"is_disabled":false,"rental_uris":{"android":"levelo://app?vid=7346a75e-1116-4293-a968-89450b7306a3","ios":"levelo://app?vid=7346a75e-1116-4293-a968-89450b7306a3"},"vehicle_type_id":"4","last_reported":1741295348,"current_range_meters":19200,"station_id":"ce4bh412rcd13ifvqdr0","pricing_plan_id":"cebpf4jnsgd1na2vs0mg"},{"bike_id":"9d5c1636-cced-49ce-85d8-185ca567a8d4","system_id":"levelo_inurba_marseille","lat":43.28113,"lon":5.37857,"is_reserved":false,"is_disabled":false,"rental_uris":{"android":"levelo://app?vid=9d5c1636-cced-49ce-85d8-185ca567a8d4","ios":"levelo://app?vid=9d5c1636-cced-49ce-85d8-185ca567a8d4"},"vehicle_type_id":"4","last_reported":1741295348,"current_range_meters":19200,"station_id":"ce4bha12rcd13ifvqee0","pricing_plan_id":"cebpf4jnsgd1na2vs0mg"},{"bike_id":"49a752f3-9985-4360-a13c-98c3cb8b8d26","system_id":"levelo_inurba_marseille","lat":43.28718,"lon":5.36391,"is_reserved":false,"is_disabled":false,"rental_uris":{"android":"levelo://app?vid=49a752f3-9985-4360-a13c-98c3cb8b8d26","ios":"levelo://app?vid=49a752f3-9985-4360-a13c-98c3cb8b8d26"},"vehicle_type_id":"4","last_reported":1741295348,"current_range_meters":19200,"station_id":"ce4bhah2rcd13ifvqej0","pricing_plan_id":"cebpf4jnsgd1na2vs0mg"},{"bike_id":"90423b28-b45b-4323-a181-783f8e83fac7","system_id":"levelo_inurba_marseille","lat":43.27424,"lon":5.39419,"is_reserved":false,"is_disabled":false,"rental_uris":{"android":"levelo://app?vid=90423b28-b45b-4323-a181-783f8e83fac7","ios":"levelo://app?vid=90423b28-b45b-4323-a181-783f8e83fac7"},"vehicle_type_id":"4","last_reported":1741295348,"current_range_meters":19200,"station_id":"ce4bhdp2rcd13ifvqf20","pricing_plan_id":"cebpf4jnsgd1na2vs0mg"},{"bike_id":"e1978b44-7d2c-422d-a5ab-2b709c03cfb4","system_id":"levelo_inurba_marseille","lat":43.26783,"lon":5.39417,"is_reserved":false,"is_disabled":false,"rental_uris":{"android":"levelo://app?vid=e1978b44-7d2c-422d-a5ab-2b709c03cfb4","ios":"levelo://app?vid=e1978b44-7d2c-422d-a5ab-2b709c03cfb4"},"vehicle_type_id":"4","last_reported":1741295348,"current_range_meters":19200,"station_id":"ce4bhh12rcd13ifvqfg0","pricing_plan_id":"cebpf4jnsgd1na2vs0mg"},{"bike_id":"a6e11bd9-eb36-470d-b7d0-2abdd5b0b4f1","system_id":"levelo_inurba_marseille","lat":43.26788,"lon":5.39417,"is_reserved":false,"is_disabled":false,"rental_uris":{"android":"levelo://app?vid=a6e11bd9-eb36-470d-b7d0-2abdd5b0b4f1","ios":"levelo://app?vid=a6e11bd9-eb36-470d-b7d0-2abdd5b0b4f1"},"vehicle_type_id":"4","last_reported":1741295348,"current_range_meters":19200,"station_id":"ce4bhh12rcd13ifvqfg0","pricing_plan_id":"cebpf4jnsgd1na2vs0mg"},{"bike_id":"62cc9b3b-4219-4111-9b62-7b3dc93384ed","system_id":"levelo_inurba_marseille","lat":43.27809,"lon":5.40713,"is_reserved":false,"is_disabled":false,"rental_uris":{"android":"levelo://app?vid=62cc9b3b-4219-4111-9b62-7b3dc93384ed","ios":"levelo://app?vid=62cc9b3b-4219-4111-9b62-7b3dc93384ed"},"vehicle_type_id":"4","last_reported":1741295348,"current_range_meters":19200,"station_id":"ce4bhnh2rcd13ifvqgtg","pricing_plan_id":"cebpf4jnsgd1na2vs0mg"},{"bike_id":"20aceef4-e0f6-43d7-a7f9-f6fd25b5798d","system_id":"levelo_inurba_marseille","lat":43.27944,"lon":5.41052,"is_reserved":false,"is_disabled":false,"rental_uris":{"android":"levelo://app?vid=20aceef4-e0f6-43d7-a7f9-f6fd25b5798d","ios":"levelo://app?vid=20aceef4-e0f6-43d7-a7f9-f6fd25b5798d"},"vehicle_type_id":"4","last_reported":1741295348,"current_range_meters":19200,"station_id":"ce4bhnp2rcd13ifvqh0g","pricing_plan_id":"cebpf4jnsgd1na2vs0mg"},{"bike_id":"c4c723cb-a07b-4be7-9352-175d996d4f95","system_id":"levelo_inurba_marseille","lat":43.27937,"lon":5.41053,"is_reserved":false,"is_disabled":false,"rental_uris":{"android":"levelo://app?vid=c4c723cb-a07b-4be7-9352-175d996d4f95","ios":"levelo://app?vid=c4c723cb-a07b-4be7-9352-175d996d4f95"},"vehicle_type_id":"4","last_reported":1741295348,"current_range_meters":19200,"station_id":"ce4bhnp2rcd13ifvqh0g","pricing_plan_id":"cebpf4jnsgd1na2vs0mg"},{"bike_id":"f092a08d-0e33-4628-b73b-f962a04e1675","system_id":"levelo_inurba_marseille","lat":43.2955,"lon":5.4229,"is_reserved":false,"is_disabled":false,"rental_uris":{"android":"levelo://app?vid=f092a08d-0e33-4628-b73b-f962a04e1675","ios":"levelo://app?vid=f092a08d-0e33-4628-b73b-f962a04e1675"},"vehicle_type_id":"4","last_reported":1741295348,"current_range_meters":19200,"station_id":"ce4bhph2rcd13ifvqhdg","pricing_plan_id":"cebpf4jnsgd1na2vs0mg"},{"bike_id":"1febbc94-cf8a-4a7e-900e-1f2ddb4b67c0","system_id":"levelo_inurba_marseille","lat":43.32346,"lon":5.40622,"is_reserved":false,"is_disabled":false,"rental_uris":{"android":"levelo://app?vid=1febbc94-cf8a-4a7e-900e-1f2ddb4b67c0","ios":"levelo://app?vid=1febbc94-cf8a-4a7e-900e-1f2ddb4b67c0"},"vehicle_type_id":"4","last_reported":1741295348,"current_range_meters":19200,"station_id":"ce4bhq92rcd13ifvqhjg","pricing_plan_id":"cebpf4jnsgd1na2vs0mg"},{"bike_id":"ed87f7cf-6c6c-4f97-87fc-9dcd915ceef2","system_id":"levelo_inurba_marseille","lat":43.29577,"lon":5.36738,"is_reserved":false,"is_disabled":false,"rental_uris":{"android":"levelo://app?vid=ed87f7cf-6c6c-4f97-87fc-9dcd915ceef2","ios":"levelo://app?vid=ed87f7cf-6c6c-4f97-87fc-9dcd915ceef2"},"vehicle_type_id":"4","last_reported":1741295348,"current_range_meters":19600,"station_id":"ce4bgph2rcd13ifvqc2g","pricing_plan_id":"cebpf4jnsgd1na2vs0mg"},{"bike_id":"1f7c4bb1-0194-47d1-be3c-0a052d75d078","system_id":"levelo_inurba_marseille","lat":43.30879,"lon":5.39634,"is_reserved":false,"is_disabled":false,"rental_uris":{"android":"levelo://app?vid=1f7c4bb1-0194-47d1-be3c-0a052d75d078","ios":"levelo://app?vid=1f7c4bb1-0194-47d1-be3c-0a052d75d078"},"vehicle_type_id":"4","last_reported":1741295348,"current_range_meters":19600,"station_id":"ce4bh012rcd13ifvqcv0","pricing_plan_id":"cebpf4jnsgd1na2vs0mg"},{"bike_id":"3f452710-faf9-4b8b-97e9-8d2d0f31e0e5","system_id":"levelo_inurba_marseille","lat":43.27904,"lon":5.38013,"is_reserved":false,"is_disabled":false,"rental_uris":{"android":"levelo://app?vid=3f452710-faf9-4b8b-97e9-8d2d0f31e0e5","ios":"levelo://app?vid=3f452710-faf9-4b8b-97e9-8d2d0f31e0e5"},"vehicle_type_id":"4","last_reported":1741295348,"current_range_meters":19600,"station_id":"ce4bhf92rcd13ifvqf50","pricing_plan_id":"cebpf4jnsgd1na2vs0mg"},{"bike_id":"9a062110-a8d9-4262-8540-007c07fd1a3b","system_id":"levelo_inurba_marseille","lat":43.23185,"lon":5.39989,"is_reserved":false,"is_disabled":false,"rental_uris":{"android":"levelo://app?vid=9a062110-a8d9-4262-8540-007c07fd1a3b","ios":"levelo://app?vid=9a062110-a8d9-4262-8540-007c07fd1a3b"},"vehicle_type_id":"4","last_reported":1741295348,"current_range_meters":19600,"station_id":"ce4bhn12rcd13ifvqgqg","pricing_plan_id":"cebpf4jnsgd1na2vs0mg"},{"bike_id":"3f7e49c9-d7ff-472d-a524-21324463a272","system_id":"levelo_inurba_marseille","lat":43.27996,"lon":5.41666,"is_reserved":false,"is_disabled":false,"rental_uris":{"android":"levelo://app?vid=3f7e49c9-d7ff-472d-a524-21324463a272","ios":"levelo://app?vid=3f7e49c9-d7ff-472d-a524-21324463a272"},"vehicle_type_id":"4","last_reported":1741295348,"current_range_meters":19600,"station_id":"ce4bho12rcd13ifvqh1g","pricing_plan_id":"cebpf4jnsgd1na2vs0mg"},{"bike_id":"3c28a72f-782e-488d-97d6-904d649b8f74","system_id":"levelo_inurba_marseille","lat":43.30803,"lon":5.43519,"is_reserved":false,"is_disabled":false,"rental_uris":{"android":"levelo://app?vid=3c28a72f-782e-488d-97d6-904d649b8f74","ios":"levelo://app?vid=3c28a72f-782e-488d-97d6-904d649b8f74"},"vehicle_type_id":"4","last_reported":1741295348,"current_range_meters":19600,"station_id":"ce4bhph2rcd13ifvqheg","pricing_plan_id":"cebpf4jnsgd1na2vs0mg"},{"bike_id":"e22bce5e-ea11-40bd-bfe4-d3806f875350","system_id":"levelo_inurba_marseille","lat":43.31883,"lon":5.40743,"is_reserved":false,"is_disabled":false,"rental_uris":{"android":"levelo://app?vid=e22bce5e-ea11-40bd-bfe4-d3806f875350","ios":"levelo://app?vid=e22bce5e-ea11-40bd-bfe4-d3806f875350"},"vehicle_type_id":"4","last_reported":1741295348,"current_range_meters":19600,"station_id":"ce4bhq12rcd13ifvqhig","pricing_plan_id":"cebpf4jnsgd1na2vs0mg"},{"bike_id":"56e9c628-c991-4450-841b-d645b73d372a","system_id":"levelo_inurba_marseille","lat":43.31076,"lon":5.38361,"is_reserved":false,"is_disabled":false,"rental_uris":{"android":"levelo://app?vid=56e9c628-c991-4450-841b-d645b73d372a","ios":"levelo://app?vid=56e9c628-c991-4450-841b-d645b73d372a"},"vehicle_type_id":"4","last_reported":1741295348,"current_range_meters":20000,"station_id":"ce4bgv92rcd13ifvqcr0","pricing_plan_id":"cebpf4jnsgd1na2vs0mg"},{"bike_id":"b9f8c978-8781-47f3-9964-41dd36ce7c94","system_id":"levelo_inurba_marseille","lat":43.284578,"lon":5.35883,"is_reserved":false,"is_disabled":false,"rental_uris":{"android":"levelo://app?vid=b9f8c978-8781-47f3-9964-41dd36ce7c94","ios":"levelo://app?vid=b9f8c978-8781-47f3-9964-41dd36ce7c94"},"vehicle_type_id":"4","last_reported":1741295348,"current_range_meters":20000,"station_id":"ce4bhah2rcd13ifvqei0","pricing_plan_id":"cebpf4jnsgd1na2vs0mg"},{"bike_id":"4d88faaa-6717-4537-86fb-934d4272e02f","system_id":"levelo_inurba_marseille","lat":43.28464,"lon":5.35889,"is_reserved":false,"is_disabled":false,"rental_uris":{"android":"levelo://app?vid=4d88faaa-6717-4537-86fb-934d4272e02f","ios":"levelo://app?vid=4d88faaa-6717-4537-86fb-934d4272e02f"},"vehicle_type_id":"4","last_reported":1741295348,"current_range_meters":20000,"station_id":"ce4bhah2rcd13ifvqei0","pricing_plan_id":"cebpf4jnsgd1na2vs0mg"},{"bike_id":"bc21bc40-de3c-4430-b408-aa657f224289","system_id":"levelo_inurba_marseille","lat":43.2757,"lon":5.38434,"is_reserved":false,"is_disabled":false,"rental_uris":{"android":"levelo://app?vid=bc21bc40-de3c-4430-b408-aa657f224289","ios":"levelo://app?vid=bc21bc40-de3c-4430-b408-aa657f224289"},