{"last_updated":1690556822,"ttl":30,"version":"2.2","data":{"bikes":[{"bike_id":"6555168a-0b24-43b8-bf40-952c5bbd42d8","system_id":"levelo_inurba_marseille","lat":43.31223,"lon":5.36842,"is_reserved":false,"is_disabled":false,"rental_uris":{"android":"levelo://app?vid=6555168a-0b24-43b8-bf40-952c5bbd42d8","ios":"levelo://app?vid=6555168a-0b24-43b8-bf40-952c5bbd42d8"},"vehicle_type_id":"4","last_reported":1690556823,"current_range_meters":29200,"station_id":"ce4bgl92rcd13ifvqbq0","pricing_plan_id":"free"},{"bike_id":"e526d4e2-849c-44ae-a0d7-5572a62df909","system_id":"levelo_inurba_marseille","lat":43.312239,"lon":5.368562,"is_reserved":false,"is_disabled":false,"rental_uris":{"android":"levelo://app?vid=e526d4e2-849c-44ae-a0d7-5572a62df909","ios":"levelo://app?vid=e526d4e2-849c-44ae-a0d7-5572a62df909"},"vehicle_type_id":"4","last_reported":1690556823,"current_range_meters":31200,"station_id":"ce4bgl92rcd13ifvqbq0","pricing_plan_id":"free"},{"bike_id":"bc0b57b2-775e-492c-b47f-539abaf69841","system_id":"levelo_inurba_marseille","lat":43.309076,"lon":5.368465,"is_reserved":false,"is_disabled":false,"rental_uris":{"android":"levelo://app?vid=bc0b57b2-775e-492c-b47f-539abaf69841","ios":"levelo://app?vid=bc0b57b2-775e-492c-b47f-539abaf69841"},"vehicle_type_id":"4","last_reported":1690556823,"current_range_meters":11200,"station_id":"ce4bgn92rcd13ifvqbvg","pricing_plan_id":"free"},{"bike_id":"f688cb07-6a23-4877-8004-8ed1ccb71172","system_id":"levelo_inurba_marseille","lat":43.3148,"lon":5.37305,"is_reserved":false,"is_disabled":false,"rental_uris":{"android":"levelo://app?vid=f688cb07-6a23-4877-8004-8ed1ccb71172","ios":"levelo://app?vid=f688cb07-6a23-4877-8004-8ed1ccb71172"},"vehicle_type_id":"4","last_reported":1690556823,"current_range_meters":30800,"station_id":"","pricing_plan_id":"free"},{"bike_id":"7a7b855e-8c83-4f3e-896d-b14cd90614ac","system_id":"levelo_inurba_marseille","lat":43.314811,"lon":5.373104,"is_reserved":false,"is_disabled":false,"rental_uris":{"android":"levelo://app?vid=7a7b855e-8c83-4f3e-896d-b14cd90614ac","ios":"levelo://app?vid=7a7b855e-8c83-4f3e-896d-b14cd90614ac"},"vehicle_type_id":"4","last_reported":1690556823,"current_range_meters":25200,"station_id":"ce4bgt12rcd13ifvqcd0","pricing_plan_id":"free"},{"bike_id":"27ec7b46-3530-478c-bae0-ee788957b520","system_id":"levelo_inurba_marseille","lat":43.314811,"lon":5.373103,"is_reserved":false,"is_disabled":false,"rental_uris":{"android":"levelo://app?vid=27ec7b46-3530-478c-bae0-ee788957b520","ios":"levelo://app?vid=27ec7b46-3530-478c-bae0-ee788957b520"},"vehicle_type_id":"4","last_reported":1690556823,"current_range_meters":30800,"station_id":"ce4bgt12rcd13ifvqcd0","pricing_plan_id":"free"},{"bike_id":"b8aedb1a-0589-4935-aa76-e86554117b93","system_id":"levelo_inurba_marseille","lat":43.314811,"lon":5.373104,"is_reserved":false,"is_disabled":false,"rental_uris":{"android":"levelo://app?vid=b8aedb1a-0589-4935-aa76-e86554117b93","ios":"levelo://app?vid=b8aedb1a-0589-4935-aa76-e86554117b93"},"vehicle_type_id":"4","last_reported":1690556823,"current_range_meters":15200,"station_id":"ce4bgt12rcd13ifvqcd0","pricing_plan_id":"free"},{"bike_id":"bedcb132-deb2-427a-a844-ca444f9cd1f0","system_id":"levelo_inurba_marseille","lat":43.314811,"lon":5.373104,"is_reserved":false,"is_disabled":false,"rental_uris":{"android":"levelo://app?vid=bedcb132-deb2-427a-a844-ca444f9cd1f0","ios":"levelo://app?vid=bedcb132-deb2-427a-a844-ca444f9cd1f0"},"vehicle_type_id":"4","last_reported":1690556823,"current_range_meters":17600,"station_id":"ce4bgt12rcd13ifvqcd0","pricing_plan_id":"free"},{"bike_id":"6755d64d-bcd2-4f57-9113-4c508be41006","system_id":"levelo_inurba_marseille","lat":43.314811,"lon":5.373104,"is_reserved":false,"is_disabled":false,"rental_uris":{"android":"levelo://app?vid=6755d64d-bcd2-4f57-9113-4c508be41006","ios":"levelo://app?vid=6755d64d-bcd2-4f57-9113-4c508be41006"},"vehicle_type_id":"4","last_reported":1690556823,"current_range_meters":31200,"station_id":"ce4bgt12rcd13ifvqcd0","pricing_plan_id":"free"},{"bike_id":"2797f03b-c120-4bb8-9a32-deae2f326007","system_id":"levelo_inurba_marseille","lat":43.31878,"lon":5.36767,"is_reserved":false,"is_disabled":false,"rental_uris":{"android":"levelo://app?vid=2797f03b-c120-4bb8-9a32-deae2f326007","ios":"levelo://app?vid=2797f03b-c120-4bb8-9a32-deae2f326007"},"vehicle_type_id":"4","last_reported":1690556823,"current_range_meters":21600,"station_id":"","pricing_plan_id":"free"},{"bike_id":"5134f3a7-45cd-4dcf-9492-efccb5365e49","system_id":"levelo_inurba_marseille","lat":43.305706,"lon":5.365654,"is_reserved":false,"is_disabled":false,"rental_uris":{"android":"levelo://app?vid=5134f3a7-45cd-4dcf-9492-efccb5365e49","ios":"levelo://app?vid=5134f3a7-45cd-4dcf-9492-efccb5365e49"},"vehicle_type_id":"4","last_reported":1690556823,"current_range_meters":14000,"station_id":"ce4bgs12rcd13ifvqcag","pricing_plan_id":"free"},{"bike_id":"78eb1c4b-4741-4839-a06d-9bfca46a1f28","system_id":"levelo_inurba_marseille","lat":43.305706,"lon":5.365654,"is_reserved":false,"is_disabled":false,"rental_uris":{"android":"levelo://app?vid=78eb1c4b-4741-4839-a06d-9bfca46a1f28","ios":"levelo://app?vid=78eb1c4b-4741-4839-a06d-9bfca46a1f28"},"vehicle_type_id":"4","last_reported":1690556823,"current_range_meters":21600,"station_id":"ce4bgs12rcd13ifvqcag","pricing_plan_id":"free"},{"bike_id":"3f10b3d6-8a00-48fc-9ff3-428bddd1b36a","system_id":"levelo_inurba_marseille","lat":43.305706,"lon":5.365654,"is_reserved":false,"is_disabled":false,"rental_uris":{"android":"levelo://app?vid=3f10b3d6-8a00-48fc-9ff3-428bddd1b36a","ios":"levelo://app?vid=3f10b3d6-8a00-48fc-9ff3-428bddd1b36a"},"vehicle_type_id":"4","last_reported":1690556823,"current_range_meters":31200,"station_id":"ce4bgs12rcd13ifvqcag","pricing_plan_id":"free"},{"bike_id":"e99631de-3de9-46a6-8056-34408558bb94","system_id":"levelo_inurba_marseille","lat":43.305989,"lon":5.37225,"is_reserved":false,"is_disabled":false,"rental_uris":{"android":"levelo://app?vid=e99631de-3de9-46a6-8056-34408558bb94","ios":"levelo://app?vid=e99631de-3de9-46a6-8056-34408558bb94"},"vehicle_type_id":"4","last_reported":1690556823,"current_range_meters":28400,"station_id":"ce4bgqh2rcd13ifvqc4g","pricing_plan_id":"free"},{"bike_id":"f20ea888-8740-440b-bfeb-8eb2a7c1f652","system_id":"levelo_inurba_marseille","lat":43.305989,"lon":5.37225,"is_reserved":false,"is_disabled":false,"rental_uris":{"android":"levelo://app?vid=f20ea888-8740-440b-bfeb-8eb2a7c1f652","ios":"levelo://app?vid=f20ea888-8740-440b-bfeb-8eb2a7c1f652"},"vehicle_type_id":"4","last_reported":1690556823,"current_range_meters":31200,"station_id":"ce4bgqh2rcd13ifvqc4g","pricing_plan_id":"free"},{"bike_id":"ca095f24-cc8a-4862-80d7-c0e1fd129d39","system_id":"levelo_inurba_marseille","lat":43.305989,"lon":5.37225,"is_reserved":false,"is_disabled":false,"rental_uris":{"android":"levelo://app?vid=ca095f24-cc8a-4862-80d7-c0e1fd129d39","ios":"levelo://app?vid=ca095f24-cc8a-4862-80d7-c0e1fd129d39"},"vehicle_type_id":"4","last_reported":1690556823,"current_range_meters":30400,"station_id":"ce4bgqh2rcd13ifvqc4g","pricing_plan_id":"free"},{"bike_id":"5eb85d80-c06a-4f25-bd81-c53b2d295275","system_id":"levelo_inurba_marseille","lat":43.307945,"lon":5.376487,"is_reserved":false,"is_disabled":false,"rental_uris":{"android":"levelo://app?vid=5eb85d80-c06a-4f25-bd81-c53b2d295275","ios":"levelo://app?vid=5eb85d80-c06a-4f25-bd81-c53b2d295275"},"vehicle_type_id":"4","last_reported":1690556823,"current_range_meters":26800,"station_id":"ce4bgv92rcd13ifvqcq0","pricing_plan_id":"free"},{"bike_id":"0814e5f6-f00c-452e-9900-835399e75aca","system_id":"levelo_inurba_marseille","lat":43.307945,"lon":5.376487,"is_reserved":false,"is_disabled":false,"rental_uris":{"android":"levelo://app?vid=0814e5f6-f00c-452e-9900-835399e75aca","ios":"levelo://app?vid=0814e5f6-f00c-452e-9900-835399e75aca"},"vehicle_type_id":"4","last_reported":1690556823,"current_range_meters":24800,"station_id":"ce4bgv92rcd13ifvqcq0","pricing_plan_id":"free"},{"bike_id":"e4d96bfd-011b-4b15-b32a-787cd487e5c9","system_id":"levelo_inurba_marseille","lat":43.30783,"lon":5.3765,"is_reserved":false,"is_disabled":false,"rental_uris":{"android":"levelo://app?vid=e4d96bfd-011b-4b15-b32a-787cd487e5c9","ios":"levelo://app?vid=e4d96bfd-011b-4b15-b32a-787cd487e5c9"},"vehicle_type_id":"4","last_reported":1690556823,"current_range_meters":0,"station_id":"ce4bgv92rcd13ifvqcq0","pricing_plan_id":"free"},{"bike_id":"c768304f-7375-446e-ab34-ecfb3e1019ab","system_id":"levelo_inurba_marseille","lat":43.30777,"lon":5.37654,"is_reserved":false,"is_disabled":false,"rental_uris":{"android":"levelo://app?vid=c768304f-7375-446e-ab34-ecfb3e1019ab","ios":"levelo://app?vid=c768304f-7375-446e-ab34-ecfb3e1019ab"},"vehicle_type_id":"4","last_reported":1690556823,"current_range_meters":800,"station_id":"ce4bgv92rcd13ifvqcq0","pricing_plan_id":"free"},{"bike_id":"c47c7af5-8140-46a3-a11e-4fb7fb0ab5cc","system_id":"levelo_inurba_marseille","lat":43.30779,"lon":5.37656,"is_reserved":false,"is_disabled":false,"rental_uris":{"android":"levelo://app?vid=c47c7af5-8140-46a3-a11e-4fb7fb0ab5cc","ios":"levelo://app?vid=c47c7af5-8140-46a3-a11e-4fb7fb0ab5cc"},"vehicle_type_id":"4","last_reported":1690556823,"current_range_meters":17600,"station_id":"ce4bgv92rcd13ifvqcq0","pricing_plan_id":"free"},{"bike_id":"542bdd3f-8324-4c52-b635-d451819ed430","system_id":"levelo_inurba_marseille","lat":43.317075,"lon":5.377367,"is_reserved":false,"is_disabled":false,"rental_uris":{"android":"levelo://app?vid=542bdd3f-8324-4c52-b635-d451819ed430","ios":"levelo://app?vid=542bdd3f-8324-4c52-b635-d451819ed430"},"vehicle_type_id":"4","last_reported":1690556823,"current_range_meters":30000,"station_id":"ce4bgth2rcd13ifvqch0","pricing_plan_id":"free"},{"bike_id":"1288a8f6-8aed-4f30-b787-22deaf254165","system_id":"levelo_inurba_marseille","lat":43.317075,"lon":5.377367,"is_reserved":false,"is_disabled":false,"rental_uris":{"android":"levelo://app?vid=1288a8f6-8aed-4f30-b787-22deaf254165","ios":"levelo://app?vid=1288a8f6-8aed-4f30-b787-22deaf254165"},"vehicle_type_id":"4","last_reported":1690556823,"current_range_meters":26000,"station_id":"ce4bgth2rcd13ifvqch0","pricing_plan_id":"free"},{"bike_id":"6e2e2551-5fc2-4310-a030-2cbdf0d6c7d7","system_id":"levelo_inurba_marseille","lat":43.30318,"lon":5.3689,"is_reserved":false,"is_disabled":false,"rental_uris":{"android":"levelo://app?vid=6e2e2551-5fc2-4310-a030-2cbdf0d6c7d7","ios":"levelo://app?vid=6e2e2551-5fc2-4310-a030-2cbdf0d6c7d7"},"vehicle_type_id":"4","last_reported":1690556823,"current_range_meters":16400,"station_id":"ce4bgqh2rcd13ifvqc5g","pricing_plan_id":"free"},{"bike_id":"17505507-ea35-4450-8c0a-8c035b32d16b","system_id":"levelo_inurba_marseille","lat":43.303046,"lon":5.368981,"is_reserved":false,"is_disabled":false,"rental_uris":{"android":"levelo://app?vid=17505507-ea35-4450-8c0a-8c035b32d16b","ios":"levelo://app?vid=17505507-ea35-4450-8c0a-8c035b32d16b"},"vehicle_type_id":"4","last_reported":1690556823,"current_range_meters":1200,"station_id":"ce4bgqh2rcd13ifvqc5g","pricing_plan_id":"free"},{"bike_id":"9dcf1ae2-99eb-41c8-a9d6-ccef7a60dd1e","system_id":"levelo_inurba_marseille","lat":43.31088,"lon":5.38303,"is_reserved":false,"is_disabled":false,"rental_uris":{"android":"levelo://app?vid=9dcf1ae2-99eb-41c8-a9d6-ccef7a60dd1e","ios":"levelo://app?vid=9dcf1ae2-99eb-41c8-a9d6-ccef7a60dd1e"},"vehicle_type_id":"4","last_reported":1690556823,"current_range_meters":12000,"station_id":"","pricing_plan_id":"free"},{"bike_id":"ad8bff4a-dfc6-4d75-9354-ba1c4ad6fed7","system_id":"levelo_inurba_marseille","lat":43.304606,"lon":5.379026,"is_reserved":false,"is_disabled":false,"rental_uris":{"android":"levelo://app?vid=ad8bff4a-dfc6-4d75-9354-ba1c4ad6fed7","ios":"levelo://app?vid=ad8bff4a-dfc6-4d75-9354-ba1c4ad6fed7"},"vehicle_type_id":"4","last_reported":1690556823,"current_range_meters":20000,"station_id":"ce4bgup2rcd13ifvqcn0","pricing_plan_id":"free"},{"bike_id":"8a4e0bf3-16be-4338-a1cb-72b3aeaa062f","system_id":"levelo_inurba_marseille","lat":43.304606,"lon":5.379026,"is_reserved":false,"is_disabled":false,"rental_uris":{"android":"levelo://app?vid=8a4e0bf3-16be-4338-a1cb-72b3aeaa062f","ios":"levelo://app?vid=8a4e0bf3-16be-4338-a1cb-72b3aeaa062f"},"vehicle_type_id":"4","last_reported":1690556823,"current_range_meters":31200,"station_id":"ce4bgup2rcd13ifvqcn0","pricing_plan_id":"free"},{"bike_id":"f6829799-aa80-4026-943b-7dbdde381695","system_id":"levelo_inurba_marseille","lat":43.304606,"lon":5.379026,"is_reserved":false,"is_disabled":false,"rental_uris":{"android":"levelo://app?vid=f6829799-aa80-4026-943b-7dbdde381695","ios":"levelo://app?vid=f6829799-aa80-4026-943b-7dbdde381695"},"vehicle_type_id":"4","last_reported":1690556823,"current_range_meters":28800,"station_id":"ce4bgup2rcd13ifvqcn0","pricing_plan_id":"free"},{"bike_id":"27c7d130-2ea1-4c9a-a6e3-27f0ce1af5bb","system_id":"levelo_inurba_marseille","lat":43.302784,"lon":5.377158,"is_reserved":false,"is_disabled":false,"rental_uris":{"android":"levelo://app?vid=27c7d130-2ea1-4c9a-a6e3-27f0ce1af5bb","ios":"levelo://app?vid=27c7d130-2ea1-4c9a-a6e3-27f0ce1af5bb"},"vehicle_type_id":"4","last_reported":1690556823,"current_range_meters":28000,"station_id":"ce4bguh2rcd13ifvqcj0","pricing_plan_id":"free"},{"bike_id":"38c38cfc-aa62-4225-9f17-d87ef41e7846","system_id":"levelo_inurba_marseille","lat":43.313571,"lon":5.384829,"is_reserved":false,"is_disabled":false,"rental_uris":{"android":"levelo://app?vid=38c38cfc-aa62-4225-9f17-d87ef41e7846","ios":"levelo://app?vid=38c38cfc-aa62-4225-9f17-d87ef41e7846"},"vehicle_type_id":"4","last_reported":1690556823,"current_range_meters":24000,"station_id":"ce4bgt92rcd13ifvqcf0","pricing_plan_id":"free"},{"bike_id":"8193baac-c333-465a-830d-9145b84fd077","system_id":"levelo_inurba_marseille","lat":43.298433,"lon":5.362774,"is_reserved":false,"is_disabled":false,"rental_uris":{"android":"levelo://app?vid=8193baac-c333-465a-830d-9145b84fd077","ios":"levelo://app?vid=8193baac-c333-465a-830d-9145b84fd077"},"vehicle_type_id":"4","last_reported":1690556823,"current_range_meters":26000,"station_id":"ce4bgpp2rcd13ifvqc3g","pricing_plan_id":"free"},{"bike_id":"f78f01cc-4f49-4695-beed-4ba3fa466190","system_id":"levelo_inurba_marseille","lat":43.2985,"lon":5.36289,"is_reserved":false,"is_disabled":false,"rental_uris":{"android":"levelo://app?vid=f78f01cc-4f49-4695-beed-4ba3fa466190","ios":"levelo://app?vid=f78f01cc-4f49-4695-beed-4ba3fa466190"},"vehicle_type_id":"4","last_reported":1690556823,"current_range_meters":800,"station_id":"","pricing_plan_id":"free"},{"bike_id":"0993b8a7-171c-47bd-a2af-150640a8aedf","system_id":"levelo_inurba_marseille","lat":43.298433,"lon":5.362774,"is_reserved":false,"is_disabled":false,"rental_uris":{"android":"levelo://app?vid=0993b8a7-171c-47bd-a2af-150640a8aedf","ios":"levelo://app?vid=0993b8a7-171c-47bd-a2af-150640a8aedf"},"vehicle_type_id":"4","last_reported":1690556823,"current_range_meters":18400,"station_id":"ce4bgpp2rcd13ifvqc3g","pricing_plan_id":"free"},{"bike_id":"814b6fdd-421c-4c98-a1bf-8f952973b487","system_id":"levelo_inurba_marseille","lat":43.299243,"lon":5.374807,"is_reserved":false,"is_disabled":false,"rental_uris":{"android":"levelo://app?vid=814b6fdd-421c-4c98-a1bf-8f952973b487","ios":"levelo://app?vid=814b6fdd-421c-4c98-a1bf-8f952973b487"},"vehicle_type_id":"4","last_reported":1690556823,"current_range_meters":30800,"station_id":"ce4bgjh2rcd13ifvqbg0","pricing_plan_id":"free"},{"bike_id":"30537d43-af02-4a10-b928-7b9b8cf633d2","system_id":"levelo_inurba_marseille","lat":43.30534,"lon":5.38427,"is_reserved":false,"is_disabled":false,"rental_uris":{"android":"levelo://app?vid=30537d43-af02-4a10-b928-7b9b8cf633d2","ios":"levelo://app?vid=30537d43-af02-4a10-b928-7b9b8cf633d2"},"vehicle_type_id":"4","last_reported":1690556823,"current_range_meters":30400,"station_id":"ce4bgg92rcd13ifvqb30","pricing_plan_id":"free"},{"bike_id":"5eed8e70-9b05-4f66-9d2f-015b775a4fb4","system_id":"levelo_inurba_marseille","lat":43.32285,"lon":5.3827,"is_reserved":false,"is_disabled":false,"rental_uris":{"android":"levelo://app?vid=5eed8e70-9b05-4f66-9d2f-015b775a4fb4","ios":"levelo://app?vid=5eed8e70-9b05-4f66-9d2f-015b775a4fb4"},"vehicle_type_id":"4","last_reported":1690556823,"current_range_meters":22800,"station_id":"ce4bhr12rcd13ifvqhqg","pricing_plan_id":"free"},{"bike_id":"a196dbb0-0ca2-44b0-8b03-b7d3a734d20c","system_id":"levelo_inurba_marseille","lat":43.32293,"lon":5.38262,"is_reserved":false,"is_disabled":false,"rental_uris":{"android":"levelo://app?vid=a196dbb0-0ca2-44b0-8b03-b7d3a734d20c","ios":"levelo://app?vid=a196dbb0-0ca2-44b0-8b03-b7d3a734d20c"},"vehicle_type_id":"4","last_reported":1690556823,"current_range_meters":31200,"station_id":"ce4bhr12rcd13ifvqhqg","pricing_plan_id":"free"},{"bike_id":"3641a761-0636-4e0b-b047-72e86565129d","system_id":"levelo_inurba_marseille","lat":43.322872,"lon":5.382756,"is_reserved":false,"is_disabled":false,"rental_uris":{"android":"levelo://app?vid=3641a761-0636-4e0b-b047-72e86565129d","ios":"levelo://app?vid=3641a761-0636-4e0b-b047-72e86565129d"},"vehicle_type_id":"4","last_reported":1690556823,"current_range_meters":31200,"station_id":"ce4bhr12rcd13ifvqhqg","pricing_plan_id":"free"},{"bike_id":"fead3f1e-e9e6-4830-9da4-e98cba309113","system_id":"levelo_inurba_marseille","lat":43.32295,"lon":5.38262,"is_reserved":false,"is_disabled":false,"rental_uris":{"android":"levelo://app?vid=fead3f1e-e9e6-4830-9da4-e98cba309113","ios":"levelo://app?vid=fead3f1e-e9e6-4830-9da4-e98cba309113"},"vehicle_type_id":"4","last_reported":1690556823,"current_range_meters":21200,"station_id":"ce4bhr12rcd13ifvqhqg","pricing_plan_id":"free"},{"bike_id":"71c77cb2-e00d-4df8-b3b7-334aff557498","system_id":"levelo_inurba_marseille","lat":43.322872,"lon":5.382756,"is_reserved":false,"is_disabled":false,"rental_uris":{"android":"levelo://app?vid=71c77cb2-e00d-4df8-b3b7-334aff557498","ios":"levelo://app?vid=71c77cb2-e00d-4df8-b3b7-334aff557498"},"vehicle_type_id":"4","last_reported":1690556823,"current_range_meters":29200,"station_id":"ce4bhr12rcd13ifvqhqg","pricing_plan_id":"free"},{"bike_id":"d6a0fed4-cb78-4fef-8536-2b5612ab4427","system_id":"levelo_inurba_marseille","lat":43.32353,"lon":5.38192,"is_reserved":false,"is_disabled":false,"rental_uris":{"android":"levelo://app?vid=d6a0fed4-cb78-4fef-8536-2b5612ab4427","ios":"levelo://app?vid=d6a0fed4-cb78-4fef-8536-2b5612ab4427"},"vehicle_type_id":"4","last_reported":1690556823,"current_range_meters":11600,"station_id":"","pricing_plan_id":"free"},{"bike_id":"4687bd85-9ab0-4844-b313-ec4d8c390bbc","system_id":"levelo_inurba_marseille","lat":43.32296,"lon":5.38266,"is_reserved":false,"is_disabled":false,"rental_uris":{"android":"levelo://app?vid=4687bd85-9ab0-4844-b313-ec4d8c390bbc","ios":"levelo://app?vid=4687bd85-9ab0-4844-b313-ec4d8c390bbc"},"vehicle_type_id":"4","last_reported":1690556823,"current_range_meters":31200,"station_id":"ce4bhr12rcd13ifvqhqg","pricing_plan_id":"free"},{"bike_id":"5fb4a1e5-47c6-4a18-bb81-b5e7bf9fb401","system_id":"levelo_inurba_marseille","lat":43.322872,"lon":5.382756,"is_reserved":false,"is_disabled":false,"rental_uris":{"android":"levelo://app?vid=5fb4a1e5-47c6-4a18-bb81-b5e7bf9fb401","ios":"levelo://app?vid=5fb4a1e5-47c6-4a18-bb81-b5e7bf9fb401"},"vehicle_type_id":"4","last_reported":1690556823,"current_range_meters":28400,"station_id":"ce4bhr12rcd13ifvqhqg","pricing_plan_id":"free"},{"bike_id":"82f1e03d-e4c3-4aac-b6f0-c9fc3950fe62","system_id":"levelo_inurba_marseille","lat":43.322929,"lon":5.382715,"is_reserved":false,"is_disabled":false,"rental_uris":{"android":"levelo://app?vid=82f1e03d-e4c3-4aac-b6f0-c9fc3950fe62","ios":"levelo://app?vid=82f1e03d-e4c3-4aac-b6f0-c9fc3950fe62"},"vehicle_type_id":"4","last_reported":1690556823,"current_range_meters":28800,"station_id":"","pricing_plan_id":"free"},{"bike_id":"79bf6da4-5f08-488b-96b1-6e23f74ec5ec","system_id":"levelo_inurba_marseille","lat":43.32297,"lon":5.38269,"is_reserved":false,"is_disabled":false,"rental_uris":{"android":"levelo://app?vid=79bf6da4-5f08-488b-96b1-6e23f74ec5ec","ios":"levelo://app?vid=79bf6da4-5f08-488b-96b1-6e23f74ec5ec"},"vehicle_type_id":"4","last_reported":1690556823,"current_range_meters":20000,"station_id":"ce4bhr12rcd13ifvqhqg","pricing_plan_id":"free"},{"bike_id":"190179ea-eb4c-407d-b5e8-538da91de430","system_id":"levelo_inurba_marseille","lat":43.328371,"lon":5.366909,"is_reserved":false,"is_disabled":false,"rental_uris":{"android":"levelo://app?vid=190179ea-eb4c-407d-b5e8-538da91de430","ios":"levelo://app?vid=190179ea-eb4c-407d-b5e8-538da91de430"},"vehicle_type_id":"4","last_reported":1690556823,"current_range_meters":16400,"station_id":"ce4bhs92rcd13ifvqi0g","pricing_plan_id":"free"},{"bike_id":"32706b1b-cdc0-43af-b630-8bc17792f4d5","system_id":"levelo_inurba_marseille","lat":43.328371,"lon":5.366909,"is_reserved":false,"is_disabled":false,"rental_uris":{"android":"levelo://app?vid=32706b1b-cdc0-43af-b630-8bc17792f4d5","ios":"levelo://app?vid=32706b1b-cdc0-43af-b630-8bc17792f4d5"},"vehicle_type_id":"4","last_reported":1690556823,"current_range_meters":30000,"station_id":"ce4bhs92rcd13ifvqi0g","pricing_plan_id":"free"},{"bike_id":"c95a2fd1-76d3-4785-b662-52d3eb1cb971","system_id":"levelo_inurba_marseille","lat":43.32832,"lon":5.36674,"is_reserved":false,"is_disabled":false,"rental_uris":{"android":"levelo://app?vid=c95a2fd1-76d3-4785-b662-52d3eb1cb971","ios":"levelo://app?vid=c95a2fd1-76d3-4785-b662-52d3eb1cb971"},"vehicle_type_id":"4","last_reported":1690556823,"current_range_meters":30000,"station_id":"ce4bhs92rcd13ifvqi0g","pricing_plan_id":"free"},{"bike_id":"38a433f8-eed9-48e2-839e-0ebb66e9bd1a","system_id":"levelo_inurba_marseille","lat":43.32834,"lon":5.36677,"is_reserved":false,"is_disabled":false,"rental_uris":{"android":"levelo://app?vid=38a433f8-eed9-48e2-839e-0ebb66e9bd1a","ios":"levelo://app?vid=38a433f8-eed9-48e2-839e-0ebb66e9bd1a"},"vehicle_type_id":"4","last_reported":1690556823,"current_range_meters":18000,"station_id":"ce4bhs92rcd13ifvqi0g","pricing_plan_id":"free"},{"bike_id":"dd789220-e7b5-42c1-b9dc-dc4243148021","system_id":"levelo_inurba_marseille","lat":43.297163,"lon":5.365866,"is_reserved":false,"is_disabled":false,"rental_uris":{"android":"levelo://app?vid=dd789220-e7b5-42c1-b9dc-dc4243148021","ios":"levelo://app?vid=dd789220-e7b5-42c1-b9dc-dc4243148021"},"vehicle_type_id":"4","last_reported":1690556823,"current_range_meters":31200,"station_id":"ce4bgn12rcd13ifvqbt0","pricing_plan_id":"free"},{"bike_id":"c7684ba8-678a-40f8-9602-44204f621e5f","system_id":"levelo_inurba_marseille","lat":43.296921,"lon":5.376579,"is_reserved":false,"is_disabled":false,"rental_uris":{"android":"levelo://app?vid=c7684ba8-678a-40f8-9602-44204f621e5f","ios":"levelo://app?vid=c7684ba8-678a-40f8-9602-44204f621e5f"},"vehicle_type_id":"4","last_reported":1690556823,"current_range_meters":16800,"station_id":"ce4bgkh2rcd13ifvqbl0","pricing_plan_id":"free"},{"bike_id":"92a1e032-5da9-4262-abe4-30a7c8f64ac6","system_id":"levelo_inurba_marseille","lat":43.296935,"lon":5.376544,"is_reserved":false,"is_disabled":false,"rental_uris":{"android":"levelo://app?vid=92a1e032-5da9-4262-abe4-30a7c8f64ac6","ios":"levelo://app?vid=92a1e032-5da9-4262-abe4-30a7c8f64ac6"},"vehicle_type_id":"4","last_reported":1690556823,"current_range_meters":16000,"station_id":"ce4bgkh2rcd13ifvqbl0","pricing_plan_id":"free"},{"bike_id":"80996baf-8597-4552-b66a-a0139bedf903","system_id":"levelo_inurba_marseille","lat":43.309502,"lon":5.390365,"is_reserved":false,"is_disabled":false,"rental_uris":{"android":"levelo://app?vid=80996baf-8597-4552-b66a-a0139bedf903","ios":"levelo://app?vid=80996baf-8597-4552-b66a-a0139bedf903"},"vehicle_type_id":"4","last_reported":1690556823,"current_range_meters":6000,"station_id":"","pricing_plan_id":"free"},{"bike_id":"96e0fb41-24a6-4b24-9c07-4333205ac99a","system_id":"levelo_inurba_marseille","lat":43.309589,"lon":5.390258,"is_reserved":false,"is_disabled":false,"rental_uris":{"android":"levelo://app?vid=96e0fb41-24a6-4b24-9c07-4333205ac99a","ios":"levelo://app?vid=96e0fb41-24a6-4b24-9c07-4333205ac99a"},"vehicle_type_id":"4","last_reported":1690556823,"current_range_meters":8400,"station_id":"ce4bgup2rcd13ifvqco0","pricing_plan_id":"free"},{"bike_id":"f0b1921d-8fc5-42f6-8214-26455e772ce5","system_id":"levelo_inurba_marseille","lat":43.309589,"lon":5.390258,"is_reserved":false,"is_disabled":false,"rental_uris":{"android":"levelo://app?vid=f0b1921d-8fc5-42f6-8214-26455e772ce5","ios":"levelo://app?vid=f0b1921d-8fc5-42f6-8214-26455e772ce5"},"vehicle_type_id":"4","last_reported":1690556823,"current_range_meters":28400,"station_id":"ce4bgup2rcd13ifvqco0","pricing_plan_id":"free"},{"bike_id":"a024c032-68fb-43cb-a068-b3749a6375c2","system_id":"levelo_inurba_marseille","lat":43.317557,"lon":5.390173,"is_reserved":false,"is_disabled":false,"rental_uris":{"android":"levelo://app?vid=a024c032-68fb-43cb-a068-b3749a6375c2","ios":"levelo://app?vid=a024c032-68fb-43cb-a068-b3749a6375c2"},"vehicle_type_id":"4","last_reported":1690556823,"current_range_meters":6400,"station_id":"ce4bhqp2rcd13ifvqhng","pricing_plan_id":"free"},{"bike_id":"19799d98-a880-4e65-bcc0-36988df15152","system_id":"levelo_inurba_marseille","lat":43.317557,"lon":5.390173,"is_reserved":false,"is_disabled":false,"rental_uris":{"android":"levelo://app?vid=19799d98-a880-4e65-bcc0-36988df15152","ios":"levelo://app?vid=19799d98-a880-4e65-bcc0-36988df15152"},"vehicle_type_id":"4","last_reported":1690556823,"current_range_meters":31200,"station_id":"ce4bhqp2rcd13ifvqhng","pricing_plan_id":"free"},{"bike_id":"4c21200a-f432-4436-87bc-3bae883532ba","system_id":"levelo_inurba_marseille","lat":43.317557,"lon":5.390173,"is_reserved":false,"is_disabled":false,"rental_uris":{"android":"levelo://app?vid=4c21200a-f432-4436-87bc-3bae883532ba","ios":"levelo://app?vid=4c21200a-f432-4436-87bc-3bae883532ba"},"vehicle_type_id":"4","last_reported":1690556823,"current_range_meters":31200,"station_id":"ce4bhqp2rcd13ifvqhng","pricing_plan_id":"free"},{"bike_id":"3bc8ea69-3e4d-4de1-b469-5d06bd458a4d","system_id":"levelo_inurba_marseille","lat":43.317557,"lon":5.390173,"is_reserved":false,"is_disabled":false,"rental_uris":{"android":"levelo://app?vid=3bc8ea69-3e4d-4de1-b469-5d06bd458a4d","ios":"levelo://app?vid=3bc8ea69-3e4d-4de1-b469-5d06bd458a4d"},"vehicle_type_id":"4","last_reported":1690556823,"current_range_meters":31200,"station_id":"ce4bhqp2rcd13ifvqhng","pricing_plan_id":"free"},{"bike_id":"5ba2f32f-dfdf-4c45-b8e5-808a2833d54c","system_id":"levelo_inurba_marseille","lat":43.317557,"lon":5.390173,"is_reserved":false,"is_disabled":false,"rental_uris":{"android":"levelo://app?vid=5ba2f32f-dfdf-4c45-b8e5-808a2833d54c","ios":"levelo://app?vid=5ba2f32f-dfdf-4c45-b8e5-808a2833d54c"},"vehicle_type_id":"4","last_reported":1690556823,"current_range_meters":25200,"station_id":"ce4bhqp2rcd13ifvqhng","pricing_plan_id":"free"},{"bike_id":"d46f5c83-1dc0-452f-8c41-c92874c6a336","system_id":"levelo_inurba_marseille","lat":43.295748,"lon":5.37522,"is_reserved":false,"is_disabled":false,"rental_uris":{"android":"levelo://app?vid=d46f5c83-1dc0-452f-8c41-c92874c6a336","ios":"levelo://app?vid=d46f5c83-1dc0-452f-8c41-c92874c6a336"},"vehicle_type_id":"4","last_reported":1690556823,"current_range_meters":6000,"station_id":"ce4bgh92rcd13ifvqb50","pricing_plan_id":"free"},{"bike_id":"e151d351-0ce2-4360-8d9a-64af6b34c15e","system_id":"levelo_inurba_marseille","lat":43.295279,"lon":5.375048,"is_reserved":false,"is_disabled":false,"rental_uris":{"android":"levelo://app?vid=e151d351-0ce2-4360-8d9a-64af6b34c15e","ios":"levelo://app?vid=e151d351-0ce2-4360-8d9a-64af6b34c15e"},"vehicle_type_id":"4","last_reported":1690556823,"current_range_meters":18400,"station_id":"ce4bgkp2rcd13ifvqbmg","pricing_plan_id":"free"},{"bike_id":"0b7a85b2-47d7-404d-8f74-68f8bdf9146a","system_id":"levelo_inurba_marseille","lat":43.295279,"lon":5.375048,"is_reserved":false,"is_disabled":false,"rental_uris":{"android":"levelo://app?vid=0b7a85b2-47d7-404d-8f74-68f8bdf9146a","ios":"levelo://app?vid=0b7a85b2-47d7-404d-8f74-68f8bdf9146a"},"vehicle_type_id":"4","last_reported":1690556823,"current_range_meters":19600,"station_id":"ce4bgkp2rcd13ifvqbmg","pricing_plan_id":"free"},{"bike_id":"f265d91c-5953-4840-9fbc-6cfb6b933edb","system_id":"levelo_inurba_marseille","lat":43.299717,"lon":5.384845,"is_reserved":false,"is_disabled":false,"rental_uris":{"android":"levelo://app?vid=f265d91c-5953-4840-9fbc-6cfb6b933edb","ios":"levelo://app?vid=f265d91c-5953-4840-9fbc-6cfb6b933edb"},"vehicle_type_id":"4","last_reported":1690556823,"current_range_meters":30400,"station_id":"ce4bgj92rcd13ifvqbd0","pricing_plan_id":"free"},{"bike_id":"04232233-ce93-49f4-b0f0-2b7e8ed96adb","system_id":"levelo_inurba_marseille","lat":43.29962,"lon":5.38502,"is_reserved":false,"is_disabled":false,"rental_uris":{"android":"levelo://app?vid=04232233-ce93-49f4-b0f0-2b7e8ed96adb","ios":"levelo://app?vid=04232233-ce93-49f4-b0f0-2b7e8ed96adb"},"vehicle_type_id":"4","last_reported":1690556823,"current_range_meters":18000,"station_id":"","pricing_plan_id":"free"},{"bike_id":"e8ea699a-d492-474f-b9eb-7ff7b0329692","system_id":"levelo_inurba_marseille","lat":43.295169,"lon":5.390426,"is_reserved":false,"is_disabled":false,"rental_uris":{"android":"levelo://app?vid=e8ea699a-d492-474f-b9eb-7ff7b0329692","ios":"levelo://app?vid=e8ea699a-d492-474f-b9eb-7ff7b0329692"},"vehicle_type_id":"4","last_reported":1690556823,"current_range_meters":17200,"station_id":"ce4bh3p2rcd13ifvqdp0","pricing_plan_id":"free"},{"bike_id":"635fd200-a384-4579-b6f7-7a19bcb25cf0","system_id":"levelo_inurba_marseille","lat":43.32367,"lon":5.388836,"is_reserved":false,"is_disabled":false,"rental_uris":{"android":"levelo://app?vid=635fd200-a384-4579-b6f7-7a19bcb25cf0","ios":"levelo://app?vid=635fd200-a384-4579-b6f7-7a19bcb25cf0"},"vehicle_type_id":"4","last_reported":1690556823,"current_range_meters":30000,"station_id":"ce4bhqp2rcd13ifvqhog","pricing_plan_id":"free"},{"bike_id":"a11c3915-0dcd-4fd8-a1cf-c0d020a74fad","system_id":"levelo_inurba_marseille","lat":43.32367,"lon":5.388836,"is_reserved":false,"is_disabled":false,"rental_uris":{"android":"levelo://app?vid=a11c3915-0dcd-4fd8-a1cf-c0d020a74fad","ios":"levelo://app?vid=a11c3915-0dcd-4fd8-a1cf-c0d020a74fad"},"vehicle_type_id":"4","last_reported":1690556823,"current_range_meters":22000,"station_id":"ce4bhqp2rcd13ifvqhog","pricing_plan_id":"free"},{"bike_id":"35271d95-c494-40dd-8da7-2203a22c9da1","system_id":"levelo_inurba_marseille","lat":43.32367,"lon":5.388836,"is_reserved":false,"is_disabled":false,"rental_uris":{"android":"levelo://app?vid=35271d95-c494-40dd-8da7-2203a22c9da1","ios":"levelo://app?vid=35271d95-c494-40dd-8da7-2203a22c9da1"},"vehicle_type_id":"4","last_reported":1690556823,"current_range_meters":24400,"station_id":"ce4bhqp2rcd13ifvqhog","pricing_plan_id":"free"},{"bike_id":"8cb10aff-5b12-4429-89af-bc8f5ed79456","system_id":"levelo_inurba_marseille","lat":43.32367,"lon":5.388836,"is_reserved":false,"is_disabled":false,"rental_uris":{"android":"levelo://app?vid=8cb10aff-5b12-4429-89af-bc8f5ed79456","ios":"levelo://app?vid=8cb10aff-5b12-4429-89af-bc8f5ed79456"},"vehicle_type_id":"4","last_reported":1690556823,"current_range_meters":22400,"station_id":"ce4bhqp2rcd13ifvqhog","pricing_plan_id":"free"},{"bike_id":"7305f0ae-51cf-4ef4-882d-4aa18b9c8dd4","system_id":"levelo_inurba_marseille","lat":43.313291,"lon":5.396838,"is_reserved":false,"is_disabled":false,"rental_uris":{"android":"levelo://app?vid=7305f0ae-51cf-4ef4-882d-4aa18b9c8dd4","ios":"levelo://app?vid=7305f0ae-51cf-4ef4-882d-4aa18b9c8dd4"},"vehicle_type_id":"4","last_reported":1690556823,"current_range_meters":21200,"station_id":"ce4bgvp2rcd13ifvqcu0","pricing_plan_id":"free"},{"bike_id":"83f009f8-acbb-49c5-857a-944bb433cb23","system_id":"levelo_inurba_marseille","lat":43.29308,"lon":5.37175,"is_reserved":false,"is_disabled":false,"rental_uris":{"android":"levelo://app?vid=83f009f8-acbb-49c5-857a-944bb433cb23","ios":"levelo://app?vid=83f009f8-acbb-49c5-857a-944bb433cb23"},"vehicle_type_id":"4","last_reported":1690556823,"current_range_meters":20000,"station_id":"ce4bgh92rcd13ifvqb40","pricing_plan_id":"free"},{"bike_id":"10bc8508-d697-41f9-9d18-a318bdf1a807","system_id":"levelo_inurba_marseille","lat":43.29279,"lon":5.36849,"is_reserved":false,"is_disabled":false,"rental_uris":{"android":"levelo://app?vid=10bc8508-d697-41f9-9d18-a318bdf1a807","ios":"levelo://app?vid=10bc8508-d697-41f9-9d18-a318bdf1a807"},"vehicle_type_id":"4","last_reported":1690556823,"current_range_meters":31200,"station_id":"ce4bhbp2rcd13ifvqesg","pricing_plan_id":"free"},{"bike_id":"647ec937-d003-4b75-b3e4-edb1f2f1c669","system_id":"levelo_inurba_marseille","lat":43.292749,"lon":5.368398,"is_reserved":false,"is_disabled":false,"rental_uris":{"android":"levelo://app?vid=647ec937-d003-4b75-b3e4-edb1f2f1c669","ios":"levelo://app?vid=647ec937-d003-4b75-b3e4-edb1f2f1c669"},"vehicle_type_id":"4","last_reported":1690556823,"current_range_meters":24800,"station_id":"ce4bhbp2rcd13ifvqesg","pricing_plan_id":"free"},{"bike_id":"0b702cbc-dde0-415c-bd8e-c3096d83d100","system_id":"levelo_inurba_marseille","lat":43.29273,"lon":5.36848,"is_reserved":false,"is_disabled":false,"rental_uris":{"android":"levelo://app?vid=0b702cbc-dde0-415c-bd8e-c3096d83d100","ios":"levelo://app?vid=0b702cbc-dde0-415c-bd8e-c3096d83d100"},"vehicle_type_id":"4","last_reported":1690556823,"current_range_meters":20400,"station_id":"ce4bhbp2rcd13ifvqesg","pricing_plan_id":"free"},{"bike_id":"7784ca8f-896f-4705-90d3-3a71a693adaa","system_id":"levelo_inurba_marseille","lat":43.29271,"lon":5.3685,"is_reserved":false,"is_disabled":false,"rental_uris":{"android":"levelo://app?vid=7784ca8f-896f-4705-90d3-3a71a693adaa","ios":"levelo://app?vid=7784ca8f-896f-4705-90d3-3a71a693adaa"},"vehicle_type_id":"4","last_reported":1690556823,"current_range_meters":1200,"station_id":"ce4bhbp2rcd13ifvqesg","pricing_plan_id":"free"},{"bike_id":"fcff81c8-a8b0-4f4e-ac5f-c6510b48f9e9","system_id":"levelo_inurba_marseille","lat":43.305994,"lon":5.393687,"is_reserved":false,"is_disabled":false,"rental_uris":{"android":"levelo://app?vid=fcff81c8-a8b0-4f4e-ac5f-c6510b48f9e9","ios":"levelo://app?vid=fcff81c8-a8b0-4f4e-ac5f-c6510b48f9e9"},"vehicle_type_id":"4","last_reported":1690556823,"current_range_meters":1600,"station_id":"ce4bh0p2rcd13ifvqd80","pricing_plan_id":"free"},{"bike_id":"da90968c-204e-4176-b2f7-61061f0cc395","system_id":"levelo_inurba_marseille","lat":43.305994,"lon":5.393687,"is_reserved":false,"is_disabled":false,"rental_uris":{"android":"levelo://app?vid=da90968c-204e-4176-b2f7-61061f0cc395","ios":"levelo://app?vid=da90968c-204e-4176-b2f7-61061f0cc395"},"vehicle_type_id":"4","last_reported":1690556823,"current_range_meters":14000,"station_id":"ce4bh0p2rcd13ifvqd80","pricing_plan_id":"free"},{"bike_id":"e23e72bd-1a32-420d-b7cc-3641dc5e7fa8","system_id":"levelo_inurba_marseille","lat":43.302992,"lon":5.392136,"is_reserved":false,"is_disabled":false,"rental_uris":{"android":"levelo://app?vid=e23e72bd-1a32-420d-b7cc-3641dc5e7fa8","ios":"levelo://app?vid=e23e72bd-1a32-420d-b7cc-3641dc5e7fa8"},"vehicle_type_id":"4","last_reported":1690556823,"current_range_meters":2800,"station_id":"ce4bgkh2rcd13ifvqbk0","pricing_plan_id":"free"},{"bike_id":"46d3a899-1262-4226-9400-7e177d6b6d8f","system_id":"levelo_inurba_marseille","lat":43.29261,"lon":5.35971,"is_reserved":false,"is_disabled":false,"rental_uris":{"android":"levelo://app?vid=46d3a899-1262-4226-9400-7e177d6b6d8f","ios":"levelo://app?vid=46d3a899-1262-4226-9400-7e177d6b6d8f"},"vehicle_type_id":"4","last_reported":1690556823,"current_range_meters":30800,"station_id":"","pricing_plan_id":"free"},{"bike_id":"75ee042d-24f7-478b-b40c-04f23dc30872","system_id":"levelo_inurba_marseille","lat":43.29899,"lon":5.38903,"is_reserved":false,"is_disabled":false,"rental_uris":{"android":"levelo://app?vid=75ee042d-24f7-478b-b40c-04f23dc30872","ios":"levelo://app?vid=75ee042d-24f7-478b-b40c-04f23dc30872"},"vehicle_type_id":"4","last_reported":1690556823,"current_range_meters":12800,"station_id":"ce4bh392rcd13ifvqdl0","pricing_plan_id":"free"},{"bike_id":"c945b65a-5e63-48e7-a2b5-c9e6c865a3d8","system_id":"levelo_inurba_marseille","lat":43.29885,"lon":5.38901,"is_reserved":false,"is_disabled":false,"rental_uris":{"android":"levelo://app?vid=c945b65a-5e63-48e7-a2b5-c9e6c865a3d8","ios":"levelo://app?vid=c945b65a-5e63-48e7-a2b5-c9e6c865a3d8"},"vehicle_type_id":"4","last_reported":1690556823,"current_range_meters":21200,"station_id":"ce4bh392rcd13ifvqdl0","pricing_plan_id":"free"},{"bike_id":"7e3310b4-d5d5-450e-9a53-68b0075f9de1","system_id":"levelo_inurba_marseille","lat":43.298764,"lon":5.388973,"is_reserved":false,"is_disabled":false,"rental_uris":{"android":"levelo://app?vid=7e3310b4-d5d5-450e-9a53-68b0075f9de1","ios":"levelo://app?vid=7e3310b4-d5d5-450e-9a53-68b0075f9de1"},"vehicle_type_id":"4","last_reported":1690556823,"current_range_meters":19200,"station_id":"ce4bh392rcd13ifvqdl0","pricing_plan_id":"free"},{"bike_id":"b87c499a-484f-4e4c-a0ce-3e5e4ee95122","system_id":"levelo_inurba_marseille","lat":43.291675,"lon":5.371583,"is_reserved":false,"is_disabled":false,"rental_uris":{"android":"levelo://app?vid=b87c499a-484f-4e4c-a0ce-3e5e4ee95122","ios":"levelo://app?vid=b87c499a-484f-4e4c-a0ce-3e5e4ee95122"},"vehicle_type_id":"4","last_reported":1690556823,"current_range_meters":18800,"station_id":"ce4bha92rcd13ifvqeh0","pricing_plan_id":"free"},{"bike_id":"763e935c-651a-4e28-9752-75e4c5d3e5b5","system_id":"levelo_inurba_marseille","lat":43.29192,"lon":5.35903,"is_reserved":false,"is_disabled":false,"rental_uris":{"android":"levelo://app?vid=763e935c-651a-4e28-9752-75e4c5d3e5b5","ios":"levelo://app?vid=763e935c-651a-4e28-9752-75e4c5d3e5b5"},"vehicle_type_id":"4","last_reported":1690556823,"current_range_meters":27600,"station_id":"ce4bha92rcd13ifvqeg0","pricing_plan_id":"free"},{"bike_id":"7afd2bff-1760-485b-b243-c0d7f58a0839","system_id":"levelo_inurba_marseille","lat":43.29208,"lon":5.35822,"is_reserved":false,"is_disabled":false,"rental_uris":{"android":"levelo://app?vid=7afd2bff-1760-485b-b243-c0d7f58a0839","ios":"levelo://app?vid=7afd2bff-1760-485b-b243-c0d7f58a0839"},"vehicle_type_id":"4","last_reported":1690556823,"current_range_meters":23600,"station_id":"ce4bha92rcd13ifvqeg0","pricing_plan_id":"free"},{"bike_id":"c78c85a5-eee7-4a29-bef4-7ad9d2741ebb","system_id":"levelo_inurba_marseille","lat":43.29199,"lon":5.35831,"is_reserved":false,"is_disabled":false,"rental_uris":{"android":"levelo://app?vid=c78c85a5-eee7-4a29-bef4-7ad9d2741ebb","ios":"levelo://app?vid=c78c85a5-eee7-4a29-bef4-7ad9d2741ebb"},"vehicle_type_id":"4","last_reported":1690556823,"current_range_meters":16400,"station_id":"ce4bhb12rcd13ifvqel0","pricing_plan_id":"free"},{"bike_id":"376c785f-d4a1-4e74-bfa2-d49895c525dc","system_id":"levelo_inurba_marseille","lat":43.29203,"lon":5.35811,"is_reserved":false,"is_disabled":false,"rental_uris":{"android":"levelo://app?vid=376c785f-d4a1-4e74-bfa2-d49895c525dc","ios":"levelo://app?vid=376c785f-d4a1-4e74-bfa2-d49895c525dc"},"vehicle_type_id":"4","last_reported":1690556823,"current_range_meters":24400,"station_id":"ce4bhb12rcd13ifvqel0","pricing_plan_id":"free"},{"bike_id":"edfa8426-99b5-4552-b1fc-428974543e5c","system_id":"levelo_inurba_marseille","lat":43.313261,"lon":5.396897,"is_reserved":false,"is_disabled":false,"rental_uris":{"android":"levelo://app?vid=edfa8426-99b5-4552-b1fc-428974543e5c","ios":"levelo://app?vid=edfa8426-99b5-4552-b1fc-428974543e5c"},"vehicle_type_id":"4","last_reported":1690556823,"current_range_meters":23600,"station_id":"ce4bgvp2rcd13ifvqcu0","pricing_plan_id":"free"},{"bike_id":"595f3df9-0d2a-4250-91b9-4728978ce387","system_id":"levelo_inurba_marseille","lat":43.31327,"lon":5.39692,"is_reserved":false,"is_disabled":false,"rental_uris":{"android":"levelo://app?vid=595f3df9-0d2a-4250-91b9-4728978ce387","ios":"levelo://app?vid=595f3df9-0d2a-4250-91b9-4728978ce387"},"vehicle_type_id":"4","last_reported":1690556823,"current_range_meters":25600,"station_id":"ce4bgvp2rcd13ifvqcu0","pricing_plan_id":"free"},{"bike_id":"53adfe10-3a3c-406d-8e4c-292895324eca","system_id":"levelo_inurba_marseille","lat":43.309038,"lon":5.396546,"is_reserved":false,"is_disabled":false,"rental_uris":{"android":"levelo://app?vid=53adfe10-3a3c-406d-8e4c-292895324eca","ios":"levelo://app?vid=53adfe10-3a3c-406d-8e4c-292895324eca"},"vehicle_type_id":"4","last_reported":1690556823,"current_range_meters":26000,"station_id":"ce4bh012rcd13ifvqcv0","pricing_plan_id":"free"},{"bike_id":"24a084b3-5d2c-45f5-9b22-7a82476c8a8c","system_id":"levelo_inurba_marseille","lat":43.309038,"lon":5.396546,"is_reserved":false,"is_disabled":false,"rental_uris":{"android":"levelo://app?vid=24a084b3-5d2c-45f5-9b22-7a82476c8a8c","ios":"levelo://app?vid=24a084b3-5d2c-45f5-9b22-7a82476c8a8c"},"vehicle_type_id":"4","last_reported":1690556823,"current_range_meters":23600,"station_id":"ce4bh012rcd13ifvqcv0","pricing_plan_id":"free"},{"bike_id":"50608572-1622-406b-8881-b3f769f231db","system_id":"levelo_inurba_marseille","lat":43.313249,"lon":5.397026,"is_reserved":false,"is_disabled":false,"rental_uris":{"android":"levelo://app?vid=50608572-1622-406b-8881-b3f769f231db","ios":"levelo://app?vid=50608572-1622-406b-8881-b3f769f231db"},"vehicle_type_id":"4","last_reported":1690556823,"current_range_meters":29200,"station_id":"ce4bgvp2rcd13ifvqcu0","pricing_plan_id":"free"},{"bike_id":"5276b97b-20b7-4562-b05b-822f08989e88","system_id":"levelo_inurba_marseille","lat":43.313249,"lon":5.397031,"is_reserved":false,"is_disabled":false,"rental_uris":{"android":"levelo://app?vid=5276b97b-20b7-4562-b05b-822f08989e88","ios":"levelo://app?vid=5276b97b-20b7-4562-b05b-822f08989e88"},"vehicle_type_id":"4","last_reported":1690556823,"current_range_meters":21600,"station_id":"ce4bgvp2rcd13ifvqcu0","pricing_plan_id":"free"},{"bike_id":"f10d076d-da32-45da-906f-015aff40b9f6","system_id":"levelo_inurba_marseille","lat":43.309038,"lon":5.396546,"is_reserved":false,"is_disabled":false,"rental_uris":{"android":"levelo://app?vid=f10d076d-da32-45da-906f-015aff40b9f6","ios":"levelo://app?vid=f10d076d-da32-45da-906f-015aff40b9f6"},"vehicle_type_id":"4","last_reported":1690556823,"current_range_meters":21600,"station_id":"ce4bh012rcd13ifvqcv0","pricing_plan_id":"free"},{"bike_id":"c1283aae-a5b2-4b88-b6f5-7d7481de71e2","system_id":"levelo_inurba_marseille","lat":43.29427,"lon":5.38315,"is_reserved":false,"is_disabled":false,"rental_uris":{"android":"levelo://app?vid=c1283aae-a5b2-4b88-b6f5-7d7481de71e2","ios":"levelo://app?vid=c1283aae-a5b2-4b88-b6f5-7d7481de71e2"},"vehicle_type_id":"4","last_reported":1690556823,"current_range_meters":13200,"station_id":"","pricing_plan_id":"free"},{"bike_id":"5eee9491-c909-41f9-98fd-42713d3a3b6b","system_id":"levelo_inurba_marseille","lat":43.309038,"lon":5.396546,"is_reserved":false,"is_disabled":false,"rental_uris":{"android":"levelo://app?vid=5eee9491-c909-41f9-98fd-42713d3a3b6b","ios":"levelo://app?vid=5eee9491-c909-41f9-98fd-42713d3a3b6b"},"vehicle_type_id":"4","last_reported":1690556823,"current_range_meters":18800,"station_id":"ce4bh012rcd13ifvqcv0","pricing_plan_id":"free"},{"bike_id":"e402c7b0-9c06-4592-abcb-1e7ae2bec000","system_id":"levelo_inurba_marseille","lat":43.29089,"lon":5.36379,"is_reserved":false,"is_disabled":false,"rental_uris":{"android":"levelo://app?vid=e402c7b0-9c06-4592-abcb-1e7ae2bec000","ios":"levelo://app?vid=e402c7b0-9c06-4592-abcb-1e7ae2bec000"},"vehicle_type_id":"4","last_reported":1690556823,"current_range_meters":12800,"station_id":"","pricing_plan_id":"free"},{"bike_id":"a0509ad7-b508-4307-b43e-50e0fbfe46c3","system_id":"levelo_inurba_marseille","lat":43.290779,"lon":5.371482,"is_reserved":false,"is_disabled":false,"rental_uris":{"android":"levelo://app?vid=a0509ad7-b508-4307-b43e-50e0fbfe46c3","ios":"levelo://app?vid=a0509ad7-b508-4307-b43e-50e0fbfe46c3"},"vehicle_type_id":"4","last_reported":1690556823,"current_range_meters":20400,"station_id":"ce4bh5p2rcd13ifvqe4g","pricing_plan_id":"free"},{"bike_id":"58f928d5-1437-495a-bce3-114bb4d152ad","system_id":"levelo_inurba_marseille","lat":43.302008,"lon":5.394694,"is_reserved":false,"is_disabled":false,"rental_uris":{"android":"levelo://app?vid=58f928d5-1437-495a-bce3-114bb4d152ad","ios":"levelo://app?vid=58f928d5-1437-495a-bce3-114bb4d152ad"},"vehicle_type_id":"4","last_reported":1690556823,"current_range_meters":26800,"station_id":"ce4bh0p2rcd13ifvqd70","pricing_plan_id":"free"},{"bike_id":"7efda547-ed2d-4763-ac29-867e955dd525","system_id":"levelo_inurba_marseille","lat":43.290624,"lon":5.359245,"is_reserved":false,"is_disabled":false,"rental_uris":{"android":"levelo://app?vid=7efda547-ed2d-4763-ac29-867e955dd525","ios":"levelo://app?vid=7efda547-ed2d-4763-ac29-867e955dd525"},"vehicle_type_id":"4","last_reported":1690556823,"current_range_meters":16000,"station_id":"ce4bha92rcd13ifvqeg0","pricing_plan_id":"free"},{"bike_id":"ec2b396d-40d1-429e-adfb-70d3b564a4a3","system_id":"levelo_inurba_marseille","lat":43.290624,"lon":5.359245,"is_reserved":false,"is_disabled":false,"rental_uris":{"android":"levelo://app?vid=ec2b396d-40d1-429e-adfb-70d3b564a4a3","ios":"levelo://app?vid=ec2b396d-40d1-429e-adfb-70d3b564a4a3"},"vehicle_type_id":"4","last_reported":1690556823,"current_range_meters":22800,"station_id":"ce4bha92rcd13ifvqeg0","pricing_plan_id":"free"},{"bike_id":"562a61b7-7628-43ef-8caa-eed930b66b61","system_id":"levelo_inurba_marseille","lat":43.290624,"lon":5.359245,"is_reserved":false,"is_disabled":false,"rental_uris":{"android":"levelo://app?vid=562a61b7-7628-43ef-8caa-eed930b66b61","ios":"levelo://app?vid=562a61b7-7628-43ef-8caa-eed930b66b61"},"vehicle_type_id":"4","last_reported":1690556823,"current_range_meters":31200,"station_id":"ce4bha92rcd13ifvqeg0","pricing_plan_id":"free"},{"bike_id":"f4012ea6-8d9c-4f43-9b1e-c3794272da11","system_id":"levelo_inurba_marseille","lat":43.295169,"lon":5.390426,"is_reserved":false,"is_disabled":false,"rental_uris":{"android":"levelo://app?vid=f4012ea6-8d9c-4f43-9b1e-c3794272da11","ios":"levelo://app?vid=f4012ea6-8d9c-4f43-9b1e-c3794272da11"},"vehicle_type_id":"4","last_reported":1690556823,"current_range_meters":30000,"station_id":"ce4bh3p2rcd13ifvqdp0","pricing_plan_id":"free"},{"bike_id":"a7ad12d9-0939-428a-aece-98e8f84baa43","system_id":"levelo_inurba_marseille","lat":43.289468,"lon":5.363719,"is_reserved":false,"is_disabled":false,"rental_uris":{"android":"levelo://app?vid=a7ad12d9-0939-428a-aece-98e8f84baa43","ios":"levelo://app?vid=a7ad12d9-0939-428a-aece-98e8f84baa43"},"vehicle_type_id":"4","last_reported":1690556823,"current_range_meters":28800,"station_id":"ce4bhc92rcd13ifvqetg","pricing_plan_id":"free"},{"bike_id":"660a2b2c-ad62-448b-9465-a24fae45c3b1","system_id":"levelo_inurba_marseille","lat":43.294162,"lon":5.386292,"is_reserved":false,"is_disabled":false,"rental_uris":{"android":"levelo://app?vid=660a2b2c-ad62-448b-9465-a24fae45c3b1","ios":"levelo://app?vid=660a2b2c-ad62-448b-9465-a24fae45c3b1"},"vehicle_type_id":"4","last_reported":1690556823,"current_range_meters":18400,"station_id":"ce4bh2h2rcd13ifvqdh0","pricing_plan_id":"free"},{"bike_id":"93340594-fefa-4183-a52f-d6e485b0cfb7","system_id":"levelo_inurba_marseille","lat":43.289468,"lon":5.363719,"is_reserved":false,"is_disabled":false,"rental_uris":{"android":"levelo://app?vid=93340594-fefa-4183-a52f-d6e485b0cfb7","ios":"levelo://app?vid=93340594-fefa-4183-a52f-d6e485b0cfb7"},"vehicle_type_id":"4","last_reported":1690556823,"current_range_meters":30400,"station_id":"ce4bhc92rcd13ifvqetg","pricing_plan_id":"free"},{"bike_id":"5cf65cd0-fb9e-4bfa-9164-eca2802ff459","system_id":"levelo_inurba_marseille","lat":43.305,"lon":5.39756,"is_reserved":false,"is_disabled":false,"rental_uris":{"android":"levelo://app?vid=5cf65cd0-fb9e-4bfa-9164-eca2802ff459","ios":"levelo://app?vid=5cf65cd0-fb9e-4bfa-9164-eca2802ff459"},"vehicle_type_id":"4","last_reported":1690556823,"current_range_meters":24400,"station_id":"","pricing_plan_id":"free"},{"bike_id":"0f86985d-63d1-4756-95e5-3136d0b6bcd9","system_id":"levelo_inurba_marseille","lat":43.304296,"lon":5.397513,"is_reserved":false,"is_disabled":false,"rental_uris":{"android":"levelo://app?vid=0f86985d-63d1-4756-95e5-3136d0b6bcd9","ios":"levelo://app?vid=0f86985d-63d1-4756-95e5-3136d0b6bcd9"},"vehicle_type_id":"4","last_reported":1690556823,"current_range_meters":28800,"station_id":"ce4bh092rcd13ifvqd20","pricing_plan_id":"free"},{"bike_id":"9fbcf031-61b4-4bd7-ad20-eb17230f24b0","system_id":"levelo_inurba_marseille","lat":43.289468,"lon":5.363719,"is_reserved":false,"is_disabled":false,"rental_uris":{"android":"levelo://app?vid=9fbcf031-61b4-4bd7-ad20-eb17230f24b0","ios":"levelo://app?vid=9fbcf031-61b4-4bd7-ad20-eb17230f24b0"},"vehicle_type_id":"4","last_reported":1690556823,"current_range_meters":27200,"station_id":"ce4bhc92rcd13ifvqetg","pricing_plan_id":"free"},{"bike_id":"198a91cd-f90e-44b9-b124-d15f43d9259d","system_id":"levelo_inurba_marseille","lat":43.33035,"lon":5.38919,"is_reserved":false,"is_disabled":false,"rental_uris":{"android":"levelo://app?vid=198a91cd-f90e-44b9-b124-d15f43d9259d","ios":"levelo://app?vid=198a91cd-f90e-44b9-b124-d15f43d9259d"},"vehicle_type_id":"4","last_reported":1690556823,"current_range_meters":19600,"station_id":"ce4bhr92rcd13ifvqhrg","pricing_plan_id":"free"},{"bike_id":"86f7e702-5a91-4401-ab78-a4b2963e3f33","system_id":"levelo_inurba_marseille","lat":43.3304,"lon":5.38917,"is_reserved":false,"is_disabled":false,"rental_uris":{"android":"levelo://app?vid=86f7e702-5a91-4401-ab78-a4b2963e3f33","ios":"levelo://app?vid=86f7e702-5a91-4401-ab78-a4b2963e3f33"},"vehicle_type_id":"4","last_reported":1690556823,"current_range_meters":1200,"station_id":"ce4bhr92rcd13ifvqhrg","pricing_plan_id":"free"},{"bike_id":"a846516f-cf51-4ac4-8674-44addcbde20b","system_id":"levelo_inurba_marseille","lat":43.3304,"lon":5.3892,"is_reserved":false,"is_disabled":false,"rental_uris":{"android":"levelo://app?vid=a846516f-cf51-4ac4-8674-44addcbde20b","ios":"levelo://app?vid=a846516f-cf51-4ac4-8674-44addcbde20b"},"vehicle_type_id":"4","last_reported":1690556823,"current_range_meters":28400,"station_id":"ce4bhr92rcd13ifvqhrg","pricing_plan_id":"free"},{"bike_id":"91968ac7-8a8f-40b0-b07b-8508661b31de","system_id":"levelo_inurba_marseille","lat":43.330442,"lon":5.389148,"is_reserved":false,"is_disabled":false,"rental_uris":{"android":"levelo://app?vid=91968ac7-8a8f-40b0-b07b-8508661b31de","ios":"levelo://app?vid=91968ac7-8a8f-40b0-b07b-8508661b31de"},"vehicle_type_id":"4","last_reported":1690556823,"current_range_meters":21600,"station_id":"ce4bhr92rcd13ifvqhrg","pricing_plan_id":"free"},{"bike_id":"2c914af5-3f76-4c26-ae2e-a98cca55902c","system_id":"levelo_inurba_marseille","lat":43.33043,"lon":5.38919,"is_reserved":false,"is_disabled":false,"rental_uris":{"android":"levelo://app?vid=2c914af5-3f76-4c26-ae2e-a98cca55902c","ios":"levelo://app?vid=2c914af5-3f76-4c26-ae2e-a98cca55902c"},"vehicle_type_id":"4","last_reported":1690556823,"current_range_meters":30800,"station_id":"ce4bhr92rcd13ifvqhrg","pricing_plan_id":"free"},{"bike_id":"f56db9a8-b4b7-4400-bf17-8a65adc21520","system_id":"levelo_inurba_marseille","lat":43.33045,"lon":5.38916,"is_reserved":false,"is_disabled":false,"rental_uris":{"android":"levelo://app?vid=f56db9a8-b4b7-4400-bf17-8a65adc21520","ios":"levelo://app?vid=f56db9a8-b4b7-4400-bf17-8a65adc21520"},"vehicle_type_id":"4","last_reported":1690556823,"current_range_meters":26400,"station_id":"ce4bhr92rcd13ifvqhrg","pricing_plan_id":"free"},{"bike_id":"7c2c3720-d424-462d-971e-d3463100e661","system_id":"levelo_inurba_marseille","lat":43.33042,"lon":5.38922,"is_reserved":false,"is_disabled":false,"rental_uris":{"android":"levelo://app?vid=7c2c3720-d424-462d-971e-d3463100e661","ios":"levelo://app?vid=7c2c3720-d424-462d-971e-d3463100e661"},"vehicle_type_id":"4","last_reported":1690556823,"current_range_meters":1600,"station_id":"ce4bhr92rcd13ifvqhrg","pricing_plan_id":"free"},{"bike_id":"da2194d8-37a2-4f86-a67c-c6242c7d808c","system_id":"levelo_inurba_marseille","lat":43.290103,"lon":5.356114,"is_reserved":false,"is_disabled":false,"rental_uris":{"android":"levelo://app?vid=da2194d8-37a2-4f86-a67c-c6242c7d808c","ios":"levelo://app?vid=da2194d8-37a2-4f86-a67c-c6242c7d808c"},"vehicle_type_id":"4","last_reported":1690556823,"current_range_meters":22000,"station_id":"ce4bhb92rcd13ifvqen0","pricing_plan_id":"free"},{"bike_id":"7883f26a-4ca2-4af1-b635-04e7177f6953","system_id":"levelo_inurba_marseille","lat":43.33042,"lon":5.38923,"is_reserved":false,"is_disabled":false,"rental_uris":{"android":"levelo://app?vid=7883f26a-4ca2-4af1-b635-04e7177f6953","ios":"levelo://app?vid=7883f26a-4ca2-4af1-b635-04e7177f6953"},"vehicle_type_id":"4","last_reported":1690556823,"current_range_meters":26800,"station_id":"ce4bhr92rcd13ifvqhrg","pricing_plan_id":"free"},{"bike_id":"766cd11b-923c-4640-ae67-2dfbbb18b931","system_id":"levelo_inurba_marseille","lat":43.330442,"lon":5.389148,"is_reserved":false,"is_disabled":false,"rental_uris":{"android":"levelo://app?vid=766cd11b-923c-4640-ae67-2dfbbb18b931","ios":"levelo://app?vid=766cd11b-923c-4640-ae67-2dfbbb18b931"},"vehicle_type_id":"4","last_reported":1690556823,"current_range_meters":14000,"station_id":"ce4bhr92rcd13ifvqhrg","pricing_plan_id":"free"},{"bike_id":"51ceaf4e-dad2-418b-a676-c4296d5d3490","system_id":"levelo_inurba_marseille","lat":43.33044,"lon":5.38924,"is_reserved":false,"is_disabled":false,"rental_uris":{"android":"levelo://app?vid=51ceaf4e-dad2-418b-a676-c4296d5d3490","ios":"levelo://app?vid=51ceaf4e-dad2-418b-a676-c4296d5d3490"},"vehicle_type_id":"4","last_reported":1690556823,"current_range_meters":6800,"station_id":"ce4bhr92rcd13ifvqhrg","pricing_plan_id":"free"},{"bike_id":"91fec792-a5a5-4820-af7d-3c6be3109af2","system_id":"levelo_inurba_marseille","lat":43.29002,"lon":5.35618,"is_reserved":false,"is_disabled":false,"rental_uris":{"android":"levelo://app?vid=91fec792-a5a5-4820-af7d-3c6be3109af2","ios":"levelo://app?vid=91fec792-a5a5-4820-af7d-3c6be3109af2"},"vehicle_type_id":"4","last_reported":1690556823,"current_range_meters":30000,"station_id":"ce4bhb92rcd13ifvqen0","pricing_plan_id":"free"},{"bike_id":"3f19bc44-ada9-4df5-9ab0-aa101276af03","system_id":"levelo_inurba_marseille","lat":43.290104,"lon":5.356111,"is_reserved":false,"is_disabled":false,"rental_uris":{"android":"levelo://app?vid=3f19bc44-ada9-4df5-9ab0-aa101276af03","ios":"levelo://app?vid=3f19bc44-ada9-4df5-9ab0-aa101276af03"},"vehicle_type_id":"4","last_reported":1690556823,"current_range_meters":16000,"station_id":"ce4bhb92rcd13ifvqen0","pricing_plan_id":"free"},{"bike_id":"44a60077-f629-4417-9841-6f7ee5485fe9","system_id":"levelo_inurba_marseille","lat":43.290104,"lon":5.356111,"is_reserved":false,"is_disabled":false,"rental_uris":{"android":"levelo://app?vid=44a60077-f629-4417-9841-6f7ee5485fe9","ios":"levelo://app?vid=44a60077-f629-4417-9841-6f7ee5485fe9"},"vehicle_type_id":"4","last_reported":1690556823,"current_range_meters":14400,"station_id":"ce4bhb92rcd13ifvqen0","pricing_plan_id":"free"},{"bike_id":"710f39f3-c730-44ee-9515-46bd4eae7dcf","system_id":"levelo_inurba_marseille","lat":43.290104,"lon":5.356111,"is_reserved":false,"is_disabled":false,"rental_uris":{"android":"levelo://app?vid=710f39f3-c730-44ee-9515-46bd4eae7dcf","ios":"levelo://app?vid=710f39f3-c730-44ee-9515-46bd4eae7dcf"},"vehicle_type_id":"4","last_reported":1690556823,"current_range_meters":5600,"station_id":"ce4bhb92rcd13ifvqen0","pricing_plan_id":"free"},{"bike_id":"ab198f75-a7e8-4e9a-ba45-65806cc3e990","system_id":"levelo_inurba_marseille","lat":43.290983,"lon":5.381322,"is_reserved":false,"is_disabled":false,"rental_uris":{"android":"levelo://app?vid=ab198f75-a7e8-4e9a-ba45-65806cc3e990","ios":"levelo://app?vid=ab198f75-a7e8-4e9a-ba45-65806cc3e990"},"vehicle_type_id":"4","last_reported":1690556823,"current_range_meters":26800,"station_id":"ce4bgrp2rcd13ifvqc9g","pricing_plan_id":"free"},{"bike_id":"91529876-a894-427c-8615-aa61ef5f6f10","system_id":"levelo_inurba_marseille","lat":43.290103,"lon":5.356114,"is_reserved":false,"is_disabled":false,"rental_uris":{"android":"levelo://app?vid=91529876-a894-427c-8615-aa61ef5f6f10","ios":"levelo://app?vid=91529876-a894-427c-8615-aa61ef5f6f10"},"vehicle_type_id":"4","last_reported":1690556823,"current_range_meters":12400,"station_id":"ce4bhb92rcd13ifvqen0","pricing_plan_id":"free"},{"bike_id":"0fc9cc77-f239-4e7c-9b31-5dfa24592e85","system_id":"levelo_inurba_marseille","lat":43.290624,"lon":5.359245,"is_reserved":false,"is_disabled":false,"rental_uris":{"android":"levelo://app?vid=0fc9cc77-f239-4e7c-9b31-5dfa24592e85","ios":"levelo://app?vid=0fc9cc77-f239-4e7c-9b31-5dfa24592e85"},"vehicle_type_id":"4","last_reported":1690556823,"current_range_meters":12000,"station_id":"ce4bha92rcd13ifvqeg0","pricing_plan_id":"free"},{"bike_id":"a893a174-2bdf-4072-8e81-3f7668693c97","system_id":"levelo_inurba_marseille","lat":43.29784,"lon":5.39341,"is_reserved":false,"is_disabled":false,"rental_uris":{"android":"levelo://app?vid=a893a174-2bdf-4072-8e81-3f7668693c97","ios":"levelo://app?vid=a893a174-2bdf-4072-8e81-3f7668693c97"},"vehicle_type_id":"4","last_reported":1690556823,"current_range_meters":14800,"station_id":"chh1huq6cuj3fo74tm60","pricing_plan_id":"free"},{"bike_id":"f216dca8-525d-4c6e-847a-d4646859f07c","system_id":"levelo_inurba_marseille","lat":43.28978,"lon":5.37839,"is_reserved":false,"is_disabled":false,"rental_uris":{"android":"levelo://app?vid=f216dca8-525d-4c6e-847a-d4646859f07c","ios":"levelo://app?vid=f216dca8-525d-4c6e-847a-d4646859f07c"},"vehicle_type_id":"4","last_reported":1690556823,"current_range_meters":15600,"station_id":"ce4bh9p2rcd13ifvqed0","pricing_plan_id":"free"},{"bike_id":"e04d4842-18e0-4e7b-9ac5-824d77b955fe","system_id":"levelo_inurba_marseille","lat":43.29778,"lon":5.39347,"is_reserved":false,"is_disabled":false,"rental_uris":{"android":"levelo://app?vid=e04d4842-18e0-4e7b-9ac5-824d77b955fe","ios":"levelo://app?vid=e04d4842-18e0-4e7b-9ac5-824d77b955fe"},"vehicle_type_id":"4","last_reported":1690556823,"current_range_meters":24800,"station_id":"chh1huq6cuj3fo74tm60","pricing_plan_id":"free"},{"bike_id":"7b39c78f-7725-4070-9383-5d3164c695e4","system_id":"levelo_inurba_marseille","lat":43.295169,"lon":5.390426,"is_reserved":false,"is_disabled":false,"rental_uris":{"android":"levelo://app?vid=7b39c78f-7725-4070-9383-5d3164c695e4","ios":"levelo://app?vid=7b39c78f-7725-4070-9383-5d3164c695e4"},"vehicle_type_id":"4","last_reported":1690556823,"current_range_meters":25600,"station_id":"ce4bh3p2rcd13ifvqdp0","pricing_plan_id":"free"},{"bike_id":"c4634ea1-9848-4d20-aa3c-78482a9577c4","system_id":"levelo_inurba_marseille","lat":43.295169,"lon":5.390426,"is_reserved":false,"is_disabled":false,"rental_uris":{"android":"levelo://app?vid=c4634ea1-9848-4d20-aa3c-78482a9577c4","ios":"levelo://app?vid=c4634ea1-9848-4d20-aa3c-78482a9577c4"},"vehicle_type_id":"4","last_reported":1690556823,"current_range_meters":22800,"station_id":"ce4bh3p2rcd13ifvqdp0","pricing_plan_id":"free"},{"bike_id":"bd85a9e8-8a23-44af-b85d-97364451dacd","system_id":"levelo_inurba_marseille","lat":43.301117,"lon":5.398795,"is_reserved":false,"is_disabled":false,"rental_uris":{"android":"levelo://app?vid=bd85a9e8-8a23-44af-b85d-97364451dacd","ios":"levelo://app?vid=bd85a9e8-8a23-44af-b85d-97364451dacd"},"vehicle_type_id":"4","last_reported":1690556823,"current_range_meters":29600,"station_id":"ce4bh0h2rcd13ifvqd40","pricing_plan_id":"free"},{"bike_id":"4463ae0c-4dcf-4fc0-ac69-44ea5f3c5647","system_id":"levelo_inurba_marseille","lat":43.28862,"lon":5.35853,"is_reserved":false,"is_disabled":false,"rental_uris":{"android":"levelo://app?vid=4463ae0c-4dcf-4fc0-ac69-44ea5f3c5647","ios":"levelo://app?vid=4463ae0c-4dcf-4fc0-ac69-44ea5f3c5647"},"vehicle_type_id":"4","last_reported":1690556823,"current_range_meters":7200,"station_id":"ce4bhb12rcd13ifvqem0","pricing_plan_id":"free"},{"bike_id":"2a3acc58-8174-4c35-987d-2f8ca37e9d6a","system_id":"levelo_inurba_marseille","lat":43.28856,"lon":5.358371,"is_reserved":false,"is_disabled":false,"rental_uris":{"android":"levelo://app?vid=2a3acc58-8174-4c35-987d-2f8ca37e9d6a","ios":"levelo://app?vid=2a3acc58-8174-4c35-987d-2f8ca37e9d6a"},"vehicle_type_id":"4","last_reported":1690556823,"current_range_meters":2800,"station_id":"ce4bhb12rcd13ifvqem0","pricing_plan_id":"free"},{"bike_id":"999314b8-f275-4ffc-886d-e0a4b0891137","system_id":"levelo_inurba_marseille","lat":43.28856,"lon":5.358371,"is_reserved":false,"is_disabled":false,"rental_uris":{"android":"levelo://app?vid=999314b8-f275-4ffc-886d-e0a4b0891137","ios":"levelo://app?vid=999314b8-f275-4ffc-886d-e0a4b0891137"},"vehicle_type_id":"4","last_reported":1690556823,"current_range_meters":9600,"station_id":"ce4bhb12rcd13ifvqem0","pricing_plan_id":"free"},{"bike_id":"44ce7ae3-ce0c-4639-98ff-edfa252071ef","system_id":"levelo_inurba_marseille","lat":43.31272,"lon":5.40165,"is_reserved":false,"is_disabled":false,"rental_uris":{"android":"levelo://app?vid=44ce7ae3-ce0c-4639-98ff-edfa252071ef","ios":"levelo://app?vid=44ce7ae3-ce0c-4639-98ff-edfa252071ef"},"vehicle_type_id":"4","last_reported":1690556823,"current_range_meters":23200,"station_id":"ce4bh092rcd13ifvqd30","pricing_plan_id":"free"},{"bike_id":"4377c084-fb78-4f94-aa74-cbf6cee938ee","system_id":"levelo_inurba_marseille","lat":43.31268,"lon":5.40166,"is_reserved":false,"is_disabled":false,"rental_uris":{"android":"levelo://app?vid=4377c084-fb78-4f94-aa74-cbf6cee938ee","ios":"levelo://app?vid=4377c084-fb78-4f94-aa74-cbf6cee938ee"},"vehicle_type_id":"4","last_reported":1690556823,"current_range_meters":20400,"station_id":"ce4bh092rcd13ifvqd30","pricing_plan_id":"free"},{"bike_id":"cc381cae-48e1-43d1-a3ca-9c32b4726a9d","system_id":"levelo_inurba_marseille","lat":43.31274,"lon":5.40173,"is_reserved":false,"is_disabled":false,"rental_uris":{"android":"levelo://app?vid=cc381cae-48e1-43d1-a3ca-9c32b4726a9d","ios":"levelo://app?vid=cc381cae-48e1-43d1-a3ca-9c32b4726a9d"},"vehicle_type_id":"4","last_reported":1690556823,"current_range_meters":1600,"station_id":"ce4bh092rcd13ifvqd30","pricing_plan_id":"free"},{"bike_id":"e702046f-51fd-46ae-a85b-22eb26b4607d","system_id":"levelo_inurba_marseille","lat":43.31276,"lon":5.40173,"is_reserved":false,"is_disabled":false,"rental_uris":{"android":"levelo://app?vid=e702046f-51fd-46ae-a85b-22eb26b4607d","ios":"levelo://app?vid=e702046f-51fd-46ae-a85b-22eb26b4607d"},"vehicle_type_id":"4","last_reported":1690556823,"current_range_meters":25200,"station_id":"ce4bh092rcd13ifvqd30","pricing_plan_id":"free"},{"bike_id":"03d3a26e-e6bc-4ca7-a39c-af46aabc529f","system_id":"levelo_inurba_marseille","lat":43.31276,"lon":5.40174,"is_reserved":false,"is_disabled":false,"rental_uris":{"android":"levelo://app?vid=03d3a26e-e6bc-4ca7-a39c-af46aabc529f","ios":"levelo://app?vid=03d3a26e-e6bc-4ca7-a39c-af46aabc529f"},"vehicle_type_id":"4","last_reported":1690556823,"current_range_meters":19200,"station_id":"ce4bh092rcd13ifvqd30","pricing_plan_id":"free"},{"bike_id":"3197f34f-3e73-4230-9935-9d4d2a0d2440","system_id":"levelo_inurba_marseille","lat":43.30933,"lon":5.40147,"is_reserved":false,"is_disabled":false,"rental_uris":{"android":"levelo://app?vid=3197f34f-3e73-4230-9935-9d4d2a0d2440","ios":"levelo://app?vid=3197f34f-3e73-4230-9935-9d4d2a0d2440"},"vehicle_type_id":"4","last_reported":1690556823,"current_range_meters":14400,"station_id":"ce4bgvp2rcd13ifvqct0","pricing_plan_id":"free"},{"bike_id":"b0e02498-09cb-43a9-957e-45f4ad80126d","system_id":"levelo_inurba_marseille","lat":43.31269,"lon":5.40179,"is_reserved":false,"is_disabled":false,"rental_uris":{"android":"levelo://app?vid=b0e02498-09cb-43a9-957e-45f4ad80126d","ios":"levelo://app?vid=b0e02498-09cb-43a9-957e-45f4ad80126d"},"vehicle_type_id":"4","last_reported":1690556823,"current_range_meters":15600,"station_id":"ce4bh092rcd13ifvqd30","pricing_plan_id":"free"},{"bike_id":"389a9990-b9b9-41b7-bce0-ed27bd9322ae","system_id":"levelo_inurba_marseille","lat":43.301117,"lon":5.398795,"is_reserved":false,"is_disabled":false,"rental_uris":{"android":"levelo://app?vid=389a9990-b9b9-41b7-bce0-ed27bd9322ae","ios":"levelo://app?vid=389a9990-b9b9-41b7-bce0-ed27bd9322ae"},"vehicle_type_id":"4","last_reported":1690556823,"current_range_meters":21200,"station_id":"ce4bh0h2rcd13ifvqd40","pricing_plan_id":"free"},{"bike_id":"8d55fd56-e067-4bda-b932-cecf1bdf0d9f","system_id":"levelo_inurba_marseille","lat":43.29874,"lon":5.3973,"is_reserved":false,"is_disabled":false,"rental_uris":{"android":"levelo://app?vid=8d55fd56-e067-4bda-b932-cecf1bdf0d9f","ios":"levelo://app?vid=8d55fd56-e067-4bda-b932-cecf1bdf0d9f"},"vehicle_type_id":"4","last_reported":1690556823,"current_range_meters":24800,"station_id":"ce4bh0h2rcd13ifvqd50","pricing_plan_id":"free"},{"bike_id":"5aa480a4-8de4-4c36-8a6c-adb0115c2970","system_id":"levelo_inurba_marseille","lat":43.290345,"lon":5.38646,"is_reserved":false,"is_disabled":false,"rental_uris":{"android":"levelo://app?vid=5aa480a4-8de4-4c36-8a6c-adb0115c2970","ios":"levelo://app?vid=5aa480a4-8de4-4c36-8a6c-adb0115c2970"},"vehicle_type_id":"4","last_reported":1690556823,"current_range_meters":21600,"station_id":"ce4bh4p2rcd13ifvqe0g","pricing_plan_id":"free"},{"bike_id":"75199276-b705-4ad7-b6a9-49aeaa84628a","system_id":"levelo_inurba_marseille","lat":43.286591,"lon":5.363346,"is_reserved":false,"is_disabled":false,"rental_uris":{"android":"levelo://app?vid=75199276-b705-4ad7-b6a9-49aeaa84628a","ios":"levelo://app?vid=75199276-b705-4ad7-b6a9-49aeaa84628a"},"vehicle_type_id":"4","last_reported":1690556823,"current_range_meters":31200,"station_id":"ce4bhah2rcd13ifvqej0","pricing_plan_id":"free"},{"bike_id":"5b4b6227-67b5-4f17-ade7-22f5d7532366","system_id":"levelo_inurba_marseille","lat":43.286961,"lon":5.373785,"is_reserved":false,"is_disabled":false,"rental_uris":{"android":"levelo://app?vid=5b4b6227-67b5-4f17-ade7-22f5d7532366","ios":"levelo://app?vid=5b4b6227-67b5-4f17-ade7-22f5d7532366"},"vehicle_type_id":"4","last_reported":1690556823,"current_range_meters":31200,"station_id":"ce4bh3p2rcd13ifvqdq0","pricing_plan_id":"free"},{"bike_id":"5c9e2ac4-b331-4d63-ab73-94a9fe073529","system_id":"levelo_inurba_marseille","lat":43.286961,"lon":5.373785,"is_reserved":false,"is_disabled":false,"rental_uris":{"android":"levelo://app?vid=5c9e2ac4-b331-4d63-ab73-94a9fe073529","ios":"levelo://app?vid=5c9e2ac4-b331-4d63-ab73-94a9fe073529"},"vehicle_type_id":"4","last_reported":1690556823,"current_range_meters":800,"station_id":"ce4bh3p2rcd13ifvqdq0","pricing_plan_id":"free"},{"bike_id":"50b7f13b-eca7-451d-80d8-d194bc7b19ad","system_id":"levelo_inurba_marseille","lat":43.298681,"lon":5.397225,"is_reserved":false,"is_disabled":false,"rental_uris":{"android":"levelo://app?vid=50b7f13b-eca7-451d-80d8-d194bc7b19ad","ios":"levelo://app?vid=50b7f13b-eca7-451d-80d8-d194bc7b19ad"},"vehicle_type_id":"4","last_reported":1690556823,"current_range_meters":24000,"station_id":"ce4bh0h2rcd13ifvqd50","pricing_plan_id":"free"},{"bike_id":"baef4096-e770-43b0-9011-b055e1dc3913","system_id":"levelo_inurba_marseille","lat":43.29026,"lon":5.38636,"is_reserved":false,"is_disabled":false,"rental_uris":{"android":"levelo://app?vid=baef4096-e770-43b0-9011-b055e1dc3913","ios":"levelo://app?vid=baef4096-e770-43b0-9011-b055e1dc3913"},"vehicle_type_id":"4","last_reported":1690556823,"current_range_meters":12800,"station_id":"","pricing_plan_id":"free"},{"bike_id":"a02b49e1-ac3b-442b-91b4-4e8f177e99ec","system_id":"levelo_inurba_marseille","lat":43.29029,"lon":5.38654,"is_reserved":false,"is_disabled":false,"rental_uris":{"android":"levelo://app?vid=a02b49e1-ac3b-442b-91b4-4e8f177e99ec","ios":"levelo://app?vid=a02b49e1-ac3b-442b-91b4-4e8f177e99ec"},"vehicle_type_id":"4","last_reported":1690556823,"current_range_meters":0,"station_id":"ce4bh4p2rcd13ifvqe0g","pricing_plan_id":"free"},{"bike_id":"d3a45b88-c125-4894-8028-d373cb24deb3","system_id":"levelo_inurba_marseille","lat":43.286039,"lon":5.370679,"is_reserved":false,"is_disabled":false,"rental_uris":{"android":"levelo://app?vid=d3a45b88-c125-4894-8028-d373cb24deb3","ios":"levelo://app?vid=d3a45b88-c125-4894-8028-d373cb24deb3"},"vehicle_type_id":"4","last_reported":1690556823,"current_range_meters":31200,"station_id":"ce4bht12rcd13ifvqi60","pricing_plan_id":"free"},{"bike_id":"1c4a6955-5daa-46c1-a810-3884a1a61888","system_id":"levelo_inurba_marseille","lat":43.287184,"lon":5.37937,"is_reserved":false,"is_disabled":false,"rental_uris":{"android":"levelo://app?vid=1c4a6955-5daa-46c1-a810-3884a1a61888","ios":"levelo://app?vid=1c4a6955-5daa-46c1-a810-3884a1a61888"},"vehicle_type_id":"4","last_reported":1690556823,"current_range_meters":25200,"station_id":"ce4bh9p2rcd13ifvqec0","pricing_plan_id":"free"},{"bike_id":"caaaa2bd-f204-437c-87ff-769e2b36244e","system_id":"levelo_inurba_marseille","lat":43.31646,"lon":5.40426,"is_reserved":false,"is_disabled":false,"rental_uris":{"android":"levelo://app?vid=caaaa2bd-f204-437c-87ff-769e2b36244e","ios":"levelo://app?vid=caaaa2bd-f204-437c-87ff-769e2b36244e"},"vehicle_type_id":"4","last_reported":1690556823,"current_range_meters":26000,"station_id":"ce4bh012rcd13ifvqd00","pricing_plan_id":"free"},{"bike_id":"569aca59-b7b0-4fd5-a37c-535f6870c7c5","system_id":"levelo_inurba_marseille","lat":43.31648,"lon":5.40435,"is_reserved":false,"is_disabled":false,"rental_uris":{"android":"levelo://app?vid=569aca59-b7b0-4fd5-a37c-535f6870c7c5","ios":"levelo://app?vid=569aca59-b7b0-4fd5-a37c-535f6870c7c5"},"vehicle_type_id":"4","last_reported":1690556823,"current_range_meters":20000,"station_id":"ce4bh012rcd13ifvqd00","pricing_plan_id":"free"},{"bike_id":"67a403e8-3f89-4ea3-8fe1-7a48cd194426","system_id":"levelo_inurba_marseille","lat":43.31643,"lon":5.40438,"is_reserved":false,"is_disabled":false,"rental_uris":{"android":"levelo://app?vid=67a403e8-3f89-4ea3-8fe1-7a48cd194426","ios":"levelo://app?vid=67a403e8-3f89-4ea3-8fe1-7a48cd194426"},"vehicle_type_id":"4","last_reported":1690556823,"current_range_meters":16400,"station_id":"ce4bh012rcd13ifvqd00","pricing_plan_id":"free"},{"bike_id":"caba9d18-0a14-4f82-9389-1173ad17f601","system_id":"levelo_inurba_marseille","lat":43.284538,"lon":5.358657,"is_reserved":false,"is_disabled":false,"rental_uris":{"android":"levelo://app?vid=caba9d18-0a14-4f82-9389-1173ad17f601","ios":"levelo://app?vid=caba9d18-0a14-4f82-9389-1173ad17f601"},"vehicle_type_id":"4","last_reported":1690556823,"current_range_meters":12000,"station_id":"ce4bhah2rcd13ifvqei0","pricing_plan_id":"free"},{"bike_id":"ad2e0110-bfdb-4d45-beb6-edde18288838","system_id":"levelo_inurba_marseille","lat":43.284538,"lon":5.358657,"is_reserved":false,"is_disabled":false,"rental_uris":{"android":"levelo://app?vid=ad2e0110-bfdb-4d45-beb6-edde18288838","ios":"levelo://app?vid=ad2e0110-bfdb-4d45-beb6-edde18288838"},"vehicle_type_id":"4","last_reported":1690556823,"current_range_meters":21200,"station_id":"ce4bhah2rcd13ifvqei0","pricing_plan_id":"free"},{"bike_id":"6bda8802-a6fe-4596-b401-9dcae680e0eb","system_id":"levelo_inurba_marseille","lat":43.284538,"lon":5.358657,"is_reserved":false,"is_disabled":false,"rental_uris":{"android":"levelo://app?vid=6bda8802-a6fe-4596-b401-9dcae680e0eb","ios":"levelo://app?vid=6bda8802-a6fe-4596-b401-9dcae680e0eb"},"vehicle_type_id":"4","last_reported":1690556823,"current_range_meters":4000,"station_id":"ce4bhah2rcd13ifvqei0","pricing_plan_id":"free"},{"bike_id":"4fa138ee-ef44-466e-88f6-c36f18896cde","system_id":"levelo_inurba_marseille","lat":43.284538,"lon":5.358657,"is_reserved":false,"is_disabled":false,"rental_uris":{"android":"levelo://app?vid=4fa138ee-ef44-466e-88f6-c36f18896cde","ios":"levelo://app?vid=4fa138ee-ef44-466e-88f6-c36f18896cde"},"vehicle_type_id":"4","last_reported":1690556823,"current_range_meters":30400,"station_id":"ce4bhah2rcd13ifvqei0","pricing_plan_id":"free"},{"bike_id":"ab26583a-13a6-4fe1-bef7-0604514b1a03","system_id":"levelo_inurba_marseille","lat":43.294314,"lon":5.397498,"is_reserved":false,"is_disabled":false,"rental_uris":{"android":"levelo://app?vid=ab26583a-13a6-4fe1-bef7-0604514b1a03","ios":"levelo://app?vid=ab26583a-13a6-4fe1-bef7-0604514b1a03"},"vehicle_type_id":"4","last_reported":1690556823,"current_range_meters":30000,"station_id":"ce4bh3h2rcd13ifvqdo0","pricing_plan_id":"free"},{"bike_id":"44052d76-d966-4d00-89e0-d814697993ab","system_id":"levelo_inurba_marseille","lat":43.284538,"lon":5.358657,"is_reserved":false,"is_disabled":false,"rental_uris":{"android":"levelo://app?vid=44052d76-d966-4d00-89e0-d814697993ab","ios":"levelo://app?vid=44052d76-d966-4d00-89e0-d814697993ab"},"vehicle_type_id":"4","last_reported":1690556823,"current_range_meters":30400,"station_id":"ce4bhah2rcd13ifvqei0","pricing_plan_id":"free"},{"bike_id":"6c63baa2-8903-4c0d-94b1-62b2b878b26b","system_id":"levelo_inurba_marseille","lat":43.28456,"lon":5.35892,"is_reserved":false,"is_disabled":false,"rental_uris":{"android":"levelo://app?vid=6c63baa2-8903-4c0d-94b1-62b2b878b26b","ios":"levelo://app?vid=6c63baa2-8903-4c0d-94b1-62b2b878b26b"},"vehicle_type_id":"4","last_reported":1690556823,"current_range_meters":27200,"station_id":"ce4bhah2rcd13ifvqei0","pricing_plan_id":"free"},{"bike_id":"ae2ef1ee-636d-42d1-a71e-9e2804594e33","system_id":"levelo_inurba_marseille","lat":43.285856,"lon":5.350771,"is_reserved":false,"is_disabled":false,"rental_uris":{"android":"levelo://app?vid=ae2ef1ee-636d-42d1-a71e-9e2804594e33","ios":"levelo://app?vid=ae2ef1ee-636d-42d1-a71e-9e2804594e33"},"vehicle_type_id":"4","last_reported":1690556823,"current_range_meters":23200,"station_id":"ce4bhch2rcd13ifvqeug","pricing_plan_id":"free"},{"bike_id":"0a86cb97-1831-40df-91de-f8b1b2f820e8","system_id":"levelo_inurba_marseille","lat":43.28621,"lon":5.35102,"is_reserved":false,"is_disabled":false,"rental_uris":{"android":"levelo://app?vid=0a86cb97-1831-40df-91de-f8b1b2f820e8","ios":"levelo://app?vid=0a86cb97-1831-40df-91de-f8b1b2f820e8"},"vehicle_type_id":"4","last_reported":1690556823,"current_range_meters":30000,"station_id":"ce4bhch2rcd13ifvqeug","pricing_plan_id":"free"},{"bike_id":"2dad2021-c10c-4271-a5e3-c7dfd70ad147","system_id":"levelo_inurba_marseille","lat":43.2862,"lon":5.35103,"is_reserved":false,"is_disabled":false,"rental_uris":{"android":"levelo://app?vid=2dad2021-c10c-4271-a5e3-c7dfd70ad147","ios":"levelo://app?vid=2dad2021-c10c-4271-a5e3-c7dfd70ad147"},"vehicle_type_id":"4","last_reported":1690556823,"current_range_meters":21600,"station_id":"ce4bhch2rcd13ifvqeug","pricing_plan_id":"free"},{"bike_id":"4d66c56a-2e0d-4898-8c94-912b62138ff6","system_id":"levelo_inurba_marseille","lat":43.294314,"lon":5.397498,"is_reserved":false,"is_disabled":false,"rental_uris":{"android":"levelo://app?vid=4d66c56a-2e0d-4898-8c94-912b62138ff6","ios":"levelo://app?vid=4d66c56a-2e0d-4898-8c94-912b62138ff6"},"vehicle_type_id":"4","last_reported":1690556823,"current_range_meters":4800,"station_id":"ce4bh3h2rcd13ifvqdo0","pricing_plan_id":"free"},{"bike_id":"ef0a316d-7446-44ad-a531-5f7dc1e44cae","system_id":"levelo_inurba_marseille","lat":43.285856,"lon":5.350771,"is_reserved":false,"is_disabled":false,"rental_uris":{"android":"levelo://app?vid=ef0a316d-7446-44ad-a531-5f7dc1e44cae","ios":"levelo://app?vid=ef0a316d-7446-44ad-a531-5f7dc1e44cae"},"vehicle_type_id":"4","last_reported":1690556823,"current_range_meters":31200,"station_id":"ce4bhch2rcd13ifvqeug","pricing_plan_id":"free"},{"bike_id":"77940cf6-a6ab-42b1-9341-9633bcc68e74","system_id":"levelo_inurba_marseille","lat":43.28616,"lon":5.35104,"is_reserved":false,"is_disabled":false,"rental_uris":{"android":"levelo://app?vid=77940cf6-a6ab-42b1-9341-9633bcc68e74","ios":"levelo://app?vid=77940cf6-a6ab-42b1-9341-9633bcc68e74"},"vehicle_type_id":"4","last_reported":1690556823,"current_range_meters":23600,"station_id":"ce4bhch2rcd13ifvqeug","pricing_plan_id":"free"},{"bike_id":"c3524b2c-087d-4754-a923-9d46125d1386","system_id":"levelo_inurba_marseille","lat":43.286154,"lon":5.351022,"is_reserved":false,"is_disabled":false,"rental_uris":{"android":"levelo://app?vid=c3524b2c-087d-4754-a923-9d46125d1386","ios":"levelo://app?vid=c3524b2c-087d-4754-a923-9d46125d1386"},"vehicle_type_id":"4","last_reported":1690556823,"current_range_meters":24800,"station_id":"","pricing_plan_id":"free"},{"bike_id":"64655079-1677-4b42-988b-4a492250e7aa","system_id":"levelo_inurba_marseille","lat":43.28615,"lon":5.35102,"is_reserved":false,"is_disabled":false,"rental_uris":{"android":"levelo://app?vid=64655079-1677-4b42-988b-4a492250e7aa","ios":"levelo://app?vid=64655079-1677-4b42-988b-4a492250e7aa"},"vehicle_type_id":"4","last_reported":1690556823,"current_range_meters":14400,"station_id":"ce4bhch2rcd13ifvqeug","pricing_plan_id":"free"},{"bike_id":"a4e7b79d-4280-41de-8abd-b52c4f6a6997","system_id":"levelo_inurba_marseille","lat":43.28615,"lon":5.35101,"is_reserved":false,"is_disabled":false,"rental_uris":{"android":"levelo://app?vid=a4e7b79d-4280-41de-8abd-b52c4f6a6997","ios":"levelo://app?vid=a4e7b79d-4280-41de-8abd-b52c4f6a6997"},"vehicle_type_id":"4","last_reported":1690556823,"current_range_meters":28400,"station_id":"ce4bhch2rcd13ifvqeug","pricing_plan_id":"free"},{"bike_id":"a8520ce9-7d94-4b3c-abe3-58f6508d3c35","system_id":"levelo_inurba_marseille","lat":43.283998,"lon":5.375062,"is_reserved":false,"is_disabled":false,"rental_uris":{"android":"levelo://app?vid=a8520ce9-7d94-4b3c-abe3-58f6508d3c35","ios":"levelo://app?vid=a8520ce9-7d94-4b3c-abe3-58f6508d3c35"},"vehicle_type_id":"4","last_reported":1690556823,"current_range_meters":26400,"station_id":"ce4bh412rcd13ifvqds0","pricing_plan_id":"free"},{"bike_id":"5594f68c-9e8d-4161-8abd-bf1ac5703ccd","system_id":"levelo_inurba_marseille","lat":43.283998,"lon":5.375062,"is_reserved":false,"is_disabled":false,"rental_uris":{"android":"levelo://app?vid=5594f68c-9e8d-4161-8abd-bf1ac5703ccd","ios":"levelo://app?vid=5594f68c-9e8d-4161-8abd-bf1ac5703ccd"},"vehicle_type_id":"4","last_reported":1690556823,"current_range_meters":22000,"station_id":"ce4bh412rcd13ifvqds0","pricing_plan_id":"free"},{"bike_id":"4c96b0c3-9a62-4aed-855d-320352bf97af","system_id":"levelo_inurba_marseille","lat":43.295713,"lon":5.399639,"is_reserved":false,"is_disabled":false,"rental_uris":{"android":"levelo://app?vid=4c96b0c3-9a62-4aed-855d-320352bf97af","ios":"levelo://app?vid=4c96b0c3-9a62-4aed-855d-320352bf97af"},"vehicle_type_id":"4","last_reported":1690556823,"current_range_meters":24800,"station_id":"ce4bh312rcd13ifvqdj0","pricing_plan_id":"free"},{"bike_id":"0ccf8c54-10c9-4cfc-a085-4da8837d390e","system_id":"levelo_inurba_marseille","lat":43.286595,"lon":5.386795,"is_reserved":false,"is_disabled":false,"rental_uris":{"android":"levelo://app?vid=0ccf8c54-10c9-4cfc-a085-4da8837d390e","ios":"levelo://app?vid=0ccf8c54-10c9-4cfc-a085-4da8837d390e"},"vehicle_type_id":"4","last_reported":1690556823,"current_range_meters":0,"station_id":"ce4bh492rcd13ifvqdug","pricing_plan_id":"free"},{"bike_id":"e5c598f8-f039-4b4d-bc5d-4e27a66dfa2d","system_id":"levelo_inurba_marseille","lat":43.3189,"lon":5.40727,"is_reserved":false,"is_disabled":false,"rental_uris":{"android":"levelo://app?vid=e5c598f8-f039-4b4d-bc5d-4e27a66dfa2d","ios":"levelo://app?vid=e5c598f8-f039-4b4d-bc5d-4e27a66dfa2d"},"vehicle_type_id":"4","last_reported":1690556823,"current_range_meters":21600,"station_id":"ce4bhq12rcd13ifvqhig","pricing_plan_id":"free"},{"bike_id":"7dcdf041-bc93-451b-8eb0-db9c07a41c5f","system_id":"levelo_inurba_marseille","lat":43.319179,"lon":5.407725,"is_reserved":false,"is_disabled":false,"rental_uris":{"android":"levelo://app?vid=7dcdf041-bc93-451b-8eb0-db9c07a41c5f","ios":"levelo://app?vid=7dcdf041-bc93-451b-8eb0-db9c07a41c5f"},"vehicle_type_id":"4","last_reported":1690556823,"current_range_meters":31200,"station_id":"ce4bhq12rcd13ifvqhig","pricing_plan_id":"free"},{"bike_id":"036cbe2f-e319-486f-905e-6648dd1b93db","system_id":"levelo_inurba_marseille","lat":43.31893,"lon":5.40735,"is_reserved":false,"is_disabled":false,"rental_uris":{"android":"levelo://app?vid=036cbe2f-e319-486f-905e-6648dd1b93db","ios":"levelo://app?vid=036cbe2f-e319-486f-905e-6648dd1b93db"},"vehicle_type_id":"4","last_reported":1690556823,"current_range_meters":27200,"station_id":"ce4bhq12rcd13ifvqhig","pricing_plan_id":"free"},{"bike_id":"c0c8e2fd-0464-4388-9acf-19c0edc181ad","system_id":"levelo_inurba_marseille","lat":43.31887,"lon":5.40745,"is_reserved":false,"is_disabled":false,"rental_uris":{"android":"levelo://app?vid=c0c8e2fd-0464-4388-9acf-19c0edc181ad","ios":"levelo://app?vid=c0c8e2fd-0464-4388-9acf-19c0edc181ad"},"vehicle_type_id":"4","last_reported":1690556823,"current_range_meters":28400,"station_id":"ce4bhq12rcd13ifvqhig","pricing_plan_id":"free"},{"bike_id":"f2197b32-1790-4499-9acb-48b384ecc478","system_id":"levelo_inurba_marseille","lat":43.33721,"lon":5.39178,"is_reserved":false,"is_disabled":false,"rental_uris":{"android":"levelo://app?vid=f2197b32-1790-4499-9acb-48b384ecc478","ios":"levelo://app?vid=f2197b32-1790-4499-9acb-48b384ecc478"},"vehicle_type_id":"4","last_reported":1690556823,"current_range_meters":24800,"station_id":"ce4bhr92rcd13ifvqhsg","pricing_plan_id":"free"},{"bike_id":"29a7712d-067c-4ae1-9301-c795bf20c53f","system_id":"levelo_inurba_marseille","lat":43.337168,"lon":5.391825,"is_reserved":false,"is_disabled":false,"rental_uris":{"android":"levelo://app?vid=29a7712d-067c-4ae1-9301-c795bf20c53f","ios":"levelo://app?vid=29a7712d-067c-4ae1-9301-c795bf20c53f"},"vehicle_type_id":"4","last_reported":1690556823,"current_range_meters":26000,"station_id":"ce4bhr92rcd13ifvqhsg","pricing_plan_id":"free"},{"bike_id":"07355913-3475-48df-8d84-3e45dbf0e07b","system_id":"levelo_inurba_marseille","lat":43.33724,"lon":5.39182,"is_reserved":false,"is_disabled":false,"rental_uris":{"android":"levelo://app?vid=07355913-3475-48df-8d84-3e45dbf0e07b","ios":"levelo://app?vid=07355913-3475-48df-8d84-3e45dbf0e07b"},"vehicle_type_id":"4","last_reported":1690556823,"current_range_meters":24000,"station_id":"ce4bhr92rcd13ifvqhsg","pricing_plan_id":"free"},{"bike_id":"838a4aae-6542-4395-bd1f-0c01c6ad5d93","system_id":"levelo_inurba_marseille","lat":43.337168,"lon":5.391825,"is_reserved":false,"is_disabled":false,"rental_uris":{"android":"levelo://app?vid=838a4aae-6542-4395-bd1f-0c01c6ad5d93","ios":"levelo://app?vid=838a4aae-6542-4395-bd1f-0c01c6ad5d93"},"vehicle_type_id":"4","last_reported":1690556823,"current_range_meters":12800,"station_id":"ce4bhr92rcd13ifvqhsg","pricing_plan_id":"free"},{"bike_id":"bfba1d51-c352-4de8-b042-a36245d6322f","system_id":"levelo_inurba_marseille","lat":43.337168,"lon":5.391825,"is_reserved":false,"is_disabled":false,"rental_uris":{"android":"levelo://app?vid=bfba1d51-c352-4de8-b042-a36245d6322f","ios":"levelo://app?vid=bfba1d51-c352-4de8-b042-a36245d6322f"},"vehicle_type_id":"4","last_reported":1690556823,"current_range_meters":26000,"station_id":"ce4bhr92rcd13ifvqhsg","pricing_plan_id":"free"},{"bike_id":"7e209f61-3c45-427c-ae4d-e4269e2dda66","system_id":"levelo_inurba_marseille","lat":43.33729,"lon":5.39176,"is_reserved":false,"is_disabled":false,"rental_uris":{"android":"levelo://app?vid=7e209f61-3c45-427c-ae4d-e4269e2dda66","ios":"levelo://app?vid=7e209f61-3c45-427c-ae4d-e4269e2dda66"},"vehicle_type_id":"4","last_reported":1690556823,"current_range_meters":20000,"station_id":"ce4bhr92rcd13ifvqhsg","pricing_plan_id":"free"},{"bike_id":"80d0d10d-6e2c-4a8f-a4b5-183c8411b524","system_id":"levelo_inurba_marseille","lat":43.337168,"lon":5.391825,"is_reserved":false,"is_disabled":false,"rental_uris":{"android":"levelo://app?vid=80d0d10d-6e2c-4a8f-a4b5-183c8411b524","ios":"levelo://app?vid=80d0d10d-6e2c-4a8f-a4b5-183c8411b524"},"vehicle_type_id":"4","last_reported":1690556823,"current_range_meters":4400,"station_id":"ce4bhr92rcd13ifvqhsg","pricing_plan_id":"free"},{"bike_id":"c2e0d788-06c6-4864-90af-153f10e4a9ce","system_id":"levelo_inurba_marseille","lat":43.33722,"lon":5.39191,"is_reserved":false,"is_disabled":false,"rental_uris":{"android":"levelo://app?vid=c2e0d788-06c6-4864-90af-153f10e4a9ce","ios":"levelo://app?vid=c2e0d788-06c6-4864-90af-153f10e4a9ce"},"vehicle_type_id":"4","last_reported":1690556823,"current_range_meters":24400,"station_id":"ce4bhr92rcd13ifvqhsg","pricing_plan_id":"free"},{"bike_id":"43220b4f-2f70-4e94-97f1-1e2ac480d532","system_id":"levelo_inurba_marseille","lat":43.323464,"lon":5.406297,"is_reserved":false,"is_disabled":false,"rental_uris":{"android":"levelo://app?vid=43220b4f-2f70-4e94-97f1-1e2ac480d532","ios":"levelo://app?vid=43220b4f-2f70-4e94-97f1-1e2ac480d532"},"vehicle_type_id":"4","last_reported":1690556823,"current_range_meters":31200,"station_id":"ce4bhq92rcd13ifvqhjg","pricing_plan_id":"free"},{"bike_id":"6c21d052-a8f7-4247-a1bf-1cbeede9f08a","system_id":"levelo_inurba_marseille","lat":43.29805,"lon":5.40394,"is_reserved":false,"is_disabled":false,"rental_uris":{"android":"levelo://app?vid=6c21d052-a8f7-4247-a1bf-1cbeede9f08a","ios":"levelo://app?vid=6c21d052-a8f7-4247-a1bf-1cbeede9f08a"},"vehicle_type_id":"4","last_reported":1690556823,"current_range_meters":22000,"station_id":"","pricing_plan_id":"free"},{"bike_id":"c62b664f-35db-4b2d-af6c-47a211aecb31","system_id":"levelo_inurba_marseille","lat":43.283494,"lon":5.380945,"is_reserved":false,"is_disabled":false,"rental_uris":{"android":"levelo://app?vid=c62b664f-35db-4b2d-af6c-47a211aecb31","ios":"levelo://app?vid=c62b664f-35db-4b2d-af6c-47a211aecb31"},"vehicle_type_id":"4","last_reported":1690556823,"current_range_meters":22800,"station_id":"ce4bh412rcd13ifvqdr0","pricing_plan_id":"free"},{"bike_id":"bfd97e61-fa25-41fe-9a5b-4ca64a19a0ec","system_id":"levelo_inurba_marseille","lat":43.28433,"lon":5.34998,"is_reserved":false,"is_disabled":false,"rental_uris":{"android":"levelo://app?vid=bfd97e61-fa25-41fe-9a5b-4ca64a19a0ec","ios":"levelo://app?vid=bfd97e61-fa25-41fe-9a5b-4ca64a19a0ec"},"vehicle_type_id":"4","last_reported":1690556823,"current_range_meters":18800,"station_id":"ce4bhbh2rcd13ifvqepg","pricing_plan_id":"free"},{"bike_id":"28107b56-d609-4626-ad87-d00780e3f0fc","system_id":"levelo_inurba_marseille","lat":43.284219,"lon":5.3497,"is_reserved":false,"is_disabled":false,"rental_uris":{"android":"levelo://app?vid=28107b56-d609-4626-ad87-d00780e3f0fc","ios":"levelo://app?vid=28107b56-d609-4626-ad87-d00780e3f0fc"},"vehicle_type_id":"4","last_reported":1690556823,"current_range_meters":13600,"station_id":"ce4bhbh2rcd13ifvqepg","pricing_plan_id":"free"},{"bike_id":"d690cd11-7e65-4852-9af4-e66a0c85de67","system_id":"levelo_inurba_marseille","lat":43.283494,"lon":5.380945,"is_reserved":false,"is_disabled":false,"rental_uris":{"android":"levelo://app?vid=d690cd11-7e65-4852-9af4-e66a0c85de67","ios":"levelo://app?vid=d690cd11-7e65-4852-9af4-e66a0c85de67"},"vehicle_type_id":"4","last_reported":1690556823,"current_range_meters":5600,"station_id":"ce4bh412rcd13ifvqdr0","pricing_plan_id":"free"},{"bike_id":"448e71a1-78fe-40e2-951e-708f7c1f85ae","system_id":"levelo_inurba_marseille","lat":43.284217,"lon":5.349697,"is_reserved":false,"is_disabled":false,"rental_uris":{"android":"levelo://app?vid=448e71a1-78fe-40e2-951e-708f7c1f85ae","ios":"levelo://app?vid=448e71a1-78fe-40e2-951e-708f7c1f85ae"},"vehicle_type_id":"4","last_reported":1690556823,"current_range_meters":22800,"station_id":"ce4bhbh2rcd13ifvqepg","pricing_plan_id":"free"},{"bike_id":"f5ce0b3f-9e16-434c-8a1c-6436351bb5da","system_id":"levelo_inurba_marseille","lat":43.284267,"lon":5.350014,"is_reserved":false,"is_disabled":false,"rental_uris":{"android":"levelo://app?vid=f5ce0b3f-9e16-434c-8a1c-6436351bb5da","ios":"levelo://app?vid=f5ce0b3f-9e16-434c-8a1c-6436351bb5da"},"vehicle_type_id":"4","last_reported":1690556823,"current_range_meters":30400,"station_id":"ce4bhbh2rcd13ifvqepg","pricing_plan_id":"free"},{"bike_id":"9a11e8ba-7c87-4919-bb7e-ed7c6025b223","system_id":"levelo_inurba_marseille","lat":43.28427,"lon":5.34997,"is_reserved":false,"is_disabled":false,"rental_uris":{"android":"levelo://app?vid=9a11e8ba-7c87-4919-bb7e-ed7c6025b223","ios":"levelo://app?vid=9a11e8ba-7c87-4919-bb7e-ed7c6025b223"},"vehicle_type_id":"4","last_reported":1690556823,"current_range_meters":11600,"station_id":"ce4bhbh2rcd13ifvqepg","pricing_plan_id":"free"},{"bike_id":"de4bc684-3b4e-4ed7-89d0-919404df9793","system_id":"levelo_inurba_marseille","lat":43.284219,"lon":5.3497,"is_reserved":false,"is_disabled":false,"rental_uris":{"android":"levelo://app?vid=de4bc684-3b4e-4ed7-89d0-919404df9793","ios":"levelo://app?vid=de4bc684-3b4e-4ed7-89d0-919404df9793"},"vehicle_type_id":"4","last_reported":1690556823,"current_range_meters":27200,"station_id":"ce4bhbh2rcd13ifvqepg","pricing_plan_id":"free"},{"bike_id":"7582e9b4-8802-4caa-9e2c-b0c9d093db6d","system_id":"levelo_inurba_marseille","lat":43.284217,"lon":5.349697,"is_reserved":false,"is_disabled":false,"rental_uris":{"android":"levelo://app?vid=7582e9b4-8802-4caa-9e2c-b0c9d093db6d","ios":"levelo://app?vid=7582e9b4-8802-4caa-9e2c-b0c9d093db6d"},"vehicle_type_id":"4","last_reported":1690556823,"current_range_meters":26000,"station_id":"ce4bhbh2rcd13ifvqepg","pricing_plan_id":"free"},{"bike_id":"ea9700b8-6419-47fa-ba4f-444047bd6b0a","system_id":"levelo_inurba_marseille","lat":43.28425,"lon":5.34994,"is_reserved":false,"is_disabled":false,"rental_uris":{"android":"levelo://app?vid=ea9700b8-6419-47fa-ba4f-444047bd6b0a","ios":"levelo://app?vid=ea9700b8-6419-47fa-ba4f-444047bd6b0a"},"vehicle_type_id":"4","last_reported":1690556823,"current_range_meters":31200,"station_id":"ce4bhbh2rcd13ifvqepg","pricing_plan_id":"free"},{"bike_id":"89528857-ddf7-4b45-8773-52d7fcde325a","system_id":"levelo_inurba_marseille","lat":43.28421,"lon":5.35006,"is_reserved":false,"is_disabled":false,"rental_uris":{"android":"levelo://app?vid=89528857-ddf7-4b45-8773-52d7fcde325a","ios":"levelo://app?vid=89528857-ddf7-4b45-8773-52d7fcde325a"},"vehicle_type_id":"4","last_reported":1690556823,"current_range_meters":21200,"station_id":"ce4bhbh2rcd13ifvqepg","pricing_plan_id":"free"},{"bike_id":"b0180a19-85ef-4a85-9cc3-9f7cce8640be","system_id":"levelo_inurba_marseille","lat":43.284217,"lon":5.349697,"is_reserved":false,"is_disabled":false,"rental_uris":{"android":"levelo://app?vid=b0180a19-85ef-4a85-9cc3-9f7cce8640be","ios":"levelo://app?vid=b0180a19-85ef-4a85-9cc3-9f7cce8640be"},"vehicle_type_id":"4","last_reported":1690556823,"current_range_meters":14800,"station_id":"ce4bhbh2rcd13ifvqepg","pricing_plan_id":"free"},{"bike_id":"733fdc06-d409-40d9-97eb-511d509f5e57","system_id":"levelo_inurba_marseille","lat":43.284219,"lon":5.3497,"is_reserved":false,"is_disabled":false,"rental_uris":{"android":"levelo://app?vid=733fdc06-d409-40d9-97eb-511d509f5e57","ios":"levelo://app?vid=733fdc06-d409-40d9-97eb-511d509f5e57"},"vehicle_type_id":"4","last_reported":1690556823,"current_range_meters":30000,"station_id":"ce4bhbh2rcd13ifvqepg","pricing_plan_id":"free"},{"bike_id":"ec796054-6de8-4263-b3b5-6b19a3e27720","system_id":"levelo_inurba_marseille","lat":43.28425,"lon":5.34988,"is_reserved":false,"is_disabled":false,"rental_uris":{"android":"levelo://app?vid=ec796054-6de8-4263-b3b5-6b19a3e27720","ios":"levelo://app?vid=ec796054-6de8-4263-b3b5-6b19a3e27720"},"vehicle_type_id":"4","last_reported":1690556823,"current_range_meters":20400,"station_id":"ce4bhbh2rcd13ifvqepg","pricing_plan_id":"free"},{"bike_id":"197cb26e-00f1-47a3-a196-bde808f1709e","system_id":"levelo_inurba_marseille","lat":43.28429,"lon":5.34975,"is_reserved":false,"is_disabled":false,"rental_uris":{"android":"levelo://app?vid=197cb26e-00f1-47a3-a196-bde808f1709e","ios":"levelo://app?vid=197cb26e-00f1-47a3-a196-bde808f1709e"},"vehicle_type_id":"4","last_reported":1690556823,"current_range_meters":23600,"station_id":"ce4bhbh2rcd13ifvqepg","pricing_plan_id":"free"},{"bike_id":"89b3d2f1-96fb-427c-8ac6-2238ed433a49","system_id":"levelo_inurba_marseille","lat":43.28424,"lon":5.34988,"is_reserved":false,"is_disabled":false,"rental_uris":{"android":"levelo://app?vid=89b3d2f1-96fb-427c-8ac6-2238ed433a49","ios":"levelo://app?vid=89b3d2f1-96fb-427c-8ac6-2238ed433a49"},"vehicle_type_id":"4","last_reported":1690556823,"current_range_meters":23200,"station_id":"ce4bhbh2rcd13ifvqepg","pricing_plan_id":"free"},{"bike_id":"48a8f6c1-c76c-4cc7-8bdd-383d04b7b532","system_id":"levelo_inurba_marseille","lat":43.28423,"lon":5.3499,"is_reserved":false,"is_disabled":false,"rental_uris":{"android":"levelo://app?vid=48a8f6c1-c76c-4cc7-8bdd-383d04b7b532","ios":"levelo://app?vid=48a8f6c1-c76c-4cc7-8bdd-383d04b7b532"},"vehicle_type_id":"4","last_reported":1690556823,"current_range_meters":14800,"station_id":"ce4bhbh2rcd13ifvqepg","pricing_plan_id":"free"},{"bike_id":"25f7ab45-910e-4f46-8109-9e87b11adf77","system_id":"levelo_inurba_marseille","lat":43.28424,"lon":5.34986,"is_reserved":false,"is_disabled":false,"rental_uris":{"android":"levelo://app?vid=25f7ab45-910e-4f46-8109-9e87b11adf77","ios":"levelo://app?vid=25f7ab45-910e-4f46-8109-9e87b11adf77"},"vehicle_type_id":"4","last_reported":1690556823,"current_range_meters":31200,"station_id":"ce4bhbh2rcd13ifvqepg","pricing_plan_id":"free"},{"bike_id":"729187fc-a134-46d3-a18b-d78729b36314","system_id":"levelo_inurba_marseille","lat":43.28425,"lon":5.34982,"is_reserved":false,"is_disabled":false,"rental_uris":{"android":"levelo://app?vid=729187fc-a134-46d3-a18b-d78729b36314","ios":"levelo://app?vid=729187fc-a134-46d3-a18b-d78729b36314"},"vehicle_type_id":"4","last_reported":1690556823,"current_range_meters":11600,"station_id":"ce4bhbh2rcd13ifvqepg","pricing_plan_id":"free"},{"bike_id":"bcd82e34-b86f-4634-a07b-ade7ab3ab06f","system_id":"levelo_inurba_marseille","lat":43.28427,"lon":5.34973,"is_reserved":false,"is_disabled":false,"rental_uris":{"android":"levelo://app?vid=bcd82e34-b86f-4634-a07b-ade7ab3ab06f","ios":"levelo://app?vid=bcd82e34-b86f-4634-a07b-ade7ab3ab06f"},"vehicle_type_id":"4","last_reported":1690556823,"current_range_meters":23600,"station_id":"ce4bhbh2rcd13ifvqepg","pricing_plan_id":"free"},{"bike_id":"2c66bd1b-6492-4db0-a020-1414c777d80d","system_id":"levelo_inurba_marseille","lat":43.28419,"lon":5.34995,"is_reserved":false,"is_disabled":false,"rental_uris":{"android":"levelo://app?vid=2c66bd1b-6492-4db0-a020-1414c777d80d","ios":"levelo://app?vid=2c66bd1b-6492-4db0-a020-1414c777d80d"},"vehicle_type_id":"4","last_reported":1690556823,"current_range_meters":26800,"station_id":"ce4bhbh2rcd13ifvqepg","pricing_plan_id":"free"},{"bike_id":"5f97f34e-e3da-4381-8fc4-bb3c97bbb996","system_id":"levelo_inurba_marseille","lat":43.28423,"lon":5.34981,"is_reserved":false,"is_disabled":false,"rental_uris":{"android":"levelo://app?vid=5f97f34e-e3da-4381-8fc4-bb3c97bbb996","ios":"levelo://app?vid=5f97f34e-e3da-4381-8fc4-bb3c97bbb996"},"vehicle_type_id":"4","last_reported":1690556823,"current_range_meters":31200,"station_id":"ce4bhbh2rcd13ifvqepg","pricing_plan_id":"free"},{"bike_id":"b1ba4608-244c-4bf6-9201-b952ad965645","system_id":"levelo_inurba_marseille","lat":43.28418,"lon":5.34995,"is_reserved":false,"is_disabled":false,"rental_uris":{"android":"levelo://app?vid=b1ba4608-244c-4bf6-9201-b952ad965645","ios":"levelo://app?vid=b1ba4608-244c-4bf6-9201-b952ad965645"},"vehicle_type_id":"4","last_reported":1690556823,"current_range_meters":13200,"station_id":"ce4bhbh2rcd13ifvqepg","pricing_plan_id":"free"},{"bike_id":"dac3784f-2da9-4da9-ba28-bbe66d7b0ca3","system_id":"levelo_inurba_marseille","lat":43.284217,"lon":5.349697,"is_reserved":false,"is_disabled":false,"rental_uris":{"android":"levelo://app?vid=dac3784f-2da9-4da9-ba28-bbe66d7b0ca3","ios":"levelo://app?vid=dac3784f-2da9-4da9-ba28-bbe66d7b0ca3"},"vehicle_type_id":"4","last_reported":1690556823,"current_range_meters":17600,"station_id":"ce4bhbh2rcd13ifvqepg","pricing_plan_id":"free"},{"bike_id":"8d494584-6c12-4133-aeb1-6185d37adf3b","system_id":"levelo_inurba_marseille","lat":43.284217,"lon":5.349697,"is_reserved":false,"is_disabled":false,"rental_uris":{"android":"levelo://app?vid=8d494584-6c12-4133-aeb1-6185d37adf3b","ios":"levelo://app?vid=8d494584-6c12-4133-aeb1-6185d37adf3b"},"vehicle_type_id":"4","last_reported":1690556823,"current_range_meters":25600,"station_id":"ce4bhbh2rcd13ifvqepg","pricing_plan_id":"free"},{"bike_id":"37cea05f-be02-4ab0-abd3-e89b7ff81058","system_id":"levelo_inurba_marseille","lat":43.284217,"lon":5.349697,"is_reserved":false,"is_disabled":false,"rental_uris":{"android":"levelo://app?vid=37cea05f-be02-4ab0-abd3-e89b7ff81058","ios":"levelo://app?vid=37cea05f-be02-4ab0-abd3-e89b7ff81058"},"vehicle_type_id":"4","last_reported":1690556823,"current_range_meters":29200,"station_id":"ce4bhbh2rcd13ifvqepg","pricing_plan_id":"free"},{"bike_id":"b49596ee-f837-4f84-a8c9-f4152516e5e0","system_id":"levelo_inurba_marseille","lat":43.284217,"lon":5.349697,"is_reserved":false,"is_disabled":false,"rental_uris":{"android":"levelo://app?vid=b49596ee-f837-4f84-a8c9-f4152516e5e0","ios":"levelo://app?vid=b49596ee-f837-4f84-a8c9-f4152516e5e0"},"vehicle_type_id":"4","last_reported":1690556823,"current_range_meters":20000,"station_id":"ce4bhbh2rcd13ifvqepg","pricing_plan_id":"free"},{"bike_id":"3ededa8d-4bac-4ca1-be2d-e7cda3d3224c","system_id":"levelo_inurba_marseille","lat":43.284217,"lon":5.349697,"is_reserved":false,"is_disabled":false,"rental_uris":{"android":"levelo://app?vid=3ededa8d-4bac-4ca1-be2d-e7cda3d3224c","ios":"levelo://app?vid=3ededa8d-4bac-4ca1-be2d-e7cda3d3224c"},"vehicle_type_id":"4","last_reported":1690556823,"current_range_meters":21200,"station_id":"ce4bhbh2rcd13ifvqepg","pricing_plan_id":"free"},{"bike_id":"7bb33712-4cda-4691-8d8f-6e0c8760d23a","system_id":"levelo_inurba_marseille","lat":43.28418,"lon":5.34977,"is_reserved":false,"is_disabled":false,"rental_uris":{"android":"levelo://app?vid=7bb33712-4cda-4691-8d8f-6e0c8760d23a","ios":"levelo://app?vid=7bb33712-4cda-4691-8d8f-6e0c8760d23a"},"vehicle_type_id":"4","last_reported":1690556823,"current_range_meters":14000,"station_id":"ce4bhbh2rcd13ifvqepg","pricing_plan_id":"free"},{"bike_id":"4c38387b-c9aa-4e98-8be2-f5c2f688abc5","system_id":"levelo_inurba_marseille","lat":43.284217,"lon":5.349697,"is_reserved":false,"is_disabled":false,"rental_uris":{"android":"levelo://app?vid=4c38387b-c9aa-4e98-8be2-f5c2f688abc5","ios":"levelo://app?vid=4c38387b-c9aa-4e98-8be2-f5c2f688abc5"},"vehicle_type_id":"4","last_reported":1690556823,"current_range_meters":29200,"station_id":"ce4bhbh2rcd13ifvqepg","pricing_plan_id":"free"},{"bike_id":"9adb753a-0921-48f5-97a6-e2bc373ace0b","system_id":"levelo_inurba_marseille","lat":43.284217,"lon":5.349697,"is_reserved":false,"is_disabled":false,"rental_uris":{"android":"levelo://app?vid=9adb753a-0921-48f5-97a6-e2bc373ace0b","ios":"levelo://app?vid=9adb753a-0921-48f5-97a6-e2bc373ace0b"},"vehicle_type_id":"4","last_reported":1690556823,"current_range_meters":25600,"station_id":"ce4bhbh2rcd13ifvqepg","pricing_plan_id":"free"},{"bike_id":"fb87974d-06f0-46ff-b45d-ff892fe5cf20","system_id":"levelo_inurba_marseille","lat":43.28285,"lon":5.35074,"is_reserved":false,"is_disabled":false,"rental_uris":{"android":"levelo://app?vid=fb87974d-06f0-46ff-b45d-ff892fe5cf20","ios":"levelo://app?vid=fb87974d-06f0-46ff-b45d-ff892fe5cf20"},"vehicle_type_id":"4","last_reported":1690556823,"current_range_meters":17200,"station_id":"ce4bhbp2rcd13ifvqerg","pricing_plan_id":"free"},{"bike_id":"c1eef730-6218-4c6e-b2de-468313968909","system_id":"levelo_inurba_marseille","lat":43.28279,"lon":5.35084,"is_reserved":false,"is_disabled":false,"rental_uris":{"android":"levelo://app?vid=c1eef730-6218-4c6e-b2de-468313968909","ios":"levelo://app?vid=c1eef730-6218-4c6e-b2de-468313968909"},"vehicle_type_id":"4","last_reported":1690556823,"current_range_meters":27200,"station_id":"ce4bhbp2rcd13ifvqerg","pricing_plan_id":"free"},{"bike_id":"d30a8c62-1b38-4731-922b-0baaa664aba1","system_id":"levelo_inurba_marseille","lat":43.28282,"lon":5.35066,"is_reserved":false,"is_disabled":false,"rental_uris":{"android":"levelo://app?vid=d30a8c62-1b38-4731-922b-0baaa664aba1","ios":"levelo://app?vid=d30a8c62-1b38-4731-922b-0baaa664aba1"},