{"last_updated":1771576186,"ttl":60,"version":"2.2","data":{"bikes":[{"bike_id":"99327eba-2c72-48ee-a78b-9b9a5e0f558b","system_id":"levelo_inurba_marseille","lat":43.337444,"lon":5.374475,"is_reserved":false,"is_disabled":true,"rental_uris":{"android":"levelo://app?vid=99327eba-2c72-48ee-a78b-9b9a5e0f558b","ios":"levelo://app?vid=99327eba-2c72-48ee-a78b-9b9a5e0f558b"},"vehicle_type_id":"4","last_reported":1771576187,"current_range_meters":22000,"station_id":"","pricing_plan_id":"cebpf4jnsgd1na2vs0mg"},{"bike_id":"43b98b5f-6dbd-4ec4-a093-cfba8e608803","system_id":"levelo_inurba_marseille","lat":43.32973,"lon":5.39042,"is_reserved":false,"is_disabled":false,"rental_uris":{"android":"levelo://app?vid=43b98b5f-6dbd-4ec4-a093-cfba8e608803","ios":"levelo://app?vid=43b98b5f-6dbd-4ec4-a093-cfba8e608803"},"vehicle_type_id":"4","last_reported":1771576187,"current_range_meters":38800,"station_id":"ce4bhr92rcd13ifvqhrg","pricing_plan_id":"cebpf4jnsgd1na2vs0mg"},{"bike_id":"7a1cdecb-11bb-4f70-bf50-b6f3456f03c6","system_id":"levelo_inurba_marseille","lat":43.33018,"lon":5.39018,"is_reserved":false,"is_disabled":false,"rental_uris":{"android":"levelo://app?vid=7a1cdecb-11bb-4f70-bf50-b6f3456f03c6","ios":"levelo://app?vid=7a1cdecb-11bb-4f70-bf50-b6f3456f03c6"},"vehicle_type_id":"4","last_reported":1771576187,"current_range_meters":38800,"station_id":"ce4bhr92rcd13ifvqhrg","pricing_plan_id":"cebpf4jnsgd1na2vs0mg"},{"bike_id":"4d144231-2289-496a-bc7a-fa4fa5d7e2d8","system_id":"levelo_inurba_marseille","lat":43.330213,"lon":5.390429,"is_reserved":false,"is_disabled":false,"rental_uris":{"android":"levelo://app?vid=4d144231-2289-496a-bc7a-fa4fa5d7e2d8","ios":"levelo://app?vid=4d144231-2289-496a-bc7a-fa4fa5d7e2d8"},"vehicle_type_id":"4","last_reported":1771576187,"current_range_meters":38400,"station_id":"ce4bhr92rcd13ifvqhrg","pricing_plan_id":"cebpf4jnsgd1na2vs0mg"},{"bike_id":"0516ad23-91ca-413d-b8b4-23658eb358e0","system_id":"levelo_inurba_marseille","lat":43.3299,"lon":5.39051,"is_reserved":false,"is_disabled":false,"rental_uris":{"android":"levelo://app?vid=0516ad23-91ca-413d-b8b4-23658eb358e0","ios":"levelo://app?vid=0516ad23-91ca-413d-b8b4-23658eb358e0"},"vehicle_type_id":"4","last_reported":1771576187,"current_range_meters":39200,"station_id":"ce4bhr92rcd13ifvqhrg","pricing_plan_id":"cebpf4jnsgd1na2vs0mg"},{"bike_id":"ccfa2006-ef9a-478a-a704-426a2376a419","system_id":"levelo_inurba_marseille","lat":43.33018,"lon":5.39035,"is_reserved":false,"is_disabled":false,"rental_uris":{"android":"levelo://app?vid=ccfa2006-ef9a-478a-a704-426a2376a419","ios":"levelo://app?vid=ccfa2006-ef9a-478a-a704-426a2376a419"},"vehicle_type_id":"4","last_reported":1771576187,"current_range_meters":38800,"station_id":"ce4bhr92rcd13ifvqhrg","pricing_plan_id":"cebpf4jnsgd1na2vs0mg"},{"bike_id":"9cf09c6e-6674-4d88-9be0-f6e909b4f5c4","system_id":"levelo_inurba_marseille","lat":43.3298,"lon":5.39039,"is_reserved":false,"is_disabled":false,"rental_uris":{"android":"levelo://app?vid=9cf09c6e-6674-4d88-9be0-f6e909b4f5c4","ios":"levelo://app?vid=9cf09c6e-6674-4d88-9be0-f6e909b4f5c4"},"vehicle_type_id":"4","last_reported":1771576187,"current_range_meters":38400,"station_id":"ce4bhr92rcd13ifvqhrg","pricing_plan_id":"cebpf4jnsgd1na2vs0mg"},{"bike_id":"67684dd4-9830-4386-8d3b-50a28b8fdff3","system_id":"levelo_inurba_marseille","lat":43.33029,"lon":5.39058,"is_reserved":false,"is_disabled":false,"rental_uris":{"android":"levelo://app?vid=67684dd4-9830-4386-8d3b-50a28b8fdff3","ios":"levelo://app?vid=67684dd4-9830-4386-8d3b-50a28b8fdff3"},"vehicle_type_id":"4","last_reported":1771576187,"current_range_meters":38400,"station_id":"ce4bhr92rcd13ifvqhrg","pricing_plan_id":"cebpf4jnsgd1na2vs0mg"},{"bike_id":"ccbd50e9-f625-45cd-9d62-546945609220","system_id":"levelo_inurba_marseille","lat":43.29068,"lon":5.40023,"is_reserved":false,"is_disabled":false,"rental_uris":{"android":"levelo://app?vid=ccbd50e9-f625-45cd-9d62-546945609220","ios":"levelo://app?vid=ccbd50e9-f625-45cd-9d62-546945609220"},"vehicle_type_id":"4","last_reported":1771576187,"current_range_meters":8000,"station_id":"","pricing_plan_id":"cebpf4jnsgd1na2vs0mg"},{"bike_id":"d8078990-2633-4921-9e81-c73d420fcb12","system_id":"levelo_inurba_marseille","lat":43.28402,"lon":5.37523,"is_reserved":false,"is_disabled":true,"rental_uris":{"android":"levelo://app?vid=d8078990-2633-4921-9e81-c73d420fcb12","ios":"levelo://app?vid=d8078990-2633-4921-9e81-c73d420fcb12"},"vehicle_type_id":"4","last_reported":1771576187,"current_range_meters":16400,"station_id":"ce4bh412rcd13ifvqds0","pricing_plan_id":"cebpf4jnsgd1na2vs0mg"},{"bike_id":"f56469d6-156e-4dc9-9c3e-3416ed76c4ba","system_id":"levelo_inurba_marseille","lat":43.33153,"lon":5.37702,"is_reserved":false,"is_disabled":false,"rental_uris":{"android":"levelo://app?vid=f56469d6-156e-4dc9-9c3e-3416ed76c4ba","ios":"levelo://app?vid=f56469d6-156e-4dc9-9c3e-3416ed76c4ba"},"vehicle_type_id":"4","last_reported":1771576187,"current_range_meters":19200,"station_id":"st_d46cu089ee8s73dldbu0","pricing_plan_id":"cebpf4jnsgd1na2vs0mg"},{"bike_id":"f1b8608e-c371-45f5-a94a-be8266215028","system_id":"levelo_inurba_marseille","lat":43.30294,"lon":5.36918,"is_reserved":false,"is_disabled":false,"rental_uris":{"android":"levelo://app?vid=f1b8608e-c371-45f5-a94a-be8266215028","ios":"levelo://app?vid=f1b8608e-c371-45f5-a94a-be8266215028"},"vehicle_type_id":"4","last_reported":1771576187,"current_range_meters":40000,"station_id":"ce4bgqh2rcd13ifvqc5g","pricing_plan_id":"cebpf4jnsgd1na2vs0mg"},{"bike_id":"21fcee29-1f60-4b15-9570-fdb254aa265c","system_id":"levelo_inurba_marseille","lat":43.3057,"lon":5.36702,"is_reserved":false,"is_disabled":false,"rental_uris":{"android":"levelo://app?vid=21fcee29-1f60-4b15-9570-fdb254aa265c","ios":"levelo://app?vid=21fcee29-1f60-4b15-9570-fdb254aa265c"},"vehicle_type_id":"4","last_reported":1771576187,"current_range_meters":34800,"station_id":"ce4bgrp2rcd13ifvqc9g","pricing_plan_id":"cebpf4jnsgd1na2vs0mg"},{"bike_id":"de52f379-b00e-4e25-8e81-ecdb9b209b8f","system_id":"levelo_inurba_marseille","lat":43.2799,"lon":5.40021,"is_reserved":false,"is_disabled":false,"rental_uris":{"android":"levelo://app?vid=de52f379-b00e-4e25-8e81-ecdb9b209b8f","ios":"levelo://app?vid=de52f379-b00e-4e25-8e81-ecdb9b209b8f"},"vehicle_type_id":"4","last_reported":1771576187,"current_range_meters":22800,"station_id":"ce4bho92rcd13ifvqh4g","pricing_plan_id":"cebpf4jnsgd1na2vs0mg"},{"bike_id":"5a2ea636-c0b3-4ef1-8174-a3363098f3d9","system_id":"levelo_inurba_marseille","lat":43.30425,"lon":5.39742,"is_reserved":false,"is_disabled":false,"rental_uris":{"android":"levelo://app?vid=5a2ea636-c0b3-4ef1-8174-a3363098f3d9","ios":"levelo://app?vid=5a2ea636-c0b3-4ef1-8174-a3363098f3d9"},"vehicle_type_id":"4","last_reported":1771576187,"current_range_meters":28000,"station_id":"ce4bh092rcd13ifvqd20","pricing_plan_id":"cebpf4jnsgd1na2vs0mg"},{"bike_id":"290fa5f4-0ced-4749-90ac-279bca5e7583","system_id":"levelo_inurba_marseille","lat":43.3135,"lon":5.39714,"is_reserved":false,"is_disabled":false,"rental_uris":{"android":"levelo://app?vid=290fa5f4-0ced-4749-90ac-279bca5e7583","ios":"levelo://app?vid=290fa5f4-0ced-4749-90ac-279bca5e7583"},"vehicle_type_id":"4","last_reported":1771576187,"current_range_meters":33200,"station_id":"ce4bgvp2rcd13ifvqcu0","pricing_plan_id":"cebpf4jnsgd1na2vs0mg"},{"bike_id":"37b7e444-9d5d-4c7d-ab45-e9b1c28ae4ed","system_id":"levelo_inurba_marseille","lat":43.2696,"lon":5.38626,"is_reserved":false,"is_disabled":false,"rental_uris":{"android":"levelo://app?vid=37b7e444-9d5d-4c7d-ab45-e9b1c28ae4ed","ios":"levelo://app?vid=37b7e444-9d5d-4c7d-ab45-e9b1c28ae4ed"},"vehicle_type_id":"4","last_reported":1771576187,"current_range_meters":20000,"station_id":"ce4bhh92rcd13ifvqfh0","pricing_plan_id":"cebpf4jnsgd1na2vs0mg"},{"bike_id":"d2bb17c7-6558-4b9c-ae8a-0d2292552853","system_id":"levelo_inurba_marseille","lat":43.28457,"lon":5.48381,"is_reserved":false,"is_disabled":false,"rental_uris":{"android":"levelo://app?vid=d2bb17c7-6558-4b9c-ae8a-0d2292552853","ios":"levelo://app?vid=d2bb17c7-6558-4b9c-ae8a-0d2292552853"},"vehicle_type_id":"4","last_reported":1771576187,"current_range_meters":31200,"station_id":"","pricing_plan_id":"cebpf4jnsgd1na2vs0mg"},{"bike_id":"9b2e5973-2279-43e6-9726-4b4fee231d0c","system_id":"levelo_inurba_marseille","lat":43.30514,"lon":5.38887,"is_reserved":false,"is_disabled":false,"rental_uris":{"android":"levelo://app?vid=9b2e5973-2279-43e6-9726-4b4fee231d0c","ios":"levelo://app?vid=9b2e5973-2279-43e6-9726-4b4fee231d0c"},"vehicle_type_id":"4","last_reported":1771576187,"current_range_meters":25600,"station_id":"","pricing_plan_id":"cebpf4jnsgd1na2vs0mg"},{"bike_id":"da4093a5-6673-43a8-b7ee-b4859a45cac4","system_id":"levelo_inurba_marseille","lat":43.24392,"lon":5.37078,"is_reserved":false,"is_disabled":false,"rental_uris":{"android":"levelo://app?vid=da4093a5-6673-43a8-b7ee-b4859a45cac4","ios":"levelo://app?vid=da4093a5-6673-43a8-b7ee-b4859a45cac4"},"vehicle_type_id":"4","last_reported":1771576187,"current_range_meters":3200,"station_id":"ce4bhhh2rcd13ifvqfk0","pricing_plan_id":"cebpf4jnsgd1na2vs0mg"},{"bike_id":"8c107500-e6e0-42df-b996-4c6e258f6206","system_id":"levelo_inurba_marseille","lat":43.30524,"lon":5.36737,"is_reserved":false,"is_disabled":false,"rental_uris":{"android":"levelo://app?vid=8c107500-e6e0-42df-b996-4c6e258f6206","ios":"levelo://app?vid=8c107500-e6e0-42df-b996-4c6e258f6206"},"vehicle_type_id":"4","last_reported":1771576187,"current_range_meters":33600,"station_id":"ce4bgrp2rcd13ifvqc9g","pricing_plan_id":"cebpf4jnsgd1na2vs0mg"},{"bike_id":"556ded97-0a39-4e14-a90a-74c9f5748863","system_id":"levelo_inurba_marseille","lat":43.30955,"lon":5.39045,"is_reserved":false,"is_disabled":false,"rental_uris":{"android":"levelo://app?vid=556ded97-0a39-4e14-a90a-74c9f5748863","ios":"levelo://app?vid=556ded97-0a39-4e14-a90a-74c9f5748863"},"vehicle_type_id":"4","last_reported":1771576187,"current_range_meters":32000,"station_id":"ce4bgup2rcd13ifvqco0","pricing_plan_id":"cebpf4jnsgd1na2vs0mg"},{"bike_id":"f1ee9cf6-3343-4644-848f-78278b626c8a","system_id":"levelo_inurba_marseille","lat":43.31696,"lon":5.40478,"is_reserved":false,"is_disabled":false,"rental_uris":{"android":"levelo://app?vid=f1ee9cf6-3343-4644-848f-78278b626c8a","ios":"levelo://app?vid=f1ee9cf6-3343-4644-848f-78278b626c8a"},"vehicle_type_id":"4","last_reported":1771576187,"current_range_meters":18000,"station_id":"ce4bh012rcd13ifvqd00","pricing_plan_id":"cebpf4jnsgd1na2vs0mg"},{"bike_id":"9e1d28bc-db73-4b13-86a9-387759e1564c","system_id":"levelo_inurba_marseille","lat":43.29026,"lon":5.3812,"is_reserved":false,"is_disabled":false,"rental_uris":{"android":"levelo://app?vid=9e1d28bc-db73-4b13-86a9-387759e1564c","ios":"levelo://app?vid=9e1d28bc-db73-4b13-86a9-387759e1564c"},"vehicle_type_id":"4","last_reported":1771576187,"current_range_meters":28800,"station_id":"ce4bh4p2rcd13ifvqe1g","pricing_plan_id":"cebpf4jnsgd1na2vs0mg"},{"bike_id":"f5589284-e22a-4c69-b0cb-a20b86316d6f","system_id":"levelo_inurba_marseille","lat":43.26228,"lon":5.37446,"is_reserved":false,"is_disabled":true,"rental_uris":{"android":"levelo://app?vid=f5589284-e22a-4c69-b0cb-a20b86316d6f","ios":"levelo://app?vid=f5589284-e22a-4c69-b0cb-a20b86316d6f"},"vehicle_type_id":"4","last_reported":1771576187,"current_range_meters":400,"station_id":"","pricing_plan_id":"cebpf4jnsgd1na2vs0mg"},{"bike_id":"7ec59c78-6d91-4f77-aa45-7394900c3990","system_id":"levelo_inurba_marseille","lat":43.23171,"lon":5.43693,"is_reserved":false,"is_disabled":false,"rental_uris":{"android":"levelo://app?vid=7ec59c78-6d91-4f77-aa45-7394900c3990","ios":"levelo://app?vid=7ec59c78-6d91-4f77-aa45-7394900c3990"},"vehicle_type_id":"4","last_reported":1771576187,"current_range_meters":24000,"station_id":"ce4bhmp2rcd13ifvqgog","pricing_plan_id":"cebpf4jnsgd1na2vs0mg"},{"bike_id":"bafb87f3-d63d-42d2-a321-b8fb16f42ae6","system_id":"levelo_inurba_marseille","lat":43.30951,"lon":5.39043,"is_reserved":false,"is_disabled":false,"rental_uris":{"android":"levelo://app?vid=bafb87f3-d63d-42d2-a321-b8fb16f42ae6","ios":"levelo://app?vid=bafb87f3-d63d-42d2-a321-b8fb16f42ae6"},"vehicle_type_id":"4","last_reported":1771576187,"current_range_meters":31200,"station_id":"ce4bgup2rcd13ifvqco0","pricing_plan_id":"cebpf4jnsgd1na2vs0mg"},{"bike_id":"995dd4aa-d943-4547-aee8-c3325bdb05ae","system_id":"levelo_inurba_marseille","lat":43.31273,"lon":5.40176,"is_reserved":false,"is_disabled":true,"rental_uris":{"android":"levelo://app?vid=995dd4aa-d943-4547-aee8-c3325bdb05ae","ios":"levelo://app?vid=995dd4aa-d943-4547-aee8-c3325bdb05ae"},"vehicle_type_id":"4","last_reported":1771576187,"current_range_meters":18000,"station_id":"ce4bh092rcd13ifvqd30","pricing_plan_id":"cebpf4jnsgd1na2vs0mg"},{"bike_id":"27f34ce3-c66e-40a5-9ca6-2e51f7584436","system_id":"levelo_inurba_marseille","lat":43.25592,"lon":5.38218,"is_reserved":false,"is_disabled":false,"rental_uris":{"android":"levelo://app?vid=27f34ce3-c66e-40a5-9ca6-2e51f7584436","ios":"levelo://app?vid=27f34ce3-c66e-40a5-9ca6-2e51f7584436"},"vehicle_type_id":"4","last_reported":1771576187,"current_range_meters":38000,"station_id":"ce4bhih2rcd13ifvqfs0","pricing_plan_id":"cebpf4jnsgd1na2vs0mg"},{"bike_id":"3a36fd69-584f-434b-9101-affdd3fd2db5","system_id":"levelo_inurba_marseille","lat":43.30964,"lon":5.39077,"is_reserved":false,"is_disabled":false,"rental_uris":{"android":"levelo://app?vid=3a36fd69-584f-434b-9101-affdd3fd2db5","ios":"levelo://app?vid=3a36fd69-584f-434b-9101-affdd3fd2db5"},"vehicle_type_id":"4","last_reported":1771576187,"current_range_meters":39200,"station_id":"ce4bgup2rcd13ifvqco0","pricing_plan_id":"cebpf4jnsgd1na2vs0mg"},{"bike_id":"b22887b7-91c2-4148-bb64-f62f62c924cd","system_id":"levelo_inurba_marseille","lat":43.27906,"lon":5.38009,"is_reserved":false,"is_disabled":false,"rental_uris":{"android":"levelo://app?vid=b22887b7-91c2-4148-bb64-f62f62c924cd","ios":"levelo://app?vid=b22887b7-91c2-4148-bb64-f62f62c924cd"},"vehicle_type_id":"4","last_reported":1771576187,"current_range_meters":38800,"station_id":"ce4bhf92rcd13ifvqf50","pricing_plan_id":"cebpf4jnsgd1na2vs0mg"},{"bike_id":"9fe67ae4-bcbf-455d-92f3-d190fa5ed34b","system_id":"levelo_inurba_marseille","lat":43.28087,"lon":5.38954,"is_reserved":false,"is_disabled":false,"rental_uris":{"android":"levelo://app?vid=9fe67ae4-bcbf-455d-92f3-d190fa5ed34b","ios":"levelo://app?vid=9fe67ae4-bcbf-455d-92f3-d190fa5ed34b"},"vehicle_type_id":"4","last_reported":1771576187,"current_range_meters":10000,"station_id":"","pricing_plan_id":"cebpf4jnsgd1na2vs0mg"},{"bike_id":"fa839dbd-563f-4ccd-82c2-2cb5aae8f33e","system_id":"levelo_inurba_marseille","lat":43.28656,"lon":5.35217,"is_reserved":false,"is_disabled":false,"rental_uris":{"android":"levelo://app?vid=fa839dbd-563f-4ccd-82c2-2cb5aae8f33e","ios":"levelo://app?vid=fa839dbd-563f-4ccd-82c2-2cb5aae8f33e"},"vehicle_type_id":"4","last_reported":1771576187,"current_range_meters":16800,"station_id":"ce4bhch2rcd13ifvqeug","pricing_plan_id":"cebpf4jnsgd1na2vs0mg"},{"bike_id":"0a1f859b-1261-4c19-a098-0a939ef82b91","system_id":"levelo_inurba_marseille","lat":43.29094,"lon":5.35977,"is_reserved":false,"is_disabled":false,"rental_uris":{"android":"levelo://app?vid=0a1f859b-1261-4c19-a098-0a939ef82b91","ios":"levelo://app?vid=0a1f859b-1261-4c19-a098-0a939ef82b91"},"vehicle_type_id":"4","last_reported":1771576187,"current_range_meters":28400,"station_id":"","pricing_plan_id":"cebpf4jnsgd1na2vs0mg"},{"bike_id":"e1fbc0bf-07c9-4760-9f52-a405549a069a","system_id":"levelo_inurba_marseille","lat":43.29191,"lon":5.36056,"is_reserved":false,"is_disabled":false,"rental_uris":{"android":"levelo://app?vid=e1fbc0bf-07c9-4760-9f52-a405549a069a","ios":"levelo://app?vid=e1fbc0bf-07c9-4760-9f52-a405549a069a"},"vehicle_type_id":"4","last_reported":1771576187,"current_range_meters":27600,"station_id":"ce4bhbh2rcd13ifvqeqg","pricing_plan_id":"cebpf4jnsgd1na2vs0mg"},{"bike_id":"36248042-4b44-477c-9ec0-28b229641e67","system_id":"levelo_inurba_marseille","lat":43.28532,"lon":5.44112,"is_reserved":false,"is_disabled":false,"rental_uris":{"android":"levelo://app?vid=36248042-4b44-477c-9ec0-28b229641e67","ios":"levelo://app?vid=36248042-4b44-477c-9ec0-28b229641e67"},"vehicle_type_id":"4","last_reported":1771576187,"current_range_meters":9600,"station_id":"","pricing_plan_id":"cebpf4jnsgd1na2vs0mg"},{"bike_id":"0db2b5f4-df22-47e4-8a1e-b1dcbf734449","system_id":"levelo_inurba_marseille","lat":43.31758,"lon":5.39028,"is_reserved":false,"is_disabled":false,"rental_uris":{"android":"levelo://app?vid=0db2b5f4-df22-47e4-8a1e-b1dcbf734449","ios":"levelo://app?vid=0db2b5f4-df22-47e4-8a1e-b1dcbf734449"},"vehicle_type_id":"4","last_reported":1771576187,"current_range_meters":39200,"station_id":"ce4bhqp2rcd13ifvqhng","pricing_plan_id":"cebpf4jnsgd1na2vs0mg"},{"bike_id":"396bef18-c8e8-45d9-a95f-e8fe6b390700","system_id":"levelo_inurba_marseille","lat":43.26372,"lon":5.41078,"is_reserved":false,"is_disabled":false,"rental_uris":{"android":"levelo://app?vid=396bef18-c8e8-45d9-a95f-e8fe6b390700","ios":"levelo://app?vid=396bef18-c8e8-45d9-a95f-e8fe6b390700"},"vehicle_type_id":"4","last_reported":1771576187,"current_range_meters":24000,"station_id":"st_d4e5ca6na9uc73bfl5fg","pricing_plan_id":"cebpf4jnsgd1na2vs0mg"},{"bike_id":"470f25a0-e207-4623-80c5-ab30e549b7db","system_id":"levelo_inurba_marseille","lat":43.262,"lon":5.37441,"is_reserved":false,"is_disabled":false,"rental_uris":{"android":"levelo://app?vid=470f25a0-e207-4623-80c5-ab30e549b7db","ios":"levelo://app?vid=470f25a0-e207-4623-80c5-ab30e549b7db"},"vehicle_type_id":"4","last_reported":1771576187,"current_range_meters":35600,"station_id":"ce4bhgp2rcd13ifvqfc0","pricing_plan_id":"cebpf4jnsgd1na2vs0mg"},{"bike_id":"f2d30de6-4c83-468b-9ea0-b4022ee843f0","system_id":"levelo_inurba_marseille","lat":43.32358,"lon":5.36709,"is_reserved":false,"is_disabled":false,"rental_uris":{"android":"levelo://app?vid=f2d30de6-4c83-468b-9ea0-b4022ee843f0","ios":"levelo://app?vid=f2d30de6-4c83-468b-9ea0-b4022ee843f0"},"vehicle_type_id":"4","last_reported":1771576187,"current_range_meters":23200,"station_id":"","pricing_plan_id":"cebpf4jnsgd1na2vs0mg"},{"bike_id":"6730bef9-debf-4c9c-b160-fce2d703d18c","system_id":"levelo_inurba_marseille","lat":43.291947,"lon":5.393029,"is_reserved":false,"is_disabled":true,"rental_uris":{"android":"levelo://app?vid=6730bef9-debf-4c9c-b160-fce2d703d18c","ios":"levelo://app?vid=6730bef9-debf-4c9c-b160-fce2d703d18c"},"vehicle_type_id":"4","last_reported":1771576187,"current_range_meters":25200,"station_id":"ce4bh192rcd13ifvqdd0","pricing_plan_id":"cebpf4jnsgd1na2vs0mg"},{"bike_id":"9c2890e9-222e-4840-9a57-38213f2fa5e0","system_id":"levelo_inurba_marseille","lat":43.33733,"lon":5.39206,"is_reserved":false,"is_disabled":false,"rental_uris":{"android":"levelo://app?vid=9c2890e9-222e-4840-9a57-38213f2fa5e0","ios":"levelo://app?vid=9c2890e9-222e-4840-9a57-38213f2fa5e0"},"vehicle_type_id":"4","last_reported":1771576187,"current_range_meters":38400,"station_id":"ce4bhr92rcd13ifvqhsg","pricing_plan_id":"cebpf4jnsgd1na2vs0mg"},{"bike_id":"dc27e2fc-4006-44c9-b0f7-cfad6a91ecdf","system_id":"levelo_inurba_marseille","lat":43.3103,"lon":5.37135,"is_reserved":false,"is_disabled":false,"rental_uris":{"android":"levelo://app?vid=dc27e2fc-4006-44c9-b0f7-cfad6a91ecdf","ios":"levelo://app?vid=dc27e2fc-4006-44c9-b0f7-cfad6a91ecdf"},"vehicle_type_id":"4","last_reported":1771576187,"current_range_meters":26800,"station_id":"st_d4kl2rp97mjs73e7tdfg","pricing_plan_id":"cebpf4jnsgd1na2vs0mg"},{"bike_id":"e071cb6b-00dd-46cc-bbae-0c336769674f","system_id":"levelo_inurba_marseille","lat":43.26482,"lon":5.39588,"is_reserved":false,"is_disabled":false,"rental_uris":{"android":"levelo://app?vid=e071cb6b-00dd-46cc-bbae-0c336769674f","ios":"levelo://app?vid=e071cb6b-00dd-46cc-bbae-0c336769674f"},"vehicle_type_id":"4","last_reported":1771576187,"current_range_meters":27200,"station_id":"ce4bhi12rcd13ifvqfq0","pricing_plan_id":"cebpf4jnsgd1na2vs0mg"},{"bike_id":"faebf9e2-a63f-44b8-ba5e-243905e4c540","system_id":"levelo_inurba_marseille","lat":43.30147,"lon":5.37447,"is_reserved":false,"is_disabled":false,"rental_uris":{"android":"levelo://app?vid=faebf9e2-a63f-44b8-ba5e-243905e4c540","ios":"levelo://app?vid=faebf9e2-a63f-44b8-ba5e-243905e4c540"},"vehicle_type_id":"4","last_reported":1771576187,"current_range_meters":38000,"station_id":"ce4bgs92rcd13ifvqcc0","pricing_plan_id":"cebpf4jnsgd1na2vs0mg"},{"bike_id":"e9c8c195-4938-4494-9005-66aa872cbce1","system_id":"levelo_inurba_marseille","lat":43.312122,"lon":5.368717,"is_reserved":false,"is_disabled":false,"rental_uris":{"android":"levelo://app?vid=e9c8c195-4938-4494-9005-66aa872cbce1","ios":"levelo://app?vid=e9c8c195-4938-4494-9005-66aa872cbce1"},"vehicle_type_id":"4","last_reported":1771576187,"current_range_meters":16800,"station_id":"ce4bgl92rcd13ifvqbq0","pricing_plan_id":"cebpf4jnsgd1na2vs0mg"},{"bike_id":"931770a8-1988-4a03-9204-d403a4b231b4","system_id":"levelo_inurba_marseille","lat":43.29516,"lon":5.43336,"is_reserved":false,"is_disabled":false,"rental_uris":{"android":"levelo://app?vid=931770a8-1988-4a03-9204-d403a4b231b4","ios":"levelo://app?vid=931770a8-1988-4a03-9204-d403a4b231b4"},"vehicle_type_id":"4","last_reported":1771576187,"current_range_meters":34800,"station_id":"st_d3j5ugp08ojc73fj9d10","pricing_plan_id":"cebpf4jnsgd1na2vs0mg"},{"bike_id":"2c518a2d-86b4-47dd-acb5-816b1e03e795","system_id":"levelo_inurba_marseille","lat":43.28548,"lon":5.4413,"is_reserved":false,"is_disabled":false,"rental_uris":{"android":"levelo://app?vid=2c518a2d-86b4-47dd-acb5-816b1e03e795","ios":"levelo://app?vid=2c518a2d-86b4-47dd-acb5-816b1e03e795"},"vehicle_type_id":"4","last_reported":1771576187,"current_range_meters":28800,"station_id":"","pricing_plan_id":"cebpf4jnsgd1na2vs0mg"},{"bike_id":"a2aac6db-ff2a-410f-9224-52b6b4391027","system_id":"levelo_inurba_marseille","lat":43.25109,"lon":5.40331,"is_reserved":false,"is_disabled":false,"rental_uris":{"android":"levelo://app?vid=a2aac6db-ff2a-410f-9224-52b6b4391027","ios":"levelo://app?vid=a2aac6db-ff2a-410f-9224-52b6b4391027"},"vehicle_type_id":"4","last_reported":1771576187,"current_range_meters":21600,"station_id":"ce4bhlh2rcd13ifvqgig","pricing_plan_id":"cebpf4jnsgd1na2vs0mg"},{"bike_id":"cb07e64c-ad16-4d36-af1d-d10f616397c1","system_id":"levelo_inurba_marseille","lat":43.27952,"lon":5.41037,"is_reserved":false,"is_disabled":false,"rental_uris":{"android":"levelo://app?vid=cb07e64c-ad16-4d36-af1d-d10f616397c1","ios":"levelo://app?vid=cb07e64c-ad16-4d36-af1d-d10f616397c1"},"vehicle_type_id":"4","last_reported":1771576187,"current_range_meters":39200,"station_id":"ce4bhnp2rcd13ifvqh0g","pricing_plan_id":"cebpf4jnsgd1na2vs0mg"},{"bike_id":"b5fce340-dda4-4f1e-8007-aebd69341e9c","system_id":"levelo_inurba_marseille","lat":43.30532,"lon":5.38419,"is_reserved":false,"is_disabled":false,"rental_uris":{"android":"levelo://app?vid=b5fce340-dda4-4f1e-8007-aebd69341e9c","ios":"levelo://app?vid=b5fce340-dda4-4f1e-8007-aebd69341e9c"},"vehicle_type_id":"4","last_reported":1771576187,"current_range_meters":39200,"station_id":"ce4bgg92rcd13ifvqb30","pricing_plan_id":"cebpf4jnsgd1na2vs0mg"},{"bike_id":"5eb31601-6dd4-424f-b16b-9e02a606664a","system_id":"levelo_inurba_marseille","lat":43.28,"lon":5.40025,"is_reserved":false,"is_disabled":false,"rental_uris":{"android":"levelo://app?vid=5eb31601-6dd4-424f-b16b-9e02a606664a","ios":"levelo://app?vid=5eb31601-6dd4-424f-b16b-9e02a606664a"},"vehicle_type_id":"4","last_reported":1771576187,"current_range_meters":40000,"station_id":"ce4bho92rcd13ifvqh4g","pricing_plan_id":"cebpf4jnsgd1na2vs0mg"},{"bike_id":"10b4454e-cf3a-4037-8b45-b811ed0c5d91","system_id":"levelo_inurba_marseille","lat":43.22532,"lon":5.34827,"is_reserved":false,"is_disabled":false,"rental_uris":{"android":"levelo://app?vid=10b4454e-cf3a-4037-8b45-b811ed0c5d91","ios":"levelo://app?vid=10b4454e-cf3a-4037-8b45-b811ed0c5d91"},"vehicle_type_id":"4","last_reported":1771576187,"current_range_meters":35200,"station_id":"st_cvj5dfep6f1abm77gieg","pricing_plan_id":"cebpf4jnsgd1na2vs0mg"},{"bike_id":"977b28b5-f94d-4e3e-a1f2-ef11c5522462","system_id":"levelo_inurba_marseille","lat":43.28478,"lon":5.38514,"is_reserved":false,"is_disabled":false,"rental_uris":{"android":"levelo://app?vid=977b28b5-f94d-4e3e-a1f2-ef11c5522462","ios":"levelo://app?vid=977b28b5-f94d-4e3e-a1f2-ef11c5522462"},"vehicle_type_id":"4","last_reported":1771576187,"current_range_meters":39200,"station_id":"ce4bh8p2rcd13ifvqeb0","pricing_plan_id":"cebpf4jnsgd1na2vs0mg"},{"bike_id":"85a58be4-1aa6-4473-bece-977758e9c8ae","system_id":"levelo_inurba_marseille","lat":43.24804,"lon":5.37462,"is_reserved":false,"is_disabled":false,"rental_uris":{"android":"levelo://app?vid=85a58be4-1aa6-4473-bece-977758e9c8ae","ios":"levelo://app?vid=85a58be4-1aa6-4473-bece-977758e9c8ae"},"vehicle_type_id":"4","last_reported":1771576187,"current_range_meters":17200,"station_id":"ce4bhgh2rcd13ifvqfb0","pricing_plan_id":"cebpf4jnsgd1na2vs0mg"},{"bike_id":"250fba91-d297-4559-821e-80e73cb41e50","system_id":"levelo_inurba_marseille","lat":43.29101,"lon":5.38141,"is_reserved":false,"is_disabled":false,"rental_uris":{"android":"levelo://app?vid=250fba91-d297-4559-821e-80e73cb41e50","ios":"levelo://app?vid=250fba91-d297-4559-821e-80e73cb41e50"},"vehicle_type_id":"4","last_reported":1771576187,"current_range_meters":22400,"station_id":"ce4bh512rcd13ifvqe2g","pricing_plan_id":"cebpf4jnsgd1na2vs0mg"},{"bike_id":"415a59dd-0aff-41c9-85d3-895296a390d5","system_id":"levelo_inurba_marseille","lat":43.31517,"lon":5.3668,"is_reserved":false,"is_disabled":false,"rental_uris":{"android":"levelo://app?vid=415a59dd-0aff-41c9-85d3-895296a390d5","ios":"levelo://app?vid=415a59dd-0aff-41c9-85d3-895296a390d5"},"vehicle_type_id":"4","last_reported":1771576187,"current_range_meters":24000,"station_id":"ce4bgr92rcd13ifvqc6g","pricing_plan_id":"cebpf4jnsgd1na2vs0mg"},{"bike_id":"19d3787d-1c8e-4249-902d-f5e776447478","system_id":"levelo_inurba_marseille","lat":43.25518,"lon":5.37656,"is_reserved":false,"is_disabled":false,"rental_uris":{"android":"levelo://app?vid=19d3787d-1c8e-4249-902d-f5e776447478","ios":"levelo://app?vid=19d3787d-1c8e-4249-902d-f5e776447478"},"vehicle_type_id":"4","last_reported":1771576187,"current_range_meters":24800,"station_id":"ce4bhh12rcd13ifvqff0","pricing_plan_id":"cebpf4jnsgd1na2vs0mg"},{"bike_id":"5c0952e3-3469-48d1-b0ac-88596b084e30","system_id":"levelo_inurba_marseille","lat":43.33757,"lon":5.37498,"is_reserved":false,"is_disabled":false,"rental_uris":{"android":"levelo://app?vid=5c0952e3-3469-48d1-b0ac-88596b084e30","ios":"levelo://app?vid=5c0952e3-3469-48d1-b0ac-88596b084e30"},"vehicle_type_id":"4","last_reported":1771576187,"current_range_meters":33600,"station_id":"","pricing_plan_id":"cebpf4jnsgd1na2vs0mg"},{"bike_id":"e50254f2-cd78-44c8-95ab-99f3aac9e1bc","system_id":"levelo_inurba_marseille","lat":43.31319,"lon":5.37627,"is_reserved":false,"is_disabled":true,"rental_uris":{"android":"levelo://app?vid=e50254f2-cd78-44c8-95ab-99f3aac9e1bc","ios":"levelo://app?vid=e50254f2-cd78-44c8-95ab-99f3aac9e1bc"},"vehicle_type_id":"4","last_reported":1771576187,"current_range_meters":26800,"station_id":"","pricing_plan_id":"cebpf4jnsgd1na2vs0mg"},{"bike_id":"1968ad9b-bdb7-4768-8def-bb9faec54991","system_id":"levelo_inurba_marseille","lat":43.26698,"lon":5.38248,"is_reserved":false,"is_disabled":false,"rental_uris":{"android":"levelo://app?vid=1968ad9b-bdb7-4768-8def-bb9faec54991","ios":"levelo://app?vid=1968ad9b-bdb7-4768-8def-bb9faec54991"},"vehicle_type_id":"4","last_reported":1771576187,"current_range_meters":20000,"station_id":"ce4bhg92rcd13ifvqf90","pricing_plan_id":"cebpf4jnsgd1na2vs0mg"},{"bike_id":"ccd3f4dd-465f-404a-97df-4643702c071b","system_id":"levelo_inurba_marseille","lat":43.25872,"lon":5.39911,"is_reserved":false,"is_disabled":false,"rental_uris":{"android":"levelo://app?vid=ccd3f4dd-465f-404a-97df-4643702c071b","ios":"levelo://app?vid=ccd3f4dd-465f-404a-97df-4643702c071b"},"vehicle_type_id":"4","last_reported":1771576187,"current_range_meters":39200,"station_id":"ce4bhl92rcd13ifvqghg","pricing_plan_id":"cebpf4jnsgd1na2vs0mg"},{"bike_id":"69655055-d981-4519-82dc-6c959f07c646","system_id":"levelo_inurba_marseille","lat":43.28268,"lon":5.35089,"is_reserved":false,"is_disabled":false,"rental_uris":{"android":"levelo://app?vid=69655055-d981-4519-82dc-6c959f07c646","ios":"levelo://app?vid=69655055-d981-4519-82dc-6c959f07c646"},"vehicle_type_id":"4","last_reported":1771576187,"current_range_meters":40000,"station_id":"ce4bhbp2rcd13ifvqerg","pricing_plan_id":"cebpf4jnsgd1na2vs0mg"},{"bike_id":"93f041f4-e8ff-42bf-9c57-4b88f5b87d58","system_id":"levelo_inurba_marseille","lat":43.30157,"lon":5.37447,"is_reserved":false,"is_disabled":false,"rental_uris":{"android":"levelo://app?vid=93f041f4-e8ff-42bf-9c57-4b88f5b87d58","ios":"levelo://app?vid=93f041f4-e8ff-42bf-9c57-4b88f5b87d58"},"vehicle_type_id":"4","last_reported":1771576187,"current_range_meters":34800,"station_id":"ce4bgs92rcd13ifvqcc0","pricing_plan_id":"cebpf4jnsgd1na2vs0mg"},{"bike_id":"d5887e7a-5c48-4306-a0d7-f13c900fa2f4","system_id":"levelo_inurba_marseille","lat":43.25007,"lon":5.38936,"is_reserved":false,"is_disabled":false,"rental_uris":{"android":"levelo://app?vid=d5887e7a-5c48-4306-a0d7-f13c900fa2f4","ios":"levelo://app?vid=d5887e7a-5c48-4306-a0d7-f13c900fa2f4"},"vehicle_type_id":"4","last_reported":1771576187,"current_range_meters":40000,"station_id":"ce4bhgp2rcd13ifvqfd0","pricing_plan_id":"cebpf4jnsgd1na2vs0mg"},{"bike_id":"c3d5fa72-0b0b-44ad-881c-b9813f6fd0cf","system_id":"levelo_inurba_marseille","lat":43.28423,"lon":5.37519,"is_reserved":false,"is_disabled":false,"rental_uris":{"android":"levelo://app?vid=c3d5fa72-0b0b-44ad-881c-b9813f6fd0cf","ios":"levelo://app?vid=c3d5fa72-0b0b-44ad-881c-b9813f6fd0cf"},"vehicle_type_id":"4","last_reported":1771576187,"current_range_meters":5600,"station_id":"ce4bh412rcd13ifvqds0","pricing_plan_id":"cebpf4jnsgd1na2vs0mg"},{"bike_id":"166e35c4-ba58-48ae-81a6-945bb5d753ca","system_id":"levelo_inurba_marseille","lat":43.246487,"lon":5.388844,"is_reserved":false,"is_disabled":false,"rental_uris":{"android":"levelo://app?vid=166e35c4-ba58-48ae-81a6-945bb5d753ca","ios":"levelo://app?vid=166e35c4-ba58-48ae-81a6-945bb5d753ca"},"vehicle_type_id":"4","last_reported":1771576187,"current_range_meters":25600,"station_id":"ce4bhg12rcd13ifvqf60","pricing_plan_id":"cebpf4jnsgd1na2vs0mg"},{"bike_id":"b3f3747e-0fbe-4af3-8d32-fbb0e01dd3aa","system_id":"levelo_inurba_marseille","lat":43.25934,"lon":5.4092,"is_reserved":false,"is_disabled":false,"rental_uris":{"android":"levelo://app?vid=b3f3747e-0fbe-4af3-8d32-fbb0e01dd3aa","ios":"levelo://app?vid=b3f3747e-0fbe-4af3-8d32-fbb0e01dd3aa"},"vehicle_type_id":"4","last_reported":1771576187,"current_range_meters":17600,"station_id":"ce4bhm92rcd13ifvqglg","pricing_plan_id":"cebpf4jnsgd1na2vs0mg"},{"bike_id":"8a195f5c-5445-4a14-8324-6f54e63d7430","system_id":"levelo_inurba_marseille","lat":43.30146,"lon":5.38085,"is_reserved":false,"is_disabled":false,"rental_uris":{"android":"levelo://app?vid=8a195f5c-5445-4a14-8324-6f54e63d7430","ios":"levelo://app?vid=8a195f5c-5445-4a14-8324-6f54e63d7430"},"vehicle_type_id":"4","last_reported":1771576187,"current_range_meters":20400,"station_id":"ce4bgjp2rcd13ifvqbh0","pricing_plan_id":"cebpf4jnsgd1na2vs0mg"},{"bike_id":"2cbbc2f5-92a3-4c38-a0e2-181ee10ae410","system_id":"levelo_inurba_marseille","lat":43.27492,"lon":5.42458,"is_reserved":false,"is_disabled":false,"rental_uris":{"android":"levelo://app?vid=2cbbc2f5-92a3-4c38-a0e2-181ee10ae410","ios":"levelo://app?vid=2cbbc2f5-92a3-4c38-a0e2-181ee10ae410"},"vehicle_type_id":"4","last_reported":1771576187,"current_range_meters":32000,"station_id":"ce4bhn92rcd13ifvqgrg","pricing_plan_id":"cebpf4jnsgd1na2vs0mg"},{"bike_id":"77c84e28-a226-4c9d-bcc9-76b7f8c0d11c","system_id":"levelo_inurba_marseille","lat":43.24544,"lon":5.39529,"is_reserved":false,"is_disabled":false,"rental_uris":{"android":"levelo://app?vid=77c84e28-a226-4c9d-bcc9-76b7f8c0d11c","ios":"levelo://app?vid=77c84e28-a226-4c9d-bcc9-76b7f8c0d11c"},"vehicle_type_id":"4","last_reported":1771576187,"current_range_meters":30800,"station_id":"ce4bhlp2rcd13ifvqgjg","pricing_plan_id":"cebpf4jnsgd1na2vs0mg"},{"bike_id":"1e94ea31-8a14-4d7a-ae68-23879e303e04","system_id":"levelo_inurba_marseille","lat":43.29563,"lon":5.37523,"is_reserved":false,"is_disabled":false,"rental_uris":{"android":"levelo://app?vid=1e94ea31-8a14-4d7a-ae68-23879e303e04","ios":"levelo://app?vid=1e94ea31-8a14-4d7a-ae68-23879e303e04"},"vehicle_type_id":"4","last_reported":1771576187,"current_range_meters":38400,"station_id":"ce4bgh92rcd13ifvqb50","pricing_plan_id":"cebpf4jnsgd1na2vs0mg"},{"bike_id":"f3c5d32f-828d-4a2a-bd02-59bb1b899498","system_id":"levelo_inurba_marseille","lat":43.26496,"lon":5.3955,"is_reserved":false,"is_disabled":false,"rental_uris":{"android":"levelo://app?vid=f3c5d32f-828d-4a2a-bd02-59bb1b899498","ios":"levelo://app?vid=f3c5d32f-828d-4a2a-bd02-59bb1b899498"},"vehicle_type_id":"4","last_reported":1771576187,"current_range_meters":32400,"station_id":"ce4bhi12rcd13ifvqfq0","pricing_plan_id":"cebpf4jnsgd1na2vs0mg"},{"bike_id":"fc1aa6b8-6e5e-467f-92e9-aae02099ae9d","system_id":"levelo_inurba_marseille","lat":43.24653,"lon":5.43126,"is_reserved":false,"is_disabled":false,"rental_uris":{"android":"levelo://app?vid=fc1aa6b8-6e5e-467f-92e9-aae02099ae9d","ios":"levelo://app?vid=fc1aa6b8-6e5e-467f-92e9-aae02099ae9d"},"vehicle_type_id":"4","last_reported":1771576187,"current_range_meters":4400,"station_id":"st_d2m6c4gdas8pm72e190g","pricing_plan_id":"cebpf4jnsgd1na2vs0mg"},{"bike_id":"ace7d19f-1051-4f0e-87fd-e826de4cd33e","system_id":"levelo_inurba_marseille","lat":43.24164,"lon":5.36392,"is_reserved":false,"is_disabled":false,"rental_uris":{"android":"levelo://app?vid=ace7d19f-1051-4f0e-87fd-e826de4cd33e","ios":"levelo://app?vid=ace7d19f-1051-4f0e-87fd-e826de4cd33e"},"vehicle_type_id":"4","last_reported":1771576187,"current_range_meters":27600,"station_id":"cpo36qri1sfpv3e86is0","pricing_plan_id":"cebpf4jnsgd1na2vs0mg"},{"bike_id":"a4e181d3-b9a5-485a-be34-f7763aaf39ba","system_id":"levelo_inurba_marseille","lat":43.25005,"lon":5.3894,"is_reserved":false,"is_disabled":false,"rental_uris":{"android":"levelo://app?vid=a4e181d3-b9a5-485a-be34-f7763aaf39ba","ios":"levelo://app?vid=a4e181d3-b9a5-485a-be34-f7763aaf39ba"},"vehicle_type_id":"4","last_reported":1771576187,"current_range_meters":34800,"station_id":"ce4bhgp2rcd13ifvqfd0","pricing_plan_id":"cebpf4jnsgd1na2vs0mg"},{"bike_id":"1bdf262b-5b53-4108-b666-339efbe4431c","system_id":"levelo_inurba_marseille","lat":43.29037,"lon":5.38096,"is_reserved":false,"is_disabled":true,"rental_uris":{"android":"levelo://app?vid=1bdf262b-5b53-4108-b666-339efbe4431c","ios":"levelo://app?vid=1bdf262b-5b53-4108-b666-339efbe4431c"},"vehicle_type_id":"4","last_reported":1771576187,"current_range_meters":30400,"station_id":"ce4bh4p2rcd13ifvqe1g","pricing_plan_id":"cebpf4jnsgd1na2vs0mg"},{"bike_id":"ea32ee5b-e7d7-42b6-9455-02b82cb4f67b","system_id":"levelo_inurba_marseille","lat":43.3104,"lon":5.3717,"is_reserved":false,"is_disabled":false,"rental_uris":{"android":"levelo://app?vid=ea32ee5b-e7d7-42b6-9455-02b82cb4f67b","ios":"levelo://app?vid=ea32ee5b-e7d7-42b6-9455-02b82cb4f67b"},"vehicle_type_id":"4","last_reported":1771576187,"current_range_meters":28000,"station_id":"st_d4kl2rp97mjs73e7tdfg","pricing_plan_id":"cebpf4jnsgd1na2vs0mg"},{"bike_id":"c1b26ae8-8837-4bd2-b0e2-b890b8516fff","system_id":"levelo_inurba_marseille","lat":43.31306,"lon":5.36845,"is_reserved":false,"is_disabled":false,"rental_uris":{"android":"levelo://app?vid=c1b26ae8-8837-4bd2-b0e2-b890b8516fff","ios":"levelo://app?vid=c1b26ae8-8837-4bd2-b0e2-b890b8516fff"},"vehicle_type_id":"4","last_reported":1771576187,"current_range_meters":33200,"station_id":"","pricing_plan_id":"cebpf4jnsgd1na2vs0mg"},{"bike_id":"3e3b0cb0-5cb3-458c-bb02-9e9535ea59bc","system_id":"levelo_inurba_marseille","lat":43.30553,"lon":5.36519,"is_reserved":false,"is_disabled":false,"rental_uris":{"android":"levelo://app?vid=3e3b0cb0-5cb3-458c-bb02-9e9535ea59bc","ios":"levelo://app?vid=3e3b0cb0-5cb3-458c-bb02-9e9535ea59bc"},"vehicle_type_id":"4","last_reported":1771576187,"current_range_meters":39200,"station_id":"ce4bgs12rcd13ifvqcag","pricing_plan_id":"cebpf4jnsgd1na2vs0mg"},{"bike_id":"f4b72c32-b078-47bf-bd6e-2a4cf9260d45","system_id":"levelo_inurba_marseille","lat":43.28685,"lon":5.35509,"is_reserved":false,"is_disabled":false,"rental_uris":{"android":"levelo://app?vid=f4b72c32-b078-47bf-bd6e-2a4cf9260d45","ios":"levelo://app?vid=f4b72c32-b078-47bf-bd6e-2a4cf9260d45"},"vehicle_type_id":"4","last_reported":1771576187,"current_range_meters":28800,"station_id":"","pricing_plan_id":"cebpf4jnsgd1na2vs0mg"},{"bike_id":"786db946-01e6-401d-825a-5be2365421b8","system_id":"levelo_inurba_marseille","lat":43.25572,"lon":5.38264,"is_reserved":false,"is_disabled":false,"rental_uris":{"android":"levelo://app?vid=786db946-01e6-401d-825a-5be2365421b8","ios":"levelo://app?vid=786db946-01e6-401d-825a-5be2365421b8"},"vehicle_type_id":"4","last_reported":1771576187,"current_range_meters":14000,"station_id":"ce4bhih2rcd13ifvqfs0","pricing_plan_id":"cebpf4jnsgd1na2vs0mg"},{"bike_id":"cb3eb0df-0d8a-4f7f-9728-81b424c0acd5","system_id":"levelo_inurba_marseille","lat":43.29334,"lon":5.4012,"is_reserved":false,"is_disabled":false,"rental_uris":{"android":"levelo://app?vid=cb3eb0df-0d8a-4f7f-9728-81b424c0acd5","ios":"levelo://app?vid=cb3eb0df-0d8a-4f7f-9728-81b424c0acd5"},"vehicle_type_id":"4","last_reported":1771576187,"current_range_meters":31200,"station_id":"","pricing_plan_id":"cebpf4jnsgd1na2vs0mg"},{"bike_id":"560e8592-dc05-4c6f-b574-2b2a57758891","system_id":"levelo_inurba_marseille","lat":43.29905,"lon":5.38622,"is_reserved":false,"is_disabled":false,"rental_uris":{"android":"levelo://app?vid=560e8592-dc05-4c6f-b574-2b2a57758891","ios":"levelo://app?vid=560e8592-dc05-4c6f-b574-2b2a57758891"},"vehicle_type_id":"4","last_reported":1771576187,"current_range_meters":32800,"station_id":"","pricing_plan_id":"cebpf4jnsgd1na2vs0mg"},{"bike_id":"b7832889-4ff5-4ee2-9a8d-e7dc3953a51e","system_id":"levelo_inurba_marseille","lat":43.24809,"lon":5.37441,"is_reserved":false,"is_disabled":true,"rental_uris":{"android":"levelo://app?vid=b7832889-4ff5-4ee2-9a8d-e7dc3953a51e","ios":"levelo://app?vid=b7832889-4ff5-4ee2-9a8d-e7dc3953a51e"},"vehicle_type_id":"4","last_reported":1771576187,"current_range_meters":15200,"station_id":"ce4bhgh2rcd13ifvqfb0","pricing_plan_id":"cebpf4jnsgd1na2vs0mg"},{"bike_id":"a2b17400-8e5c-4ea2-af80-074b6e160bbc","system_id":"levelo_inurba_marseille","lat":43.31486,"lon":5.37412,"is_reserved":false,"is_disabled":false,"rental_uris":{"android":"levelo://app?vid=a2b17400-8e5c-4ea2-af80-074b6e160bbc","ios":"levelo://app?vid=a2b17400-8e5c-4ea2-af80-074b6e160bbc"},"vehicle_type_id":"4","last_reported":1771576187,"current_range_meters":33200,"station_id":"","pricing_plan_id":"cebpf4jnsgd1na2vs0mg"},{"bike_id":"80be1c0c-b805-419f-b364-664db020059b","system_id":"levelo_inurba_marseille","lat":43.30474,"lon":5.37909,"is_reserved":false,"is_disabled":false,"rental_uris":{"android":"levelo://app?vid=80be1c0c-b805-419f-b364-664db020059b","ios":"levelo://app?vid=80be1c0c-b805-419f-b364-664db020059b"},"vehicle_type_id":"4","last_reported":1771576187,"current_range_meters":27200,"station_id":"ce4bgup2rcd13ifvqcn0","pricing_plan_id":"cebpf4jnsgd1na2vs0mg"},{"bike_id":"98ef6a7d-32f2-4972-a7e4-d0e75f178a33","system_id":"levelo_inurba_marseille","lat":43.30151,"lon":5.43063,"is_reserved":false,"is_disabled":false,"rental_uris":{"android":"levelo://app?vid=98ef6a7d-32f2-4972-a7e4-d0e75f178a33","ios":"levelo://app?vid=98ef6a7d-32f2-4972-a7e4-d0e75f178a33"},"vehicle_type_id":"4","last_reported":1771576187,"current_range_meters":30400,"station_id":"st_d3js3co5814s73ftftug","pricing_plan_id":"cebpf4jnsgd1na2vs0mg"},{"bike_id":"cdcd8c42-d26a-4e42-9873-59170e37aa87","system_id":"levelo_inurba_marseille","lat":43.23059,"lon":5.35495,"is_reserved":false,"is_disabled":false,"rental_uris":{"android":"levelo://app?vid=cdcd8c42-d26a-4e42-9873-59170e37aa87","ios":"levelo://app?vid=cdcd8c42-d26a-4e42-9873-59170e37aa87"},"vehicle_type_id":"4","last_reported":1771576187,"current_range_meters":38400,"station_id":"cpo3342slgdg3j2ifvpg","pricing_plan_id":"cebpf4jnsgd1na2vs0mg"},{"bike_id":"74f93e91-fd1e-46a3-af86-8c59b80fc809","system_id":"levelo_inurba_marseille","lat":43.26241,"lon":5.40465,"is_reserved":false,"is_disabled":false,"rental_uris":{"android":"levelo://app?vid=74f93e91-fd1e-46a3-af86-8c59b80fc809","ios":"levelo://app?vid=74f93e91-fd1e-46a3-af86-8c59b80fc809"},"vehicle_type_id":"4","last_reported":1771576187,"current_range_meters":31200,"station_id":"ce4bhmh2rcd13ifvqgmg","pricing_plan_id":"cebpf4jnsgd1na2vs0mg"},{"bike_id":"9ea1b440-99b9-4caf-8392-abb84c9c0c73","system_id":"levelo_inurba_marseille","lat":43.30551,"lon":5.36683,"is_reserved":false,"is_disabled":false,"rental_uris":{"android":"levelo://app?vid=9ea1b440-99b9-4caf-8392-abb84c9c0c73","ios":"levelo://app?vid=9ea1b440-99b9-4caf-8392-abb84c9c0c73"},"vehicle_type_id":"4","last_reported":1771576187,"current_range_meters":19600,"station_id":"ce4bgrp2rcd13ifvqc9g","pricing_plan_id":"cebpf4jnsgd1na2vs0mg"},{"bike_id":"3c3afa2f-7a53-4fb1-93d1-5ca26ae7eb92","system_id":"levelo_inurba_marseille","lat":43.32339,"lon":5.38881,"is_reserved":false,"is_disabled":false,"rental_uris":{"android":"levelo://app?vid=3c3afa2f-7a53-4fb1-93d1-5ca26ae7eb92","ios":"levelo://app?vid=3c3afa2f-7a53-4fb1-93d1-5ca26ae7eb92"},"vehicle_type_id":"4","last_reported":1771576187,"current_range_meters":38400,"station_id":"ce4bhqp2rcd13ifvqhog","pricing_plan_id":"cebpf4jnsgd1na2vs0mg"},{"bike_id":"fac1a6ee-6b8f-489e-8b83-232f26e98faa","system_id":"levelo_inurba_marseille","lat":43.30226,"lon":5.38319,"is_reserved":false,"is_disabled":false,"rental_uris":{"android":"levelo://app?vid=fac1a6ee-6b8f-489e-8b83-232f26e98faa","ios":"levelo://app?vid=fac1a6ee-6b8f-489e-8b83-232f26e98faa"},"vehicle_type_id":"4","last_reported":1771576187,"current_range_meters":39200,"station_id":"","pricing_plan_id":"cebpf4jnsgd1na2vs0mg"},{"bike_id":"aed5bfec-6f6b-4d48-9743-ee9d48821171","system_id":"levelo_inurba_marseille","lat":43.28178,"lon":5.42794,"is_reserved":false,"is_disabled":false,"rental_uris":{"android":"levelo://app?vid=aed5bfec-6f6b-4d48-9743-ee9d48821171","ios":"levelo://app?vid=aed5bfec-6f6b-4d48-9743-ee9d48821171"},"vehicle_type_id":"4","last_reported":1771576187,"current_range_meters":29600,"station_id":"","pricing_plan_id":"cebpf4jnsgd1na2vs0mg"},{"bike_id":"ed62a73a-4bd7-49f5-ba79-79b7cfcd0252","system_id":"levelo_inurba_marseille","lat":43.28422,"lon":5.35002,"is_reserved":false,"is_disabled":true,"rental_uris":{"android":"levelo://app?vid=ed62a73a-4bd7-49f5-ba79-79b7cfcd0252","ios":"levelo://app?vid=ed62a73a-4bd7-49f5-ba79-79b7cfcd0252"},"vehicle_type_id":"4","last_reported":1771576187,"current_range_meters":24400,"station_id":"ce4bhbh2rcd13ifvqepg","pricing_plan_id":"cebpf4jnsgd1na2vs0mg"},{"bike_id":"42b6100a-41f2-4d60-944d-8dd96a15e3d1","system_id":"levelo_inurba_marseille","lat":43.31419,"lon":5.37341,"is_reserved":false,"is_disabled":false,"rental_uris":{"android":"levelo://app?vid=42b6100a-41f2-4d60-944d-8dd96a15e3d1","ios":"levelo://app?vid=42b6100a-41f2-4d60-944d-8dd96a15e3d1"},"vehicle_type_id":"4","last_reported":1771576187,"current_range_meters":7200,"station_id":"","pricing_plan_id":"cebpf4jnsgd1na2vs0mg"},{"bike_id":"8ce6c909-c0ab-463b-9ab4-c7d2e001e267","system_id":"levelo_inurba_marseille","lat":43.28841,"lon":5.39322,"is_reserved":false,"is_disabled":true,"rental_uris":{"android":"levelo://app?vid=8ce6c909-c0ab-463b-9ab4-c7d2e001e267","ios":"levelo://app?vid=8ce6c909-c0ab-463b-9ab4-c7d2e001e267"},"vehicle_type_id":"4","last_reported":1771576187,"current_range_meters":400,"station_id":"ce4bh2p2rcd13ifvqdi0","pricing_plan_id":"cebpf4jnsgd1na2vs0mg"},{"bike_id":"7074c830-1f49-440a-aa60-013e310fa522","system_id":"levelo_inurba_marseille","lat":43.27371,"lon":5.36266,"is_reserved":false,"is_disabled":false,"rental_uris":{"android":"levelo://app?vid=7074c830-1f49-440a-aa60-013e310fa522","ios":"levelo://app?vid=7074c830-1f49-440a-aa60-013e310fa522"},"vehicle_type_id":"4","last_reported":1771576187,"current_range_meters":10000,"station_id":"ce4bhbh2rcd13ifvqeo0","pricing_plan_id":"cebpf4jnsgd1na2vs0mg"},{"bike_id":"11c6bfff-c339-43fd-bdd1-865eec75b1f4","system_id":"levelo_inurba_marseille","lat":43.24954,"lon":5.40502,"is_reserved":false,"is_disabled":false,"rental_uris":{"android":"levelo://app?vid=11c6bfff-c339-43fd-bdd1-865eec75b1f4","ios":"levelo://app?vid=11c6bfff-c339-43fd-bdd1-865eec75b1f4"},"vehicle_type_id":"4","last_reported":1771576187,"current_range_meters":27200,"station_id":"st_d2ngiaodas8pm72gd1h0","pricing_plan_id":"cebpf4jnsgd1na2vs0mg"},{"bike_id":"b6d988ed-d4a1-482d-b75a-620a0f62be5b","system_id":"levelo_inurba_marseille","lat":43.26027,"lon":5.37549,"is_reserved":false,"is_disabled":false,"rental_uris":{"android":"levelo://app?vid=b6d988ed-d4a1-482d-b75a-620a0f62be5b","ios":"levelo://app?vid=b6d988ed-d4a1-482d-b75a-620a0f62be5b"},"vehicle_type_id":"4","last_reported":1771576187,"current_range_meters":10800,"station_id":"ce4bhgh2rcd13ifvqfa0","pricing_plan_id":"cebpf4jnsgd1na2vs0mg"},{"bike_id":"ed801aba-6299-4abc-846c-98c2ac128308","system_id":"levelo_inurba_marseille","lat":43.24395,"lon":5.3707,"is_reserved":false,"is_disabled":false,"rental_uris":{"android":"levelo://app?vid=ed801aba-6299-4abc-846c-98c2ac128308","ios":"levelo://app?vid=ed801aba-6299-4abc-846c-98c2ac128308"},"vehicle_type_id":"4","last_reported":1771576187,"current_range_meters":17200,"station_id":"ce4bhhh2rcd13ifvqfk0","pricing_plan_id":"cebpf4jnsgd1na2vs0mg"},{"bike_id":"549f289b-9770-4026-802d-a4ffdc207c39","system_id":"levelo_inurba_marseille","lat":43.32332,"lon":5.38891,"is_reserved":false,"is_disabled":false,"rental_uris":{"android":"levelo://app?vid=549f289b-9770-4026-802d-a4ffdc207c39","ios":"levelo://app?vid=549f289b-9770-4026-802d-a4ffdc207c39"},"vehicle_type_id":"4","last_reported":1771576187,"current_range_meters":35600,"station_id":"ce4bhqp2rcd13ifvqhog","pricing_plan_id":"cebpf4jnsgd1na2vs0mg"},{"bike_id":"e8d230b9-0ba2-40c8-bc64-4a07b6f6ced2","system_id":"levelo_inurba_marseille","lat":43.22581,"lon":5.41656,"is_reserved":false,"is_disabled":false,"rental_uris":{"android":"levelo://app?vid=e8d230b9-0ba2-40c8-bc64-4a07b6f6ced2","ios":"levelo://app?vid=e8d230b9-0ba2-40c8-bc64-4a07b6f6ced2"},"vehicle_type_id":"4","last_reported":1771576187,"current_range_meters":4000,"station_id":"st_d2o4gvlbi1j2169b742g","pricing_plan_id":"cebpf4jnsgd1na2vs0mg"},{"bike_id":"e59f665b-ca8e-40ab-a2ed-9455369e7fbf","system_id":"levelo_inurba_marseille","lat":43.284779,"lon":5.483929,"is_reserved":false,"is_disabled":false,"rental_uris":{"android":"levelo://app?vid=e59f665b-ca8e-40ab-a2ed-9455369e7fbf","ios":"levelo://app?vid=e59f665b-ca8e-40ab-a2ed-9455369e7fbf"},"vehicle_type_id":"4","last_reported":1771576187,"current_range_meters":22800,"station_id":"","pricing_plan_id":"cebpf4jnsgd1na2vs0mg"},{"bike_id":"d8a35611-64cc-4364-b0bb-c6162445214e","system_id":"levelo_inurba_marseille","lat":43.29564,"lon":5.37528,"is_reserved":false,"is_disabled":false,"rental_uris":{"android":"levelo://app?vid=d8a35611-64cc-4364-b0bb-c6162445214e","ios":"levelo://app?vid=d8a35611-64cc-4364-b0bb-c6162445214e"},"vehicle_type_id":"4","last_reported":1771576187,"current_range_meters":11600,"station_id":"ce4bgh92rcd13ifvqb50","pricing_plan_id":"cebpf4jnsgd1na2vs0mg"},{"bike_id":"8fa69e75-3b0c-45f2-bf54-1d201a381e10","system_id":"levelo_inurba_marseille","lat":43.28844,"lon":5.39315,"is_reserved":false,"is_disabled":false,"rental_uris":{"android":"levelo://app?vid=8fa69e75-3b0c-45f2-bf54-1d201a381e10","ios":"levelo://app?vid=8fa69e75-3b0c-45f2-bf54-1d201a381e10"},"vehicle_type_id":"4","last_reported":1771576187,"current_range_meters":35600,"station_id":"ce4bh2p2rcd13ifvqdi0","pricing_plan_id":"cebpf4jnsgd1na2vs0mg"},{"bike_id":"8c21ace2-0801-4586-8cea-064ccad16c99","system_id":"levelo_inurba_marseille","lat":43.22551,"lon":5.41631,"is_reserved":false,"is_disabled":false,"rental_uris":{"android":"levelo://app?vid=8c21ace2-0801-4586-8cea-064ccad16c99","ios":"levelo://app?vid=8c21ace2-0801-4586-8cea-064ccad16c99"},"vehicle_type_id":"4","last_reported":1771576187,"current_range_meters":38000,"station_id":"st_d2o4gvlbi1j2169b742g","pricing_plan_id":"cebpf4jnsgd1na2vs0mg"},{"bike_id":"ae1526ac-94c0-4471-b06e-92c0bff1ac42","system_id":"levelo_inurba_marseille","lat":43.2809,"lon":5.39665,"is_reserved":false,"is_disabled":false,"rental_uris":{"android":"levelo://app?vid=ae1526ac-94c0-4471-b06e-92c0bff1ac42","ios":"levelo://app?vid=ae1526ac-94c0-4471-b06e-92c0bff1ac42"},"vehicle_type_id":"4","last_reported":1771576187,"current_range_meters":18000,"station_id":"ce4bho12rcd13ifvqh2g","pricing_plan_id":"cebpf4jnsgd1na2vs0mg"},{"bike_id":"9c73f2c7-5b50-4522-9afb-360155e111ca","system_id":"levelo_inurba_marseille","lat":43.25825,"lon":5.39441,"is_reserved":false,"is_disabled":false,"rental_uris":{"android":"levelo://app?vid=9c73f2c7-5b50-4522-9afb-360155e111ca","ios":"levelo://app?vid=9c73f2c7-5b50-4522-9afb-360155e111ca"},"vehicle_type_id":"4","last_reported":1771576187,"current_range_meters":39200,"station_id":"ce4bhip2rcd13ifvqft0","pricing_plan_id":"cebpf4jnsgd1na2vs0mg"},{"bike_id":"6a073e53-b7ba-45d5-a82b-20ab8b7b8e96","system_id":"levelo_inurba_marseille","lat":43.33541,"lon":5.37462,"is_reserved":false,"is_disabled":false,"rental_uris":{"android":"levelo://app?vid=6a073e53-b7ba-45d5-a82b-20ab8b7b8e96","ios":"levelo://app?vid=6a073e53-b7ba-45d5-a82b-20ab8b7b8e96"},"vehicle_type_id":"4","last_reported":1771576187,"current_range_meters":14400,"station_id":"st_d46tts09ee8s73dlu43g","pricing_plan_id":"cebpf4jnsgd1na2vs0mg"},{"bike_id":"cc9731fa-9781-4bae-bd13-190f484487dd","system_id":"levelo_inurba_marseille","lat":43.262094,"lon":5.374592,"is_reserved":false,"is_disabled":false,"rental_uris":{"android":"levelo://app?vid=cc9731fa-9781-4bae-bd13-190f484487dd","ios":"levelo://app?vid=cc9731fa-9781-4bae-bd13-190f484487dd"},"vehicle_type_id":"4","last_reported":1771576187,"current_range_meters":36000,"station_id":"","pricing_plan_id":"cebpf4jnsgd1na2vs0mg"},{"bike_id":"27586e15-78a0-41b9-981d-e5de2751a5b3","system_id":"levelo_inurba_marseille","lat":43.30306,"lon":5.36886,"is_reserved":false,"is_disabled":false,"rental_uris":{"android":"levelo://app?vid=27586e15-78a0-41b9-981d-e5de2751a5b3","ios":"levelo://app?vid=27586e15-78a0-41b9-981d-e5de2751a5b3"},"vehicle_type_id":"4","last_reported":1771576187,"current_range_meters":11200,"station_id":"ce4bgqh2rcd13ifvqc5g","pricing_plan_id":"cebpf4jnsgd1na2vs0mg"},{"bike_id":"4e6ae03e-50eb-4e46-ad3a-b607c4b7ae2f","system_id":"levelo_inurba_marseille","lat":43.26958,"lon":5.40274,"is_reserved":false,"is_disabled":false,"rental_uris":{"android":"levelo://app?vid=4e6ae03e-50eb-4e46-ad3a-b607c4b7ae2f","ios":"levelo://app?vid=4e6ae03e-50eb-4e46-ad3a-b607c4b7ae2f"},"vehicle_type_id":"4","last_reported":1771576187,"current_range_meters":38400,"station_id":"cjm6bp8fraef2m0cb0m0","pricing_plan_id":"cebpf4jnsgd1na2vs0mg"},{"bike_id":"4eb43e64-b78c-4676-baeb-775252590f0a","system_id":"levelo_inurba_marseille","lat":43.31374,"lon":5.36744,"is_reserved":false,"is_disabled":false,"rental_uris":{"android":"levelo://app?vid=4eb43e64-b78c-4676-baeb-775252590f0a","ios":"levelo://app?vid=4eb43e64-b78c-4676-baeb-775252590f0a"},"vehicle_type_id":"4","last_reported":1771576187,"current_range_meters":32000,"station_id":"ce4bgr92rcd13ifvqc6g","pricing_plan_id":"cebpf4jnsgd1na2vs0mg"},{"bike_id":"4b71ba04-19d8-4e6c-9751-6bb5c72099bd","system_id":"levelo_inurba_marseille","lat":43.29612,"lon":5.37742,"is_reserved":false,"is_disabled":false,"rental_uris":{"android":"levelo://app?vid=4b71ba04-19d8-4e6c-9751-6bb5c72099bd","ios":"levelo://app?vid=4b71ba04-19d8-4e6c-9751-6bb5c72099bd"},"vehicle_type_id":"4","last_reported":1771576187,"current_range_meters":16000,"station_id":"ce4bgi92rcd13ifvqb90","pricing_plan_id":"cebpf4jnsgd1na2vs0mg"},{"bike_id":"ffd2350a-d41a-4579-bd02-a72d1956937a","system_id":"levelo_inurba_marseille","lat":43.32544,"lon":5.41448,"is_reserved":false,"is_disabled":false,"rental_uris":{"android":"levelo://app?vid=ffd2350a-d41a-4579-bd02-a72d1956937a","ios":"levelo://app?vid=ffd2350a-d41a-4579-bd02-a72d1956937a"},"vehicle_type_id":"4","last_reported":1771576187,"current_range_meters":39200,"station_id":"ce4bhq12rcd13ifvqhhg","pricing_plan_id":"cebpf4jnsgd1na2vs0mg"},{"bike_id":"e80db191-464e-4604-a0eb-437f20cf9e6f","system_id":"levelo_inurba_marseille","lat":43.307735,"lon":5.376193,"is_reserved":false,"is_disabled":false,"rental_uris":{"android":"levelo://app?vid=e80db191-464e-4604-a0eb-437f20cf9e6f","ios":"levelo://app?vid=e80db191-464e-4604-a0eb-437f20cf9e6f"},"vehicle_type_id":"4","last_reported":1771576187,"current_range_meters":35600,"station_id":"ce4bgv92rcd13ifvqcq0","pricing_plan_id":"cebpf4jnsgd1na2vs0mg"},{"bike_id":"3336a309-b824-40ed-b52e-035197a7a433","system_id":"levelo_inurba_marseille","lat":43.267023,"lon":5.38282,"is_reserved":false,"is_disabled":false,"rental_uris":{"android":"levelo://app?vid=3336a309-b824-40ed-b52e-035197a7a433","ios":"levelo://app?vid=3336a309-b824-40ed-b52e-035197a7a433"},"vehicle_type_id":"4","last_reported":1771576187,"current_range_meters":22400,"station_id":"ce4bhg92rcd13ifvqf90","pricing_plan_id":"cebpf4jnsgd1na2vs0mg"},{"bike_id":"208d8cf2-b4bc-480a-a4b9-1b101d3be8fd","system_id":"levelo_inurba_marseille","lat":43.29852,"lon":5.36284,"is_reserved":false,"is_disabled":false,"rental_uris":{"android":"levelo://app?vid=208d8cf2-b4bc-480a-a4b9-1b101d3be8fd","ios":"levelo://app?vid=208d8cf2-b4bc-480a-a4b9-1b101d3be8fd"},"vehicle_type_id":"4","last_reported":1771576187,"current_range_meters":10800,"station_id":"ce4bgpp2rcd13ifvqc3g","pricing_plan_id":"cebpf4jnsgd1na2vs0mg"},{"bike_id":"bb0803fd-9df1-4445-90aa-26704edd9381","system_id":"levelo_inurba_marseille","lat":43.28028,"lon":5.3695,"is_reserved":false,"is_disabled":false,"rental_uris":{"android":"levelo://app?vid=bb0803fd-9df1-4445-90aa-26704edd9381","ios":"levelo://app?vid=bb0803fd-9df1-4445-90aa-26704edd9381"},"vehicle_type_id":"4","last_reported":1771576187,"current_range_meters":40000,"station_id":"ce4bha12rcd13ifvqef0","pricing_plan_id":"cebpf4jnsgd1na2vs0mg"},{"bike_id":"10c133ee-c45c-48fc-94ed-8007f69d73dd","system_id":"levelo_inurba_marseille","lat":43.2982,"lon":5.40403,"is_reserved":false,"is_disabled":false,"rental_uris":{"android":"levelo://app?vid=10c133ee-c45c-48fc-94ed-8007f69d73dd","ios":"levelo://app?vid=10c133ee-c45c-48fc-94ed-8007f69d73dd"},"vehicle_type_id":"4","last_reported":1771576187,"current_range_meters":38400,"station_id":"ce4bh112rcd13ifvqd90","pricing_plan_id":"cebpf4jnsgd1na2vs0mg"},{"bike_id":"093ed882-d0d1-4a36-bddd-24da7616b8b9","system_id":"levelo_inurba_marseille","lat":43.28468,"lon":5.35892,"is_reserved":false,"is_disabled":false,"rental_uris":{"android":"levelo://app?vid=093ed882-d0d1-4a36-bddd-24da7616b8b9","ios":"levelo://app?vid=093ed882-d0d1-4a36-bddd-24da7616b8b9"},"vehicle_type_id":"4","last_reported":1771576187,"current_range_meters":39200,"station_id":"ce4bhah2rcd13ifvqei0","pricing_plan_id":"cebpf4jnsgd1na2vs0mg"},{"bike_id":"201ca36c-c632-433f-8e63-028103426023","system_id":"levelo_inurba_marseille","lat":43.28473,"lon":5.484,"is_reserved":false,"is_disabled":false,"rental_uris":{"android":"levelo://app?vid=201ca36c-c632-433f-8e63-028103426023","ios":"levelo://app?vid=201ca36c-c632-433f-8e63-028103426023"},"vehicle_type_id":"4","last_reported":1771576187,"current_range_meters":8800,"station_id":"","pricing_plan_id":"cebpf4jnsgd1na2vs0mg"},{"bike_id":"ef70ce12-fd44-42a0-88ed-3b2ca489b7fa","system_id":"levelo_inurba_marseille","lat":43.28868,"lon":5.42525,"is_reserved":false,"is_disabled":false,"rental_uris":{"android":"levelo://app?vid=ef70ce12-fd44-42a0-88ed-3b2ca489b7fa","ios":"levelo://app?vid=ef70ce12-fd44-42a0-88ed-3b2ca489b7fa"},"vehicle_type_id":"4","last_reported":1771576187,"current_range_meters":33600,"station_id":"st_d3b462108ojc7389ooeg","pricing_plan_id":"cebpf4jnsgd1na2vs0mg"},{"bike_id":"1e504fcf-67aa-4f33-a678-83b21b5a50c7","system_id":"levelo_inurba_marseille","lat":43.29897,"lon":5.43667,"is_reserved":false,"is_disabled":false,"rental_uris":{"android":"levelo://app?vid=1e504fcf-67aa-4f33-a678-83b21b5a50c7","ios":"levelo://app?vid=1e504fcf-67aa-4f33-a678-83b21b5a50c7"},"vehicle_type_id":"4","last_reported":1771576187,"current_range_meters":35200,"station_id":"ce4bhpp2rcd13ifvqhfg","pricing_plan_id":"cebpf4jnsgd1na2vs0mg"},{"bike_id":"402fb316-de29-4c6c-b0e2-48c631932a53","system_id":"levelo_inurba_marseille","lat":43.2468,"lon":5.38173,"is_reserved":false,"is_disabled":false,"rental_uris":{"android":"levelo://app?vid=402fb316-de29-4c6c-b0e2-48c631932a53","ios":"levelo://app?vid=402fb316-de29-4c6c-b0e2-48c631932a53"},"vehicle_type_id":"4","last_reported":1771576187,"current_range_meters":14800,"station_id":"ce4bhih2rcd13ifvqfr0","pricing_plan_id":"cebpf4jnsgd1na2vs0mg"},{"bike_id":"0a19b8ea-5646-43e3-9c33-b9ffd92b9fe4","system_id":"levelo_inurba_marseille","lat":43.28498,"lon":5.38458,"is_reserved":false,"is_disabled":true,"rental_uris":{"android":"levelo://app?vid=0a19b8ea-5646-43e3-9c33-b9ffd92b9fe4","ios":"levelo://app?vid=0a19b8ea-5646-43e3-9c33-b9ffd92b9fe4"},"vehicle_type_id":"4","last_reported":1771576187,"current_range_meters":14800,"station_id":"ce4bh512rcd13ifvqe3g","pricing_plan_id":"cebpf4jnsgd1na2vs0mg"},{"bike_id":"2869ecff-d536-4cb2-8e34-6173355891f6","system_id":"levelo_inurba_marseille","lat":43.31217,"lon":5.36882,"is_reserved":false,"is_disabled":false,"rental_uris":{"android":"levelo://app?vid=2869ecff-d536-4cb2-8e34-6173355891f6","ios":"levelo://app?vid=2869ecff-d536-4cb2-8e34-6173355891f6"},"vehicle_type_id":"4","last_reported":1771576187,"current_range_meters":14000,"station_id":"ce4bgl92rcd13ifvqbq0","pricing_plan_id":"cebpf4jnsgd1na2vs0mg"},{"bike_id":"d04dccfc-0442-490b-a1d0-f7f68309e43c","system_id":"levelo_inurba_marseille","lat":43.29105,"lon":5.38142,"is_reserved":false,"is_disabled":false,"rental_uris":{"android":"levelo://app?vid=d04dccfc-0442-490b-a1d0-f7f68309e43c","ios":"levelo://app?vid=d04dccfc-0442-490b-a1d0-f7f68309e43c"},"vehicle_type_id":"4","last_reported":1771576187,"current_range_meters":25200,"station_id":"ce4bh512rcd13ifvqe2g","pricing_plan_id":"cebpf4jnsgd1na2vs0mg"},{"bike_id":"90ed51d0-5c4b-4b74-b340-d56dcd2c03bd","system_id":"levelo_inurba_marseille","lat":43.30302,"lon":5.36892,"is_reserved":false,"is_disabled":false,"rental_uris":{"android":"levelo://app?vid=90ed51d0-5c4b-4b74-b340-d56dcd2c03bd","ios":"levelo://app?vid=90ed51d0-5c4b-4b74-b340-d56dcd2c03bd"},"vehicle_type_id":"4","last_reported":1771576187,"current_range_meters":40000,"station_id":"ce4bgqh2rcd13ifvqc5g","pricing_plan_id":"cebpf4jnsgd1na2vs0mg"},{"bike_id":"9b7eb8e6-e75c-4853-83a3-31c7e8290f56","system_id":"levelo_inurba_marseille","lat":43.277843,"lon":5.407693,"is_reserved":false,"is_disabled":false,"rental_uris":{"android":"levelo://app?vid=9b7eb8e6-e75c-4853-83a3-31c7e8290f56","ios":"levelo://app?vid=9b7eb8e6-e75c-4853-83a3-31c7e8290f56"},"vehicle_type_id":"4","last_reported":1771576187,"current_range_meters":31200,"station_id":"","pricing_plan_id":"cebpf4jnsgd1na2vs0mg"},{"bike_id":"62002b9e-98dc-483b-a906-03797d45c6ed","system_id":"levelo_inurba_marseille","lat":43.27997,"lon":5.41662,"is_reserved":false,"is_disabled":false,"rental_uris":{"android":"levelo://app?vid=62002b9e-98dc-483b-a906-03797d45c6ed","ios":"levelo://app?vid=62002b9e-98dc-483b-a906-03797d45c6ed"},"vehicle_type_id":"4","last_reported":1771576187,"current_range_meters":38800,"station_id":"ce4bho12rcd13ifvqh1g","pricing_plan_id":"cebpf4jnsgd1na2vs0mg"},{"bike_id":"56d744b6-f967-4b5a-92fb-3a145e2d5ba9","system_id":"levelo_inurba_marseille","lat":43.29577,"lon":5.3675,"is_reserved":false,"is_disabled":false,"rental_uris":{"android":"levelo://app?vid=56d744b6-f967-4b5a-92fb-3a145e2d5ba9","ios":"levelo://app?vid=56d744b6-f967-4b5a-92fb-3a145e2d5ba9"},"vehicle_type_id":"4","last_reported":1771576187,"current_range_meters":32000,"station_id":"ce4bgph2rcd13ifvqc2g","pricing_plan_id":"cebpf4jnsgd1na2vs0mg"},{"bike_id":"8cfdc7bf-2865-4ede-9a18-ab4dbc925fcc","system_id":"levelo_inurba_marseille","lat":43.30947,"lon":5.40129,"is_reserved":false,"is_disabled":false,"rental_uris":{"android":"levelo://app?vid=8cfdc7bf-2865-4ede-9a18-ab4dbc925fcc","ios":"levelo://app?vid=8cfdc7bf-2865-4ede-9a18-ab4dbc925fcc"},"vehicle_type_id":"4","last_reported":1771576187,"current_range_meters":39200,"station_id":"ce4bgvp2rcd13ifvqct0","pricing_plan_id":"cebpf4jnsgd1na2vs0mg"},{"bike_id":"c3a5f5ea-55d6-4ed8-bea4-d28498a9da5d","system_id":"levelo_inurba_marseille","lat":43.29014,"lon":5.35606,"is_reserved":false,"is_disabled":false,"rental_uris":{"android":"levelo://app?vid=c3a5f5ea-55d6-4ed8-bea4-d28498a9da5d","ios":"levelo://app?vid=c3a5f5ea-55d6-4ed8-bea4-d28498a9da5d"},"vehicle_type_id":"4","last_reported":1771576187,"current_range_meters":38400,"station_id":"ce4bhb92rcd13ifvqen0","pricing_plan_id":"cebpf4jnsgd1na2vs0mg"},{"bike_id":"96438059-8ec7-4cad-b18f-887d9f3a4374","system_id":"levelo_inurba_marseille","lat":43.3152,"lon":5.37312,"is_reserved":false,"is_disabled":false,"rental_uris":{"android":"levelo://app?vid=96438059-8ec7-4cad-b18f-887d9f3a4374","ios":"levelo://app?vid=96438059-8ec7-4cad-b18f-887d9f3a4374"},"vehicle_type_id":"4","last_reported":1771576187,"current_range_meters":30000,"station_id":"ce4bgt12rcd13ifvqcd0","pricing_plan_id":"cebpf4jnsgd1na2vs0mg"},{"bike_id":"d19340cb-cbcd-4fe2-946f-56767c26b7fe","system_id":"levelo_inurba_marseille","lat":43.28225,"lon":5.39084,"is_reserved":false,"is_disabled":false,"rental_uris":{"android":"levelo://app?vid=d19340cb-cbcd-4fe2-946f-56767c26b7fe","ios":"levelo://app?vid=d19340cb-cbcd-4fe2-946f-56767c26b7fe"},"vehicle_type_id":"4","last_reported":1771576187,"current_range_meters":22000,"station_id":"ce4bhn92rcd13ifvqgsg","pricing_plan_id":"cebpf4jnsgd1na2vs0mg"},{"bike_id":"b834d704-604a-4225-9d4b-1f26fe86bf4a","system_id":"levelo_inurba_marseille","lat":43.27167,"lon":5.39162,"is_reserved":false,"is_disabled":false,"rental_uris":{"android":"levelo://app?vid=b834d704-604a-4225-9d4b-1f26fe86bf4a","ios":"levelo://app?vid=b834d704-604a-4225-9d4b-1f26fe86bf4a"},"vehicle_type_id":"4","last_reported":1771576187,"current_range_meters":27600,"station_id":"ce4bhhp2rcd13ifvqfm0","pricing_plan_id":"cebpf4jnsgd1na2vs0mg"},{"bike_id":"ee898327-82a5-4282-b5a8-c1302e157462","system_id":"levelo_inurba_marseille","lat":43.29939,"lon":5.36527,"is_reserved":false,"is_disabled":false,"rental_uris":{"android":"levelo://app?vid=ee898327-82a5-4282-b5a8-c1302e157462","ios":"levelo://app?vid=ee898327-82a5-4282-b5a8-c1302e157462"},"vehicle_type_id":"4","last_reported":1771576187,"current_range_meters":25200,"station_id":"ce4bgm92rcd13ifvqbr0","pricing_plan_id":"cebpf4jnsgd1na2vs0mg"},{"bike_id":"413f868b-80b1-4e21-a1a4-cee61e0dc0b9","system_id":"levelo_inurba_marseille","lat":43.29523,"lon":5.37512,"is_reserved":false,"is_disabled":false,"rental_uris":{"android":"levelo://app?vid=413f868b-80b1-4e21-a1a4-cee61e0dc0b9","ios":"levelo://app?vid=413f868b-80b1-4e21-a1a4-cee61e0dc0b9"},"vehicle_type_id":"4","last_reported":1771576187,"current_range_meters":24000,"station_id":"ce4bgkp2rcd13ifvqbmg","pricing_plan_id":"cebpf4jnsgd1na2vs0mg"},{"bike_id":"ce8b16f3-84a2-4de3-9bee-ffc549647532","system_id":"levelo_inurba_marseille","lat":43.31695,"lon":5.40469,"is_reserved":false,"is_disabled":false,"rental_uris":{"android":"levelo://app?vid=ce8b16f3-84a2-4de3-9bee-ffc549647532","ios":"levelo://app?vid=ce8b16f3-84a2-4de3-9bee-ffc549647532"},"vehicle_type_id":"4","last_reported":1771576187,"current_range_meters":36400,"station_id":"ce4bh012rcd13ifvqd00","pricing_plan_id":"cebpf4jnsgd1na2vs0mg"},{"bike_id":"bf5441f7-45e0-4939-ab58-d4c790bf9c7a","system_id":"levelo_inurba_marseille","lat":43.28934,"lon":5.3664,"is_reserved":false,"is_disabled":false,"rental_uris":{"android":"levelo://app?vid=bf5441f7-45e0-4939-ab58-d4c790bf9c7a","ios":"levelo://app?vid=bf5441f7-45e0-4939-ab58-d4c790bf9c7a"},"vehicle_type_id":"4","last_reported":1771576187,"current_range_meters":8800,"station_id":"ce4bhap2rcd13ifvqek0","pricing_plan_id":"cebpf4jnsgd1na2vs0mg"},{"bike_id":"fab1a9ea-c579-4c99-9e61-cc42faad5555","system_id":"levelo_inurba_marseille","lat":43.29679,"lon":5.37305,"is_reserved":false,"is_disabled":false,"rental_uris":{"android":"levelo://app?vid=fab1a9ea-c579-4c99-9e61-cc42faad5555","ios":"levelo://app?vid=fab1a9ea-c579-4c99-9e61-cc42faad5555"},"vehicle_type_id":"4","last_reported":1771576187,"current_range_meters":39200,"station_id":"ce4bgk12rcd13ifvqbj0","pricing_plan_id":"cebpf4jnsgd1na2vs0mg"},{"bike_id":"e0a4b968-713d-4b4c-9a83-3a7796fa6193","system_id":"levelo_inurba_marseille","lat":43.26189,"lon":5.40496,"is_reserved":false,"is_disabled":false,"rental_uris":{"android":"levelo://app?vid=e0a4b968-713d-4b4c-9a83-3a7796fa6193","ios":"levelo://app?vid=e0a4b968-713d-4b4c-9a83-3a7796fa6193"},"vehicle_type_id":"4","last_reported":1771576187,"current_range_meters":30800,"station_id":"ce4bhmh2rcd13ifvqgmg","pricing_plan_id":"cebpf4jnsgd1na2vs0mg"},{"bike_id":"30e71a7f-218d-4ed3-8bce-a8d5d264d9e6","system_id":"levelo_inurba_marseille","lat":43.33156,"lon":5.37692,"is_reserved":false,"is_disabled":false,"rental_uris":{"android":"levelo://app?vid=30e71a7f-218d-4ed3-8bce-a8d5d264d9e6","ios":"levelo://app?vid=30e71a7f-218d-4ed3-8bce-a8d5d264d9e6"},"vehicle_type_id":"4","last_reported":1771576187,"current_range_meters":10800,"station_id":"st_d46cu089ee8s73dldbu0","pricing_plan_id":"cebpf4jnsgd1na2vs0mg"},{"bike_id":"820283bb-7348-4881-a27b-8ff5df5ea0a7","system_id":"levelo_inurba_marseille","lat":43.31915,"lon":5.4071,"is_reserved":false,"is_disabled":false,"rental_uris":{"android":"levelo://app?vid=820283bb-7348-4881-a27b-8ff5df5ea0a7","ios":"levelo://app?vid=820283bb-7348-4881-a27b-8ff5df5ea0a7"},"vehicle_type_id":"4","last_reported":1771576187,"current_range_meters":38800,"station_id":"ce4bhq12rcd13ifvqhig","pricing_plan_id":"cebpf4jnsgd1na2vs0mg"},{"bike_id":"f793b274-b441-4ad1-b7af-7b63567f6882","system_id":"levelo_inurba_marseille","lat":43.31997,"lon":5.38159,"is_reserved":false,"is_disabled":false,"rental_uris":{"android":"levelo://app?vid=f793b274-b441-4ad1-b7af-7b63567f6882","ios":"levelo://app?vid=f793b274-b441-4ad1-b7af-7b63567f6882"},"vehicle_type_id":"4","last_reported":1771576187,"current_range_meters":38400,"station_id":"ce4bhr12rcd13ifvqhpg","pricing_plan_id":"cebpf4jnsgd1na2vs0mg"},{"bike_id":"819cb462-02f5-41b8-bb36-862481415234","system_id":"levelo_inurba_marseille","lat":43.28157,"lon":5.42654,"is_reserved":false,"is_disabled":false,"rental_uris":{"android":"levelo://app?vid=819cb462-02f5-41b8-bb36-862481415234","ios":"levelo://app?vid=819cb462-02f5-41b8-bb36-862481415234"},"vehicle_type_id":"4","last_reported":1771576187,"current_range_meters":37600,"station_id":"ce4bhnh2rcd13ifvqgug","pricing_plan_id":"cebpf4jnsgd1na2vs0mg"},{"bike_id":"c7d2b54a-d383-408d-9a81-b600a9105a37","system_id":"levelo_inurba_marseille","lat":43.33569,"lon":5.37466,"is_reserved":false,"is_disabled":false,"rental_uris":{"android":"levelo://app?vid=c7d2b54a-d383-408d-9a81-b600a9105a37","ios":"levelo://app?vid=c7d2b54a-d383-408d-9a81-b600a9105a37"},"vehicle_type_id":"4","last_reported":1771576187,"current_range_meters":16400,"station_id":"st_d46tts09ee8s73dlu43g","pricing_plan_id":"cebpf4jnsgd1na2vs0mg"},{"bike_id":"c135ce5a-ba70-4ffc-9697-7b0a2e31381d","system_id":"levelo_inurba_marseille","lat":43.30141,"lon":5.38786,"is_reserved":false,"is_disabled":true,"rental_uris":{"android":"levelo://app?vid=c135ce5a-ba70-4ffc-9697-7b0a2e31381d","ios":"levelo://app?vid=c135ce5a-ba70-4ffc-9697-7b0a2e31381d"},"vehicle_type_id":"4","last_reported":1771576187,"current_range_meters":34000,"station_id":"ce4bghh2rcd13ifvqb60","pricing_plan_id":"cebpf4jnsgd1na2vs0mg"},{"bike_id":"210fe2d3-b7a4-41ef-b152-1c8cd0c9316e","system_id":"levelo_inurba_marseille","lat":43.27569,"lon":5.38425,"is_reserved":false,"is_disabled":true,"rental_uris":{"android":"levelo://app?vid=210fe2d3-b7a4-41ef-b152-1c8cd0c9316e","ios":"levelo://app?vid=210fe2d3-b7a4-41ef-b152-1c8cd0c9316e"},"vehicle_type_id":"4","last_reported":1771576187,"current_range_meters":0,"station_id":"ce4bhh92rcd13ifvqfi0","pricing_plan_id":"cebpf4jnsgd1na2vs0mg"},{"bike_id":"28587931-d0ea-4fc0-b11c-b2f6124738bf","system_id":"levelo_inurba_marseille","lat":43.290777,"lon":5.399593,"is_reserved":false,"is_disabled":false,"rental_uris":{"android":"levelo://app?vid=28587931-d0ea-4fc0-b11c-b2f6124738bf","ios":"levelo://app?vid=28587931-d0ea-4fc0-b11c-b2f6124738bf"},"vehicle_type_id":"4","last_reported":1771576187,"current_range_meters":24800,"station_id":"","pricing_plan_id":"cebpf4jnsgd1na2vs0mg"},{"bike_id":"8302dbcf-45f4-4892-87d7-459c1f26b04d","system_id":"levelo_inurba_marseille","lat":43.29565,"lon":5.37518,"is_reserved":false,"is_disabled":false,"rental_uris":{"android":"levelo://app?vid=8302dbcf-45f4-4892-87d7-459c1f26b04d","ios":"levelo://app?vid=8302dbcf-45f4-4892-87d7-459c1f26b04d"},"vehicle_type_id":"4","last_reported":1771576187,"current_range_meters":22800,"station_id":"ce4bgh92rcd13ifvqb50","pricing_plan_id":"cebpf4jnsgd1na2vs0mg"},{"bike_id":"55be965f-ca1e-431b-b5f4-8058ade1219b","system_id":"levelo_inurba_marseille","lat":43.29966,"lon":5.385,"is_reserved":false,"is_disabled":false,"rental_uris":{"android":"levelo://app?vid=55be965f-ca1e-431b-b5f4-8058ade1219b","ios":"levelo://app?vid=55be965f-ca1e-431b-b5f4-8058ade1219b"},"vehicle_type_id":"4","last_reported":1771576187,"current_range_meters":21600,"station_id":"ce4bgj92rcd13ifvqbd0","pricing_plan_id":"cebpf4jnsgd1na2vs0mg"},{"bike_id":"3509f13d-ce5d-4591-b9d8-1fa53fc0398a","system_id":"levelo_inurba_marseille","lat":43.28845,"lon":5.35858,"is_reserved":false,"is_disabled":false,"rental_uris":{"android":"levelo://app?vid=3509f13d-ce5d-4591-b9d8-1fa53fc0398a","ios":"levelo://app?vid=3509f13d-ce5d-4591-b9d8-1fa53fc0398a"},"vehicle_type_id":"4","last_reported":1771576187,"current_range_meters":39200,"station_id":"ce4bhb12rcd13ifvqem0","pricing_plan_id":"cebpf4jnsgd1na2vs0mg"},{"bike_id":"e23a5435-262a-41e9-87f3-1135db2f06a4","system_id":"levelo_inurba_marseille","lat":43.29575,"lon":5.37473,"is_reserved":false,"is_disabled":false,"rental_uris":{"android":"levelo://app?vid=e23a5435-262a-41e9-87f3-1135db2f06a4","ios":"levelo://app?vid=e23a5435-262a-41e9-87f3-1135db2f06a4"},"vehicle_type_id":"4","last_reported":1771576187,"current_range_meters":28800,"station_id":"ce4bgh92rcd13ifvqb50","pricing_plan_id":"cebpf4jnsgd1na2vs0mg"},{"bike_id":"e5c37de4-5b20-40fe-851e-2d0c03d75c93","system_id":"levelo_inurba_marseille","lat":43.33125,"lon":5.39271,"is_reserved":false,"is_disabled":false,"rental_uris":{"android":"levelo://app?vid=e5c37de4-5b20-40fe-851e-2d0c03d75c93","ios":"levelo://app?vid=e5c37de4-5b20-40fe-851e-2d0c03d75c93"},"vehicle_type_id":"4","last_reported":1771576187,"current_range_meters":8400,"station_id":"","pricing_plan_id":"cebpf4jnsgd1na2vs0mg"},{"bike_id":"07b0f432-5e82-4f8c-81ee-67d93dfdf4d8","system_id":"levelo_inurba_marseille","lat":43.28618,"lon":5.35111,"is_reserved":false,"is_disabled":false,"rental_uris":{"android":"levelo://app?vid=07b0f432-5e82-4f8c-81ee-67d93dfdf4d8","ios":"levelo://app?vid=07b0f432-5e82-4f8c-81ee-67d93dfdf4d8"},"vehicle_type_id":"4","last_reported":1771576187,"current_range_meters":2800,"station_id":"ce4bhch2rcd13ifvqeug","pricing_plan_id":"cebpf4jnsgd1na2vs0mg"},{"bike_id":"5dc15068-156f-423a-b505-7f859341db9b","system_id":"levelo_inurba_marseille","lat":43.28724,"lon":5.36089,"is_reserved":false,"is_disabled":false,"rental_uris":{"android":"levelo://app?vid=5dc15068-156f-423a-b505-7f859341db9b","ios":"levelo://app?vid=5dc15068-156f-423a-b505-7f859341db9b"},"vehicle_type_id":"4","last_reported":1771576187,"current_range_meters":9600,"station_id":"cki0cbj6b192h4jlfktg","pricing_plan_id":"cebpf4jnsgd1na2vs0mg"},{"bike_id":"4f9c43d5-4d69-46bd-b376-efc67bbd7f93","system_id":"levelo_inurba_marseille","lat":43.29045,"lon":5.39977,"is_reserved":false,"is_disabled":false,"rental_uris":{"android":"levelo://app?vid=4f9c43d5-4d69-46bd-b376-efc67bbd7f93","ios":"levelo://app?vid=4f9c43d5-4d69-46bd-b376-efc67bbd7f93"},"vehicle_type_id":"4","last_reported":1771576187,"current_range_meters":38000,"station_id":"ce4bh392rcd13ifvqdm0","pricing_plan_id":"cebpf4jnsgd1na2vs0mg"},{"bike_id":"be97337e-5d42-4c7d-9f90-cc4a1456b7fa","system_id":"levelo_inurba_marseille","lat":43.31047,"lon":5.3718,"is_reserved":false,"is_disabled":false,"rental_uris":{"android":"levelo://app?vid=be97337e-5d42-4c7d-9f90-cc4a1456b7fa","ios":"levelo://app?vid=be97337e-5d42-4c7d-9f90-cc4a1456b7fa"},"vehicle_type_id":"4","last_reported":1771576187,"current_range_meters":24800,"station_id":"st_d4kl2rp97mjs73e7tdfg","pricing_plan_id":"cebpf4jnsgd1na2vs0mg"},{"bike_id":"47788a9b-3d71-4615-adaa-2c88572889ac","system_id":"levelo_inurba_marseille","lat":43.31484,"lon":5.37336,"is_reserved":false,"is_disabled":false,"rental_uris":{"android":"levelo://app?vid=47788a9b-3d71-4615-adaa-2c88572889ac","ios":"levelo://app?vid=47788a9b-3d71-4615-adaa-2c88572889ac"},"vehicle_type_id":"4","last_reported":1771576187,"current_range_meters":28800,"station_id":"ce4bgt12rcd13ifvqcd0","pricing_plan_id":"cebpf4jnsgd1na2vs0mg"},{"bike_id":"4a0e62d3-be5f-4d6a-b90e-c3411a1287ce","system_id":"levelo_inurba_marseille","lat":43.28913,"lon":5.35853,"is_reserved":false,"is_disabled":false,"rental_uris":{"android":"levelo://app?vid=4a0e62d3-be5f-4d6a-b90e-c3411a1287ce","ios":"levelo://app?vid=4a0e62d3-be5f-4d6a-b90e-c3411a1287ce"},"vehicle_type_id":"4","last_reported":1771576187,"current_range_meters":39200,"station_id":"ce4bhb12rcd13ifvqem0","pricing_plan_id":"cebpf4jnsgd1na2vs0mg"},{"bike_id":"fe61620a-8630-4808-bdbe-e17dd1aaecfb","system_id":"levelo_inurba_marseille","lat":43.24401,"lon":5.37075,"is_reserved":false,"is_disabled":false,"rental_uris":{"android":"levelo://app?vid=fe61620a-8630-4808-bdbe-e17dd1aaecfb","ios":"levelo://app?vid=fe61620a-8630-4808-bdbe-e17dd1aaecfb"},"vehicle_type_id":"4","last_reported":1771576187,"current_range_meters":30800,"station_id":"","pricing_plan_id":"cebpf4jnsgd1na2vs0mg"},{"bike_id":"3741e8ea-33bc-4b2e-99b8-7d77857e40d0","system_id":"levelo_inurba_marseille","lat":43.2508,"lon":5.39355,"is_reserved":false,"is_disabled":false,"rental_uris":{"android":"levelo://app?vid=3741e8ea-33bc-4b2e-99b8-7d77857e40d0","ios":"levelo://app?vid=3741e8ea-33bc-4b2e-99b8-7d77857e40d0"},"vehicle_type_id":"4","last_reported":1771576187,"current_range_meters":30400,"station_id":"","pricing_plan_id":"cebpf4jnsgd1na2vs0mg"},{"bike_id":"f4c5a82a-2841-49d5-bdd8-4a48c08201b9","system_id":"levelo_inurba_marseille","lat":43.30612,"lon":5.37205,"is_reserved":false,"is_disabled":false,"rental_uris":{"android":"levelo://app?vid=f4c5a82a-2841-49d5-bdd8-4a48c08201b9","ios":"levelo://app?vid=f4c5a82a-2841-49d5-bdd8-4a48c08201b9"},"vehicle_type_id":"4","last_reported":1771576187,"current_range_meters":35600,"station_id":"ce4bgqh2rcd13ifvqc4g","pricing_plan_id":"cebpf4jnsgd1na2vs0mg"},{"bike_id":"feddf533-e694-4295-8a00-2ac5034dd517","system_id":"levelo_inurba_marseille","lat":43.26931,"lon":5.4026,"is_reserved":false,"is_disabled":false,"rental_uris":{"android":"levelo://app?vid=feddf533-e694-4295-8a00-2ac5034dd517","ios":"levelo://app?vid=feddf533-e694-4295-8a00-2ac5034dd517"},"vehicle_type_id":"4","last_reported":1771576187,"current_range_meters":35600,"station_id":"cjm6bp8fraef2m0cb0m0","pricing_plan_id":"cebpf4jnsgd1na2vs0mg"},{"bike_id":"1ea8a2d0-c49c-472c-b5e5-7bdfbfc21b03","system_id":"levelo_inurba_marseille","lat":43.28534,"lon":5.44108,"is_reserved":false,"is_disabled":false,"rental_uris":{"android":"levelo://app?vid=1ea8a2d0-c49c-472c-b5e5-7bdfbfc21b03","ios":"levelo://app?vid=1ea8a2d0-c49c-472c-b5e5-7bdfbfc21b03"},"vehicle_type_id":"4","last_reported":1771576187,"current_range_meters":28800,"station_id":"","pricing_plan_id":"cebpf4jnsgd1na2vs0mg"},{"bike_id":"803c7173-26a3-40de-ade8-39c5bdc6e887","system_id":"levelo_inurba_marseille","lat":43.301576,"lon":5.381076,"is_reserved":false,"is_disabled":false,"rental_uris":{"android":"levelo://app?vid=803c7173-26a3-40de-ade8-39c5bdc6e887","ios":"levelo://app?vid=803c7173-26a3-40de-ade8-39c5bdc6e887"},"vehicle_type_id":"4","last_reported":1771576187,"current_range_meters":32800,"station_id":"ce4bgjp2rcd13ifvqbh0","pricing_plan_id":"cebpf4jnsgd1na2vs0mg"},{"bike_id":"c32fd30e-24fc-44f6-bf04-efc271e8c955","system_id":"levelo_inurba_marseille","lat":43.28437,"lon":5.39208,"is_reserved":false,"is_disabled":false,"rental_uris":{"android":"levelo://app?vid=c32fd30e-24fc-44f6-bf04-efc271e8c955","ios":"levelo://app?vid=c32fd30e-24fc-44f6-bf04-efc271e8c955"},"vehicle_type_id":"4","last_reported":1771576187,"current_range_meters":30800,"station_id":"ce4bhoh2rcd13ifvqh5g","pricing_plan_id":"cebpf4jnsgd1na2vs0mg"},{"bike_id":"8e2b5240-82cf-4964-9103-cf14b2b8a8b6","system_id":"levelo_inurba_marseille","lat":43.30055,"lon":5.38341,"is_reserved":false,"is_disabled":false,"rental_uris":{"android":"levelo://app?vid=8e2b5240-82cf-4964-9103-cf14b2b8a8b6","ios":"levelo://app?vid=8e2b5240-82cf-4964-9103-cf14b2b8a8b6"},"vehicle_type_id":"4","last_reported":1771576187,"current_range_meters":25200,"station_id":"","pricing_plan_id":"cebpf4jnsgd1na2vs0mg"},{"bike_id":"35bdafb6-cd19-49e6-ab52-4a2ff16cdc2e","system_id":"levelo_inurba_marseille","lat":43.24645,"lon":5.38158,"is_reserved":false,"is_disabled":false,"rental_uris":{"android":"levelo://app?vid=35bdafb6-cd19-49e6-ab52-4a2ff16cdc2e","ios":"levelo://app?vid=35bdafb6-cd19-49e6-ab52-4a2ff16cdc2e"},"vehicle_type_id":"4","last_reported":1771576187,"current_range_meters":33200,"station_id":"ce4bhih2rcd13ifvqfr0","pricing_plan_id":"cebpf4jnsgd1na2vs0mg"},{"bike_id":"ec9791c3-47c7-4257-ae24-e153a5b0ed0f","system_id":"levelo_inurba_marseille","lat":43.29862,"lon":5.36291,"is_reserved":false,"is_disabled":false,"rental_uris":{"android":"levelo://app?vid=ec9791c3-47c7-4257-ae24-e153a5b0ed0f","ios":"levelo://app?vid=ec9791c3-47c7-4257-ae24-e153a5b0ed0f"},"vehicle_type_id":"4","last_reported":1771576187,"current_range_meters":38400,"station_id":"ce4bgpp2rcd13ifvqc3g","pricing_plan_id":"cebpf4jnsgd1na2vs0mg"},{"bike_id":"a7d629ae-69dd-4c6a-b799-c35407e67baa","system_id":"levelo_inurba_marseille","lat":43.31669,"lon":5.40504,"is_reserved":false,"is_disabled":false,"rental_uris":{"android":"levelo://app?vid=a7d629ae-69dd-4c6a-b799-c35407e67baa","ios":"levelo://app?vid=a7d629ae-69dd-4c6a-b799-c35407e67baa"},"vehicle_type_id":"4","last_reported":1771576187,"current_range_meters":36000,"station_id":"ce4bh012rcd13ifvqd00","pricing_plan_id":"cebpf4jnsgd1na2vs0mg"},{"bike_id":"a390b538-2807-40e2-95f9-4ed175e72a0b","system_id":"levelo_inurba_marseille","lat":43.24949,"lon":5.40493,"is_reserved":false,"is_disabled":false,"rental_uris":{"android":"levelo://app?vid=a390b538-2807-40e2-95f9-4ed175e72a0b","ios":"levelo://app?vid=a390b538-2807-40e2-95f9-4ed175e72a0b"},"vehicle_type_id":"4","last_reported":1771576187,"current_range_meters":19200,"station_id":"st_d2ngiaodas8pm72gd1h0","pricing_plan_id":"cebpf4jnsgd1na2vs0mg"},{"bike_id":"822a37e9-cc86-4db6-b810-29ef8016af0b","system_id":"levelo_inurba_marseille","lat":43.29812,"lon":5.44071,"is_reserved":false,"is_disabled":false,"rental_uris":{"android":"levelo://app?vid=822a37e9-cc86-4db6-b810-29ef8016af0b","ios":"levelo://app?vid=822a37e9-cc86-4db6-b810-29ef8016af0b"},"vehicle_type_id":"4","last_reported":1771576187,"current_range_meters":17600,"station_id":"st_d3jp68qikq2c7381ktn0","pricing_plan_id":"cebpf4jnsgd1na2vs0mg"},{"bike_id":"f9c0c279-ea1b-4575-ae73-5372f56cf43b","system_id":"levelo_inurba_marseille","lat":43.29865,"lon":5.36309,"is_reserved":false,"is_disabled":true,"rental_uris":{"android":"levelo://app?vid=f9c0c279-ea1b-4575-ae73-5372f56cf43b","ios":"levelo://app?vid=f9c0c279-ea1b-4575-ae73-5372f56cf43b"},"vehicle_type_id":"4","last_reported":1771576187,"current_range_meters":31200,"station_id":"ce4bgpp2rcd13ifvqc3g","pricing_plan_id":"cebpf4jnsgd1na2vs0mg"},{"bike_id":"03aee3db-9f4f-47df-b3ec-8d0bacddcdbc","system_id":"levelo_inurba_marseille","lat":43.27162,"lon":5.40999,"is_reserved":false,"is_disabled":false,"rental_uris":{"android":"levelo://app?vid=03aee3db-9f4f-47df-b3ec-8d0bacddcdbc","ios":"levelo://app?vid=03aee3db-9f4f-47df-b3ec-8d0bacddcdbc"},"vehicle_type_id":"4","last_reported":1771576187,"current_range_meters":30400,"station_id":"ce4bhl12rcd13ifvqgf0","pricing_plan_id":"cebpf4jnsgd1na2vs0mg"},{"bike_id":"55eb0aad-f6b5-4ef8-8c2b-ee220d251165","system_id":"levelo_inurba_marseille","lat":43.26928,"lon":5.40251,"is_reserved":false,"is_disabled":false,"rental_uris":{"android":"levelo://app?vid=55eb0aad-f6b5-4ef8-8c2b-ee220d251165","ios":"levelo://app?vid=55eb0aad-f6b5-4ef8-8c2b-ee220d251165"},"vehicle_type_id":"4","last_reported":1771576187,"current_range_meters":29600,"station_id":"cjm6bp8fraef2m0cb0m0","pricing_plan_id":"cebpf4jnsgd1na2vs0mg"},{"bike_id":"59aabee3-6211-4f8a-9630-29cde1e1b3d7","system_id":"levelo_inurba_marseille","lat":43.29541,"lon":5.37488,"is_reserved":false,"is_disabled":false,"rental_uris":{"android":"levelo://app?vid=59aabee3-6211-4f8a-9630-29cde1e1b3d7","ios":"levelo://app?vid=59aabee3-6211-4f8a-9630-29cde1e1b3d7"},"vehicle_type_id":"4","last_reported":1771576187,"current_range_meters":12400,"station_id":"ce4bgkp2rcd13ifvqbmg","pricing_plan_id":"cebpf4jnsgd1na2vs0mg"},{"bike_id":"89b3e01c-4867-4ddb-b4c3-f53bd946fe77","system_id":"levelo_inurba_marseille","lat":43.291963,"lon":5.360659,"is_reserved":false,"is_disabled":false,"rental_uris":{"android":"levelo://app?vid=89b3e01c-4867-4ddb-b4c3-f53bd946fe77","ios":"levelo://app?vid=89b3e01c-4867-4ddb-b4c3-f53bd946fe77"},"vehicle_type_id":"4","last_reported":1771576187,"current_range_meters":8400,"station_id":"ce4bhbh2rcd13ifvqeqg","pricing_plan_id":"cebpf4jnsgd1na2vs0mg"},{"bike_id":"012436c7-b0d2-44f6-9f1e-20d7a40c23a6","system_id":"levelo_inurba_marseille","lat":43.262176,"lon":5.404494,"is_reserved":false,"is_disabled":false,"rental_uris":{"android":"levelo://app?vid=012436c7-b0d2-44f6-9f1e-20d7a40c23a6","ios":"levelo://app?vid=012436c7-b0d2-44f6-9f1e-20d7a40c23a6"},"vehicle_type_id":"4","last_reported":1771576187,"current_range_meters":28400,"station_id":"ce4bhmh2rcd13ifvqgmg","pricing_plan_id":"cebpf4jnsgd1na2vs0mg"},{"bike_id":"ddb35e99-7580-4184-b1a3-39dee08fd05d","system_id":"levelo_inurba_marseille","lat":43.29571,"lon":5.43974,"is_reserved":false,"is_disabled":true,"rental_uris":{"android":"levelo://app?vid=ddb35e99-7580-4184-b1a3-39dee08fd05d","ios":"levelo://app?vid=ddb35e99-7580-4184-b1a3-39dee08fd05d"},"vehicle_type_id":"4","last_reported":1771576187,"current_range_meters":7200,"station_id":"","pricing_plan_id":"cebpf4jnsgd1na2vs0mg"},{"bike_id":"4d976bf5-f813-4b36-99cd-ae82b3487f1d","system_id":"levelo_inurba_marseille","lat":43.28003,"lon":5.41667,"is_reserved":false,"is_disabled":false,"rental_uris":{"android":"levelo://app?vid=4d976bf5-f813-4b36-99cd-ae82b3487f1d","ios":"levelo://app?vid=4d976bf5-f813-4b36-99cd-ae82b3487f1d"},"vehicle_type_id":"4","last_reported":1771576187,"current_range_meters":4000,"station_id":"ce4bho12rcd13ifvqh1g","pricing_plan_id":"cebpf4jnsgd1na2vs0mg"},{"bike_id":"cf4ac0e3-a880-402a-ba16-3c810e1ae3e2","system_id":"levelo_inurba_marseille","lat":43.29267,"lon":5.36847,"is_reserved":false,"is_disabled":false,"rental_uris":{"android":"levelo://app?vid=cf4ac0e3-a880-402a-ba16-3c810e1ae3e2","ios":"levelo://app?vid=cf4ac0e3-a880-402a-ba16-3c810e1ae3e2"},"vehicle_type_id":"4","last_reported":1771576187,"current_range_meters":10800,"station_id":"ce4bhbp2rcd13ifvqesg","pricing_plan_id":"cebpf4jnsgd1na2vs0mg"},{"bike_id":"ccbff816-1104-4bd0-99c6-f565cf383d9e","system_id":"levelo_inurba_marseille","lat":43.25502,"lon":5.37662,"is_reserved":false,"is_disabled":false,"rental_uris":{"android":"levelo://app?vid=ccbff816-1104-4bd0-99c6-f565cf383d9e","ios":"levelo://app?vid=ccbff816-1104-4bd0-99c6-f565cf383d9e"},"vehicle_type_id":"4","last_reported":1771576187,"current_range_meters":16800,"station_id":"ce4bhh12rcd13ifvqff0","pricing_plan_id":"cebpf4jnsgd1na2vs0mg"},{"bike_id":"5d28958e-c001-4c94-8a2b-dc61485dc6e0","system_id":"levelo_inurba_marseille","lat":43.30155,"lon":5.3807,"is_reserved":false,"is_disabled":false,"rental_uris":{"android":"levelo://app?vid=5d28958e-c001-4c94-8a2b-dc61485dc6e0","ios":"levelo://app?vid=5d28958e-c001-4c94-8a2b-dc61485dc6e0"},"vehicle_type_id":"4","last_reported":1771576187,"current_range_meters":34000,"station_id":"ce4bgjp2rcd13ifvqbh0","pricing_plan_id":"cebpf4jnsgd1na2vs0mg"},{"bike_id":"ab56e0b0-ad77-42aa-9691-87bb8be6f2a1","system_id":"levelo_inurba_marseille","lat":43.31234,"lon":5.36872,"is_reserved":false,"is_disabled":false,"rental_uris":{"android":"levelo://app?vid=ab56e0b0-ad77-42aa-9691-87bb8be6f2a1","ios":"levelo://app?vid=ab56e0b0-ad77-42aa-9691-87bb8be6f2a1"},"vehicle_type_id":"4","last_reported":1771576187,"current_range_meters":25200,"station_id":"ce4bgl92rcd13ifvqbq0","pricing_plan_id":"cebpf4jnsgd1na2vs0mg"},{"bike_id":"56e0ec26-71cf-4f8d-b3ec-2d48fa1fa6dc","system_id":"levelo_inurba_marseille","lat":43.29381,"lon":5.37852,"is_reserved":false,"is_disabled":false,"rental_uris":{"android":"levelo://app?vid=56e0ec26-71cf-4f8d-b3ec-2d48fa1fa6dc","ios":"levelo://app?vid=56e0ec26-71cf-4f8d-b3ec-2d48fa1fa6dc"},"vehicle_type_id":"4","last_reported":1771576187,"current_range_meters":8800,"station_id":"ce4bgjh2rcd13ifvqbf0","pricing_plan_id":"cebpf4jnsgd1na2vs0mg"},{"bike_id":"c2afe153-b0af-49ce-b4c5-4ec609c1e63c","system_id":"levelo_inurba_marseille","lat":43.29723,"lon":5.36607,"is_reserved":false,"is_disabled":false,"rental_uris":{"android":"levelo://app?vid=c2afe153-b0af-49ce-b4c5-4ec609c1e63c","ios":"levelo://app?vid=c2afe153-b0af-49ce-b4c5-4ec609c1e63c"},"vehicle_type_id":"4","last_reported":1771576187,"current_range_meters":39200,"station_id":"ce4bgn12rcd13ifvqbt0","pricing_plan_id":"cebpf4jnsgd1na2vs0mg"},{"bike_id":"f3dabe3a-1263-4a4f-94b4-37ab08554040","system_id":"levelo_inurba_marseille","lat":43.27939,"lon":5.38706,"is_reserved":false,"is_disabled":false,"rental_uris":{"android":"levelo://app?vid=f3dabe3a-1263-4a4f-94b4-37ab08554040","ios":"levelo://app?vid=f3dabe3a-1263-4a4f-94b4-37ab08554040"},"vehicle_type_id":"4","last_reported":1771576187,"current_range_meters":32400,"station_id":"ce4bhg12rcd13ifvqf80","pricing_plan_id":"cebpf4jnsgd1na2vs0mg"},{"bike_id":"9f45fc37-679c-48d9-a722-4e97a85d8c53","system_id":"levelo_inurba_marseille","lat":43.29271,"lon":5.40154,"is_reserved":false,"is_disabled":false,"rental_uris":{"android":"levelo://app?vid=9f45fc37-679c-48d9-a722-4e97a85d8c53","ios":"levelo://app?vid=9f45fc37-679c-48d9-a722-4e97a85d8c53"},"vehicle_type_id":"4","last_reported":1771576187,"current_range_meters":25600,"station_id":"ce4bh312rcd13ifvqdk0","pricing_plan_id":"cebpf4jnsgd1na2vs0mg"},{"bike_id":"5d4597b2-2961-4f8b-8c73-25cd03047315","system_id":"levelo_inurba_marseille","lat":43.30286,"lon":5.37693,"is_reserved":false,"is_disabled":false,"rental_uris":{"android":"levelo://app?vid=5d4597b2-2961-4f8b-8c73-25cd03047315","ios":"levelo://app?vid=5d4597b2-2961-4f8b-8c73-25cd03047315"},"vehicle_type_id":"4","last_reported":1771576187,"current_range_meters":32800,"station_id":"ce4bguh2rcd13ifvqcj0","pricing_plan_id":"cebpf4jnsgd1na2vs0mg"},{"bike_id":"335a267c-95a8-472d-abc4-03c6dcaf13f4","system_id":"levelo_inurba_marseille","lat":43.30179,"lon":5.36617,"is_reserved":false,"is_disabled":false,"rental_uris":{"android":"levelo://app?vid=335a267c-95a8-472d-abc4-03c6dcaf13f4","ios":"levelo://app?vid=335a267c-95a8-472d-abc4-03c6dcaf13f4"},"vehicle_type_id":"4","last_reported":1771576187,"current_range_meters":24400,"station_id":"ce4bgrh2rcd13ifvqc8g","pricing_plan_id":"cebpf4jnsgd1na2vs0mg"},{"bike_id":"718f4185-4e47-4177-9e77-08c6703daa55","system_id":"levelo_inurba_marseille","lat":43.30038,"lon":5.37417,"is_reserved":false,"is_disabled":false,"rental_uris":{"android":"levelo://app?vid=718f4185-4e47-4177-9e77-08c6703daa55","ios":"levelo://app?vid=718f4185-4e47-4177-9e77-08c6703daa55"},"vehicle_type_id":"4","last_reported":1771576187,"current_range_meters":32400,"station_id":"","pricing_plan_id":"cebpf4jnsgd1na2vs0mg"},{"bike_id":"759f0a09-9669-46dc-9822-7ecc825b93de","system_id":"levelo_inurba_marseille","lat":43.30555,"lon":5.36532,"is_reserved":false,"is_disabled":false,"rental_uris":{"android":"levelo://app?vid=759f0a09-9669-46dc-9822-7ecc825b93de","ios":"levelo://app?vid=759f0a09-9669-46dc-9822-7ecc825b93de"},"vehicle_type_id":"4","last_reported":1771576187,"current_range_meters":31200,"station_id":"ce4bgs12rcd13ifvqcag","pricing_plan_id":"cebpf4jnsgd1na2vs0mg"},{"bike_id":"f33e43f6-092b-453e-bbdc-38f971769d74","system_id":"levelo_inurba_marseille","lat":43.282,"lon":5.39043,"is_reserved":false,"is_disabled":false,"rental_uris":{"android":"levelo://app?vid=f33e43f6-092b-453e-bbdc-38f971769d74","ios":"levelo://app?vid=f33e43f6-092b-453e-bbdc-38f971769d74"},"vehicle_type_id":"4","last_reported":1771576187,"current_range_meters":37600,"station_id":"ce4bhn92rcd13ifvqgsg","pricing_plan_id":"cebpf4jnsgd1na2vs0mg"},{"bike_id":"b7e5c6ae-2c8b-4817-894f-d2a907996349","system_id":"levelo_inurba_marseille","lat":43.28418,"lon":5.38529,"is_reserved":false,"is_disabled":false,"rental_uris":{"android":"levelo://app?vid=b7e5c6ae-2c8b-4817-894f-d2a907996349","ios":"levelo://app?vid=b7e5c6ae-2c8b-4817-894f-d2a907996349"},"vehicle_type_id":"4","last_reported":1771576187,"current_range_meters":24000,"station_id":"","pricing_plan_id":"cebpf4jnsgd1na2vs0mg"},{"bike_id":"a203736d-c1b5-4b92-91cd-952b9b8898d7","system_id":"levelo_inurba_marseille","lat":43.29823,"lon":5.44058,"is_reserved":false,"is_disabled":false,"rental_uris":{"android":"levelo://app?vid=a203736d-c1b5-4b92-91cd-952b9b8898d7","ios":"levelo://app?vid=a203736d-c1b5-4b92-91cd-952b9b8898d7"},"vehicle_type_id":"4","last_reported":1771576187,"current_range_meters":36800,"station_id":"st_d3jp68qikq2c7381ktn0","pricing_plan_id":"cebpf4jnsgd1na2vs0mg"},{"bike_id":"00ec92d6-8585-4b6b-bdfb-075a6c0e15c5","system_id":"levelo_inurba_marseille","lat":43.27942,"lon":5.4105,"is_reserved":false,"is_disabled":false,"rental_uris":{"android":"levelo://app?vid=00ec92d6-8585-4b6b-bdfb-075a6c0e15c5","ios":"levelo://app?vid=00ec92d6-8585-4b6b-bdfb-075a6c0e15c5"},"vehicle_type_id":"4","last_reported":1771576187,"current_range_meters":35200,"station_id":"ce4bhnp2rcd13ifvqh0g","pricing_plan_id":"cebpf4jnsgd1na2vs0mg"},{"bike_id":"ab3d66d5-5daf-4382-8c65-1eb907410934","system_id":"levelo_inurba_marseille","lat":43.307385,"lon":5.424439,"is_reserved":false,"is_disabled":false,"rental_uris":{"android":"levelo://app?vid=ab3d66d5-5daf-4382-8c65-1eb907410934","ios":"levelo://app?vid=ab3d66d5-5daf-4382-8c65-1eb907410934"},"vehicle_type_id":"4","last_reported":1771576187,"current_range_meters":3600,"station_id":"st_cvj6ca6bvosntc0bfgr0","pricing_plan_id":"cebpf4jnsgd1na2vs0mg"},{"bike_id":"537ddde5-fba4-4dd4-948a-decf92045f7c","system_id":"levelo_inurba_marseille","lat":43.29025,"lon":5.39949,"is_reserved":false,"is_disabled":false,"rental_uris":{"android":"levelo://app?vid=537ddde5-fba4-4dd4-948a-decf92045f7c","ios":"levelo://app?vid=537ddde5-fba4-4dd4-948a-decf92045f7c"},"vehicle_type_id":"4","last_reported":1771576187,"current_range_meters":37600,"station_id":"","pricing_plan_id":"cebpf4jnsgd1na2vs0mg"},{"bike_id":"d29998b5-6967-46da-b884-fd61b5bcb491","system_id":"levelo_inurba_marseille","lat":43.23959,"lon":5.36643,"is_reserved":false,"is_disabled":true,"rental_uris":{"android":"levelo://app?vid=d29998b5-6967-46da-b884-fd61b5bcb491","ios":"levelo://app?vid=d29998b5-6967-46da-b884-fd61b5bcb491"},"vehicle_type_id":"4","last_reported":1771576187,"current_range_meters":39200,"station_id":"ce4bhi12rcd13ifvqfp0","pricing_plan_id":"cebpf4jnsgd1na2vs0mg"},{"bike_id":"2821260b-3b59-44c7-8cec-5fffade087b5","system_id":"levelo_inurba_marseille","lat":43.29046,"lon":5.4027,"is_reserved":false,"is_disabled":false,"rental_uris":{"android":"levelo://app?vid=2821260b-3b59-44c7-8cec-5fffade087b5","ios":"levelo://app?vid=2821260b-3b59-44c7-8cec-5fffade087b5"},"vehicle_type_id":"4","last_reported":1771576187,"current_range_meters":38000,"station_id":"","pricing_plan_id":"cebpf4jnsgd1na2vs0mg"},{"bike_id":"4f7851f0-ef77-4965-80ce-a5410907ce76","system_id":"levelo_inurba_marseille","lat":43.30396,"lon":5.38923,"is_reserved":false,"is_disabled":false,"rental_uris":{"android":"levelo://app?vid=4f7851f0-ef77-4965-80ce-a5410907ce76","ios":"levelo://app?vid=4f7851f0-ef77-4965-80ce-a5410907ce76"},"vehicle_type_id":"4","last_reported":1771576187,"current_range_meters":28400,"station_id":"ce4bgk12rcd13ifvqbi0","pricing_plan_id":"cebpf4jnsgd1na2vs0mg"},{"bike_id":"83032a15-de29-40b7-a954-7fedf3d7a2f5","system_id":"levelo_inurba_marseille","lat":43.25502,"lon":5.37654,"is_reserved":false,"is_disabled":false,"rental_uris":{"android":"levelo://app?vid=83032a15-de29-40b7-a954-7fedf3d7a2f5","ios":"levelo://app?vid=83032a15-de29-40b7-a954-7fedf3d7a2f5"},"vehicle_type_id":"4","last_reported":1771576187,"current_range_meters":24800,"station_id":"ce4bhh12rcd13ifvqff0","pricing_plan_id":"cebpf4jnsgd1na2vs0mg"},{"bike_id":"1e91ae5d-f4e8-4632-9a45-badf2d733577","system_id":"levelo_inurba_marseille","lat":43.26697,"lon":5.38267,"is_reserved":false,"is_disabled":false,"rental_uris":{"android":"levelo://app?vid=1e91ae5d-f4e8-4632-9a45-badf2d733577","ios":"levelo://app?vid=1e91ae5d-f4e8-4632-9a45-badf2d733577"},"vehicle_type_id":"4","last_reported":1771576187,"current_range_meters":38800,"station_id":"ce4bhg92rcd13ifvqf90","pricing_plan_id":"cebpf4jnsgd1na2vs0mg"},{"bike_id":"6490eec2-c2e9-42ad-aca0-95d82ccfc451","system_id":"levelo_inurba_marseille","lat":43.29215,"lon":5.36096,"is_reserved":false,"is_disabled":false,"rental_uris":{"android":"levelo://app?vid=6490eec2-c2e9-42ad-aca0-95d82ccfc451","ios":"levelo://app?vid=6490eec2-c2e9-42ad-aca0-95d82ccfc451"},"vehicle_type_id":"4","last_reported":1771576187,"current_range_meters":4000,"station_id":"ce4bhbh2rcd13ifvqeqg","pricing_plan_id":"cebpf4jnsgd1na2vs0mg"},{"bike_id":"fac37d59-7173-486d-84e4-f215994ed327","system_id":"levelo_inurba_marseille","lat":43.26206,"lon":5.3792,"is_reserved":false,"is_disabled":false,"rental_uris":{"android":"levelo://app?vid=fac37d59-7173-486d-84e4-f215994ed327","ios":"levelo://app?vid=fac37d59-7173-486d-84e4-f215994ed327"},"vehicle_type_id":"4","last_reported":1771576187,"current_range_meters":40000,"station_id":"ce4bhjp2rcd13ifvqg90","pricing_plan_id":"cebpf4jnsgd1na2vs0mg"},{"bike_id":"62441085-837d-4d79-9902-e8ee03534bd7","system_id":"levelo_inurba_marseille","lat":43.29587,"lon":5.36757,"is_reserved":false,"is_disabled":false,"rental_uris":{"android":"levelo://app?vid=62441085-837d-4d79-9902-e8ee03534bd7","ios":"levelo://app?vid=62441085-837d-4d79-9902-e8ee03534bd7"},"vehicle_type_id":"4","last_reported":1771576187,"current_range_meters":39200,"station_id":"ce4bgph2rcd13ifvqc2g","pricing_plan_id":"cebpf4jnsgd1na2vs0mg"},{"bike_id":"f460cdea-58c9-45ae-b344-91e13b5a9dd4","system_id":"levelo_inurba_marseille","lat":43.29276,"lon":5.36843,"is_reserved":false,"is_disabled":false,"rental_uris":{"android":"levelo://app?vid=f460cdea-58c9-45ae-b344-91e13b5a9dd4","ios":"levelo://app?vid=f460cdea-58c9-45ae-b344-91e13b5a9dd4"},"vehicle_type_id":"4","last_reported":1771576187,"current_range_meters":37600,"station_id":"ce4bhbp2rcd13ifvqesg","pricing_plan_id":"cebpf4jnsgd1na2vs0mg"},{"bike_id":"b583c3e4-a483-4093-9959-430528ae3b5e","system_id":"levelo_inurba_marseille","lat":43.30185,"lon":5.38527,"is_reserved":false,"is_disabled":false,"rental_uris":{"android":"levelo://app?vid=b583c3e4-a483-4093-9959-430528ae3b5e","ios":"levelo://app?vid=b583c3e4-a483-4093-9959-430528ae3b5e"},"vehicle_type_id":"4","last_reported":1771576187,"current_range_meters":27200,"station_id":"","pricing_plan_id":"cebpf4jnsgd1na2vs0mg"},{"bike_id":"f5a83828-f353-4692-b521-be18cc9b6b45","system_id":"levelo_inurba_marseille","lat":43.29005,"lon":5.35609,"is_reserved":false,"is_disabled":false,"rental_uris":{"android":"levelo://app?vid=f5a83828-f353-4692-b521-be18cc9b6b45","ios":"levelo://app?vid=f5a83828-f353-4692-b521-be18cc9b6b45"},"vehicle_type_id":"4","last_reported":1771576187,"current_range_meters":17600,"station_id":"ce4bhb92rcd13ifvqen0","pricing_plan_id":"cebpf4jnsgd1na2vs0mg"},{"bike_id":"36b28756-c901-4c26-8e91-94c1df83609b","system_id":"levelo_inurba_marseille","lat":43.29913,"lon":5.43624,"is_reserved":false,"is_disabled":false,"rental_uris":{"android":"levelo://app?vid=36b28756-c901-4c26-8e91-94c1df83609b","ios":"levelo://app?vid=36b28756-c901-4c26-8e91-94c1df83609b"},"vehicle_type_id":"4","last_reported":1771576187,"current_range_meters":38800,"station_id":"ce4bhpp2rcd13ifvqhfg","pricing_plan_id":"cebpf4jnsgd1na2vs0mg"},{"bike_id":"79b9617f-b7dd-42cf-bda2-895f440c14ee","system_id":"levelo_inurba_marseille","lat":43.32368,"lon":5.37322,"is_reserved":false,"is_disabled":false,"rental_uris":{"android":"levelo://app?vid=79b9617f-b7dd-42cf-bda2-895f440c14ee","ios":"levelo://app?vid=79b9617f-b7dd-42cf-bda2-895f440c14ee"},"vehicle_type_id":"4","last_reported":1771576187,"current_range_meters":36400,"station_id":"","pricing_plan_id":"cebpf4jnsgd1na2vs0mg"},{"bike_id":"cf213306-86b5-4130-8f2e-91240decc6a1","system_id":"levelo_inurba_marseille","lat":43.25001,"lon":5.3893,"is_reserved":false,"is_disabled":false,"rental_uris":{"android":"levelo://app?vid=cf213306-86b5-4130-8f2e-91240decc6a1","ios":"levelo://app?vid=cf213306-86b5-4130-8f2e-91240decc6a1"},"vehicle_type_id":"4","last_reported":1771576187,"current_range_meters":40000,"station_id":"ce4bhgp2rcd13ifvqfd0","pricing_plan_id":"cebpf4jnsgd1na2vs0mg"},{"bike_id":"edd40948-90a4-4d4a-82c5-91e29016baab","system_id":"levelo_inurba_marseille","lat":43.30525,"lon":5.36768,"is_reserved":false,"is_disabled":false,"rental_uris":{"android":"levelo://app?vid=edd40948-90a4-4d4a-82c5-91e29016baab","ios":"levelo://app?vid=edd40948-90a4-4d4a-82c5-91e29016baab"},"vehicle_type_id":"4","last_reported":1771576187,"current_range_meters":24000,"station_id":"ce4bgrp2rcd13ifvqc9g","pricing_plan_id":"cebpf4jnsgd1na2vs0mg"},{"bike_id":"1a94d429-f80d-4d27-9a5f-d45ec0c2e032","system_id":"levelo_inurba_marseille","lat":43.27335,"lon":5.39115,"is_reserved":false,"is_disabled":false,"rental_uris":{"android":"levelo://app?vid=1a94d429-f80d-4d27-9a5f-d45ec0c2e032","ios":"levelo://app?vid=1a94d429-f80d-4d27-9a5f-d45ec0c2e032"},"vehicle_type_id":"4","last_reported":1771576187,"current_range_meters":39200,"station_id":"ce4bhgp2rcd13ifvqfe0","pricing_plan_id":"cebpf4jnsgd1na2vs0mg"},{"bike_id":"f8df57cb-120a-4af2-869d-3dd7ec6f3729","system_id":"levelo_inurba_marseille","lat":43.29786,"lon":5.37971,"is_reserved":false,"is_disabled":false,"rental_uris":{"android":"levelo://app?vid=f8df57cb-120a-4af2-869d-3dd7ec6f3729","ios":"levelo://app?vid=f8df57cb-120a-4af2-869d-3dd7ec6f3729"},"vehicle_type_id":"4","last_reported":1771576187,"current_range_meters":22000,"station_id":"","pricing_plan_id":"cebpf4jnsgd1na2vs0mg"},{"bike_id":"c1b93aaa-3851-4141-a3a2-469a9b9eac56","system_id":"levelo_inurba_marseille","lat":43.31223,"lon":5.36864,"is_reserved":false,"is_disabled":false,"rental_uris":{"android":"levelo://app?vid=c1b93aaa-3851-4141-a3a2-469a9b9eac56","ios":"levelo://app?vid=c1b93aaa-3851-4141-a3a2-469a9b9eac56"},"vehicle_type_id":"4","last_reported":1771576187,"current_range_meters":35600,"station_id":"ce4bgl92rcd13ifvqbq0","pricing_plan_id":"cebpf4jnsgd1na2vs0mg"},