{"last_updated":1728500828,"ttl":60,"version":"2.2","data":{"bikes":[{"bike_id":"b53f77ab-ba1c-4ba1-af64-411b74248eb8","system_id":"levelo_inurba_marseille","lat":43.32804,"lon":5.38883,"is_reserved":false,"is_disabled":false,"rental_uris":{"android":"levelo://app?vid=b53f77ab-ba1c-4ba1-af64-411b74248eb8","ios":"levelo://app?vid=b53f77ab-ba1c-4ba1-af64-411b74248eb8"},"vehicle_type_id":"4","last_reported":1728500828,"current_range_meters":6000,"station_id":"","pricing_plan_id":"cebpf4jnsgd1na2vs0mg"},{"bike_id":"305da247-fb09-4a4f-a360-edcb5dfe038a","system_id":"levelo_inurba_marseille","lat":43.2861,"lon":5.35117,"is_reserved":false,"is_disabled":false,"rental_uris":{"android":"levelo://app?vid=305da247-fb09-4a4f-a360-edcb5dfe038a","ios":"levelo://app?vid=305da247-fb09-4a4f-a360-edcb5dfe038a"},"vehicle_type_id":"4","last_reported":1728500828,"current_range_meters":28000,"station_id":"ce4bhch2rcd13ifvqeug","pricing_plan_id":"cebpf4jnsgd1na2vs0mg"},{"bike_id":"175d0b37-1f62-4442-b865-8d6671b50282","system_id":"levelo_inurba_marseille","lat":43.25117,"lon":5.40322,"is_reserved":false,"is_disabled":false,"rental_uris":{"android":"levelo://app?vid=175d0b37-1f62-4442-b865-8d6671b50282","ios":"levelo://app?vid=175d0b37-1f62-4442-b865-8d6671b50282"},"vehicle_type_id":"4","last_reported":1728500828,"current_range_meters":12400,"station_id":"ce4bhlh2rcd13ifvqgig","pricing_plan_id":"cebpf4jnsgd1na2vs0mg"},{"bike_id":"2b9de801-4944-4b89-ac1e-d0606188b06a","system_id":"levelo_inurba_marseille","lat":43.32189,"lon":5.3922,"is_reserved":false,"is_disabled":false,"rental_uris":{"android":"levelo://app?vid=2b9de801-4944-4b89-ac1e-d0606188b06a","ios":"levelo://app?vid=2b9de801-4944-4b89-ac1e-d0606188b06a"},"vehicle_type_id":"4","last_reported":1728500828,"current_range_meters":30000,"station_id":"","pricing_plan_id":"cebpf4jnsgd1na2vs0mg"},{"bike_id":"6b8918a4-396b-43e5-9a7f-f056357bf660","system_id":"levelo_inurba_marseille","lat":43.23064,"lon":5.35492,"is_reserved":false,"is_disabled":false,"rental_uris":{"android":"levelo://app?vid=6b8918a4-396b-43e5-9a7f-f056357bf660","ios":"levelo://app?vid=6b8918a4-396b-43e5-9a7f-f056357bf660"},"vehicle_type_id":"4","last_reported":1728500828,"current_range_meters":7200,"station_id":"cpo3342slgdg3j2ifvpg","pricing_plan_id":"cebpf4jnsgd1na2vs0mg"},{"bike_id":"d2a5d85f-4a2f-4825-8e5a-2ef2fe0d4ee5","system_id":"levelo_inurba_marseille","lat":43.31324,"lon":5.39702,"is_reserved":false,"is_disabled":false,"rental_uris":{"android":"levelo://app?vid=d2a5d85f-4a2f-4825-8e5a-2ef2fe0d4ee5","ios":"levelo://app?vid=d2a5d85f-4a2f-4825-8e5a-2ef2fe0d4ee5"},"vehicle_type_id":"4","last_reported":1728500828,"current_range_meters":14000,"station_id":"ce4bgvp2rcd13ifvqcu0","pricing_plan_id":"cebpf4jnsgd1na2vs0mg"},{"bike_id":"466e1cd4-01b3-4371-ae47-dd6c05c1d982","system_id":"levelo_inurba_marseille","lat":43.30314,"lon":5.39206,"is_reserved":false,"is_disabled":false,"rental_uris":{"android":"levelo://app?vid=466e1cd4-01b3-4371-ae47-dd6c05c1d982","ios":"levelo://app?vid=466e1cd4-01b3-4371-ae47-dd6c05c1d982"},"vehicle_type_id":"4","last_reported":1728500828,"current_range_meters":36400,"station_id":"ce4bgkh2rcd13ifvqbk0","pricing_plan_id":"cebpf4jnsgd1na2vs0mg"},{"bike_id":"364953e0-9b77-45c8-9648-87d6fc03190a","system_id":"levelo_inurba_marseille","lat":43.28679,"lon":5.3866,"is_reserved":false,"is_disabled":false,"rental_uris":{"android":"levelo://app?vid=364953e0-9b77-45c8-9648-87d6fc03190a","ios":"levelo://app?vid=364953e0-9b77-45c8-9648-87d6fc03190a"},"vehicle_type_id":"4","last_reported":1728500828,"current_range_meters":38800,"station_id":"ce4bh492rcd13ifvqdug","pricing_plan_id":"cebpf4jnsgd1na2vs0mg"},{"bike_id":"10adf6ac-8a26-424b-bce6-67370c8dfb5b","system_id":"levelo_inurba_marseille","lat":43.298687,"lon":5.397375,"is_reserved":false,"is_disabled":false,"rental_uris":{"android":"levelo://app?vid=10adf6ac-8a26-424b-bce6-67370c8dfb5b","ios":"levelo://app?vid=10adf6ac-8a26-424b-bce6-67370c8dfb5b"},"vehicle_type_id":"4","last_reported":1728500828,"current_range_meters":33600,"station_id":"ce4bhr12rcd13ifvqhpg","pricing_plan_id":"cebpf4jnsgd1na2vs0mg"},{"bike_id":"8dd3e45d-dca7-484d-9c3e-8c4f91b17203","system_id":"levelo_inurba_marseille","lat":43.290034,"lon":5.356012,"is_reserved":false,"is_disabled":false,"rental_uris":{"android":"levelo://app?vid=8dd3e45d-dca7-484d-9c3e-8c4f91b17203","ios":"levelo://app?vid=8dd3e45d-dca7-484d-9c3e-8c4f91b17203"},"vehicle_type_id":"4","last_reported":1728500828,"current_range_meters":10000,"station_id":"ce4bhb92rcd13ifvqen0","pricing_plan_id":"cebpf4jnsgd1na2vs0mg"},{"bike_id":"f74e6377-c0b5-4e10-8194-fc4616df6b74","system_id":"levelo_inurba_marseille","lat":43.245428,"lon":5.395228,"is_reserved":false,"is_disabled":false,"rental_uris":{"android":"levelo://app?vid=f74e6377-c0b5-4e10-8194-fc4616df6b74","ios":"levelo://app?vid=f74e6377-c0b5-4e10-8194-fc4616df6b74"},"vehicle_type_id":"4","last_reported":1728500828,"current_range_meters":38800,"station_id":"ce4bhlp2rcd13ifvqgjg","pricing_plan_id":"cebpf4jnsgd1na2vs0mg"},{"bike_id":"64c9abdc-a744-4b43-9856-a64e8ee5db15","system_id":"levelo_inurba_marseille","lat":43.23063,"lon":5.35496,"is_reserved":false,"is_disabled":false,"rental_uris":{"android":"levelo://app?vid=64c9abdc-a744-4b43-9856-a64e8ee5db15","ios":"levelo://app?vid=64c9abdc-a744-4b43-9856-a64e8ee5db15"},"vehicle_type_id":"4","last_reported":1728500828,"current_range_meters":36800,"station_id":"cpo3342slgdg3j2ifvpg","pricing_plan_id":"cebpf4jnsgd1na2vs0mg"},{"bike_id":"cdc54f35-60ba-419d-9cd7-57190d56bf8c","system_id":"levelo_inurba_marseille","lat":43.28152,"lon":5.42649,"is_reserved":false,"is_disabled":false,"rental_uris":{"android":"levelo://app?vid=cdc54f35-60ba-419d-9cd7-57190d56bf8c","ios":"levelo://app?vid=cdc54f35-60ba-419d-9cd7-57190d56bf8c"},"vehicle_type_id":"4","last_reported":1728500828,"current_range_meters":9200,"station_id":"ce4bhnh2rcd13ifvqgug","pricing_plan_id":"cebpf4jnsgd1na2vs0mg"},{"bike_id":"bb95532b-17bc-482b-ab15-99455c538354","system_id":"levelo_inurba_marseille","lat":43.24187,"lon":5.39723,"is_reserved":false,"is_disabled":false,"rental_uris":{"android":"levelo://app?vid=bb95532b-17bc-482b-ab15-99455c538354","ios":"levelo://app?vid=bb95532b-17bc-482b-ab15-99455c538354"},"vehicle_type_id":"4","last_reported":1728500828,"current_range_meters":38800,"station_id":"ce4bhn12rcd13ifvqgpg","pricing_plan_id":"cebpf4jnsgd1na2vs0mg"},{"bike_id":"c63e83de-f5b0-4819-8f01-392a7912c20e","system_id":"levelo_inurba_marseille","lat":43.25725,"lon":5.41114,"is_reserved":false,"is_disabled":false,"rental_uris":{"android":"levelo://app?vid=c63e83de-f5b0-4819-8f01-392a7912c20e","ios":"levelo://app?vid=c63e83de-f5b0-4819-8f01-392a7912c20e"},"vehicle_type_id":"4","last_reported":1728500828,"current_range_meters":8000,"station_id":"ce4bhkp2rcd13ifvqgd0","pricing_plan_id":"cebpf4jnsgd1na2vs0mg"},{"bike_id":"cdaa57b0-48a4-4063-8339-1b6a699d9c51","system_id":"levelo_inurba_marseille","lat":43.27992,"lon":5.40015,"is_reserved":false,"is_disabled":false,"rental_uris":{"android":"levelo://app?vid=cdaa57b0-48a4-4063-8339-1b6a699d9c51","ios":"levelo://app?vid=cdaa57b0-48a4-4063-8339-1b6a699d9c51"},"vehicle_type_id":"4","last_reported":1728500828,"current_range_meters":22000,"station_id":"ce4bho92rcd13ifvqh4g","pricing_plan_id":"cebpf4jnsgd1na2vs0mg"},{"bike_id":"058ef1ff-5858-4a6d-965f-98aeb9455f88","system_id":"levelo_inurba_marseille","lat":43.31758,"lon":5.39013,"is_reserved":false,"is_disabled":false,"rental_uris":{"android":"levelo://app?vid=058ef1ff-5858-4a6d-965f-98aeb9455f88","ios":"levelo://app?vid=058ef1ff-5858-4a6d-965f-98aeb9455f88"},"vehicle_type_id":"4","last_reported":1728500828,"current_range_meters":36800,"station_id":"ce4bhqp2rcd13ifvqhng","pricing_plan_id":"cebpf4jnsgd1na2vs0mg"},{"bike_id":"7f7689f0-291f-4961-b6a8-893e8e88a83a","system_id":"levelo_inurba_marseille","lat":43.31488,"lon":5.37309,"is_reserved":false,"is_disabled":false,"rental_uris":{"android":"levelo://app?vid=7f7689f0-291f-4961-b6a8-893e8e88a83a","ios":"levelo://app?vid=7f7689f0-291f-4961-b6a8-893e8e88a83a"},"vehicle_type_id":"4","last_reported":1728500828,"current_range_meters":16000,"station_id":"ce4bgt12rcd13ifvqcd0","pricing_plan_id":"cebpf4jnsgd1na2vs0mg"},{"bike_id":"f8a162ab-4b66-4bc7-8984-b44abdaf2e30","system_id":"levelo_inurba_marseille","lat":43.2465,"lon":5.3889,"is_reserved":false,"is_disabled":false,"rental_uris":{"android":"levelo://app?vid=f8a162ab-4b66-4bc7-8984-b44abdaf2e30","ios":"levelo://app?vid=f8a162ab-4b66-4bc7-8984-b44abdaf2e30"},"vehicle_type_id":"4","last_reported":1728500828,"current_range_meters":4400,"station_id":"ce4bhg12rcd13ifvqf60","pricing_plan_id":"cebpf4jnsgd1na2vs0mg"},{"bike_id":"0fc1ebfe-0ef8-4da4-9f7b-9fc488cf19bc","system_id":"levelo_inurba_marseille","lat":43.23181,"lon":5.3999,"is_reserved":false,"is_disabled":false,"rental_uris":{"android":"levelo://app?vid=0fc1ebfe-0ef8-4da4-9f7b-9fc488cf19bc","ios":"levelo://app?vid=0fc1ebfe-0ef8-4da4-9f7b-9fc488cf19bc"},"vehicle_type_id":"4","last_reported":1728500828,"current_range_meters":32400,"station_id":"ce4bhn12rcd13ifvqgqg","pricing_plan_id":"cebpf4jnsgd1na2vs0mg"},{"bike_id":"59a20882-e884-470e-b111-32ed424e7cc3","system_id":"levelo_inurba_marseille","lat":43.33728,"lon":5.39193,"is_reserved":false,"is_disabled":false,"rental_uris":{"android":"levelo://app?vid=59a20882-e884-470e-b111-32ed424e7cc3","ios":"levelo://app?vid=59a20882-e884-470e-b111-32ed424e7cc3"},"vehicle_type_id":"4","last_reported":1728500828,"current_range_meters":29600,"station_id":"ce4bhr92rcd13ifvqhsg","pricing_plan_id":"cebpf4jnsgd1na2vs0mg"},{"bike_id":"bae4abde-2130-4494-b798-eb88d6823efb","system_id":"levelo_inurba_marseille","lat":43.30354,"lon":5.41877,"is_reserved":false,"is_disabled":false,"rental_uris":{"android":"levelo://app?vid=bae4abde-2130-4494-b798-eb88d6823efb","ios":"levelo://app?vid=bae4abde-2130-4494-b798-eb88d6823efb"},"vehicle_type_id":"4","last_reported":1728500828,"current_range_meters":27200,"station_id":"ce4bhop2rcd13ifvqh7g","pricing_plan_id":"cebpf4jnsgd1na2vs0mg"},{"bike_id":"77b3f5e8-965b-4f90-a251-15770684e21b","system_id":"levelo_inurba_marseille","lat":43.241736,"lon":5.397254,"is_reserved":false,"is_disabled":false,"rental_uris":{"android":"levelo://app?vid=77b3f5e8-965b-4f90-a251-15770684e21b","ios":"levelo://app?vid=77b3f5e8-965b-4f90-a251-15770684e21b"},"vehicle_type_id":"4","last_reported":1728500828,"current_range_meters":38800,"station_id":"ce4bhn12rcd13ifvqgpg","pricing_plan_id":"cebpf4jnsgd1na2vs0mg"},{"bike_id":"72078f29-e154-4c5b-836a-c7e362ba1f09","system_id":"levelo_inurba_marseille","lat":43.33755,"lon":5.3747,"is_reserved":false,"is_disabled":false,"rental_uris":{"android":"levelo://app?vid=72078f29-e154-4c5b-836a-c7e362ba1f09","ios":"levelo://app?vid=72078f29-e154-4c5b-836a-c7e362ba1f09"},"vehicle_type_id":"4","last_reported":1728500828,"current_range_meters":10800,"station_id":"ce4rr2p2rcd13i802rgg","pricing_plan_id":"cebpf4jnsgd1na2vs0mg"},{"bike_id":"7d7ab187-9965-49a4-bf26-b6ade39671fc","system_id":"levelo_inurba_marseille","lat":43.23196,"lon":5.35552,"is_reserved":false,"is_disabled":false,"rental_uris":{"android":"levelo://app?vid=7d7ab187-9965-49a4-bf26-b6ade39671fc","ios":"levelo://app?vid=7d7ab187-9965-49a4-bf26-b6ade39671fc"},"vehicle_type_id":"4","last_reported":1728500828,"current_range_meters":24000,"station_id":"ce4bhu92rcd13ifvqi70","pricing_plan_id":"cebpf4jnsgd1na2vs0mg"},{"bike_id":"d51f0193-0dff-4957-8877-479daabe2300","system_id":"levelo_inurba_marseille","lat":43.337444,"lon":5.374475,"is_reserved":false,"is_disabled":false,"rental_uris":{"android":"levelo://app?vid=d51f0193-0dff-4957-8877-479daabe2300","ios":"levelo://app?vid=d51f0193-0dff-4957-8877-479daabe2300"},"vehicle_type_id":"4","last_reported":1728500828,"current_range_meters":36800,"station_id":"ce4rr2p2rcd13i802rgg","pricing_plan_id":"cebpf4jnsgd1na2vs0mg"},{"bike_id":"dc80b0e4-e686-4875-9991-4f06e3429d36","system_id":"levelo_inurba_marseille","lat":43.31754,"lon":5.39014,"is_reserved":false,"is_disabled":false,"rental_uris":{"android":"levelo://app?vid=dc80b0e4-e686-4875-9991-4f06e3429d36","ios":"levelo://app?vid=dc80b0e4-e686-4875-9991-4f06e3429d36"},"vehicle_type_id":"4","last_reported":1728500828,"current_range_meters":11600,"station_id":"ce4bhqp2rcd13ifvqhng","pricing_plan_id":"cebpf4jnsgd1na2vs0mg"},{"bike_id":"296004e0-5751-4935-8069-bb51f866a7db","system_id":"levelo_inurba_marseille","lat":43.23183,"lon":5.39995,"is_reserved":false,"is_disabled":false,"rental_uris":{"android":"levelo://app?vid=296004e0-5751-4935-8069-bb51f866a7db","ios":"levelo://app?vid=296004e0-5751-4935-8069-bb51f866a7db"},"vehicle_type_id":"4","last_reported":1728500828,"current_range_meters":38800,"station_id":"ce4bhn12rcd13ifvqgqg","pricing_plan_id":"cebpf4jnsgd1na2vs0mg"},{"bike_id":"e835b2bd-4033-4a5c-8f43-77a2ca30e4a8","system_id":"levelo_inurba_marseille","lat":43.30887,"lon":5.39657,"is_reserved":false,"is_disabled":false,"rental_uris":{"android":"levelo://app?vid=e835b2bd-4033-4a5c-8f43-77a2ca30e4a8","ios":"levelo://app?vid=e835b2bd-4033-4a5c-8f43-77a2ca30e4a8"},"vehicle_type_id":"4","last_reported":1728500828,"current_range_meters":38800,"station_id":"ce4bh012rcd13ifvqcv0","pricing_plan_id":"cebpf4jnsgd1na2vs0mg"},{"bike_id":"e5079a8b-46a0-4ba7-9792-46181fa72feb","system_id":"levelo_inurba_marseille","lat":43.30881,"lon":5.39657,"is_reserved":false,"is_disabled":false,"rental_uris":{"android":"levelo://app?vid=e5079a8b-46a0-4ba7-9792-46181fa72feb","ios":"levelo://app?vid=e5079a8b-46a0-4ba7-9792-46181fa72feb"},"vehicle_type_id":"4","last_reported":1728500828,"current_range_meters":2800,"station_id":"ce4bh012rcd13ifvqcv0","pricing_plan_id":"cebpf4jnsgd1na2vs0mg"},{"bike_id":"b149bf8c-24ec-415d-b234-f0b11661de68","system_id":"levelo_inurba_marseille","lat":43.25084,"lon":5.39516,"is_reserved":false,"is_disabled":false,"rental_uris":{"android":"levelo://app?vid=b149bf8c-24ec-415d-b234-f0b11661de68","ios":"levelo://app?vid=b149bf8c-24ec-415d-b234-f0b11661de68"},"vehicle_type_id":"4","last_reported":1728500828,"current_range_meters":26000,"station_id":"ce4bhm12rcd13ifvqgkg","pricing_plan_id":"cebpf4jnsgd1na2vs0mg"},{"bike_id":"99790e49-88f4-4c42-aa7a-81f1b21ebd42","system_id":"levelo_inurba_marseille","lat":43.29187,"lon":5.358,"is_reserved":false,"is_disabled":false,"rental_uris":{"android":"levelo://app?vid=99790e49-88f4-4c42-aa7a-81f1b21ebd42","ios":"levelo://app?vid=99790e49-88f4-4c42-aa7a-81f1b21ebd42"},"vehicle_type_id":"4","last_reported":1728500828,"current_range_meters":20400,"station_id":"ce4bhb12rcd13ifvqel0","pricing_plan_id":"cebpf4jnsgd1na2vs0mg"},{"bike_id":"22b8cf4b-4f0c-4d84-adf8-ea7025058039","system_id":"levelo_inurba_marseille","lat":43.31321,"lon":5.39694,"is_reserved":false,"is_disabled":false,"rental_uris":{"android":"levelo://app?vid=22b8cf4b-4f0c-4d84-adf8-ea7025058039","ios":"levelo://app?vid=22b8cf4b-4f0c-4d84-adf8-ea7025058039"},"vehicle_type_id":"4","last_reported":1728500828,"current_range_meters":37600,"station_id":"ce4bgvp2rcd13ifvqcu0","pricing_plan_id":"cebpf4jnsgd1na2vs0mg"},{"bike_id":"508ef5b7-d43d-4b5e-94cb-8f6ff944be29","system_id":"levelo_inurba_marseille","lat":43.28942,"lon":5.3963,"is_reserved":false,"is_disabled":false,"rental_uris":{"android":"levelo://app?vid=508ef5b7-d43d-4b5e-94cb-8f6ff944be29","ios":"levelo://app?vid=508ef5b7-d43d-4b5e-94cb-8f6ff944be29"},"vehicle_type_id":"4","last_reported":1728500828,"current_range_meters":38000,"station_id":"ce4bh3h2rcd13ifvqdn0","pricing_plan_id":"cebpf4jnsgd1na2vs0mg"},{"bike_id":"1a9a3cc6-2502-4c80-8b31-7bb36d7cba31","system_id":"levelo_inurba_marseille","lat":43.22935,"lon":5.35376,"is_reserved":false,"is_disabled":false,"rental_uris":{"android":"levelo://app?vid=1a9a3cc6-2502-4c80-8b31-7bb36d7cba31","ios":"levelo://app?vid=1a9a3cc6-2502-4c80-8b31-7bb36d7cba31"},"vehicle_type_id":"4","last_reported":1728500828,"current_range_meters":38800,"station_id":"cpo3532slgdg3j2ikp40","pricing_plan_id":"cebpf4jnsgd1na2vs0mg"},{"bike_id":"0154001d-4ced-488c-88c1-7c4a8b4f216b","system_id":"levelo_inurba_marseille","lat":43.30643,"lon":5.40101,"is_reserved":false,"is_disabled":false,"rental_uris":{"android":"levelo://app?vid=0154001d-4ced-488c-88c1-7c4a8b4f216b","ios":"levelo://app?vid=0154001d-4ced-488c-88c1-7c4a8b4f216b"},"vehicle_type_id":"4","last_reported":1728500828,"current_range_meters":38400,"station_id":"ce4bh112rcd13ifvqda0","pricing_plan_id":"cebpf4jnsgd1na2vs0mg"},{"bike_id":"42a75535-f3eb-42ef-b616-b8fbfba19386","system_id":"levelo_inurba_marseille","lat":43.28105,"lon":5.37836,"is_reserved":false,"is_disabled":false,"rental_uris":{"android":"levelo://app?vid=42a75535-f3eb-42ef-b616-b8fbfba19386","ios":"levelo://app?vid=42a75535-f3eb-42ef-b616-b8fbfba19386"},"vehicle_type_id":"4","last_reported":1728500828,"current_range_meters":10000,"station_id":"ce4bha12rcd13ifvqee0","pricing_plan_id":"cebpf4jnsgd1na2vs0mg"},{"bike_id":"14cc985f-c073-46c4-bce8-9e5e4ec92403","system_id":"levelo_inurba_marseille","lat":43.32336,"lon":5.40619,"is_reserved":false,"is_disabled":false,"rental_uris":{"android":"levelo://app?vid=14cc985f-c073-46c4-bce8-9e5e4ec92403","ios":"levelo://app?vid=14cc985f-c073-46c4-bce8-9e5e4ec92403"},"vehicle_type_id":"4","last_reported":1728500828,"current_range_meters":7200,"station_id":"ce4bhq92rcd13ifvqhjg","pricing_plan_id":"cebpf4jnsgd1na2vs0mg"},{"bike_id":"b6686461-4b48-4eae-9ce8-8178b8df331b","system_id":"levelo_inurba_marseille","lat":43.24658,"lon":5.38159,"is_reserved":false,"is_disabled":false,"rental_uris":{"android":"levelo://app?vid=b6686461-4b48-4eae-9ce8-8178b8df331b","ios":"levelo://app?vid=b6686461-4b48-4eae-9ce8-8178b8df331b"},"vehicle_type_id":"4","last_reported":1728500828,"current_range_meters":38800,"station_id":"ce4bhih2rcd13ifvqfr0","pricing_plan_id":"cebpf4jnsgd1na2vs0mg"},{"bike_id":"de4d6f18-d2ce-4055-8743-6e0a870efe4e","system_id":"levelo_inurba_marseille","lat":43.25723,"lon":5.41108,"is_reserved":false,"is_disabled":false,"rental_uris":{"android":"levelo://app?vid=de4d6f18-d2ce-4055-8743-6e0a870efe4e","ios":"levelo://app?vid=de4d6f18-d2ce-4055-8743-6e0a870efe4e"},"vehicle_type_id":"4","last_reported":1728500828,"current_range_meters":22400,"station_id":"ce4bhkp2rcd13ifvqgd0","pricing_plan_id":"cebpf4jnsgd1na2vs0mg"},{"bike_id":"63b9cce1-f3d8-4655-b818-f5ae36bee504","system_id":"levelo_inurba_marseille","lat":43.28662,"lon":5.36356,"is_reserved":false,"is_disabled":false,"rental_uris":{"android":"levelo://app?vid=63b9cce1-f3d8-4655-b818-f5ae36bee504","ios":"levelo://app?vid=63b9cce1-f3d8-4655-b818-f5ae36bee504"},"vehicle_type_id":"4","last_reported":1728500828,"current_range_meters":25600,"station_id":"ce4bhah2rcd13ifvqej0","pricing_plan_id":"cebpf4jnsgd1na2vs0mg"},{"bike_id":"7633fa07-52ae-40cc-b613-b168b8525a9f","system_id":"levelo_inurba_marseille","lat":43.30932,"lon":5.40146,"is_reserved":false,"is_disabled":false,"rental_uris":{"android":"levelo://app?vid=7633fa07-52ae-40cc-b613-b168b8525a9f","ios":"levelo://app?vid=7633fa07-52ae-40cc-b613-b168b8525a9f"},"vehicle_type_id":"4","last_reported":1728500828,"current_range_meters":9200,"station_id":"ce4bgvp2rcd13ifvqct0","pricing_plan_id":"cebpf4jnsgd1na2vs0mg"},{"bike_id":"dc45a7d7-2c7b-4e1c-b533-1d6d877ebbe3","system_id":"levelo_inurba_marseille","lat":43.32106,"lon":5.36781,"is_reserved":false,"is_disabled":false,"rental_uris":{"android":"levelo://app?vid=dc45a7d7-2c7b-4e1c-b533-1d6d877ebbe3","ios":"levelo://app?vid=dc45a7d7-2c7b-4e1c-b533-1d6d877ebbe3"},"vehicle_type_id":"4","last_reported":1728500828,"current_range_meters":38800,"station_id":"ce4bhrh2rcd13ifvqhug","pricing_plan_id":"cebpf4jnsgd1na2vs0mg"},{"bike_id":"97c98e27-9337-4b4a-ad7d-97e59c330dee","system_id":"levelo_inurba_marseille","lat":43.31333,"lon":5.39699,"is_reserved":false,"is_disabled":false,"rental_uris":{"android":"levelo://app?vid=97c98e27-9337-4b4a-ad7d-97e59c330dee","ios":"levelo://app?vid=97c98e27-9337-4b4a-ad7d-97e59c330dee"},"vehicle_type_id":"4","last_reported":1728500828,"current_range_meters":4400,"station_id":"ce4bgvp2rcd13ifvqcu0","pricing_plan_id":"cebpf4jnsgd1na2vs0mg"},{"bike_id":"41be5fcf-9f4b-425f-8298-427ad3b70a16","system_id":"levelo_inurba_marseille","lat":43.32546,"lon":5.41447,"is_reserved":false,"is_disabled":false,"rental_uris":{"android":"levelo://app?vid=41be5fcf-9f4b-425f-8298-427ad3b70a16","ios":"levelo://app?vid=41be5fcf-9f4b-425f-8298-427ad3b70a16"},"vehicle_type_id":"4","last_reported":1728500828,"current_range_meters":37600,"station_id":"ce4bhq12rcd13ifvqhhg","pricing_plan_id":"cebpf4jnsgd1na2vs0mg"},{"bike_id":"511e09c8-f026-4c7a-a458-b73fa9cb5dbd","system_id":"levelo_inurba_marseille","lat":43.28494,"lon":5.38555,"is_reserved":false,"is_disabled":false,"rental_uris":{"android":"levelo://app?vid=511e09c8-f026-4c7a-a458-b73fa9cb5dbd","ios":"levelo://app?vid=511e09c8-f026-4c7a-a458-b73fa9cb5dbd"},"vehicle_type_id":"4","last_reported":1728500828,"current_range_meters":4400,"station_id":"ce4bh8p2rcd13ifvqeb0","pricing_plan_id":"cebpf4jnsgd1na2vs0mg"},{"bike_id":"83d5c4a7-73f3-451a-baad-d322ba4385ff","system_id":"levelo_inurba_marseille","lat":43.28107,"lon":5.37842,"is_reserved":false,"is_disabled":false,"rental_uris":{"android":"levelo://app?vid=83d5c4a7-73f3-451a-baad-d322ba4385ff","ios":"levelo://app?vid=83d5c4a7-73f3-451a-baad-d322ba4385ff"},"vehicle_type_id":"4","last_reported":1728500828,"current_range_meters":7200,"station_id":"ce4bha12rcd13ifvqee0","pricing_plan_id":"cebpf4jnsgd1na2vs0mg"},{"bike_id":"dbad5931-f44b-436f-9b08-29065595c5ba","system_id":"levelo_inurba_marseille","lat":43.29269,"lon":5.38442,"is_reserved":false,"is_disabled":false,"rental_uris":{"android":"levelo://app?vid=dbad5931-f44b-436f-9b08-29065595c5ba","ios":"levelo://app?vid=dbad5931-f44b-436f-9b08-29065595c5ba"},"vehicle_type_id":"4","last_reported":1728500828,"current_range_meters":10800,"station_id":"ce4bh692rcd13ifvqea0","pricing_plan_id":"cebpf4jnsgd1na2vs0mg"},{"bike_id":"4be201a3-d22e-4c46-937d-99f607eacfd8","system_id":"levelo_inurba_marseille","lat":43.29576,"lon":5.36749,"is_reserved":false,"is_disabled":false,"rental_uris":{"android":"levelo://app?vid=4be201a3-d22e-4c46-937d-99f607eacfd8","ios":"levelo://app?vid=4be201a3-d22e-4c46-937d-99f607eacfd8"},"vehicle_type_id":"4","last_reported":1728500828,"current_range_meters":37600,"station_id":"ce4bgph2rcd13ifvqc2g","pricing_plan_id":"cebpf4jnsgd1na2vs0mg"},{"bike_id":"d43e2b8a-f171-4851-af23-4f9f65f01328","system_id":"levelo_inurba_marseille","lat":43.33726,"lon":5.3918,"is_reserved":false,"is_disabled":false,"rental_uris":{"android":"levelo://app?vid=d43e2b8a-f171-4851-af23-4f9f65f01328","ios":"levelo://app?vid=d43e2b8a-f171-4851-af23-4f9f65f01328"},"vehicle_type_id":"4","last_reported":1728500828,"current_range_meters":27200,"station_id":"ce4bhr92rcd13ifvqhsg","pricing_plan_id":"cebpf4jnsgd1na2vs0mg"},{"bike_id":"363203c2-65d1-4b46-852b-4c85cff6f5c6","system_id":"levelo_inurba_marseille","lat":43.30888,"lon":5.39635,"is_reserved":false,"is_disabled":false,"rental_uris":{"android":"levelo://app?vid=363203c2-65d1-4b46-852b-4c85cff6f5c6","ios":"levelo://app?vid=363203c2-65d1-4b46-852b-4c85cff6f5c6"},"vehicle_type_id":"4","last_reported":1728500828,"current_range_meters":4400,"station_id":"ce4bh012rcd13ifvqcv0","pricing_plan_id":"cebpf4jnsgd1na2vs0mg"},{"bike_id":"8513be67-a978-4cfc-9563-19285ed6fe5a","system_id":"levelo_inurba_marseille","lat":43.23196,"lon":5.35544,"is_reserved":false,"is_disabled":false,"rental_uris":{"android":"levelo://app?vid=8513be67-a978-4cfc-9563-19285ed6fe5a","ios":"levelo://app?vid=8513be67-a978-4cfc-9563-19285ed6fe5a"},"vehicle_type_id":"4","last_reported":1728500828,"current_range_meters":10800,"station_id":"ce4bhu92rcd13ifvqi70","pricing_plan_id":"cebpf4jnsgd1na2vs0mg"},{"bike_id":"1197f692-639d-4fb0-ae7f-c285068db770","system_id":"levelo_inurba_marseille","lat":43.25089,"lon":5.39524,"is_reserved":false,"is_disabled":false,"rental_uris":{"android":"levelo://app?vid=1197f692-639d-4fb0-ae7f-c285068db770","ios":"levelo://app?vid=1197f692-639d-4fb0-ae7f-c285068db770"},"vehicle_type_id":"4","last_reported":1728500828,"current_range_meters":25200,"station_id":"ce4bhm12rcd13ifvqgkg","pricing_plan_id":"cebpf4jnsgd1na2vs0mg"},{"bike_id":"922252e8-02c2-4987-8eed-1d6d69073568","system_id":"levelo_inurba_marseille","lat":43.26689,"lon":5.38276,"is_reserved":false,"is_disabled":false,"rental_uris":{"android":"levelo://app?vid=922252e8-02c2-4987-8eed-1d6d69073568","ios":"levelo://app?vid=922252e8-02c2-4987-8eed-1d6d69073568"},"vehicle_type_id":"4","last_reported":1728500828,"current_range_meters":30400,"station_id":"ce4bhg92rcd13ifvqf90","pricing_plan_id":"cebpf4jnsgd1na2vs0mg"},{"bike_id":"c283bee0-b392-40e1-b183-58fab03c3b3d","system_id":"levelo_inurba_marseille","lat":43.284207,"lon":5.349943,"is_reserved":false,"is_disabled":false,"rental_uris":{"android":"levelo://app?vid=c283bee0-b392-40e1-b183-58fab03c3b3d","ios":"levelo://app?vid=c283bee0-b392-40e1-b183-58fab03c3b3d"},"vehicle_type_id":"4","last_reported":1728500828,"current_range_meters":18800,"station_id":"ce4bhbh2rcd13ifvqepg","pricing_plan_id":"cebpf4jnsgd1na2vs0mg"},{"bike_id":"372be48e-0fb3-4336-915a-4d35d755f146","system_id":"levelo_inurba_marseille","lat":43.23177,"lon":5.39995,"is_reserved":false,"is_disabled":false,"rental_uris":{"android":"levelo://app?vid=372be48e-0fb3-4336-915a-4d35d755f146","ios":"levelo://app?vid=372be48e-0fb3-4336-915a-4d35d755f146"},"vehicle_type_id":"4","last_reported":1728500828,"current_range_meters":38800,"station_id":"ce4bhn12rcd13ifvqgqg","pricing_plan_id":"cebpf4jnsgd1na2vs0mg"},{"bike_id":"424ae5e4-2b9d-4ae9-9b45-f666499b549a","system_id":"levelo_inurba_marseille","lat":43.31533,"lon":5.38028,"is_reserved":false,"is_disabled":false,"rental_uris":{"android":"levelo://app?vid=424ae5e4-2b9d-4ae9-9b45-f666499b549a","ios":"levelo://app?vid=424ae5e4-2b9d-4ae9-9b45-f666499b549a"},"vehicle_type_id":"4","last_reported":1728500828,"current_range_meters":17200,"station_id":"ce4bhsp2rcd13ifvqi50","pricing_plan_id":"cebpf4jnsgd1na2vs0mg"},{"bike_id":"0a1adf47-9c44-4e77-b90b-e425aefb27d3","system_id":"levelo_inurba_marseille","lat":43.27183,"lon":5.40979,"is_reserved":false,"is_disabled":false,"rental_uris":{"android":"levelo://app?vid=0a1adf47-9c44-4e77-b90b-e425aefb27d3","ios":"levelo://app?vid=0a1adf47-9c44-4e77-b90b-e425aefb27d3"},"vehicle_type_id":"4","last_reported":1728500828,"current_range_meters":29600,"station_id":"ce4bhl12rcd13ifvqgf0","pricing_plan_id":"cebpf4jnsgd1na2vs0mg"},{"bike_id":"a5b5dbe6-6ba4-44e7-999c-04f279c1c426","system_id":"levelo_inurba_marseille","lat":43.311627,"lon":5.369225,"is_reserved":false,"is_disabled":false,"rental_uris":{"android":"levelo://app?vid=a5b5dbe6-6ba4-44e7-999c-04f279c1c426","ios":"levelo://app?vid=a5b5dbe6-6ba4-44e7-999c-04f279c1c426"},"vehicle_type_id":"4","last_reported":1728500828,"current_range_meters":36000,"station_id":"ce4bgl92rcd13ifvqbq0","pricing_plan_id":"cebpf4jnsgd1na2vs0mg"},{"bike_id":"d38dd870-fb35-4ebe-8242-7b8d175eed8b","system_id":"levelo_inurba_marseille","lat":43.32335,"lon":5.4062,"is_reserved":false,"is_disabled":false,"rental_uris":{"android":"levelo://app?vid=d38dd870-fb35-4ebe-8242-7b8d175eed8b","ios":"levelo://app?vid=d38dd870-fb35-4ebe-8242-7b8d175eed8b"},"vehicle_type_id":"4","last_reported":1728500828,"current_range_meters":10000,"station_id":"ce4bhq92rcd13ifvqhjg","pricing_plan_id":"cebpf4jnsgd1na2vs0mg"},{"bike_id":"7f6563f6-c0ed-4fd0-90b2-0009fe4e5c55","system_id":"levelo_inurba_marseille","lat":43.31186,"lon":5.38712,"is_reserved":false,"is_disabled":false,"rental_uris":{"android":"levelo://app?vid=7f6563f6-c0ed-4fd0-90b2-0009fe4e5c55","ios":"levelo://app?vid=7f6563f6-c0ed-4fd0-90b2-0009fe4e5c55"},"vehicle_type_id":"4","last_reported":1728500828,"current_range_meters":28000,"station_id":"ce4bgv12rcd13ifvqcp0","pricing_plan_id":"cebpf4jnsgd1na2vs0mg"},{"bike_id":"9ee9d61f-797f-4a69-9e94-444125c89fdd","system_id":"levelo_inurba_marseille","lat":43.26806,"lon":5.40271,"is_reserved":false,"is_disabled":false,"rental_uris":{"android":"levelo://app?vid=9ee9d61f-797f-4a69-9e94-444125c89fdd","ios":"levelo://app?vid=9ee9d61f-797f-4a69-9e94-444125c89fdd"},"vehicle_type_id":"4","last_reported":1728500828,"current_range_meters":38800,"station_id":"ce501612rcd8frsf0b60","pricing_plan_id":"cebpf4jnsgd1na2vs0mg"},{"bike_id":"9ff1b15d-5d5e-4f9d-b2b6-1361edd927f7","system_id":"levelo_inurba_marseille","lat":43.29025,"lon":5.38645,"is_reserved":false,"is_disabled":false,"rental_uris":{"android":"levelo://app?vid=9ff1b15d-5d5e-4f9d-b2b6-1361edd927f7","ios":"levelo://app?vid=9ff1b15d-5d5e-4f9d-b2b6-1361edd927f7"},"vehicle_type_id":"4","last_reported":1728500828,"current_range_meters":36400,"station_id":"ce4bh4p2rcd13ifvqe0g","pricing_plan_id":"cebpf4jnsgd1na2vs0mg"},{"bike_id":"2e6dd5ab-c6a8-48df-9249-f7938733b8d1","system_id":"levelo_inurba_marseille","lat":43.23967,"lon":5.36628,"is_reserved":false,"is_disabled":false,"rental_uris":{"android":"levelo://app?vid=2e6dd5ab-c6a8-48df-9249-f7938733b8d1","ios":"levelo://app?vid=2e6dd5ab-c6a8-48df-9249-f7938733b8d1"},"vehicle_type_id":"4","last_reported":1728500828,"current_range_meters":22400,"station_id":"ce4bhi12rcd13ifvqfp0","pricing_plan_id":"cebpf4jnsgd1na2vs0mg"},{"bike_id":"7e912cba-052f-47e7-bfc0-b47e5b060ca8","system_id":"levelo_inurba_marseille","lat":43.2955,"lon":5.42299,"is_reserved":false,"is_disabled":false,"rental_uris":{"android":"levelo://app?vid=7e912cba-052f-47e7-bfc0-b47e5b060ca8","ios":"levelo://app?vid=7e912cba-052f-47e7-bfc0-b47e5b060ca8"},"vehicle_type_id":"4","last_reported":1728500828,"current_range_meters":28800,"station_id":"ce4bhph2rcd13ifvqhdg","pricing_plan_id":"cebpf4jnsgd1na2vs0mg"},{"bike_id":"2df730a7-89e5-413d-9bed-72b64744a6f2","system_id":"levelo_inurba_marseille","lat":43.22931,"lon":5.35378,"is_reserved":false,"is_disabled":false,"rental_uris":{"android":"levelo://app?vid=2df730a7-89e5-413d-9bed-72b64744a6f2","ios":"levelo://app?vid=2df730a7-89e5-413d-9bed-72b64744a6f2"},"vehicle_type_id":"4","last_reported":1728500828,"current_range_meters":38800,"station_id":"cpo3532slgdg3j2ikp40","pricing_plan_id":"cebpf4jnsgd1na2vs0mg"},{"bike_id":"74dea6e5-f1b2-476b-95da-8353d0ac07f5","system_id":"levelo_inurba_marseille","lat":43.22924,"lon":5.35384,"is_reserved":false,"is_disabled":false,"rental_uris":{"android":"levelo://app?vid=74dea6e5-f1b2-476b-95da-8353d0ac07f5","ios":"levelo://app?vid=74dea6e5-f1b2-476b-95da-8353d0ac07f5"},"vehicle_type_id":"4","last_reported":1728500828,"current_range_meters":38800,"station_id":"cpo3532slgdg3j2ikp40","pricing_plan_id":"cebpf4jnsgd1na2vs0mg"},{"bike_id":"9afca664-5486-473b-9d95-029cf8a49e20","system_id":"levelo_inurba_marseille","lat":43.30333,"lon":5.40431,"is_reserved":false,"is_disabled":false,"rental_uris":{"android":"levelo://app?vid=9afca664-5486-473b-9d95-029cf8a49e20","ios":"levelo://app?vid=9afca664-5486-473b-9d95-029cf8a49e20"},"vehicle_type_id":"4","last_reported":1728500828,"current_range_meters":22800,"station_id":"ce4bh012rcd13ifvqd10","pricing_plan_id":"cebpf4jnsgd1na2vs0mg"},{"bike_id":"a1fe1816-1e76-4cbd-926b-4f1fb96fff8f","system_id":"levelo_inurba_marseille","lat":43.292694,"lon":5.401159,"is_reserved":false,"is_disabled":false,"rental_uris":{"android":"levelo://app?vid=a1fe1816-1e76-4cbd-926b-4f1fb96fff8f","ios":"levelo://app?vid=a1fe1816-1e76-4cbd-926b-4f1fb96fff8f"},"vehicle_type_id":"4","last_reported":1728500828,"current_range_meters":3200,"station_id":"ce4bh312rcd13ifvqdk0","pricing_plan_id":"cebpf4jnsgd1na2vs0mg"},{"bike_id":"29cb1526-8d04-42cd-afd9-4af7c5cbfad4","system_id":"levelo_inurba_marseille","lat":43.23197,"lon":5.35551,"is_reserved":false,"is_disabled":false,"rental_uris":{"android":"levelo://app?vid=29cb1526-8d04-42cd-afd9-4af7c5cbfad4","ios":"levelo://app?vid=29cb1526-8d04-42cd-afd9-4af7c5cbfad4"},"vehicle_type_id":"4","last_reported":1728500828,"current_range_meters":38800,"station_id":"ce4bhu92rcd13ifvqi70","pricing_plan_id":"cebpf4jnsgd1na2vs0mg"},{"bike_id":"6615b9f9-0bf8-425b-9223-e9cc9a5a3afc","system_id":"levelo_inurba_marseille","lat":43.27946,"lon":5.41053,"is_reserved":false,"is_disabled":false,"rental_uris":{"android":"levelo://app?vid=6615b9f9-0bf8-425b-9223-e9cc9a5a3afc","ios":"levelo://app?vid=6615b9f9-0bf8-425b-9223-e9cc9a5a3afc"},"vehicle_type_id":"4","last_reported":1728500828,"current_range_meters":38800,"station_id":"ce4bhnp2rcd13ifvqh0g","pricing_plan_id":"cebpf4jnsgd1na2vs0mg"},{"bike_id":"62930a7f-74ee-49d2-82a3-62a466b84fb0","system_id":"levelo_inurba_marseille","lat":43.31626,"lon":5.39444,"is_reserved":false,"is_disabled":false,"rental_uris":{"android":"levelo://app?vid=62930a7f-74ee-49d2-82a3-62a466b84fb0","ios":"levelo://app?vid=62930a7f-74ee-49d2-82a3-62a466b84fb0"},"vehicle_type_id":"4","last_reported":1728500828,"current_range_meters":8400,"station_id":"","pricing_plan_id":"cebpf4jnsgd1na2vs0mg"},{"bike_id":"89dde934-29c8-4601-8b5e-5b4521d6cd98","system_id":"levelo_inurba_marseille","lat":43.29256,"lon":5.38446,"is_reserved":false,"is_disabled":false,"rental_uris":{"android":"levelo://app?vid=89dde934-29c8-4601-8b5e-5b4521d6cd98","ios":"levelo://app?vid=89dde934-29c8-4601-8b5e-5b4521d6cd98"},"vehicle_type_id":"4","last_reported":1728500828,"current_range_meters":4000,"station_id":"ce4bh692rcd13ifvqea0","pricing_plan_id":"cebpf4jnsgd1na2vs0mg"},{"bike_id":"0bfa0ee7-df55-48c5-ba71-da82bc4adcc5","system_id":"levelo_inurba_marseille","lat":43.27606,"lon":5.36119,"is_reserved":false,"is_disabled":false,"rental_uris":{"android":"levelo://app?vid=0bfa0ee7-df55-48c5-ba71-da82bc4adcc5","ios":"levelo://app?vid=0bfa0ee7-df55-48c5-ba71-da82bc4adcc5"},"vehicle_type_id":"4","last_reported":1728500828,"current_range_meters":38800,"station_id":"ce4bgj92rcd13ifvqbe0","pricing_plan_id":"cebpf4jnsgd1na2vs0mg"},{"bike_id":"570573fe-b7fc-4372-a75b-b111a618dd16","system_id":"levelo_inurba_marseille","lat":43.31878,"lon":5.40734,"is_reserved":false,"is_disabled":false,"rental_uris":{"android":"levelo://app?vid=570573fe-b7fc-4372-a75b-b111a618dd16","ios":"levelo://app?vid=570573fe-b7fc-4372-a75b-b111a618dd16"},"vehicle_type_id":"4","last_reported":1728500828,"current_range_meters":22400,"station_id":"ce4bhq12rcd13ifvqhig","pricing_plan_id":"cebpf4jnsgd1na2vs0mg"},{"bike_id":"a18662f8-7c5d-40ed-a87d-88d8a14f8320","system_id":"levelo_inurba_marseille","lat":43.31752,"lon":5.39026,"is_reserved":false,"is_disabled":false,"rental_uris":{"android":"levelo://app?vid=a18662f8-7c5d-40ed-a87d-88d8a14f8320","ios":"levelo://app?vid=a18662f8-7c5d-40ed-a87d-88d8a14f8320"},"vehicle_type_id":"4","last_reported":1728500828,"current_range_meters":26800,"station_id":"ce4bhqp2rcd13ifvqhng","pricing_plan_id":"cebpf4jnsgd1na2vs0mg"},{"bike_id":"bc7cf7bb-fc37-4f2b-9000-b5239f8ea3d3","system_id":"levelo_inurba_marseille","lat":43.27935,"lon":5.41056,"is_reserved":false,"is_disabled":false,"rental_uris":{"android":"levelo://app?vid=bc7cf7bb-fc37-4f2b-9000-b5239f8ea3d3","ios":"levelo://app?vid=bc7cf7bb-fc37-4f2b-9000-b5239f8ea3d3"},"vehicle_type_id":"4","last_reported":1728500828,"current_range_meters":38800,"station_id":"ce4bhnp2rcd13ifvqh0g","pricing_plan_id":"cebpf4jnsgd1na2vs0mg"},{"bike_id":"6faf64d5-24a2-4d4f-91ef-d49ddadb9462","system_id":"levelo_inurba_marseille","lat":43.27811,"lon":5.40715,"is_reserved":false,"is_disabled":false,"rental_uris":{"android":"levelo://app?vid=6faf64d5-24a2-4d4f-91ef-d49ddadb9462","ios":"levelo://app?vid=6faf64d5-24a2-4d4f-91ef-d49ddadb9462"},"vehicle_type_id":"4","last_reported":1728500828,"current_range_meters":38800,"station_id":"ce4bhnh2rcd13ifvqgtg","pricing_plan_id":"cebpf4jnsgd1na2vs0mg"},{"bike_id":"ac73cf39-5e0d-41c0-9b62-3d3a6730aa43","system_id":"levelo_inurba_marseille","lat":43.24071,"lon":5.37761,"is_reserved":false,"is_disabled":false,"rental_uris":{"android":"levelo://app?vid=ac73cf39-5e0d-41c0-9b62-3d3a6730aa43","ios":"levelo://app?vid=ac73cf39-5e0d-41c0-9b62-3d3a6730aa43"},"vehicle_type_id":"4","last_reported":1728500828,"current_range_meters":27200,"station_id":"ce4bhnp2rcd13ifvqgvg","pricing_plan_id":"cebpf4jnsgd1na2vs0mg"},{"bike_id":"3c53e08e-ee91-459e-a796-8e1cef11ecde","system_id":"levelo_inurba_marseille","lat":43.27937,"lon":5.41052,"is_reserved":false,"is_disabled":false,"rental_uris":{"android":"levelo://app?vid=3c53e08e-ee91-459e-a796-8e1cef11ecde","ios":"levelo://app?vid=3c53e08e-ee91-459e-a796-8e1cef11ecde"},"vehicle_type_id":"4","last_reported":1728500828,"current_range_meters":38800,"station_id":"ce4bhnp2rcd13ifvqh0g","pricing_plan_id":"cebpf4jnsgd1na2vs0mg"},{"bike_id":"6680e8f2-453b-4747-b4b8-b5e7f1440a05","system_id":"levelo_inurba_marseille","lat":43.28107,"lon":5.37834,"is_reserved":false,"is_disabled":false,"rental_uris":{"android":"levelo://app?vid=6680e8f2-453b-4747-b4b8-b5e7f1440a05","ios":"levelo://app?vid=6680e8f2-453b-4747-b4b8-b5e7f1440a05"},"vehicle_type_id":"4","last_reported":1728500828,"current_range_meters":12000,"station_id":"ce4bha12rcd13ifvqee0","pricing_plan_id":"cebpf4jnsgd1na2vs0mg"},{"bike_id":"d8d9e195-0b53-46b7-a4e3-f2b2c532f4ae","system_id":"levelo_inurba_marseille","lat":43.23197,"lon":5.35549,"is_reserved":false,"is_disabled":false,"rental_uris":{"android":"levelo://app?vid=d8d9e195-0b53-46b7-a4e3-f2b2c532f4ae","ios":"levelo://app?vid=d8d9e195-0b53-46b7-a4e3-f2b2c532f4ae"},"vehicle_type_id":"4","last_reported":1728500828,"current_range_meters":38000,"station_id":"ce4bhu92rcd13ifvqi70","pricing_plan_id":"cebpf4jnsgd1na2vs0mg"},{"bike_id":"b9e403da-1874-4607-965e-c659ff3e389d","system_id":"levelo_inurba_marseille","lat":43.290384,"lon":5.375514,"is_reserved":false,"is_disabled":false,"rental_uris":{"android":"levelo://app?vid=b9e403da-1874-4607-965e-c659ff3e389d","ios":"levelo://app?vid=b9e403da-1874-4607-965e-c659ff3e389d"},"vehicle_type_id":"4","last_reported":1728500828,"current_range_meters":38800,"station_id":"ce4bhb12rcd13ifvqem0","pricing_plan_id":"cebpf4jnsgd1na2vs0mg"},{"bike_id":"112c080e-cdc3-4a62-badf-e2866470b99b","system_id":"levelo_inurba_marseille","lat":43.297,"lon":5.36623,"is_reserved":false,"is_disabled":false,"rental_uris":{"android":"levelo://app?vid=112c080e-cdc3-4a62-badf-e2866470b99b","ios":"levelo://app?vid=112c080e-cdc3-4a62-badf-e2866470b99b"},"vehicle_type_id":"4","last_reported":1728500828,"current_range_meters":27600,"station_id":"ce4bgn12rcd13ifvqbt0","pricing_plan_id":"cebpf4jnsgd1na2vs0mg"},{"bike_id":"3c150316-e8ba-4f0d-9319-e8d2bd0bc57b","system_id":"levelo_inurba_marseille","lat":43.23178,"lon":5.39994,"is_reserved":false,"is_disabled":false,"rental_uris":{"android":"levelo://app?vid=3c150316-e8ba-4f0d-9319-e8d2bd0bc57b","ios":"levelo://app?vid=3c150316-e8ba-4f0d-9319-e8d2bd0bc57b"},"vehicle_type_id":"4","last_reported":1728500828,"current_range_meters":38800,"station_id":"ce4bhn12rcd13ifvqgqg","pricing_plan_id":"cebpf4jnsgd1na2vs0mg"},{"bike_id":"01684108-e829-45c4-ad5e-bf50340a2174","system_id":"levelo_inurba_marseille","lat":43.31122,"lon":5.37755,"is_reserved":false,"is_disabled":false,"rental_uris":{"android":"levelo://app?vid=01684108-e829-45c4-ad5e-bf50340a2174","ios":"levelo://app?vid=01684108-e829-45c4-ad5e-bf50340a2174"},"vehicle_type_id":"4","last_reported":1728500828,"current_range_meters":38800,"station_id":"ce4bgt92rcd13ifvqcg0","pricing_plan_id":"cebpf4jnsgd1na2vs0mg"},{"bike_id":"c7b7f6b1-bdaa-4673-a80a-bed4b8c7f786","system_id":"levelo_inurba_marseille","lat":43.33017,"lon":5.39043,"is_reserved":false,"is_disabled":false,"rental_uris":{"android":"levelo://app?vid=c7b7f6b1-bdaa-4673-a80a-bed4b8c7f786","ios":"levelo://app?vid=c7b7f6b1-bdaa-4673-a80a-bed4b8c7f786"},"vehicle_type_id":"4","last_reported":1728500828,"current_range_meters":28000,"station_id":"ce4bhr92rcd13ifvqhrg","pricing_plan_id":"cebpf4jnsgd1na2vs0mg"},{"bike_id":"f3535bf1-0333-46d7-a760-97c09e07a0d7","system_id":"levelo_inurba_marseille","lat":43.25107,"lon":5.40328,"is_reserved":false,"is_disabled":false,"rental_uris":{"android":"levelo://app?vid=f3535bf1-0333-46d7-a760-97c09e07a0d7","ios":"levelo://app?vid=f3535bf1-0333-46d7-a760-97c09e07a0d7"},"vehicle_type_id":"4","last_reported":1728500828,"current_range_meters":39200,"station_id":"ce4bhlh2rcd13ifvqgig","pricing_plan_id":"cebpf4jnsgd1na2vs0mg"},{"bike_id":"31b1e9e2-7f67-4e05-9582-bdbbea85d9bb","system_id":"levelo_inurba_marseille","lat":43.27997,"lon":5.41658,"is_reserved":false,"is_disabled":false,"rental_uris":{"android":"levelo://app?vid=31b1e9e2-7f67-4e05-9582-bdbbea85d9bb","ios":"levelo://app?vid=31b1e9e2-7f67-4e05-9582-bdbbea85d9bb"},"vehicle_type_id":"4","last_reported":1728500828,"current_range_meters":38800,"station_id":"ce4bho12rcd13ifvqh1g","pricing_plan_id":"cebpf4jnsgd1na2vs0mg"},{"bike_id":"f265da9f-cf51-4bb3-82d8-0cc81eb42466","system_id":"levelo_inurba_marseille","lat":43.288264,"lon":5.392161,"is_reserved":false,"is_disabled":false,"rental_uris":{"android":"levelo://app?vid=f265da9f-cf51-4bb3-82d8-0cc81eb42466","ios":"levelo://app?vid=f265da9f-cf51-4bb3-82d8-0cc81eb42466"},"vehicle_type_id":"4","last_reported":1728500828,"current_range_meters":38800,"station_id":"ce4bh2p2rcd13ifvqdi0","pricing_plan_id":"cebpf4jnsgd1na2vs0mg"},{"bike_id":"f93d459d-5862-4f2c-b364-47a36d9a58b3","system_id":"levelo_inurba_marseille","lat":43.28935,"lon":5.36634,"is_reserved":false,"is_disabled":false,"rental_uris":{"android":"levelo://app?vid=f93d459d-5862-4f2c-b364-47a36d9a58b3","ios":"levelo://app?vid=f93d459d-5862-4f2c-b364-47a36d9a58b3"},"vehicle_type_id":"4","last_reported":1728500828,"current_range_meters":17200,"station_id":"ce4bhap2rcd13ifvqek0","pricing_plan_id":"cebpf4jnsgd1na2vs0mg"},{"bike_id":"25afecff-8faf-4ca5-beb4-ce74280dcb13","system_id":"levelo_inurba_marseille","lat":43.23194,"lon":5.35551,"is_reserved":false,"is_disabled":false,"rental_uris":{"android":"levelo://app?vid=25afecff-8faf-4ca5-beb4-ce74280dcb13","ios":"levelo://app?vid=25afecff-8faf-4ca5-beb4-ce74280dcb13"},"vehicle_type_id":"4","last_reported":1728500828,"current_range_meters":38800,"station_id":"ce4bhu92rcd13ifvqi70","pricing_plan_id":"cebpf4jnsgd1na2vs0mg"},{"bike_id":"bc5da530-264e-4907-ad43-308cc5fa4656","system_id":"levelo_inurba_marseille","lat":43.33023,"lon":5.39036,"is_reserved":false,"is_disabled":false,"rental_uris":{"android":"levelo://app?vid=bc5da530-264e-4907-ad43-308cc5fa4656","ios":"levelo://app?vid=bc5da530-264e-4907-ad43-308cc5fa4656"},"vehicle_type_id":"4","last_reported":1728500828,"current_range_meters":28400,"station_id":"ce4bhr92rcd13ifvqhrg","pricing_plan_id":"cebpf4jnsgd1na2vs0mg"},{"bike_id":"2e6a2f3f-7a32-4455-a08d-86fd375b4264","system_id":"levelo_inurba_marseille","lat":43.27972,"lon":5.38744,"is_reserved":false,"is_disabled":false,"rental_uris":{"android":"levelo://app?vid=2e6a2f3f-7a32-4455-a08d-86fd375b4264","ios":"levelo://app?vid=2e6a2f3f-7a32-4455-a08d-86fd375b4264"},"vehicle_type_id":"4","last_reported":1728500828,"current_range_meters":38400,"station_id":"ce4bhg12rcd13ifvqf80","pricing_plan_id":"cebpf4jnsgd1na2vs0mg"},{"bike_id":"7219fee0-219f-4cfa-8633-b620db7597ae","system_id":"levelo_inurba_marseille","lat":43.29832,"lon":5.37107,"is_reserved":false,"is_disabled":false,"rental_uris":{"android":"levelo://app?vid=7219fee0-219f-4cfa-8633-b620db7597ae","ios":"levelo://app?vid=7219fee0-219f-4cfa-8633-b620db7597ae"},"vehicle_type_id":"4","last_reported":1728500828,"current_range_meters":8000,"station_id":"","pricing_plan_id":"cebpf4jnsgd1na2vs0mg"},{"bike_id":"d8e14a8a-1d6e-44b2-a9af-b6af85cc102a","system_id":"levelo_inurba_marseille","lat":43.29045,"lon":5.35909,"is_reserved":false,"is_disabled":false,"rental_uris":{"android":"levelo://app?vid=d8e14a8a-1d6e-44b2-a9af-b6af85cc102a","ios":"levelo://app?vid=d8e14a8a-1d6e-44b2-a9af-b6af85cc102a"},"vehicle_type_id":"4","last_reported":1728500828,"current_range_meters":8400,"station_id":"ce4bha92rcd13ifvqeg0","pricing_plan_id":"cebpf4jnsgd1na2vs0mg"},{"bike_id":"8662a7e2-7f23-48c9-9384-db4935f02178","system_id":"levelo_inurba_marseille","lat":43.29044,"lon":5.3756,"is_reserved":false,"is_disabled":false,"rental_uris":{"android":"levelo://app?vid=8662a7e2-7f23-48c9-9384-db4935f02178","ios":"levelo://app?vid=8662a7e2-7f23-48c9-9384-db4935f02178"},"vehicle_type_id":"4","last_reported":1728500828,"current_range_meters":36000,"station_id":"ce4bh692rcd13ifvqe90","pricing_plan_id":"cebpf4jnsgd1na2vs0mg"},{"bike_id":"164d759c-141a-449a-94ce-4af95c8d88c5","system_id":"levelo_inurba_marseille","lat":43.30881,"lon":5.39657,"is_reserved":false,"is_disabled":false,"rental_uris":{"android":"levelo://app?vid=164d759c-141a-449a-94ce-4af95c8d88c5","ios":"levelo://app?vid=164d759c-141a-449a-94ce-4af95c8d88c5"},"vehicle_type_id":"4","last_reported":1728500828,"current_range_meters":5600,"station_id":"ce4bh012rcd13ifvqcv0","pricing_plan_id":"cebpf4jnsgd1na2vs0mg"},{"bike_id":"c74d9bd0-5c1b-48c7-9ad7-a318cfe9f07b","system_id":"levelo_inurba_marseille","lat":43.31271,"lon":5.40178,"is_reserved":false,"is_disabled":false,"rental_uris":{"android":"levelo://app?vid=c74d9bd0-5c1b-48c7-9ad7-a318cfe9f07b","ios":"levelo://app?vid=c74d9bd0-5c1b-48c7-9ad7-a318cfe9f07b"},"vehicle_type_id":"4","last_reported":1728500828,"current_range_meters":9600,"station_id":"ce4bh092rcd13ifvqd30","pricing_plan_id":"cebpf4jnsgd1na2vs0mg"},{"bike_id":"2a032523-c958-4a4f-89c7-1eb876c0a20b","system_id":"levelo_inurba_marseille","lat":43.31526,"lon":5.38036,"is_reserved":false,"is_disabled":false,"rental_uris":{"android":"levelo://app?vid=2a032523-c958-4a4f-89c7-1eb876c0a20b","ios":"levelo://app?vid=2a032523-c958-4a4f-89c7-1eb876c0a20b"},"vehicle_type_id":"4","last_reported":1728500828,"current_range_meters":6000,"station_id":"ce4bhsp2rcd13ifvqi50","pricing_plan_id":"cebpf4jnsgd1na2vs0mg"},{"bike_id":"6933cd24-ae0c-4e91-9824-8dbde8ae147d","system_id":"levelo_inurba_marseille","lat":43.29033,"lon":5.38648,"is_reserved":false,"is_disabled":false,"rental_uris":{"android":"levelo://app?vid=6933cd24-ae0c-4e91-9824-8dbde8ae147d","ios":"levelo://app?vid=6933cd24-ae0c-4e91-9824-8dbde8ae147d"},"vehicle_type_id":"4","last_reported":1728500828,"current_range_meters":12000,"station_id":"ce4bh4p2rcd13ifvqe0g","pricing_plan_id":"cebpf4jnsgd1na2vs0mg"},{"bike_id":"aa67b874-d007-4f24-9489-cc7b647645f3","system_id":"levelo_inurba_marseille","lat":43.26805,"lon":5.40258,"is_reserved":false,"is_disabled":false,"rental_uris":{"android":"levelo://app?vid=aa67b874-d007-4f24-9489-cc7b647645f3","ios":"levelo://app?vid=aa67b874-d007-4f24-9489-cc7b647645f3"},"vehicle_type_id":"4","last_reported":1728500828,"current_range_meters":39200,"station_id":"ce501612rcd8frsf0b60","pricing_plan_id":"cebpf4jnsgd1na2vs0mg"},{"bike_id":"d7229c41-b335-405f-aec7-70b38b01cf1a","system_id":"levelo_inurba_marseille","lat":43.24995,"lon":5.38938,"is_reserved":false,"is_disabled":false,"rental_uris":{"android":"levelo://app?vid=d7229c41-b335-405f-aec7-70b38b01cf1a","ios":"levelo://app?vid=d7229c41-b335-405f-aec7-70b38b01cf1a"},"vehicle_type_id":"4","last_reported":1728500828,"current_range_meters":38800,"station_id":"ce4bhgp2rcd13ifvqfd0","pricing_plan_id":"cebpf4jnsgd1na2vs0mg"},{"bike_id":"c8b6526c-2966-48bd-9ea9-f66649525bf1","system_id":"levelo_inurba_marseille","lat":43.31717,"lon":5.43711,"is_reserved":false,"is_disabled":false,"rental_uris":{"android":"levelo://app?vid=c8b6526c-2966-48bd-9ea9-f66649525bf1","ios":"levelo://app?vid=c8b6526c-2966-48bd-9ea9-f66649525bf1"},"vehicle_type_id":"4","last_reported":1728500828,"current_range_meters":26000,"station_id":"ce4bhp92rcd13ifvqhcg","pricing_plan_id":"cebpf4jnsgd1na2vs0mg"},{"bike_id":"dca7c60b-d25d-4583-83b1-af4390c055f4","system_id":"levelo_inurba_marseille","lat":43.23189,"lon":5.35558,"is_reserved":false,"is_disabled":false,"rental_uris":{"android":"levelo://app?vid=dca7c60b-d25d-4583-83b1-af4390c055f4","ios":"levelo://app?vid=dca7c60b-d25d-4583-83b1-af4390c055f4"},"vehicle_type_id":"4","last_reported":1728500828,"current_range_meters":6800,"station_id":"ce4bhu92rcd13ifvqi70","pricing_plan_id":"cebpf4jnsgd1na2vs0mg"},{"bike_id":"16f2d712-357d-4528-9456-b34e13b5e951","system_id":"levelo_inurba_marseille","lat":43.32338,"lon":5.40622,"is_reserved":false,"is_disabled":false,"rental_uris":{"android":"levelo://app?vid=16f2d712-357d-4528-9456-b34e13b5e951","ios":"levelo://app?vid=16f2d712-357d-4528-9456-b34e13b5e951"},"vehicle_type_id":"4","last_reported":1728500828,"current_range_meters":8400,"station_id":"ce4bhq92rcd13ifvqhjg","pricing_plan_id":"cebpf4jnsgd1na2vs0mg"},{"bike_id":"d98abc05-22b9-4fd1-ab63-6d0caad7ccf5","system_id":"levelo_inurba_marseille","lat":43.3171,"lon":5.37754,"is_reserved":false,"is_disabled":false,"rental_uris":{"android":"levelo://app?vid=d98abc05-22b9-4fd1-ab63-6d0caad7ccf5","ios":"levelo://app?vid=d98abc05-22b9-4fd1-ab63-6d0caad7ccf5"},"vehicle_type_id":"4","last_reported":1728500828,"current_range_meters":28000,"station_id":"ce4bgth2rcd13ifvqch0","pricing_plan_id":"cebpf4jnsgd1na2vs0mg"},{"bike_id":"dcc7763e-de21-426a-9df5-961738fb2588","system_id":"levelo_inurba_marseille","lat":43.28867,"lon":5.3934,"is_reserved":false,"is_disabled":false,"rental_uris":{"android":"levelo://app?vid=dcc7763e-de21-426a-9df5-961738fb2588","ios":"levelo://app?vid=dcc7763e-de21-426a-9df5-961738fb2588"},"vehicle_type_id":"4","last_reported":1728500828,"current_range_meters":11200,"station_id":"ce4bh2p2rcd13ifvqdi0","pricing_plan_id":"cebpf4jnsgd1na2vs0mg"},{"bike_id":"b44bddb9-8341-4408-bb5c-2330f2f7cce2","system_id":"levelo_inurba_marseille","lat":43.26055,"lon":5.39395,"is_reserved":false,"is_disabled":false,"rental_uris":{"android":"levelo://app?vid=b44bddb9-8341-4408-bb5c-2330f2f7cce2","ios":"levelo://app?vid=b44bddb9-8341-4408-bb5c-2330f2f7cce2"},"vehicle_type_id":"4","last_reported":1728500828,"current_range_meters":30000,"station_id":"ce4bhh92rcd13ifvqfj0","pricing_plan_id":"cebpf4jnsgd1na2vs0mg"},{"bike_id":"745b5503-bea2-4e98-8f95-98a280c3bdf2","system_id":"levelo_inurba_marseille","lat":43.31312,"lon":5.39702,"is_reserved":false,"is_disabled":false,"rental_uris":{"android":"levelo://app?vid=745b5503-bea2-4e98-8f95-98a280c3bdf2","ios":"levelo://app?vid=745b5503-bea2-4e98-8f95-98a280c3bdf2"},"vehicle_type_id":"4","last_reported":1728500828,"current_range_meters":23200,"station_id":"ce4bgvp2rcd13ifvqcu0","pricing_plan_id":"cebpf4jnsgd1na2vs0mg"},{"bike_id":"90d74967-44d7-4b3b-8c40-70127f75f77d","system_id":"levelo_inurba_marseille","lat":43.30317,"lon":5.40447,"is_reserved":false,"is_disabled":false,"rental_uris":{"android":"levelo://app?vid=90d74967-44d7-4b3b-8c40-70127f75f77d","ios":"levelo://app?vid=90d74967-44d7-4b3b-8c40-70127f75f77d"},"vehicle_type_id":"4","last_reported":1728500828,"current_range_meters":9200,"station_id":"ce4bh012rcd13ifvqd10","pricing_plan_id":"cebpf4jnsgd1na2vs0mg"},{"bike_id":"d469efd0-34fa-4244-8207-cda1d48e1a3f","system_id":"levelo_inurba_marseille","lat":43.28612,"lon":5.35105,"is_reserved":false,"is_disabled":false,"rental_uris":{"android":"levelo://app?vid=d469efd0-34fa-4244-8207-cda1d48e1a3f","ios":"levelo://app?vid=d469efd0-34fa-4244-8207-cda1d48e1a3f"},"vehicle_type_id":"4","last_reported":1728500828,"current_range_meters":24000,"station_id":"ce4bhch2rcd13ifvqeug","pricing_plan_id":"cebpf4jnsgd1na2vs0mg"},{"bike_id":"fd74c34e-0071-4821-b925-ac9c52f51273","system_id":"levelo_inurba_marseille","lat":43.31325,"lon":5.39687,"is_reserved":false,"is_disabled":false,"rental_uris":{"android":"levelo://app?vid=fd74c34e-0071-4821-b925-ac9c52f51273","ios":"levelo://app?vid=fd74c34e-0071-4821-b925-ac9c52f51273"},"vehicle_type_id":"4","last_reported":1728500828,"current_range_meters":22800,"station_id":"ce4bgvp2rcd13ifvqcu0","pricing_plan_id":"cebpf4jnsgd1na2vs0mg"},{"bike_id":"4f2e5b4a-bc46-4dee-82ca-048529cfeab8","system_id":"levelo_inurba_marseille","lat":43.30648,"lon":5.40105,"is_reserved":false,"is_disabled":false,"rental_uris":{"android":"levelo://app?vid=4f2e5b4a-bc46-4dee-82ca-048529cfeab8","ios":"levelo://app?vid=4f2e5b4a-bc46-4dee-82ca-048529cfeab8"},"vehicle_type_id":"4","last_reported":1728500828,"current_range_meters":3600,"station_id":"ce4bh112rcd13ifvqda0","pricing_plan_id":"cebpf4jnsgd1na2vs0mg"},{"bike_id":"73e5476b-e1c9-4a5d-9e10-41361ad16636","system_id":"levelo_inurba_marseille","lat":43.25126,"lon":5.40314,"is_reserved":false,"is_disabled":false,"rental_uris":{"android":"levelo://app?vid=73e5476b-e1c9-4a5d-9e10-41361ad16636","ios":"levelo://app?vid=73e5476b-e1c9-4a5d-9e10-41361ad16636"},"vehicle_type_id":"4","last_reported":1728500828,"current_range_meters":38800,"station_id":"ce4bhlh2rcd13ifvqgig","pricing_plan_id":"cebpf4jnsgd1na2vs0mg"},{"bike_id":"45a2947d-6e81-4a32-9500-a8c058ffa413","system_id":"levelo_inurba_marseille","lat":43.29046,"lon":5.39971,"is_reserved":false,"is_disabled":false,"rental_uris":{"android":"levelo://app?vid=45a2947d-6e81-4a32-9500-a8c058ffa413","ios":"levelo://app?vid=45a2947d-6e81-4a32-9500-a8c058ffa413"},"vehicle_type_id":"4","last_reported":1728500828,"current_range_meters":10800,"station_id":"ce4bh392rcd13ifvqdm0","pricing_plan_id":"cebpf4jnsgd1na2vs0mg"},{"bike_id":"83094c49-8a16-4268-bb3f-b82bc8befb11","system_id":"levelo_inurba_marseille","lat":43.31083,"lon":5.42435,"is_reserved":false,"is_disabled":false,"rental_uris":{"android":"levelo://app?vid=83094c49-8a16-4268-bb3f-b82bc8befb11","ios":"levelo://app?vid=83094c49-8a16-4268-bb3f-b82bc8befb11"},"vehicle_type_id":"4","last_reported":1728500828,"current_range_meters":14000,"station_id":"ce4bhp92rcd13ifvqhag","pricing_plan_id":"cebpf4jnsgd1na2vs0mg"},{"bike_id":"d6b5cfa3-a44a-4b35-a171-f97b144308bc","system_id":"levelo_inurba_marseille","lat":43.31531,"lon":5.38032,"is_reserved":false,"is_disabled":false,"rental_uris":{"android":"levelo://app?vid=d6b5cfa3-a44a-4b35-a171-f97b144308bc","ios":"levelo://app?vid=d6b5cfa3-a44a-4b35-a171-f97b144308bc"},"vehicle_type_id":"4","last_reported":1728500828,"current_range_meters":3200,"station_id":"ce4bhsp2rcd13ifvqi50","pricing_plan_id":"cebpf4jnsgd1na2vs0mg"},{"bike_id":"e961905a-c356-40c4-b14e-55dbcbe83878","system_id":"levelo_inurba_marseille","lat":43.33025,"lon":5.39042,"is_reserved":false,"is_disabled":false,"rental_uris":{"android":"levelo://app?vid=e961905a-c356-40c4-b14e-55dbcbe83878","ios":"levelo://app?vid=e961905a-c356-40c4-b14e-55dbcbe83878"},"vehicle_type_id":"4","last_reported":1728500828,"current_range_meters":32000,"station_id":"ce4bhr92rcd13ifvqhrg","pricing_plan_id":"cebpf4jnsgd1na2vs0mg"},{"bike_id":"9351cac2-d2a1-47c9-b090-b87552b4b013","system_id":"levelo_inurba_marseille","lat":43.290558,"lon":5.377978,"is_reserved":false,"is_disabled":false,"rental_uris":{"android":"levelo://app?vid=9351cac2-d2a1-47c9-b090-b87552b4b013","ios":"levelo://app?vid=9351cac2-d2a1-47c9-b090-b87552b4b013"},"vehicle_type_id":"4","last_reported":1728500828,"current_range_meters":19600,"station_id":"","pricing_plan_id":"cebpf4jnsgd1na2vs0mg"},{"bike_id":"0c508ed1-7436-433d-8666-4c73261cb881","system_id":"levelo_inurba_marseille","lat":43.25831,"lon":5.39428,"is_reserved":false,"is_disabled":false,"rental_uris":{"android":"levelo://app?vid=0c508ed1-7436-433d-8666-4c73261cb881","ios":"levelo://app?vid=0c508ed1-7436-433d-8666-4c73261cb881"},"vehicle_type_id":"4","last_reported":1728500828,"current_range_meters":38800,"station_id":"ce4bhip2rcd13ifvqft0","pricing_plan_id":"cebpf4jnsgd1na2vs0mg"},{"bike_id":"6be918ff-776e-400a-8dce-92f1e9e50ca6","system_id":"levelo_inurba_marseille","lat":43.30635,"lon":5.40093,"is_reserved":false,"is_disabled":false,"rental_uris":{"android":"levelo://app?vid=6be918ff-776e-400a-8dce-92f1e9e50ca6","ios":"levelo://app?vid=6be918ff-776e-400a-8dce-92f1e9e50ca6"},"vehicle_type_id":"4","last_reported":1728500828,"current_range_meters":35200,"station_id":"ce4bh112rcd13ifvqda0","pricing_plan_id":"cebpf4jnsgd1na2vs0mg"},{"bike_id":"dcf7fa1a-67f6-4cea-a4a2-70c202568816","system_id":"levelo_inurba_marseille","lat":43.24763,"lon":5.40019,"is_reserved":false,"is_disabled":false,"rental_uris":{"android":"levelo://app?vid=dcf7fa1a-67f6-4cea-a4a2-70c202568816","ios":"levelo://app?vid=dcf7fa1a-67f6-4cea-a4a2-70c202568816"},"vehicle_type_id":"4","last_reported":1728500828,"current_range_meters":24800,"station_id":"","pricing_plan_id":"cebpf4jnsgd1na2vs0mg"},{"bike_id":"12dd3543-9792-411d-a2d3-090844735961","system_id":"levelo_inurba_marseille","lat":43.27941,"lon":5.41051,"is_reserved":false,"is_disabled":false,"rental_uris":{"android":"levelo://app?vid=12dd3543-9792-411d-a2d3-090844735961","ios":"levelo://app?vid=12dd3543-9792-411d-a2d3-090844735961"},"vehicle_type_id":"4","last_reported":1728500828,"current_range_meters":38800,"station_id":"ce4bhnp2rcd13ifvqh0g","pricing_plan_id":"cebpf4jnsgd1na2vs0mg"},{"bike_id":"44e61575-33b3-45e4-9c52-16d46941b0ae","system_id":"levelo_inurba_marseille","lat":43.27937,"lon":5.4106,"is_reserved":false,"is_disabled":false,"rental_uris":{"android":"levelo://app?vid=44e61575-33b3-45e4-9c52-16d46941b0ae","ios":"levelo://app?vid=44e61575-33b3-45e4-9c52-16d46941b0ae"},"vehicle_type_id":"4","last_reported":1728500828,"current_range_meters":38800,"station_id":"ce4bhnp2rcd13ifvqh0g","pricing_plan_id":"cebpf4jnsgd1na2vs0mg"},{"bike_id":"8ce32ef5-5027-4dda-9620-c63c127ed8b3","system_id":"levelo_inurba_marseille","lat":43.27997,"lon":5.40015,"is_reserved":false,"is_disabled":false,"rental_uris":{"android":"levelo://app?vid=8ce32ef5-5027-4dda-9620-c63c127ed8b3","ios":"levelo://app?vid=8ce32ef5-5027-4dda-9620-c63c127ed8b3"},"vehicle_type_id":"4","last_reported":1728500828,"current_range_meters":16400,"station_id":"ce4bho92rcd13ifvqh4g","pricing_plan_id":"cebpf4jnsgd1na2vs0mg"},{"bike_id":"ae7c77e6-b40b-4157-b51f-f53aa9f103d6","system_id":"levelo_inurba_marseille","lat":43.26068,"lon":5.39399,"is_reserved":false,"is_disabled":false,"rental_uris":{"android":"levelo://app?vid=ae7c77e6-b40b-4157-b51f-f53aa9f103d6","ios":"levelo://app?vid=ae7c77e6-b40b-4157-b51f-f53aa9f103d6"},"vehicle_type_id":"4","last_reported":1728500828,"current_range_meters":27600,"station_id":"ce4bhh92rcd13ifvqfj0","pricing_plan_id":"cebpf4jnsgd1na2vs0mg"},{"bike_id":"ad734d68-e2a1-45b8-8800-7be94cc33530","system_id":"levelo_inurba_marseille","lat":43.30218,"lon":5.39477,"is_reserved":false,"is_disabled":false,"rental_uris":{"android":"levelo://app?vid=ad734d68-e2a1-45b8-8800-7be94cc33530","ios":"levelo://app?vid=ad734d68-e2a1-45b8-8800-7be94cc33530"},"vehicle_type_id":"4","last_reported":1728500828,"current_range_meters":38800,"station_id":"ce4bh0p2rcd13ifvqd70","pricing_plan_id":"cebpf4jnsgd1na2vs0mg"},{"bike_id":"2312979e-9428-4f63-bdef-77b40f52c2f7","system_id":"levelo_inurba_marseille","lat":43.30792,"lon":5.43528,"is_reserved":false,"is_disabled":false,"rental_uris":{"android":"levelo://app?vid=2312979e-9428-4f63-bdef-77b40f52c2f7","ios":"levelo://app?vid=2312979e-9428-4f63-bdef-77b40f52c2f7"},"vehicle_type_id":"4","last_reported":1728500828,"current_range_meters":23200,"station_id":"ce4bhph2rcd13ifvqheg","pricing_plan_id":"cebpf4jnsgd1na2vs0mg"},{"bike_id":"6caf95ac-909f-41e1-8bc7-0f91444d16fb","system_id":"levelo_inurba_marseille","lat":43.23069,"lon":5.35494,"is_reserved":false,"is_disabled":false,"rental_uris":{"android":"levelo://app?vid=6caf95ac-909f-41e1-8bc7-0f91444d16fb","ios":"levelo://app?vid=6caf95ac-909f-41e1-8bc7-0f91444d16fb"},"vehicle_type_id":"4","last_reported":1728500828,"current_range_meters":17200,"station_id":"cpo3342slgdg3j2ifvpg","pricing_plan_id":"cebpf4jnsgd1na2vs0mg"},{"bike_id":"3fab305b-1728-4a45-9f4f-fb39052b80d2","system_id":"levelo_inurba_marseille","lat":43.25488,"lon":5.3765,"is_reserved":false,"is_disabled":false,"rental_uris":{"android":"levelo://app?vid=3fab305b-1728-4a45-9f4f-fb39052b80d2","ios":"levelo://app?vid=3fab305b-1728-4a45-9f4f-fb39052b80d2"},"vehicle_type_id":"4","last_reported":1728500828,"current_range_meters":36800,"station_id":"ce4bhh12rcd13ifvqff0","pricing_plan_id":"cebpf4jnsgd1na2vs0mg"},{"bike_id":"cb439072-15f2-4299-919f-ba4b86460e53","system_id":"levelo_inurba_marseille","lat":43.28034,"lon":5.3696,"is_reserved":false,"is_disabled":false,"rental_uris":{"android":"levelo://app?vid=cb439072-15f2-4299-919f-ba4b86460e53","ios":"levelo://app?vid=cb439072-15f2-4299-919f-ba4b86460e53"},"vehicle_type_id":"4","last_reported":1728500828,"current_range_meters":38800,"station_id":"ce4bha12rcd13ifvqef0","pricing_plan_id":"cebpf4jnsgd1na2vs0mg"},{"bike_id":"ede68b2f-f53f-4ad5-a3f5-950bc936b5eb","system_id":"levelo_inurba_marseille","lat":43.33773,"lon":5.37398,"is_reserved":false,"is_disabled":false,"rental_uris":{"android":"levelo://app?vid=ede68b2f-f53f-4ad5-a3f5-950bc936b5eb","ios":"levelo://app?vid=ede68b2f-f53f-4ad5-a3f5-950bc936b5eb"},"vehicle_type_id":"4","last_reported":1728500828,"current_range_meters":32400,"station_id":"","pricing_plan_id":"cebpf4jnsgd1na2vs0mg"},{"bike_id":"dce02e95-c712-4d68-98a4-68a7f35b44b2","system_id":"levelo_inurba_marseille","lat":43.27617,"lon":5.3611,"is_reserved":false,"is_disabled":false,"rental_uris":{"android":"levelo://app?vid=dce02e95-c712-4d68-98a4-68a7f35b44b2","ios":"levelo://app?vid=dce02e95-c712-4d68-98a4-68a7f35b44b2"},"vehicle_type_id":"4","last_reported":1728500828,"current_range_meters":21600,"station_id":"ce4bgj92rcd13ifvqbe0","pricing_plan_id":"cebpf4jnsgd1na2vs0mg"},{"bike_id":"bb2e048a-c55f-4f68-98e0-9f12edc3e4d6","system_id":"levelo_inurba_marseille","lat":43.24174,"lon":5.39747,"is_reserved":false,"is_disabled":false,"rental_uris":{"android":"levelo://app?vid=bb2e048a-c55f-4f68-98e0-9f12edc3e4d6","ios":"levelo://app?vid=bb2e048a-c55f-4f68-98e0-9f12edc3e4d6"},"vehicle_type_id":"4","last_reported":1728500828,"current_range_meters":38800,"station_id":"ce4bhn12rcd13ifvqgpg","pricing_plan_id":"cebpf4jnsgd1na2vs0mg"},{"bike_id":"51ac1468-270a-49d0-8cdb-4ef6fc2d7e71","system_id":"levelo_inurba_marseille","lat":43.33717,"lon":5.39186,"is_reserved":false,"is_disabled":false,"rental_uris":{"android":"levelo://app?vid=51ac1468-270a-49d0-8cdb-4ef6fc2d7e71","ios":"levelo://app?vid=51ac1468-270a-49d0-8cdb-4ef6fc2d7e71"},"vehicle_type_id":"4","last_reported":1728500828,"current_range_meters":17200,"station_id":"ce4bhr92rcd13ifvqhsg","pricing_plan_id":"cebpf4jnsgd1na2vs0mg"},{"bike_id":"2ca4a4b5-7b22-4790-9f9c-55b8b74a82e9","system_id":"levelo_inurba_marseille","lat":43.27947,"lon":5.41066,"is_reserved":false,"is_disabled":false,"rental_uris":{"android":"levelo://app?vid=2ca4a4b5-7b22-4790-9f9c-55b8b74a82e9","ios":"levelo://app?vid=2ca4a4b5-7b22-4790-9f9c-55b8b74a82e9"},"vehicle_type_id":"4","last_reported":1728500828,"current_range_meters":38800,"station_id":"ce4bhnp2rcd13ifvqh0g","pricing_plan_id":"cebpf4jnsgd1na2vs0mg"},{"bike_id":"154054a2-6c1e-467b-82d8-72e958c45190","system_id":"levelo_inurba_marseille","lat":43.24084,"lon":5.37755,"is_reserved":false,"is_disabled":false,"rental_uris":{"android":"levelo://app?vid=154054a2-6c1e-467b-82d8-72e958c45190","ios":"levelo://app?vid=154054a2-6c1e-467b-82d8-72e958c45190"},"vehicle_type_id":"4","last_reported":1728500828,"current_range_meters":23200,"station_id":"ce4bhnp2rcd13ifvqgvg","pricing_plan_id":"cebpf4jnsgd1na2vs0mg"},{"bike_id":"5d378526-5716-411b-b4b1-79e697cfb815","system_id":"levelo_inurba_marseille","lat":43.30792,"lon":5.43525,"is_reserved":false,"is_disabled":false,"rental_uris":{"android":"levelo://app?vid=5d378526-5716-411b-b4b1-79e697cfb815","ios":"levelo://app?vid=5d378526-5716-411b-b4b1-79e697cfb815"},"vehicle_type_id":"4","last_reported":1728500828,"current_range_meters":30800,"station_id":"ce4bhph2rcd13ifvqheg","pricing_plan_id":"cebpf4jnsgd1na2vs0mg"},{"bike_id":"ce4c5209-8f14-422f-933b-f32f2f1c85af","system_id":"levelo_inurba_marseille","lat":43.25117,"lon":5.4032,"is_reserved":false,"is_disabled":false,"rental_uris":{"android":"levelo://app?vid=ce4c5209-8f14-422f-933b-f32f2f1c85af","ios":"levelo://app?vid=ce4c5209-8f14-422f-933b-f32f2f1c85af"},"vehicle_type_id":"4","last_reported":1728500828,"current_range_meters":38800,"station_id":"ce4bhlh2rcd13ifvqgig","pricing_plan_id":"cebpf4jnsgd1na2vs0mg"},{"bike_id":"885b6ad9-0995-4c83-bb2b-01ee09830319","system_id":"levelo_inurba_marseille","lat":43.32288,"lon":5.38279,"is_reserved":false,"is_disabled":false,"rental_uris":{"android":"levelo://app?vid=885b6ad9-0995-4c83-bb2b-01ee09830319","ios":"levelo://app?vid=885b6ad9-0995-4c83-bb2b-01ee09830319"},"vehicle_type_id":"4","last_reported":1728500828,"current_range_meters":38400,"station_id":"ce4bhr12rcd13ifvqhqg","pricing_plan_id":"cebpf4jnsgd1na2vs0mg"},{"bike_id":"3382b50f-5f73-4a3c-9fd7-3b1e70c3d418","system_id":"levelo_inurba_marseille","lat":43.30322,"lon":5.40441,"is_reserved":false,"is_disabled":false,"rental_uris":{"android":"levelo://app?vid=3382b50f-5f73-4a3c-9fd7-3b1e70c3d418","ios":"levelo://app?vid=3382b50f-5f73-4a3c-9fd7-3b1e70c3d418"},"vehicle_type_id":"4","last_reported":1728500828,"current_range_meters":13600,"station_id":"ce4bh012rcd13ifvqd10","pricing_plan_id":"cebpf4jnsgd1na2vs0mg"},{"bike_id":"810b32d6-b30c-480b-a6ee-5bd54d112eb8","system_id":"levelo_inurba_marseille","lat":43.33749,"lon":5.37442,"is_reserved":false,"is_disabled":false,"rental_uris":{"android":"levelo://app?vid=810b32d6-b30c-480b-a6ee-5bd54d112eb8","ios":"levelo://app?vid=810b32d6-b30c-480b-a6ee-5bd54d112eb8"},"vehicle_type_id":"4","last_reported":1728500828,"current_range_meters":26800,"station_id":"ce4rr2p2rcd13i802rgg","pricing_plan_id":"cebpf4jnsgd1na2vs0mg"},{"bike_id":"7507b4b6-0e77-4929-840a-43395246c408","system_id":"levelo_inurba_marseille","lat":43.30882,"lon":5.39652,"is_reserved":false,"is_disabled":false,"rental_uris":{"android":"levelo://app?vid=7507b4b6-0e77-4929-840a-43395246c408","ios":"levelo://app?vid=7507b4b6-0e77-4929-840a-43395246c408"},"vehicle_type_id":"4","last_reported":1728500828,"current_range_meters":38800,"station_id":"ce4bh012rcd13ifvqcv0","pricing_plan_id":"cebpf4jnsgd1na2vs0mg"},{"bike_id":"930d5175-da31-4536-8c17-6a3e08a1658a","system_id":"levelo_inurba_marseille","lat":43.30627,"lon":5.4009,"is_reserved":false,"is_disabled":false,"rental_uris":{"android":"levelo://app?vid=930d5175-da31-4536-8c17-6a3e08a1658a","ios":"levelo://app?vid=930d5175-da31-4536-8c17-6a3e08a1658a"},"vehicle_type_id":"4","last_reported":1728500828,"current_range_meters":24800,"station_id":"ce4bh112rcd13ifvqda0","pricing_plan_id":"cebpf4jnsgd1na2vs0mg"},{"bike_id":"373fb719-6672-4ff7-bd5e-793f6f902982","system_id":"levelo_inurba_marseille","lat":43.29568,"lon":5.39971,"is_reserved":false,"is_disabled":false,"rental_uris":{"android":"levelo://app?vid=373fb719-6672-4ff7-bd5e-793f6f902982","ios":"levelo://app?vid=373fb719-6672-4ff7-bd5e-793f6f902982"},"vehicle_type_id":"4","last_reported":1728500828,"current_range_meters":17600,"station_id":"ce4bh312rcd13ifvqdj0","pricing_plan_id":"cebpf4jnsgd1na2vs0mg"},{"bike_id":"3ae0ede4-00f0-4a32-8927-a4ad9fdb6f2c","system_id":"levelo_inurba_marseille","lat":43.30793,"lon":5.38159,"is_reserved":false,"is_disabled":false,"rental_uris":{"android":"levelo://app?vid=3ae0ede4-00f0-4a32-8927-a4ad9fdb6f2c","ios":"levelo://app?vid=3ae0ede4-00f0-4a32-8927-a4ad9fdb6f2c"},"vehicle_type_id":"4","last_reported":1728500828,"current_range_meters":30000,"station_id":"ce4bgt12rcd13ifvqce0","pricing_plan_id":"cebpf4jnsgd1na2vs0mg"},{"bike_id":"77192aa0-b759-4c6b-9150-2452373d6fc5","system_id":"levelo_inurba_marseille","lat":43.29069,"lon":5.38003,"is_reserved":false,"is_disabled":false,"rental_uris":{"android":"levelo://app?vid=77192aa0-b759-4c6b-9150-2452373d6fc5","ios":"levelo://app?vid=77192aa0-b759-4c6b-9150-2452373d6fc5"},"vehicle_type_id":"4","last_reported":1728500828,"current_range_meters":23200,"station_id":"ce4bgs92rcd13ifvqcc0","pricing_plan_id":"cebpf4jnsgd1na2vs0mg"},{"bike_id":"6788304e-a293-4cdd-97ad-484d5208b17d","system_id":"levelo_inurba_marseille","lat":43.27819,"lon":5.40706,"is_reserved":false,"is_disabled":false,"rental_uris":{"android":"levelo://app?vid=6788304e-a293-4cdd-97ad-484d5208b17d","ios":"levelo://app?vid=6788304e-a293-4cdd-97ad-484d5208b17d"},"vehicle_type_id":"4","last_reported":1728500828,"current_range_meters":38800,"station_id":"ce4bhnh2rcd13ifvqgtg","pricing_plan_id":"cebpf4jnsgd1na2vs0mg"},{"bike_id":"83123bb3-4725-4a07-80e9-f92831df94d5","system_id":"levelo_inurba_marseille","lat":43.23963,"lon":5.36634,"is_reserved":false,"is_disabled":false,"rental_uris":{"android":"levelo://app?vid=83123bb3-4725-4a07-80e9-f92831df94d5","ios":"levelo://app?vid=83123bb3-4725-4a07-80e9-f92831df94d5"},"vehicle_type_id":"4","last_reported":1728500828,"current_range_meters":4400,"station_id":"ce4bhi12rcd13ifvqfp0","pricing_plan_id":"cebpf4jnsgd1na2vs0mg"},{"bike_id":"5ff7756d-ca50-4f0a-a06c-70af55b98ff4","system_id":"levelo_inurba_marseille","lat":43.30936,"lon":5.40145,"is_reserved":false,"is_disabled":false,"rental_uris":{"android":"levelo://app?vid=5ff7756d-ca50-4f0a-a06c-70af55b98ff4","ios":"levelo://app?vid=5ff7756d-ca50-4f0a-a06c-70af55b98ff4"},"vehicle_type_id":"4","last_reported":1728500828,"current_range_meters":22000,"station_id":"ce4bgvp2rcd13ifvqct0","pricing_plan_id":"cebpf4jnsgd1na2vs0mg"},{"bike_id":"57434c1c-3786-4ccb-a60c-f443fa749801","system_id":"levelo_inurba_marseille","lat":43.2885,"lon":5.39318,"is_reserved":false,"is_disabled":false,"rental_uris":{"android":"levelo://app?vid=57434c1c-3786-4ccb-a60c-f443fa749801","ios":"levelo://app?vid=57434c1c-3786-4ccb-a60c-f443fa749801"},"vehicle_type_id":"4","last_reported":1728500828,"current_range_meters":16400,"station_id":"ce4bh2p2rcd13ifvqdi0","pricing_plan_id":"cebpf4jnsgd1na2vs0mg"},{"bike_id":"4a8cc86e-2377-4464-862b-e5158fd42e7c","system_id":"levelo_inurba_marseille","lat":43.30175,"lon":5.36629,"is_reserved":false,"is_disabled":false,"rental_uris":{"android":"levelo://app?vid=4a8cc86e-2377-4464-862b-e5158fd42e7c","ios":"levelo://app?vid=4a8cc86e-2377-4464-862b-e5158fd42e7c"},"vehicle_type_id":"4","last_reported":1728500828,"current_range_meters":8000,"station_id":"ce4bgrh2rcd13ifvqc8g","pricing_plan_id":"cebpf4jnsgd1na2vs0mg"},{"bike_id":"2ba061e0-f30e-4d11-8589-94fae1b51933","system_id":"levelo_inurba_marseille","lat":43.29304,"lon":5.37178,"is_reserved":false,"is_disabled":false,"rental_uris":{"android":"levelo://app?vid=2ba061e0-f30e-4d11-8589-94fae1b51933","ios":"levelo://app?vid=2ba061e0-f30e-4d11-8589-94fae1b51933"},"vehicle_type_id":"4","last_reported":1728500828,"current_range_meters":3600,"station_id":"ce4bgh92rcd13ifvqb40","pricing_plan_id":"cebpf4jnsgd1na2vs0mg"},{"bike_id":"8419670c-00ea-48f8-8b0b-2d7d69a366b4","system_id":"levelo_inurba_marseille","lat":43.29872,"lon":5.38905,"is_reserved":false,"is_disabled":false,"rental_uris":{"android":"levelo://app?vid=8419670c-00ea-48f8-8b0b-2d7d69a366b4","ios":"levelo://app?vid=8419670c-00ea-48f8-8b0b-2d7d69a366b4"},"vehicle_type_id":"4","last_reported":1728500828,"current_range_meters":9200,"station_id":"ce4bh392rcd13ifvqdl0","pricing_plan_id":"cebpf4jnsgd1na2vs0mg"},{"bike_id":"9bd5b50a-1c63-415f-a1aa-d858b31f3cda","system_id":"levelo_inurba_marseille","lat":43.295796,"lon":5.367473,"is_reserved":false,"is_disabled":false,"rental_uris":{"android":"levelo://app?vid=9bd5b50a-1c63-415f-a1aa-d858b31f3cda","ios":"levelo://app?vid=9bd5b50a-1c63-415f-a1aa-d858b31f3cda"},"vehicle_type_id":"4","last_reported":1728500828,"current_range_meters":38800,"station_id":"ce4bgph2rcd13ifvqc2g","pricing_plan_id":"cebpf4jnsgd1na2vs0mg"},{"bike_id":"2fbe3d1f-387b-4272-9308-ce93b6e94d68","system_id":"levelo_inurba_marseille","lat":43.27336,"lon":5.39075,"is_reserved":false,"is_disabled":false,"rental_uris":{"android":"levelo://app?vid=2fbe3d1f-387b-4272-9308-ce93b6e94d68","ios":"levelo://app?vid=2fbe3d1f-387b-4272-9308-ce93b6e94d68"},"vehicle_type_id":"4","last_reported":1728500828,"current_range_meters":6800,"station_id":"ce4bhgp2rcd13ifvqfe0","pricing_plan_id":"cebpf4jnsgd1na2vs0mg"},{"bike_id":"474074ae-5fef-47ea-947a-7c12bffdb478","system_id":"levelo_inurba_marseille","lat":43.31162,"lon":5.37076,"is_reserved":false,"is_disabled":false,"rental_uris":{"android":"levelo://app?vid=474074ae-5fef-47ea-947a-7c12bffdb478","ios":"levelo://app?vid=474074ae-5fef-47ea-947a-7c12bffdb478"},"vehicle_type_id":"4","last_reported":1728500828,"current_range_meters":36800,"station_id":"","pricing_plan_id":"cebpf4jnsgd1na2vs0mg"},{"bike_id":"329f8e83-c471-4cfc-8dd9-328107902c61","system_id":"levelo_inurba_marseille","lat":43.292664,"lon":5.384475,"is_reserved":false,"is_disabled":false,"rental_uris":{"android":"levelo://app?vid=329f8e83-c471-4cfc-8dd9-328107902c61","ios":"levelo://app?vid=329f8e83-c471-4cfc-8dd9-328107902c61"},"vehicle_type_id":"4","last_reported":1728500828,"current_range_meters":38400,"station_id":"","pricing_plan_id":"cebpf4jnsgd1na2vs0mg"},{"bike_id":"85a048f8-8505-46d4-9d20-ae725d292ea2","system_id":"levelo_inurba_marseille","lat":43.31269,"lon":5.40174,"is_reserved":false,"is_disabled":false,"rental_uris":{"android":"levelo://app?vid=85a048f8-8505-46d4-9d20-ae725d292ea2","ios":"levelo://app?vid=85a048f8-8505-46d4-9d20-ae725d292ea2"},"vehicle_type_id":"4","last_reported":1728500828,"current_range_meters":35600,"station_id":"ce4bh092rcd13ifvqd30","pricing_plan_id":"cebpf4jnsgd1na2vs0mg"},{"bike_id":"fdddc5bb-03e7-4f6e-a317-6ce56d47006b","system_id":"levelo_inurba_marseille","lat":43.26553,"lon":5.37285,"is_reserved":false,"is_disabled":false,"rental_uris":{"android":"levelo://app?vid=fdddc5bb-03e7-4f6e-a317-6ce56d47006b","ios":"levelo://app?vid=fdddc5bb-03e7-4f6e-a317-6ce56d47006b"},"vehicle_type_id":"4","last_reported":1728500828,"current_range_meters":37600,"station_id":"ce4bhg12rcd13ifvqf70","pricing_plan_id":"cebpf4jnsgd1na2vs0mg"},{"bike_id":"88a2001f-3d05-45fa-8ce2-7b6503335a54","system_id":"levelo_inurba_marseille","lat":43.3266,"lon":5.40989,"is_reserved":false,"is_disabled":false,"rental_uris":{"android":"levelo://app?vid=88a2001f-3d05-45fa-8ce2-7b6503335a54","ios":"levelo://app?vid=88a2001f-3d05-45fa-8ce2-7b6503335a54"},"vehicle_type_id":"4","last_reported":1728500828,"current_range_meters":19200,"station_id":"ce4bhpp2rcd13ifvqhgg","pricing_plan_id":"cebpf4jnsgd1na2vs0mg"},{"bike_id":"c2dbdf24-83b9-4d66-80b0-4eee816c4194","system_id":"levelo_inurba_marseille","lat":43.27811,"lon":5.40711,"is_reserved":false,"is_disabled":false,"rental_uris":{"android":"levelo://app?vid=c2dbdf24-83b9-4d66-80b0-4eee816c4194","ios":"levelo://app?vid=c2dbdf24-83b9-4d66-80b0-4eee816c4194"},"vehicle_type_id":"4","last_reported":1728500828,"current_range_meters":37600,"station_id":"ce4bhnh2rcd13ifvqgtg","pricing_plan_id":"cebpf4jnsgd1na2vs0mg"},{"bike_id":"5c1172ad-bfce-4a86-a5a8-2bff69492d1f","system_id":"levelo_inurba_marseille","lat":43.283508,"lon":5.381008,"is_reserved":false,"is_disabled":false,"rental_uris":{"android":"levelo://app?vid=5c1172ad-bfce-4a86-a5a8-2bff69492d1f","ios":"levelo://app?vid=5c1172ad-bfce-4a86-a5a8-2bff69492d1f"},"vehicle_type_id":"4","last_reported":1728500828,"current_range_meters":14800,"station_id":"ce4bh412rcd13ifvqdr0","pricing_plan_id":"cebpf4jnsgd1na2vs0mg"},{"bike_id":"115f99b9-4f17-436d-b64b-539a809a91f1","system_id":"levelo_inurba_marseille","lat":43.33017,"lon":5.39041,"is_reserved":false,"is_disabled":false,"rental_uris":{"android":"levelo://app?vid=115f99b9-4f17-436d-b64b-539a809a91f1","ios":"levelo://app?vid=115f99b9-4f17-436d-b64b-539a809a91f1"},"vehicle_type_id":"4","last_reported":1728500828,"current_range_meters":37600,"station_id":"ce4bhr92rcd13ifvqhrg","pricing_plan_id":"cebpf4jnsgd1na2vs0mg"},{"bike_id":"33cfebb5-bb7b-4597-bb41-5c568e127e50","system_id":"levelo_inurba_marseille","lat":43.295245,"lon":5.390322,"is_reserved":false,"is_disabled":false,"rental_uris":{"android":"levelo://app?vid=33cfebb5-bb7b-4597-bb41-5c568e127e50","ios":"levelo://app?vid=33cfebb5-bb7b-4597-bb41-5c568e127e50"},"vehicle_type_id":"4","last_reported":1728500828,"current_range_meters":9200,"station_id":"ce4bh3p2rcd13ifvqdp0","pricing_plan_id":"cebpf4jnsgd1na2vs0mg"},{"bike_id":"b4e3873d-b92a-4ac1-a3d6-78a8e17b362a","system_id":"levelo_inurba_marseille","lat":43.24998,"lon":5.38931,"is_reserved":false,"is_disabled":false,"rental_uris":{"android":"levelo://app?vid=b4e3873d-b92a-4ac1-a3d6-78a8e17b362a","ios":"levelo://app?vid=b4e3873d-b92a-4ac1-a3d6-78a8e17b362a"},"vehicle_type_id":"4","last_reported":1728500828,"current_range_meters":7200,"station_id":"ce4bhgp2rcd13ifvqfd0","pricing_plan_id":"cebpf4jnsgd1na2vs0mg"},{"bike_id":"e498a2fe-c5b2-4367-b26e-c45148c823c0","system_id":"levelo_inurba_marseille","lat":43.32292,"lon":5.38267,"is_reserved":false,"is_disabled":false,"rental_uris":{"android":"levelo://app?vid=e498a2fe-c5b2-4367-b26e-c45148c823c0","ios":"levelo://app?vid=e498a2fe-c5b2-4367-b26e-c45148c823c0"},"vehicle_type_id":"4","last_reported":1728500828,"current_range_meters":2000,"station_id":"ce4bhr12rcd13ifvqhqg","pricing_plan_id":"cebpf4jnsgd1na2vs0mg"},{"bike_id":"5c1a8458-a3a4-4acf-a609-5cf70095ff7a","system_id":"levelo_inurba_marseille","lat":43.25004,"lon":5.38933,"is_reserved":false,"is_disabled":false,"rental_uris":{"android":"levelo://app?vid=5c1a8458-a3a4-4acf-a609-5cf70095ff7a","ios":"levelo://app?vid=5c1a8458-a3a4-4acf-a609-5cf70095ff7a"},"vehicle_type_id":"4","last_reported":1728500828,"current_range_meters":38400,"station_id":"ce4bhgp2rcd13ifvqfd0","pricing_plan_id":"cebpf4jnsgd1na2vs0mg"},{"bike_id":"ec015e1d-15a3-432c-838d-c2d6306ec81d","system_id":"levelo_inurba_marseille","lat":43.29195,"lon":5.35805,"is_reserved":false,"is_disabled":false,"rental_uris":{"android":"levelo://app?vid=ec015e1d-15a3-432c-838d-c2d6306ec81d","ios":"levelo://app?vid=ec015e1d-15a3-432c-838d-c2d6306ec81d"},"vehicle_type_id":"4","last_reported":1728500828,"current_range_meters":8000,"station_id":"ce4bhb12rcd13ifvqel0","pricing_plan_id":"cebpf4jnsgd1na2vs0mg"},{"bike_id":"4745caff-0453-478a-8963-025636bcb912","system_id":"levelo_inurba_marseille","lat":43.33023,"lon":5.39046,"is_reserved":false,"is_disabled":false,"rental_uris":{"android":"levelo://app?vid=4745caff-0453-478a-8963-025636bcb912","ios":"levelo://app?vid=4745caff-0453-478a-8963-025636bcb912"},"vehicle_type_id":"4","last_reported":1728500828,"current_range_meters":18000,"station_id":"ce4bhr92rcd13ifvqhrg","pricing_plan_id":"cebpf4jnsgd1na2vs0mg"},{"bike_id":"5313992a-f6d1-4718-902d-743fe30c7e96","system_id":"levelo_inurba_marseille","lat":43.24654,"lon":5.38896,"is_reserved":false,"is_disabled":false,"rental_uris":{"android":"levelo://app?vid=5313992a-f6d1-4718-902d-743fe30c7e96","ios":"levelo://app?vid=5313992a-f6d1-4718-902d-743fe30c7e96"},"vehicle_type_id":"4","last_reported":1728500828,"current_range_meters":38800,"station_id":"ce4bhg12rcd13ifvqf60","pricing_plan_id":"cebpf4jnsgd1na2vs0mg"},{"bike_id":"f4d415e0-2685-42d4-a659-b6ec9758beec","system_id":"levelo_inurba_marseille","lat":43.28938,"lon":5.36629,"is_reserved":false,"is_disabled":false,"rental_uris":{"android":"levelo://app?vid=f4d415e0-2685-42d4-a659-b6ec9758beec","ios":"levelo://app?vid=f4d415e0-2685-42d4-a659-b6ec9758beec"},"vehicle_type_id":"4","last_reported":1728500828,"current_range_meters":30000,"station_id":"ce4bhap2rcd13ifvqek0","pricing_plan_id":"cebpf4jnsgd1na2vs0mg"},{"bike_id":"f447ed2b-d6f6-40f2-a22e-0a552503fda2","system_id":"levelo_inurba_marseille","lat":43.29263,"lon":5.38442,"is_reserved":false,"is_disabled":false,"rental_uris":{"android":"levelo://app?vid=f447ed2b-d6f6-40f2-a22e-0a552503fda2","ios":"levelo://app?vid=f447ed2b-d6f6-40f2-a22e-0a552503fda2"},"vehicle_type_id":"4","last_reported":1728500828,"current_range_meters":30000,"station_id":"ce4bh692rcd13ifvqea0","pricing_plan_id":"cebpf4jnsgd1na2vs0mg"},{"bike_id":"e1e7c7b1-3002-4269-9031-8a29c844bb90","system_id":"levelo_inurba_marseille","lat":43.29649,"lon":5.40039,"is_reserved":false,"is_disabled":false,"rental_uris":{"android":"levelo://app?vid=e1e7c7b1-3002-4269-9031-8a29c844bb90","ios":"levelo://app?vid=e1e7c7b1-3002-4269-9031-8a29c844bb90"},"vehicle_type_id":"4","last_reported":1728500828,"current_range_meters":19600,"station_id":"ce4bh312rcd13ifvqdj0","pricing_plan_id":"cebpf4jnsgd1na2vs0mg"},{"bike_id":"64dfd0f4-62d6-4048-bd8f-ad13af8fdc26","system_id":"levelo_inurba_marseille","lat":43.29057,"lon":5.35922,"is_reserved":false,"is_disabled":false,"rental_uris":{"android":"levelo://app?vid=64dfd0f4-62d6-4048-bd8f-ad13af8fdc26","ios":"levelo://app?vid=64dfd0f4-62d6-4048-bd8f-ad13af8fdc26"},"vehicle_type_id":"4","last_reported":1728500828,"current_range_meters":38400,"station_id":"ce4bha92rcd13ifvqeg0","pricing_plan_id":"cebpf4jnsgd1na2vs0mg"},{"bike_id":"bb8c49f9-d140-4d9b-93d7-4c09ebd18449","system_id":"levelo_inurba_marseille","lat":43.28463,"lon":5.35899,"is_reserved":false,"is_disabled":false,"rental_uris":{"android":"levelo://app?vid=bb8c49f9-d140-4d9b-93d7-4c09ebd18449","ios":"levelo://app?vid=bb8c49f9-d140-4d9b-93d7-4c09ebd18449"},"vehicle_type_id":"4","last_reported":1728500828,"current_range_meters":21600,"station_id":"ce4bhah2rcd13ifvqei0","pricing_plan_id":"cebpf4jnsgd1na2vs0mg"},{"bike_id":"d43d2650-7535-4b06-8bb0-1c42ba159214","system_id":"levelo_inurba_marseille","lat":43.31118,"lon":5.37772,"is_reserved":false,"is_disabled":false,"rental_uris":{"android":"levelo://app?vid=d43d2650-7535-4b06-8bb0-1c42ba159214","ios":"levelo://app?vid=d43d2650-7535-4b06-8bb0-1c42ba159214"},"vehicle_type_id":"4","last_reported":1728500828,"current_range_meters":38800,"station_id":"ce4bgt92rcd13ifvqcg0","pricing_plan_id":"cebpf4jnsgd1na2vs0mg"},{"bike_id":"7b1bf317-3623-49e6-8469-a0ef982989f1","system_id":"levelo_inurba_marseille","lat":43.24995,"lon":5.38938,"is_reserved":false,"is_disabled":false,"rental_uris":{"android":"levelo://app?vid=7b1bf317-3623-49e6-8469-a0ef982989f1","ios":"levelo://app?vid=7b1bf317-3623-49e6-8469-a0ef982989f1"},"vehicle_type_id":"4","last_reported":1728500828,"current_range_meters":38800,"station_id":"ce4bhgp2rcd13ifvqfd0","pricing_plan_id":"cebpf4jnsgd1na2vs0mg"},{"bike_id":"ef47fd66-f90e-4346-897d-bf00f7a1142c","system_id":"levelo_inurba_marseille","lat":43.28713,"lon":5.38855,"is_reserved":false,"is_disabled":false,"rental_uris":{"android":"levelo://app?vid=ef47fd66-f90e-4346-897d-bf00f7a1142c","ios":"levelo://app?vid=ef47fd66-f90e-4346-897d-bf00f7a1142c"},"vehicle_type_id":"4","last_reported":1728500828,"current_range_meters":14000,"station_id":"","pricing_plan_id":"cebpf4jnsgd1na2vs0mg"},{"bike_id":"7bbc02fa-df81-408c-b764-b2af6f367eed","system_id":"levelo_inurba_marseille","lat":43.28471,"lon":5.35893,"is_reserved":false,"is_disabled":false,"rental_uris":{"android":"levelo://app?vid=7bbc02fa-df81-408c-b764-b2af6f367eed","ios":"levelo://app?vid=7bbc02fa-df81-408c-b764-b2af6f367eed"},"vehicle_type_id":"4","last_reported":1728500828,"current_range_meters":33600,"station_id":"ce4bhah2rcd13ifvqei0","pricing_plan_id":"cebpf4jnsgd1na2vs0mg"},{"bike_id":"85fc2d58-6f35-47a7-9649-73f431ff4631","system_id":"levelo_inurba_marseille","lat":43.28353,"lon":5.38111,"is_reserved":false,"is_disabled":false,"rental_uris":{"android":"levelo://app?vid=85fc2d58-6f35-47a7-9649-73f431ff4631","ios":"levelo://app?vid=85fc2d58-6f35-47a7-9649-73f431ff4631"},"vehicle_type_id":"4","last_reported":1728500828,"current_range_meters":11600,"station_id":"ce4bh412rcd13ifvqdr0","pricing_plan_id":"cebpf4jnsgd1na2vs0mg"},{"bike_id":"92ed4025-32d2-43d5-8e60-e3c0ef293359","system_id":"levelo_inurba_marseille","lat":43.32289,"lon":5.38258,"is_reserved":false,"is_disabled":false,"rental_uris":{"android":"levelo://app?vid=92ed4025-32d2-43d5-8e60-e3c0ef293359","ios":"levelo://app?vid=92ed4025-32d2-43d5-8e60-e3c0ef293359"},"vehicle_type_id":"4","last_reported":1728500828,"current_range_meters":8800,"station_id":"ce4bhr12rcd13ifvqhqg","pricing_plan_id":"cebpf4jnsgd1na2vs0mg"},{"bike_id":"8523fe4d-2d7b-4a96-a923-b96c618938bb","system_id":"levelo_inurba_marseille","lat":43.32337,"lon":5.40621,"is_reserved":false,"is_disabled":false,"rental_uris":{"android":"levelo://app?vid=8523fe4d-2d7b-4a96-a923-b96c618938bb","ios":"levelo://app?vid=8523fe4d-2d7b-4a96-a923-b96c618938bb"},"vehicle_type_id":"4","last_reported":1728500828,"current_range_meters":36400,"station_id":"ce4bhq92rcd13ifvqhjg","pricing_plan_id":"cebpf4jnsgd1na2vs0mg"},{"bike_id":"2bf65ae4-89d8-4f76-b14e-771b9d6fbb41","system_id":"levelo_inurba_marseille","lat":43.30194,"lon":5.36632,"is_reserved":false,"is_disabled":false,"rental_uris":{"android":"levelo://app?vid=2bf65ae4-89d8-4f76-b14e-771b9d6fbb41","ios":"levelo://app?vid=2bf65ae4-89d8-4f76-b14e-771b9d6fbb41"},"vehicle_type_id":"4","last_reported":1728500828,"current_range_meters":19200,"station_id":"ce4bgrh2rcd13ifvqc8g","pricing_plan_id":"cebpf4jnsgd1na2vs0mg"},{"bike_id":"576e423f-ac45-4f0f-abc4-c5de3f2f8f2c","system_id":"levelo_inurba_marseille","lat":43.31333,"lon":5.397013,"is_reserved":false,"is_disabled":false,"rental_uris":{"android":"levelo://app?vid=576e423f-ac45-4f0f-abc4-c5de3f2f8f2c","ios":"levelo://app?vid=576e423f-ac45-4f0f-abc4-c5de3f2f8f2c"},"vehicle_type_id":"4","last_reported":1728500828,"current_range_meters":37600,"station_id":"ce4bgvp2rcd13ifvqcu0","pricing_plan_id":"cebpf4jnsgd1na2vs0mg"},{"bike_id":"2a23f37b-af60-4159-a89b-da995e88f9d5","system_id":"levelo_inurba_marseille","lat":43.309525,"lon":5.390305,"is_reserved":false,"is_disabled":false,"rental_uris":{"android":"levelo://app?vid=2a23f37b-af60-4159-a89b-da995e88f9d5","ios":"levelo://app?vid=2a23f37b-af60-4159-a89b-da995e88f9d5"},"vehicle_type_id":"4","last_reported":1728500828,"current_range_meters":38800,"station_id":"ce4bgup2rcd13ifvqco0","pricing_plan_id":"cebpf4jnsgd1na2vs0mg"},{"bike_id":"08ce1abd-36a0-4b79-ad43-aa50a09e4641","system_id":"levelo_inurba_marseille","lat":43.30316,"lon":5.40439,"is_reserved":false,"is_disabled":false,"rental_uris":{"android":"levelo://app?vid=08ce1abd-36a0-4b79-ad43-aa50a09e4641","ios":"levelo://app?vid=08ce1abd-36a0-4b79-ad43-aa50a09e4641"},"vehicle_type_id":"4","last_reported":1728500828,"current_range_meters":38400,"station_id":"ce4bh012rcd13ifvqd10","pricing_plan_id":"cebpf4jnsgd1na2vs0mg"},{"bike_id":"e973b5c6-1ac2-465a-85f6-78ebce3665e0","system_id":"levelo_inurba_marseille","lat":43.28614,"lon":5.35105,"is_reserved":false,"is_disabled":false,"rental_uris":{"android":"levelo://app?vid=e973b5c6-1ac2-465a-85f6-78ebce3665e0","ios":"levelo://app?vid=e973b5c6-1ac2-465a-85f6-78ebce3665e0"},"vehicle_type_id":"4","last_reported":1728500828,"current_range_meters":6400,"station_id":"ce4bhch2rcd13ifvqeug","pricing_plan_id":"cebpf4jnsgd1na2vs0mg"},{"bike_id":"8c61a48f-28ea-4db1-b810-97942d753d8e","system_id":"levelo_inurba_marseille","lat":43.23961,"lon":5.3664,"is_reserved":false,"is_disabled":false,"rental_uris":{"android":"levelo://app?vid=8c61a48f-28ea-4db1-b810-97942d753d8e","ios":"levelo://app?vid=8c61a48f-28ea-4db1-b810-97942d753d8e"},"vehicle_type_id":"4","last_reported":1728500828,"current_range_meters":3600,"station_id":"ce4bhi12rcd13ifvqfp0","pricing_plan_id":"cebpf4jnsgd1na2vs0mg"},{"bike_id":"2bc5f93b-b1d3-4403-8433-9d873dfb16de","system_id":"levelo_inurba_marseille","lat":43.25113,"lon":5.40326,"is_reserved":false,"is_disabled":false,"rental_uris":{"android":"levelo://app?vid=2bc5f93b-b1d3-4403-8433-9d873dfb16de","ios":"levelo://app?vid=2bc5f93b-b1d3-4403-8433-9d873dfb16de"},"vehicle_type_id":"4","last_reported":1728500828,"current_range_meters":39200,"station_id":"ce4bhlh2rcd13ifvqgig","pricing_plan_id":"cebpf4jnsgd1na2vs0mg"},{"bike_id":"43e09d60-4b6a-4bdd-955b-21c86e33d38d","system_id":"levelo_inurba_marseille","lat":43.2454,"lon":5.39531,"is_reserved":false,"is_disabled":false,"rental_uris":{"android":"levelo://app?vid=43e09d60-4b6a-4bdd-955b-21c86e33d38d","ios":"levelo://app?vid=43e09d60-4b6a-4bdd-955b-21c86e33d38d"},"vehicle_type_id":"4","last_reported":1728500828,"current_range_meters":38800,"station_id":"ce4bhlp2rcd13ifvqgjg","pricing_plan_id":"cebpf4jnsgd1na2vs0mg"},{"bike_id":"b475dfe8-6c89-4597-9704-9f74d4d063ba","system_id":"levelo_inurba_marseille","lat":43.23198,"lon":5.35559,"is_reserved":false,"is_disabled":false,"rental_uris":{"android":"levelo://app?vid=b475dfe8-6c89-4597-9704-9f74d4d063ba","ios":"levelo://app?vid=b475dfe8-6c89-4597-9704-9f74d4d063ba"},"vehicle_type_id":"4","last_reported":1728500828,"current_range_meters":38000,"station_id":"ce4bhu92rcd13ifvqi70","pricing_plan_id":"cebpf4jnsgd1na2vs0mg"},{"bike_id":"77e2d85d-a0bb-4ca1-9858-8f41e1584409","system_id":"levelo_inurba_marseille","lat":43.30799,"lon":5.43534,"is_reserved":false,"is_disabled":false,"rental_uris":{"android":"levelo://app?vid=77e2d85d-a0bb-4ca1-9858-8f41e1584409","ios":"levelo://app?vid=77e2d85d-a0bb-4ca1-9858-8f41e1584409"},"vehicle_type_id":"4","last_reported":1728500828,"current_range_meters":21600,"station_id":"ce4bhph2rcd13ifvqheg","pricing_plan_id":"cebpf4jnsgd1na2vs0mg"},{"bike_id":"8fbaaacd-e31e-4e3e-a716-87360ccf31fa","system_id":"levelo_inurba_marseille","lat":43.28476,"lon":5.35898,"is_reserved":false,"is_disabled":false,"rental_uris":{"android":"levelo://app?vid=8fbaaacd-e31e-4e3e-a716-87360ccf31fa","ios":"levelo://app?vid=8fbaaacd-e31e-4e3e-a716-87360ccf31fa"},"vehicle_type_id":"4","last_reported":1728500828,"current_range_meters":4400,"station_id":"ce4bhah2rcd13ifvqei0","pricing_plan_id":"cebpf4jnsgd1na2vs0mg"},{"bike_id":"0b859a5a-d16b-4661-9e1f-d0d1f29df876","system_id":"levelo_inurba_marseille","lat":43.31695,"lon":5.40473,"is_reserved":false,"is_disabled":false,"rental_uris":{"android":"levelo://app?vid=0b859a5a-d16b-4661-9e1f-d0d1f29df876","ios":"levelo://app?vid=0b859a5a-d16b-4661-9e1f-d0d1f29df876"},"vehicle_type_id":"4","last_reported":1728500828,"current_range_meters":36400,"station_id":"ce4bh012rcd13ifvqd00","pricing_plan_id":"cebpf4jnsgd1na2vs0mg"},{"bike_id":"3cd087f6-d9c7-483e-90d8-566b637aaae0","system_id":"levelo_inurba_marseille","lat":43.29255,"lon":5.3845,"is_reserved":false,"is_disabled":false,"rental_uris":{"android":"levelo://app?vid=3cd087f6-d9c7-483e-90d8-566b637aaae0","ios":"levelo://app?vid=3cd087f6-d9c7-483e-90d8-566b637aaae0"},"vehicle_type_id":"4","last_reported":1728500828,"current_range_meters":32000,"station_id":"ce4bh692rcd13ifvqea0","pricing_plan_id":"cebpf4jnsgd1na2vs0mg"},{"bike_id":"4bca65e7-f083-4a86-bb95-67042f0cf645","system_id":"levelo_inurba_marseille","lat":43.31333,"lon":5.39697,"is_reserved":false,"is_disabled":false,"rental_uris":{"android":"levelo://app?vid=4bca65e7-f083-4a86-bb95-67042f0cf645","ios":"levelo://app?vid=4bca65e7-f083-4a86-bb95-67042f0cf645"},"vehicle_type_id":"4","last_reported":1728500828,"current_range_meters":5600,"station_id":"ce4bgvp2rcd13ifvqcu0","pricing_plan_id":"cebpf4jnsgd1na2vs0mg"},{"bike_id":"d330b914-918c-42ec-912a-817e02ab2d2a","system_id":"levelo_inurba_marseille","lat":43.27618,"lon":5.3612,"is_reserved":false,"is_disabled":false,"rental_uris":{"android":"levelo://app?vid=d330b914-918c-42ec-912a-817e02ab2d2a","ios":"levelo://app?vid=d330b914-918c-42ec-912a-817e02ab2d2a"},"vehicle_type_id":"4","last_reported":1728500828,"current_range_meters":24800,"station_id":"ce4bgj92rcd13ifvqbe0","pricing_plan_id":"cebpf4jnsgd1na2vs0mg"},{"bike_id":"f961fe40-2615-4eee-8b58-f87e3db6292e","system_id":"levelo_inurba_marseille","lat":43.30636,"lon":5.37323,"is_reserved":false,"is_disabled":false,"rental_uris":{"android":"levelo://app?vid=f961fe40-2615-4eee-8b58-f87e3db6292e","ios":"levelo://app?vid=f961fe40-2615-4eee-8b58-f87e3db6292e"},"vehicle_type_id":"4","last_reported":1728500828,"current_range_meters":32000,"station_id":"ce4bgt12rcd13ifvqce0","pricing_plan_id":"cebpf4jnsgd1na2vs0mg"},{"bike_id":"da802ed2-1594-4eec-aeb2-055d0b4882f4","system_id":"levelo_inurba_marseille","lat":43.2894,"lon":5.36642,"is_reserved":false,"is_disabled":false,"rental_uris":{"android":"levelo://app?vid=da802ed2-1594-4eec-aeb2-055d0b4882f4","ios":"levelo://app?vid=da802ed2-1594-4eec-aeb2-055d0b4882f4"},"vehicle_type_id":"4","last_reported":1728500828,"current_range_meters":4000,"station_id":"ce4bhap2rcd13ifvqek0","pricing_plan_id":"cebpf4jnsgd1na2vs0mg"},{"bike_id":"51440785-2105-4fe8-9ced-61f3b7fe58f6","system_id":"levelo_inurba_marseille","lat":43.33772,"lon":5.37452,"is_reserved":false,"is_disabled":false,"rental_uris":{"android":"levelo://app?vid=51440785-2105-4fe8-9ced-61f3b7fe58f6","ios":"levelo://app?vid=51440785-2105-4fe8-9ced-61f3b7fe58f6"},"vehicle_type_id":"4","last_reported":1728500828,"current_range_meters":36000,"station_id":"","pricing_plan_id":"cebpf4jnsgd1na2vs0mg"},{"bike_id":"a368d76e-e9c1-467f-82cb-b9fe018668fa","system_id":"levelo_inurba_marseille","lat":43.33759,"lon":5.37448,"is_reserved":false,"is_disabled":false,"rental_uris":{"android":"levelo://app?vid=a368d76e-e9c1-467f-82cb-b9fe018668fa","ios":"levelo://app?vid=a368d76e-e9c1-467f-82cb-b9fe018668fa"},"vehicle_type_id":"4","last_reported":1728500828,"current_range_meters":36400,"station_id":"ce4rr2p2rcd13i802rgg","pricing_plan_id":"cebpf4jnsgd1na2vs0mg"},{"bike_id":"bfb62eb0-d9d0-4977-a01c-2b6e5a646761","system_id":"levelo_inurba_marseille","lat":43.30583,"lon":5.39358,"is_reserved":false,"is_disabled":false,"rental_uris":{"android":"levelo://app?vid=bfb62eb0-d9d0-4977-a01c-2b6e5a646761","ios":"levelo://app?vid=bfb62eb0-d9d0-4977-a01c-2b6e5a646761"},"vehicle_type_id":"4","last_reported":1728500828,"current_range_meters":36000,"station_id":"ce4bh0p2rcd13ifvqd80","pricing_plan_id":"cebpf4jnsgd1na2vs0mg"},{"bike_id":"1c034d1a-afec-4b9e-882c-ff4d7b8c8e9c","system_id":"levelo_inurba_marseille","lat":43.33746,"lon":5.37449,"is_reserved":false,"is_disabled":false,"rental_uris":{"android":"levelo://app?vid=1c034d1a-afec-4b9e-882c-ff4d7b8c8e9c","ios":"levelo://app?vid=1c034d1a-afec-4b9e-882c-ff4d7b8c8e9c"},"vehicle_type_id":"4","last_reported":1728500828,"current_range_meters":23200,"station_id":"ce4rr2p2rcd13i802rgg","pricing_plan_id":"cebpf4jnsgd1na2vs0mg"},{"bike_id":"3e3c199b-5889-41b5-8ef3-932feffcfbb0","system_id":"levelo_inurba_marseille","lat":43.23058,"lon":5.35489,"is_reserved":false,"is_disabled":false,"rental_uris":{"android":"levelo://app?vid=3e3c199b-5889-41b5-8ef3-932feffcfbb0","ios":"levelo://app?vid=3e3c199b-5889-41b5-8ef3-932feffcfbb0"},"vehicle_type_id":"4","last_reported":1728500828,"current_range_meters":24800,"station_id":"cpo3342slgdg3j2ifvpg","pricing_plan_id":"cebpf4jnsgd1na2vs0mg"},{"bike_id":"6dace887-95e5-408c-a8ec-4df279f48dae","system_id":"levelo_inurba_marseille","lat":43.24386,"lon":5.37057,"is_reserved":false,"is_disabled":false,"rental_uris":{"android":"levelo://app?vid=6dace887-95e5-408c-a8ec-4df279f48dae","ios":"levelo://app?vid=6dace887-95e5-408c-a8ec-4df279f48dae"},"vehicle_type_id":"4","last_reported":1728500828,"current_range_meters":36800,"station_id":"ce4bhhh2rcd13ifvqfk0","pricing_plan_id":"cebpf4jnsgd1na2vs0mg"},{"bike_id":"8fe6168f-b3a6-4c04-9d97-ce0de7ef1dd5","system_id":"levelo_inurba_marseille","lat":43.28514,"lon":5.38394,"is_reserved":false,"is_disabled":false,"rental_uris":{"android":"levelo://app?vid=8fe6168f-b3a6-4c04-9d97-ce0de7ef1dd5","ios":"levelo://app?vid=8fe6168f-b3a6-4c04-9d97-ce0de7ef1dd5"},"vehicle_type_id":"4","last_reported":1728500828,"current_range_meters":21600,"station_id":"ce4bh512rcd13ifvqe3g","pricing_plan_id":"cebpf4jnsgd1na2vs0mg"},{"bike_id":"7fcb7e36-0d26-41d0-ac04-a56646146102","system_id":"levelo_inurba_marseille","lat":43.22933,"lon":5.35379,"is_reserved":false,"is_disabled":false,"rental_uris":{"android":"levelo://app?vid=7fcb7e36-0d26-41d0-ac04-a56646146102","ios":"levelo://app?vid=7fcb7e36-0d26-41d0-ac04-a56646146102"},"vehicle_type_id":"4","last_reported":1728500828,"current_range_meters":14800,"station_id":"cpo3532slgdg3j2ikp40","pricing_plan_id":"cebpf4jnsgd1na2vs0mg"},{"bike_id":"14f7e575-b24d-47e4-a21e-1dc429b4e4c6","system_id":"levelo_inurba_marseille","lat":43.31761,"lon":5.39009,"is_reserved":false,"is_disabled":false,"rental_uris":{"android":"levelo://app?vid=14f7e575-b24d-47e4-a21e-1dc429b4e4c6","ios":"levelo://app?vid=14f7e575-b24d-47e4-a21e-1dc429b4e4c6"},"vehicle_type_id":"4","last_reported":1728500828,"current_range_meters":18800,"station_id":"ce4bhqp2rcd13ifvqhng","pricing_plan_id":"cebpf4jnsgd1na2vs0mg"},{"bike_id":"6e86a937-faa6-4a87-8c77-df79f3cb591f","system_id":"levelo_inurba_marseille","lat":43.2952,"lon":5.39045,"is_reserved":false,"is_disabled":false,"rental_uris":{"android":"levelo://app?vid=6e86a937-faa6-4a87-8c77-df79f3cb591f","ios":"levelo://app?vid=6e86a937-faa6-4a87-8c77-df79f3cb591f"},"vehicle_type_id":"4","last_reported":1728500828,"current_range_meters":10000,"station_id":"ce4bh3p2rcd13ifvqdp0","pricing_plan_id":"cebpf4jnsgd1na2vs0mg"},{"bike_id":"c121f1bc-4e90-4968-bc70-b16b384e50c2","system_id":"levelo_inurba_marseille","lat":43.27179,"lon":5.40998,"is_reserved":false,"is_disabled":false,"rental_uris":{"android":"levelo://app?vid=c121f1bc-4e90-4968-bc70-b16b384e50c2","ios":"levelo://app?vid=c121f1bc-4e90-4968-bc70-b16b384e50c2"},"vehicle_type_id":"4","last_reported":1728500828,"current_range_meters":28400,"station_id":"ce4bhl12rcd13ifvqgf0","pricing_plan_id":"cebpf4jnsgd1na2vs0mg"},{"bike_id":"57034e4e-8c53-4754-ae3f-4f00c4318228","system_id":"levelo_inurba_marseille","lat":43.26938,"lon":5.40261,"is_reserved":false,"is_disabled":false,"rental_uris":{"android":"levelo://app?vid=57034e4e-8c53-4754-ae3f-4f00c4318228","ios":"levelo://app?vid=57034e4e-8c53-4754-ae3f-4f00c4318228"},"vehicle_type_id":"4","last_reported":1728500828,"current_range_meters":38800,"station_id":"cjm6bp8fraef2m0cb0m0","pricing_plan_id":"cebpf4jnsgd1na2vs0mg"},{"bike_id":"2e4e52ae-7a22-488f-b24f-6c734df05ab9","system_id":"levelo_inurba_marseille","lat":43.23195,"lon":5.35561,"is_reserved":false,"is_disabled":false,"rental_uris":{"android":"levelo://app?vid=2e4e52ae-7a22-488f-b24f-6c734df05ab9","ios":"levelo://app?vid=2e4e52ae-7a22-488f-b24f-6c734df05ab9"},"vehicle_type_id":"4","last_reported":1728500828,"current_range_meters":32000,"station_id":"ce4bhu92rcd13ifvqi70","pricing_plan_id":"cebpf4jnsgd1na2vs0mg"},{"bike_id":"7ae8331c-ff2e-402f-8b12-e9912d0758b5","system_id":"levelo_inurba_marseille","lat":43.31723,"lon":5.42404,"is_reserved":false,"is_disabled":false,"rental_uris":{"android":"levelo://app?vid=7ae8331c-ff2e-402f-8b12-e9912d0758b5","ios":"levelo://app?vid=7ae8331c-ff2e-402f-8b12-e9912d0758b5"},"vehicle_type_id":"4","last_reported":1728500828,"current_range_meters":34000,"station_id":"ce4bhp92rcd13ifvqhbg","pricing_plan_id":"cebpf4jnsgd1na2vs0mg"},{"bike_id":"59c893c5-1149-42f6-b12c-e879ba247010","system_id":"levelo_inurba_marseille","lat":43.337444,"lon":5.374475,"is_reserved":false,"is_disabled":false,"rental_uris":{"android":"levelo://app?vid=59c893c5-1149-42f6-b12c-e879ba247010","ios":"levelo://app?vid=59c893c5-1149-42f6-b12c-e879ba247010"},"vehicle_type_id":"4","last_reported":1728500828,"current_range_meters":35200,"station_id":"","pricing_plan_id":"cebpf4jnsgd1na2vs0mg"},{"bike_id":"f12ac68d-1d58-4d95-84a5-28943168a2f8","system_id":"levelo_inurba_marseille","lat":43.3153,"lon":5.38044,"is_reserved":false,"is_disabled":false,"rental_uris":{"android":"levelo://app?vid=f12ac68d-1d58-4d95-84a5-28943168a2f8","ios":"levelo://app?vid=f12ac68d-1d58-4d95-84a5-28943168a2f8"},"vehicle_type_id":"4","last_reported":1728500828,"current_range_meters":29600,"station_id":"ce4bhsp2rcd13ifvqi50","pricing_plan_id":"cebpf4jnsgd1na2vs0mg"},{"bike_id":"6c54ebcb-dd62-4656-a65e-bac956464c77","system_id":"levelo_inurba_marseille","lat":43.30924,"lon":5.40137,"is_reserved":false,"is_disabled":false,"rental_uris":{"android":"levelo://app?vid=6c54ebcb-dd62-4656-a65e-bac956464c77","ios":"levelo://app?vid=6c54ebcb-dd62-4656-a65e-bac956464c77"},"vehicle_type_id":"4","last_reported":1728500828,"current_range_meters":8000,"station_id":"ce4bgvp2rcd13ifvqct0","pricing_plan_id":"cebpf4jnsgd1na2vs0mg"},{"bike_id":"1c16ba6c-bfd9-4beb-aab7-73efca8ca91a","system_id":"levelo_inurba_marseille","lat":43.31169,"lon":5.38716,"is_reserved":false,"is_disabled":false,"rental_uris":{"android":"levelo://app?vid=1c16ba6c-bfd9-4beb-aab7-73efca8ca91a","ios":"levelo://app?vid=1c16ba6c-bfd9-4beb-aab7-73efca8ca91a"},"vehicle_type_id":"4","last_reported":1728500828,"current_range_meters":33200,"station_id":"ce4bgv12rcd13ifvqcp0","pricing_plan_id":"cebpf4jnsgd1na2vs0mg"},