{"last_updated":1727726991,"ttl":60,"version":"2.2","data":{"bikes":[{"bike_id":"b4c85497-1514-47e1-9085-bfbab84c5023","system_id":"levelo_inurba_marseille","lat":43.30097,"lon":5.39075,"is_reserved":false,"is_disabled":false,"rental_uris":{"android":"levelo://app?vid=b4c85497-1514-47e1-9085-bfbab84c5023","ios":"levelo://app?vid=b4c85497-1514-47e1-9085-bfbab84c5023"},"vehicle_type_id":"4","last_reported":1727726991,"current_range_meters":24000,"station_id":"ce4bh192rcd13ifvqdb0","pricing_plan_id":"cebpf4jnsgd1na2vs0mg"},{"bike_id":"f44d3714-2083-4621-bb6f-4afbd6e8adf4","system_id":"levelo_inurba_marseille","lat":43.30884,"lon":5.37202,"is_reserved":false,"is_disabled":false,"rental_uris":{"android":"levelo://app?vid=f44d3714-2083-4621-bb6f-4afbd6e8adf4","ios":"levelo://app?vid=f44d3714-2083-4621-bb6f-4afbd6e8adf4"},"vehicle_type_id":"4","last_reported":1727726991,"current_range_meters":24400,"station_id":"ce4bguh2rcd13ifvqckg","pricing_plan_id":"cebpf4jnsgd1na2vs0mg"},{"bike_id":"4381ca69-94ed-4fb4-97b0-6e2433f67f2f","system_id":"levelo_inurba_marseille","lat":43.33728,"lon":5.39193,"is_reserved":false,"is_disabled":false,"rental_uris":{"android":"levelo://app?vid=4381ca69-94ed-4fb4-97b0-6e2433f67f2f","ios":"levelo://app?vid=4381ca69-94ed-4fb4-97b0-6e2433f67f2f"},"vehicle_type_id":"4","last_reported":1727726991,"current_range_meters":38800,"station_id":"ce4bhr92rcd13ifvqhsg","pricing_plan_id":"cebpf4jnsgd1na2vs0mg"},{"bike_id":"d3905509-03ea-4c47-bcf8-44f497f04f23","system_id":"levelo_inurba_marseille","lat":43.27811,"lon":5.40707,"is_reserved":false,"is_disabled":false,"rental_uris":{"android":"levelo://app?vid=d3905509-03ea-4c47-bcf8-44f497f04f23","ios":"levelo://app?vid=d3905509-03ea-4c47-bcf8-44f497f04f23"},"vehicle_type_id":"4","last_reported":1727726991,"current_range_meters":37600,"station_id":"ce4bhnh2rcd13ifvqgtg","pricing_plan_id":"cebpf4jnsgd1na2vs0mg"},{"bike_id":"adc8006e-2ac2-4b03-8f2e-82dd7fba9918","system_id":"levelo_inurba_marseille","lat":43.29307,"lon":5.37161,"is_reserved":false,"is_disabled":false,"rental_uris":{"android":"levelo://app?vid=adc8006e-2ac2-4b03-8f2e-82dd7fba9918","ios":"levelo://app?vid=adc8006e-2ac2-4b03-8f2e-82dd7fba9918"},"vehicle_type_id":"4","last_reported":1727726991,"current_range_meters":17200,"station_id":"ce4bgh92rcd13ifvqb40","pricing_plan_id":"cebpf4jnsgd1na2vs0mg"},{"bike_id":"8be6af71-da18-4a11-ad21-9c789e174a79","system_id":"levelo_inurba_marseille","lat":43.29273,"lon":5.36842,"is_reserved":false,"is_disabled":false,"rental_uris":{"android":"levelo://app?vid=8be6af71-da18-4a11-ad21-9c789e174a79","ios":"levelo://app?vid=8be6af71-da18-4a11-ad21-9c789e174a79"},"vehicle_type_id":"4","last_reported":1727726991,"current_range_meters":16800,"station_id":"ce4bhbp2rcd13ifvqesg","pricing_plan_id":"cebpf4jnsgd1na2vs0mg"},{"bike_id":"92eba146-b509-4b29-b790-198cd626ea47","system_id":"levelo_inurba_marseille","lat":43.25112,"lon":5.40323,"is_reserved":false,"is_disabled":false,"rental_uris":{"android":"levelo://app?vid=92eba146-b509-4b29-b790-198cd626ea47","ios":"levelo://app?vid=92eba146-b509-4b29-b790-198cd626ea47"},"vehicle_type_id":"4","last_reported":1727726991,"current_range_meters":3600,"station_id":"ce4bhlh2rcd13ifvqgig","pricing_plan_id":"cebpf4jnsgd1na2vs0mg"},{"bike_id":"d40729ae-badd-428f-b1e4-8473af153e81","system_id":"levelo_inurba_marseille","lat":43.312303,"lon":5.368543,"is_reserved":false,"is_disabled":false,"rental_uris":{"android":"levelo://app?vid=d40729ae-badd-428f-b1e4-8473af153e81","ios":"levelo://app?vid=d40729ae-badd-428f-b1e4-8473af153e81"},"vehicle_type_id":"4","last_reported":1727726991,"current_range_meters":18800,"station_id":"ce4bgl92rcd13ifvqbq0","pricing_plan_id":"cebpf4jnsgd1na2vs0mg"},{"bike_id":"1c006b78-d253-4b91-b794-7153290a0e66","system_id":"levelo_inurba_marseille","lat":43.3176,"lon":5.39013,"is_reserved":false,"is_disabled":false,"rental_uris":{"android":"levelo://app?vid=1c006b78-d253-4b91-b794-7153290a0e66","ios":"levelo://app?vid=1c006b78-d253-4b91-b794-7153290a0e66"},"vehicle_type_id":"4","last_reported":1727726991,"current_range_meters":38800,"station_id":"ce4bhqp2rcd13ifvqhng","pricing_plan_id":"cebpf4jnsgd1na2vs0mg"},{"bike_id":"cc1835fa-d95a-4805-b298-4780f2e272a3","system_id":"levelo_inurba_marseille","lat":43.32397,"lon":5.38348,"is_reserved":false,"is_disabled":false,"rental_uris":{"android":"levelo://app?vid=cc1835fa-d95a-4805-b298-4780f2e272a3","ios":"levelo://app?vid=cc1835fa-d95a-4805-b298-4780f2e272a3"},"vehicle_type_id":"4","last_reported":1727726991,"current_range_meters":19600,"station_id":"","pricing_plan_id":"cebpf4jnsgd1na2vs0mg"},{"bike_id":"0d31a271-58df-4c2e-a39b-bf4de9c34014","system_id":"levelo_inurba_marseille","lat":43.24173,"lon":5.36401,"is_reserved":false,"is_disabled":false,"rental_uris":{"android":"levelo://app?vid=0d31a271-58df-4c2e-a39b-bf4de9c34014","ios":"levelo://app?vid=0d31a271-58df-4c2e-a39b-bf4de9c34014"},"vehicle_type_id":"4","last_reported":1727726991,"current_range_meters":18800,"station_id":"cpo36qri1sfpv3e86is0","pricing_plan_id":"cebpf4jnsgd1na2vs0mg"},{"bike_id":"35d5cf0c-e5f6-48fa-98b1-3f23d7d79d4a","system_id":"levelo_inurba_marseille","lat":43.29296,"lon":5.37469,"is_reserved":false,"is_disabled":false,"rental_uris":{"android":"levelo://app?vid=35d5cf0c-e5f6-48fa-98b1-3f23d7d79d4a","ios":"levelo://app?vid=35d5cf0c-e5f6-48fa-98b1-3f23d7d79d4a"},"vehicle_type_id":"4","last_reported":1727726991,"current_range_meters":8400,"station_id":"ce4bgi12rcd13ifvqb70","pricing_plan_id":"cebpf4jnsgd1na2vs0mg"},{"bike_id":"d1901d2e-eb48-424e-8a75-7377ed728a9e","system_id":"levelo_inurba_marseille","lat":43.31536,"lon":5.38016,"is_reserved":false,"is_disabled":false,"rental_uris":{"android":"levelo://app?vid=d1901d2e-eb48-424e-8a75-7377ed728a9e","ios":"levelo://app?vid=d1901d2e-eb48-424e-8a75-7377ed728a9e"},"vehicle_type_id":"4","last_reported":1727726991,"current_range_meters":38000,"station_id":"ce4bhsp2rcd13ifvqi50","pricing_plan_id":"cebpf4jnsgd1na2vs0mg"},{"bike_id":"6fc0ad42-2767-4eea-bbe6-f50e92ac93e4","system_id":"levelo_inurba_marseille","lat":43.29967,"lon":5.41326,"is_reserved":false,"is_disabled":false,"rental_uris":{"android":"levelo://app?vid=6fc0ad42-2767-4eea-bbe6-f50e92ac93e4","ios":"levelo://app?vid=6fc0ad42-2767-4eea-bbe6-f50e92ac93e4"},"vehicle_type_id":"4","last_reported":1727726991,"current_range_meters":38800,"station_id":"ce4bhp12rcd13ifvqh9g","pricing_plan_id":"cebpf4jnsgd1na2vs0mg"},{"bike_id":"98a5e052-af51-4980-9673-8e07ab87bb1b","system_id":"levelo_inurba_marseille","lat":43.30937,"lon":5.40139,"is_reserved":false,"is_disabled":false,"rental_uris":{"android":"levelo://app?vid=98a5e052-af51-4980-9673-8e07ab87bb1b","ios":"levelo://app?vid=98a5e052-af51-4980-9673-8e07ab87bb1b"},"vehicle_type_id":"4","last_reported":1727726991,"current_range_meters":24000,"station_id":"ce4bgvp2rcd13ifvqct0","pricing_plan_id":"cebpf4jnsgd1na2vs0mg"},{"bike_id":"417d0cf4-3eaf-4831-b2a8-e60c1f731624","system_id":"levelo_inurba_marseille","lat":43.28458,"lon":5.35884,"is_reserved":false,"is_disabled":false,"rental_uris":{"android":"levelo://app?vid=417d0cf4-3eaf-4831-b2a8-e60c1f731624","ios":"levelo://app?vid=417d0cf4-3eaf-4831-b2a8-e60c1f731624"},"vehicle_type_id":"4","last_reported":1727726991,"current_range_meters":39200,"station_id":"ce4bhah2rcd13ifvqei0","pricing_plan_id":"cebpf4jnsgd1na2vs0mg"},{"bike_id":"692b52da-ebae-4f02-9038-5a7809b78483","system_id":"levelo_inurba_marseille","lat":43.30799,"lon":5.43523,"is_reserved":false,"is_disabled":false,"rental_uris":{"android":"levelo://app?vid=692b52da-ebae-4f02-9038-5a7809b78483","ios":"levelo://app?vid=692b52da-ebae-4f02-9038-5a7809b78483"},"vehicle_type_id":"4","last_reported":1727726991,"current_range_meters":39200,"station_id":"ce4bhph2rcd13ifvqheg","pricing_plan_id":"cebpf4jnsgd1na2vs0mg"},{"bike_id":"0d3576d9-964e-4a9f-af7e-d147e969c6e5","system_id":"levelo_inurba_marseille","lat":43.3153,"lon":5.38033,"is_reserved":false,"is_disabled":false,"rental_uris":{"android":"levelo://app?vid=0d3576d9-964e-4a9f-af7e-d147e969c6e5","ios":"levelo://app?vid=0d3576d9-964e-4a9f-af7e-d147e969c6e5"},"vehicle_type_id":"4","last_reported":1727726991,"current_range_meters":9600,"station_id":"ce4bhsp2rcd13ifvqi50","pricing_plan_id":"cebpf4jnsgd1na2vs0mg"},{"bike_id":"3e38dcaf-b185-4e1f-a5ed-7ec2f7daa1c4","system_id":"levelo_inurba_marseille","lat":43.27812,"lon":5.40718,"is_reserved":false,"is_disabled":false,"rental_uris":{"android":"levelo://app?vid=3e38dcaf-b185-4e1f-a5ed-7ec2f7daa1c4","ios":"levelo://app?vid=3e38dcaf-b185-4e1f-a5ed-7ec2f7daa1c4"},"vehicle_type_id":"4","last_reported":1727726991,"current_range_meters":38800,"station_id":"ce4bhnh2rcd13ifvqgtg","pricing_plan_id":"cebpf4jnsgd1na2vs0mg"},{"bike_id":"f8f9c246-59ab-4b72-8174-3c8851a49c16","system_id":"levelo_inurba_marseille","lat":43.28937,"lon":5.36641,"is_reserved":false,"is_disabled":false,"rental_uris":{"android":"levelo://app?vid=f8f9c246-59ab-4b72-8174-3c8851a49c16","ios":"levelo://app?vid=f8f9c246-59ab-4b72-8174-3c8851a49c16"},"vehicle_type_id":"4","last_reported":1727726991,"current_range_meters":17600,"station_id":"ce4bhap2rcd13ifvqek0","pricing_plan_id":"cebpf4jnsgd1na2vs0mg"},{"bike_id":"0b23b6d1-fbc0-4639-a69d-ad62fcab73fa","system_id":"levelo_inurba_marseille","lat":43.29516,"lon":5.39047,"is_reserved":false,"is_disabled":false,"rental_uris":{"android":"levelo://app?vid=0b23b6d1-fbc0-4639-a69d-ad62fcab73fa","ios":"levelo://app?vid=0b23b6d1-fbc0-4639-a69d-ad62fcab73fa"},"vehicle_type_id":"4","last_reported":1727726991,"current_range_meters":38800,"station_id":"ce4bh3p2rcd13ifvqdp0","pricing_plan_id":"cebpf4jnsgd1na2vs0mg"},{"bike_id":"2a3b116a-1622-41fb-9e3b-9700b558192d","system_id":"levelo_inurba_marseille","lat":43.2802,"lon":5.36088,"is_reserved":false,"is_disabled":false,"rental_uris":{"android":"levelo://app?vid=2a3b116a-1622-41fb-9e3b-9700b558192d","ios":"levelo://app?vid=2a3b116a-1622-41fb-9e3b-9700b558192d"},"vehicle_type_id":"4","last_reported":1727726991,"current_range_meters":17200,"station_id":"","pricing_plan_id":"cebpf4jnsgd1na2vs0mg"},{"bike_id":"961b57d5-ac43-4638-9217-7a2a3548a865","system_id":"levelo_inurba_marseille","lat":43.287157,"lon":5.379394,"is_reserved":false,"is_disabled":false,"rental_uris":{"android":"levelo://app?vid=961b57d5-ac43-4638-9217-7a2a3548a865","ios":"levelo://app?vid=961b57d5-ac43-4638-9217-7a2a3548a865"},"vehicle_type_id":"4","last_reported":1727726991,"current_range_meters":24800,"station_id":"ce4bgup2rcd13ifvqco0","pricing_plan_id":"cebpf4jnsgd1na2vs0mg"},{"bike_id":"c6310a53-842c-4c40-97d7-b8b3158dce16","system_id":"levelo_inurba_marseille","lat":43.31064,"lon":5.38351,"is_reserved":false,"is_disabled":false,"rental_uris":{"android":"levelo://app?vid=c6310a53-842c-4c40-97d7-b8b3158dce16","ios":"levelo://app?vid=c6310a53-842c-4c40-97d7-b8b3158dce16"},"vehicle_type_id":"4","last_reported":1727726991,"current_range_meters":24000,"station_id":"ce4bgv92rcd13ifvqcr0","pricing_plan_id":"cebpf4jnsgd1na2vs0mg"},{"bike_id":"aefb0689-222c-4543-9ea1-5cf86f828709","system_id":"levelo_inurba_marseille","lat":43.25085,"lon":5.39526,"is_reserved":false,"is_disabled":false,"rental_uris":{"android":"levelo://app?vid=aefb0689-222c-4543-9ea1-5cf86f828709","ios":"levelo://app?vid=aefb0689-222c-4543-9ea1-5cf86f828709"},"vehicle_type_id":"4","last_reported":1727726991,"current_range_meters":25600,"station_id":"ce4bhm12rcd13ifvqgkg","pricing_plan_id":"cebpf4jnsgd1na2vs0mg"},{"bike_id":"92cc13fd-9ec6-436a-bc78-ba661aa9c80a","system_id":"levelo_inurba_marseille","lat":43.2885,"lon":5.39302,"is_reserved":false,"is_disabled":false,"rental_uris":{"android":"levelo://app?vid=92cc13fd-9ec6-436a-bc78-ba661aa9c80a","ios":"levelo://app?vid=92cc13fd-9ec6-436a-bc78-ba661aa9c80a"},"vehicle_type_id":"4","last_reported":1727726991,"current_range_meters":31200,"station_id":"ce4bh2p2rcd13ifvqdi0","pricing_plan_id":"cebpf4jnsgd1na2vs0mg"},{"bike_id":"3a2a10a5-6b1f-4bb7-9e95-436e732a6364","system_id":"levelo_inurba_marseille","lat":43.31874,"lon":5.40743,"is_reserved":false,"is_disabled":false,"rental_uris":{"android":"levelo://app?vid=3a2a10a5-6b1f-4bb7-9e95-436e732a6364","ios":"levelo://app?vid=3a2a10a5-6b1f-4bb7-9e95-436e732a6364"},"vehicle_type_id":"4","last_reported":1727726991,"current_range_meters":38000,"station_id":"ce4bhq12rcd13ifvqhig","pricing_plan_id":"cebpf4jnsgd1na2vs0mg"},{"bike_id":"6fd4fe66-0c29-4c23-a8bc-4dd99e44ea36","system_id":"levelo_inurba_marseille","lat":43.28405,"lon":5.37519,"is_reserved":false,"is_disabled":false,"rental_uris":{"android":"levelo://app?vid=6fd4fe66-0c29-4c23-a8bc-4dd99e44ea36","ios":"levelo://app?vid=6fd4fe66-0c29-4c23-a8bc-4dd99e44ea36"},"vehicle_type_id":"4","last_reported":1727726991,"current_range_meters":6000,"station_id":"ce4bh412rcd13ifvqds0","pricing_plan_id":"cebpf4jnsgd1na2vs0mg"},{"bike_id":"9fc0059e-c96e-482f-b5a5-911df430f0c1","system_id":"levelo_inurba_marseille","lat":43.25082,"lon":5.39513,"is_reserved":false,"is_disabled":false,"rental_uris":{"android":"levelo://app?vid=9fc0059e-c96e-482f-b5a5-911df430f0c1","ios":"levelo://app?vid=9fc0059e-c96e-482f-b5a5-911df430f0c1"},"vehicle_type_id":"4","last_reported":1727726991,"current_range_meters":23200,"station_id":"ce4bhm12rcd13ifvqgkg","pricing_plan_id":"cebpf4jnsgd1na2vs0mg"},{"bike_id":"f6005f79-8ab7-4000-9d10-147791cdc683","system_id":"levelo_inurba_marseille","lat":43.24391,"lon":5.37062,"is_reserved":false,"is_disabled":false,"rental_uris":{"android":"levelo://app?vid=f6005f79-8ab7-4000-9d10-147791cdc683","ios":"levelo://app?vid=f6005f79-8ab7-4000-9d10-147791cdc683"},"vehicle_type_id":"4","last_reported":1727726991,"current_range_meters":39200,"station_id":"ce4bhhh2rcd13ifvqfk0","pricing_plan_id":"cebpf4jnsgd1na2vs0mg"},{"bike_id":"39e6e5fd-f1f7-44d9-9f4a-3c27c9b3e56f","system_id":"levelo_inurba_marseille","lat":43.31229,"lon":5.36854,"is_reserved":false,"is_disabled":false,"rental_uris":{"android":"levelo://app?vid=39e6e5fd-f1f7-44d9-9f4a-3c27c9b3e56f","ios":"levelo://app?vid=39e6e5fd-f1f7-44d9-9f4a-3c27c9b3e56f"},"vehicle_type_id":"4","last_reported":1727726991,"current_range_meters":37600,"station_id":"ce4bgl92rcd13ifvqbq0","pricing_plan_id":"cebpf4jnsgd1na2vs0mg"},{"bike_id":"6b183cd8-2f6b-485a-b86b-7ee498d9e2cc","system_id":"levelo_inurba_marseille","lat":43.27494,"lon":5.42449,"is_reserved":false,"is_disabled":false,"rental_uris":{"android":"levelo://app?vid=6b183cd8-2f6b-485a-b86b-7ee498d9e2cc","ios":"levelo://app?vid=6b183cd8-2f6b-485a-b86b-7ee498d9e2cc"},"vehicle_type_id":"4","last_reported":1727726991,"current_range_meters":12800,"station_id":"ce4bhn92rcd13ifvqgrg","pricing_plan_id":"cebpf4jnsgd1na2vs0mg"},{"bike_id":"ace441f6-570a-48db-88a2-4d221b5ce091","system_id":"levelo_inurba_marseille","lat":43.2995,"lon":5.38848,"is_reserved":false,"is_disabled":false,"rental_uris":{"android":"levelo://app?vid=ace441f6-570a-48db-88a2-4d221b5ce091","ios":"levelo://app?vid=ace441f6-570a-48db-88a2-4d221b5ce091"},"vehicle_type_id":"4","last_reported":1727726991,"current_range_meters":25600,"station_id":"","pricing_plan_id":"cebpf4jnsgd1na2vs0mg"},{"bike_id":"17114f9c-2494-4f54-9058-c16c8151a373","system_id":"levelo_inurba_marseille","lat":43.28572,"lon":5.39501,"is_reserved":false,"is_disabled":false,"rental_uris":{"android":"levelo://app?vid=17114f9c-2494-4f54-9058-c16c8151a373","ios":"levelo://app?vid=17114f9c-2494-4f54-9058-c16c8151a373"},"vehicle_type_id":"4","last_reported":1727726991,"current_range_meters":28400,"station_id":"ce4bh292rcd13ifvqdg0","pricing_plan_id":"cebpf4jnsgd1na2vs0mg"},{"bike_id":"471330ec-79f3-4e3a-9edf-1b8bcc31a65d","system_id":"levelo_inurba_marseille","lat":43.29582,"lon":5.39984,"is_reserved":false,"is_disabled":false,"rental_uris":{"android":"levelo://app?vid=471330ec-79f3-4e3a-9edf-1b8bcc31a65d","ios":"levelo://app?vid=471330ec-79f3-4e3a-9edf-1b8bcc31a65d"},"vehicle_type_id":"4","last_reported":1727726991,"current_range_meters":34800,"station_id":"ce4bh312rcd13ifvqdj0","pricing_plan_id":"cebpf4jnsgd1na2vs0mg"},{"bike_id":"331bf754-18c5-49b3-a53c-f5ee9aaecd7b","system_id":"levelo_inurba_marseille","lat":43.31481,"lon":5.37313,"is_reserved":false,"is_disabled":false,"rental_uris":{"android":"levelo://app?vid=331bf754-18c5-49b3-a53c-f5ee9aaecd7b","ios":"levelo://app?vid=331bf754-18c5-49b3-a53c-f5ee9aaecd7b"},"vehicle_type_id":"4","last_reported":1727726991,"current_range_meters":38800,"station_id":"ce4bgt12rcd13ifvqcd0","pricing_plan_id":"cebpf4jnsgd1na2vs0mg"},{"bike_id":"4af23175-3cc8-4f7a-808d-7a29f00ac751","system_id":"levelo_inurba_marseille","lat":43.28969,"lon":5.37841,"is_reserved":false,"is_disabled":false,"rental_uris":{"android":"levelo://app?vid=4af23175-3cc8-4f7a-808d-7a29f00ac751","ios":"levelo://app?vid=4af23175-3cc8-4f7a-808d-7a29f00ac751"},"vehicle_type_id":"4","last_reported":1727726991,"current_range_meters":38800,"station_id":"ce4bh9p2rcd13ifvqed0","pricing_plan_id":"cebpf4jnsgd1na2vs0mg"},{"bike_id":"200aa04e-f79b-4fe5-8b0a-3eb015db56e1","system_id":"levelo_inurba_marseille","lat":43.28665,"lon":5.38667,"is_reserved":false,"is_disabled":false,"rental_uris":{"android":"levelo://app?vid=200aa04e-f79b-4fe5-8b0a-3eb015db56e1","ios":"levelo://app?vid=200aa04e-f79b-4fe5-8b0a-3eb015db56e1"},"vehicle_type_id":"4","last_reported":1727726991,"current_range_meters":38800,"station_id":"ce4bh492rcd13ifvqdug","pricing_plan_id":"cebpf4jnsgd1na2vs0mg"},{"bike_id":"5da57b22-3ba2-4b50-a433-4bb78b8882bb","system_id":"levelo_inurba_marseille","lat":43.29034,"lon":5.35928,"is_reserved":false,"is_disabled":false,"rental_uris":{"android":"levelo://app?vid=5da57b22-3ba2-4b50-a433-4bb78b8882bb","ios":"levelo://app?vid=5da57b22-3ba2-4b50-a433-4bb78b8882bb"},"vehicle_type_id":"4","last_reported":1727726991,"current_range_meters":22400,"station_id":"ce4bha92rcd13ifvqeg0","pricing_plan_id":"cebpf4jnsgd1na2vs0mg"},{"bike_id":"d106df73-0f94-4ce9-b9fe-3f7e7fa30584","system_id":"levelo_inurba_marseille","lat":43.29513,"lon":5.39403,"is_reserved":false,"is_disabled":false,"rental_uris":{"android":"levelo://app?vid=d106df73-0f94-4ce9-b9fe-3f7e7fa30584","ios":"levelo://app?vid=d106df73-0f94-4ce9-b9fe-3f7e7fa30584"},"vehicle_type_id":"4","last_reported":1727726991,"current_range_meters":16400,"station_id":"ce4bh292rcd13ifvqdf0","pricing_plan_id":"cebpf4jnsgd1na2vs0mg"},{"bike_id":"7a284d2e-891e-4934-a2d8-35ead42df942","system_id":"levelo_inurba_marseille","lat":43.32318,"lon":5.3829,"is_reserved":false,"is_disabled":false,"rental_uris":{"android":"levelo://app?vid=7a284d2e-891e-4934-a2d8-35ead42df942","ios":"levelo://app?vid=7a284d2e-891e-4934-a2d8-35ead42df942"},"vehicle_type_id":"4","last_reported":1727726991,"current_range_meters":32000,"station_id":"ce4bhr12rcd13ifvqhqg","pricing_plan_id":"cebpf4jnsgd1na2vs0mg"},{"bike_id":"4116889f-8997-4f72-ae46-395fedba52f2","system_id":"levelo_inurba_marseille","lat":43.28685,"lon":5.38653,"is_reserved":false,"is_disabled":false,"rental_uris":{"android":"levelo://app?vid=4116889f-8997-4f72-ae46-395fedba52f2","ios":"levelo://app?vid=4116889f-8997-4f72-ae46-395fedba52f2"},"vehicle_type_id":"4","last_reported":1727726991,"current_range_meters":21600,"station_id":"ce4bh492rcd13ifvqdug","pricing_plan_id":"cebpf4jnsgd1na2vs0mg"},{"bike_id":"be5c1af7-fb3a-4132-b59e-f330cb06ffdb","system_id":"levelo_inurba_marseille","lat":43.29783,"lon":5.39338,"is_reserved":false,"is_disabled":false,"rental_uris":{"android":"levelo://app?vid=be5c1af7-fb3a-4132-b59e-f330cb06ffdb","ios":"levelo://app?vid=be5c1af7-fb3a-4132-b59e-f330cb06ffdb"},"vehicle_type_id":"4","last_reported":1727726991,"current_range_meters":33200,"station_id":"chh1huq6cuj3fo74tm60","pricing_plan_id":"cebpf4jnsgd1na2vs0mg"},{"bike_id":"ba9137c7-ff54-4c3f-8bdb-39789915907a","system_id":"levelo_inurba_marseille","lat":43.27614,"lon":5.36121,"is_reserved":false,"is_disabled":false,"rental_uris":{"android":"levelo://app?vid=ba9137c7-ff54-4c3f-8bdb-39789915907a","ios":"levelo://app?vid=ba9137c7-ff54-4c3f-8bdb-39789915907a"},"vehicle_type_id":"4","last_reported":1727726991,"current_range_meters":38800,"station_id":"ce4bgj92rcd13ifvqbe0","pricing_plan_id":"cebpf4jnsgd1na2vs0mg"},{"bike_id":"4c7e3c0d-4983-42af-ba97-4d8f2a1c7ae5","system_id":"levelo_inurba_marseille","lat":43.31994,"lon":5.38155,"is_reserved":false,"is_disabled":false,"rental_uris":{"android":"levelo://app?vid=4c7e3c0d-4983-42af-ba97-4d8f2a1c7ae5","ios":"levelo://app?vid=4c7e3c0d-4983-42af-ba97-4d8f2a1c7ae5"},"vehicle_type_id":"4","last_reported":1727726991,"current_range_meters":38000,"station_id":"ce4bhr12rcd13ifvqhpg","pricing_plan_id":"cebpf4jnsgd1na2vs0mg"},{"bike_id":"f3796b83-d0ff-4e28-ab91-f20a8aacf6fc","system_id":"levelo_inurba_marseille","lat":43.28726,"lon":5.36099,"is_reserved":false,"is_disabled":false,"rental_uris":{"android":"levelo://app?vid=f3796b83-d0ff-4e28-ab91-f20a8aacf6fc","ios":"levelo://app?vid=f3796b83-d0ff-4e28-ab91-f20a8aacf6fc"},"vehicle_type_id":"4","last_reported":1727726991,"current_range_meters":38000,"station_id":"cki0cbj6b192h4jlfktg","pricing_plan_id":"cebpf4jnsgd1na2vs0mg"},{"bike_id":"1d1d1a16-1984-42f5-ba4e-f8ba3dc649e0","system_id":"levelo_inurba_marseille","lat":43.31756,"lon":5.39015,"is_reserved":false,"is_disabled":false,"rental_uris":{"android":"levelo://app?vid=1d1d1a16-1984-42f5-ba4e-f8ba3dc649e0","ios":"levelo://app?vid=1d1d1a16-1984-42f5-ba4e-f8ba3dc649e0"},"vehicle_type_id":"4","last_reported":1727726991,"current_range_meters":14800,"station_id":"ce4bhqp2rcd13ifvqhng","pricing_plan_id":"cebpf4jnsgd1na2vs0mg"},{"bike_id":"5dbf8eb5-61aa-4f3c-ae3e-9d25cdeafbe1","system_id":"levelo_inurba_marseille","lat":43.31995,"lon":5.38156,"is_reserved":false,"is_disabled":false,"rental_uris":{"android":"levelo://app?vid=5dbf8eb5-61aa-4f3c-ae3e-9d25cdeafbe1","ios":"levelo://app?vid=5dbf8eb5-61aa-4f3c-ae3e-9d25cdeafbe1"},"vehicle_type_id":"4","last_reported":1727726991,"current_range_meters":8000,"station_id":"ce4bhr12rcd13ifvqhpg","pricing_plan_id":"cebpf4jnsgd1na2vs0mg"},{"bike_id":"7ee4aaa0-1dc7-42f7-b8f0-fe59d387c7cf","system_id":"levelo_inurba_marseille","lat":43.28733,"lon":5.37942,"is_reserved":false,"is_disabled":false,"rental_uris":{"android":"levelo://app?vid=7ee4aaa0-1dc7-42f7-b8f0-fe59d387c7cf","ios":"levelo://app?vid=7ee4aaa0-1dc7-42f7-b8f0-fe59d387c7cf"},"vehicle_type_id":"4","last_reported":1727726991,"current_range_meters":2800,"station_id":"ce4bh9p2rcd13ifvqec0","pricing_plan_id":"cebpf4jnsgd1na2vs0mg"},{"bike_id":"ada71883-4a66-4523-b9de-ac95acea5059","system_id":"levelo_inurba_marseille","lat":43.30805,"lon":5.43523,"is_reserved":false,"is_disabled":false,"rental_uris":{"android":"levelo://app?vid=ada71883-4a66-4523-b9de-ac95acea5059","ios":"levelo://app?vid=ada71883-4a66-4523-b9de-ac95acea5059"},"vehicle_type_id":"4","last_reported":1727726991,"current_range_meters":38400,"station_id":"ce4bhph2rcd13ifvqheg","pricing_plan_id":"cebpf4jnsgd1na2vs0mg"},{"bike_id":"a8424194-7f1e-4414-a3da-034bae915713","system_id":"levelo_inurba_marseille","lat":43.25497,"lon":5.37654,"is_reserved":false,"is_disabled":false,"rental_uris":{"android":"levelo://app?vid=a8424194-7f1e-4414-a3da-034bae915713","ios":"levelo://app?vid=a8424194-7f1e-4414-a3da-034bae915713"},"vehicle_type_id":"4","last_reported":1727726991,"current_range_meters":38800,"station_id":"ce4bhh12rcd13ifvqff0","pricing_plan_id":"cebpf4jnsgd1na2vs0mg"},{"bike_id":"5d34d44a-5657-4046-9997-746fa7323ea5","system_id":"levelo_inurba_marseille","lat":43.3255,"lon":5.41426,"is_reserved":false,"is_disabled":false,"rental_uris":{"android":"levelo://app?vid=5d34d44a-5657-4046-9997-746fa7323ea5","ios":"levelo://app?vid=5d34d44a-5657-4046-9997-746fa7323ea5"},"vehicle_type_id":"4","last_reported":1727726991,"current_range_meters":38800,"station_id":"ce4bhq12rcd13ifvqhhg","pricing_plan_id":"cebpf4jnsgd1na2vs0mg"},{"bike_id":"d4a200a5-71be-4e4f-996b-05c824b6ae83","system_id":"levelo_inurba_marseille","lat":43.28721,"lon":5.36086,"is_reserved":false,"is_disabled":false,"rental_uris":{"android":"levelo://app?vid=d4a200a5-71be-4e4f-996b-05c824b6ae83","ios":"levelo://app?vid=d4a200a5-71be-4e4f-996b-05c824b6ae83"},"vehicle_type_id":"4","last_reported":1727726991,"current_range_meters":19600,"station_id":"cki0cbj6b192h4jlfktg","pricing_plan_id":"cebpf4jnsgd1na2vs0mg"},{"bike_id":"0025408f-f6c1-481f-9d54-9a4f4861dd4c","system_id":"levelo_inurba_marseille","lat":43.31267,"lon":5.40164,"is_reserved":false,"is_disabled":false,"rental_uris":{"android":"levelo://app?vid=0025408f-f6c1-481f-9d54-9a4f4861dd4c","ios":"levelo://app?vid=0025408f-f6c1-481f-9d54-9a4f4861dd4c"},"vehicle_type_id":"4","last_reported":1727726991,"current_range_meters":8000,"station_id":"ce4bh092rcd13ifvqd30","pricing_plan_id":"cebpf4jnsgd1na2vs0mg"},{"bike_id":"d00a5b9e-d35b-426c-8131-b2e47d66c79e","system_id":"levelo_inurba_marseille","lat":43.24998,"lon":5.38928,"is_reserved":false,"is_disabled":false,"rental_uris":{"android":"levelo://app?vid=d00a5b9e-d35b-426c-8131-b2e47d66c79e","ios":"levelo://app?vid=d00a5b9e-d35b-426c-8131-b2e47d66c79e"},"vehicle_type_id":"4","last_reported":1727726991,"current_range_meters":4000,"station_id":"ce4bhgp2rcd13ifvqfd0","pricing_plan_id":"cebpf4jnsgd1na2vs0mg"},{"bike_id":"0768601a-63fc-48b6-af0b-e3c24f752213","system_id":"levelo_inurba_marseille","lat":43.33721,"lon":5.39176,"is_reserved":false,"is_disabled":false,"rental_uris":{"android":"levelo://app?vid=0768601a-63fc-48b6-af0b-e3c24f752213","ios":"levelo://app?vid=0768601a-63fc-48b6-af0b-e3c24f752213"},"vehicle_type_id":"4","last_reported":1727726991,"current_range_meters":10000,"station_id":"ce4bhr92rcd13ifvqhsg","pricing_plan_id":"cebpf4jnsgd1na2vs0mg"},{"bike_id":"618db686-91bb-4b32-9421-264f1a14d91b","system_id":"levelo_inurba_marseille","lat":43.28571,"lon":5.39498,"is_reserved":false,"is_disabled":false,"rental_uris":{"android":"levelo://app?vid=618db686-91bb-4b32-9421-264f1a14d91b","ios":"levelo://app?vid=618db686-91bb-4b32-9421-264f1a14d91b"},"vehicle_type_id":"4","last_reported":1727726991,"current_range_meters":7200,"station_id":"ce4bh292rcd13ifvqdg0","pricing_plan_id":"cebpf4jnsgd1na2vs0mg"},{"bike_id":"cf66c5c3-b035-41ea-b09a-d8865193f0d8","system_id":"levelo_inurba_marseille","lat":43.29892,"lon":5.4367,"is_reserved":false,"is_disabled":false,"rental_uris":{"android":"levelo://app?vid=cf66c5c3-b035-41ea-b09a-d8865193f0d8","ios":"levelo://app?vid=cf66c5c3-b035-41ea-b09a-d8865193f0d8"},"vehicle_type_id":"4","last_reported":1727726991,"current_range_meters":23200,"station_id":"ce4bhpp2rcd13ifvqhfg","pricing_plan_id":"cebpf4jnsgd1na2vs0mg"},{"bike_id":"d9f489df-9243-48d6-803e-d5b5c7cf57e8","system_id":"levelo_inurba_marseille","lat":43.29873,"lon":5.38906,"is_reserved":false,"is_disabled":false,"rental_uris":{"android":"levelo://app?vid=d9f489df-9243-48d6-803e-d5b5c7cf57e8","ios":"levelo://app?vid=d9f489df-9243-48d6-803e-d5b5c7cf57e8"},"vehicle_type_id":"4","last_reported":1727726991,"current_range_meters":38400,"station_id":"ce4bh392rcd13ifvqdl0","pricing_plan_id":"cebpf4jnsgd1na2vs0mg"},{"bike_id":"e2daef4f-c38f-4a92-bfd2-cae3d37e0507","system_id":"levelo_inurba_marseille","lat":43.30952,"lon":5.39029,"is_reserved":false,"is_disabled":false,"rental_uris":{"android":"levelo://app?vid=e2daef4f-c38f-4a92-bfd2-cae3d37e0507","ios":"levelo://app?vid=e2daef4f-c38f-4a92-bfd2-cae3d37e0507"},"vehicle_type_id":"4","last_reported":1727726991,"current_range_meters":9600,"station_id":"ce4bgup2rcd13ifvqco0","pricing_plan_id":"cebpf4jnsgd1na2vs0mg"},{"bike_id":"b4a0b82e-1fcf-4557-aa67-bf49d229c3b0","system_id":"levelo_inurba_marseille","lat":43.32902,"lon":5.39072,"is_reserved":false,"is_disabled":false,"rental_uris":{"android":"levelo://app?vid=b4a0b82e-1fcf-4557-aa67-bf49d229c3b0","ios":"levelo://app?vid=b4a0b82e-1fcf-4557-aa67-bf49d229c3b0"},"vehicle_type_id":"4","last_reported":1727726991,"current_range_meters":30800,"station_id":"","pricing_plan_id":"cebpf4jnsgd1na2vs0mg"},{"bike_id":"6b536e9e-9206-4874-ad0a-1c1f34eafed3","system_id":"levelo_inurba_marseille","lat":43.2866,"lon":5.3867,"is_reserved":false,"is_disabled":false,"rental_uris":{"android":"levelo://app?vid=6b536e9e-9206-4874-ad0a-1c1f34eafed3","ios":"levelo://app?vid=6b536e9e-9206-4874-ad0a-1c1f34eafed3"},"vehicle_type_id":"4","last_reported":1727726991,"current_range_meters":38800,"station_id":"ce4bh492rcd13ifvqdug","pricing_plan_id":"cebpf4jnsgd1na2vs0mg"},{"bike_id":"ea86d9aa-3025-4e42-a879-d59d63acfa56","system_id":"levelo_inurba_marseille","lat":43.32369,"lon":5.38883,"is_reserved":false,"is_disabled":false,"rental_uris":{"android":"levelo://app?vid=ea86d9aa-3025-4e42-a879-d59d63acfa56","ios":"levelo://app?vid=ea86d9aa-3025-4e42-a879-d59d63acfa56"},"vehicle_type_id":"4","last_reported":1727726991,"current_range_meters":38800,"station_id":"ce4bhqp2rcd13ifvqhog","pricing_plan_id":"cebpf4jnsgd1na2vs0mg"},{"bike_id":"ed54aa23-e0ca-4b2a-a408-ff128af2b2ab","system_id":"levelo_inurba_marseille","lat":43.28418,"lon":5.34982,"is_reserved":false,"is_disabled":false,"rental_uris":{"android":"levelo://app?vid=ed54aa23-e0ca-4b2a-a408-ff128af2b2ab","ios":"levelo://app?vid=ed54aa23-e0ca-4b2a-a408-ff128af2b2ab"},"vehicle_type_id":"4","last_reported":1727726991,"current_range_meters":34000,"station_id":"ce4bhbh2rcd13ifvqepg","pricing_plan_id":"cebpf4jnsgd1na2vs0mg"},{"bike_id":"fd3d4aeb-070c-417a-9d53-991cbf630224","system_id":"levelo_inurba_marseille","lat":43.28984,"lon":5.37832,"is_reserved":false,"is_disabled":false,"rental_uris":{"android":"levelo://app?vid=fd3d4aeb-070c-417a-9d53-991cbf630224","ios":"levelo://app?vid=fd3d4aeb-070c-417a-9d53-991cbf630224"},"vehicle_type_id":"4","last_reported":1727726991,"current_range_meters":39200,"station_id":"ce4bh9p2rcd13ifvqed0","pricing_plan_id":"cebpf4jnsgd1na2vs0mg"},{"bike_id":"ba60c2fc-bffd-4998-baf7-69c030125203","system_id":"levelo_inurba_marseille","lat":43.31691,"lon":5.4047,"is_reserved":false,"is_disabled":false,"rental_uris":{"android":"levelo://app?vid=ba60c2fc-bffd-4998-baf7-69c030125203","ios":"levelo://app?vid=ba60c2fc-bffd-4998-baf7-69c030125203"},"vehicle_type_id":"4","last_reported":1727726991,"current_range_meters":8400,"station_id":"ce4bh012rcd13ifvqd00","pricing_plan_id":"cebpf4jnsgd1na2vs0mg"},{"bike_id":"252eed4b-d9b5-40ca-a9a7-2425c5c96f31","system_id":"levelo_inurba_marseille","lat":43.28448,"lon":5.35889,"is_reserved":false,"is_disabled":false,"rental_uris":{"android":"levelo://app?vid=252eed4b-d9b5-40ca-a9a7-2425c5c96f31","ios":"levelo://app?vid=252eed4b-d9b5-40ca-a9a7-2425c5c96f31"},"vehicle_type_id":"4","last_reported":1727726991,"current_range_meters":38800,"station_id":"ce4bhah2rcd13ifvqei0","pricing_plan_id":"cebpf4jnsgd1na2vs0mg"},{"bike_id":"8ea13cde-51fb-4987-8fdb-e7aea384b773","system_id":"levelo_inurba_marseille","lat":43.3171,"lon":5.43711,"is_reserved":false,"is_disabled":false,"rental_uris":{"android":"levelo://app?vid=8ea13cde-51fb-4987-8fdb-e7aea384b773","ios":"levelo://app?vid=8ea13cde-51fb-4987-8fdb-e7aea384b773"},"vehicle_type_id":"4","last_reported":1727726991,"current_range_meters":22400,"station_id":"ce4bhp92rcd13ifvqhcg","pricing_plan_id":"cebpf4jnsgd1na2vs0mg"},{"bike_id":"3f655a02-e7f6-40c0-b3e6-e090086e8054","system_id":"levelo_inurba_marseille","lat":43.28574,"lon":5.39497,"is_reserved":false,"is_disabled":false,"rental_uris":{"android":"levelo://app?vid=3f655a02-e7f6-40c0-b3e6-e090086e8054","ios":"levelo://app?vid=3f655a02-e7f6-40c0-b3e6-e090086e8054"},"vehicle_type_id":"4","last_reported":1727726991,"current_range_meters":35200,"station_id":"ce4bh292rcd13ifvqdg0","pricing_plan_id":"cebpf4jnsgd1na2vs0mg"},{"bike_id":"5ac7de0a-39bd-4b9f-9999-815ab1884985","system_id":"levelo_inurba_marseille","lat":43.29303,"lon":5.37182,"is_reserved":false,"is_disabled":false,"rental_uris":{"android":"levelo://app?vid=5ac7de0a-39bd-4b9f-9999-815ab1884985","ios":"levelo://app?vid=5ac7de0a-39bd-4b9f-9999-815ab1884985"},"vehicle_type_id":"4","last_reported":1727726991,"current_range_meters":33600,"station_id":"ce4bgh92rcd13ifvqb40","pricing_plan_id":"cebpf4jnsgd1na2vs0mg"},{"bike_id":"36e192f0-aa65-4c0c-b9da-eadca99f1bf9","system_id":"levelo_inurba_marseille","lat":43.2893,"lon":5.36402,"is_reserved":false,"is_disabled":false,"rental_uris":{"android":"levelo://app?vid=36e192f0-aa65-4c0c-b9da-eadca99f1bf9","ios":"levelo://app?vid=36e192f0-aa65-4c0c-b9da-eadca99f1bf9"},"vehicle_type_id":"4","last_reported":1727726991,"current_range_meters":22800,"station_id":"ce4bhc92rcd13ifvqetg","pricing_plan_id":"cebpf4jnsgd1na2vs0mg"},{"bike_id":"c003d568-5856-4726-b7bc-69c839a505b2","system_id":"levelo_inurba_marseille","lat":43.29528,"lon":5.39043,"is_reserved":false,"is_disabled":false,"rental_uris":{"android":"levelo://app?vid=c003d568-5856-4726-b7bc-69c839a505b2","ios":"levelo://app?vid=c003d568-5856-4726-b7bc-69c839a505b2"},"vehicle_type_id":"4","last_reported":1727726991,"current_range_meters":20000,"station_id":"ce4bh3p2rcd13ifvqdp0","pricing_plan_id":"cebpf4jnsgd1na2vs0mg"},{"bike_id":"7ca9a03e-5469-4981-b42c-d69f72ea598c","system_id":"levelo_inurba_marseille","lat":43.29781,"lon":5.39345,"is_reserved":false,"is_disabled":false,"rental_uris":{"android":"levelo://app?vid=7ca9a03e-5469-4981-b42c-d69f72ea598c","ios":"levelo://app?vid=7ca9a03e-5469-4981-b42c-d69f72ea598c"},"vehicle_type_id":"4","last_reported":1727726991,"current_range_meters":33200,"station_id":"chh1huq6cuj3fo74tm60","pricing_plan_id":"cebpf4jnsgd1na2vs0mg"},{"bike_id":"634ea072-51cb-416d-afd6-0d1b956f5964","system_id":"levelo_inurba_marseille","lat":43.26554,"lon":5.37283,"is_reserved":false,"is_disabled":false,"rental_uris":{"android":"levelo://app?vid=634ea072-51cb-416d-afd6-0d1b956f5964","ios":"levelo://app?vid=634ea072-51cb-416d-afd6-0d1b956f5964"},"vehicle_type_id":"4","last_reported":1727726991,"current_range_meters":38800,"station_id":"ce4bhg12rcd13ifvqf70","pricing_plan_id":"cebpf4jnsgd1na2vs0mg"},{"bike_id":"4c770817-26e4-4a2b-bd38-da034f596d80","system_id":"levelo_inurba_marseille","lat":43.27834,"lon":5.39202,"is_reserved":false,"is_disabled":false,"rental_uris":{"android":"levelo://app?vid=4c770817-26e4-4a2b-bd38-da034f596d80","ios":"levelo://app?vid=4c770817-26e4-4a2b-bd38-da034f596d80"},"vehicle_type_id":"4","last_reported":1727726991,"current_range_meters":8800,"station_id":"ce4bhjp2rcd13ifvqga0","pricing_plan_id":"cebpf4jnsgd1na2vs0mg"},{"bike_id":"b5d12c42-07bc-4fb6-847a-db804002b50a","system_id":"levelo_inurba_marseille","lat":43.31264,"lon":5.40175,"is_reserved":false,"is_disabled":false,"rental_uris":{"android":"levelo://app?vid=b5d12c42-07bc-4fb6-847a-db804002b50a","ios":"levelo://app?vid=b5d12c42-07bc-4fb6-847a-db804002b50a"},"vehicle_type_id":"4","last_reported":1727726991,"current_range_meters":32400,"station_id":"ce4bh092rcd13ifvqd30","pricing_plan_id":"cebpf4jnsgd1na2vs0mg"},{"bike_id":"055210df-409b-4ea3-a018-113184be0020","system_id":"levelo_inurba_marseille","lat":43.29534,"lon":5.39407,"is_reserved":false,"is_disabled":false,"rental_uris":{"android":"levelo://app?vid=055210df-409b-4ea3-a018-113184be0020","ios":"levelo://app?vid=055210df-409b-4ea3-a018-113184be0020"},"vehicle_type_id":"4","last_reported":1727726991,"current_range_meters":28400,"station_id":"ce4bh292rcd13ifvqdf0","pricing_plan_id":"cebpf4jnsgd1na2vs0mg"},{"bike_id":"adf7a01d-ac11-418a-b84d-2fd8ee25364e","system_id":"levelo_inurba_marseille","lat":43.2925,"lon":5.4092,"is_reserved":false,"is_disabled":false,"rental_uris":{"android":"levelo://app?vid=adf7a01d-ac11-418a-b84d-2fd8ee25364e","ios":"levelo://app?vid=adf7a01d-ac11-418a-b84d-2fd8ee25364e"},"vehicle_type_id":"4","last_reported":1727726991,"current_range_meters":28000,"station_id":"ce4bh192rcd13ifvqdc0","pricing_plan_id":"cebpf4jnsgd1na2vs0mg"},{"bike_id":"ff3321d0-5940-42b8-9fd8-ad85ac490d4e","system_id":"levelo_inurba_marseille","lat":43.26563,"lon":5.37296,"is_reserved":false,"is_disabled":false,"rental_uris":{"android":"levelo://app?vid=ff3321d0-5940-42b8-9fd8-ad85ac490d4e","ios":"levelo://app?vid=ff3321d0-5940-42b8-9fd8-ad85ac490d4e"},"vehicle_type_id":"4","last_reported":1727726991,"current_range_meters":10800,"station_id":"ce4bhg12rcd13ifvqf70","pricing_plan_id":"cebpf4jnsgd1na2vs0mg"},{"bike_id":"0c5c1d49-6bc4-4aef-b7dc-fe96a79fb417","system_id":"levelo_inurba_marseille","lat":43.28461,"lon":5.35886,"is_reserved":false,"is_disabled":false,"rental_uris":{"android":"levelo://app?vid=0c5c1d49-6bc4-4aef-b7dc-fe96a79fb417","ios":"levelo://app?vid=0c5c1d49-6bc4-4aef-b7dc-fe96a79fb417"},"vehicle_type_id":"4","last_reported":1727726991,"current_range_meters":4400,"station_id":"ce4bhah2rcd13ifvqei0","pricing_plan_id":"cebpf4jnsgd1na2vs0mg"},{"bike_id":"62b780a9-d119-45c8-9045-6c6da633ae0c","system_id":"levelo_inurba_marseille","lat":43.28366,"lon":5.381,"is_reserved":false,"is_disabled":false,"rental_uris":{"android":"levelo://app?vid=62b780a9-d119-45c8-9045-6c6da633ae0c","ios":"levelo://app?vid=62b780a9-d119-45c8-9045-6c6da633ae0c"},"vehicle_type_id":"4","last_reported":1727726991,"current_range_meters":8400,"station_id":"ce4bh412rcd13ifvqdr0","pricing_plan_id":"cebpf4jnsgd1na2vs0mg"},{"bike_id":"265d8991-ef8a-41ae-b8c2-defbead08554","system_id":"levelo_inurba_marseille","lat":43.31678,"lon":5.40476,"is_reserved":false,"is_disabled":false,"rental_uris":{"android":"levelo://app?vid=265d8991-ef8a-41ae-b8c2-defbead08554","ios":"levelo://app?vid=265d8991-ef8a-41ae-b8c2-defbead08554"},"vehicle_type_id":"4","last_reported":1727726991,"current_range_meters":27200,"station_id":"ce4bh012rcd13ifvqd00","pricing_plan_id":"cebpf4jnsgd1na2vs0mg"},{"bike_id":"fce30daf-f7a3-4fa0-bcb9-9b59bed2038f","system_id":"levelo_inurba_marseille","lat":43.28677,"lon":5.38667,"is_reserved":false,"is_disabled":false,"rental_uris":{"android":"levelo://app?vid=fce30daf-f7a3-4fa0-bcb9-9b59bed2038f","ios":"levelo://app?vid=fce30daf-f7a3-4fa0-bcb9-9b59bed2038f"},"vehicle_type_id":"4","last_reported":1727726991,"current_range_meters":13600,"station_id":"ce4bh492rcd13ifvqdug","pricing_plan_id":"cebpf4jnsgd1na2vs0mg"},{"bike_id":"db34d7e9-2df0-47f8-9e6c-32164f904928","system_id":"levelo_inurba_marseille","lat":43.29512,"lon":5.39403,"is_reserved":false,"is_disabled":false,"rental_uris":{"android":"levelo://app?vid=db34d7e9-2df0-47f8-9e6c-32164f904928","ios":"levelo://app?vid=db34d7e9-2df0-47f8-9e6c-32164f904928"},"vehicle_type_id":"4","last_reported":1727726991,"current_range_meters":26800,"station_id":"ce4bh292rcd13ifvqdf0","pricing_plan_id":"cebpf4jnsgd1na2vs0mg"},{"bike_id":"ee4b0160-15c4-4141-9c7a-16e047c14938","system_id":"levelo_inurba_marseille","lat":43.31407,"lon":5.38188,"is_reserved":false,"is_disabled":false,"rental_uris":{"android":"levelo://app?vid=ee4b0160-15c4-4141-9c7a-16e047c14938","ios":"levelo://app?vid=ee4b0160-15c4-4141-9c7a-16e047c14938"},"vehicle_type_id":"4","last_reported":1727726991,"current_range_meters":17600,"station_id":"","pricing_plan_id":"cebpf4jnsgd1na2vs0mg"},{"bike_id":"d995d233-d2fe-4db9-b69b-baa1337469bf","system_id":"levelo_inurba_marseille","lat":43.26715,"lon":5.40137,"is_reserved":false,"is_disabled":false,"rental_uris":{"android":"levelo://app?vid=d995d233-d2fe-4db9-b69b-baa1337469bf","ios":"levelo://app?vid=d995d233-d2fe-4db9-b69b-baa1337469bf"},"vehicle_type_id":"4","last_reported":1727726991,"current_range_meters":17200,"station_id":"ce4bhm92rcd13ifvqglg","pricing_plan_id":"cebpf4jnsgd1na2vs0mg"},{"bike_id":"2dcb04b6-a54e-4abd-a7e5-50e715bd8a75","system_id":"levelo_inurba_marseille","lat":43.26948,"lon":5.38626,"is_reserved":false,"is_disabled":false,"rental_uris":{"android":"levelo://app?vid=2dcb04b6-a54e-4abd-a7e5-50e715bd8a75","ios":"levelo://app?vid=2dcb04b6-a54e-4abd-a7e5-50e715bd8a75"},"vehicle_type_id":"4","last_reported":1727726991,"current_range_meters":38400,"station_id":"ce4bhh92rcd13ifvqfh0","pricing_plan_id":"cebpf4jnsgd1na2vs0mg"},{"bike_id":"7efd4502-9028-4534-8a5a-b236283648c9","system_id":"levelo_inurba_marseille","lat":43.31755,"lon":5.39009,"is_reserved":false,"is_disabled":false,"rental_uris":{"android":"levelo://app?vid=7efd4502-9028-4534-8a5a-b236283648c9","ios":"levelo://app?vid=7efd4502-9028-4534-8a5a-b236283648c9"},"vehicle_type_id":"4","last_reported":1727726991,"current_range_meters":39200,"station_id":"ce4bhqp2rcd13ifvqhng","pricing_plan_id":"cebpf4jnsgd1na2vs0mg"},{"bike_id":"b652f429-09b8-4697-9c1b-3b9adc3c55d8","system_id":"levelo_inurba_marseille","lat":43.26871,"lon":5.39135,"is_reserved":false,"is_disabled":false,"rental_uris":{"android":"levelo://app?vid=b652f429-09b8-4697-9c1b-3b9adc3c55d8","ios":"levelo://app?vid=b652f429-09b8-4697-9c1b-3b9adc3c55d8"},"vehicle_type_id":"4","last_reported":1727726991,"current_range_meters":10000,"station_id":"","pricing_plan_id":"cebpf4jnsgd1na2vs0mg"},{"bike_id":"11177cfa-2f4f-4a0e-b4d1-daf8a3d9ea88","system_id":"levelo_inurba_marseille","lat":43.31062,"lon":5.38347,"is_reserved":false,"is_disabled":false,"rental_uris":{"android":"levelo://app?vid=11177cfa-2f4f-4a0e-b4d1-daf8a3d9ea88","ios":"levelo://app?vid=11177cfa-2f4f-4a0e-b4d1-daf8a3d9ea88"},"vehicle_type_id":"4","last_reported":1727726991,"current_range_meters":38800,"station_id":"ce4bgv92rcd13ifvqcr0","pricing_plan_id":"cebpf4jnsgd1na2vs0mg"},{"bike_id":"3b01237e-5f02-455a-ae65-19ee4e424789","system_id":"levelo_inurba_marseille","lat":43.28976,"lon":5.37838,"is_reserved":false,"is_disabled":false,"rental_uris":{"android":"levelo://app?vid=3b01237e-5f02-455a-ae65-19ee4e424789","ios":"levelo://app?vid=3b01237e-5f02-455a-ae65-19ee4e424789"},"vehicle_type_id":"4","last_reported":1727726991,"current_range_meters":20400,"station_id":"ce4bh9p2rcd13ifvqed0","pricing_plan_id":"cebpf4jnsgd1na2vs0mg"},{"bike_id":"d574ad3f-2414-4261-b310-50526248bdcb","system_id":"levelo_inurba_marseille","lat":43.29533,"lon":5.38545,"is_reserved":false,"is_disabled":false,"rental_uris":{"android":"levelo://app?vid=d574ad3f-2414-4261-b310-50526248bdcb","ios":"levelo://app?vid=d574ad3f-2414-4261-b310-50526248bdcb"},"vehicle_type_id":"4","last_reported":1727726991,"current_range_meters":39200,"station_id":"ce4bgih2rcd13ifvqba0","pricing_plan_id":"cebpf4jnsgd1na2vs0mg"},{"bike_id":"9535a422-21bd-4d3b-82ec-0ddd79cceaee","system_id":"levelo_inurba_marseille","lat":43.24479,"lon":5.37256,"is_reserved":false,"is_disabled":false,"rental_uris":{"android":"levelo://app?vid=9535a422-21bd-4d3b-82ec-0ddd79cceaee","ios":"levelo://app?vid=9535a422-21bd-4d3b-82ec-0ddd79cceaee"},"vehicle_type_id":"4","last_reported":1727726991,"current_range_meters":12800,"station_id":"","pricing_plan_id":"cebpf4jnsgd1na2vs0mg"},{"bike_id":"3d0fedc9-7688-408e-b497-e4629a55bdac","system_id":"levelo_inurba_marseille","lat":43.29938,"lon":5.37195,"is_reserved":false,"is_disabled":false,"rental_uris":{"android":"levelo://app?vid=3d0fedc9-7688-408e-b497-e4629a55bdac","ios":"levelo://app?vid=3d0fedc9-7688-408e-b497-e4629a55bdac"},"vehicle_type_id":"4","last_reported":1727726991,"current_range_meters":20400,"station_id":"ce4bgr92rcd13ifvqc7g","pricing_plan_id":"cebpf4jnsgd1na2vs0mg"},{"bike_id":"cb1a149b-001c-4af8-80d6-ad104abb737a","system_id":"levelo_inurba_marseille","lat":43.29189,"lon":5.39313,"is_reserved":false,"is_disabled":false,"rental_uris":{"android":"levelo://app?vid=cb1a149b-001c-4af8-80d6-ad104abb737a","ios":"levelo://app?vid=cb1a149b-001c-4af8-80d6-ad104abb737a"},"vehicle_type_id":"4","last_reported":1727726991,"current_range_meters":38800,"station_id":"ce4bh192rcd13ifvqdd0","pricing_plan_id":"cebpf4jnsgd1na2vs0mg"},{"bike_id":"501061ae-0e07-408f-ba4d-5e9df87b6299","system_id":"levelo_inurba_marseille","lat":43.27073,"lon":5.42282,"is_reserved":false,"is_disabled":false,"rental_uris":{"android":"levelo://app?vid=501061ae-0e07-408f-ba4d-5e9df87b6299","ios":"levelo://app?vid=501061ae-0e07-408f-ba4d-5e9df87b6299"},"vehicle_type_id":"4","last_reported":1727726991,"current_range_meters":24800,"station_id":"ce4bhk92rcd13ifvqgb0","pricing_plan_id":"cebpf4jnsgd1na2vs0mg"},{"bike_id":"3a42a6e4-0a92-438f-b76b-a969ec79faec","system_id":"levelo_inurba_marseille","lat":43.28367,"lon":5.37292,"is_reserved":false,"is_disabled":false,"rental_uris":{"android":"levelo://app?vid=3a42a6e4-0a92-438f-b76b-a969ec79faec","ios":"levelo://app?vid=3a42a6e4-0a92-438f-b76b-a969ec79faec"},"vehicle_type_id":"4","last_reported":1727726991,"current_range_meters":3600,"station_id":"","pricing_plan_id":"cebpf4jnsgd1na2vs0mg"},{"bike_id":"ce865a1a-6d84-4642-b6a8-718ff5f00af0","system_id":"levelo_inurba_marseille","lat":43.28458,"lon":5.35896,"is_reserved":false,"is_disabled":false,"rental_uris":{"android":"levelo://app?vid=ce865a1a-6d84-4642-b6a8-718ff5f00af0","ios":"levelo://app?vid=ce865a1a-6d84-4642-b6a8-718ff5f00af0"},"vehicle_type_id":"4","last_reported":1727726991,"current_range_meters":38800,"station_id":"ce4bhah2rcd13ifvqei0","pricing_plan_id":"cebpf4jnsgd1na2vs0mg"},{"bike_id":"2869ef24-a9c2-4743-ad6a-16cca3db72b7","system_id":"levelo_inurba_marseille","lat":43.28459,"lon":5.35895,"is_reserved":false,"is_disabled":false,"rental_uris":{"android":"levelo://app?vid=2869ef24-a9c2-4743-ad6a-16cca3db72b7","ios":"levelo://app?vid=2869ef24-a9c2-4743-ad6a-16cca3db72b7"},"vehicle_type_id":"4","last_reported":1727726991,"current_range_meters":32400,"station_id":"ce4bhah2rcd13ifvqei0","pricing_plan_id":"cebpf4jnsgd1na2vs0mg"},{"bike_id":"f36af4c6-b048-48f1-acc4-3fdd909df478","system_id":"levelo_inurba_marseille","lat":43.30645,"lon":5.4009,"is_reserved":false,"is_disabled":false,"rental_uris":{"android":"levelo://app?vid=f36af4c6-b048-48f1-acc4-3fdd909df478","ios":"levelo://app?vid=f36af4c6-b048-48f1-acc4-3fdd909df478"},"vehicle_type_id":"4","last_reported":1727726991,"current_range_meters":22000,"station_id":"ce4bh112rcd13ifvqda0","pricing_plan_id":"cebpf4jnsgd1na2vs0mg"},{"bike_id":"54a4bd7d-3cdd-4d4c-ba96-ba66a161311d","system_id":"levelo_inurba_marseille","lat":43.33027,"lon":5.39385,"is_reserved":false,"is_disabled":false,"rental_uris":{"android":"levelo://app?vid=54a4bd7d-3cdd-4d4c-ba96-ba66a161311d","ios":"levelo://app?vid=54a4bd7d-3cdd-4d4c-ba96-ba66a161311d"},"vehicle_type_id":"4","last_reported":1727726991,"current_range_meters":35200,"station_id":"","pricing_plan_id":"cebpf4jnsgd1na2vs0mg"},{"bike_id":"88bc6409-e51c-4b9c-88b5-3d3c5c3a5cf0","system_id":"levelo_inurba_marseille","lat":43.28456,"lon":5.35898,"is_reserved":false,"is_disabled":false,"rental_uris":{"android":"levelo://app?vid=88bc6409-e51c-4b9c-88b5-3d3c5c3a5cf0","ios":"levelo://app?vid=88bc6409-e51c-4b9c-88b5-3d3c5c3a5cf0"},"vehicle_type_id":"4","last_reported":1727726991,"current_range_meters":34000,"station_id":"ce4bhah2rcd13ifvqei0","pricing_plan_id":"cebpf4jnsgd1na2vs0mg"},{"bike_id":"277a0b50-6632-43ea-8256-8c1652c4cb2c","system_id":"levelo_inurba_marseille","lat":43.2893,"lon":5.38391,"is_reserved":false,"is_disabled":false,"rental_uris":{"android":"levelo://app?vid=277a0b50-6632-43ea-8256-8c1652c4cb2c","ios":"levelo://app?vid=277a0b50-6632-43ea-8256-8c1652c4cb2c"},"vehicle_type_id":"4","last_reported":1727726991,"current_range_meters":38800,"station_id":"ce4bh612rcd13ifvqe6g","pricing_plan_id":"cebpf4jnsgd1na2vs0mg"},{"bike_id":"edc8fd59-f02b-4117-881e-c3f94441fed4","system_id":"levelo_inurba_marseille","lat":43.29773,"lon":5.39339,"is_reserved":false,"is_disabled":false,"rental_uris":{"android":"levelo://app?vid=edc8fd59-f02b-4117-881e-c3f94441fed4","ios":"levelo://app?vid=edc8fd59-f02b-4117-881e-c3f94441fed4"},"vehicle_type_id":"4","last_reported":1727726991,"current_range_meters":38800,"station_id":"chh1huq6cuj3fo74tm60","pricing_plan_id":"cebpf4jnsgd1na2vs0mg"},{"bike_id":"626930fa-0b92-4d3c-b62a-91b9f1e92657","system_id":"levelo_inurba_marseille","lat":43.24666,"lon":5.38163,"is_reserved":false,"is_disabled":false,"rental_uris":{"android":"levelo://app?vid=626930fa-0b92-4d3c-b62a-91b9f1e92657","ios":"levelo://app?vid=626930fa-0b92-4d3c-b62a-91b9f1e92657"},"vehicle_type_id":"4","last_reported":1727726991,"current_range_meters":3200,"station_id":"ce4bhih2rcd13ifvqfr0","pricing_plan_id":"cebpf4jnsgd1na2vs0mg"},{"bike_id":"5122379c-5b6a-4c2e-97c3-6ecb28531e6c","system_id":"levelo_inurba_marseille","lat":43.29627,"lon":5.40598,"is_reserved":false,"is_disabled":false,"rental_uris":{"android":"levelo://app?vid=5122379c-5b6a-4c2e-97c3-6ecb28531e6c","ios":"levelo://app?vid=5122379c-5b6a-4c2e-97c3-6ecb28531e6c"},"vehicle_type_id":"4","last_reported":1727726991,"current_range_meters":29600,"station_id":"ce4bh0h2rcd13ifvqd60","pricing_plan_id":"cebpf4jnsgd1na2vs0mg"},{"bike_id":"d1ba76a3-07d1-42a1-8d77-80b55ad5d71e","system_id":"levelo_inurba_marseille","lat":43.296326,"lon":5.37167,"is_reserved":false,"is_disabled":false,"rental_uris":{"android":"levelo://app?vid=d1ba76a3-07d1-42a1-8d77-80b55ad5d71e","ios":"levelo://app?vid=d1ba76a3-07d1-42a1-8d77-80b55ad5d71e"},"vehicle_type_id":"4","last_reported":1727726991,"current_range_meters":34000,"station_id":"ce4bgnh2rcd13ifvqc0g","pricing_plan_id":"cebpf4jnsgd1na2vs0mg"},{"bike_id":"b65e26fd-4436-42b6-869d-ffed6ad30e88","system_id":"levelo_inurba_marseille","lat":43.32364,"lon":5.38884,"is_reserved":false,"is_disabled":false,"rental_uris":{"android":"levelo://app?vid=b65e26fd-4436-42b6-869d-ffed6ad30e88","ios":"levelo://app?vid=b65e26fd-4436-42b6-869d-ffed6ad30e88"},"vehicle_type_id":"4","last_reported":1727726991,"current_range_meters":18000,"station_id":"ce4bhqp2rcd13ifvqhog","pricing_plan_id":"cebpf4jnsgd1na2vs0mg"},{"bike_id":"580df9a4-f20b-43c8-a2a0-d8a9dfc82c87","system_id":"levelo_inurba_marseille","lat":43.29511,"lon":5.39042,"is_reserved":false,"is_disabled":false,"rental_uris":{"android":"levelo://app?vid=580df9a4-f20b-43c8-a2a0-d8a9dfc82c87","ios":"levelo://app?vid=580df9a4-f20b-43c8-a2a0-d8a9dfc82c87"},"vehicle_type_id":"4","last_reported":1727726991,"current_range_meters":38800,"station_id":"ce4bh3p2rcd13ifvqdp0","pricing_plan_id":"cebpf4jnsgd1na2vs0mg"},{"bike_id":"ed559e32-6194-4ff7-a1fd-e4dfd37c9e8f","system_id":"levelo_inurba_marseille","lat":43.27376,"lon":5.36256,"is_reserved":false,"is_disabled":false,"rental_uris":{"android":"levelo://app?vid=ed559e32-6194-4ff7-a1fd-e4dfd37c9e8f","ios":"levelo://app?vid=ed559e32-6194-4ff7-a1fd-e4dfd37c9e8f"},"vehicle_type_id":"4","last_reported":1727726991,"current_range_meters":38800,"station_id":"ce4bhbh2rcd13ifvqeo0","pricing_plan_id":"cebpf4jnsgd1na2vs0mg"},{"bike_id":"3c5e393b-5ad8-4edc-89b3-b96de532eb9f","system_id":"levelo_inurba_marseille","lat":43.29527,"lon":5.38538,"is_reserved":false,"is_disabled":false,"rental_uris":{"android":"levelo://app?vid=3c5e393b-5ad8-4edc-89b3-b96de532eb9f","ios":"levelo://app?vid=3c5e393b-5ad8-4edc-89b3-b96de532eb9f"},"vehicle_type_id":"4","last_reported":1727726991,"current_range_meters":38800,"station_id":"ce4bgih2rcd13ifvqba0","pricing_plan_id":"cebpf4jnsgd1na2vs0mg"},{"bike_id":"b2ed743b-9626-4bd4-a2a2-56f383be1759","system_id":"levelo_inurba_marseille","lat":43.29552,"lon":5.42289,"is_reserved":false,"is_disabled":false,"rental_uris":{"android":"levelo://app?vid=b2ed743b-9626-4bd4-a2a2-56f383be1759","ios":"levelo://app?vid=b2ed743b-9626-4bd4-a2a2-56f383be1759"},"vehicle_type_id":"4","last_reported":1727726991,"current_range_meters":16400,"station_id":"ce4bhph2rcd13ifvqhdg","pricing_plan_id":"cebpf4jnsgd1na2vs0mg"},{"bike_id":"8fbf57a2-609d-4ed5-a063-767706aa7346","system_id":"levelo_inurba_marseille","lat":43.28726,"lon":5.37948,"is_reserved":false,"is_disabled":false,"rental_uris":{"android":"levelo://app?vid=8fbf57a2-609d-4ed5-a063-767706aa7346","ios":"levelo://app?vid=8fbf57a2-609d-4ed5-a063-767706aa7346"},"vehicle_type_id":"4","last_reported":1727726991,"current_range_meters":39200,"station_id":"ce4bh9p2rcd13ifvqec0","pricing_plan_id":"cebpf4jnsgd1na2vs0mg"},{"bike_id":"2dacaa4c-a8ce-4b9e-a0a5-5d5e889bbae0","system_id":"levelo_inurba_marseille","lat":43.28856,"lon":5.35856,"is_reserved":false,"is_disabled":false,"rental_uris":{"android":"levelo://app?vid=2dacaa4c-a8ce-4b9e-a0a5-5d5e889bbae0","ios":"levelo://app?vid=2dacaa4c-a8ce-4b9e-a0a5-5d5e889bbae0"},"vehicle_type_id":"4","last_reported":1727726991,"current_range_meters":6800,"station_id":"ce4bhb12rcd13ifvqem0","pricing_plan_id":"cebpf4jnsgd1na2vs0mg"},{"bike_id":"310586a2-3827-41b0-860f-34a70ac9e7f4","system_id":"levelo_inurba_marseille","lat":43.29896,"lon":5.43669,"is_reserved":false,"is_disabled":false,"rental_uris":{"android":"levelo://app?vid=310586a2-3827-41b0-860f-34a70ac9e7f4","ios":"levelo://app?vid=310586a2-3827-41b0-860f-34a70ac9e7f4"},"vehicle_type_id":"4","last_reported":1727726991,"current_range_meters":20400,"station_id":"ce4bhpp2rcd13ifvqhfg","pricing_plan_id":"cebpf4jnsgd1na2vs0mg"},{"bike_id":"18354a97-2a1f-47bd-b525-a3d682496f94","system_id":"levelo_inurba_marseille","lat":43.28006,"lon":5.40016,"is_reserved":false,"is_disabled":false,"rental_uris":{"android":"levelo://app?vid=18354a97-2a1f-47bd-b525-a3d682496f94","ios":"levelo://app?vid=18354a97-2a1f-47bd-b525-a3d682496f94"},"vehicle_type_id":"4","last_reported":1727726991,"current_range_meters":8800,"station_id":"ce4bho92rcd13ifvqh4g","pricing_plan_id":"cebpf4jnsgd1na2vs0mg"},{"bike_id":"460ff93a-bc15-438b-8d30-bb576d633faf","system_id":"levelo_inurba_marseille","lat":43.32266,"lon":5.38666,"is_reserved":false,"is_disabled":false,"rental_uris":{"android":"levelo://app?vid=460ff93a-bc15-438b-8d30-bb576d633faf","ios":"levelo://app?vid=460ff93a-bc15-438b-8d30-bb576d633faf"},"vehicle_type_id":"4","last_reported":1727726991,"current_range_meters":27200,"station_id":"","pricing_plan_id":"cebpf4jnsgd1na2vs0mg"},{"bike_id":"378ba320-ac32-4abf-8e49-d3a4d70036ab","system_id":"levelo_inurba_marseille","lat":43.31756,"lon":5.39016,"is_reserved":false,"is_disabled":false,"rental_uris":{"android":"levelo://app?vid=378ba320-ac32-4abf-8e49-d3a4d70036ab","ios":"levelo://app?vid=378ba320-ac32-4abf-8e49-d3a4d70036ab"},"vehicle_type_id":"4","last_reported":1727726991,"current_range_meters":38800,"station_id":"ce4bhqp2rcd13ifvqhng","pricing_plan_id":"cebpf4jnsgd1na2vs0mg"},{"bike_id":"ccf9de99-62e1-4570-b524-ac66f861159b","system_id":"levelo_inurba_marseille","lat":43.29932,"lon":5.36558,"is_reserved":false,"is_disabled":false,"rental_uris":{"android":"levelo://app?vid=ccf9de99-62e1-4570-b524-ac66f861159b","ios":"levelo://app?vid=ccf9de99-62e1-4570-b524-ac66f861159b"},"vehicle_type_id":"4","last_reported":1727726991,"current_range_meters":18800,"station_id":"ce4bgm92rcd13ifvqbr0","pricing_plan_id":"cebpf4jnsgd1na2vs0mg"},{"bike_id":"c854d3e4-0fef-4652-b425-4cc634ac9fe5","system_id":"levelo_inurba_marseille","lat":43.31708,"lon":5.43706,"is_reserved":false,"is_disabled":false,"rental_uris":{"android":"levelo://app?vid=c854d3e4-0fef-4652-b425-4cc634ac9fe5","ios":"levelo://app?vid=c854d3e4-0fef-4652-b425-4cc634ac9fe5"},"vehicle_type_id":"4","last_reported":1727726991,"current_range_meters":6800,"station_id":"ce4bhp92rcd13ifvqhcg","pricing_plan_id":"cebpf4jnsgd1na2vs0mg"},{"bike_id":"689f1662-22e9-4367-8cfa-1364af11698f","system_id":"levelo_inurba_marseille","lat":43.26202,"lon":5.37923,"is_reserved":false,"is_disabled":false,"rental_uris":{"android":"levelo://app?vid=689f1662-22e9-4367-8cfa-1364af11698f","ios":"levelo://app?vid=689f1662-22e9-4367-8cfa-1364af11698f"},"vehicle_type_id":"4","last_reported":1727726991,"current_range_meters":38800,"station_id":"ce4bhjp2rcd13ifvqg90","pricing_plan_id":"cebpf4jnsgd1na2vs0mg"},{"bike_id":"ba1633a0-e81d-4e74-99c5-7a2d1de1662c","system_id":"levelo_inurba_marseille","lat":43.29031,"lon":5.38638,"is_reserved":false,"is_disabled":false,"rental_uris":{"android":"levelo://app?vid=ba1633a0-e81d-4e74-99c5-7a2d1de1662c","ios":"levelo://app?vid=ba1633a0-e81d-4e74-99c5-7a2d1de1662c"},"vehicle_type_id":"4","last_reported":1727726991,"current_range_meters":17600,"station_id":"ce4bh4p2rcd13ifvqe0g","pricing_plan_id":"cebpf4jnsgd1na2vs0mg"},{"bike_id":"717d514c-dc1c-4dc1-887d-11c47ff6c6b9","system_id":"levelo_inurba_marseille","lat":43.2928,"lon":5.40121,"is_reserved":false,"is_disabled":false,"rental_uris":{"android":"levelo://app?vid=717d514c-dc1c-4dc1-887d-11c47ff6c6b9","ios":"levelo://app?vid=717d514c-dc1c-4dc1-887d-11c47ff6c6b9"},"vehicle_type_id":"4","last_reported":1727726991,"current_range_meters":39200,"station_id":"ce4bh312rcd13ifvqdk0","pricing_plan_id":"cebpf4jnsgd1na2vs0mg"},{"bike_id":"04c87857-6b72-4df4-a0be-b91887432380","system_id":"levelo_inurba_marseille","lat":43.23964,"lon":5.36638,"is_reserved":false,"is_disabled":false,"rental_uris":{"android":"levelo://app?vid=04c87857-6b72-4df4-a0be-b91887432380","ios":"levelo://app?vid=04c87857-6b72-4df4-a0be-b91887432380"},"vehicle_type_id":"4","last_reported":1727726991,"current_range_meters":20400,"station_id":"ce4bhi12rcd13ifvqfp0","pricing_plan_id":"cebpf4jnsgd1na2vs0mg"},{"bike_id":"d354de6e-09c2-44ea-a629-0b4ea5bc66ff","system_id":"levelo_inurba_marseille","lat":43.28527,"lon":5.39142,"is_reserved":false,"is_disabled":false,"rental_uris":{"android":"levelo://app?vid=d354de6e-09c2-44ea-a629-0b4ea5bc66ff","ios":"levelo://app?vid=d354de6e-09c2-44ea-a629-0b4ea5bc66ff"},"vehicle_type_id":"4","last_reported":1727726991,"current_range_meters":22000,"station_id":"ce4bh3p2rcd13ifvqdp0","pricing_plan_id":"cebpf4jnsgd1na2vs0mg"},{"bike_id":"bf31d161-a87a-4f7f-9f2e-88c28947a498","system_id":"levelo_inurba_marseille","lat":43.28714,"lon":5.37371,"is_reserved":false,"is_disabled":false,"rental_uris":{"android":"levelo://app?vid=bf31d161-a87a-4f7f-9f2e-88c28947a498","ios":"levelo://app?vid=bf31d161-a87a-4f7f-9f2e-88c28947a498"},"vehicle_type_id":"4","last_reported":1727726991,"current_range_meters":38800,"station_id":"ce4bh3p2rcd13ifvqdq0","pricing_plan_id":"cebpf4jnsgd1na2vs0mg"},{"bike_id":"b2586d7f-0035-4565-9d82-49b4efe88b28","system_id":"levelo_inurba_marseille","lat":43.27215,"lon":5.39169,"is_reserved":false,"is_disabled":false,"rental_uris":{"android":"levelo://app?vid=b2586d7f-0035-4565-9d82-49b4efe88b28","ios":"levelo://app?vid=b2586d7f-0035-4565-9d82-49b4efe88b28"},"vehicle_type_id":"4","last_reported":1727726991,"current_range_meters":14000,"station_id":"","pricing_plan_id":"cebpf4jnsgd1na2vs0mg"},{"bike_id":"d3329261-bcf8-4d34-a85a-51710066765c","system_id":"levelo_inurba_marseille","lat":43.31498,"lon":5.37302,"is_reserved":false,"is_disabled":false,"rental_uris":{"android":"levelo://app?vid=d3329261-bcf8-4d34-a85a-51710066765c","ios":"levelo://app?vid=d3329261-bcf8-4d34-a85a-51710066765c"},"vehicle_type_id":"4","last_reported":1727726991,"current_range_meters":16400,"station_id":"ce4bgt12rcd13ifvqcd0","pricing_plan_id":"cebpf4jnsgd1na2vs0mg"},{"bike_id":"6c4a97ef-ed56-4d85-98d9-463a709b63f3","system_id":"levelo_inurba_marseille","lat":43.24197,"lon":5.40553,"is_reserved":false,"is_disabled":false,"rental_uris":{"android":"levelo://app?vid=6c4a97ef-ed56-4d85-98d9-463a709b63f3","ios":"levelo://app?vid=6c4a97ef-ed56-4d85-98d9-463a709b63f3"},"vehicle_type_id":"4","last_reported":1727726991,"current_range_meters":24000,"station_id":"","pricing_plan_id":"cebpf4jnsgd1na2vs0mg"},{"bike_id":"ab80b424-bfc5-4709-9b95-a2bee6a56f64","system_id":"levelo_inurba_marseille","lat":43.32287,"lon":5.38263,"is_reserved":false,"is_disabled":false,"rental_uris":{"android":"levelo://app?vid=ab80b424-bfc5-4709-9b95-a2bee6a56f64","ios":"levelo://app?vid=ab80b424-bfc5-4709-9b95-a2bee6a56f64"},"vehicle_type_id":"4","last_reported":1727726991,"current_range_meters":39200,"station_id":"ce4bhr12rcd13ifvqhqg","pricing_plan_id":"cebpf4jnsgd1na2vs0mg"},{"bike_id":"419dab12-c91e-4ea9-a97e-81c571c1f692","system_id":"levelo_inurba_marseille","lat":43.2511,"lon":5.40321,"is_reserved":false,"is_disabled":false,"rental_uris":{"android":"levelo://app?vid=419dab12-c91e-4ea9-a97e-81c571c1f692","ios":"levelo://app?vid=419dab12-c91e-4ea9-a97e-81c571c1f692"},"vehicle_type_id":"4","last_reported":1727726991,"current_range_meters":38800,"station_id":"ce4bhlh2rcd13ifvqgig","pricing_plan_id":"cebpf4jnsgd1na2vs0mg"},{"bike_id":"29ec3a7d-6899-4b00-a3ef-bc6f331757cf","system_id":"levelo_inurba_marseille","lat":43.34143,"lon":5.40904,"is_reserved":false,"is_disabled":false,"rental_uris":{"android":"levelo://app?vid=29ec3a7d-6899-4b00-a3ef-bc6f331757cf","ios":"levelo://app?vid=29ec3a7d-6899-4b00-a3ef-bc6f331757cf"},"vehicle_type_id":"4","last_reported":1727726991,"current_range_meters":6400,"station_id":"ce4bhqh2rcd13ifvqhlg","pricing_plan_id":"cebpf4jnsgd1na2vs0mg"},{"bike_id":"798c4278-1622-4c86-8893-fc54c9358653","system_id":"levelo_inurba_marseille","lat":43.29379,"lon":5.37868,"is_reserved":false,"is_disabled":false,"rental_uris":{"android":"levelo://app?vid=798c4278-1622-4c86-8893-fc54c9358653","ios":"levelo://app?vid=798c4278-1622-4c86-8893-fc54c9358653"},"vehicle_type_id":"4","last_reported":1727726991,"current_range_meters":32000,"station_id":"ce4bgjh2rcd13ifvqbf0","pricing_plan_id":"cebpf4jnsgd1na2vs0mg"},{"bike_id":"f493192b-13c6-47a1-9573-739dd32e633f","system_id":"levelo_inurba_marseille","lat":43.337444,"lon":5.374475,"is_reserved":false,"is_disabled":false,"rental_uris":{"android":"levelo://app?vid=f493192b-13c6-47a1-9573-739dd32e633f","ios":"levelo://app?vid=f493192b-13c6-47a1-9573-739dd32e633f"},"vehicle_type_id":"4","last_reported":1727726991,"current_range_meters":20000,"station_id":"","pricing_plan_id":"cebpf4jnsgd1na2vs0mg"},{"bike_id":"2f91abf2-1367-48a5-a243-2fc940a07d67","system_id":"levelo_inurba_marseille","lat":43.27377,"lon":5.36269,"is_reserved":false,"is_disabled":false,"rental_uris":{"android":"levelo://app?vid=2f91abf2-1367-48a5-a243-2fc940a07d67","ios":"levelo://app?vid=2f91abf2-1367-48a5-a243-2fc940a07d67"},"vehicle_type_id":"4","last_reported":1727726991,"current_range_meters":38800,"station_id":"ce4bhbh2rcd13ifvqeo0","pricing_plan_id":"cebpf4jnsgd1na2vs0mg"},{"bike_id":"815d75ab-59db-49f2-9d6c-a851d5f73245","system_id":"levelo_inurba_marseille","lat":43.32312,"lon":5.38295,"is_reserved":false,"is_disabled":false,"rental_uris":{"android":"levelo://app?vid=815d75ab-59db-49f2-9d6c-a851d5f73245","ios":"levelo://app?vid=815d75ab-59db-49f2-9d6c-a851d5f73245"},"vehicle_type_id":"4","last_reported":1727726991,"current_range_meters":35200,"station_id":"ce4bhr12rcd13ifvqhqg","pricing_plan_id":"cebpf4jnsgd1na2vs0mg"},{"bike_id":"ce6166ea-c4ad-4ecf-8cb6-35a2f13ea8fd","system_id":"levelo_inurba_marseille","lat":43.23941,"lon":5.36646,"is_reserved":false,"is_disabled":false,"rental_uris":{"android":"levelo://app?vid=ce6166ea-c4ad-4ecf-8cb6-35a2f13ea8fd","ios":"levelo://app?vid=ce6166ea-c4ad-4ecf-8cb6-35a2f13ea8fd"},"vehicle_type_id":"4","last_reported":1727726991,"current_range_meters":22000,"station_id":"ce4bhi12rcd13ifvqfp0","pricing_plan_id":"cebpf4jnsgd1na2vs0mg"},{"bike_id":"1b066a78-b825-4226-92c8-cb67e6ba3fda","system_id":"levelo_inurba_marseille","lat":43.29344,"lon":5.37933,"is_reserved":false,"is_disabled":false,"rental_uris":{"android":"levelo://app?vid=1b066a78-b825-4226-92c8-cb67e6ba3fda","ios":"levelo://app?vid=1b066a78-b825-4226-92c8-cb67e6ba3fda"},"vehicle_type_id":"4","last_reported":1727726991,"current_range_meters":9600,"station_id":"ce4bgi92rcd13ifvqb90","pricing_plan_id":"cebpf4jnsgd1na2vs0mg"},{"bike_id":"b15fcd7b-5130-4db2-a871-9f6d81a6b882","system_id":"levelo_inurba_marseille","lat":43.28934,"lon":5.36399,"is_reserved":false,"is_disabled":false,"rental_uris":{"android":"levelo://app?vid=b15fcd7b-5130-4db2-a871-9f6d81a6b882","ios":"levelo://app?vid=b15fcd7b-5130-4db2-a871-9f6d81a6b882"},"vehicle_type_id":"4","last_reported":1727726991,"current_range_meters":20800,"station_id":"ce4bhc92rcd13ifvqetg","pricing_plan_id":"cebpf4jnsgd1na2vs0mg"},{"bike_id":"eae015c1-16c8-483a-b244-3af672249227","system_id":"levelo_inurba_marseille","lat":43.28462,"lon":5.35888,"is_reserved":false,"is_disabled":false,"rental_uris":{"android":"levelo://app?vid=eae015c1-16c8-483a-b244-3af672249227","ios":"levelo://app?vid=eae015c1-16c8-483a-b244-3af672249227"},"vehicle_type_id":"4","last_reported":1727726991,"current_range_meters":3200,"station_id":"ce4bhah2rcd13ifvqei0","pricing_plan_id":"cebpf4jnsgd1na2vs0mg"},{"bike_id":"a55c067c-9aca-4365-952b-bf4fffb5b852","system_id":"levelo_inurba_marseille","lat":43.29527,"lon":5.39046,"is_reserved":false,"is_disabled":false,"rental_uris":{"android":"levelo://app?vid=a55c067c-9aca-4365-952b-bf4fffb5b852","ios":"levelo://app?vid=a55c067c-9aca-4365-952b-bf4fffb5b852"},"vehicle_type_id":"4","last_reported":1727726991,"current_range_meters":34800,"station_id":"ce4bh3p2rcd13ifvqdp0","pricing_plan_id":"cebpf4jnsgd1na2vs0mg"},{"bike_id":"341291e5-f916-49fb-a047-08d81c664b8d","system_id":"levelo_inurba_marseille","lat":43.284,"lon":5.37517,"is_reserved":false,"is_disabled":false,"rental_uris":{"android":"levelo://app?vid=341291e5-f916-49fb-a047-08d81c664b8d","ios":"levelo://app?vid=341291e5-f916-49fb-a047-08d81c664b8d"},"vehicle_type_id":"4","last_reported":1727726991,"current_range_meters":6800,"station_id":"ce4bh412rcd13ifvqds0","pricing_plan_id":"cebpf4jnsgd1na2vs0mg"},{"bike_id":"5302d30b-dc7a-43ed-9810-3e177a4781c6","system_id":"levelo_inurba_marseille","lat":43.27591,"lon":5.42629,"is_reserved":false,"is_disabled":false,"rental_uris":{"android":"levelo://app?vid=5302d30b-dc7a-43ed-9810-3e177a4781c6","ios":"levelo://app?vid=5302d30b-dc7a-43ed-9810-3e177a4781c6"},"vehicle_type_id":"4","last_reported":1727726991,"current_range_meters":4800,"station_id":"ce4bhn92rcd13ifvqgrg","pricing_plan_id":"cebpf4jnsgd1na2vs0mg"},{"bike_id":"74b807e0-c6f2-4284-a13d-25cb1f3715ff","system_id":"levelo_inurba_marseille","lat":43.31527,"lon":5.3803,"is_reserved":false,"is_disabled":false,"rental_uris":{"android":"levelo://app?vid=74b807e0-c6f2-4284-a13d-25cb1f3715ff","ios":"levelo://app?vid=74b807e0-c6f2-4284-a13d-25cb1f3715ff"},"vehicle_type_id":"4","last_reported":1727726991,"current_range_meters":32400,"station_id":"ce4bhsp2rcd13ifvqi50","pricing_plan_id":"cebpf4jnsgd1na2vs0mg"},{"bike_id":"b4bec322-ebc6-4771-95fb-7fc71230c85e","system_id":"levelo_inurba_marseille","lat":43.27811,"lon":5.4072,"is_reserved":false,"is_disabled":false,"rental_uris":{"android":"levelo://app?vid=b4bec322-ebc6-4771-95fb-7fc71230c85e","ios":"levelo://app?vid=b4bec322-ebc6-4771-95fb-7fc71230c85e"},"vehicle_type_id":"4","last_reported":1727726991,"current_range_meters":4400,"station_id":"ce4bhnh2rcd13ifvqgtg","pricing_plan_id":"cebpf4jnsgd1na2vs0mg"},{"bike_id":"12fde011-8652-49b9-873e-72da5e76fc34","system_id":"levelo_inurba_marseille","lat":43.28406,"lon":5.37512,"is_reserved":false,"is_disabled":false,"rental_uris":{"android":"levelo://app?vid=12fde011-8652-49b9-873e-72da5e76fc34","ios":"levelo://app?vid=12fde011-8652-49b9-873e-72da5e76fc34"},"vehicle_type_id":"4","last_reported":1727726991,"current_range_meters":38400,"station_id":"ce4bh412rcd13ifvqds0","pricing_plan_id":"cebpf4jnsgd1na2vs0mg"},{"bike_id":"ce682b9d-c6b4-4762-8c3c-67761170e527","system_id":"levelo_inurba_marseille","lat":43.31708,"lon":5.37758,"is_reserved":false,"is_disabled":false,"rental_uris":{"android":"levelo://app?vid=ce682b9d-c6b4-4762-8c3c-67761170e527","ios":"levelo://app?vid=ce682b9d-c6b4-4762-8c3c-67761170e527"},"vehicle_type_id":"4","last_reported":1727726991,"current_range_meters":38000,"station_id":"ce4bgth2rcd13ifvqch0","pricing_plan_id":"cebpf4jnsgd1na2vs0mg"},{"bike_id":"122b629b-a216-489f-90ff-d6e3354a8c19","system_id":"levelo_inurba_marseille","lat":43.28703,"lon":5.37391,"is_reserved":false,"is_disabled":false,"rental_uris":{"android":"levelo://app?vid=122b629b-a216-489f-90ff-d6e3354a8c19","ios":"levelo://app?vid=122b629b-a216-489f-90ff-d6e3354a8c19"},"vehicle_type_id":"4","last_reported":1727726991,"current_range_meters":10800,"station_id":"ce4bh3p2rcd13ifvqdq0","pricing_plan_id":"cebpf4jnsgd1na2vs0mg"},{"bike_id":"30ca6f4c-ff60-4d26-a525-382381553e0d","system_id":"levelo_inurba_marseille","lat":43.27995,"lon":5.40008,"is_reserved":false,"is_disabled":false,"rental_uris":{"android":"levelo://app?vid=30ca6f4c-ff60-4d26-a525-382381553e0d","ios":"levelo://app?vid=30ca6f4c-ff60-4d26-a525-382381553e0d"},"vehicle_type_id":"4","last_reported":1727726991,"current_range_meters":38800,"station_id":"ce4bho92rcd13ifvqh4g","pricing_plan_id":"cebpf4jnsgd1na2vs0mg"},{"bike_id":"71673b75-fa52-48ae-b74a-0ee5e01a4bc2","system_id":"levelo_inurba_marseille","lat":43.26194,"lon":5.3745,"is_reserved":false,"is_disabled":false,"rental_uris":{"android":"levelo://app?vid=71673b75-fa52-48ae-b74a-0ee5e01a4bc2","ios":"levelo://app?vid=71673b75-fa52-48ae-b74a-0ee5e01a4bc2"},"vehicle_type_id":"4","last_reported":1727726991,"current_range_meters":38800,"station_id":"ce4bhgp2rcd13ifvqfc0","pricing_plan_id":"cebpf4jnsgd1na2vs0mg"},{"bike_id":"98e01353-bf46-438a-9437-17e5f8344ab8","system_id":"levelo_inurba_marseille","lat":43.26556,"lon":5.37285,"is_reserved":false,"is_disabled":false,"rental_uris":{"android":"levelo://app?vid=98e01353-bf46-438a-9437-17e5f8344ab8","ios":"levelo://app?vid=98e01353-bf46-438a-9437-17e5f8344ab8"},"vehicle_type_id":"4","last_reported":1727726991,"current_range_meters":5600,"station_id":"ce4bhg12rcd13ifvqf70","pricing_plan_id":"cebpf4jnsgd1na2vs0mg"},{"bike_id":"44f752b4-53ea-4571-8d1b-c77546739719","system_id":"levelo_inurba_marseille","lat":43.307861,"lon":5.375723,"is_reserved":false,"is_disabled":false,"rental_uris":{"android":"levelo://app?vid=44f752b4-53ea-4571-8d1b-c77546739719","ios":"levelo://app?vid=44f752b4-53ea-4571-8d1b-c77546739719"},"vehicle_type_id":"4","last_reported":1727726991,"current_range_meters":18800,"station_id":"ce4bgv92rcd13ifvqcq0","pricing_plan_id":"cebpf4jnsgd1na2vs0mg"},{"bike_id":"f8b31600-8926-44f1-aeb1-42d12233b5a9","system_id":"levelo_inurba_marseille","lat":43.29689,"lon":5.37289,"is_reserved":false,"is_disabled":false,"rental_uris":{"android":"levelo://app?vid=f8b31600-8926-44f1-aeb1-42d12233b5a9","ios":"levelo://app?vid=f8b31600-8926-44f1-aeb1-42d12233b5a9"},"vehicle_type_id":"4","last_reported":1727726991,"current_range_meters":38800,"station_id":"ce4bgk12rcd13ifvqbj0","pricing_plan_id":"cebpf4jnsgd1na2vs0mg"},{"bike_id":"9d536434-fb45-4e99-856f-122edee1a308","system_id":"levelo_inurba_marseille","lat":43.31083,"lon":5.42432,"is_reserved":false,"is_disabled":false,"rental_uris":{"android":"levelo://app?vid=9d536434-fb45-4e99-856f-122edee1a308","ios":"levelo://app?vid=9d536434-fb45-4e99-856f-122edee1a308"},"vehicle_type_id":"4","last_reported":1727726991,"current_range_meters":2800,"station_id":"ce4bhp92rcd13ifvqhag","pricing_plan_id":"cebpf4jnsgd1na2vs0mg"},{"bike_id":"2671abe3-ebc3-4ff9-b93a-9bc1fa61c25a","system_id":"levelo_inurba_marseille","lat":43.30932,"lon":5.40145,"is_reserved":false,"is_disabled":false,"rental_uris":{"android":"levelo://app?vid=2671abe3-ebc3-4ff9-b93a-9bc1fa61c25a","ios":"levelo://app?vid=2671abe3-ebc3-4ff9-b93a-9bc1fa61c25a"},"vehicle_type_id":"4","last_reported":1727726991,"current_range_meters":24400,"station_id":"ce4bgvp2rcd13ifvqct0","pricing_plan_id":"cebpf4jnsgd1na2vs0mg"},{"bike_id":"64d9e30a-3c87-493a-839b-48a7888ef484","system_id":"levelo_inurba_marseille","lat":43.28077,"lon":5.39659,"is_reserved":false,"is_disabled":false,"rental_uris":{"android":"levelo://app?vid=64d9e30a-3c87-493a-839b-48a7888ef484","ios":"levelo://app?vid=64d9e30a-3c87-493a-839b-48a7888ef484"},"vehicle_type_id":"4","last_reported":1727726991,"current_range_meters":24800,"station_id":"ce4bho12rcd13ifvqh2g","pricing_plan_id":"cebpf4jnsgd1na2vs0mg"},{"bike_id":"1496a47b-59d1-4ca8-9ab3-84966a734fa5","system_id":"levelo_inurba_marseille","lat":43.262105,"lon":5.379264,"is_reserved":false,"is_disabled":false,"rental_uris":{"android":"levelo://app?vid=1496a47b-59d1-4ca8-9ab3-84966a734fa5","ios":"levelo://app?vid=1496a47b-59d1-4ca8-9ab3-84966a734fa5"},"vehicle_type_id":"4","last_reported":1727726991,"current_range_meters":38800,"station_id":"ce4bhjp2rcd13ifvqg90","pricing_plan_id":"cebpf4jnsgd1na2vs0mg"},{"bike_id":"c9ec626c-8977-498f-8082-0ec993cc6572","system_id":"levelo_inurba_marseille","lat":43.29518,"lon":5.39042,"is_reserved":false,"is_disabled":false,"rental_uris":{"android":"levelo://app?vid=c9ec626c-8977-498f-8082-0ec993cc6572","ios":"levelo://app?vid=c9ec626c-8977-498f-8082-0ec993cc6572"},"vehicle_type_id":"4","last_reported":1727726991,"current_range_meters":38800,"station_id":"ce4bh3p2rcd13ifvqdp0","pricing_plan_id":"cebpf4jnsgd1na2vs0mg"},{"bike_id":"7f98aa52-1005-4f44-91a7-912fbaf9c719","system_id":"levelo_inurba_marseille","lat":43.23176,"lon":5.39993,"is_reserved":false,"is_disabled":false,"rental_uris":{"android":"levelo://app?vid=7f98aa52-1005-4f44-91a7-912fbaf9c719","ios":"levelo://app?vid=7f98aa52-1005-4f44-91a7-912fbaf9c719"},"vehicle_type_id":"4","last_reported":1727726991,"current_range_meters":22000,"station_id":"ce4bhn12rcd13ifvqgqg","pricing_plan_id":"cebpf4jnsgd1na2vs0mg"},{"bike_id":"85090816-1482-4be1-9a22-ffc00df7d74b","system_id":"levelo_inurba_marseille","lat":43.27417,"lon":5.39417,"is_reserved":false,"is_disabled":false,"rental_uris":{"android":"levelo://app?vid=85090816-1482-4be1-9a22-ffc00df7d74b","ios":"levelo://app?vid=85090816-1482-4be1-9a22-ffc00df7d74b"},"vehicle_type_id":"4","last_reported":1727726991,"current_range_meters":36800,"station_id":"ce4bhdp2rcd13ifvqf20","pricing_plan_id":"cebpf4jnsgd1na2vs0mg"},{"bike_id":"79a7926e-dba6-497b-b68c-d63f5256ee02","system_id":"levelo_inurba_marseille","lat":43.29023,"lon":5.37565,"is_reserved":false,"is_disabled":false,"rental_uris":{"android":"levelo://app?vid=79a7926e-dba6-497b-b68c-d63f5256ee02","ios":"levelo://app?vid=79a7926e-dba6-497b-b68c-d63f5256ee02"},"vehicle_type_id":"4","last_reported":1727726991,"current_range_meters":39200,"station_id":"ce4bh692rcd13ifvqe90","pricing_plan_id":"cebpf4jnsgd1na2vs0mg"},{"bike_id":"5f2219a8-bf0f-414d-a3fb-1040bee21a23","system_id":"levelo_inurba_marseille","lat":43.30352,"lon":5.41882,"is_reserved":false,"is_disabled":false,"rental_uris":{"android":"levelo://app?vid=5f2219a8-bf0f-414d-a3fb-1040bee21a23","ios":"levelo://app?vid=5f2219a8-bf0f-414d-a3fb-1040bee21a23"},"vehicle_type_id":"4","last_reported":1727726991,"current_range_meters":35200,"station_id":"ce4bhop2rcd13ifvqh7g","pricing_plan_id":"cebpf4jnsgd1na2vs0mg"},{"bike_id":"b3125c80-b41f-4513-990a-5b3a52f7c34f","system_id":"levelo_inurba_marseille","lat":43.30802,"lon":5.43528,"is_reserved":false,"is_disabled":false,"rental_uris":{"android":"levelo://app?vid=b3125c80-b41f-4513-990a-5b3a52f7c34f","ios":"levelo://app?vid=b3125c80-b41f-4513-990a-5b3a52f7c34f"},"vehicle_type_id":"4","last_reported":1727726991,"current_range_meters":4800,"station_id":"ce4bhph2rcd13ifvqheg","pricing_plan_id":"cebpf4jnsgd1na2vs0mg"},{"bike_id":"40f22343-1f12-4b69-976b-e9121cb8321c","system_id":"levelo_inurba_marseille","lat":43.31483,"lon":5.37314,"is_reserved":false,"is_disabled":false,"rental_uris":{"android":"levelo://app?vid=40f22343-1f12-4b69-976b-e9121cb8321c","ios":"levelo://app?vid=40f22343-1f12-4b69-976b-e9121cb8321c"},"vehicle_type_id":"4","last_reported":1727726991,"current_range_meters":20800,"station_id":"ce4bgt12rcd13ifvqcd0","pricing_plan_id":"cebpf4jnsgd1na2vs0mg"},{"bike_id":"a43d5f9c-2aeb-479e-ac27-f2401d584dec","system_id":"levelo_inurba_marseille","lat":43.28706,"lon":5.37398,"is_reserved":false,"is_disabled":false,"rental_uris":{"android":"levelo://app?vid=a43d5f9c-2aeb-479e-ac27-f2401d584dec","ios":"levelo://app?vid=a43d5f9c-2aeb-479e-ac27-f2401d584dec"},"vehicle_type_id":"4","last_reported":1727726991,"current_range_meters":24000,"station_id":"ce4bh3p2rcd13ifvqdq0","pricing_plan_id":"cebpf4jnsgd1na2vs0mg"},{"bike_id":"1bad49f4-e608-4750-969b-cf1811aa3085","system_id":"levelo_inurba_marseille","lat":43.337444,"lon":5.374475,"is_reserved":false,"is_disabled":false,"rental_uris":{"android":"levelo://app?vid=1bad49f4-e608-4750-969b-cf1811aa3085","ios":"levelo://app?vid=1bad49f4-e608-4750-969b-cf1811aa3085"},"vehicle_type_id":"4","last_reported":1727726991,"current_range_meters":34800,"station_id":"","pricing_plan_id":"cebpf4jnsgd1na2vs0mg"},{"bike_id":"cd102f06-ac7b-4b01-bfe4-7c2e2c4c51d4","system_id":"levelo_inurba_marseille","lat":43.32264,"lon":5.38288,"is_reserved":false,"is_disabled":false,"rental_uris":{"android":"levelo://app?vid=cd102f06-ac7b-4b01-bfe4-7c2e2c4c51d4","ios":"levelo://app?vid=cd102f06-ac7b-4b01-bfe4-7c2e2c4c51d4"},"vehicle_type_id":"4","last_reported":1727726991,"current_range_meters":4800,"station_id":"ce4bhr12rcd13ifvqhqg","pricing_plan_id":"cebpf4jnsgd1na2vs0mg"},{"bike_id":"535bd3fc-9ed6-4d8a-b132-b0714a281f53","system_id":"levelo_inurba_marseille","lat":43.322917,"lon":5.382735,"is_reserved":false,"is_disabled":false,"rental_uris":{"android":"levelo://app?vid=535bd3fc-9ed6-4d8a-b132-b0714a281f53","ios":"levelo://app?vid=535bd3fc-9ed6-4d8a-b132-b0714a281f53"},"vehicle_type_id":"4","last_reported":1727726991,"current_range_meters":39200,"station_id":"ce4bhr12rcd13ifvqhqg","pricing_plan_id":"cebpf4jnsgd1na2vs0mg"},{"bike_id":"0975825c-9f20-46cb-9562-816ced7a7f94","system_id":"levelo_inurba_marseille","lat":43.28349,"lon":5.38114,"is_reserved":false,"is_disabled":false,"rental_uris":{"android":"levelo://app?vid=0975825c-9f20-46cb-9562-816ced7a7f94","ios":"levelo://app?vid=0975825c-9f20-46cb-9562-816ced7a7f94"},"vehicle_type_id":"4","last_reported":1727726991,"current_range_meters":37600,"station_id":"ce4bh412rcd13ifvqdr0","pricing_plan_id":"cebpf4jnsgd1na2vs0mg"},{"bike_id":"f7044f6d-27b8-4ee2-9311-ed89e92da7f0","system_id":"levelo_inurba_marseille","lat":43.257178,"lon":5.411147,"is_reserved":false,"is_disabled":false,"rental_uris":{"android":"levelo://app?vid=f7044f6d-27b8-4ee2-9311-ed89e92da7f0","ios":"levelo://app?vid=f7044f6d-27b8-4ee2-9311-ed89e92da7f0"},"vehicle_type_id":"4","last_reported":1727726991,"current_range_meters":28000,"station_id":"ce4bhkp2rcd13ifvqgd0","pricing_plan_id":"cebpf4jnsgd1na2vs0mg"},{"bike_id":"4ec845bc-1b09-4d1a-bc17-8c6194953a8a","system_id":"levelo_inurba_marseille","lat":43.26213,"lon":5.37443,"is_reserved":false,"is_disabled":false,"rental_uris":{"android":"levelo://app?vid=4ec845bc-1b09-4d1a-bc17-8c6194953a8a","ios":"levelo://app?vid=4ec845bc-1b09-4d1a-bc17-8c6194953a8a"},"vehicle_type_id":"4","last_reported":1727726991,"current_range_meters":16400,"station_id":"ce4bhgp2rcd13ifvqfc0","pricing_plan_id":"cebpf4jnsgd1na2vs0mg"},{"bike_id":"d66ab088-1a47-4493-9efd-a19df6932892","system_id":"levelo_inurba_marseille","lat":43.2857,"lon":5.39504,"is_reserved":false,"is_disabled":false,"rental_uris":{"android":"levelo://app?vid=d66ab088-1a47-4493-9efd-a19df6932892","ios":"levelo://app?vid=d66ab088-1a47-4493-9efd-a19df6932892"},"vehicle_type_id":"4","last_reported":1727726991,"current_range_meters":24800,"station_id":"ce4bh292rcd13ifvqdg0","pricing_plan_id":"cebpf4jnsgd1na2vs0mg"},{"bike_id":"1583e6e8-62ba-4fc7-bf10-b3dab3950efc","system_id":"levelo_inurba_marseille","lat":43.28358,"lon":5.38123,"is_reserved":false,"is_disabled":false,"rental_uris":{"android":"levelo://app?vid=1583e6e8-62ba-4fc7-bf10-b3dab3950efc","ios":"levelo://app?vid=1583e6e8-62ba-4fc7-bf10-b3dab3950efc"},"vehicle_type_id":"4","last_reported":1727726991,"current_range_meters":12800,"station_id":"ce4bh412rcd13ifvqdr0","pricing_plan_id":"cebpf4jnsgd1na2vs0mg"},{"bike_id":"1e6475d6-a854-4aa8-852f-a708c9a090e6","system_id":"levelo_inurba_marseille","lat":43.31747,"lon":5.39013,"is_reserved":false,"is_disabled":false,"rental_uris":{"android":"levelo://app?vid=1e6475d6-a854-4aa8-852f-a708c9a090e6","ios":"levelo://app?vid=1e6475d6-a854-4aa8-852f-a708c9a090e6"},"vehicle_type_id":"4","last_reported":1727726991,"current_range_meters":38800,"station_id":"ce4bhqp2rcd13ifvqhng","pricing_plan_id":"cebpf4jnsgd1na2vs0mg"},{"bike_id":"ca2eba72-b973-4593-a2ff-495c7069c176","system_id":"levelo_inurba_marseille","lat":43.26193,"lon":5.37452,"is_reserved":false,"is_disabled":false,"rental_uris":{"android":"levelo://app?vid=ca2eba72-b973-4593-a2ff-495c7069c176","ios":"levelo://app?vid=ca2eba72-b973-4593-a2ff-495c7069c176"},"vehicle_type_id":"4","last_reported":1727726991,"current_range_meters":38800,"station_id":"ce4bhgp2rcd13ifvqfc0","pricing_plan_id":"cebpf4jnsgd1na2vs0mg"},{"bike_id":"a0b5a8b4-d473-4504-9686-c3cf00e9d3ad","system_id":"levelo_inurba_marseille","lat":43.31757,"lon":5.39021,"is_reserved":false,"is_disabled":false,"rental_uris":{"android":"levelo://app?vid=a0b5a8b4-d473-4504-9686-c3cf00e9d3ad","ios":"levelo://app?vid=a0b5a8b4-d473-4504-9686-c3cf00e9d3ad"},"vehicle_type_id":"4","last_reported":1727726991,"current_range_meters":16000,"station_id":"ce4bhqp2rcd13ifvqhng","pricing_plan_id":"cebpf4jnsgd1na2vs0mg"},{"bike_id":"7351710e-25ca-4c8c-8bd0-399536f6db69","system_id":"levelo_inurba_marseille","lat":43.32359,"lon":5.38469,"is_reserved":false,"is_disabled":false,"rental_uris":{"android":"levelo://app?vid=7351710e-25ca-4c8c-8bd0-399536f6db69","ios":"levelo://app?vid=7351710e-25ca-4c8c-8bd0-399536f6db69"},"vehicle_type_id":"4","last_reported":1727726991,"current_range_meters":35600,"station_id":"","pricing_plan_id":"cebpf4jnsgd1na2vs0mg"},{"bike_id":"514b40d7-fbbc-4c63-ae48-950f27382cfc","system_id":"levelo_inurba_marseille","lat":43.29533,"lon":5.38545,"is_reserved":false,"is_disabled":false,"rental_uris":{"android":"levelo://app?vid=514b40d7-fbbc-4c63-ae48-950f27382cfc","ios":"levelo://app?vid=514b40d7-fbbc-4c63-ae48-950f27382cfc"},"vehicle_type_id":"4","last_reported":1727726991,"current_range_meters":38800,"station_id":"ce4bgih2rcd13ifvqba0","pricing_plan_id":"cebpf4jnsgd1na2vs0mg"},{"bike_id":"c7090d2c-8219-4570-95d7-f56920df047b","system_id":"levelo_inurba_marseille","lat":43.25575,"lon":5.38233,"is_reserved":false,"is_disabled":false,"rental_uris":{"android":"levelo://app?vid=c7090d2c-8219-4570-95d7-f56920df047b","ios":"levelo://app?vid=c7090d2c-8219-4570-95d7-f56920df047b"},"vehicle_type_id":"4","last_reported":1727726991,"current_range_meters":32000,"station_id":"ce4bhih2rcd13ifvqfs0","pricing_plan_id":"cebpf4jnsgd1na2vs0mg"},{"bike_id":"34d4c762-fdd4-4eb3-9c30-1b53127fa6a7","system_id":"levelo_inurba_marseille","lat":43.3092,"lon":5.40143,"is_reserved":false,"is_disabled":false,"rental_uris":{"android":"levelo://app?vid=34d4c762-fdd4-4eb3-9c30-1b53127fa6a7","ios":"levelo://app?vid=34d4c762-fdd4-4eb3-9c30-1b53127fa6a7"},"vehicle_type_id":"4","last_reported":1727726991,"current_range_meters":35600,"station_id":"ce4bgvp2rcd13ifvqct0","pricing_plan_id":"cebpf4jnsgd1na2vs0mg"},{"bike_id":"28adeedb-73e1-430c-aff3-8e7b9dff4fc2","system_id":"levelo_inurba_marseille","lat":43.23193,"lon":5.39991,"is_reserved":false,"is_disabled":false,"rental_uris":{"android":"levelo://app?vid=28adeedb-73e1-430c-aff3-8e7b9dff4fc2","ios":"levelo://app?vid=28adeedb-73e1-430c-aff3-8e7b9dff4fc2"},"vehicle_type_id":"4","last_reported":1727726991,"current_range_meters":37600,"station_id":"ce4bhn12rcd13ifvqgqg","pricing_plan_id":"cebpf4jnsgd1na2vs0mg"},{"bike_id":"5894c6cf-e750-497b-8a36-47a2b0ef0b35","system_id":"levelo_inurba_marseille","lat":43.23183,"lon":5.39992,"is_reserved":false,"is_disabled":false,"rental_uris":{"android":"levelo://app?vid=5894c6cf-e750-497b-8a36-47a2b0ef0b35","ios":"levelo://app?vid=5894c6cf-e750-497b-8a36-47a2b0ef0b35"},"vehicle_type_id":"4","last_reported":1727726991,"current_range_meters":22400,"station_id":"ce4bhn12rcd13ifvqgqg","pricing_plan_id":"cebpf4jnsgd1na2vs0mg"},{"bike_id":"5cb49915-cb26-4237-b83b-7e1826a89756","system_id":"levelo_inurba_marseille","lat":43.29927,"lon":5.37476,"is_reserved":false,"is_disabled":false,"rental_uris":{"android":"levelo://app?vid=5cb49915-cb26-4237-b83b-7e1826a89756","ios":"levelo://app?vid=5cb49915-cb26-4237-b83b-7e1826a89756"},"vehicle_type_id":"4","last_reported":1727726991,"current_range_meters":14000,"station_id":"ce4bgjh2rcd13ifvqbg0","pricing_plan_id":"cebpf4jnsgd1na2vs0mg"},{"bike_id":"75ce0c83-c299-4d46-8486-ce3fb91b1eeb","system_id":"levelo_inurba_marseille","lat":43.31958,"lon":5.38888,"is_reserved":false,"is_disabled":false,"rental_uris":{"android":"levelo://app?vid=75ce0c83-c299-4d46-8486-ce3fb91b1eeb","ios":"levelo://app?vid=75ce0c83-c299-4d46-8486-ce3fb91b1eeb"},"vehicle_type_id":"4","last_reported":1727726991,"current_range_meters":24000,"station_id":"","pricing_plan_id":"cebpf4jnsgd1na2vs0mg"},{"bike_id":"33ba4473-d632-40ad-8dd9-cffca78e97f4","system_id":"levelo_inurba_marseille","lat":43.3043,"lon":5.38887,"is_reserved":false,"is_disabled":false,"rental_uris":{"android":"levelo://app?vid=33ba4473-d632-40ad-8dd9-cffca78e97f4","ios":"levelo://app?vid=33ba4473-d632-40ad-8dd9-cffca78e97f4"},"vehicle_type_id":"4","last_reported":1727726991,"current_range_meters":34000,"station_id":"ce4bgk12rcd13ifvqbi0","pricing_plan_id":"cebpf4jnsgd1na2vs0mg"},{"bike_id":"dc1b68c6-9216-474b-8df7-6a5cb42766c9","system_id":"levelo_inurba_marseille","lat":43.25726,"lon":5.41108,"is_reserved":false,"is_disabled":false,"rental_uris":{"android":"levelo://app?vid=dc1b68c6-9216-474b-8df7-6a5cb42766c9","ios":"levelo://app?vid=dc1b68c6-9216-474b-8df7-6a5cb42766c9"},"vehicle_type_id":"4","last_reported":1727726991,"current_range_meters":2800,"station_id":"ce4bhkp2rcd13ifvqgd0","pricing_plan_id":"cebpf4jnsgd1na2vs0mg"},{"bike_id":"ac6590ac-5346-41c0-b8f9-491f41407ece","system_id":"levelo_inurba_marseille","lat":43.271758,"lon":5.409898,"is_reserved":false,"is_disabled":false,"rental_uris":{"android":"levelo://app?vid=ac6590ac-5346-41c0-b8f9-491f41407ece","ios":"levelo://app?vid=ac6590ac-5346-41c0-b8f9-491f41407ece"},"vehicle_type_id":"4","last_reported":1727726991,"current_range_meters":13600,"station_id":"ce4bhl12rcd13ifvqgf0","pricing_plan_id":"cebpf4jnsgd1na2vs0mg"},{"bike_id":"a9aa7abf-1c3f-40dd-bdbc-ff90924e1c4a","system_id":"levelo_inurba_marseille","lat":43.28075,"lon":5.3966,"is_reserved":false,"is_disabled":false,"rental_uris":{"android":"levelo://app?vid=a9aa7abf-1c3f-40dd-bdbc-ff90924e1c4a","ios":"levelo://app?vid=a9aa7abf-1c3f-40dd-bdbc-ff90924e1c4a"},"vehicle_type_id":"4","last_reported":1727726991,"current_range_meters":17200,"station_id":"ce4bho12rcd13ifvqh2g","pricing_plan_id":"cebpf4jnsgd1na2vs0mg"},{"bike_id":"a98afe3b-791d-4db5-be5e-7d8802ce3b38","system_id":"levelo_inurba_marseille","lat":43.31718,"lon":5.42397,"is_reserved":false,"is_disabled":false,"rental_uris":{"android":"levelo://app?vid=a98afe3b-791d-4db5-be5e-7d8802ce3b38","ios":"levelo://app?vid=a98afe3b-791d-4db5-be5e-7d8802ce3b38"},"vehicle_type_id":"4","last_reported":1727726991,"current_range_meters":8800,"station_id":"ce4bhp92rcd13ifvqhbg","pricing_plan_id":"cebpf4jnsgd1na2vs0mg"},{"bike_id":"4563817c-adce-4b5f-9203-7df0c6e097eb","system_id":"levelo_inurba_marseille","lat":43.32273,"lon":5.38682,"is_reserved":false,"is_disabled":false,"rental_uris":{"android":"levelo://app?vid=4563817c-adce-4b5f-9203-7df0c6e097eb","ios":"levelo://app?vid=4563817c-adce-4b5f-9203-7df0c6e097eb"},"vehicle_type_id":"4","last_reported":1727726991,"current_range_meters":15200,"station_id":"","pricing_plan_id":"cebpf4jnsgd1na2vs0mg"},{"bike_id":"71c1dba2-d598-4a2e-be77-f96ebb63f3e9","system_id":"levelo_inurba_marseille","lat":43.31712,"lon":5.37736,"is_reserved":false,"is_disabled":false,"rental_uris":{"android":"levelo://app?vid=71c1dba2-d598-4a2e-be77-f96ebb63f3e9","ios":"levelo://app?vid=71c1dba2-d598-4a2e-be77-f96ebb63f3e9"},"vehicle_type_id":"4","last_reported":1727726991,"current_range_meters":32400,"station_id":"ce4bgth2rcd13ifvqch0","pricing_plan_id":"cebpf4jnsgd1na2vs0mg"},{"bike_id":"50687af8-d787-4e4e-a7bc-134044df7dce","system_id":"levelo_inurba_marseille","lat":43.31723,"lon":5.424,"is_reserved":false,"is_disabled":false,"rental_uris":{"android":"levelo://app?vid=50687af8-d787-4e4e-a7bc-134044df7dce","ios":"levelo://app?vid=50687af8-d787-4e4e-a7bc-134044df7dce"},"vehicle_type_id":"4","last_reported":1727726991,"current_range_meters":2800,"station_id":"ce4bhp92rcd13ifvqhbg","pricing_plan_id":"cebpf4jnsgd1na2vs0mg"},{"bike_id":"d3d58756-b2ac-465e-8601-33b908d8deb0","system_id":"levelo_inurba_marseille","lat":43.25112,"lon":5.40323,"is_reserved":false,"is_disabled":false,"rental_uris":{"android":"levelo://app?vid=d3d58756-b2ac-465e-8601-33b908d8deb0","ios":"levelo://app?vid=d3d58756-b2ac-465e-8601-33b908d8deb0"},"vehicle_type_id":"4","last_reported":1727726991,"current_range_meters":2800,"station_id":"ce4bhlh2rcd13ifvqgig","pricing_plan_id":"cebpf4jnsgd1na2vs0mg"},{"bike_id":"c52ce4f2-b299-4b56-bf96-44b90e0bc21b","system_id":"levelo_inurba_marseille","lat":43.29262,"lon":5.40902,"is_reserved":false,"is_disabled":false,"rental_uris":{"android":"levelo://app?vid=c52ce4f2-b299-4b56-bf96-44b90e0bc21b","ios":"levelo://app?vid=c52ce4f2-b299-4b56-bf96-44b90e0bc21b"},"vehicle_type_id":"4","last_reported":1727726991,"current_range_meters":38800,"station_id":"ce4bh192rcd13ifvqdc0","pricing_plan_id":"cebpf4jnsgd1na2vs0mg"},{"bike_id":"d03204b1-0cd8-4bb0-9680-c7f05638cbc1","system_id":"levelo_inurba_marseille","lat":43.24389,"lon":5.37064,"is_reserved":false,"is_disabled":false,"rental_uris":{"android":"levelo://app?vid=d03204b1-0cd8-4bb0-9680-c7f05638cbc1","ios":"levelo://app?vid=d03204b1-0cd8-4bb0-9680-c7f05638cbc1"},"vehicle_type_id":"4","last_reported":1727726991,"current_range_meters":25200,"station_id":"ce4bhhh2rcd13ifvqfk0","pricing_plan_id":"cebpf4jnsgd1na2vs0mg"},{"bike_id":"ea716a0c-8fe6-468e-b7db-b0181f4c69a8","system_id":"levelo_inurba_marseille","lat":43.29246,"lon":5.40909,"is_reserved":false,"is_disabled":false,"rental_uris":{"android":"levelo://app?vid=ea716a0c-8fe6-468e-b7db-b0181f4c69a8","ios":"levelo://app?vid=ea716a0c-8fe6-468e-b7db-b0181f4c69a8"},"vehicle_type_id":"4","last_reported":1727726991,"current_range_meters":6400,"station_id":"ce4bh192rcd13ifvqdc0","pricing_plan_id":"cebpf4jnsgd1na2vs0mg"},{"bike_id":"011cc487-32ac-4b4e-bd0d-c3710b263859","system_id":"levelo_inurba_marseille","lat":43.30644,"lon":5.40081,"is_reserved":false,"is_disabled":false,"rental_uris":{"android":"levelo://app?vid=011cc487-32ac-4b4e-bd0d-c3710b263859","ios":"levelo://app?vid=011cc487-32ac-4b4e-bd0d-c3710b263859"},"vehicle_type_id":"4","last_reported":1727726991,"current_range_meters":37600,"station_id":"ce4bh112rcd13ifvqda0","pricing_plan_id":"cebpf4jnsgd1na2vs0mg"},{"bike_id":"3e53fb06-3b85-4fde-9092-20ee98a390ab","system_id":"levelo_inurba_marseille","lat":43.31758,"lon":5.39016,"is_reserved":false,"is_disabled":false,"rental_uris":{"android":"levelo://app?vid=3e53fb06-3b85-4fde-9092-20ee98a390ab","ios":"levelo://app?vid=3e53fb06-3b85-4fde-9092-20ee98a390ab"},"vehicle_type_id":"4","last_reported":1727726991,"current_range_meters":36800,"station_id":"ce4bhqp2rcd13ifvqhng","pricing_plan_id":"cebpf4jnsgd1na2vs0mg"},{"bike_id":"5ebfd91c-b250-4512-8ca0-2c56ca75fd52","system_id":"levelo_inurba_marseille","lat":43.24493,"lon":5.37831,"is_reserved":false,"is_disabled":false,"rental_uris":{"android":"levelo://app?vid=5ebfd91c-b250-4512-8ca0-2c56ca75fd52","ios":"levelo://app?vid=5ebfd91c-b250-4512-8ca0-2c56ca75fd52"},"vehicle_type_id":"4","last_reported":1727726991,"current_range_meters":14000,"station_id":"","pricing_plan_id":"cebpf4jnsgd1na2vs0mg"},{"bike_id":"94a1ebb1-7f5d-40af-bb94-56f6d3162643","system_id":"levelo_inurba_marseille","lat":43.25083,"lon":5.39521,"is_reserved":false,"is_disabled":false,"rental_uris":{"android":"levelo://app?vid=94a1ebb1-7f5d-40af-bb94-56f6d3162643","ios":"levelo://app?vid=94a1ebb1-7f5d-40af-bb94-56f6d3162643"},"vehicle_type_id":"4","last_reported":1727726991,"current_range_meters":4800,"station_id":"","pricing_plan_id":"cebpf4jnsgd1na2vs0mg"},{"bike_id":"42f8ccd4-fdba-44e3-852e-742768374a03","system_id":"levelo_inurba_marseille","lat":43.31186,"lon":5.38713,"is_reserved":false,"is_disabled":false,"rental_uris":{"android":"levelo://app?vid=42f8ccd4-fdba-44e3-852e-742768374a03","ios":"levelo://app?vid=42f8ccd4-fdba-44e3-852e-742768374a03"},"vehicle_type_id":"4","last_reported":1727726991,"current_range_meters":38800,"station_id":"ce4bgv12rcd13ifvqcp0","pricing_plan_id":"cebpf4jnsgd1na2vs0mg"},{"bike_id":"351389f4-9087-40cb-97d6-92782f47009b","system_id":"levelo_inurba_marseille","lat":43.31532,"lon":5.38026,"is_reserved":false,"is_disabled":false,"rental_uris":{"android":"levelo://app?vid=351389f4-9087-40cb-97d6-92782f47009b","ios":"levelo://app?vid=351389f4-9087-40cb-97d6-92782f47009b"},"vehicle_type_id":"4","last_reported":1727726991,"current_range_meters":9200,"station_id":"ce4bhsp2rcd13ifvqi50","pricing_plan_id":"cebpf4jnsgd1na2vs0mg"},{"bike_id":"712477c8-542e-4b87-8abc-ac83f6025cba","system_id":"levelo_inurba_marseille","lat":43.31846,"lon":5.4033,"is_reserved":false,"is_disabled":false,"rental_uris":{"android":"levelo://app?vid=712477c8-542e-4b87-8abc-ac83f6025cba","ios":"levelo://app?vid=712477c8-542e-4b87-8abc-ac83f6025cba"},"vehicle_type_id":"4","last_reported":1727726991,"current_range_meters":28000,"station_id":"ce4bh012rcd13ifvqcv0","pricing_plan_id":"cebpf4jnsgd1na2vs0mg"},{"bike_id":"f022ad8f-dfab-42bc-a4e1-fe6aea3dfddc","system_id":"levelo_inurba_marseille","lat":43.32287,"lon":5.3826,"is_reserved":false,"is_disabled":false,"rental_uris":{"android":"levelo://app?vid=f022ad8f-dfab-42bc-a4e1-fe6aea3dfddc","ios":"levelo://app?vid=f022ad8f-dfab-42bc-a4e1-fe6aea3dfddc"},"vehicle_type_id":"4","last_reported":1727726991,"current_range_meters":21600,"station_id":"ce4bhr12rcd13ifvqhqg","pricing_plan_id":"cebpf4jnsgd1na2vs0mg"},{"bike_id":"7f784c98-b623-4459-8bc8-4cfb5a3f7d7a","system_id":"levelo_inurba_marseille","lat":43.32289,"lon":5.38282,"is_reserved":false,"is_disabled":false,"rental_uris":{"android":"levelo://app?vid=7f784c98-b623-4459-8bc8-4cfb5a3f7d7a","ios":"levelo://app?vid=7f784c98-b623-4459-8bc8-4cfb5a3f7d7a"},"vehicle_type_id":"4","last_reported":1727726991,"current_range_meters":27600,"station_id":"ce4bhr12rcd13ifvqhqg","pricing_plan_id":"cebpf4jnsgd1na2vs0mg"},{"bike_id":"288e48f6-4171-4050-b5f3-805800e44449","system_id":"levelo_inurba_marseille","lat":43.30304,"lon":5.392086,"is_reserved":false,"is_disabled":false,"rental_uris":{"android":"levelo://app?vid=288e48f6-4171-4050-b5f3-805800e44449","ios":"levelo://app?vid=288e48f6-4171-4050-b5f3-805800e44449"},"vehicle_type_id":"4","last_reported":1727726991,"current_range_meters":3200,"station_id":"ce4bgkh2rcd13ifvqbk0","pricing_plan_id":"cebpf4jnsgd1na2vs0mg"},{"bike_id":"a99ded3c-d3ae-4287-922a-e941b9997c51","system_id":"levelo_inurba_marseille","lat":43.32365,"lon":5.38881,"is_reserved":false,"is_disabled":false,"rental_uris":{"android":"levelo://app?vid=a99ded3c-d3ae-4287-922a-e941b9997c51","ios":"levelo://app?vid=a99ded3c-d3ae-4287-922a-e941b9997c51"},"vehicle_type_id":"4","last_reported":1727726991,"current_range_meters":30800,"station_id":"ce4bhqp2rcd13ifvqhog","pricing_plan_id":"cebpf4jnsgd1na2vs0mg"},{"bike_id":"47b99a73-32e0-429b-8844-fa09c691ac43","system_id":"levelo_inurba_marseille","lat":43.30635,"lon":5.40085,"is_reserved":false,"is_disabled":false,"rental_uris":{"android":"levelo://app?vid=47b99a73-32e0-429b-8844-fa09c691ac43","ios":"levelo://app?vid=47b99a73-32e0-429b-8844-fa09c691ac43"},"vehicle_type_id":"4","last_reported":1727726991,"current_range_meters":34800,"station_id":"ce4bh112rcd13ifvqda0","pricing_plan_id":"cebpf4jnsgd1na2vs0mg"},{"bike_id":"39e8216b-bc8b-4724-b5ec-c1172bc47595","system_id":"levelo_inurba_marseille","lat":43.27897,"lon":5.38005,"is_reserved":false,"is_disabled":false,"rental_uris":{"android":"levelo://app?vid=39e8216b-bc8b-4724-b5ec-c1172bc47595","ios":"levelo://app?vid=39e8216b-bc8b-4724-b5ec-c1172bc47595"},"vehicle_type_id":"4","last_reported":1727726991,"current_range_meters":6800,"station_id":"ce4bhf92rcd13ifvqf50","pricing_plan_id":"cebpf4jnsgd1na2vs0mg"},{"bike_id":"e7ef144b-d387-419b-b4d9-93877d79cf26","system_id":"levelo_inurba_marseille","lat":43.29013,"lon":5.37569,"is_reserved":false,"is_disabled":false,"rental_uris":{"android":"levelo://app?vid=e7ef144b-d387-419b-b4d9-93877d79cf26","ios":"levelo://app?vid=e7ef144b-d387-419b-b4d9-93877d79cf26"},"vehicle_type_id":"4","last_reported":1727726991,"current_range_meters":38400,"station_id":"ce4bh692rcd13ifvqe90","pricing_plan_id":"cebpf4jnsgd1na2vs0mg"},{"bike_id":"76cdef5a-20c1-4ac3-a87e-b76cb8a4963d","system_id":"levelo_inurba_marseille","lat":43.31331,"lon":5.39707,"is_reserved":false,"is_disabled":false,"rental_uris":{"android":"levelo://app?vid=76cdef5a-20c1-4ac3-a87e-b76cb8a4963d","ios":"levelo://app?vid=76cdef5a-20c1-4ac3-a87e-b76cb8a4963d"},"vehicle_type_id":"4","last_reported":1727726991,"current_range_meters":6800,"station_id":"ce4bgvp2rcd13ifvqcu0","pricing_plan_id":"cebpf4jnsgd1na2vs0mg"},{"bike_id":"39e8b55e-870a-4ca6-9db5-b31cbec300ae","system_id":"levelo_inurba_marseille","lat":43.32654,"lon":5.40976,"is_reserved":false,"is_disabled":false,"rental_uris":{"android":"levelo://app?vid=39e8b55e-870a-4ca6-9db5-b31cbec300ae","ios":"levelo://app?vid=39e8b55e-870a-4ca6-9db5-b31cbec300ae"},"vehicle_type_id":"4","last_reported":1727726991,"current_range_meters":8800,"station_id":"ce4bhpp2rcd13ifvqhgg","pricing_plan_id":"cebpf4jnsgd1na2vs0mg"},{"bike_id":"c581e92d-781f-4a9c-a6ef-b05aa9478b17","system_id":"levelo_inurba_marseille","lat":43.31754,"lon":5.39017,"is_reserved":false,"is_disabled":false,"rental_uris":{"android":"levelo://app?vid=c581e92d-781f-4a9c-a6ef-b05aa9478b17","ios":"levelo://app?vid=c581e92d-781f-4a9c-a6ef-b05aa9478b17"},"vehicle_type_id":"4","last_reported":1727726991,"current_range_meters":39200,"station_id":"ce4bhqp2rcd13ifvqhng","pricing_plan_id":"cebpf4jnsgd1na2vs0mg"},{"bike_id":"3144f44d-7b7a-48d8-9baa-7fb152e2b7a2","system_id":"levelo_inurba_marseille","lat":43.24547,"lon":5.39525,"is_reserved":false,"is_disabled":false,"rental_uris":{"android":"levelo://app?vid=3144f44d-7b7a-48d8-9baa-7fb152e2b7a2","ios":"levelo://app?vid=3144f44d-7b7a-48d8-9baa-7fb152e2b7a2"},"vehicle_type_id":"4","last_reported":1727726991,"current_range_meters":8000,"station_id":"ce4bhlp2rcd13ifvqgjg","pricing_plan_id":"cebpf4jnsgd1na2vs0mg"},{"bike_id":"a131536c-0324-4201-99ca-165196adb98a","system_id":"levelo_inurba_marseille","lat":43.30343,"lon":5.36897,"is_reserved":false,"is_disabled":false,"rental_uris":{"android":"levelo://app?vid=a131536c-0324-4201-99ca-165196adb98a","ios":"levelo://app?vid=a131536c-0324-4201-99ca-165196adb98a"},"vehicle_type_id":"4","last_reported":1727726991,"current_range_meters":38800,"station_id":"ce4bgt12rcd13ifvqce0","pricing_plan_id":"cebpf4jnsgd1na2vs0mg"},{"bike_id":"177769c8-8308-4652-aa9f-e40ab3291c9a","system_id":"levelo_inurba_marseille","lat":43.25719,"lon":5.41116,"is_reserved":false,"is_disabled":false,"rental_uris":{"android":"levelo://app?vid=177769c8-8308-4652-aa9f-e40ab3291c9a","ios":"levelo://app?vid=177769c8-8308-4652-aa9f-e40ab3291c9a"},"vehicle_type_id":"4","last_reported":1727726991,"current_range_meters":30800,"station_id":"ce4bhkp2rcd13ifvqgd0","pricing_plan_id":"cebpf4jnsgd1na2vs0mg"},{"bike_id":"a9d50ff9-32a0-4d1b-a41a-5a5a3d1d52a2","system_id":"levelo_inurba_marseille","lat":43.28853,"lon":5.39319,"is_reserved":false,"is_disabled":false,"rental_uris":{"android":"levelo://app?vid=a9d50ff9-32a0-4d1b-a41a-5a5a3d1d52a2","ios":"levelo://app?vid=a9d50ff9-32a0-4d1b-a41a-5a5a3d1d52a2"},"vehicle_type_id":"4","last_reported":1727726991,"current_range_meters":38800,"station_id":"ce4bh2p2rcd13ifvqdi0","pricing_plan_id":"cebpf4jnsgd1na2vs0mg"},{"bike_id":"b7a75d39-7de2-45b7-9a7f-76b26f7a01b8","system_id":"levelo_inurba_marseille","lat":43.30742,"lon":5.37388,"is_reserved":false,"is_disabled":false,"rental_uris":{"android":"levelo://app?vid=b7a75d39-7de2-45b7-9a7f-76b26f7a01b8","ios":"levelo://app?vid=b7a75d39-7de2-45b7-9a7f-76b26f7a01b8"},"vehicle_type_id":"4","last_reported":1727726991,"current_range_meters":38400,"station_id":"ce4bguh2rcd13ifvqckg","pricing_plan_id":"cebpf4jnsgd1na2vs0mg"},{"bike_id":"b7e04b2a-1016-4de5-b69f-942a0153e488","system_id":"levelo_inurba_marseille","lat":43.30455,"lon":5.37907,"is_reserved":false,"is_disabled":false,"rental_uris":{"android":"levelo://app?vid=b7e04b2a-1016-4de5-b69f-942a0153e488","ios":"levelo://app?vid=b7e04b2a-1016-4de5-b69f-942a0153e488"},"vehicle_type_id":"4","last_reported":1727726991,"current_range_meters":18000,"station_id":"ce4bgup2rcd13ifvqcn0","pricing_plan_id":"cebpf4jnsgd1na2vs0mg"},