{"last_updated":1776776363,"ttl":60,"version":"2.2","data":{"bikes":[{"bike_id":"f2a13eaa-f6ae-41c9-ba12-be1fb5b470a3","system_id":"levelo_inurba_marseille","lat":43.28268,"lon":5.37094,"is_reserved":false,"is_disabled":false,"rental_uris":{"android":"levelo://app?vid=f2a13eaa-f6ae-41c9-ba12-be1fb5b470a3","ios":"levelo://app?vid=f2a13eaa-f6ae-41c9-ba12-be1fb5b470a3"},"vehicle_type_id":"4","last_reported":1776776364,"current_range_meters":2800,"station_id":"","pricing_plan_id":"cebpf4jnsgd1na2vs0mg"},{"bike_id":"b20cb9da-fd0c-4cd5-bc37-138b7838b8b7","system_id":"levelo_inurba_marseille","lat":43.28484,"lon":5.38412,"is_reserved":false,"is_disabled":false,"rental_uris":{"android":"levelo://app?vid=b20cb9da-fd0c-4cd5-bc37-138b7838b8b7","ios":"levelo://app?vid=b20cb9da-fd0c-4cd5-bc37-138b7838b8b7"},"vehicle_type_id":"4","last_reported":1776776364,"current_range_meters":2800,"station_id":"ce4bh512rcd13ifvqe3g","pricing_plan_id":"cebpf4jnsgd1na2vs0mg"},{"bike_id":"5e804e62-92a4-4683-a625-0007dbb0da62","system_id":"levelo_inurba_marseille","lat":43.30191,"lon":5.37452,"is_reserved":false,"is_disabled":false,"rental_uris":{"android":"levelo://app?vid=5e804e62-92a4-4683-a625-0007dbb0da62","ios":"levelo://app?vid=5e804e62-92a4-4683-a625-0007dbb0da62"},"vehicle_type_id":"4","last_reported":1776776364,"current_range_meters":2800,"station_id":"","pricing_plan_id":"cebpf4jnsgd1na2vs0mg"},{"bike_id":"da2a9ab2-7ba1-47ef-985b-9f06be1d0af5","system_id":"levelo_inurba_marseille","lat":43.32875,"lon":5.3667,"is_reserved":false,"is_disabled":false,"rental_uris":{"android":"levelo://app?vid=da2a9ab2-7ba1-47ef-985b-9f06be1d0af5","ios":"levelo://app?vid=da2a9ab2-7ba1-47ef-985b-9f06be1d0af5"},"vehicle_type_id":"4","last_reported":1776776364,"current_range_meters":2800,"station_id":"","pricing_plan_id":"cebpf4jnsgd1na2vs0mg"},{"bike_id":"53e22d8a-e368-4021-b73e-602f8425500b","system_id":"levelo_inurba_marseille","lat":43.2318,"lon":5.39978,"is_reserved":false,"is_disabled":false,"rental_uris":{"android":"levelo://app?vid=53e22d8a-e368-4021-b73e-602f8425500b","ios":"levelo://app?vid=53e22d8a-e368-4021-b73e-602f8425500b"},"vehicle_type_id":"4","last_reported":1776776364,"current_range_meters":2800,"station_id":"ce4bhn12rcd13ifvqgqg","pricing_plan_id":"cebpf4jnsgd1na2vs0mg"},{"bike_id":"f354a094-375c-48cd-a1f3-ffac07052fc6","system_id":"levelo_inurba_marseille","lat":43.2873,"lon":5.37927,"is_reserved":false,"is_disabled":false,"rental_uris":{"android":"levelo://app?vid=f354a094-375c-48cd-a1f3-ffac07052fc6","ios":"levelo://app?vid=f354a094-375c-48cd-a1f3-ffac07052fc6"},"vehicle_type_id":"4","last_reported":1776776364,"current_range_meters":2800,"station_id":"ce4bh9p2rcd13ifvqec0","pricing_plan_id":"cebpf4jnsgd1na2vs0mg"},{"bike_id":"2c8fb7b6-15de-4b3e-885e-86fdecb47dd5","system_id":"levelo_inurba_marseille","lat":43.28474,"lon":5.48398,"is_reserved":false,"is_disabled":false,"rental_uris":{"android":"levelo://app?vid=2c8fb7b6-15de-4b3e-885e-86fdecb47dd5","ios":"levelo://app?vid=2c8fb7b6-15de-4b3e-885e-86fdecb47dd5"},"vehicle_type_id":"4","last_reported":1776776364,"current_range_meters":2800,"station_id":"st_d3svhcjqgbts73a3dn0g","pricing_plan_id":"cebpf4jnsgd1na2vs0mg"},{"bike_id":"d02380b4-ad24-4679-abc6-78d62af44e0e","system_id":"levelo_inurba_marseille","lat":43.24687,"lon":5.39375,"is_reserved":false,"is_disabled":false,"rental_uris":{"android":"levelo://app?vid=d02380b4-ad24-4679-abc6-78d62af44e0e","ios":"levelo://app?vid=d02380b4-ad24-4679-abc6-78d62af44e0e"},"vehicle_type_id":"4","last_reported":1776776364,"current_range_meters":2800,"station_id":"","pricing_plan_id":"cebpf4jnsgd1na2vs0mg"},{"bike_id":"50e7449f-3b67-4629-9798-1c6487762a63","system_id":"levelo_inurba_marseille","lat":43.32545,"lon":5.40697,"is_reserved":false,"is_disabled":false,"rental_uris":{"android":"levelo://app?vid=50e7449f-3b67-4629-9798-1c6487762a63","ios":"levelo://app?vid=50e7449f-3b67-4629-9798-1c6487762a63"},"vehicle_type_id":"4","last_reported":1776776364,"current_range_meters":2800,"station_id":"","pricing_plan_id":"cebpf4jnsgd1na2vs0mg"},{"bike_id":"1a8f1aa0-df04-425c-8729-921433121ab4","system_id":"levelo_inurba_marseille","lat":43.29499,"lon":5.43296,"is_reserved":false,"is_disabled":false,"rental_uris":{"android":"levelo://app?vid=1a8f1aa0-df04-425c-8729-921433121ab4","ios":"levelo://app?vid=1a8f1aa0-df04-425c-8729-921433121ab4"},"vehicle_type_id":"4","last_reported":1776776364,"current_range_meters":2800,"station_id":"st_d3j5ugp08ojc73fj9d10","pricing_plan_id":"cebpf4jnsgd1na2vs0mg"},{"bike_id":"e0cde4df-30de-4915-86a5-5011cd392165","system_id":"levelo_inurba_marseille","lat":43.29357,"lon":5.37845,"is_reserved":false,"is_disabled":false,"rental_uris":{"android":"levelo://app?vid=e0cde4df-30de-4915-86a5-5011cd392165","ios":"levelo://app?vid=e0cde4df-30de-4915-86a5-5011cd392165"},"vehicle_type_id":"4","last_reported":1776776364,"current_range_meters":2800,"station_id":"ce4bgjh2rcd13ifvqbf0","pricing_plan_id":"cebpf4jnsgd1na2vs0mg"},{"bike_id":"fd8b40b7-becf-4893-bd8d-27e23340a297","system_id":"levelo_inurba_marseille","lat":43.22972,"lon":5.40067,"is_reserved":false,"is_disabled":true,"rental_uris":{"android":"levelo://app?vid=fd8b40b7-becf-4893-bd8d-27e23340a297","ios":"levelo://app?vid=fd8b40b7-becf-4893-bd8d-27e23340a297"},"vehicle_type_id":"4","last_reported":1776776364,"current_range_meters":3200,"station_id":"","pricing_plan_id":"cebpf4jnsgd1na2vs0mg"},{"bike_id":"c29a7462-bf3b-4099-aab4-88ce9d681e39","system_id":"levelo_inurba_marseille","lat":43.26943,"lon":5.38636,"is_reserved":false,"is_disabled":true,"rental_uris":{"android":"levelo://app?vid=c29a7462-bf3b-4099-aab4-88ce9d681e39","ios":"levelo://app?vid=c29a7462-bf3b-4099-aab4-88ce9d681e39"},"vehicle_type_id":"4","last_reported":1776776364,"current_range_meters":3200,"station_id":"ce4bhh92rcd13ifvqfh0","pricing_plan_id":"cebpf4jnsgd1na2vs0mg"},{"bike_id":"f78095d6-9734-4de5-b491-a12e7b02ce8e","system_id":"levelo_inurba_marseille","lat":43.28308,"lon":5.38073,"is_reserved":false,"is_disabled":false,"rental_uris":{"android":"levelo://app?vid=f78095d6-9734-4de5-b491-a12e7b02ce8e","ios":"levelo://app?vid=f78095d6-9734-4de5-b491-a12e7b02ce8e"},"vehicle_type_id":"4","last_reported":1776776364,"current_range_meters":3200,"station_id":"","pricing_plan_id":"cebpf4jnsgd1na2vs0mg"},{"bike_id":"c2513be3-6fbd-4092-ba18-73694908a5d3","system_id":"levelo_inurba_marseille","lat":43.28618,"lon":5.35097,"is_reserved":false,"is_disabled":false,"rental_uris":{"android":"levelo://app?vid=c2513be3-6fbd-4092-ba18-73694908a5d3","ios":"levelo://app?vid=c2513be3-6fbd-4092-ba18-73694908a5d3"},"vehicle_type_id":"4","last_reported":1776776364,"current_range_meters":3200,"station_id":"ce4bhch2rcd13ifvqeug","pricing_plan_id":"cebpf4jnsgd1na2vs0mg"},{"bike_id":"ee155d87-b616-4d6d-9ccb-27eb7529c35f","system_id":"levelo_inurba_marseille","lat":43.29899,"lon":5.38129,"is_reserved":false,"is_disabled":false,"rental_uris":{"android":"levelo://app?vid=ee155d87-b616-4d6d-9ccb-27eb7529c35f","ios":"levelo://app?vid=ee155d87-b616-4d6d-9ccb-27eb7529c35f"},"vehicle_type_id":"4","last_reported":1776776364,"current_range_meters":3200,"station_id":"ce4bgj12rcd13ifvqbc0","pricing_plan_id":"cebpf4jnsgd1na2vs0mg"},{"bike_id":"dffd7f0d-42b7-4fba-bf2b-9840bbd5c7a9","system_id":"levelo_inurba_marseille","lat":43.28862,"lon":5.42519,"is_reserved":false,"is_disabled":false,"rental_uris":{"android":"levelo://app?vid=dffd7f0d-42b7-4fba-bf2b-9840bbd5c7a9","ios":"levelo://app?vid=dffd7f0d-42b7-4fba-bf2b-9840bbd5c7a9"},"vehicle_type_id":"4","last_reported":1776776364,"current_range_meters":3200,"station_id":"st_d3b462108ojc7389ooeg","pricing_plan_id":"cebpf4jnsgd1na2vs0mg"},{"bike_id":"973797d2-0b74-4f66-a28c-727366823c4e","system_id":"levelo_inurba_marseille","lat":43.27185,"lon":5.40973,"is_reserved":false,"is_disabled":true,"rental_uris":{"android":"levelo://app?vid=973797d2-0b74-4f66-a28c-727366823c4e","ios":"levelo://app?vid=973797d2-0b74-4f66-a28c-727366823c4e"},"vehicle_type_id":"4","last_reported":1776776364,"current_range_meters":3200,"station_id":"ce4bhl12rcd13ifvqgf0","pricing_plan_id":"cebpf4jnsgd1na2vs0mg"},{"bike_id":"41becfdd-dd53-4411-a01f-23a97439f041","system_id":"levelo_inurba_marseille","lat":43.28273,"lon":5.35072,"is_reserved":false,"is_disabled":false,"rental_uris":{"android":"levelo://app?vid=41becfdd-dd53-4411-a01f-23a97439f041","ios":"levelo://app?vid=41becfdd-dd53-4411-a01f-23a97439f041"},"vehicle_type_id":"4","last_reported":1776776364,"current_range_meters":3200,"station_id":"ce4bhbp2rcd13ifvqerg","pricing_plan_id":"cebpf4jnsgd1na2vs0mg"},{"bike_id":"e7c5836a-e1d1-48dd-87de-2aa9612ee55f","system_id":"levelo_inurba_marseille","lat":43.26942,"lon":5.40248,"is_reserved":false,"is_disabled":false,"rental_uris":{"android":"levelo://app?vid=e7c5836a-e1d1-48dd-87de-2aa9612ee55f","ios":"levelo://app?vid=e7c5836a-e1d1-48dd-87de-2aa9612ee55f"},"vehicle_type_id":"4","last_reported":1776776364,"current_range_meters":3200,"station_id":"cjm6bp8fraef2m0cb0m0","pricing_plan_id":"cebpf4jnsgd1na2vs0mg"},{"bike_id":"829117d1-3d69-4fef-8ca2-b4022d7b2e7c","system_id":"levelo_inurba_marseille","lat":43.22567,"lon":5.41614,"is_reserved":false,"is_disabled":false,"rental_uris":{"android":"levelo://app?vid=829117d1-3d69-4fef-8ca2-b4022d7b2e7c","ios":"levelo://app?vid=829117d1-3d69-4fef-8ca2-b4022d7b2e7c"},"vehicle_type_id":"4","last_reported":1776776364,"current_range_meters":3200,"station_id":"st_d2o4gvlbi1j2169b742g","pricing_plan_id":"cebpf4jnsgd1na2vs0mg"},{"bike_id":"8aa0515d-2017-4963-b648-c61a3a68d985","system_id":"levelo_inurba_marseille","lat":43.28729,"lon":5.37921,"is_reserved":false,"is_disabled":false,"rental_uris":{"android":"levelo://app?vid=8aa0515d-2017-4963-b648-c61a3a68d985","ios":"levelo://app?vid=8aa0515d-2017-4963-b648-c61a3a68d985"},"vehicle_type_id":"4","last_reported":1776776364,"current_range_meters":3200,"station_id":"ce4bh9p2rcd13ifvqec0","pricing_plan_id":"cebpf4jnsgd1na2vs0mg"},{"bike_id":"ae327807-d8ff-45af-b8c4-c90d3303c082","system_id":"levelo_inurba_marseille","lat":43.28487,"lon":5.48387,"is_reserved":false,"is_disabled":false,"rental_uris":{"android":"levelo://app?vid=ae327807-d8ff-45af-b8c4-c90d3303c082","ios":"levelo://app?vid=ae327807-d8ff-45af-b8c4-c90d3303c082"},"vehicle_type_id":"4","last_reported":1776776364,"current_range_meters":3600,"station_id":"","pricing_plan_id":"cebpf4jnsgd1na2vs0mg"},{"bike_id":"606312ef-25d8-4322-ab09-7d5e940f8e33","system_id":"levelo_inurba_marseille","lat":43.33612,"lon":5.40997,"is_reserved":false,"is_disabled":false,"rental_uris":{"android":"levelo://app?vid=606312ef-25d8-4322-ab09-7d5e940f8e33","ios":"levelo://app?vid=606312ef-25d8-4322-ab09-7d5e940f8e33"},"vehicle_type_id":"4","last_reported":1776776364,"current_range_meters":3600,"station_id":"ce4bhqh2rcd13ifvqhmg","pricing_plan_id":"cebpf4jnsgd1na2vs0mg"},{"bike_id":"a2e0a403-6fb6-4418-9b19-ecf66709fae6","system_id":"levelo_inurba_marseille","lat":43.287,"lon":5.46667,"is_reserved":false,"is_disabled":false,"rental_uris":{"android":"levelo://app?vid=a2e0a403-6fb6-4418-9b19-ecf66709fae6","ios":"levelo://app?vid=a2e0a403-6fb6-4418-9b19-ecf66709fae6"},"vehicle_type_id":"4","last_reported":1776776364,"current_range_meters":3600,"station_id":"st_d6tc3vkotcvc738tfjhg","pricing_plan_id":"cebpf4jnsgd1na2vs0mg"},{"bike_id":"65d6a7b3-f762-4754-9bb2-0a07359e09e3","system_id":"levelo_inurba_marseille","lat":43.28443,"lon":5.35881,"is_reserved":false,"is_disabled":false,"rental_uris":{"android":"levelo://app?vid=65d6a7b3-f762-4754-9bb2-0a07359e09e3","ios":"levelo://app?vid=65d6a7b3-f762-4754-9bb2-0a07359e09e3"},"vehicle_type_id":"4","last_reported":1776776364,"current_range_meters":3600,"station_id":"ce4bhah2rcd13ifvqei0","pricing_plan_id":"cebpf4jnsgd1na2vs0mg"},{"bike_id":"e0ee8021-ddfb-4c50-b6c7-66721b6017ac","system_id":"levelo_inurba_marseille","lat":43.2922,"lon":5.36073,"is_reserved":false,"is_disabled":false,"rental_uris":{"android":"levelo://app?vid=e0ee8021-ddfb-4c50-b6c7-66721b6017ac","ios":"levelo://app?vid=e0ee8021-ddfb-4c50-b6c7-66721b6017ac"},"vehicle_type_id":"4","last_reported":1776776364,"current_range_meters":3600,"station_id":"ce4bhbh2rcd13ifvqeqg","pricing_plan_id":"cebpf4jnsgd1na2vs0mg"},{"bike_id":"f6ae0d6f-7650-4129-bcd3-89b4f6eefe46","system_id":"levelo_inurba_marseille","lat":43.32497,"lon":5.36561,"is_reserved":false,"is_disabled":false,"rental_uris":{"android":"levelo://app?vid=f6ae0d6f-7650-4129-bcd3-89b4f6eefe46","ios":"levelo://app?vid=f6ae0d6f-7650-4129-bcd3-89b4f6eefe46"},"vehicle_type_id":"4","last_reported":1776776364,"current_range_meters":3600,"station_id":"ce4bhs12rcd13ifvqhvg","pricing_plan_id":"cebpf4jnsgd1na2vs0mg"},{"bike_id":"91f13632-e19e-4a44-8ac2-0ec92c0781b9","system_id":"levelo_inurba_marseille","lat":43.3105,"lon":5.39385,"is_reserved":false,"is_disabled":false,"rental_uris":{"android":"levelo://app?vid=91f13632-e19e-4a44-8ac2-0ec92c0781b9","ios":"levelo://app?vid=91f13632-e19e-4a44-8ac2-0ec92c0781b9"},"vehicle_type_id":"4","last_reported":1776776364,"current_range_meters":3600,"station_id":"","pricing_plan_id":"cebpf4jnsgd1na2vs0mg"},{"bike_id":"82e4a329-5952-4081-9814-b1ad72240a02","system_id":"levelo_inurba_marseille","lat":43.26058,"lon":5.39929,"is_reserved":false,"is_disabled":false,"rental_uris":{"android":"levelo://app?vid=82e4a329-5952-4081-9814-b1ad72240a02","ios":"levelo://app?vid=82e4a329-5952-4081-9814-b1ad72240a02"},"vehicle_type_id":"4","last_reported":1776776364,"current_range_meters":3600,"station_id":"","pricing_plan_id":"cebpf4jnsgd1na2vs0mg"},{"bike_id":"e14bc37b-1747-4952-b195-b962e722f135","system_id":"levelo_inurba_marseille","lat":43.30088,"lon":5.37828,"is_reserved":false,"is_disabled":false,"rental_uris":{"android":"levelo://app?vid=e14bc37b-1747-4952-b195-b962e722f135","ios":"levelo://app?vid=e14bc37b-1747-4952-b195-b962e722f135"},"vehicle_type_id":"4","last_reported":1776776364,"current_range_meters":3600,"station_id":"","pricing_plan_id":"cebpf4jnsgd1na2vs0mg"},{"bike_id":"48713af2-72c3-4ac6-97df-5f2e919c9f23","system_id":"levelo_inurba_marseille","lat":43.29051,"lon":5.4271,"is_reserved":false,"is_disabled":false,"rental_uris":{"android":"levelo://app?vid=48713af2-72c3-4ac6-97df-5f2e919c9f23","ios":"levelo://app?vid=48713af2-72c3-4ac6-97df-5f2e919c9f23"},"vehicle_type_id":"4","last_reported":1776776364,"current_range_meters":4000,"station_id":"","pricing_plan_id":"cebpf4jnsgd1na2vs0mg"},{"bike_id":"13e58907-65ee-4d3b-98a1-d78a9e22b950","system_id":"levelo_inurba_marseille","lat":43.21212,"lon":5.35069,"is_reserved":false,"is_disabled":false,"rental_uris":{"android":"levelo://app?vid=13e58907-65ee-4d3b-98a1-d78a9e22b950","ios":"levelo://app?vid=13e58907-65ee-4d3b-98a1-d78a9e22b950"},"vehicle_type_id":"4","last_reported":1776776364,"current_range_meters":4000,"station_id":"st_cvj6sg6p6f1abm77japg","pricing_plan_id":"cebpf4jnsgd1na2vs0mg"},{"bike_id":"b8dff020-646a-49aa-8888-952317d56b8f","system_id":"levelo_inurba_marseille","lat":43.24165,"lon":5.36393,"is_reserved":false,"is_disabled":false,"rental_uris":{"android":"levelo://app?vid=b8dff020-646a-49aa-8888-952317d56b8f","ios":"levelo://app?vid=b8dff020-646a-49aa-8888-952317d56b8f"},"vehicle_type_id":"4","last_reported":1776776364,"current_range_meters":4000,"station_id":"cpo36qri1sfpv3e86is0","pricing_plan_id":"cebpf4jnsgd1na2vs0mg"},{"bike_id":"b022f252-eb2a-4d2c-b26d-0b73ba3f77ef","system_id":"levelo_inurba_marseille","lat":43.30124,"lon":5.38763,"is_reserved":false,"is_disabled":false,"rental_uris":{"android":"levelo://app?vid=b022f252-eb2a-4d2c-b26d-0b73ba3f77ef","ios":"levelo://app?vid=b022f252-eb2a-4d2c-b26d-0b73ba3f77ef"},"vehicle_type_id":"4","last_reported":1776776364,"current_range_meters":4000,"station_id":"ce4bghh2rcd13ifvqb60","pricing_plan_id":"cebpf4jnsgd1na2vs0mg"},{"bike_id":"39982dcf-be10-4084-a0d1-7b4639111e36","system_id":"levelo_inurba_marseille","lat":43.21186,"lon":5.3507,"is_reserved":false,"is_disabled":true,"rental_uris":{"android":"levelo://app?vid=39982dcf-be10-4084-a0d1-7b4639111e36","ios":"levelo://app?vid=39982dcf-be10-4084-a0d1-7b4639111e36"},"vehicle_type_id":"4","last_reported":1776776364,"current_range_meters":4000,"station_id":"st_cvj6sg6p6f1abm77japg","pricing_plan_id":"cebpf4jnsgd1na2vs0mg"},{"bike_id":"eb0dd92c-7777-4aff-ab88-96a22419386b","system_id":"levelo_inurba_marseille","lat":43.30148,"lon":5.38087,"is_reserved":false,"is_disabled":true,"rental_uris":{"android":"levelo://app?vid=eb0dd92c-7777-4aff-ab88-96a22419386b","ios":"levelo://app?vid=eb0dd92c-7777-4aff-ab88-96a22419386b"},"vehicle_type_id":"4","last_reported":1776776364,"current_range_meters":4000,"station_id":"ce4bgjp2rcd13ifvqbh0","pricing_plan_id":"cebpf4jnsgd1na2vs0mg"},{"bike_id":"a2f16209-a68b-401b-91f8-28a5abbac2b6","system_id":"levelo_inurba_marseille","lat":43.29426,"lon":5.37384,"is_reserved":false,"is_disabled":false,"rental_uris":{"android":"levelo://app?vid=a2f16209-a68b-401b-91f8-28a5abbac2b6","ios":"levelo://app?vid=a2f16209-a68b-401b-91f8-28a5abbac2b6"},"vehicle_type_id":"4","last_reported":1776776364,"current_range_meters":4000,"station_id":"","pricing_plan_id":"cebpf4jnsgd1na2vs0mg"},{"bike_id":"b2011645-cbc6-44f3-8c33-1aca90ae2d9e","system_id":"levelo_inurba_marseille","lat":43.23217,"lon":5.35069,"is_reserved":false,"is_disabled":false,"rental_uris":{"android":"levelo://app?vid=b2011645-cbc6-44f3-8c33-1aca90ae2d9e","ios":"levelo://app?vid=b2011645-cbc6-44f3-8c33-1aca90ae2d9e"},"vehicle_type_id":"4","last_reported":1776776364,"current_range_meters":4000,"station_id":"","pricing_plan_id":"cebpf4jnsgd1na2vs0mg"},{"bike_id":"a935de48-a818-4557-afb5-765186b1961a","system_id":"levelo_inurba_marseille","lat":43.27361,"lon":5.36243,"is_reserved":false,"is_disabled":false,"rental_uris":{"android":"levelo://app?vid=a935de48-a818-4557-afb5-765186b1961a","ios":"levelo://app?vid=a935de48-a818-4557-afb5-765186b1961a"},"vehicle_type_id":"4","last_reported":1776776364,"current_range_meters":4000,"station_id":"ce4bhbh2rcd13ifvqeo0","pricing_plan_id":"cebpf4jnsgd1na2vs0mg"},{"bike_id":"96bc24e1-014f-4761-8431-a57fac597c23","system_id":"levelo_inurba_marseille","lat":43.28271,"lon":5.3506,"is_reserved":false,"is_disabled":false,"rental_uris":{"android":"levelo://app?vid=96bc24e1-014f-4761-8431-a57fac597c23","ios":"levelo://app?vid=96bc24e1-014f-4761-8431-a57fac597c23"},"vehicle_type_id":"4","last_reported":1776776364,"current_range_meters":4400,"station_id":"ce4bhbp2rcd13ifvqerg","pricing_plan_id":"cebpf4jnsgd1na2vs0mg"},{"bike_id":"298ce862-7d25-4040-a95d-6e22e47d6e12","system_id":"levelo_inurba_marseille","lat":43.27392,"lon":5.36248,"is_reserved":false,"is_disabled":false,"rental_uris":{"android":"levelo://app?vid=298ce862-7d25-4040-a95d-6e22e47d6e12","ios":"levelo://app?vid=298ce862-7d25-4040-a95d-6e22e47d6e12"},"vehicle_type_id":"4","last_reported":1776776364,"current_range_meters":4400,"station_id":"ce4bhbh2rcd13ifvqeo0","pricing_plan_id":"cebpf4jnsgd1na2vs0mg"},{"bike_id":"095af073-a179-4492-a86c-581f06ee8918","system_id":"levelo_inurba_marseille","lat":43.30959,"lon":5.39052,"is_reserved":false,"is_disabled":false,"rental_uris":{"android":"levelo://app?vid=095af073-a179-4492-a86c-581f06ee8918","ios":"levelo://app?vid=095af073-a179-4492-a86c-581f06ee8918"},"vehicle_type_id":"4","last_reported":1776776364,"current_range_meters":4400,"station_id":"ce4bgup2rcd13ifvqco0","pricing_plan_id":"cebpf4jnsgd1na2vs0mg"},{"bike_id":"4f9a5344-6c3f-4c5e-94dc-6a2322522c53","system_id":"levelo_inurba_marseille","lat":43.24652,"lon":5.38871,"is_reserved":false,"is_disabled":false,"rental_uris":{"android":"levelo://app?vid=4f9a5344-6c3f-4c5e-94dc-6a2322522c53","ios":"levelo://app?vid=4f9a5344-6c3f-4c5e-94dc-6a2322522c53"},"vehicle_type_id":"4","last_reported":1776776364,"current_range_meters":4400,"station_id":"ce4bhg12rcd13ifvqf60","pricing_plan_id":"cebpf4jnsgd1na2vs0mg"},{"bike_id":"30d87ff1-3522-4098-a0b4-a7d36c1bced3","system_id":"levelo_inurba_marseille","lat":43.2762,"lon":5.36109,"is_reserved":false,"is_disabled":false,"rental_uris":{"android":"levelo://app?vid=30d87ff1-3522-4098-a0b4-a7d36c1bced3","ios":"levelo://app?vid=30d87ff1-3522-4098-a0b4-a7d36c1bced3"},"vehicle_type_id":"4","last_reported":1776776364,"current_range_meters":4400,"station_id":"ce4bgj92rcd13ifvqbe0","pricing_plan_id":"cebpf4jnsgd1na2vs0mg"},{"bike_id":"51eaced6-0934-4fa2-afaf-e2981f28a81f","system_id":"levelo_inurba_marseille","lat":43.278111,"lon":5.407143,"is_reserved":false,"is_disabled":true,"rental_uris":{"android":"levelo://app?vid=51eaced6-0934-4fa2-afaf-e2981f28a81f","ios":"levelo://app?vid=51eaced6-0934-4fa2-afaf-e2981f28a81f"},"vehicle_type_id":"4","last_reported":1776776364,"current_range_meters":4400,"station_id":"ce4bhnp2rcd13ifvqh0g","pricing_plan_id":"cebpf4jnsgd1na2vs0mg"},{"bike_id":"22033817-0b57-4aac-b4c2-cb663c9a4002","system_id":"levelo_inurba_marseille","lat":43.31114,"lon":5.38972,"is_reserved":false,"is_disabled":false,"rental_uris":{"android":"levelo://app?vid=22033817-0b57-4aac-b4c2-cb663c9a4002","ios":"levelo://app?vid=22033817-0b57-4aac-b4c2-cb663c9a4002"},"vehicle_type_id":"4","last_reported":1776776364,"current_range_meters":4400,"station_id":"","pricing_plan_id":"cebpf4jnsgd1na2vs0mg"},{"bike_id":"678be1e3-7bf2-4e61-8458-42d5abd6c5bd","system_id":"levelo_inurba_marseille","lat":43.33758,"lon":5.37483,"is_reserved":false,"is_disabled":false,"rental_uris":{"android":"levelo://app?vid=678be1e3-7bf2-4e61-8458-42d5abd6c5bd","ios":"levelo://app?vid=678be1e3-7bf2-4e61-8458-42d5abd6c5bd"},"vehicle_type_id":"4","last_reported":1776776364,"current_range_meters":4800,"station_id":"","pricing_plan_id":"cebpf4jnsgd1na2vs0mg"},{"bike_id":"1f7a2d29-0ba7-4b8b-9cac-6ff894aac21f","system_id":"levelo_inurba_marseille","lat":43.32935,"lon":5.39032,"is_reserved":false,"is_disabled":true,"rental_uris":{"android":"levelo://app?vid=1f7a2d29-0ba7-4b8b-9cac-6ff894aac21f","ios":"levelo://app?vid=1f7a2d29-0ba7-4b8b-9cac-6ff894aac21f"},"vehicle_type_id":"4","last_reported":1776776364,"current_range_meters":4800,"station_id":"","pricing_plan_id":"cebpf4jnsgd1na2vs0mg"},{"bike_id":"5ce476e5-a743-46c1-88d7-b46e717c81d1","system_id":"levelo_inurba_marseille","lat":43.26785,"lon":5.39401,"is_reserved":false,"is_disabled":false,"rental_uris":{"android":"levelo://app?vid=5ce476e5-a743-46c1-88d7-b46e717c81d1","ios":"levelo://app?vid=5ce476e5-a743-46c1-88d7-b46e717c81d1"},"vehicle_type_id":"4","last_reported":1776776364,"current_range_meters":4800,"station_id":"ce4bhh12rcd13ifvqfg0","pricing_plan_id":"cebpf4jnsgd1na2vs0mg"},{"bike_id":"adc2aee8-3ca7-42ae-9e38-57ec5a768c88","system_id":"levelo_inurba_marseille","lat":43.30585,"lon":5.39353,"is_reserved":false,"is_disabled":false,"rental_uris":{"android":"levelo://app?vid=adc2aee8-3ca7-42ae-9e38-57ec5a768c88","ios":"levelo://app?vid=adc2aee8-3ca7-42ae-9e38-57ec5a768c88"},"vehicle_type_id":"4","last_reported":1776776364,"current_range_meters":4800,"station_id":"ce4bh0p2rcd13ifvqd80","pricing_plan_id":"cebpf4jnsgd1na2vs0mg"},{"bike_id":"fdde59fb-e056-425c-9fdc-14b94359e5a7","system_id":"levelo_inurba_marseille","lat":43.31755,"lon":5.38425,"is_reserved":false,"is_disabled":false,"rental_uris":{"android":"levelo://app?vid=fdde59fb-e056-425c-9fdc-14b94359e5a7","ios":"levelo://app?vid=fdde59fb-e056-425c-9fdc-14b94359e5a7"},"vehicle_type_id":"4","last_reported":1776776364,"current_range_meters":4800,"station_id":"","pricing_plan_id":"cebpf4jnsgd1na2vs0mg"},{"bike_id":"75c6226d-01f7-448a-a1a9-2d3c1239b32c","system_id":"levelo_inurba_marseille","lat":43.28267,"lon":5.35059,"is_reserved":false,"is_disabled":false,"rental_uris":{"android":"levelo://app?vid=75c6226d-01f7-448a-a1a9-2d3c1239b32c","ios":"levelo://app?vid=75c6226d-01f7-448a-a1a9-2d3c1239b32c"},"vehicle_type_id":"4","last_reported":1776776364,"current_range_meters":4800,"station_id":"ce4bhbp2rcd13ifvqerg","pricing_plan_id":"cebpf4jnsgd1na2vs0mg"},{"bike_id":"0fdc542d-acd2-4025-8d63-512d2f4432f7","system_id":"levelo_inurba_marseille","lat":43.292316,"lon":5.360695,"is_reserved":false,"is_disabled":false,"rental_uris":{"android":"levelo://app?vid=0fdc542d-acd2-4025-8d63-512d2f4432f7","ios":"levelo://app?vid=0fdc542d-acd2-4025-8d63-512d2f4432f7"},"vehicle_type_id":"4","last_reported":1776776364,"current_range_meters":4800,"station_id":"ce4bh192rcd13ifvqdd0","pricing_plan_id":"cebpf4jnsgd1na2vs0mg"},{"bike_id":"093dc3e7-9b50-461c-bf1f-4e4b151d2bf6","system_id":"levelo_inurba_marseille","lat":43.23194,"lon":5.39977,"is_reserved":false,"is_disabled":false,"rental_uris":{"android":"levelo://app?vid=093dc3e7-9b50-461c-bf1f-4e4b151d2bf6","ios":"levelo://app?vid=093dc3e7-9b50-461c-bf1f-4e4b151d2bf6"},"vehicle_type_id":"4","last_reported":1776776364,"current_range_meters":5600,"station_id":"ce4bhn12rcd13ifvqgqg","pricing_plan_id":"cebpf4jnsgd1na2vs0mg"},{"bike_id":"25c744b8-d270-44ca-bf63-9cb47f9e5b1e","system_id":"levelo_inurba_marseille","lat":43.26544,"lon":5.37271,"is_reserved":false,"is_disabled":true,"rental_uris":{"android":"levelo://app?vid=25c744b8-d270-44ca-bf63-9cb47f9e5b1e","ios":"levelo://app?vid=25c744b8-d270-44ca-bf63-9cb47f9e5b1e"},"vehicle_type_id":"4","last_reported":1776776364,"current_range_meters":5600,"station_id":"ce4bhg12rcd13ifvqf70","pricing_plan_id":"cebpf4jnsgd1na2vs0mg"},{"bike_id":"72e7de6b-aac4-4dcc-8b49-b21b487d3dd7","system_id":"levelo_inurba_marseille","lat":43.22569,"lon":5.41618,"is_reserved":false,"is_disabled":false,"rental_uris":{"android":"levelo://app?vid=72e7de6b-aac4-4dcc-8b49-b21b487d3dd7","ios":"levelo://app?vid=72e7de6b-aac4-4dcc-8b49-b21b487d3dd7"},"vehicle_type_id":"4","last_reported":1776776364,"current_range_meters":5600,"station_id":"st_d2o4gvlbi1j2169b742g","pricing_plan_id":"cebpf4jnsgd1na2vs0mg"},{"bike_id":"09b59e91-f06b-4372-9bf2-5ce914b43190","system_id":"levelo_inurba_marseille","lat":43.2949,"lon":5.43271,"is_reserved":false,"is_disabled":false,"rental_uris":{"android":"levelo://app?vid=09b59e91-f06b-4372-9bf2-5ce914b43190","ios":"levelo://app?vid=09b59e91-f06b-4372-9bf2-5ce914b43190"},"vehicle_type_id":"4","last_reported":1776776364,"current_range_meters":5600,"station_id":"st_d3j5ugp08ojc73fj9d10","pricing_plan_id":"cebpf4jnsgd1na2vs0mg"},{"bike_id":"7906e72b-53a3-4fcf-9bd4-5439c0f100ea","system_id":"levelo_inurba_marseille","lat":43.28702,"lon":5.3739,"is_reserved":false,"is_disabled":false,"rental_uris":{"android":"levelo://app?vid=7906e72b-53a3-4fcf-9bd4-5439c0f100ea","ios":"levelo://app?vid=7906e72b-53a3-4fcf-9bd4-5439c0f100ea"},"vehicle_type_id":"4","last_reported":1776776364,"current_range_meters":5600,"station_id":"ce4bh3p2rcd13ifvqdq0","pricing_plan_id":"cebpf4jnsgd1na2vs0mg"},{"bike_id":"2b91d518-5095-4415-99e4-124095a25fff","system_id":"levelo_inurba_marseille","lat":43.33692,"lon":5.39839,"is_reserved":false,"is_disabled":false,"rental_uris":{"android":"levelo://app?vid=2b91d518-5095-4415-99e4-124095a25fff","ios":"levelo://app?vid=2b91d518-5095-4415-99e4-124095a25fff"},"vehicle_type_id":"4","last_reported":1776776364,"current_range_meters":5600,"station_id":"","pricing_plan_id":"cebpf4jnsgd1na2vs0mg"},{"bike_id":"a65809da-7d87-4f4c-9251-b7b2777b97bc","system_id":"levelo_inurba_marseille","lat":43.31396,"lon":5.3674,"is_reserved":false,"is_disabled":false,"rental_uris":{"android":"levelo://app?vid=a65809da-7d87-4f4c-9251-b7b2777b97bc","ios":"levelo://app?vid=a65809da-7d87-4f4c-9251-b7b2777b97bc"},"vehicle_type_id":"4","last_reported":1776776364,"current_range_meters":5600,"station_id":"","pricing_plan_id":"cebpf4jnsgd1na2vs0mg"},{"bike_id":"b357578c-7d34-42e5-a7cf-f58b2e7561d1","system_id":"levelo_inurba_marseille","lat":43.3051,"lon":5.36525,"is_reserved":false,"is_disabled":false,"rental_uris":{"android":"levelo://app?vid=b357578c-7d34-42e5-a7cf-f58b2e7561d1","ios":"levelo://app?vid=b357578c-7d34-42e5-a7cf-f58b2e7561d1"},"vehicle_type_id":"4","last_reported":1776776364,"current_range_meters":5600,"station_id":"","pricing_plan_id":"cebpf4jnsgd1na2vs0mg"},{"bike_id":"c42aba59-3e9b-4802-ad20-d7f6fbee54b5","system_id":"levelo_inurba_marseille","lat":43.29392,"lon":5.39487,"is_reserved":false,"is_disabled":false,"rental_uris":{"android":"levelo://app?vid=c42aba59-3e9b-4802-ad20-d7f6fbee54b5","ios":"levelo://app?vid=c42aba59-3e9b-4802-ad20-d7f6fbee54b5"},"vehicle_type_id":"4","last_reported":1776776364,"current_range_meters":5600,"station_id":"","pricing_plan_id":"cebpf4jnsgd1na2vs0mg"},{"bike_id":"f3b0ab3d-d909-40bf-9a37-cb242a2415bb","system_id":"levelo_inurba_marseille","lat":43.31356,"lon":5.36703,"is_reserved":false,"is_disabled":false,"rental_uris":{"android":"levelo://app?vid=f3b0ab3d-d909-40bf-9a37-cb242a2415bb","ios":"levelo://app?vid=f3b0ab3d-d909-40bf-9a37-cb242a2415bb"},"vehicle_type_id":"4","last_reported":1776776364,"current_range_meters":6000,"station_id":"ce4bgr92rcd13ifvqc6g","pricing_plan_id":"cebpf4jnsgd1na2vs0mg"},{"bike_id":"65c36df8-a7fe-4010-8370-f48b0c45f206","system_id":"levelo_inurba_marseille","lat":43.33546,"lon":5.37459,"is_reserved":false,"is_disabled":false,"rental_uris":{"android":"levelo://app?vid=65c36df8-a7fe-4010-8370-f48b0c45f206","ios":"levelo://app?vid=65c36df8-a7fe-4010-8370-f48b0c45f206"},"vehicle_type_id":"4","last_reported":1776776364,"current_range_meters":6000,"station_id":"st_d46tts09ee8s73dlu43g","pricing_plan_id":"cebpf4jnsgd1na2vs0mg"},{"bike_id":"15b11722-0bc8-4d21-b06c-ec02d50030ae","system_id":"levelo_inurba_marseille","lat":43.26667,"lon":5.38227,"is_reserved":false,"is_disabled":false,"rental_uris":{"android":"levelo://app?vid=15b11722-0bc8-4d21-b06c-ec02d50030ae","ios":"levelo://app?vid=15b11722-0bc8-4d21-b06c-ec02d50030ae"},"vehicle_type_id":"4","last_reported":1776776364,"current_range_meters":6000,"station_id":"ce4bhg92rcd13ifvqf90","pricing_plan_id":"cebpf4jnsgd1na2vs0mg"},{"bike_id":"be5348a3-1499-4f44-9d7a-d050ef9268e8","system_id":"levelo_inurba_marseille","lat":43.32699,"lon":5.38328,"is_reserved":false,"is_disabled":false,"rental_uris":{"android":"levelo://app?vid=be5348a3-1499-4f44-9d7a-d050ef9268e8","ios":"levelo://app?vid=be5348a3-1499-4f44-9d7a-d050ef9268e8"},"vehicle_type_id":"4","last_reported":1776776364,"current_range_meters":6000,"station_id":"","pricing_plan_id":"cebpf4jnsgd1na2vs0mg"},{"bike_id":"07d2dbc3-f9df-465b-89c4-8455c59f9109","system_id":"levelo_inurba_marseille","lat":43.28262,"lon":5.35053,"is_reserved":false,"is_disabled":false,"rental_uris":{"android":"levelo://app?vid=07d2dbc3-f9df-465b-89c4-8455c59f9109","ios":"levelo://app?vid=07d2dbc3-f9df-465b-89c4-8455c59f9109"},"vehicle_type_id":"4","last_reported":1776776364,"current_range_meters":6000,"station_id":"ce4bhbp2rcd13ifvqerg","pricing_plan_id":"cebpf4jnsgd1na2vs0mg"},{"bike_id":"1888ddb5-bf7f-4148-8142-67af53503f45","system_id":"levelo_inurba_marseille","lat":43.26205,"lon":5.37434,"is_reserved":false,"is_disabled":false,"rental_uris":{"android":"levelo://app?vid=1888ddb5-bf7f-4148-8142-67af53503f45","ios":"levelo://app?vid=1888ddb5-bf7f-4148-8142-67af53503f45"},"vehicle_type_id":"4","last_reported":1776776364,"current_range_meters":6000,"station_id":"ce4bhgp2rcd13ifvqfc0","pricing_plan_id":"cebpf4jnsgd1na2vs0mg"},{"bike_id":"53c700b8-845b-473e-b238-598a75d59a87","system_id":"levelo_inurba_marseille","lat":43.308004,"lon":5.381417,"is_reserved":false,"is_disabled":false,"rental_uris":{"android":"levelo://app?vid=53c700b8-845b-473e-b238-598a75d59a87","ios":"levelo://app?vid=53c700b8-845b-473e-b238-598a75d59a87"},"vehicle_type_id":"4","last_reported":1776776364,"current_range_meters":6000,"station_id":"ce4bgt12rcd13ifvqce0","pricing_plan_id":"cebpf4jnsgd1na2vs0mg"},{"bike_id":"58ed09d9-0aa1-471f-818a-54c432b83970","system_id":"levelo_inurba_marseille","lat":43.26587,"lon":5.42818,"is_reserved":false,"is_disabled":false,"rental_uris":{"android":"levelo://app?vid=58ed09d9-0aa1-471f-818a-54c432b83970","ios":"levelo://app?vid=58ed09d9-0aa1-471f-818a-54c432b83970"},"vehicle_type_id":"4","last_reported":1776776364,"current_range_meters":6400,"station_id":"","pricing_plan_id":"cebpf4jnsgd1na2vs0mg"},{"bike_id":"e3cb4e7a-e192-4496-b719-7cc0b747e800","system_id":"levelo_inurba_marseille","lat":43.28257,"lon":5.35048,"is_reserved":false,"is_disabled":false,"rental_uris":{"android":"levelo://app?vid=e3cb4e7a-e192-4496-b719-7cc0b747e800","ios":"levelo://app?vid=e3cb4e7a-e192-4496-b719-7cc0b747e800"},"vehicle_type_id":"4","last_reported":1776776364,"current_range_meters":6400,"station_id":"ce4bhbp2rcd13ifvqerg","pricing_plan_id":"cebpf4jnsgd1na2vs0mg"},{"bike_id":"270ec5ba-d576-4ed3-91cf-cd602db0941f","system_id":"levelo_inurba_marseille","lat":43.30141,"lon":5.38085,"is_reserved":false,"is_disabled":false,"rental_uris":{"android":"levelo://app?vid=270ec5ba-d576-4ed3-91cf-cd602db0941f","ios":"levelo://app?vid=270ec5ba-d576-4ed3-91cf-cd602db0941f"},"vehicle_type_id":"4","last_reported":1776776364,"current_range_meters":6400,"station_id":"ce4bgjp2rcd13ifvqbh0","pricing_plan_id":"cebpf4jnsgd1na2vs0mg"},{"bike_id":"595494a8-4052-4c6a-9535-2b84dd157f3e","system_id":"levelo_inurba_marseille","lat":43.2737,"lon":5.36248,"is_reserved":false,"is_disabled":false,"rental_uris":{"android":"levelo://app?vid=595494a8-4052-4c6a-9535-2b84dd157f3e","ios":"levelo://app?vid=595494a8-4052-4c6a-9535-2b84dd157f3e"},"vehicle_type_id":"4","last_reported":1776776364,"current_range_meters":6400,"station_id":"ce4bhbh2rcd13ifvqeo0","pricing_plan_id":"cebpf4jnsgd1na2vs0mg"},{"bike_id":"55b9e363-aef1-4e55-a55c-7c19ee416703","system_id":"levelo_inurba_marseille","lat":43.31875,"lon":5.37258,"is_reserved":false,"is_disabled":false,"rental_uris":{"android":"levelo://app?vid=55b9e363-aef1-4e55-a55c-7c19ee416703","ios":"levelo://app?vid=55b9e363-aef1-4e55-a55c-7c19ee416703"},"vehicle_type_id":"4","last_reported":1776776364,"current_range_meters":6400,"station_id":"","pricing_plan_id":"cebpf4jnsgd1na2vs0mg"},{"bike_id":"752c7f07-9ddd-4e0a-9805-84c3e468dd9d","system_id":"levelo_inurba_marseille","lat":43.29973,"lon":5.38502,"is_reserved":false,"is_disabled":false,"rental_uris":{"android":"levelo://app?vid=752c7f07-9ddd-4e0a-9805-84c3e468dd9d","ios":"levelo://app?vid=752c7f07-9ddd-4e0a-9805-84c3e468dd9d"},"vehicle_type_id":"4","last_reported":1776776364,"current_range_meters":6400,"station_id":"ce4bgj92rcd13ifvqbd0","pricing_plan_id":"cebpf4jnsgd1na2vs0mg"},{"bike_id":"9bca66cd-9367-4388-9258-95867e783e32","system_id":"levelo_inurba_marseille","lat":43.3037,"lon":5.38555,"is_reserved":false,"is_disabled":false,"rental_uris":{"android":"levelo://app?vid=9bca66cd-9367-4388-9258-95867e783e32","ios":"levelo://app?vid=9bca66cd-9367-4388-9258-95867e783e32"},"vehicle_type_id":"4","last_reported":1776776364,"current_range_meters":6400,"station_id":"ce4bgg92rcd13ifvqb30","pricing_plan_id":"cebpf4jnsgd1na2vs0mg"},{"bike_id":"318cec8e-ba8f-41c7-8604-e1352426e5a2","system_id":"levelo_inurba_marseille","lat":43.26807,"lon":5.39414,"is_reserved":false,"is_disabled":false,"rental_uris":{"android":"levelo://app?vid=318cec8e-ba8f-41c7-8604-e1352426e5a2","ios":"levelo://app?vid=318cec8e-ba8f-41c7-8604-e1352426e5a2"},"vehicle_type_id":"4","last_reported":1776776364,"current_range_meters":6400,"station_id":"ce4bhh12rcd13ifvqfg0","pricing_plan_id":"cebpf4jnsgd1na2vs0mg"},{"bike_id":"cbd6058c-fb99-4ca0-9e09-a32fe63336ae","system_id":"levelo_inurba_marseille","lat":43.30303,"lon":5.38307,"is_reserved":false,"is_disabled":false,"rental_uris":{"android":"levelo://app?vid=cbd6058c-fb99-4ca0-9e09-a32fe63336ae","ios":"levelo://app?vid=cbd6058c-fb99-4ca0-9e09-a32fe63336ae"},"vehicle_type_id":"4","last_reported":1776776364,"current_range_meters":6400,"station_id":"","pricing_plan_id":"cebpf4jnsgd1na2vs0mg"},{"bike_id":"624daf69-f815-4f9b-8f7c-0a5468b5d0f6","system_id":"levelo_inurba_marseille","lat":43.26195,"lon":5.37046,"is_reserved":false,"is_disabled":false,"rental_uris":{"android":"levelo://app?vid=624daf69-f815-4f9b-8f7c-0a5468b5d0f6","ios":"levelo://app?vid=624daf69-f815-4f9b-8f7c-0a5468b5d0f6"},"vehicle_type_id":"4","last_reported":1776776364,"current_range_meters":6400,"station_id":"","pricing_plan_id":"cebpf4jnsgd1na2vs0mg"},{"bike_id":"05d5f9a3-f601-4dcd-98c1-de9e5dc1bd1a","system_id":"levelo_inurba_marseille","lat":43.28253,"lon":5.3505,"is_reserved":false,"is_disabled":false,"rental_uris":{"android":"levelo://app?vid=05d5f9a3-f601-4dcd-98c1-de9e5dc1bd1a","ios":"levelo://app?vid=05d5f9a3-f601-4dcd-98c1-de9e5dc1bd1a"},"vehicle_type_id":"4","last_reported":1776776364,"current_range_meters":6400,"station_id":"ce4bhbp2rcd13ifvqerg","pricing_plan_id":"cebpf4jnsgd1na2vs0mg"},{"bike_id":"5c78a5b1-9552-4d29-a10a-bd64063c971d","system_id":"levelo_inurba_marseille","lat":43.27958,"lon":5.38738,"is_reserved":false,"is_disabled":false,"rental_uris":{"android":"levelo://app?vid=5c78a5b1-9552-4d29-a10a-bd64063c971d","ios":"levelo://app?vid=5c78a5b1-9552-4d29-a10a-bd64063c971d"},"vehicle_type_id":"4","last_reported":1776776364,"current_range_meters":6400,"station_id":"ce4bhg12rcd13ifvqf80","pricing_plan_id":"cebpf4jnsgd1na2vs0mg"},{"bike_id":"aa4f590b-c14a-4d10-9805-506b31366221","system_id":"levelo_inurba_marseille","lat":43.27623,"lon":5.36113,"is_reserved":false,"is_disabled":false,"rental_uris":{"android":"levelo://app?vid=aa4f590b-c14a-4d10-9805-506b31366221","ios":"levelo://app?vid=aa4f590b-c14a-4d10-9805-506b31366221"},"vehicle_type_id":"4","last_reported":1776776364,"current_range_meters":6800,"station_id":"ce4bgj92rcd13ifvqbe0","pricing_plan_id":"cebpf4jnsgd1na2vs0mg"},{"bike_id":"4e4c97f8-5765-4118-90bf-0ed9170c51b9","system_id":"levelo_inurba_marseille","lat":43.29169,"lon":5.37162,"is_reserved":false,"is_disabled":false,"rental_uris":{"android":"levelo://app?vid=4e4c97f8-5765-4118-90bf-0ed9170c51b9","ios":"levelo://app?vid=4e4c97f8-5765-4118-90bf-0ed9170c51b9"},"vehicle_type_id":"4","last_reported":1776776364,"current_range_meters":6800,"station_id":"ce4bha92rcd13ifvqeh0","pricing_plan_id":"cebpf4jnsgd1na2vs0mg"},{"bike_id":"ac881409-e7c1-4dc7-868f-5470aa726fd2","system_id":"levelo_inurba_marseille","lat":43.29821,"lon":5.44051,"is_reserved":false,"is_disabled":false,"rental_uris":{"android":"levelo://app?vid=ac881409-e7c1-4dc7-868f-5470aa726fd2","ios":"levelo://app?vid=ac881409-e7c1-4dc7-868f-5470aa726fd2"},"vehicle_type_id":"4","last_reported":1776776364,"current_range_meters":6800,"station_id":"st_d3jp68qikq2c7381ktn0","pricing_plan_id":"cebpf4jnsgd1na2vs0mg"},{"bike_id":"321c7535-29b6-4e29-b900-0aa3611955aa","system_id":"levelo_inurba_marseille","lat":43.30196,"lon":5.36638,"is_reserved":false,"is_disabled":false,"rental_uris":{"android":"levelo://app?vid=321c7535-29b6-4e29-b900-0aa3611955aa","ios":"levelo://app?vid=321c7535-29b6-4e29-b900-0aa3611955aa"},"vehicle_type_id":"4","last_reported":1776776364,"current_range_meters":6800,"station_id":"ce4bgrh2rcd13ifvqc8g","pricing_plan_id":"cebpf4jnsgd1na2vs0mg"},{"bike_id":"3616f106-8873-42cd-b214-c47e7d11ef50","system_id":"levelo_inurba_marseille","lat":43.27615,"lon":5.3611,"is_reserved":false,"is_disabled":false,"rental_uris":{"android":"levelo://app?vid=3616f106-8873-42cd-b214-c47e7d11ef50","ios":"levelo://app?vid=3616f106-8873-42cd-b214-c47e7d11ef50"},"vehicle_type_id":"4","last_reported":1776776364,"current_range_meters":6800,"station_id":"ce4bgj92rcd13ifvqbe0","pricing_plan_id":"cebpf4jnsgd1na2vs0mg"},{"bike_id":"841d1520-01a5-4df4-a125-b0a83adb7bf3","system_id":"levelo_inurba_marseille","lat":43.26685,"lon":5.38266,"is_reserved":false,"is_disabled":false,"rental_uris":{"android":"levelo://app?vid=841d1520-01a5-4df4-a125-b0a83adb7bf3","ios":"levelo://app?vid=841d1520-01a5-4df4-a125-b0a83adb7bf3"},"vehicle_type_id":"4","last_reported":1776776364,"current_range_meters":6800,"station_id":"ce4bhg92rcd13ifvqf90","pricing_plan_id":"cebpf4jnsgd1na2vs0mg"},{"bike_id":"91650776-c2d0-47f3-a1ea-9fed9cfcad6a","system_id":"levelo_inurba_marseille","lat":43.27939,"lon":5.38726,"is_reserved":false,"is_disabled":false,"rental_uris":{"android":"levelo://app?vid=91650776-c2d0-47f3-a1ea-9fed9cfcad6a","ios":"levelo://app?vid=91650776-c2d0-47f3-a1ea-9fed9cfcad6a"},"vehicle_type_id":"4","last_reported":1776776364,"current_range_meters":6800,"station_id":"ce4bhg12rcd13ifvqf80","pricing_plan_id":"cebpf4jnsgd1na2vs0mg"},{"bike_id":"23675135-d633-40b1-9185-4f31713a66a8","system_id":"levelo_inurba_marseille","lat":43.2533,"lon":5.37959,"is_reserved":false,"is_disabled":false,"rental_uris":{"android":"levelo://app?vid=23675135-d633-40b1-9185-4f31713a66a8","ios":"levelo://app?vid=23675135-d633-40b1-9185-4f31713a66a8"},"vehicle_type_id":"4","last_reported":1776776364,"current_range_meters":6800,"station_id":"","pricing_plan_id":"cebpf4jnsgd1na2vs0mg"},{"bike_id":"c224c9cf-d497-4bf6-82cd-eee25423f927","system_id":"levelo_inurba_marseille","lat":43.29667,"lon":5.37362,"is_reserved":false,"is_disabled":true,"rental_uris":{"android":"levelo://app?vid=c224c9cf-d497-4bf6-82cd-eee25423f927","ios":"levelo://app?vid=c224c9cf-d497-4bf6-82cd-eee25423f927"},"vehicle_type_id":"4","last_reported":1776776364,"current_range_meters":6800,"station_id":"","pricing_plan_id":"cebpf4jnsgd1na2vs0mg"},{"bike_id":"908ae91c-1c71-4e49-862b-992bd94d477a","system_id":"levelo_inurba_marseille","lat":43.28413,"lon":5.34988,"is_reserved":false,"is_disabled":false,"rental_uris":{"android":"levelo://app?vid=908ae91c-1c71-4e49-862b-992bd94d477a","ios":"levelo://app?vid=908ae91c-1c71-4e49-862b-992bd94d477a"},"vehicle_type_id":"4","last_reported":1776776364,"current_range_meters":7200,"station_id":"ce4bhbh2rcd13ifvqepg","pricing_plan_id":"cebpf4jnsgd1na2vs0mg"},{"bike_id":"2bf658ef-a912-4563-9f63-3110eb25e849","system_id":"levelo_inurba_marseille","lat":43.29723,"lon":5.35982,"is_reserved":false,"is_disabled":false,"rental_uris":{"android":"levelo://app?vid=2bf658ef-a912-4563-9f63-3110eb25e849","ios":"levelo://app?vid=2bf658ef-a912-4563-9f63-3110eb25e849"},"vehicle_type_id":"4","last_reported":1776776364,"current_range_meters":7200,"station_id":"","pricing_plan_id":"cebpf4jnsgd1na2vs0mg"},{"bike_id":"328a18ce-bea7-49a5-b6b7-7137a549aca7","system_id":"levelo_inurba_marseille","lat":43.27501,"lon":5.42453,"is_reserved":false,"is_disabled":false,"rental_uris":{"android":"levelo://app?vid=328a18ce-bea7-49a5-b6b7-7137a549aca7","ios":"levelo://app?vid=328a18ce-bea7-49a5-b6b7-7137a549aca7"},"vehicle_type_id":"4","last_reported":1776776364,"current_range_meters":7200,"station_id":"ce4bhn92rcd13ifvqgrg","pricing_plan_id":"cebpf4jnsgd1na2vs0mg"},{"bike_id":"3db3130c-0cf5-4a47-87aa-db0dae3c8c50","system_id":"levelo_inurba_marseille","lat":43.31723,"lon":5.42398,"is_reserved":false,"is_disabled":false,"rental_uris":{"android":"levelo://app?vid=3db3130c-0cf5-4a47-87aa-db0dae3c8c50","ios":"levelo://app?vid=3db3130c-0cf5-4a47-87aa-db0dae3c8c50"},"vehicle_type_id":"4","last_reported":1776776364,"current_range_meters":7200,"station_id":"ce4bhp92rcd13ifvqhbg","pricing_plan_id":"cebpf4jnsgd1na2vs0mg"},{"bike_id":"21cf90bc-76ed-4316-b51a-ecaeddbaa7b4","system_id":"levelo_inurba_marseille","lat":43.24942,"lon":5.40457,"is_reserved":false,"is_disabled":false,"rental_uris":{"android":"levelo://app?vid=21cf90bc-76ed-4316-b51a-ecaeddbaa7b4","ios":"levelo://app?vid=21cf90bc-76ed-4316-b51a-ecaeddbaa7b4"},"vehicle_type_id":"4","last_reported":1776776364,"current_range_meters":7200,"station_id":"st_d2ngiaodas8pm72gd1h0","pricing_plan_id":"cebpf4jnsgd1na2vs0mg"},{"bike_id":"14290775-1809-431a-89de-994574cdc895","system_id":"levelo_inurba_marseille","lat":43.27563,"lon":5.38638,"is_reserved":false,"is_disabled":false,"rental_uris":{"android":"levelo://app?vid=14290775-1809-431a-89de-994574cdc895","ios":"levelo://app?vid=14290775-1809-431a-89de-994574cdc895"},"vehicle_type_id":"4","last_reported":1776776364,"current_range_meters":7200,"station_id":"","pricing_plan_id":"cebpf4jnsgd1na2vs0mg"},{"bike_id":"86586b90-9273-4031-8d52-0d01cf0b99a9","system_id":"levelo_inurba_marseille","lat":43.30493,"lon":5.36509,"is_reserved":false,"is_disabled":false,"rental_uris":{"android":"levelo://app?vid=86586b90-9273-4031-8d52-0d01cf0b99a9","ios":"levelo://app?vid=86586b90-9273-4031-8d52-0d01cf0b99a9"},"vehicle_type_id":"4","last_reported":1776776364,"current_range_meters":7200,"station_id":"","pricing_plan_id":"cebpf4jnsgd1na2vs0mg"},{"bike_id":"8b08e60e-31bc-45c7-b8e1-4560dbffd356","system_id":"levelo_inurba_marseille","lat":43.28966,"lon":5.3782,"is_reserved":false,"is_disabled":false,"rental_uris":{"android":"levelo://app?vid=8b08e60e-31bc-45c7-b8e1-4560dbffd356","ios":"levelo://app?vid=8b08e60e-31bc-45c7-b8e1-4560dbffd356"},"vehicle_type_id":"4","last_reported":1776776364,"current_range_meters":7200,"station_id":"ce4bh9p2rcd13ifvqed0","pricing_plan_id":"cebpf4jnsgd1na2vs0mg"},{"bike_id":"3c8c4388-6e9d-4d64-8812-0e529f9cb69d","system_id":"levelo_inurba_marseille","lat":43.26548,"lon":5.37283,"is_reserved":false,"is_disabled":false,"rental_uris":{"android":"levelo://app?vid=3c8c4388-6e9d-4d64-8812-0e529f9cb69d","ios":"levelo://app?vid=3c8c4388-6e9d-4d64-8812-0e529f9cb69d"},"vehicle_type_id":"4","last_reported":1776776364,"current_range_meters":7200,"station_id":"ce4bhg12rcd13ifvqf70","pricing_plan_id":"cebpf4jnsgd1na2vs0mg"},{"bike_id":"a2b6ca5f-e425-4e04-9a52-9081b884f0bf","system_id":"levelo_inurba_marseille","lat":43.29038,"lon":5.39959,"is_reserved":false,"is_disabled":false,"rental_uris":{"android":"levelo://app?vid=a2b6ca5f-e425-4e04-9a52-9081b884f0bf","ios":"levelo://app?vid=a2b6ca5f-e425-4e04-9a52-9081b884f0bf"},"vehicle_type_id":"4","last_reported":1776776364,"current_range_meters":7200,"station_id":"ce4bh392rcd13ifvqdm0","pricing_plan_id":"cebpf4jnsgd1na2vs0mg"},{"bike_id":"c2eece40-9b93-451a-90da-00ccbef7247a","system_id":"levelo_inurba_marseille","lat":43.26208,"lon":5.37434,"is_reserved":false,"is_disabled":false,"rental_uris":{"android":"levelo://app?vid=c2eece40-9b93-451a-90da-00ccbef7247a","ios":"levelo://app?vid=c2eece40-9b93-451a-90da-00ccbef7247a"},"vehicle_type_id":"4","last_reported":1776776364,"current_range_meters":7200,"station_id":"ce4bhgp2rcd13ifvqfc0","pricing_plan_id":"cebpf4jnsgd1na2vs0mg"},{"bike_id":"f9e36f38-ef4d-44c9-9f31-a0f8b13d14ba","system_id":"levelo_inurba_marseille","lat":43.33158,"lon":5.37661,"is_reserved":false,"is_disabled":false,"rental_uris":{"android":"levelo://app?vid=f9e36f38-ef4d-44c9-9f31-a0f8b13d14ba","ios":"levelo://app?vid=f9e36f38-ef4d-44c9-9f31-a0f8b13d14ba"},"vehicle_type_id":"4","last_reported":1776776364,"current_range_meters":7200,"station_id":"st_d46cu089ee8s73dldbu0","pricing_plan_id":"cebpf4jnsgd1na2vs0mg"},{"bike_id":"5b39caf3-fcf1-490c-9d52-565bbe6b0eed","system_id":"levelo_inurba_marseille","lat":43.22562,"lon":5.41628,"is_reserved":false,"is_disabled":false,"rental_uris":{"android":"levelo://app?vid=5b39caf3-fcf1-490c-9d52-565bbe6b0eed","ios":"levelo://app?vid=5b39caf3-fcf1-490c-9d52-565bbe6b0eed"},"vehicle_type_id":"4","last_reported":1776776364,"current_range_meters":8000,"station_id":"st_d2o4gvlbi1j2169b742g","pricing_plan_id":"cebpf4jnsgd1na2vs0mg"},{"bike_id":"38a0c1fe-c793-4677-abc9-44884653b8c5","system_id":"levelo_inurba_marseille","lat":43.29593,"lon":5.37776,"is_reserved":false,"is_disabled":false,"rental_uris":{"android":"levelo://app?vid=38a0c1fe-c793-4677-abc9-44884653b8c5","ios":"levelo://app?vid=38a0c1fe-c793-4677-abc9-44884653b8c5"},"vehicle_type_id":"4","last_reported":1776776364,"current_range_meters":8000,"station_id":"","pricing_plan_id":"cebpf4jnsgd1na2vs0mg"},{"bike_id":"06de022e-0df1-4ad1-9732-d55b1efe7b63","system_id":"levelo_inurba_marseille","lat":43.27963,"lon":5.38763,"is_reserved":false,"is_disabled":false,"rental_uris":{"android":"levelo://app?vid=06de022e-0df1-4ad1-9732-d55b1efe7b63","ios":"levelo://app?vid=06de022e-0df1-4ad1-9732-d55b1efe7b63"},"vehicle_type_id":"4","last_reported":1776776364,"current_range_meters":8000,"station_id":"ce4bhg12rcd13ifvqf80","pricing_plan_id":"cebpf4jnsgd1na2vs0mg"},{"bike_id":"c8b884b7-db9e-4b0a-b50c-98c0a4e1fc1d","system_id":"levelo_inurba_marseille","lat":43.29894,"lon":5.37461,"is_reserved":false,"is_disabled":false,"rental_uris":{"android":"levelo://app?vid=c8b884b7-db9e-4b0a-b50c-98c0a4e1fc1d","ios":"levelo://app?vid=c8b884b7-db9e-4b0a-b50c-98c0a4e1fc1d"},"vehicle_type_id":"4","last_reported":1776776364,"current_range_meters":8000,"station_id":"ce4bgjh2rcd13ifvqbg0","pricing_plan_id":"cebpf4jnsgd1na2vs0mg"},{"bike_id":"11665fa9-4357-4be9-bc51-996b2a3a7671","system_id":"levelo_inurba_marseille","lat":43.299283,"lon":5.375027,"is_reserved":false,"is_disabled":false,"rental_uris":{"android":"levelo://app?vid=11665fa9-4357-4be9-bc51-996b2a3a7671","ios":"levelo://app?vid=11665fa9-4357-4be9-bc51-996b2a3a7671"},"vehicle_type_id":"4","last_reported":1776776364,"current_range_meters":8000,"station_id":"","pricing_plan_id":"cebpf4jnsgd1na2vs0mg"},{"bike_id":"afe6c9ff-8c7f-40d2-96bc-86354113b443","system_id":"levelo_inurba_marseille","lat":43.28482,"lon":5.48387,"is_reserved":false,"is_disabled":false,"rental_uris":{"android":"levelo://app?vid=afe6c9ff-8c7f-40d2-96bc-86354113b443","ios":"levelo://app?vid=afe6c9ff-8c7f-40d2-96bc-86354113b443"},"vehicle_type_id":"4","last_reported":1776776364,"current_range_meters":8000,"station_id":"","pricing_plan_id":"cebpf4jnsgd1na2vs0mg"},{"bike_id":"1d35b591-b44a-4146-acf0-51f1e2ba52a8","system_id":"levelo_inurba_marseille","lat":43.29039,"lon":5.37553,"is_reserved":false,"is_disabled":false,"rental_uris":{"android":"levelo://app?vid=1d35b591-b44a-4146-acf0-51f1e2ba52a8","ios":"levelo://app?vid=1d35b591-b44a-4146-acf0-51f1e2ba52a8"},"vehicle_type_id":"4","last_reported":1776776364,"current_range_meters":8000,"station_id":"ce4bh692rcd13ifvqe90","pricing_plan_id":"cebpf4jnsgd1na2vs0mg"},{"bike_id":"7eb95136-c180-4b14-b549-0d6389a20cde","system_id":"levelo_inurba_marseille","lat":43.30755,"lon":5.44018,"is_reserved":false,"is_disabled":false,"rental_uris":{"android":"levelo://app?vid=7eb95136-c180-4b14-b549-0d6389a20cde","ios":"levelo://app?vid=7eb95136-c180-4b14-b549-0d6389a20cde"},"vehicle_type_id":"4","last_reported":1776776364,"current_range_meters":8000,"station_id":"","pricing_plan_id":"cebpf4jnsgd1na2vs0mg"},{"bike_id":"3400e5ad-ce84-4224-b3ff-77f74e676202","system_id":"levelo_inurba_marseille","lat":43.28417,"lon":5.34977,"is_reserved":false,"is_disabled":false,"rental_uris":{"android":"levelo://app?vid=3400e5ad-ce84-4224-b3ff-77f74e676202","ios":"levelo://app?vid=3400e5ad-ce84-4224-b3ff-77f74e676202"},"vehicle_type_id":"4","last_reported":1776776364,"current_range_meters":8000,"station_id":"ce4bhbh2rcd13ifvqepg","pricing_plan_id":"cebpf4jnsgd1na2vs0mg"},{"bike_id":"2d40a836-133e-4df4-8e94-64278280c4e2","system_id":"levelo_inurba_marseille","lat":43.2848,"lon":5.48383,"is_reserved":false,"is_disabled":false,"rental_uris":{"android":"levelo://app?vid=2d40a836-133e-4df4-8e94-64278280c4e2","ios":"levelo://app?vid=2d40a836-133e-4df4-8e94-64278280c4e2"},"vehicle_type_id":"4","last_reported":1776776364,"current_range_meters":8000,"station_id":"","pricing_plan_id":"cebpf4jnsgd1na2vs0mg"},{"bike_id":"ab7822cf-7fef-40d4-8a13-397d3bb0a3d2","system_id":"levelo_inurba_marseille","lat":43.28417,"lon":5.34976,"is_reserved":false,"is_disabled":false,"rental_uris":{"android":"levelo://app?vid=ab7822cf-7fef-40d4-8a13-397d3bb0a3d2","ios":"levelo://app?vid=ab7822cf-7fef-40d4-8a13-397d3bb0a3d2"},"vehicle_type_id":"4","last_reported":1776776364,"current_range_meters":8000,"station_id":"ce4bhbh2rcd13ifvqepg","pricing_plan_id":"cebpf4jnsgd1na2vs0mg"},{"bike_id":"2224c961-bce6-4c33-966e-f3361d1b2ab2","system_id":"levelo_inurba_marseille","lat":43.27496,"lon":5.41568,"is_reserved":false,"is_disabled":false,"rental_uris":{"android":"levelo://app?vid=2224c961-bce6-4c33-966e-f3361d1b2ab2","ios":"levelo://app?vid=2224c961-bce6-4c33-966e-f3361d1b2ab2"},"vehicle_type_id":"4","last_reported":1776776364,"current_range_meters":8000,"station_id":"st_d6im8g6chgec73a5pndg","pricing_plan_id":"cebpf4jnsgd1na2vs0mg"},{"bike_id":"15399728-d714-4d71-958d-e7831f4ddfc0","system_id":"levelo_inurba_marseille","lat":43.28261,"lon":5.35066,"is_reserved":false,"is_disabled":false,"rental_uris":{"android":"levelo://app?vid=15399728-d714-4d71-958d-e7831f4ddfc0","ios":"levelo://app?vid=15399728-d714-4d71-958d-e7831f4ddfc0"},"vehicle_type_id":"4","last_reported":1776776364,"current_range_meters":8000,"station_id":"ce4bhbp2rcd13ifvqerg","pricing_plan_id":"cebpf4jnsgd1na2vs0mg"},{"bike_id":"5fae70fa-7e2f-4579-9e3d-08538a321c97","system_id":"levelo_inurba_marseille","lat":43.26792,"lon":5.39402,"is_reserved":false,"is_disabled":false,"rental_uris":{"android":"levelo://app?vid=5fae70fa-7e2f-4579-9e3d-08538a321c97","ios":"levelo://app?vid=5fae70fa-7e2f-4579-9e3d-08538a321c97"},"vehicle_type_id":"4","last_reported":1776776364,"current_range_meters":8000,"station_id":"ce4bhh12rcd13ifvqfg0","pricing_plan_id":"cebpf4jnsgd1na2vs0mg"},{"bike_id":"3e966c93-1216-4a5a-abaa-f397ebfa4e5f","system_id":"levelo_inurba_marseille","lat":43.33323,"lon":5.36451,"is_reserved":false,"is_disabled":false,"rental_uris":{"android":"levelo://app?vid=3e966c93-1216-4a5a-abaa-f397ebfa4e5f","ios":"levelo://app?vid=3e966c93-1216-4a5a-abaa-f397ebfa4e5f"},"vehicle_type_id":"4","last_reported":1776776364,"current_range_meters":8000,"station_id":"","pricing_plan_id":"cebpf4jnsgd1na2vs0mg"},{"bike_id":"1aa63308-70e3-4651-8891-792f82108086","system_id":"levelo_inurba_marseille","lat":43.27099,"lon":5.36313,"is_reserved":false,"is_disabled":false,"rental_uris":{"android":"levelo://app?vid=1aa63308-70e3-4651-8891-792f82108086","ios":"levelo://app?vid=1aa63308-70e3-4651-8891-792f82108086"},"vehicle_type_id":"4","last_reported":1776776364,"current_range_meters":8400,"station_id":"","pricing_plan_id":"cebpf4jnsgd1na2vs0mg"},{"bike_id":"6c6591df-e330-42d4-982d-3da4f95c91d6","system_id":"levelo_inurba_marseille","lat":43.28413,"lon":5.34976,"is_reserved":false,"is_disabled":false,"rental_uris":{"android":"levelo://app?vid=6c6591df-e330-42d4-982d-3da4f95c91d6","ios":"levelo://app?vid=6c6591df-e330-42d4-982d-3da4f95c91d6"},"vehicle_type_id":"4","last_reported":1776776364,"current_range_meters":8400,"station_id":"ce4bhbh2rcd13ifvqepg","pricing_plan_id":"cebpf4jnsgd1na2vs0mg"},{"bike_id":"e1fec0a7-b749-4ffa-8a63-2f566602ffb4","system_id":"levelo_inurba_marseille","lat":43.30285,"lon":5.36889,"is_reserved":false,"is_disabled":false,"rental_uris":{"android":"levelo://app?vid=e1fec0a7-b749-4ffa-8a63-2f566602ffb4","ios":"levelo://app?vid=e1fec0a7-b749-4ffa-8a63-2f566602ffb4"},"vehicle_type_id":"4","last_reported":1776776364,"current_range_meters":8400,"station_id":"ce4bgqh2rcd13ifvqc5g","pricing_plan_id":"cebpf4jnsgd1na2vs0mg"},{"bike_id":"522f881c-ea0b-44e9-acf3-a40500ab9dff","system_id":"levelo_inurba_marseille","lat":43.25111,"lon":5.4031,"is_reserved":false,"is_disabled":false,"rental_uris":{"android":"levelo://app?vid=522f881c-ea0b-44e9-acf3-a40500ab9dff","ios":"levelo://app?vid=522f881c-ea0b-44e9-acf3-a40500ab9dff"},"vehicle_type_id":"4","last_reported":1776776364,"current_range_meters":8400,"station_id":"ce4bhlh2rcd13ifvqgig","pricing_plan_id":"cebpf4jnsgd1na2vs0mg"},{"bike_id":"efeaebff-3ba0-441d-8c87-b6489e6758ab","system_id":"levelo_inurba_marseille","lat":43.28283,"lon":5.35037,"is_reserved":false,"is_disabled":false,"rental_uris":{"android":"levelo://app?vid=efeaebff-3ba0-441d-8c87-b6489e6758ab","ios":"levelo://app?vid=efeaebff-3ba0-441d-8c87-b6489e6758ab"},"vehicle_type_id":"4","last_reported":1776776364,"current_range_meters":8400,"station_id":"ce4bhbp2rcd13ifvqerg","pricing_plan_id":"cebpf4jnsgd1na2vs0mg"},{"bike_id":"909929ad-6150-4e90-9010-fc5021f6e58c","system_id":"levelo_inurba_marseille","lat":43.27214,"lon":5.40116,"is_reserved":false,"is_disabled":false,"rental_uris":{"android":"levelo://app?vid=909929ad-6150-4e90-9010-fc5021f6e58c","ios":"levelo://app?vid=909929ad-6150-4e90-9010-fc5021f6e58c"},"vehicle_type_id":"4","last_reported":1776776364,"current_range_meters":8400,"station_id":"","pricing_plan_id":"cebpf4jnsgd1na2vs0mg"},{"bike_id":"1fd10be9-0a9a-46a4-9d74-69cc8527ad5b","system_id":"levelo_inurba_marseille","lat":43.2848,"lon":5.484,"is_reserved":false,"is_disabled":false,"rental_uris":{"android":"levelo://app?vid=1fd10be9-0a9a-46a4-9d74-69cc8527ad5b","ios":"levelo://app?vid=1fd10be9-0a9a-46a4-9d74-69cc8527ad5b"},"vehicle_type_id":"4","last_reported":1776776364,"current_range_meters":8400,"station_id":"","pricing_plan_id":"cebpf4jnsgd1na2vs0mg"},{"bike_id":"243042f7-4fca-41e9-9e73-ab8167e40ba6","system_id":"levelo_inurba_marseille","lat":43.27185,"lon":5.40983,"is_reserved":false,"is_disabled":false,"rental_uris":{"android":"levelo://app?vid=243042f7-4fca-41e9-9e73-ab8167e40ba6","ios":"levelo://app?vid=243042f7-4fca-41e9-9e73-ab8167e40ba6"},"vehicle_type_id":"4","last_reported":1776776364,"current_range_meters":8400,"station_id":"ce4bhl12rcd13ifvqgf0","pricing_plan_id":"cebpf4jnsgd1na2vs0mg"},{"bike_id":"d9be86bb-6c4e-4c05-bc60-e02431cbb916","system_id":"levelo_inurba_marseille","lat":43.326838,"lon":5.36719,"is_reserved":false,"is_disabled":false,"rental_uris":{"android":"levelo://app?vid=d9be86bb-6c4e-4c05-bc60-e02431cbb916","ios":"levelo://app?vid=d9be86bb-6c4e-4c05-bc60-e02431cbb916"},"vehicle_type_id":"4","last_reported":1776776364,"current_range_meters":8400,"station_id":"st_d6o2h0d0559c73evc1b0","pricing_plan_id":"cebpf4jnsgd1na2vs0mg"},{"bike_id":"0263abfc-a483-4f7b-becd-c15a7276870a","system_id":"levelo_inurba_marseille","lat":43.30538,"lon":5.36489,"is_reserved":false,"is_disabled":false,"rental_uris":{"android":"levelo://app?vid=0263abfc-a483-4f7b-becd-c15a7276870a","ios":"levelo://app?vid=0263abfc-a483-4f7b-becd-c15a7276870a"},"vehicle_type_id":"4","last_reported":1776776364,"current_range_meters":8400,"station_id":"","pricing_plan_id":"cebpf4jnsgd1na2vs0mg"},{"bike_id":"6e632b6a-0de9-43eb-884a-a0809cef0a34","system_id":"levelo_inurba_marseille","lat":43.28419,"lon":5.34987,"is_reserved":false,"is_disabled":false,"rental_uris":{"android":"levelo://app?vid=6e632b6a-0de9-43eb-884a-a0809cef0a34","ios":"levelo://app?vid=6e632b6a-0de9-43eb-884a-a0809cef0a34"},"vehicle_type_id":"4","last_reported":1776776364,"current_range_meters":8400,"station_id":"ce4bhbh2rcd13ifvqepg","pricing_plan_id":"cebpf4jnsgd1na2vs0mg"},{"bike_id":"4afecc95-1d1f-46f1-85fc-14f5a0b75fdf","system_id":"levelo_inurba_marseille","lat":43.25932,"lon":5.40921,"is_reserved":false,"is_disabled":false,"rental_uris":{"android":"levelo://app?vid=4afecc95-1d1f-46f1-85fc-14f5a0b75fdf","ios":"levelo://app?vid=4afecc95-1d1f-46f1-85fc-14f5a0b75fdf"},"vehicle_type_id":"4","last_reported":1776776364,"current_range_meters":8400,"station_id":"ce4bhm92rcd13ifvqglg","pricing_plan_id":"cebpf4jnsgd1na2vs0mg"},{"bike_id":"7dbdd1ca-69c6-46e1-8056-8449282e9ee7","system_id":"levelo_inurba_marseille","lat":43.27923,"lon":5.3875,"is_reserved":false,"is_disabled":false,"rental_uris":{"android":"levelo://app?vid=7dbdd1ca-69c6-46e1-8056-8449282e9ee7","ios":"levelo://app?vid=7dbdd1ca-69c6-46e1-8056-8449282e9ee7"},"vehicle_type_id":"4","last_reported":1776776364,"current_range_meters":8400,"station_id":"ce4bhg12rcd13ifvqf80","pricing_plan_id":"cebpf4jnsgd1na2vs0mg"},{"bike_id":"99cfcdac-1c6f-4544-bda8-e208b5ed95c8","system_id":"levelo_inurba_marseille","lat":43.26212,"lon":5.37455,"is_reserved":false,"is_disabled":false,"rental_uris":{"android":"levelo://app?vid=99cfcdac-1c6f-4544-bda8-e208b5ed95c8","ios":"levelo://app?vid=99cfcdac-1c6f-4544-bda8-e208b5ed95c8"},"vehicle_type_id":"4","last_reported":1776776364,"current_range_meters":8400,"station_id":"ce4bhgp2rcd13ifvqfc0","pricing_plan_id":"cebpf4jnsgd1na2vs0mg"},{"bike_id":"21448d18-fc01-4590-804c-c436e1722062","system_id":"levelo_inurba_marseille","lat":43.26929,"lon":5.38905,"is_reserved":false,"is_disabled":false,"rental_uris":{"android":"levelo://app?vid=21448d18-fc01-4590-804c-c436e1722062","ios":"levelo://app?vid=21448d18-fc01-4590-804c-c436e1722062"},"vehicle_type_id":"4","last_reported":1776776364,"current_range_meters":8400,"station_id":"ce4bhhh2rcd13ifvqfl0","pricing_plan_id":"cebpf4jnsgd1na2vs0mg"},{"bike_id":"cc790dad-0259-4996-a590-424084c393e3","system_id":"levelo_inurba_marseille","lat":43.2963,"lon":5.37722,"is_reserved":false,"is_disabled":false,"rental_uris":{"android":"levelo://app?vid=cc790dad-0259-4996-a590-424084c393e3","ios":"levelo://app?vid=cc790dad-0259-4996-a590-424084c393e3"},"vehicle_type_id":"4","last_reported":1776776364,"current_range_meters":8400,"station_id":"ce4bgi92rcd13ifvqb90","pricing_plan_id":"cebpf4jnsgd1na2vs0mg"},{"bike_id":"75400a98-acf8-4b08-98c2-025c3347576a","system_id":"levelo_inurba_marseille","lat":43.29557,"lon":5.38682,"is_reserved":false,"is_disabled":false,"rental_uris":{"android":"levelo://app?vid=75400a98-acf8-4b08-98c2-025c3347576a","ios":"levelo://app?vid=75400a98-acf8-4b08-98c2-025c3347576a"},"vehicle_type_id":"4","last_reported":1776776364,"current_range_meters":8800,"station_id":"","pricing_plan_id":"cebpf4jnsgd1na2vs0mg"},{"bike_id":"a2f3a9df-2bd0-4776-9bd4-51de189cc809","system_id":"levelo_inurba_marseille","lat":43.30345,"lon":5.36459,"is_reserved":false,"is_disabled":false,"rental_uris":{"android":"levelo://app?vid=a2f3a9df-2bd0-4776-9bd4-51de189cc809","ios":"levelo://app?vid=a2f3a9df-2bd0-4776-9bd4-51de189cc809"},"vehicle_type_id":"4","last_reported":1776776364,"current_range_meters":8800,"station_id":"","pricing_plan_id":"cebpf4jnsgd1na2vs0mg"},{"bike_id":"da93c60b-9c33-44d3-af78-4b8f9e34d39c","system_id":"levelo_inurba_marseille","lat":43.2605,"lon":5.39799,"is_reserved":false,"is_disabled":false,"rental_uris":{"android":"levelo://app?vid=da93c60b-9c33-44d3-af78-4b8f9e34d39c","ios":"levelo://app?vid=da93c60b-9c33-44d3-af78-4b8f9e34d39c"},"vehicle_type_id":"4","last_reported":1776776364,"current_range_meters":8800,"station_id":"","pricing_plan_id":"cebpf4jnsgd1na2vs0mg"},{"bike_id":"44e696fa-fa54-42a6-be08-1bab5286dc01","system_id":"levelo_inurba_marseille","lat":43.28417,"lon":5.34973,"is_reserved":false,"is_disabled":false,"rental_uris":{"android":"levelo://app?vid=44e696fa-fa54-42a6-be08-1bab5286dc01","ios":"levelo://app?vid=44e696fa-fa54-42a6-be08-1bab5286dc01"},"vehicle_type_id":"4","last_reported":1776776364,"current_range_meters":8800,"station_id":"ce4bhbh2rcd13ifvqepg","pricing_plan_id":"cebpf4jnsgd1na2vs0mg"},{"bike_id":"81bc26ea-d8cb-46ab-b7ef-05d759ea57e3","system_id":"levelo_inurba_marseille","lat":43.30842,"lon":5.41618,"is_reserved":false,"is_disabled":false,"rental_uris":{"android":"levelo://app?vid=81bc26ea-d8cb-46ab-b7ef-05d759ea57e3","ios":"levelo://app?vid=81bc26ea-d8cb-46ab-b7ef-05d759ea57e3"},"vehicle_type_id":"4","last_reported":1776776364,"current_range_meters":8800,"station_id":"","pricing_plan_id":"cebpf4jnsgd1na2vs0mg"},{"bike_id":"415e0658-223c-4fe0-abd1-f3287f2893c2","system_id":"levelo_inurba_marseille","lat":43.31913,"lon":5.36812,"is_reserved":false,"is_disabled":false,"rental_uris":{"android":"levelo://app?vid=415e0658-223c-4fe0-abd1-f3287f2893c2","ios":"levelo://app?vid=415e0658-223c-4fe0-abd1-f3287f2893c2"},"vehicle_type_id":"4","last_reported":1776776364,"current_range_meters":8800,"station_id":"st_d6o2h0d0559c73evc1b0","pricing_plan_id":"cebpf4jnsgd1na2vs0mg"},{"bike_id":"0f143eb5-1651-4d13-ae71-19cbf99b7aed","system_id":"levelo_inurba_marseille","lat":43.24181,"lon":5.39726,"is_reserved":false,"is_disabled":false,"rental_uris":{"android":"levelo://app?vid=0f143eb5-1651-4d13-ae71-19cbf99b7aed","ios":"levelo://app?vid=0f143eb5-1651-4d13-ae71-19cbf99b7aed"},"vehicle_type_id":"4","last_reported":1776776364,"current_range_meters":8800,"station_id":"ce4bhn12rcd13ifvqgpg","pricing_plan_id":"cebpf4jnsgd1na2vs0mg"},{"bike_id":"d0ef2f5f-57e8-4581-adc1-e4862f7d1953","system_id":"levelo_inurba_marseille","lat":43.30541,"lon":5.36694,"is_reserved":false,"is_disabled":false,"rental_uris":{"android":"levelo://app?vid=d0ef2f5f-57e8-4581-adc1-e4862f7d1953","ios":"levelo://app?vid=d0ef2f5f-57e8-4581-adc1-e4862f7d1953"},"vehicle_type_id":"4","last_reported":1776776364,"current_range_meters":8800,"station_id":"ce4bgrp2rcd13ifvqc9g","pricing_plan_id":"cebpf4jnsgd1na2vs0mg"},{"bike_id":"23b71376-382a-4e83-a92a-fc3fbbaf3295","system_id":"levelo_inurba_marseille","lat":43.30522,"lon":5.36532,"is_reserved":false,"is_disabled":false,"rental_uris":{"android":"levelo://app?vid=23b71376-382a-4e83-a92a-fc3fbbaf3295","ios":"levelo://app?vid=23b71376-382a-4e83-a92a-fc3fbbaf3295"},"vehicle_type_id":"4","last_reported":1776776364,"current_range_meters":8800,"station_id":"","pricing_plan_id":"cebpf4jnsgd1na2vs0mg"},{"bike_id":"1826594e-a39b-4626-9fb2-ca27cc1ed4f0","system_id":"levelo_inurba_marseille","lat":43.23189,"lon":5.35553,"is_reserved":false,"is_disabled":false,"rental_uris":{"android":"levelo://app?vid=1826594e-a39b-4626-9fb2-ca27cc1ed4f0","ios":"levelo://app?vid=1826594e-a39b-4626-9fb2-ca27cc1ed4f0"},"vehicle_type_id":"4","last_reported":1776776364,"current_range_meters":8800,"station_id":"ce4bhu92rcd13ifvqi70","pricing_plan_id":"cebpf4jnsgd1na2vs0mg"},{"bike_id":"b698b96b-3878-4d9f-b1c2-81342ae47183","system_id":"levelo_inurba_marseille","lat":43.2763,"lon":5.36108,"is_reserved":false,"is_disabled":false,"rental_uris":{"android":"levelo://app?vid=b698b96b-3878-4d9f-b1c2-81342ae47183","ios":"levelo://app?vid=b698b96b-3878-4d9f-b1c2-81342ae47183"},"vehicle_type_id":"4","last_reported":1776776364,"current_range_meters":8800,"station_id":"ce4bgj92rcd13ifvqbe0","pricing_plan_id":"cebpf4jnsgd1na2vs0mg"},{"bike_id":"97fb4028-bc95-4fdb-a2a8-066e24a9b6bb","system_id":"levelo_inurba_marseille","lat":43.31044,"lon":5.36891,"is_reserved":false,"is_disabled":false,"rental_uris":{"android":"levelo://app?vid=97fb4028-bc95-4fdb-a2a8-066e24a9b6bb","ios":"levelo://app?vid=97fb4028-bc95-4fdb-a2a8-066e24a9b6bb"},"vehicle_type_id":"4","last_reported":1776776364,"current_range_meters":8800,"station_id":"","pricing_plan_id":"cebpf4jnsgd1na2vs0mg"},{"bike_id":"1f21b3df-e6d5-4e1e-8722-1dfda582665a","system_id":"levelo_inurba_marseille","lat":43.27345,"lon":5.36259,"is_reserved":false,"is_disabled":false,"rental_uris":{"android":"levelo://app?vid=1f21b3df-e6d5-4e1e-8722-1dfda582665a","ios":"levelo://app?vid=1f21b3df-e6d5-4e1e-8722-1dfda582665a"},"vehicle_type_id":"4","last_reported":1776776364,"current_range_meters":8800,"station_id":"ce4bhbh2rcd13ifvqeo0","pricing_plan_id":"cebpf4jnsgd1na2vs0mg"},{"bike_id":"b3f5969c-035e-4dfc-b5c4-8c45deca2087","system_id":"levelo_inurba_marseille","lat":43.33545,"lon":5.37452,"is_reserved":false,"is_disabled":false,"rental_uris":{"android":"levelo://app?vid=b3f5969c-035e-4dfc-b5c4-8c45deca2087","ios":"levelo://app?vid=b3f5969c-035e-4dfc-b5c4-8c45deca2087"},"vehicle_type_id":"4","last_reported":1776776364,"current_range_meters":8800,"station_id":"st_d46tts09ee8s73dlu43g","pricing_plan_id":"cebpf4jnsgd1na2vs0mg"},{"bike_id":"477578aa-461b-42d7-a65f-a91e7dbe7434","system_id":"levelo_inurba_marseille","lat":43.28847,"lon":5.42516,"is_reserved":false,"is_disabled":false,"rental_uris":{"android":"levelo://app?vid=477578aa-461b-42d7-a65f-a91e7dbe7434","ios":"levelo://app?vid=477578aa-461b-42d7-a65f-a91e7dbe7434"},"vehicle_type_id":"4","last_reported":1776776364,"current_range_meters":8800,"station_id":"st_d3b462108ojc7389ooeg","pricing_plan_id":"cebpf4jnsgd1na2vs0mg"},{"bike_id":"b36b5488-305b-4489-ae31-24305f4d083d","system_id":"levelo_inurba_marseille","lat":43.30784,"lon":5.38155,"is_reserved":false,"is_disabled":false,"rental_uris":{"android":"levelo://app?vid=b36b5488-305b-4489-ae31-24305f4d083d","ios":"levelo://app?vid=b36b5488-305b-4489-ae31-24305f4d083d"},"vehicle_type_id":"4","last_reported":1776776364,"current_range_meters":8800,"station_id":"ce4bgt12rcd13ifvqce0","pricing_plan_id":"cebpf4jnsgd1na2vs0mg"},{"bike_id":"5e13f9f7-718a-48c4-801c-54f2c2d40fb5","system_id":"levelo_inurba_marseille","lat":43.3033,"lon":5.40439,"is_reserved":false,"is_disabled":false,"rental_uris":{"android":"levelo://app?vid=5e13f9f7-718a-48c4-801c-54f2c2d40fb5","ios":"levelo://app?vid=5e13f9f7-718a-48c4-801c-54f2c2d40fb5"},"vehicle_type_id":"4","last_reported":1776776364,"current_range_meters":8800,"station_id":"ce4bh012rcd13ifvqd10","pricing_plan_id":"cebpf4jnsgd1na2vs0mg"},{"bike_id":"5b31ba61-f229-47dd-99bf-d4aac0400a73","system_id":"levelo_inurba_marseille","lat":43.28449,"lon":5.34959,"is_reserved":false,"is_disabled":false,"rental_uris":{"android":"levelo://app?vid=5b31ba61-f229-47dd-99bf-d4aac0400a73","ios":"levelo://app?vid=5b31ba61-f229-47dd-99bf-d4aac0400a73"},"vehicle_type_id":"4","last_reported":1776776364,"current_range_meters":8800,"station_id":"ce4bhbh2rcd13ifvqepg","pricing_plan_id":"cebpf4jnsgd1na2vs0mg"},{"bike_id":"1596e65a-614c-425d-8202-e6bee2cffdb1","system_id":"levelo_inurba_marseille","lat":43.26366,"lon":5.41072,"is_reserved":false,"is_disabled":false,"rental_uris":{"android":"levelo://app?vid=1596e65a-614c-425d-8202-e6bee2cffdb1","ios":"levelo://app?vid=1596e65a-614c-425d-8202-e6bee2cffdb1"},"vehicle_type_id":"4","last_reported":1776776364,"current_range_meters":8800,"station_id":"st_d4e5ca6na9uc73bfl5fg","pricing_plan_id":"cebpf4jnsgd1na2vs0mg"},{"bike_id":"b540c9cf-f584-453b-8421-672138055893","system_id":"levelo_inurba_marseille","lat":43.3061,"lon":5.37227,"is_reserved":false,"is_disabled":false,"rental_uris":{"android":"levelo://app?vid=b540c9cf-f584-453b-8421-672138055893","ios":"levelo://app?vid=b540c9cf-f584-453b-8421-672138055893"},"vehicle_type_id":"4","last_reported":1776776364,"current_range_meters":8800,"station_id":"ce4bgqh2rcd13ifvqc4g","pricing_plan_id":"cebpf4jnsgd1na2vs0mg"},{"bike_id":"a511edf3-b3d3-43e5-9e77-baa7c129208e","system_id":"levelo_inurba_marseille","lat":43.28412,"lon":5.34982,"is_reserved":false,"is_disabled":false,"rental_uris":{"android":"levelo://app?vid=a511edf3-b3d3-43e5-9e77-baa7c129208e","ios":"levelo://app?vid=a511edf3-b3d3-43e5-9e77-baa7c129208e"},"vehicle_type_id":"4","last_reported":1776776364,"current_range_meters":8800,"station_id":"ce4bhbh2rcd13ifvqepg","pricing_plan_id":"cebpf4jnsgd1na2vs0mg"},{"bike_id":"e3537f16-4681-4493-be81-48482b8a7d78","system_id":"levelo_inurba_marseille","lat":43.26487,"lon":5.39543,"is_reserved":false,"is_disabled":false,"rental_uris":{"android":"levelo://app?vid=e3537f16-4681-4493-be81-48482b8a7d78","ios":"levelo://app?vid=e3537f16-4681-4493-be81-48482b8a7d78"},"vehicle_type_id":"4","last_reported":1776776364,"current_range_meters":9200,"station_id":"ce4bhi12rcd13ifvqfq0","pricing_plan_id":"cebpf4jnsgd1na2vs0mg"},{"bike_id":"6e649465-6fc4-4833-83e7-04ea7762cd65","system_id":"levelo_inurba_marseille","lat":43.2998,"lon":5.38508,"is_reserved":false,"is_disabled":false,"rental_uris":{"android":"levelo://app?vid=6e649465-6fc4-4833-83e7-04ea7762cd65","ios":"levelo://app?vid=6e649465-6fc4-4833-83e7-04ea7762cd65"},"vehicle_type_id":"4","last_reported":1776776364,"current_range_meters":9200,"station_id":"ce4bgj92rcd13ifvqbd0","pricing_plan_id":"cebpf4jnsgd1na2vs0mg"},{"bike_id":"156a9278-c7f8-442d-9b54-2a52d275e0c5","system_id":"levelo_inurba_marseille","lat":43.28628,"lon":5.35055,"is_reserved":false,"is_disabled":true,"rental_uris":{"android":"levelo://app?vid=156a9278-c7f8-442d-9b54-2a52d275e0c5","ios":"levelo://app?vid=156a9278-c7f8-442d-9b54-2a52d275e0c5"},"vehicle_type_id":"4","last_reported":1776776364,"current_range_meters":9200,"station_id":"ce4bhch2rcd13ifvqeug","pricing_plan_id":"cebpf4jnsgd1na2vs0mg"},{"bike_id":"c967b760-28a0-4d48-9637-1a449965c541","system_id":"levelo_inurba_marseille","lat":43.25928,"lon":5.38592,"is_reserved":false,"is_disabled":false,"rental_uris":{"android":"levelo://app?vid=c967b760-28a0-4d48-9637-1a449965c541","ios":"levelo://app?vid=c967b760-28a0-4d48-9637-1a449965c541"},"vehicle_type_id":"4","last_reported":1776776364,"current_range_meters":9200,"station_id":"","pricing_plan_id":"cebpf4jnsgd1na2vs0mg"},{"bike_id":"3d2e6300-b6c0-4c56-9763-1c6b98998f74","system_id":"levelo_inurba_marseille","lat":43.28848,"lon":5.42504,"is_reserved":false,"is_disabled":false,"rental_uris":{"android":"levelo://app?vid=3d2e6300-b6c0-4c56-9763-1c6b98998f74","ios":"levelo://app?vid=3d2e6300-b6c0-4c56-9763-1c6b98998f74"},"vehicle_type_id":"4","last_reported":1776776364,"current_range_meters":9200,"station_id":"st_d3b462108ojc7389ooeg","pricing_plan_id":"cebpf4jnsgd1na2vs0mg"},{"bike_id":"eec2227d-bec2-4c67-8bde-63d64ddea04b","system_id":"levelo_inurba_marseille","lat":43.29605,"lon":5.37722,"is_reserved":false,"is_disabled":false,"rental_uris":{"android":"levelo://app?vid=eec2227d-bec2-4c67-8bde-63d64ddea04b","ios":"levelo://app?vid=eec2227d-bec2-4c67-8bde-63d64ddea04b"},"vehicle_type_id":"4","last_reported":1776776364,"current_range_meters":9200,"station_id":"ce4bgi92rcd13ifvqb90","pricing_plan_id":"cebpf4jnsgd1na2vs0mg"},{"bike_id":"2a5231c1-cc6e-46c7-bac8-8f0e939542d1","system_id":"levelo_inurba_marseille","lat":43.31074,"lon":5.42423,"is_reserved":false,"is_disabled":false,"rental_uris":{"android":"levelo://app?vid=2a5231c1-cc6e-46c7-bac8-8f0e939542d1","ios":"levelo://app?vid=2a5231c1-cc6e-46c7-bac8-8f0e939542d1"},"vehicle_type_id":"4","last_reported":1776776364,"current_range_meters":9200,"station_id":"ce4bhp92rcd13ifvqhag","pricing_plan_id":"cebpf4jnsgd1na2vs0mg"},{"bike_id":"e4ab535c-ba5a-4f6d-b543-0e6073825c3a","system_id":"levelo_inurba_marseille","lat":43.26355,"lon":5.41057,"is_reserved":false,"is_disabled":false,"rental_uris":{"android":"levelo://app?vid=e4ab535c-ba5a-4f6d-b543-0e6073825c3a","ios":"levelo://app?vid=e4ab535c-ba5a-4f6d-b543-0e6073825c3a"},"vehicle_type_id":"4","last_reported":1776776364,"current_range_meters":9200,"station_id":"st_d4e5ca6na9uc73bfl5fg","pricing_plan_id":"cebpf4jnsgd1na2vs0mg"},{"bike_id":"f0560ebd-54f4-470b-b211-8f235f923412","system_id":"levelo_inurba_marseille","lat":43.31321,"lon":5.37641,"is_reserved":false,"is_disabled":false,"rental_uris":{"android":"levelo://app?vid=f0560ebd-54f4-470b-b211-8f235f923412","ios":"levelo://app?vid=f0560ebd-54f4-470b-b211-8f235f923412"},"vehicle_type_id":"4","last_reported":1776776364,"current_range_meters":9200,"station_id":"","pricing_plan_id":"cebpf4jnsgd1na2vs0mg"},{"bike_id":"9ff3c31e-bde0-406b-9c48-d15e149220a7","system_id":"levelo_inurba_marseille","lat":43.25946,"lon":5.40889,"is_reserved":false,"is_disabled":false,"rental_uris":{"android":"levelo://app?vid=9ff3c31e-bde0-406b-9c48-d15e149220a7","ios":"levelo://app?vid=9ff3c31e-bde0-406b-9c48-d15e149220a7"},"vehicle_type_id":"4","last_reported":1776776364,"current_range_meters":9200,"station_id":"ce4bhm92rcd13ifvqglg","pricing_plan_id":"cebpf4jnsgd1na2vs0mg"},{"bike_id":"90d0e157-0148-4fd1-9166-d130008737ab","system_id":"levelo_inurba_marseille","lat":43.29537,"lon":5.42278,"is_reserved":false,"is_disabled":false,"rental_uris":{"android":"levelo://app?vid=90d0e157-0148-4fd1-9166-d130008737ab","ios":"levelo://app?vid=90d0e157-0148-4fd1-9166-d130008737ab"},"vehicle_type_id":"4","last_reported":1776776364,"current_range_meters":9200,"station_id":"ce4bhph2rcd13ifvqhdg","pricing_plan_id":"cebpf4jnsgd1na2vs0mg"},{"bike_id":"0d52e2f9-bfa5-4614-90fa-169b2c2419fa","system_id":"levelo_inurba_marseille","lat":43.2841,"lon":5.37506,"is_reserved":false,"is_disabled":false,"rental_uris":{"android":"levelo://app?vid=0d52e2f9-bfa5-4614-90fa-169b2c2419fa","ios":"levelo://app?vid=0d52e2f9-bfa5-4614-90fa-169b2c2419fa"},"vehicle_type_id":"4","last_reported":1776776364,"current_range_meters":9200,"station_id":"ce4bh412rcd13ifvqds0","pricing_plan_id":"cebpf4jnsgd1na2vs0mg"},{"bike_id":"f3ddfd56-59d4-4df4-a2e2-c2cc0fe7ccdc","system_id":"levelo_inurba_marseille","lat":43.30524,"lon":5.36472,"is_reserved":false,"is_disabled":false,"rental_uris":{"android":"levelo://app?vid=f3ddfd56-59d4-4df4-a2e2-c2cc0fe7ccdc","ios":"levelo://app?vid=f3ddfd56-59d4-4df4-a2e2-c2cc0fe7ccdc"},"vehicle_type_id":"4","last_reported":1776776364,"current_range_meters":9200,"station_id":"ce4bgs12rcd13ifvqcag","pricing_plan_id":"cebpf4jnsgd1na2vs0mg"},{"bike_id":"a9ebbb48-a507-4b14-b244-dcd9fe3c6474","system_id":"levelo_inurba_marseille","lat":43.26781,"lon":5.39405,"is_reserved":false,"is_disabled":false,"rental_uris":{"android":"levelo://app?vid=a9ebbb48-a507-4b14-b244-dcd9fe3c6474","ios":"levelo://app?vid=a9ebbb48-a507-4b14-b244-dcd9fe3c6474"},"vehicle_type_id":"4","last_reported":1776776364,"current_range_meters":9200,"station_id":"ce4bhh12rcd13ifvqfg0","pricing_plan_id":"cebpf4jnsgd1na2vs0mg"},{"bike_id":"6c310d00-c792-4a2b-8615-84a506a3d978","system_id":"levelo_inurba_marseille","lat":43.28691,"lon":5.3739,"is_reserved":false,"is_disabled":false,"rental_uris":{"android":"levelo://app?vid=6c310d00-c792-4a2b-8615-84a506a3d978","ios":"levelo://app?vid=6c310d00-c792-4a2b-8615-84a506a3d978"},"vehicle_type_id":"4","last_reported":1776776364,"current_range_meters":9200,"station_id":"ce4bh3p2rcd13ifvqdq0","pricing_plan_id":"cebpf4jnsgd1na2vs0mg"},{"bike_id":"a5932d33-7fe4-4ab5-ab73-558a4a420627","system_id":"levelo_inurba_marseille","lat":43.24456,"lon":5.40053,"is_reserved":false,"is_disabled":false,"rental_uris":{"android":"levelo://app?vid=a5932d33-7fe4-4ab5-ab73-558a4a420627","ios":"levelo://app?vid=a5932d33-7fe4-4ab5-ab73-558a4a420627"},"vehicle_type_id":"4","last_reported":1776776364,"current_range_meters":9200,"station_id":"","pricing_plan_id":"cebpf4jnsgd1na2vs0mg"},{"bike_id":"62a771fe-871d-4799-aa8e-23d76ac2d71f","system_id":"levelo_inurba_marseille","lat":43.26186,"lon":5.38746,"is_reserved":false,"is_disabled":false,"rental_uris":{"android":"levelo://app?vid=62a771fe-871d-4799-aa8e-23d76ac2d71f","ios":"levelo://app?vid=62a771fe-871d-4799-aa8e-23d76ac2d71f"},"vehicle_type_id":"4","last_reported":1776776364,"current_range_meters":9200,"station_id":"","pricing_plan_id":"cebpf4jnsgd1na2vs0mg"},{"bike_id":"61b3aea9-0113-4ac0-b8e1-3dc8d194446c","system_id":"levelo_inurba_marseille","lat":43.30136,"lon":5.4311,"is_reserved":false,"is_disabled":true,"rental_uris":{"android":"levelo://app?vid=61b3aea9-0113-4ac0-b8e1-3dc8d194446c","ios":"levelo://app?vid=61b3aea9-0113-4ac0-b8e1-3dc8d194446c"},"vehicle_type_id":"4","last_reported":1776776364,"current_range_meters":9200,"station_id":"st_d3js3co5814s73ftftug","pricing_plan_id":"cebpf4jnsgd1na2vs0mg"},{"bike_id":"500a7bd9-45a7-4f50-bbf9-331708e4df10","system_id":"levelo_inurba_marseille","lat":43.30951,"lon":5.39031,"is_reserved":false,"is_disabled":false,"rental_uris":{"android":"levelo://app?vid=500a7bd9-45a7-4f50-bbf9-331708e4df10","ios":"levelo://app?vid=500a7bd9-45a7-4f50-bbf9-331708e4df10"},"vehicle_type_id":"4","last_reported":1776776364,"current_range_meters":9600,"station_id":"ce4bgup2rcd13ifvqco0","pricing_plan_id":"cebpf4jnsgd1na2vs0mg"},{"bike_id":"197a5ece-09aa-4315-b645-c21a5da8481a","system_id":"levelo_inurba_marseille","lat":43.29435,"lon":5.39743,"is_reserved":false,"is_disabled":false,"rental_uris":{"android":"levelo://app?vid=197a5ece-09aa-4315-b645-c21a5da8481a","ios":"levelo://app?vid=197a5ece-09aa-4315-b645-c21a5da8481a"},"vehicle_type_id":"4","last_reported":1776776364,"current_range_meters":9600,"station_id":"ce4bh3h2rcd13ifvqdo0","pricing_plan_id":"cebpf4jnsgd1na2vs0mg"},{"bike_id":"33a53f28-2e9a-4da7-b490-4a1c601f8cad","system_id":"levelo_inurba_marseille","lat":43.26558,"lon":5.37276,"is_reserved":false,"is_disabled":false,"rental_uris":{"android":"levelo://app?vid=33a53f28-2e9a-4da7-b490-4a1c601f8cad","ios":"levelo://app?vid=33a53f28-2e9a-4da7-b490-4a1c601f8cad"},"vehicle_type_id":"4","last_reported":1776776364,"current_range_meters":9600,"station_id":"ce4bhg12rcd13ifvqf70","pricing_plan_id":"cebpf4jnsgd1na2vs0mg"},{"bike_id":"0cf9c7d1-4ff6-4885-afdb-1945ed4e0993","system_id":"levelo_inurba_marseille","lat":43.29632,"lon":5.40597,"is_reserved":false,"is_disabled":true,"rental_uris":{"android":"levelo://app?vid=0cf9c7d1-4ff6-4885-afdb-1945ed4e0993","ios":"levelo://app?vid=0cf9c7d1-4ff6-4885-afdb-1945ed4e0993"},"vehicle_type_id":"4","last_reported":1776776364,"current_range_meters":9600,"station_id":"ce4bh0h2rcd13ifvqd60","pricing_plan_id":"cebpf4jnsgd1na2vs0mg"},{"bike_id":"556fa32d-d3aa-44c6-acd4-8fb2be9d3388","system_id":"levelo_inurba_marseille","lat":43.298988,"lon":5.381449,"is_reserved":false,"is_disabled":false,"rental_uris":{"android":"levelo://app?vid=556fa32d-d3aa-44c6-acd4-8fb2be9d3388","ios":"levelo://app?vid=556fa32d-d3aa-44c6-acd4-8fb2be9d3388"},"vehicle_type_id":"4","last_reported":1776776364,"current_range_meters":9600,"station_id":"ce4bgj12rcd13ifvqbc0","pricing_plan_id":"cebpf4jnsgd1na2vs0mg"},{"bike_id":"51e06dec-2107-40fa-9545-914b56265e0f","system_id":"levelo_inurba_marseille","lat":43.26777,"lon":5.39428,"is_reserved":false,"is_disabled":false,"rental_uris":{"android":"levelo://app?vid=51e06dec-2107-40fa-9545-914b56265e0f","ios":"levelo://app?vid=51e06dec-2107-40fa-9545-914b56265e0f"},"vehicle_type_id":"4","last_reported":1776776364,"current_range_meters":9600,"station_id":"ce4bhh12rcd13ifvqfg0","pricing_plan_id":"cebpf4jnsgd1na2vs0mg"},{"bike_id":"bb783fa4-b639-4b94-b269-9ce5e892cd26","system_id":"levelo_inurba_marseille","lat":43.24391,"lon":5.37034,"is_reserved":false,"is_disabled":false,"rental_uris":{"android":"levelo://app?vid=bb783fa4-b639-4b94-b269-9ce5e892cd26","ios":"levelo://app?vid=bb783fa4-b639-4b94-b269-9ce5e892cd26"},"vehicle_type_id":"4","last_reported":1776776364,"current_range_meters":9600,"station_id":"ce4bhhh2rcd13ifvqfk0","pricing_plan_id":"cebpf4jnsgd1na2vs0mg"},{"bike_id":"85c97d83-b5b5-41c3-8c01-939bb6dc857e","system_id":"levelo_inurba_marseille","lat":43.255,"lon":5.37638,"is_reserved":false,"is_disabled":false,"rental_uris":{"android":"levelo://app?vid=85c97d83-b5b5-41c3-8c01-939bb6dc857e","ios":"levelo://app?vid=85c97d83-b5b5-41c3-8c01-939bb6dc857e"},"vehicle_type_id":"4","last_reported":1776776364,"current_range_meters":9600,"station_id":"ce4bhh12rcd13ifvqff0","pricing_plan_id":"cebpf4jnsgd1na2vs0mg"},{"bike_id":"e9200f18-7829-488e-bde9-2b53f3e48b75","system_id":"levelo_inurba_marseille","lat":43.31356,"lon":5.36697,"is_reserved":false,"is_disabled":false,"rental_uris":{"android":"levelo://app?vid=e9200f18-7829-488e-bde9-2b53f3e48b75","ios":"levelo://app?vid=e9200f18-7829-488e-bde9-2b53f3e48b75"},"vehicle_type_id":"4","last_reported":1776776364,"current_range_meters":9600,"station_id":"ce4bgr92rcd13ifvqc6g","pricing_plan_id":"cebpf4jnsgd1na2vs0mg"},{"bike_id":"cce56faf-ea14-4c67-a487-71ac40baafeb","system_id":"levelo_inurba_marseille","lat":43.29893,"lon":5.43668,"is_reserved":false,"is_disabled":false,"rental_uris":{"android":"levelo://app?vid=cce56faf-ea14-4c67-a487-71ac40baafeb","ios":"levelo://app?vid=cce56faf-ea14-4c67-a487-71ac40baafeb"},"vehicle_type_id":"4","last_reported":1776776364,"current_range_meters":9600,"station_id":"ce4bhpp2rcd13ifvqhfg","pricing_plan_id":"cebpf4jnsgd1na2vs0mg"},{"bike_id":"f25990aa-dc79-4565-a3e3-d2624eee4e27","system_id":"levelo_inurba_marseille","lat":43.26173,"lon":5.37418,"is_reserved":false,"is_disabled":false,"rental_uris":{"android":"levelo://app?vid=f25990aa-dc79-4565-a3e3-d2624eee4e27","ios":"levelo://app?vid=f25990aa-dc79-4565-a3e3-d2624eee4e27"},"vehicle_type_id":"4","last_reported":1776776364,"current_range_meters":9600,"station_id":"ce4bhgp2rcd13ifvqfc0","pricing_plan_id":"cebpf4jnsgd1na2vs0mg"},{"bike_id":"20d555b3-07dd-4a87-b2af-fe55e8f83136","system_id":"levelo_inurba_marseille","lat":43.27553,"lon":5.35928,"is_reserved":false,"is_disabled":false,"rental_uris":{"android":"levelo://app?vid=20d555b3-07dd-4a87-b2af-fe55e8f83136","ios":"levelo://app?vid=20d555b3-07dd-4a87-b2af-fe55e8f83136"},"vehicle_type_id":"4","last_reported":1776776364,"current_range_meters":9600,"station_id":"","pricing_plan_id":"cebpf4jnsgd1na2vs0mg"},{"bike_id":"374624d6-60d9-46ac-9490-c32f544f875a","system_id":"levelo_inurba_marseille","lat":43.30459,"lon":5.37903,"is_reserved":false,"is_disabled":false,"rental_uris":{"android":"levelo://app?vid=374624d6-60d9-46ac-9490-c32f544f875a","ios":"levelo://app?vid=374624d6-60d9-46ac-9490-c32f544f875a"},"vehicle_type_id":"4","last_reported":1776776364,"current_range_meters":9600,"station_id":"ce4bgup2rcd13ifvqcn0","pricing_plan_id":"cebpf4jnsgd1na2vs0mg"},{"bike_id":"33928cbf-672c-4bc6-973c-4486339912eb","system_id":"levelo_inurba_marseille","lat":43.31393,"lon":5.36724,"is_reserved":false,"is_disabled":false,"rental_uris":{"android":"levelo://app?vid=33928cbf-672c-4bc6-973c-4486339912eb","ios":"levelo://app?vid=33928cbf-672c-4bc6-973c-4486339912eb"},"vehicle_type_id":"4","last_reported":1776776364,"current_range_meters":9600,"station_id":"","pricing_plan_id":"cebpf4jnsgd1na2vs0mg"},{"bike_id":"e70e0091-4488-46ab-b710-719133651bf4","system_id":"levelo_inurba_marseille","lat":43.31358,"lon":5.36667,"is_reserved":false,"is_disabled":false,"rental_uris":{"android":"levelo://app?vid=e70e0091-4488-46ab-b710-719133651bf4","ios":"levelo://app?vid=e70e0091-4488-46ab-b710-719133651bf4"},"vehicle_type_id":"4","last_reported":1776776364,"current_range_meters":9600,"station_id":"ce4bgr92rcd13ifvqc6g","pricing_plan_id":"cebpf4jnsgd1na2vs0mg"},{"bike_id":"b42fdc8b-c696-4b83-bc5d-2a0531afd532","system_id":"levelo_inurba_marseille","lat":43.31112,"lon":5.37759,"is_reserved":false,"is_disabled":false,"rental_uris":{"android":"levelo://app?vid=b42fdc8b-c696-4b83-bc5d-2a0531afd532","ios":"levelo://app?vid=b42fdc8b-c696-4b83-bc5d-2a0531afd532"},"vehicle_type_id":"4","last_reported":1776776364,"current_range_meters":9600,"station_id":"ce4bgt92rcd13ifvqcg0","pricing_plan_id":"cebpf4jnsgd1na2vs0mg"},{"bike_id":"d9a2806f-53f8-471f-895a-b5435de6121a","system_id":"levelo_inurba_marseille","lat":43.32114,"lon":5.36756,"is_reserved":false,"is_disabled":false,"rental_uris":{"android":"levelo://app?vid=d9a2806f-53f8-471f-895a-b5435de6121a","ios":"levelo://app?vid=d9a2806f-53f8-471f-895a-b5435de6121a"},"vehicle_type_id":"4","last_reported":1776776364,"current_range_meters":9600,"station_id":"ce4bhrh2rcd13ifvqhug","pricing_plan_id":"cebpf4jnsgd1na2vs0mg"},{"bike_id":"21dcddf7-2140-4291-89fd-36fbc0753d3a","system_id":"levelo_inurba_marseille","lat":43.26669,"lon":5.38257,"is_reserved":false,"is_disabled":false,"rental_uris":{"android":"levelo://app?vid=21dcddf7-2140-4291-89fd-36fbc0753d3a","ios":"levelo://app?vid=21dcddf7-2140-4291-89fd-36fbc0753d3a"},"vehicle_type_id":"4","last_reported":1776776364,"current_range_meters":9600,"station_id":"ce4bhg92rcd13ifvqf90","pricing_plan_id":"cebpf4jnsgd1na2vs0mg"},{"bike_id":"059b4ad8-665d-46df-9a3f-e9b9a20a1c99","system_id":"levelo_inurba_marseille","lat":43.3354,"lon":5.37463,"is_reserved":false,"is_disabled":false,"rental_uris":{"android":"levelo://app?vid=059b4ad8-665d-46df-9a3f-e9b9a20a1c99","ios":"levelo://app?vid=059b4ad8-665d-46df-9a3f-e9b9a20a1c99"},"vehicle_type_id":"4","last_reported":1776776364,"current_range_meters":9600,"station_id":"st_d46tts09ee8s73dlu43g","pricing_plan_id":"cebpf4jnsgd1na2vs0mg"},{"bike_id":"1bbc15a5-509e-4cd1-98df-7bfca0be5276","system_id":"levelo_inurba_marseille","lat":43.23774,"lon":5.36625,"is_reserved":false,"is_disabled":false,"rental_uris":{"android":"levelo://app?vid=1bbc15a5-509e-4cd1-98df-7bfca0be5276","ios":"levelo://app?vid=1bbc15a5-509e-4cd1-98df-7bfca0be5276"},"vehicle_type_id":"4","last_reported":1776776364,"current_range_meters":10000,"station_id":"st_d3nk18o9ro0c73en2l3g","pricing_plan_id":"cebpf4jnsgd1na2vs0mg"},{"bike_id":"b808fbb1-92a7-4cb7-a34e-79ecbe55d154","system_id":"levelo_inurba_marseille","lat":43.22558,"lon":5.41633,"is_reserved":false,"is_disabled":false,"rental_uris":{"android":"levelo://app?vid=b808fbb1-92a7-4cb7-a34e-79ecbe55d154","ios":"levelo://app?vid=b808fbb1-92a7-4cb7-a34e-79ecbe55d154"},"vehicle_type_id":"4","last_reported":1776776364,"current_range_meters":10000,"station_id":"st_d2o4gvlbi1j2169b742g","pricing_plan_id":"cebpf4jnsgd1na2vs0mg"},{"bike_id":"3562cfa4-b046-41b1-a8bf-7b7320793591","system_id":"levelo_inurba_marseille","lat":43.31734,"lon":5.40465,"is_reserved":false,"is_disabled":false,"rental_uris":{"android":"levelo://app?vid=3562cfa4-b046-41b1-a8bf-7b7320793591","ios":"levelo://app?vid=3562cfa4-b046-41b1-a8bf-7b7320793591"},"vehicle_type_id":"4","last_reported":1776776364,"current_range_meters":10000,"station_id":"","pricing_plan_id":"cebpf4jnsgd1na2vs0mg"},{"bike_id":"d61d4442-6a06-4c85-8f03-430149fa7be5","system_id":"levelo_inurba_marseille","lat":43.32659,"lon":5.40984,"is_reserved":false,"is_disabled":false,"rental_uris":{"android":"levelo://app?vid=d61d4442-6a06-4c85-8f03-430149fa7be5","ios":"levelo://app?vid=d61d4442-6a06-4c85-8f03-430149fa7be5"},"vehicle_type_id":"4","last_reported":1776776364,"current_range_meters":10000,"station_id":"ce4bhpp2rcd13ifvqhgg","pricing_plan_id":"cebpf4jnsgd1na2vs0mg"},{"bike_id":"91e8c325-0de0-4f6c-974d-2f077f83d8fc","system_id":"levelo_inurba_marseille","lat":43.30449,"lon":5.36682,"is_reserved":false,"is_disabled":false,"rental_uris":{"android":"levelo://app?vid=91e8c325-0de0-4f6c-974d-2f077f83d8fc","ios":"levelo://app?vid=91e8c325-0de0-4f6c-974d-2f077f83d8fc"},"vehicle_type_id":"4","last_reported":1776776364,"current_range_meters":10000,"station_id":"","pricing_plan_id":"cebpf4jnsgd1na2vs0mg"},{"bike_id":"fc83597b-c92a-4d6b-9ec3-85cccb5b70a7","system_id":"levelo_inurba_marseille","lat":43.31934,"lon":5.36822,"is_reserved":false,"is_disabled":false,"rental_uris":{"android":"levelo://app?vid=fc83597b-c92a-4d6b-9ec3-85cccb5b70a7","ios":"levelo://app?vid=fc83597b-c92a-4d6b-9ec3-85cccb5b70a7"},"vehicle_type_id":"4","last_reported":1776776364,"current_range_meters":10000,"station_id":"st_d6o2h0d0559c73evc1b0","pricing_plan_id":"cebpf4jnsgd1na2vs0mg"},{"bike_id":"04257b95-4499-46e1-a4e3-88ab526291ba","system_id":"levelo_inurba_marseille","lat":43.284721,"lon":5.483981,"is_reserved":false,"is_disabled":false,"rental_uris":{"android":"levelo://app?vid=04257b95-4499-46e1-a4e3-88ab526291ba","ios":"levelo://app?vid=04257b95-4499-46e1-a4e3-88ab526291ba"},"vehicle_type_id":"4","last_reported":1776776364,"current_range_meters":10000,"station_id":"st_d3svhcjqgbts73a3dn0g","pricing_plan_id":"cebpf4jnsgd1na2vs0mg"},{"bike_id":"465ac21d-2410-4f3f-988f-355b6ca1d3f0","system_id":"levelo_inurba_marseille","lat":43.30131,"lon":5.39854,"is_reserved":false,"is_disabled":false,"rental_uris":{"android":"levelo://app?vid=465ac21d-2410-4f3f-988f-355b6ca1d3f0","ios":"levelo://app?vid=465ac21d-2410-4f3f-988f-355b6ca1d3f0"},"vehicle_type_id":"4","last_reported":1776776364,"current_range_meters":10000,"station_id":"ce4bh0h2rcd13ifvqd40","pricing_plan_id":"cebpf4jnsgd1na2vs0mg"},{"bike_id":"36834a8e-2822-42be-87f8-5663264c1f70","system_id":"levelo_inurba_marseille","lat":43.31358,"lon":5.38486,"is_reserved":false,"is_disabled":false,"rental_uris":{"android":"levelo://app?vid=36834a8e-2822-42be-87f8-5663264c1f70","ios":"levelo://app?vid=36834a8e-2822-42be-87f8-5663264c1f70"},"vehicle_type_id":"4","last_reported":1776776364,"current_range_meters":10000,"station_id":"ce4bgt92rcd13ifvqcf0","pricing_plan_id":"cebpf4jnsgd1na2vs0mg"},{"bike_id":"c7ff1d8c-9f80-4101-92ef-2f0b68fb525f","system_id":"levelo_inurba_marseille","lat":43.27603,"lon":5.39514,"is_reserved":false,"is_disabled":false,"rental_uris":{"android":"levelo://app?vid=c7ff1d8c-9f80-4101-92ef-2f0b68fb525f","ios":"levelo://app?vid=c7ff1d8c-9f80-4101-92ef-2f0b68fb525f"},"vehicle_type_id":"4","last_reported":1776776364,"current_range_meters":10000,"station_id":"","pricing_plan_id":"cebpf4jnsgd1na2vs0mg"},{"bike_id":"40b7de46-910a-4fe7-a860-cb5e58e93571","system_id":"levelo_inurba_marseille","lat":43.27581,"lon":5.38397,"is_reserved":false,"is_disabled":false,"rental_uris":{"android":"levelo://app?vid=40b7de46-910a-4fe7-a860-cb5e58e93571","ios":"levelo://app?vid=40b7de46-910a-4fe7-a860-cb5e58e93571"},"vehicle_type_id":"4","last_reported":1776776364,"current_range_meters":10000,"station_id":"ce4bhh92rcd13ifvqfi0","pricing_plan_id":"cebpf4jnsgd1na2vs0mg"},{"bike_id":"da2c99a9-b8ab-412f-bdd9-e83e6df79f44","system_id":"levelo_inurba_marseille","lat":43.26566,"lon":5.40299,"is_reserved":false,"is_disabled":false,"rental_uris":{"android":"levelo://app?vid=da2c99a9-b8ab-412f-bdd9-e83e6df79f44","ios":"levelo://app?vid=da2c99a9-b8ab-412f-bdd9-e83e6df79f44"},"vehicle_type_id":"4","last_reported":1776776364,"current_range_meters":10000,"station_id":"ce4bhmp2rcd13ifvqgng","pricing_plan_id":"cebpf4jnsgd1na2vs0mg"},{"bike_id":"4bf5bb45-f55e-4bb6-b408-34ef13bfd628","system_id":"levelo_inurba_marseille","lat":43.27617,"lon":5.36096,"is_reserved":false,"is_disabled":false,"rental_uris":{"android":"levelo://app?vid=4bf5bb45-f55e-4bb6-b408-34ef13bfd628","ios":"levelo://app?vid=4bf5bb45-f55e-4bb6-b408-34ef13bfd628"},"vehicle_type_id":"4","last_reported":1776776364,"current_range_meters":10000,"station_id":"ce4bgj92rcd13ifvqbe0","pricing_plan_id":"cebpf4jnsgd1na2vs0mg"},{"bike_id":"6b571f12-6756-407e-9643-1e5d2d4ab3e6","system_id":"levelo_inurba_marseille","lat":43.29654,"lon":5.40604,"is_reserved":false,"is_disabled":false,"rental_uris":{"android":"levelo://app?vid=6b571f12-6756-407e-9643-1e5d2d4ab3e6","ios":"levelo://app?vid=6b571f12-6756-407e-9643-1e5d2d4ab3e6"},"vehicle_type_id":"4","last_reported":1776776364,"current_range_meters":10000,"station_id":"ce4bh0h2rcd13ifvqd60","pricing_plan_id":"cebpf4jnsgd1na2vs0mg"},{"bike_id":"72972d3d-1683-40ff-a85a-e08969cc13dd","system_id":"levelo_inurba_marseille","lat":43.23132,"lon":5.4374,"is_reserved":false,"is_disabled":false,"rental_uris":{"android":"levelo://app?vid=72972d3d-1683-40ff-a85a-e08969cc13dd","ios":"levelo://app?vid=72972d3d-1683-40ff-a85a-e08969cc13dd"},"vehicle_type_id":"4","last_reported":1776776364,"current_range_meters":10800,"station_id":"ce4bhmp2rcd13ifvqgog","pricing_plan_id":"cebpf4jnsgd1na2vs0mg"},{"bike_id":"3e44af47-15f1-4eab-8dc7-82170c179e57","system_id":"levelo_inurba_marseille","lat":43.28411,"lon":5.34985,"is_reserved":false,"is_disabled":false,"rental_uris":{"android":"levelo://app?vid=3e44af47-15f1-4eab-8dc7-82170c179e57","ios":"levelo://app?vid=3e44af47-15f1-4eab-8dc7-82170c179e57"},"vehicle_type_id":"4","last_reported":1776776364,"current_range_meters":10800,"station_id":"ce4bhbh2rcd13ifvqepg","pricing_plan_id":"cebpf4jnsgd1na2vs0mg"},{"bike_id":"12d1ddb5-1e2c-4b2d-a0d4-dafdec917212","system_id":"levelo_inurba_marseille","lat":43.28489,"lon":5.48395,"is_reserved":false,"is_disabled":false,"rental_uris":{"android":"levelo://app?vid=12d1ddb5-1e2c-4b2d-a0d4-dafdec917212","ios":"levelo://app?vid=12d1ddb5-1e2c-4b2d-a0d4-dafdec917212"},"vehicle_type_id":"4","last_reported":1776776364,"current_range_meters":10800,"station_id":"","pricing_plan_id":"cebpf4jnsgd1na2vs0mg"},{"bike_id":"7efd09fb-8dbb-46f2-968a-ab7877201d22","system_id":"levelo_inurba_marseille","lat":43.29002,"lon":5.35612,"is_reserved":false,"is_disabled":false,"rental_uris":{"android":"levelo://app?vid=7efd09fb-8dbb-46f2-968a-ab7877201d22","ios":"levelo://app?vid=7efd09fb-8dbb-46f2-968a-ab7877201d22"},"vehicle_type_id":"4","last_reported":1776776364,"current_range_meters":10800,"station_id":"ce4bhb92rcd13ifvqen0","pricing_plan_id":"cebpf4jnsgd1na2vs0mg"},{"bike_id":"3493124a-619f-42fc-9ec0-00628ff9c119","system_id":"levelo_inurba_marseille","lat":43.29823,"lon":5.38416,"is_reserved":false,"is_disabled":false,"rental_uris":{"android":"levelo://app?vid=3493124a-619f-42fc-9ec0-00628ff9c119","ios":"levelo://app?vid=3493124a-619f-42fc-9ec0-00628ff9c119"},"vehicle_type_id":"4","last_reported":1776776364,"current_range_meters":10800,"station_id":"","pricing_plan_id":"cebpf4jnsgd1na2vs0mg"},{"bike_id":"ea54b7f9-00c6-43b1-9a5a-534a8cb9648e","system_id":"levelo_inurba_marseille","lat":43.29792,"lon":5.38533,"is_reserved":false,"is_disabled":false,"rental_uris":{"android":"levelo://app?vid=ea54b7f9-00c6-43b1-9a5a-534a8cb9648e","ios":"levelo://app?vid=ea54b7f9-00c6-43b1-9a5a-534a8cb9648e"},"vehicle_type_id":"4","last_reported":1776776364,"current_range_meters":10800,"station_id":"","pricing_plan_id":"cebpf4jnsgd1na2vs0mg"},{"bike_id":"a94d236d-eba8-4733-81ef-6d7a05120d94","system_id":"levelo_inurba_marseille","lat":43.24864,"lon":5.39426,"is_reserved":false,"is_disabled":false,"rental_uris":{"android":"levelo://app?vid=a94d236d-eba8-4733-81ef-6d7a05120d94","ios":"levelo://app?vid=a94d236d-eba8-4733-81ef-6d7a05120d94"},"vehicle_type_id":"4","last_reported":1776776364,"current_range_meters":10800,"station_id":"","pricing_plan_id":"cebpf4jnsgd1na2vs0mg"},{"bike_id":"2569e984-44af-4745-afff-815d18484919","system_id":"levelo_inurba_marseille","lat":43.28365,"lon":5.38623,"is_reserved":false,"is_disabled":false,"rental_uris":{"android":"levelo://app?vid=2569e984-44af-4745-afff-815d18484919","ios":"levelo://app?vid=2569e984-44af-4745-afff-815d18484919"},"vehicle_type_id":"4","last_reported":1776776364,"current_range_meters":10800,"station_id":"ce4bh492rcd13ifvqdvg","pricing_plan_id":"cebpf4jnsgd1na2vs0mg"},{"bike_id":"c8232403-3a51-42ba-a855-4bfdd44def44","system_id":"levelo_inurba_marseille","lat":43.28664,"lon":5.3868,"is_reserved":false,"is_disabled":true,"rental_uris":{"android":"levelo://app?vid=c8232403-3a51-42ba-a855-4bfdd44def44","ios":"levelo://app?vid=c8232403-3a51-42ba-a855-4bfdd44def44"},"vehicle_type_id":"4","last_reported":1776776364,"current_range_meters":10800,"station_id":"","pricing_plan_id":"cebpf4jnsgd1na2vs0mg"},{"bike_id":"53ac9b94-d2b8-401a-8133-9009372f217e","system_id":"levelo_inurba_marseille","lat":43.28485,"lon":5.48388,"is_reserved":false,"is_disabled":false,"rental_uris":{"android":"levelo://app?vid=53ac9b94-d2b8-401a-8133-9009372f217e","ios":"levelo://app?vid=53ac9b94-d2b8-401a-8133-9009372f217e"},"vehicle_type_id":"4","last_reported":1776776364,"current_range_meters":10800,"station_id":"st_d3svhcjqgbts73a3dn0g","pricing_plan_id":"cebpf4jnsgd1na2vs0mg"},{"bike_id":"00189a0e-8bac-4d11-85b6-2438ebff76d6","system_id":"levelo_inurba_marseille","lat":43.29423,"lon":5.38416,"is_reserved":false,"is_disabled":false,"rental_uris":{"android":"levelo://app?vid=00189a0e-8bac-4d11-85b6-2438ebff76d6","ios":"levelo://app?vid=00189a0e-8bac-4d11-85b6-2438ebff76d6"},"vehicle_type_id":"4","last_reported":1776776364,"current_range_meters":10800,"station_id":"","pricing_plan_id":"cebpf4jnsgd1na2vs0mg"},{"bike_id":"9bee36b8-13f8-4fea-a2d5-f3c72e3a07d6","system_id":"levelo_inurba_marseille","lat":43.28527,"lon":5.40185,"is_reserved":false,"is_disabled":false,"rental_uris":{"android":"levelo://app?vid=9bee36b8-13f8-4fea-a2d5-f3c72e3a07d6","ios":"levelo://app?vid=9bee36b8-13f8-4fea-a2d5-f3c72e3a07d6"},"vehicle_type_id":"4","last_reported":1776776364,"current_range_meters":10800,"station_id":"","pricing_plan_id":"cebpf4jnsgd1na2vs0mg"},{"bike_id":"1c4db81e-e54e-450a-b910-a202dc639503","system_id":"levelo_inurba_marseille","lat":43.284712,"lon":5.484047,"is_reserved":false,"is_disabled":false,"rental_uris":{"android":"levelo://app?vid=1c4db81e-e54e-450a-b910-a202dc639503","ios":"levelo://app?vid=1c4db81e-e54e-450a-b910-a202dc639503"},"vehicle_type_id":"4","last_reported":1776776364,"current_range_meters":11200,"station_id":"","pricing_plan_id":"cebpf4jnsgd1na2vs0mg"},{"bike_id":"47976922-2a54-477b-a114-0b7e79c1bc74","system_id":"levelo_inurba_marseille","lat":43.33592,"lon":5.40996,"is_reserved":false,"is_disabled":false,"rental_uris":{"android":"levelo://app?vid=47976922-2a54-477b-a114-0b7e79c1bc74","ios":"levelo://app?vid=47976922-2a54-477b-a114-0b7e79c1bc74"},"vehicle_type_id":"4","last_reported":1776776364,"current_range_meters":11200,"station_id":"ce4bhqh2rcd13ifvqhmg","pricing_plan_id":"cebpf4jnsgd1na2vs0mg"},{"bike_id":"283be965-1e20-4f97-815c-77c985fe273c","system_id":"levelo_inurba_marseille","lat":43.27937,"lon":5.38719,"is_reserved":false,"is_disabled":false,"rental_uris":{"android":"levelo://app?vid=283be965-1e20-4f97-815c-77c985fe273c","ios":"levelo://app?vid=283be965-1e20-4f97-815c-77c985fe273c"},"vehicle_type_id":"4","last_reported":1776776364,"current_range_meters":11200,"station_id":"ce4bhg12rcd13ifvqf80","pricing_plan_id":"cebpf4jnsgd1na2vs0mg"},{"bike_id":"3180b0a1-31ba-4a40-9a6d-8ab6f224e2ac","system_id":"levelo_inurba_marseille","lat":43.29873,"lon":5.3972,"is_reserved":false,"is_disabled":false,"rental_uris":{"android":"levelo://app?vid=3180b0a1-31ba-4a40-9a6d-8ab6f224e2ac","ios":"levelo://app?vid=3180b0a1-31ba-4a40-9a6d-8ab6f224e2ac"},