{"last_updated":1687298771,"ttl":30,"version":"2.2","data":{"bikes":[{"bike_id":"e434870f-62cf-4105-ab58-270b20f1eace","system_id":"levelo_inurba_marseille","lat":43.31345,"lon":5.36699,"is_reserved":false,"is_disabled":false,"rental_uris":{"android":"levelo://app?vid=e434870f-62cf-4105-ab58-270b20f1eace","ios":"levelo://app?vid=e434870f-62cf-4105-ab58-270b20f1eace"},"vehicle_type_id":"4","last_reported":1687298772,"current_range_meters":17200,"station_id":"ce4bgr92rcd13ifvqc6g","pricing_plan_id":"free"},{"bike_id":"32704eba-c8a7-40ea-af7f-866a1a1d7593","system_id":"levelo_inurba_marseille","lat":43.31346,"lon":5.3672,"is_reserved":false,"is_disabled":false,"rental_uris":{"android":"levelo://app?vid=32704eba-c8a7-40ea-af7f-866a1a1d7593","ios":"levelo://app?vid=32704eba-c8a7-40ea-af7f-866a1a1d7593"},"vehicle_type_id":"4","last_reported":1687298772,"current_range_meters":21600,"station_id":"","pricing_plan_id":"free"},{"bike_id":"6e4fd040-1866-4783-872c-dd21a7ae18af","system_id":"levelo_inurba_marseille","lat":43.31352,"lon":5.37069,"is_reserved":false,"is_disabled":false,"rental_uris":{"android":"levelo://app?vid=6e4fd040-1866-4783-872c-dd21a7ae18af","ios":"levelo://app?vid=6e4fd040-1866-4783-872c-dd21a7ae18af"},"vehicle_type_id":"4","last_reported":1687298772,"current_range_meters":12800,"station_id":"","pricing_plan_id":"free"},{"bike_id":"0c47c40e-1cd1-4b15-b26f-f36f52e383d4","system_id":"levelo_inurba_marseille","lat":43.309076,"lon":5.368465,"is_reserved":false,"is_disabled":false,"rental_uris":{"android":"levelo://app?vid=0c47c40e-1cd1-4b15-b26f-f36f52e383d4","ios":"levelo://app?vid=0c47c40e-1cd1-4b15-b26f-f36f52e383d4"},"vehicle_type_id":"4","last_reported":1687298772,"current_range_meters":26000,"station_id":"ce4bgn92rcd13ifvqbvg","pricing_plan_id":"free"},{"bike_id":"3da540aa-5929-4d4a-8397-46574265df24","system_id":"levelo_inurba_marseille","lat":43.3078,"lon":5.36693,"is_reserved":false,"is_disabled":false,"rental_uris":{"android":"levelo://app?vid=3da540aa-5929-4d4a-8397-46574265df24","ios":"levelo://app?vid=3da540aa-5929-4d4a-8397-46574265df24"},"vehicle_type_id":"4","last_reported":1687298772,"current_range_meters":16000,"station_id":"","pricing_plan_id":"free"},{"bike_id":"14a6e91b-7e14-4834-af22-8971e8098b57","system_id":"levelo_inurba_marseille","lat":43.314811,"lon":5.373103,"is_reserved":false,"is_disabled":false,"rental_uris":{"android":"levelo://app?vid=14a6e91b-7e14-4834-af22-8971e8098b57","ios":"levelo://app?vid=14a6e91b-7e14-4834-af22-8971e8098b57"},"vehicle_type_id":"4","last_reported":1687298772,"current_range_meters":14400,"station_id":"ce4bgt12rcd13ifvqcd0","pricing_plan_id":"free"},{"bike_id":"07f43394-ec75-4f70-841c-d1206723157a","system_id":"levelo_inurba_marseille","lat":43.314811,"lon":5.373104,"is_reserved":false,"is_disabled":false,"rental_uris":{"android":"levelo://app?vid=07f43394-ec75-4f70-841c-d1206723157a","ios":"levelo://app?vid=07f43394-ec75-4f70-841c-d1206723157a"},"vehicle_type_id":"4","last_reported":1687298772,"current_range_meters":22400,"station_id":"ce4bgt12rcd13ifvqcd0","pricing_plan_id":"free"},{"bike_id":"bc5cb4e9-19a3-402d-8482-706cb04f33a6","system_id":"levelo_inurba_marseille","lat":43.314811,"lon":5.373103,"is_reserved":false,"is_disabled":false,"rental_uris":{"android":"levelo://app?vid=bc5cb4e9-19a3-402d-8482-706cb04f33a6","ios":"levelo://app?vid=bc5cb4e9-19a3-402d-8482-706cb04f33a6"},"vehicle_type_id":"4","last_reported":1687298772,"current_range_meters":22400,"station_id":"ce4bgt12rcd13ifvqcd0","pricing_plan_id":"free"},{"bike_id":"2984e924-51e0-411e-86ea-e31cc7bdc0aa","system_id":"levelo_inurba_marseille","lat":43.314811,"lon":5.373103,"is_reserved":false,"is_disabled":false,"rental_uris":{"android":"levelo://app?vid=2984e924-51e0-411e-86ea-e31cc7bdc0aa","ios":"levelo://app?vid=2984e924-51e0-411e-86ea-e31cc7bdc0aa"},"vehicle_type_id":"4","last_reported":1687298772,"current_range_meters":30400,"station_id":"ce4bgt12rcd13ifvqcd0","pricing_plan_id":"free"},{"bike_id":"e8e50549-4f14-4a79-8e01-73f4b2c3ac89","system_id":"levelo_inurba_marseille","lat":43.31538,"lon":5.37314,"is_reserved":false,"is_disabled":false,"rental_uris":{"android":"levelo://app?vid=e8e50549-4f14-4a79-8e01-73f4b2c3ac89","ios":"levelo://app?vid=e8e50549-4f14-4a79-8e01-73f4b2c3ac89"},"vehicle_type_id":"4","last_reported":1687298772,"current_range_meters":1600,"station_id":"","pricing_plan_id":"free"},{"bike_id":"b191eb05-94f2-402f-a7f1-041cc7d6f30f","system_id":"levelo_inurba_marseille","lat":43.308614,"lon":5.372098,"is_reserved":false,"is_disabled":false,"rental_uris":{"android":"levelo://app?vid=b191eb05-94f2-402f-a7f1-041cc7d6f30f","ios":"levelo://app?vid=b191eb05-94f2-402f-a7f1-041cc7d6f30f"},"vehicle_type_id":"4","last_reported":1687298772,"current_range_meters":0,"station_id":"ce4bguh2rcd13ifvqckg","pricing_plan_id":"free"},{"bike_id":"5fbdbe65-e141-4473-b7c7-3ca166ee6d1f","system_id":"levelo_inurba_marseille","lat":43.30824,"lon":5.37172,"is_reserved":false,"is_disabled":false,"rental_uris":{"android":"levelo://app?vid=5fbdbe65-e141-4473-b7c7-3ca166ee6d1f","ios":"levelo://app?vid=5fbdbe65-e141-4473-b7c7-3ca166ee6d1f"},"vehicle_type_id":"4","last_reported":1687298772,"current_range_meters":7600,"station_id":"","pricing_plan_id":"free"},{"bike_id":"f41af61c-4bcc-4113-84a4-fa30474c777b","system_id":"levelo_inurba_marseille","lat":43.30553,"lon":5.3656,"is_reserved":false,"is_disabled":false,"rental_uris":{"android":"levelo://app?vid=f41af61c-4bcc-4113-84a4-fa30474c777b","ios":"levelo://app?vid=f41af61c-4bcc-4113-84a4-fa30474c777b"},"vehicle_type_id":"4","last_reported":1687298772,"current_range_meters":18800,"station_id":"ce4bgs12rcd13ifvqcag","pricing_plan_id":"free"},{"bike_id":"835fbb99-62de-43b1-a44b-02bb17ccd2df","system_id":"levelo_inurba_marseille","lat":43.30529,"lon":5.36711,"is_reserved":false,"is_disabled":false,"rental_uris":{"android":"levelo://app?vid=835fbb99-62de-43b1-a44b-02bb17ccd2df","ios":"levelo://app?vid=835fbb99-62de-43b1-a44b-02bb17ccd2df"},"vehicle_type_id":"4","last_reported":1687298772,"current_range_meters":28800,"station_id":"","pricing_plan_id":"free"},{"bike_id":"890f8faa-909c-44ec-ba9b-4e9f8bdef3b2","system_id":"levelo_inurba_marseille","lat":43.305989,"lon":5.37225,"is_reserved":false,"is_disabled":false,"rental_uris":{"android":"levelo://app?vid=890f8faa-909c-44ec-ba9b-4e9f8bdef3b2","ios":"levelo://app?vid=890f8faa-909c-44ec-ba9b-4e9f8bdef3b2"},"vehicle_type_id":"4","last_reported":1687298772,"current_range_meters":7600,"station_id":"ce4bgqh2rcd13ifvqc4g","pricing_plan_id":"free"},{"bike_id":"405bf2bc-c29d-46bb-8db9-32e904236719","system_id":"levelo_inurba_marseille","lat":43.305989,"lon":5.37225,"is_reserved":false,"is_disabled":false,"rental_uris":{"android":"levelo://app?vid=405bf2bc-c29d-46bb-8db9-32e904236719","ios":"levelo://app?vid=405bf2bc-c29d-46bb-8db9-32e904236719"},"vehicle_type_id":"4","last_reported":1687298772,"current_range_meters":8000,"station_id":"ce4bgqh2rcd13ifvqc4g","pricing_plan_id":"free"},{"bike_id":"949771ca-ce30-418e-a74a-c0fa392b3707","system_id":"levelo_inurba_marseille","lat":43.305989,"lon":5.37225,"is_reserved":false,"is_disabled":false,"rental_uris":{"android":"levelo://app?vid=949771ca-ce30-418e-a74a-c0fa392b3707","ios":"levelo://app?vid=949771ca-ce30-418e-a74a-c0fa392b3707"},"vehicle_type_id":"4","last_reported":1687298772,"current_range_meters":31200,"station_id":"ce4bgqh2rcd13ifvqc4g","pricing_plan_id":"free"},{"bike_id":"9d2356ef-51aa-42a5-8161-0601503615c0","system_id":"levelo_inurba_marseille","lat":43.305989,"lon":5.37225,"is_reserved":false,"is_disabled":false,"rental_uris":{"android":"levelo://app?vid=9d2356ef-51aa-42a5-8161-0601503615c0","ios":"levelo://app?vid=9d2356ef-51aa-42a5-8161-0601503615c0"},"vehicle_type_id":"4","last_reported":1687298772,"current_range_meters":5600,"station_id":"ce4bgqh2rcd13ifvqc4g","pricing_plan_id":"free"},{"bike_id":"1277a784-2446-4233-aee3-9b59fabe9237","system_id":"levelo_inurba_marseille","lat":43.305989,"lon":5.37225,"is_reserved":false,"is_disabled":false,"rental_uris":{"android":"levelo://app?vid=1277a784-2446-4233-aee3-9b59fabe9237","ios":"levelo://app?vid=1277a784-2446-4233-aee3-9b59fabe9237"},"vehicle_type_id":"4","last_reported":1687298772,"current_range_meters":0,"station_id":"ce4bgqh2rcd13ifvqc4g","pricing_plan_id":"free"},{"bike_id":"23b88467-081d-4bd1-9666-e5f117ee643e","system_id":"levelo_inurba_marseille","lat":43.305989,"lon":5.37225,"is_reserved":false,"is_disabled":false,"rental_uris":{"android":"levelo://app?vid=23b88467-081d-4bd1-9666-e5f117ee643e","ios":"levelo://app?vid=23b88467-081d-4bd1-9666-e5f117ee643e"},"vehicle_type_id":"4","last_reported":1687298772,"current_range_meters":4800,"station_id":"ce4bgqh2rcd13ifvqc4g","pricing_plan_id":"free"},{"bike_id":"9e97c295-69ea-4006-847a-40b8884e99f6","system_id":"levelo_inurba_marseille","lat":43.305989,"lon":5.37225,"is_reserved":false,"is_disabled":false,"rental_uris":{"android":"levelo://app?vid=9e97c295-69ea-4006-847a-40b8884e99f6","ios":"levelo://app?vid=9e97c295-69ea-4006-847a-40b8884e99f6"},"vehicle_type_id":"4","last_reported":1687298772,"current_range_meters":22000,"station_id":"ce4bgqh2rcd13ifvqc4g","pricing_plan_id":"free"},{"bike_id":"20cec88b-4f69-4bf7-982f-3e624128ab0b","system_id":"levelo_inurba_marseille","lat":43.30304,"lon":5.368987,"is_reserved":false,"is_disabled":false,"rental_uris":{"android":"levelo://app?vid=20cec88b-4f69-4bf7-982f-3e624128ab0b","ios":"levelo://app?vid=20cec88b-4f69-4bf7-982f-3e624128ab0b"},"vehicle_type_id":"4","last_reported":1687298772,"current_range_meters":0,"station_id":"ce4bgqh2rcd13ifvqc5g","pricing_plan_id":"free"},{"bike_id":"e3c15277-ce12-4d4a-93eb-9e379cd360d6","system_id":"levelo_inurba_marseille","lat":43.303046,"lon":5.368981,"is_reserved":false,"is_disabled":false,"rental_uris":{"android":"levelo://app?vid=e3c15277-ce12-4d4a-93eb-9e379cd360d6","ios":"levelo://app?vid=e3c15277-ce12-4d4a-93eb-9e379cd360d6"},"vehicle_type_id":"4","last_reported":1687298772,"current_range_meters":16000,"station_id":"ce4bgqh2rcd13ifvqc5g","pricing_plan_id":"free"},{"bike_id":"5fc207c8-4485-4d4f-a925-72596ba96f8d","system_id":"levelo_inurba_marseille","lat":43.303046,"lon":5.368981,"is_reserved":false,"is_disabled":false,"rental_uris":{"android":"levelo://app?vid=5fc207c8-4485-4d4f-a925-72596ba96f8d","ios":"levelo://app?vid=5fc207c8-4485-4d4f-a925-72596ba96f8d"},"vehicle_type_id":"4","last_reported":1687298772,"current_range_meters":14000,"station_id":"ce4bgqh2rcd13ifvqc5g","pricing_plan_id":"free"},{"bike_id":"a6d00662-36f7-4e0b-9bd6-28b6254b1f0a","system_id":"levelo_inurba_marseille","lat":43.315289,"lon":5.380349,"is_reserved":false,"is_disabled":false,"rental_uris":{"android":"levelo://app?vid=a6d00662-36f7-4e0b-9bd6-28b6254b1f0a","ios":"levelo://app?vid=a6d00662-36f7-4e0b-9bd6-28b6254b1f0a"},"vehicle_type_id":"4","last_reported":1687298772,"current_range_meters":15200,"station_id":"ce4bhsp2rcd13ifvqi50","pricing_plan_id":"free"},{"bike_id":"e03a486c-cb94-48d9-bfc0-c160b60b3997","system_id":"levelo_inurba_marseille","lat":43.315289,"lon":5.380349,"is_reserved":false,"is_disabled":false,"rental_uris":{"android":"levelo://app?vid=e03a486c-cb94-48d9-bfc0-c160b60b3997","ios":"levelo://app?vid=e03a486c-cb94-48d9-bfc0-c160b60b3997"},"vehicle_type_id":"4","last_reported":1687298772,"current_range_meters":6400,"station_id":"ce4bhsp2rcd13ifvqi50","pricing_plan_id":"free"},{"bike_id":"97f49231-60e9-4f0f-9240-b00ddae2ec56","system_id":"levelo_inurba_marseille","lat":43.301939,"lon":5.366286,"is_reserved":false,"is_disabled":false,"rental_uris":{"android":"levelo://app?vid=97f49231-60e9-4f0f-9240-b00ddae2ec56","ios":"levelo://app?vid=97f49231-60e9-4f0f-9240-b00ddae2ec56"},"vehicle_type_id":"4","last_reported":1687298772,"current_range_meters":30400,"station_id":"ce4bgrh2rcd13ifvqc8g","pricing_plan_id":"free"},{"bike_id":"d2e7d831-41a4-471c-8c4a-8480d47b9dff","system_id":"levelo_inurba_marseille","lat":43.301939,"lon":5.366286,"is_reserved":false,"is_disabled":false,"rental_uris":{"android":"levelo://app?vid=d2e7d831-41a4-471c-8c4a-8480d47b9dff","ios":"levelo://app?vid=d2e7d831-41a4-471c-8c4a-8480d47b9dff"},"vehicle_type_id":"4","last_reported":1687298772,"current_range_meters":10800,"station_id":"ce4bgrh2rcd13ifvqc8g","pricing_plan_id":"free"},{"bike_id":"ae33307b-fcd5-479b-9ae1-9002ed226c6e","system_id":"levelo_inurba_marseille","lat":43.308012,"lon":5.381511,"is_reserved":false,"is_disabled":false,"rental_uris":{"android":"levelo://app?vid=ae33307b-fcd5-479b-9ae1-9002ed226c6e","ios":"levelo://app?vid=ae33307b-fcd5-479b-9ae1-9002ed226c6e"},"vehicle_type_id":"4","last_reported":1687298772,"current_range_meters":18800,"station_id":"ce4bgt12rcd13ifvqce0","pricing_plan_id":"free"},{"bike_id":"482d1ec2-e4ff-4730-bb74-cc79919a5a60","system_id":"levelo_inurba_marseille","lat":43.308012,"lon":5.381511,"is_reserved":false,"is_disabled":false,"rental_uris":{"android":"levelo://app?vid=482d1ec2-e4ff-4730-bb74-cc79919a5a60","ios":"levelo://app?vid=482d1ec2-e4ff-4730-bb74-cc79919a5a60"},"vehicle_type_id":"4","last_reported":1687298772,"current_range_meters":0,"station_id":"ce4bgt12rcd13ifvqce0","pricing_plan_id":"free"},{"bike_id":"eea5715c-4e4f-4e34-923e-53cf37c89722","system_id":"levelo_inurba_marseille","lat":43.30459,"lon":5.37904,"is_reserved":false,"is_disabled":false,"rental_uris":{"android":"levelo://app?vid=eea5715c-4e4f-4e34-923e-53cf37c89722","ios":"levelo://app?vid=eea5715c-4e4f-4e34-923e-53cf37c89722"},"vehicle_type_id":"4","last_reported":1687298772,"current_range_meters":9200,"station_id":"ce4bgup2rcd13ifvqcn0","pricing_plan_id":"free"},{"bike_id":"43fc693e-f2a9-4aec-8fd9-d094bb02cb70","system_id":"levelo_inurba_marseille","lat":43.304606,"lon":5.379026,"is_reserved":false,"is_disabled":false,"rental_uris":{"android":"levelo://app?vid=43fc693e-f2a9-4aec-8fd9-d094bb02cb70","ios":"levelo://app?vid=43fc693e-f2a9-4aec-8fd9-d094bb02cb70"},"vehicle_type_id":"4","last_reported":1687298772,"current_range_meters":8400,"station_id":"ce4bgup2rcd13ifvqcn0","pricing_plan_id":"free"},{"bike_id":"baae757c-8f10-49be-a4dd-bb0ca67b7e95","system_id":"levelo_inurba_marseille","lat":43.319935,"lon":5.381699,"is_reserved":false,"is_disabled":false,"rental_uris":{"android":"levelo://app?vid=baae757c-8f10-49be-a4dd-bb0ca67b7e95","ios":"levelo://app?vid=baae757c-8f10-49be-a4dd-bb0ca67b7e95"},"vehicle_type_id":"4","last_reported":1687298772,"current_range_meters":31200,"station_id":"ce4bhr12rcd13ifvqhpg","pricing_plan_id":"free"},{"bike_id":"ac78f4c7-6fc5-44eb-9cd4-13675f3f5d1e","system_id":"levelo_inurba_marseille","lat":43.319935,"lon":5.381699,"is_reserved":false,"is_disabled":false,"rental_uris":{"android":"levelo://app?vid=ac78f4c7-6fc5-44eb-9cd4-13675f3f5d1e","ios":"levelo://app?vid=ac78f4c7-6fc5-44eb-9cd4-13675f3f5d1e"},"vehicle_type_id":"4","last_reported":1687298772,"current_range_meters":29200,"station_id":"ce4bhr12rcd13ifvqhpg","pricing_plan_id":"free"},{"bike_id":"c7c64f8e-4e44-485d-80ef-c29f6be6f29a","system_id":"levelo_inurba_marseille","lat":43.319935,"lon":5.381699,"is_reserved":false,"is_disabled":false,"rental_uris":{"android":"levelo://app?vid=c7c64f8e-4e44-485d-80ef-c29f6be6f29a","ios":"levelo://app?vid=c7c64f8e-4e44-485d-80ef-c29f6be6f29a"},"vehicle_type_id":"4","last_reported":1687298772,"current_range_meters":31200,"station_id":"ce4bhr12rcd13ifvqhpg","pricing_plan_id":"free"},{"bike_id":"06d512ba-15c7-458c-a5d4-b9a3e3e5c174","system_id":"levelo_inurba_marseille","lat":43.31992,"lon":5.38158,"is_reserved":false,"is_disabled":false,"rental_uris":{"android":"levelo://app?vid=06d512ba-15c7-458c-a5d4-b9a3e3e5c174","ios":"levelo://app?vid=06d512ba-15c7-458c-a5d4-b9a3e3e5c174"},"vehicle_type_id":"4","last_reported":1687298772,"current_range_meters":10400,"station_id":"ce4bhr12rcd13ifvqhpg","pricing_plan_id":"free"},{"bike_id":"dbaa8ac8-d747-499d-93b4-fa5fe076a5c3","system_id":"levelo_inurba_marseille","lat":43.313571,"lon":5.384829,"is_reserved":false,"is_disabled":false,"rental_uris":{"android":"levelo://app?vid=dbaa8ac8-d747-499d-93b4-fa5fe076a5c3","ios":"levelo://app?vid=dbaa8ac8-d747-499d-93b4-fa5fe076a5c3"},"vehicle_type_id":"4","last_reported":1687298772,"current_range_meters":21600,"station_id":"ce4bgt92rcd13ifvqcf0","pricing_plan_id":"free"},{"bike_id":"45a8ae92-ac61-4a4e-9264-b5a07f565915","system_id":"levelo_inurba_marseille","lat":43.313571,"lon":5.384829,"is_reserved":false,"is_disabled":false,"rental_uris":{"android":"levelo://app?vid=45a8ae92-ac61-4a4e-9264-b5a07f565915","ios":"levelo://app?vid=45a8ae92-ac61-4a4e-9264-b5a07f565915"},"vehicle_type_id":"4","last_reported":1687298772,"current_range_meters":13200,"station_id":"ce4bgt92rcd13ifvqcf0","pricing_plan_id":"free"},{"bike_id":"7f082426-04bb-4fd0-a315-d021fffff7a4","system_id":"levelo_inurba_marseille","lat":43.313571,"lon":5.384829,"is_reserved":false,"is_disabled":false,"rental_uris":{"android":"levelo://app?vid=7f082426-04bb-4fd0-a315-d021fffff7a4","ios":"levelo://app?vid=7f082426-04bb-4fd0-a315-d021fffff7a4"},"vehicle_type_id":"4","last_reported":1687298772,"current_range_meters":5200,"station_id":"ce4bgt92rcd13ifvqcf0","pricing_plan_id":"free"},{"bike_id":"d057949d-ce75-4990-9145-a4652eeb481d","system_id":"levelo_inurba_marseille","lat":43.31361,"lon":5.38488,"is_reserved":false,"is_disabled":false,"rental_uris":{"android":"levelo://app?vid=d057949d-ce75-4990-9145-a4652eeb481d","ios":"levelo://app?vid=d057949d-ce75-4990-9145-a4652eeb481d"},"vehicle_type_id":"4","last_reported":1687298772,"current_range_meters":18000,"station_id":"ce4bgt92rcd13ifvqcf0","pricing_plan_id":"free"},{"bike_id":"2d42b842-37f7-4fbb-86b1-5e7c027934de","system_id":"levelo_inurba_marseille","lat":43.299222,"lon":5.365554,"is_reserved":false,"is_disabled":false,"rental_uris":{"android":"levelo://app?vid=2d42b842-37f7-4fbb-86b1-5e7c027934de","ios":"levelo://app?vid=2d42b842-37f7-4fbb-86b1-5e7c027934de"},"vehicle_type_id":"4","last_reported":1687298772,"current_range_meters":4400,"station_id":"ce4bgm92rcd13ifvqbr0","pricing_plan_id":"free"},{"bike_id":"0d2ccdb9-7632-4027-b709-c8f850e314c8","system_id":"levelo_inurba_marseille","lat":43.299222,"lon":5.365554,"is_reserved":false,"is_disabled":false,"rental_uris":{"android":"levelo://app?vid=0d2ccdb9-7632-4027-b709-c8f850e314c8","ios":"levelo://app?vid=0d2ccdb9-7632-4027-b709-c8f850e314c8"},"vehicle_type_id":"4","last_reported":1687298772,"current_range_meters":10400,"station_id":"ce4bgm92rcd13ifvqbr0","pricing_plan_id":"free"},{"bike_id":"476af4cc-6d1e-47ac-9d00-55e5bd6e9ba9","system_id":"levelo_inurba_marseille","lat":43.299222,"lon":5.365554,"is_reserved":false,"is_disabled":false,"rental_uris":{"android":"levelo://app?vid=476af4cc-6d1e-47ac-9d00-55e5bd6e9ba9","ios":"levelo://app?vid=476af4cc-6d1e-47ac-9d00-55e5bd6e9ba9"},"vehicle_type_id":"4","last_reported":1687298772,"current_range_meters":17200,"station_id":"ce4bgm92rcd13ifvqbr0","pricing_plan_id":"free"},{"bike_id":"b29bfd7b-599d-4454-8659-05868c8a3d42","system_id":"levelo_inurba_marseille","lat":43.299222,"lon":5.365554,"is_reserved":false,"is_disabled":false,"rental_uris":{"android":"levelo://app?vid=b29bfd7b-599d-4454-8659-05868c8a3d42","ios":"levelo://app?vid=b29bfd7b-599d-4454-8659-05868c8a3d42"},"vehicle_type_id":"4","last_reported":1687298772,"current_range_meters":16800,"station_id":"ce4bgm92rcd13ifvqbr0","pricing_plan_id":"free"},{"bike_id":"70460eed-4903-4460-98b4-a3951706d096","system_id":"levelo_inurba_marseille","lat":43.31175,"lon":5.38693,"is_reserved":false,"is_disabled":false,"rental_uris":{"android":"levelo://app?vid=70460eed-4903-4460-98b4-a3951706d096","ios":"levelo://app?vid=70460eed-4903-4460-98b4-a3951706d096"},"vehicle_type_id":"4","last_reported":1687298772,"current_range_meters":1600,"station_id":"ce4bgv12rcd13ifvqcp0","pricing_plan_id":"free"},{"bike_id":"7fc456a6-3b55-4c2c-a679-5e39ad257177","system_id":"levelo_inurba_marseille","lat":43.298433,"lon":5.362774,"is_reserved":false,"is_disabled":false,"rental_uris":{"android":"levelo://app?vid=7fc456a6-3b55-4c2c-a679-5e39ad257177","ios":"levelo://app?vid=7fc456a6-3b55-4c2c-a679-5e39ad257177"},"vehicle_type_id":"4","last_reported":1687298772,"current_range_meters":0,"station_id":"ce4bgpp2rcd13ifvqc3g","pricing_plan_id":"free"},{"bike_id":"429af25e-d07f-4069-a2a6-cca1850be77c","system_id":"levelo_inurba_marseille","lat":43.31174,"lon":5.38705,"is_reserved":false,"is_disabled":false,"rental_uris":{"android":"levelo://app?vid=429af25e-d07f-4069-a2a6-cca1850be77c","ios":"levelo://app?vid=429af25e-d07f-4069-a2a6-cca1850be77c"},"vehicle_type_id":"4","last_reported":1687298772,"current_range_meters":26000,"station_id":"ce4bgv12rcd13ifvqcp0","pricing_plan_id":"free"},{"bike_id":"92a61d2a-6aba-4973-aca9-2408aa84ea29","system_id":"levelo_inurba_marseille","lat":43.311722,"lon":5.387247,"is_reserved":false,"is_disabled":false,"rental_uris":{"android":"levelo://app?vid=92a61d2a-6aba-4973-aca9-2408aa84ea29","ios":"levelo://app?vid=92a61d2a-6aba-4973-aca9-2408aa84ea29"},"vehicle_type_id":"4","last_reported":1687298772,"current_range_meters":29600,"station_id":"ce4bgv12rcd13ifvqcp0","pricing_plan_id":"free"},{"bike_id":"d8b9cd91-019e-440a-b90d-554d309f7589","system_id":"levelo_inurba_marseille","lat":43.311722,"lon":5.387247,"is_reserved":false,"is_disabled":false,"rental_uris":{"android":"levelo://app?vid=d8b9cd91-019e-440a-b90d-554d309f7589","ios":"levelo://app?vid=d8b9cd91-019e-440a-b90d-554d309f7589"},"vehicle_type_id":"4","last_reported":1687298772,"current_range_meters":29200,"station_id":"ce4bgv12rcd13ifvqcp0","pricing_plan_id":"free"},{"bike_id":"a4fc7eae-2d33-4fa9-be29-f037644d5a3d","system_id":"levelo_inurba_marseille","lat":43.311722,"lon":5.387247,"is_reserved":false,"is_disabled":false,"rental_uris":{"android":"levelo://app?vid=a4fc7eae-2d33-4fa9-be29-f037644d5a3d","ios":"levelo://app?vid=a4fc7eae-2d33-4fa9-be29-f037644d5a3d"},"vehicle_type_id":"4","last_reported":1687298772,"current_range_meters":22000,"station_id":"ce4bgv12rcd13ifvqcp0","pricing_plan_id":"free"},{"bike_id":"408cdbd3-920b-45b4-ab4e-0217d7cee4ab","system_id":"levelo_inurba_marseille","lat":43.32793,"lon":5.36693,"is_reserved":false,"is_disabled":false,"rental_uris":{"android":"levelo://app?vid=408cdbd3-920b-45b4-ab4e-0217d7cee4ab","ios":"levelo://app?vid=408cdbd3-920b-45b4-ab4e-0217d7cee4ab"},"vehicle_type_id":"4","last_reported":1687298772,"current_range_meters":9600,"station_id":"","pricing_plan_id":"free"},{"bike_id":"b3b33e9b-7102-4ce3-9e64-8ef15500fc00","system_id":"levelo_inurba_marseille","lat":43.328371,"lon":5.366909,"is_reserved":false,"is_disabled":false,"rental_uris":{"android":"levelo://app?vid=b3b33e9b-7102-4ce3-9e64-8ef15500fc00","ios":"levelo://app?vid=b3b33e9b-7102-4ce3-9e64-8ef15500fc00"},"vehicle_type_id":"4","last_reported":1687298772,"current_range_meters":23600,"station_id":"ce4bhs92rcd13ifvqi0g","pricing_plan_id":"free"},{"bike_id":"b4ea75e9-eca7-4ccc-91f9-d0cb06a4a0a6","system_id":"levelo_inurba_marseille","lat":43.328371,"lon":5.366912,"is_reserved":false,"is_disabled":false,"rental_uris":{"android":"levelo://app?vid=b4ea75e9-eca7-4ccc-91f9-d0cb06a4a0a6","ios":"levelo://app?vid=b4ea75e9-eca7-4ccc-91f9-d0cb06a4a0a6"},"vehicle_type_id":"4","last_reported":1687298772,"current_range_meters":28800,"station_id":"ce4bhs92rcd13ifvqi0g","pricing_plan_id":"free"},{"bike_id":"176f4894-d7fc-460e-aa5d-7c8c1e206dc3","system_id":"levelo_inurba_marseille","lat":43.29696,"lon":5.36611,"is_reserved":false,"is_disabled":false,"rental_uris":{"android":"levelo://app?vid=176f4894-d7fc-460e-aa5d-7c8c1e206dc3","ios":"levelo://app?vid=176f4894-d7fc-460e-aa5d-7c8c1e206dc3"},"vehicle_type_id":"4","last_reported":1687298772,"current_range_meters":22400,"station_id":"","pricing_plan_id":"free"},{"bike_id":"a05a437e-3af5-4516-a5f4-eff46ef476c8","system_id":"levelo_inurba_marseille","lat":43.2968,"lon":5.37291,"is_reserved":false,"is_disabled":false,"rental_uris":{"android":"levelo://app?vid=a05a437e-3af5-4516-a5f4-eff46ef476c8","ios":"levelo://app?vid=a05a437e-3af5-4516-a5f4-eff46ef476c8"},"vehicle_type_id":"4","last_reported":1687298772,"current_range_meters":19600,"station_id":"ce4bgk12rcd13ifvqbj0","pricing_plan_id":"free"},{"bike_id":"24f41ca5-b432-4feb-a0c8-a15026b97306","system_id":"levelo_inurba_marseille","lat":43.296131,"lon":5.370773,"is_reserved":false,"is_disabled":false,"rental_uris":{"android":"levelo://app?vid=24f41ca5-b432-4feb-a0c8-a15026b97306","ios":"levelo://app?vid=24f41ca5-b432-4feb-a0c8-a15026b97306"},"vehicle_type_id":"4","last_reported":1687298772,"current_range_meters":3200,"station_id":"ce4bgnh2rcd13ifvqc0g","pricing_plan_id":"free"},{"bike_id":"5461a5f5-b096-4c04-ab77-0ff14fa4be56","system_id":"levelo_inurba_marseille","lat":43.296921,"lon":5.376579,"is_reserved":false,"is_disabled":false,"rental_uris":{"android":"levelo://app?vid=5461a5f5-b096-4c04-ab77-0ff14fa4be56","ios":"levelo://app?vid=5461a5f5-b096-4c04-ab77-0ff14fa4be56"},"vehicle_type_id":"4","last_reported":1687298772,"current_range_meters":31200,"station_id":"ce4bgkh2rcd13ifvqbl0","pricing_plan_id":"free"},{"bike_id":"041bc147-ef2f-419b-bb81-deca3bdf89e2","system_id":"levelo_inurba_marseille","lat":43.29611,"lon":5.36046,"is_reserved":false,"is_disabled":false,"rental_uris":{"android":"levelo://app?vid=041bc147-ef2f-419b-bb81-deca3bdf89e2","ios":"levelo://app?vid=041bc147-ef2f-419b-bb81-deca3bdf89e2"},"vehicle_type_id":"4","last_reported":1687298772,"current_range_meters":20800,"station_id":"","pricing_plan_id":"free"},{"bike_id":"68c53bb9-fff4-4266-a0fa-541ec8df38ff","system_id":"levelo_inurba_marseille","lat":43.299028,"lon":5.381509,"is_reserved":false,"is_disabled":false,"rental_uris":{"android":"levelo://app?vid=68c53bb9-fff4-4266-a0fa-541ec8df38ff","ios":"levelo://app?vid=68c53bb9-fff4-4266-a0fa-541ec8df38ff"},"vehicle_type_id":"4","last_reported":1687298772,"current_range_meters":19600,"station_id":"ce4bgj12rcd13ifvqbc0","pricing_plan_id":"free"},{"bike_id":"4b0b48c0-e786-4a2d-914e-624c1f02598e","system_id":"levelo_inurba_marseille","lat":43.309589,"lon":5.390258,"is_reserved":false,"is_disabled":false,"rental_uris":{"android":"levelo://app?vid=4b0b48c0-e786-4a2d-914e-624c1f02598e","ios":"levelo://app?vid=4b0b48c0-e786-4a2d-914e-624c1f02598e"},"vehicle_type_id":"4","last_reported":1687298772,"current_range_meters":29200,"station_id":"ce4bgup2rcd13ifvqco0","pricing_plan_id":"free"},{"bike_id":"af8ea858-6c1e-4734-be23-6556f5c81f6b","system_id":"levelo_inurba_marseille","lat":43.317557,"lon":5.390173,"is_reserved":false,"is_disabled":false,"rental_uris":{"android":"levelo://app?vid=af8ea858-6c1e-4734-be23-6556f5c81f6b","ios":"levelo://app?vid=af8ea858-6c1e-4734-be23-6556f5c81f6b"},"vehicle_type_id":"4","last_reported":1687298772,"current_range_meters":31200,"station_id":"ce4bhqp2rcd13ifvqhng","pricing_plan_id":"free"},{"bike_id":"d5577306-08c9-4d6a-a7bc-825fc4934c6b","system_id":"levelo_inurba_marseille","lat":43.317557,"lon":5.390173,"is_reserved":false,"is_disabled":false,"rental_uris":{"android":"levelo://app?vid=d5577306-08c9-4d6a-a7bc-825fc4934c6b","ios":"levelo://app?vid=d5577306-08c9-4d6a-a7bc-825fc4934c6b"},"vehicle_type_id":"4","last_reported":1687298772,"current_range_meters":27200,"station_id":"ce4bhqp2rcd13ifvqhng","pricing_plan_id":"free"},{"bike_id":"f38ebc4d-313b-41fa-90d1-ba716c998cb4","system_id":"levelo_inurba_marseille","lat":43.317557,"lon":5.390173,"is_reserved":false,"is_disabled":false,"rental_uris":{"android":"levelo://app?vid=f38ebc4d-313b-41fa-90d1-ba716c998cb4","ios":"levelo://app?vid=f38ebc4d-313b-41fa-90d1-ba716c998cb4"},"vehicle_type_id":"4","last_reported":1687298772,"current_range_meters":31600,"station_id":"ce4bhqp2rcd13ifvqhng","pricing_plan_id":"free"},{"bike_id":"250c8a96-8498-4211-b8f3-1b00a8d1fbaf","system_id":"levelo_inurba_marseille","lat":43.296477,"lon":5.37768,"is_reserved":false,"is_disabled":false,"rental_uris":{"android":"levelo://app?vid=250c8a96-8498-4211-b8f3-1b00a8d1fbaf","ios":"levelo://app?vid=250c8a96-8498-4211-b8f3-1b00a8d1fbaf"},"vehicle_type_id":"4","last_reported":1687298772,"current_range_meters":3600,"station_id":"","pricing_plan_id":"free"},{"bike_id":"5c9131fa-2ca0-4465-a7de-e912eba3c5d0","system_id":"levelo_inurba_marseille","lat":43.304278,"lon":5.388868,"is_reserved":false,"is_disabled":false,"rental_uris":{"android":"levelo://app?vid=5c9131fa-2ca0-4465-a7de-e912eba3c5d0","ios":"levelo://app?vid=5c9131fa-2ca0-4465-a7de-e912eba3c5d0"},"vehicle_type_id":"4","last_reported":1687298772,"current_range_meters":24400,"station_id":"ce4bgk12rcd13ifvqbi0","pricing_plan_id":"free"},{"bike_id":"c78ee84d-8e98-471f-91e1-6ace805858d4","system_id":"levelo_inurba_marseille","lat":43.295748,"lon":5.37522,"is_reserved":false,"is_disabled":false,"rental_uris":{"android":"levelo://app?vid=c78ee84d-8e98-471f-91e1-6ace805858d4","ios":"levelo://app?vid=c78ee84d-8e98-471f-91e1-6ace805858d4"},"vehicle_type_id":"4","last_reported":1687298772,"current_range_meters":29200,"station_id":"ce4bgh92rcd13ifvqb50","pricing_plan_id":"free"},{"bike_id":"a381d345-38f5-4fc3-9983-0fe6ab9b4cc0","system_id":"levelo_inurba_marseille","lat":43.304278,"lon":5.388868,"is_reserved":false,"is_disabled":false,"rental_uris":{"android":"levelo://app?vid=a381d345-38f5-4fc3-9983-0fe6ab9b4cc0","ios":"levelo://app?vid=a381d345-38f5-4fc3-9983-0fe6ab9b4cc0"},"vehicle_type_id":"4","last_reported":1687298772,"current_range_meters":22400,"station_id":"ce4bgk12rcd13ifvqbi0","pricing_plan_id":"free"},{"bike_id":"d4e5cd3a-de80-4089-a4ca-4f735fd08f4c","system_id":"levelo_inurba_marseille","lat":43.304274,"lon":5.388873,"is_reserved":false,"is_disabled":false,"rental_uris":{"android":"levelo://app?vid=d4e5cd3a-de80-4089-a4ca-4f735fd08f4c","ios":"levelo://app?vid=d4e5cd3a-de80-4089-a4ca-4f735fd08f4c"},"vehicle_type_id":"4","last_reported":1687298772,"current_range_meters":1200,"station_id":"ce4bgk12rcd13ifvqbi0","pricing_plan_id":"free"},{"bike_id":"9c8dcc20-90d9-4a86-93f7-5aeaee89b90c","system_id":"levelo_inurba_marseille","lat":43.304278,"lon":5.388868,"is_reserved":false,"is_disabled":false,"rental_uris":{"android":"levelo://app?vid=9c8dcc20-90d9-4a86-93f7-5aeaee89b90c","ios":"levelo://app?vid=9c8dcc20-90d9-4a86-93f7-5aeaee89b90c"},"vehicle_type_id":"4","last_reported":1687298772,"current_range_meters":30400,"station_id":"ce4bgk12rcd13ifvqbi0","pricing_plan_id":"free"},{"bike_id":"eb56f040-d7e3-440c-9d05-82afe187dd21","system_id":"levelo_inurba_marseille","lat":43.299717,"lon":5.384845,"is_reserved":false,"is_disabled":false,"rental_uris":{"android":"levelo://app?vid=eb56f040-d7e3-440c-9d05-82afe187dd21","ios":"levelo://app?vid=eb56f040-d7e3-440c-9d05-82afe187dd21"},"vehicle_type_id":"4","last_reported":1687298772,"current_range_meters":30000,"station_id":"ce4bgj92rcd13ifvqbd0","pricing_plan_id":"free"},{"bike_id":"16608c32-c312-45cb-a050-471b7a8243f5","system_id":"levelo_inurba_marseille","lat":43.32367,"lon":5.388836,"is_reserved":false,"is_disabled":false,"rental_uris":{"android":"levelo://app?vid=16608c32-c312-45cb-a050-471b7a8243f5","ios":"levelo://app?vid=16608c32-c312-45cb-a050-471b7a8243f5"},"vehicle_type_id":"4","last_reported":1687298772,"current_range_meters":24000,"station_id":"ce4bhqp2rcd13ifvqhog","pricing_plan_id":"free"},{"bike_id":"f6a8d98e-8c6f-46e8-8844-e46a95c6ded9","system_id":"levelo_inurba_marseille","lat":43.32367,"lon":5.388836,"is_reserved":false,"is_disabled":false,"rental_uris":{"android":"levelo://app?vid=f6a8d98e-8c6f-46e8-8844-e46a95c6ded9","ios":"levelo://app?vid=f6a8d98e-8c6f-46e8-8844-e46a95c6ded9"},"vehicle_type_id":"4","last_reported":1687298772,"current_range_meters":29600,"station_id":"ce4bhqp2rcd13ifvqhog","pricing_plan_id":"free"},{"bike_id":"c28c2118-4e3e-4656-bc34-c88de6611e3f","system_id":"levelo_inurba_marseille","lat":43.32367,"lon":5.388836,"is_reserved":false,"is_disabled":false,"rental_uris":{"android":"levelo://app?vid=c28c2118-4e3e-4656-bc34-c88de6611e3f","ios":"levelo://app?vid=c28c2118-4e3e-4656-bc34-c88de6611e3f"},"vehicle_type_id":"4","last_reported":1687298772,"current_range_meters":12800,"station_id":"ce4bhqp2rcd13ifvqhog","pricing_plan_id":"free"},{"bike_id":"9e9ce588-c5b6-4d8b-a77b-26a827af3b2c","system_id":"levelo_inurba_marseille","lat":43.32367,"lon":5.388836,"is_reserved":false,"is_disabled":false,"rental_uris":{"android":"levelo://app?vid=9e9ce588-c5b6-4d8b-a77b-26a827af3b2c","ios":"levelo://app?vid=9e9ce588-c5b6-4d8b-a77b-26a827af3b2c"},"vehicle_type_id":"4","last_reported":1687298772,"current_range_meters":0,"station_id":"ce4bhqp2rcd13ifvqhog","pricing_plan_id":"free"},{"bike_id":"79f940be-328f-478d-aa00-a57517d9bda5","system_id":"levelo_inurba_marseille","lat":43.32367,"lon":5.388836,"is_reserved":false,"is_disabled":false,"rental_uris":{"android":"levelo://app?vid=79f940be-328f-478d-aa00-a57517d9bda5","ios":"levelo://app?vid=79f940be-328f-478d-aa00-a57517d9bda5"},"vehicle_type_id":"4","last_reported":1687298772,"current_range_meters":8800,"station_id":"ce4bhqp2rcd13ifvqhog","pricing_plan_id":"free"},{"bike_id":"c94a21c6-e9c2-496f-b510-0a58f08ba1e0","system_id":"levelo_inurba_marseille","lat":43.32367,"lon":5.388836,"is_reserved":false,"is_disabled":false,"rental_uris":{"android":"levelo://app?vid=c94a21c6-e9c2-496f-b510-0a58f08ba1e0","ios":"levelo://app?vid=c94a21c6-e9c2-496f-b510-0a58f08ba1e0"},"vehicle_type_id":"4","last_reported":1687298772,"current_range_meters":12800,"station_id":"ce4bhqp2rcd13ifvqhog","pricing_plan_id":"free"},{"bike_id":"a349cdc6-57f9-4da5-bec9-b24e86494f93","system_id":"levelo_inurba_marseille","lat":43.32367,"lon":5.388836,"is_reserved":false,"is_disabled":false,"rental_uris":{"android":"levelo://app?vid=a349cdc6-57f9-4da5-bec9-b24e86494f93","ios":"levelo://app?vid=a349cdc6-57f9-4da5-bec9-b24e86494f93"},"vehicle_type_id":"4","last_reported":1687298772,"current_range_meters":28000,"station_id":"ce4bhqp2rcd13ifvqhog","pricing_plan_id":"free"},{"bike_id":"b13cbc77-d957-4984-bb84-2727bfd4ea96","system_id":"levelo_inurba_marseille","lat":43.32367,"lon":5.388836,"is_reserved":false,"is_disabled":false,"rental_uris":{"android":"levelo://app?vid=b13cbc77-d957-4984-bb84-2727bfd4ea96","ios":"levelo://app?vid=b13cbc77-d957-4984-bb84-2727bfd4ea96"},"vehicle_type_id":"4","last_reported":1687298772,"current_range_meters":3200,"station_id":"ce4bhqp2rcd13ifvqhog","pricing_plan_id":"free"},{"bike_id":"924f5e2c-3798-48c5-a26b-4aa840da3bf3","system_id":"levelo_inurba_marseille","lat":43.323729,"lon":5.388839,"is_reserved":false,"is_disabled":false,"rental_uris":{"android":"levelo://app?vid=924f5e2c-3798-48c5-a26b-4aa840da3bf3","ios":"levelo://app?vid=924f5e2c-3798-48c5-a26b-4aa840da3bf3"},"vehicle_type_id":"4","last_reported":1687298772,"current_range_meters":24400,"station_id":"","pricing_plan_id":"free"},{"bike_id":"a988ef0b-9666-4875-9632-518448a64389","system_id":"levelo_inurba_marseille","lat":43.32367,"lon":5.388836,"is_reserved":false,"is_disabled":false,"rental_uris":{"android":"levelo://app?vid=a988ef0b-9666-4875-9632-518448a64389","ios":"levelo://app?vid=a988ef0b-9666-4875-9632-518448a64389"},"vehicle_type_id":"4","last_reported":1687298772,"current_range_meters":15200,"station_id":"ce4bhqp2rcd13ifvqhog","pricing_plan_id":"free"},{"bike_id":"d5b1acbe-1b75-4099-8c39-44fb9226be98","system_id":"levelo_inurba_marseille","lat":43.29602,"lon":5.381084,"is_reserved":false,"is_disabled":false,"rental_uris":{"android":"levelo://app?vid=d5b1acbe-1b75-4099-8c39-44fb9226be98","ios":"levelo://app?vid=d5b1acbe-1b75-4099-8c39-44fb9226be98"},"vehicle_type_id":"4","last_reported":1687298772,"current_range_meters":14800,"station_id":"ce4bgl12rcd13ifvqbo0","pricing_plan_id":"free"},{"bike_id":"f96bc5ef-773a-4c29-b818-b40707fecfaa","system_id":"levelo_inurba_marseille","lat":43.30589,"lon":5.39352,"is_reserved":false,"is_disabled":false,"rental_uris":{"android":"levelo://app?vid=f96bc5ef-773a-4c29-b818-b40707fecfaa","ios":"levelo://app?vid=f96bc5ef-773a-4c29-b818-b40707fecfaa"},"vehicle_type_id":"4","last_reported":1687298772,"current_range_meters":31200,"station_id":"ce4bh0p2rcd13ifvqd80","pricing_plan_id":"free"},{"bike_id":"ded7a504-8bf4-44c8-b142-8c13b0c8c2e2","system_id":"levelo_inurba_marseille","lat":43.305994,"lon":5.393687,"is_reserved":false,"is_disabled":false,"rental_uris":{"android":"levelo://app?vid=ded7a504-8bf4-44c8-b142-8c13b0c8c2e2","ios":"levelo://app?vid=ded7a504-8bf4-44c8-b142-8c13b0c8c2e2"},"vehicle_type_id":"4","last_reported":1687298772,"current_range_meters":25200,"station_id":"ce4bh0p2rcd13ifvqd80","pricing_plan_id":"free"},{"bike_id":"9d1c5c29-d1d2-4fdf-a806-3ab7c043d135","system_id":"levelo_inurba_marseille","lat":43.29228,"lon":5.36421,"is_reserved":false,"is_disabled":false,"rental_uris":{"android":"levelo://app?vid=9d1c5c29-d1d2-4fdf-a806-3ab7c043d135","ios":"levelo://app?vid=9d1c5c29-d1d2-4fdf-a806-3ab7c043d135"},"vehicle_type_id":"4","last_reported":1687298772,"current_range_meters":3200,"station_id":"","pricing_plan_id":"free"},{"bike_id":"66b480a6-9947-4496-98e2-93e61a3244b4","system_id":"levelo_inurba_marseille","lat":43.305994,"lon":5.393687,"is_reserved":false,"is_disabled":false,"rental_uris":{"android":"levelo://app?vid=66b480a6-9947-4496-98e2-93e61a3244b4","ios":"levelo://app?vid=66b480a6-9947-4496-98e2-93e61a3244b4"},"vehicle_type_id":"4","last_reported":1687298772,"current_range_meters":31200,"station_id":"ce4bh0p2rcd13ifvqd80","pricing_plan_id":"free"},{"bike_id":"7ee8e857-e58f-4d0f-9ec8-cf55d6494b29","system_id":"levelo_inurba_marseille","lat":43.29271,"lon":5.35969,"is_reserved":false,"is_disabled":false,"rental_uris":{"android":"levelo://app?vid=7ee8e857-e58f-4d0f-9ec8-cf55d6494b29","ios":"levelo://app?vid=7ee8e857-e58f-4d0f-9ec8-cf55d6494b29"},"vehicle_type_id":"4","last_reported":1687298772,"current_range_meters":400,"station_id":"","pricing_plan_id":"free"},{"bike_id":"49b8415c-40b0-4f35-b645-609d9b16dd5c","system_id":"levelo_inurba_marseille","lat":43.302992,"lon":5.392136,"is_reserved":false,"is_disabled":false,"rental_uris":{"android":"levelo://app?vid=49b8415c-40b0-4f35-b645-609d9b16dd5c","ios":"levelo://app?vid=49b8415c-40b0-4f35-b645-609d9b16dd5c"},"vehicle_type_id":"4","last_reported":1687298772,"current_range_meters":26800,"station_id":"ce4bgkh2rcd13ifvqbk0","pricing_plan_id":"free"},{"bike_id":"59d55ee9-3706-4da7-9cec-794b90e00308","system_id":"levelo_inurba_marseille","lat":43.302992,"lon":5.392136,"is_reserved":false,"is_disabled":false,"rental_uris":{"android":"levelo://app?vid=59d55ee9-3706-4da7-9cec-794b90e00308","ios":"levelo://app?vid=59d55ee9-3706-4da7-9cec-794b90e00308"},"vehicle_type_id":"4","last_reported":1687298772,"current_range_meters":20000,"station_id":"ce4bgkh2rcd13ifvqbk0","pricing_plan_id":"free"},{"bike_id":"b2214d7c-78cd-4696-b9db-0999bad8b14f","system_id":"levelo_inurba_marseille","lat":43.32232,"lon":5.39228,"is_reserved":false,"is_disabled":false,"rental_uris":{"android":"levelo://app?vid=b2214d7c-78cd-4696-b9db-0999bad8b14f","ios":"levelo://app?vid=b2214d7c-78cd-4696-b9db-0999bad8b14f"},"vehicle_type_id":"4","last_reported":1687298772,"current_range_meters":31600,"station_id":"","pricing_plan_id":"free"},{"bike_id":"aed8adaf-5d26-40ad-af55-b42d9bcf8fe7","system_id":"levelo_inurba_marseille","lat":43.302992,"lon":5.392136,"is_reserved":false,"is_disabled":false,"rental_uris":{"android":"levelo://app?vid=aed8adaf-5d26-40ad-af55-b42d9bcf8fe7","ios":"levelo://app?vid=aed8adaf-5d26-40ad-af55-b42d9bcf8fe7"},"vehicle_type_id":"4","last_reported":1687298772,"current_range_meters":0,"station_id":"ce4bgkh2rcd13ifvqbk0","pricing_plan_id":"free"},{"bike_id":"91dee270-d725-42d2-bb02-fab74355a597","system_id":"levelo_inurba_marseille","lat":43.30085,"lon":5.390856,"is_reserved":false,"is_disabled":false,"rental_uris":{"android":"levelo://app?vid=91dee270-d725-42d2-bb02-fab74355a597","ios":"levelo://app?vid=91dee270-d725-42d2-bb02-fab74355a597"},"vehicle_type_id":"4","last_reported":1687298772,"current_range_meters":28800,"station_id":"ce4bh192rcd13ifvqdb0","pricing_plan_id":"free"},{"bike_id":"530972cb-cf3f-4fc5-9757-ec3c2ac5fbba","system_id":"levelo_inurba_marseille","lat":43.298764,"lon":5.388973,"is_reserved":false,"is_disabled":false,"rental_uris":{"android":"levelo://app?vid=530972cb-cf3f-4fc5-9757-ec3c2ac5fbba","ios":"levelo://app?vid=530972cb-cf3f-4fc5-9757-ec3c2ac5fbba"},"vehicle_type_id":"4","last_reported":1687298772,"current_range_meters":17200,"station_id":"ce4bh392rcd13ifvqdl0","pricing_plan_id":"free"},{"bike_id":"f2275d67-b756-4cac-885e-848d49613d85","system_id":"levelo_inurba_marseille","lat":43.291671,"lon":5.371575,"is_reserved":false,"is_disabled":false,"rental_uris":{"android":"levelo://app?vid=f2275d67-b756-4cac-885e-848d49613d85","ios":"levelo://app?vid=f2275d67-b756-4cac-885e-848d49613d85"},"vehicle_type_id":"4","last_reported":1687298772,"current_range_meters":16400,"station_id":"ce4bha92rcd13ifvqeh0","pricing_plan_id":"free"},{"bike_id":"946eba88-ea35-4075-a0a3-da95728f2ae9","system_id":"levelo_inurba_marseille","lat":43.298764,"lon":5.388973,"is_reserved":false,"is_disabled":false,"rental_uris":{"android":"levelo://app?vid=946eba88-ea35-4075-a0a3-da95728f2ae9","ios":"levelo://app?vid=946eba88-ea35-4075-a0a3-da95728f2ae9"},"vehicle_type_id":"4","last_reported":1687298772,"current_range_meters":2000,"station_id":"ce4bh392rcd13ifvqdl0","pricing_plan_id":"free"},{"bike_id":"542db5ab-99df-4eb7-a015-16337bf422dd","system_id":"levelo_inurba_marseille","lat":43.30736,"lon":5.39564,"is_reserved":false,"is_disabled":false,"rental_uris":{"android":"levelo://app?vid=542db5ab-99df-4eb7-a015-16337bf422dd","ios":"levelo://app?vid=542db5ab-99df-4eb7-a015-16337bf422dd"},"vehicle_type_id":"4","last_reported":1687298772,"current_range_meters":4800,"station_id":"","pricing_plan_id":"free"},{"bike_id":"cfe4423a-4e9d-4a2b-83c3-2838fc848d96","system_id":"levelo_inurba_marseille","lat":43.30889,"lon":5.39627,"is_reserved":false,"is_disabled":false,"rental_uris":{"android":"levelo://app?vid=cfe4423a-4e9d-4a2b-83c3-2838fc848d96","ios":"levelo://app?vid=cfe4423a-4e9d-4a2b-83c3-2838fc848d96"},"vehicle_type_id":"4","last_reported":1687298772,"current_range_meters":25600,"station_id":"","pricing_plan_id":"free"},{"bike_id":"759eb84e-c07a-4a0e-9f58-ce33cca86297","system_id":"levelo_inurba_marseille","lat":43.30886,"lon":5.39627,"is_reserved":false,"is_disabled":false,"rental_uris":{"android":"levelo://app?vid=759eb84e-c07a-4a0e-9f58-ce33cca86297","ios":"levelo://app?vid=759eb84e-c07a-4a0e-9f58-ce33cca86297"},"vehicle_type_id":"4","last_reported":1687298772,"current_range_meters":23600,"station_id":"","pricing_plan_id":"free"},{"bike_id":"7367c022-5355-4bab-b5a6-2a7d1c6f947e","system_id":"levelo_inurba_marseille","lat":43.30886,"lon":5.39628,"is_reserved":false,"is_disabled":false,"rental_uris":{"android":"levelo://app?vid=7367c022-5355-4bab-b5a6-2a7d1c6f947e","ios":"levelo://app?vid=7367c022-5355-4bab-b5a6-2a7d1c6f947e"},"vehicle_type_id":"4","last_reported":1687298772,"current_range_meters":31200,"station_id":"","pricing_plan_id":"free"},{"bike_id":"71adf10d-2a55-45fc-adf9-28c46d0517aa","system_id":"levelo_inurba_marseille","lat":43.309038,"lon":5.396546,"is_reserved":false,"is_disabled":false,"rental_uris":{"android":"levelo://app?vid=71adf10d-2a55-45fc-adf9-28c46d0517aa","ios":"levelo://app?vid=71adf10d-2a55-45fc-adf9-28c46d0517aa"},"vehicle_type_id":"4","last_reported":1687298772,"current_range_meters":27200,"station_id":"ce4bh012rcd13ifvqcv0","pricing_plan_id":"free"},{"bike_id":"128fd267-fa88-49a9-bd57-e1a2cef2d582","system_id":"levelo_inurba_marseille","lat":43.30886,"lon":5.3963,"is_reserved":false,"is_disabled":false,"rental_uris":{"android":"levelo://app?vid=128fd267-fa88-49a9-bd57-e1a2cef2d582","ios":"levelo://app?vid=128fd267-fa88-49a9-bd57-e1a2cef2d582"},"vehicle_type_id":"4","last_reported":1687298772,"current_range_meters":12800,"station_id":"","pricing_plan_id":"free"},{"bike_id":"91f27ca4-b1d4-4b07-bbb6-4e3add10a601","system_id":"levelo_inurba_marseille","lat":43.309038,"lon":5.396546,"is_reserved":false,"is_disabled":false,"rental_uris":{"android":"levelo://app?vid=91f27ca4-b1d4-4b07-bbb6-4e3add10a601","ios":"levelo://app?vid=91f27ca4-b1d4-4b07-bbb6-4e3add10a601"},"vehicle_type_id":"4","last_reported":1687298772,"current_range_meters":31200,"station_id":"ce4bh012rcd13ifvqcv0","pricing_plan_id":"free"},{"bike_id":"3d2f0f76-3088-4456-9663-2afb7577fa88","system_id":"levelo_inurba_marseille","lat":43.30881,"lon":5.39631,"is_reserved":false,"is_disabled":false,"rental_uris":{"android":"levelo://app?vid=3d2f0f76-3088-4456-9663-2afb7577fa88","ios":"levelo://app?vid=3d2f0f76-3088-4456-9663-2afb7577fa88"},"vehicle_type_id":"4","last_reported":1687298772,"current_range_meters":30800,"station_id":"","pricing_plan_id":"free"},{"bike_id":"7a87f340-ac4b-47c8-ac5c-b336014b0809","system_id":"levelo_inurba_marseille","lat":43.309038,"lon":5.396546,"is_reserved":false,"is_disabled":false,"rental_uris":{"android":"levelo://app?vid=7a87f340-ac4b-47c8-ac5c-b336014b0809","ios":"levelo://app?vid=7a87f340-ac4b-47c8-ac5c-b336014b0809"},"vehicle_type_id":"4","last_reported":1687298772,"current_range_meters":17200,"station_id":"ce4bh012rcd13ifvqcv0","pricing_plan_id":"free"},{"bike_id":"44d81b50-8e77-4afb-bb64-bef15549b486","system_id":"levelo_inurba_marseille","lat":43.309038,"lon":5.396546,"is_reserved":false,"is_disabled":false,"rental_uris":{"android":"levelo://app?vid=44d81b50-8e77-4afb-bb64-bef15549b486","ios":"levelo://app?vid=44d81b50-8e77-4afb-bb64-bef15549b486"},"vehicle_type_id":"4","last_reported":1687298772,"current_range_meters":20400,"station_id":"ce4bh012rcd13ifvqcv0","pricing_plan_id":"free"},{"bike_id":"b859ee65-8c3d-420a-925c-1e111b8afe8f","system_id":"levelo_inurba_marseille","lat":43.309038,"lon":5.396546,"is_reserved":false,"is_disabled":false,"rental_uris":{"android":"levelo://app?vid=b859ee65-8c3d-420a-925c-1e111b8afe8f","ios":"levelo://app?vid=b859ee65-8c3d-420a-925c-1e111b8afe8f"},"vehicle_type_id":"4","last_reported":1687298772,"current_range_meters":26400,"station_id":"ce4bh012rcd13ifvqcv0","pricing_plan_id":"free"},{"bike_id":"d38c5de4-1b75-44fb-88b5-eb30bcdcd7d0","system_id":"levelo_inurba_marseille","lat":43.313243,"lon":5.396843,"is_reserved":false,"is_disabled":false,"rental_uris":{"android":"levelo://app?vid=d38c5de4-1b75-44fb-88b5-eb30bcdcd7d0","ios":"levelo://app?vid=d38c5de4-1b75-44fb-88b5-eb30bcdcd7d0"},"vehicle_type_id":"4","last_reported":1687298772,"current_range_meters":20800,"station_id":"","pricing_plan_id":"free"},{"bike_id":"3ab8eaba-da7b-4776-86b0-5d390c3508d9","system_id":"levelo_inurba_marseille","lat":43.309038,"lon":5.396546,"is_reserved":false,"is_disabled":false,"rental_uris":{"android":"levelo://app?vid=3ab8eaba-da7b-4776-86b0-5d390c3508d9","ios":"levelo://app?vid=3ab8eaba-da7b-4776-86b0-5d390c3508d9"},"vehicle_type_id":"4","last_reported":1687298772,"current_range_meters":31200,"station_id":"ce4bh012rcd13ifvqcv0","pricing_plan_id":"free"},{"bike_id":"522b8a82-5251-429a-981a-15ca22e57cb0","system_id":"levelo_inurba_marseille","lat":43.313291,"lon":5.396838,"is_reserved":false,"is_disabled":false,"rental_uris":{"android":"levelo://app?vid=522b8a82-5251-429a-981a-15ca22e57cb0","ios":"levelo://app?vid=522b8a82-5251-429a-981a-15ca22e57cb0"},"vehicle_type_id":"4","last_reported":1687298772,"current_range_meters":30800,"station_id":"ce4bgvp2rcd13ifvqcu0","pricing_plan_id":"free"},{"bike_id":"4a4f54b4-b64a-425e-a820-e56c7df62da5","system_id":"levelo_inurba_marseille","lat":43.309038,"lon":5.396546,"is_reserved":false,"is_disabled":false,"rental_uris":{"android":"levelo://app?vid=4a4f54b4-b64a-425e-a820-e56c7df62da5","ios":"levelo://app?vid=4a4f54b4-b64a-425e-a820-e56c7df62da5"},"vehicle_type_id":"4","last_reported":1687298772,"current_range_meters":24400,"station_id":"ce4bh012rcd13ifvqcv0","pricing_plan_id":"free"},{"bike_id":"ef6b5d3a-977c-4692-8cc3-ebe2cdbd99fd","system_id":"levelo_inurba_marseille","lat":43.313291,"lon":5.396838,"is_reserved":false,"is_disabled":false,"rental_uris":{"android":"levelo://app?vid=ef6b5d3a-977c-4692-8cc3-ebe2cdbd99fd","ios":"levelo://app?vid=ef6b5d3a-977c-4692-8cc3-ebe2cdbd99fd"},"vehicle_type_id":"4","last_reported":1687298772,"current_range_meters":0,"station_id":"ce4bgvp2rcd13ifvqcu0","pricing_plan_id":"free"},{"bike_id":"b08b8144-f559-46ba-b3ed-768fb92145f2","system_id":"levelo_inurba_marseille","lat":43.30888,"lon":5.39642,"is_reserved":false,"is_disabled":false,"rental_uris":{"android":"levelo://app?vid=b08b8144-f559-46ba-b3ed-768fb92145f2","ios":"levelo://app?vid=b08b8144-f559-46ba-b3ed-768fb92145f2"},"vehicle_type_id":"4","last_reported":1687298772,"current_range_meters":8000,"station_id":"ce4bh012rcd13ifvqcv0","pricing_plan_id":"free"},{"bike_id":"71a25f43-1225-457d-9e6f-d92672faa73d","system_id":"levelo_inurba_marseille","lat":43.313291,"lon":5.396838,"is_reserved":false,"is_disabled":false,"rental_uris":{"android":"levelo://app?vid=71a25f43-1225-457d-9e6f-d92672faa73d","ios":"levelo://app?vid=71a25f43-1225-457d-9e6f-d92672faa73d"},"vehicle_type_id":"4","last_reported":1687298772,"current_range_meters":9200,"station_id":"ce4bgvp2rcd13ifvqcu0","pricing_plan_id":"free"},{"bike_id":"fb9fbaed-5d69-4a64-a3bc-f40695100982","system_id":"levelo_inurba_marseille","lat":43.3132,"lon":5.39691,"is_reserved":false,"is_disabled":false,"rental_uris":{"android":"levelo://app?vid=fb9fbaed-5d69-4a64-a3bc-f40695100982","ios":"levelo://app?vid=fb9fbaed-5d69-4a64-a3bc-f40695100982"},"vehicle_type_id":"4","last_reported":1687298772,"current_range_meters":23200,"station_id":"ce4bgvp2rcd13ifvqcu0","pricing_plan_id":"free"},{"bike_id":"61dbc3e9-4b8c-474f-80f8-6f63fe711e97","system_id":"levelo_inurba_marseille","lat":43.313291,"lon":5.396838,"is_reserved":false,"is_disabled":false,"rental_uris":{"android":"levelo://app?vid=61dbc3e9-4b8c-474f-80f8-6f63fe711e97","ios":"levelo://app?vid=61dbc3e9-4b8c-474f-80f8-6f63fe711e97"},"vehicle_type_id":"4","last_reported":1687298772,"current_range_meters":21600,"station_id":"ce4bgvp2rcd13ifvqcu0","pricing_plan_id":"free"},{"bike_id":"cce40203-1d8e-41e8-a9fd-763d2f677c68","system_id":"levelo_inurba_marseille","lat":43.31333,"lon":5.39691,"is_reserved":false,"is_disabled":false,"rental_uris":{"android":"levelo://app?vid=cce40203-1d8e-41e8-a9fd-763d2f677c68","ios":"levelo://app?vid=cce40203-1d8e-41e8-a9fd-763d2f677c68"},"vehicle_type_id":"4","last_reported":1687298772,"current_range_meters":13600,"station_id":"ce4bgvp2rcd13ifvqcu0","pricing_plan_id":"free"},{"bike_id":"efdb368b-6b7d-4502-80bc-a37b5b15d153","system_id":"levelo_inurba_marseille","lat":43.313291,"lon":5.396838,"is_reserved":false,"is_disabled":false,"rental_uris":{"android":"levelo://app?vid=efdb368b-6b7d-4502-80bc-a37b5b15d153","ios":"levelo://app?vid=efdb368b-6b7d-4502-80bc-a37b5b15d153"},"vehicle_type_id":"4","last_reported":1687298772,"current_range_meters":24400,"station_id":"ce4bgvp2rcd13ifvqcu0","pricing_plan_id":"free"},{"bike_id":"ce745780-8607-4b56-8d8a-a82562ed856a","system_id":"levelo_inurba_marseille","lat":43.309038,"lon":5.396546,"is_reserved":false,"is_disabled":false,"rental_uris":{"android":"levelo://app?vid=ce745780-8607-4b56-8d8a-a82562ed856a","ios":"levelo://app?vid=ce745780-8607-4b56-8d8a-a82562ed856a"},"vehicle_type_id":"4","last_reported":1687298772,"current_range_meters":13600,"station_id":"ce4bh012rcd13ifvqcv0","pricing_plan_id":"free"},{"bike_id":"15c5178f-5561-4295-8c7c-94b581c4621a","system_id":"levelo_inurba_marseille","lat":43.313291,"lon":5.396838,"is_reserved":false,"is_disabled":false,"rental_uris":{"android":"levelo://app?vid=15c5178f-5561-4295-8c7c-94b581c4621a","ios":"levelo://app?vid=15c5178f-5561-4295-8c7c-94b581c4621a"},"vehicle_type_id":"4","last_reported":1687298772,"current_range_meters":8800,"station_id":"ce4bgvp2rcd13ifvqcu0","pricing_plan_id":"free"},{"bike_id":"b72739af-7d15-4451-89a6-ac1874f77f79","system_id":"levelo_inurba_marseille","lat":43.31328,"lon":5.397,"is_reserved":false,"is_disabled":false,"rental_uris":{"android":"levelo://app?vid=b72739af-7d15-4451-89a6-ac1874f77f79","ios":"levelo://app?vid=b72739af-7d15-4451-89a6-ac1874f77f79"},"vehicle_type_id":"4","last_reported":1687298772,"current_range_meters":15600,"station_id":"ce4bgvp2rcd13ifvqcu0","pricing_plan_id":"free"},{"bike_id":"fa01efd5-4665-45ef-a43d-4bf3c0c07f32","system_id":"levelo_inurba_marseille","lat":43.309038,"lon":5.396546,"is_reserved":false,"is_disabled":false,"rental_uris":{"android":"levelo://app?vid=fa01efd5-4665-45ef-a43d-4bf3c0c07f32","ios":"levelo://app?vid=fa01efd5-4665-45ef-a43d-4bf3c0c07f32"},"vehicle_type_id":"4","last_reported":1687298772,"current_range_meters":3200,"station_id":"ce4bh012rcd13ifvqcv0","pricing_plan_id":"free"},{"bike_id":"d6d3c9e5-6ad5-4123-ad11-c1fecc40bc58","system_id":"levelo_inurba_marseille","lat":43.308882,"lon":5.39656,"is_reserved":false,"is_disabled":false,"rental_uris":{"android":"levelo://app?vid=d6d3c9e5-6ad5-4123-ad11-c1fecc40bc58","ios":"levelo://app?vid=d6d3c9e5-6ad5-4123-ad11-c1fecc40bc58"},"vehicle_type_id":"4","last_reported":1687298772,"current_range_meters":21600,"station_id":"ce4bh012rcd13ifvqcv0","pricing_plan_id":"free"},{"bike_id":"cd585734-10cf-4271-a09e-51bc16fd8f0e","system_id":"levelo_inurba_marseille","lat":43.30889,"lon":5.39658,"is_reserved":false,"is_disabled":false,"rental_uris":{"android":"levelo://app?vid=cd585734-10cf-4271-a09e-51bc16fd8f0e","ios":"levelo://app?vid=cd585734-10cf-4271-a09e-51bc16fd8f0e"},"vehicle_type_id":"4","last_reported":1687298772,"current_range_meters":13600,"station_id":"ce4bh012rcd13ifvqcv0","pricing_plan_id":"free"},{"bike_id":"88130133-2cf5-4ead-8ded-231755df0e16","system_id":"levelo_inurba_marseille","lat":43.309038,"lon":5.396546,"is_reserved":false,"is_disabled":false,"rental_uris":{"android":"levelo://app?vid=88130133-2cf5-4ead-8ded-231755df0e16","ios":"levelo://app?vid=88130133-2cf5-4ead-8ded-231755df0e16"},"vehicle_type_id":"4","last_reported":1687298772,"current_range_meters":1200,"station_id":"ce4bh012rcd13ifvqcv0","pricing_plan_id":"free"},{"bike_id":"4d7de76b-125a-417e-8895-89d1b49ec7c0","system_id":"levelo_inurba_marseille","lat":43.29529,"lon":5.385581,"is_reserved":false,"is_disabled":false,"rental_uris":{"android":"levelo://app?vid=4d7de76b-125a-417e-8895-89d1b49ec7c0","ios":"levelo://app?vid=4d7de76b-125a-417e-8895-89d1b49ec7c0"},"vehicle_type_id":"4","last_reported":1687298772,"current_range_meters":18400,"station_id":"ce4bgih2rcd13ifvqba0","pricing_plan_id":"free"},{"bike_id":"8a3430e4-0421-4e1c-ba70-c7b40f772545","system_id":"levelo_inurba_marseille","lat":43.29529,"lon":5.385581,"is_reserved":false,"is_disabled":false,"rental_uris":{"android":"levelo://app?vid=8a3430e4-0421-4e1c-ba70-c7b40f772545","ios":"levelo://app?vid=8a3430e4-0421-4e1c-ba70-c7b40f772545"},"vehicle_type_id":"4","last_reported":1687298772,"current_range_meters":4000,"station_id":"ce4bgih2rcd13ifvqba0","pricing_plan_id":"free"},{"bike_id":"4a806b62-8d1d-4499-9daf-e2003b22bac4","system_id":"levelo_inurba_marseille","lat":43.290624,"lon":5.359245,"is_reserved":false,"is_disabled":false,"rental_uris":{"android":"levelo://app?vid=4a806b62-8d1d-4499-9daf-e2003b22bac4","ios":"levelo://app?vid=4a806b62-8d1d-4499-9daf-e2003b22bac4"},"vehicle_type_id":"4","last_reported":1687298772,"current_range_meters":18800,"station_id":"ce4bha92rcd13ifvqeg0","pricing_plan_id":"free"},{"bike_id":"01eb0812-4558-4aea-bf50-ad066f363f38","system_id":"levelo_inurba_marseille","lat":43.28981,"lon":5.36425,"is_reserved":false,"is_disabled":false,"rental_uris":{"android":"levelo://app?vid=01eb0812-4558-4aea-bf50-ad066f363f38","ios":"levelo://app?vid=01eb0812-4558-4aea-bf50-ad066f363f38"},"vehicle_type_id":"4","last_reported":1687298772,"current_range_meters":5600,"station_id":"","pricing_plan_id":"free"},{"bike_id":"d20fc8bc-47ac-4ecf-9cbf-8d2b0a6ba000","system_id":"levelo_inurba_marseille","lat":43.289184,"lon":5.366408,"is_reserved":false,"is_disabled":false,"rental_uris":{"android":"levelo://app?vid=d20fc8bc-47ac-4ecf-9cbf-8d2b0a6ba000","ios":"levelo://app?vid=d20fc8bc-47ac-4ecf-9cbf-8d2b0a6ba000"},"vehicle_type_id":"4","last_reported":1687298772,"current_range_meters":3200,"station_id":"ce4bhap2rcd13ifvqek0","pricing_plan_id":"free"},{"bike_id":"3f8a925a-6a54-4259-a38f-9cf091aab246","system_id":"levelo_inurba_marseille","lat":43.294162,"lon":5.386292,"is_reserved":false,"is_disabled":false,"rental_uris":{"android":"levelo://app?vid=3f8a925a-6a54-4259-a38f-9cf091aab246","ios":"levelo://app?vid=3f8a925a-6a54-4259-a38f-9cf091aab246"},"vehicle_type_id":"4","last_reported":1687298772,"current_range_meters":31200,"station_id":"ce4bh2h2rcd13ifvqdh0","pricing_plan_id":"free"},{"bike_id":"5abc147a-9f88-4f3c-96e5-3209934679ae","system_id":"levelo_inurba_marseille","lat":43.29027,"lon":5.37554,"is_reserved":false,"is_disabled":false,"rental_uris":{"android":"levelo://app?vid=5abc147a-9f88-4f3c-96e5-3209934679ae","ios":"levelo://app?vid=5abc147a-9f88-4f3c-96e5-3209934679ae"},"vehicle_type_id":"4","last_reported":1687298772,"current_range_meters":9200,"station_id":"ce4bh692rcd13ifvqe90","pricing_plan_id":"free"},{"bike_id":"0609f09b-61e5-40d1-a057-3a5b9409ddd1","system_id":"levelo_inurba_marseille","lat":43.294153,"lon":5.386305,"is_reserved":false,"is_disabled":false,"rental_uris":{"android":"levelo://app?vid=0609f09b-61e5-40d1-a057-3a5b9409ddd1","ios":"levelo://app?vid=0609f09b-61e5-40d1-a057-3a5b9409ddd1"},"vehicle_type_id":"4","last_reported":1687298772,"current_range_meters":24400,"station_id":"ce4bh2h2rcd13ifvqdh0","pricing_plan_id":"free"},{"bike_id":"b8596af4-7443-4091-b1cf-399eec8c9e8a","system_id":"levelo_inurba_marseille","lat":43.289184,"lon":5.366408,"is_reserved":false,"is_disabled":false,"rental_uris":{"android":"levelo://app?vid=b8596af4-7443-4091-b1cf-399eec8c9e8a","ios":"levelo://app?vid=b8596af4-7443-4091-b1cf-399eec8c9e8a"},"vehicle_type_id":"4","last_reported":1687298772,"current_range_meters":0,"station_id":"ce4bhap2rcd13ifvqek0","pricing_plan_id":"free"},{"bike_id":"cf16cb8a-3cc9-4a79-a05e-7abb06f2505e","system_id":"levelo_inurba_marseille","lat":43.289468,"lon":5.363719,"is_reserved":false,"is_disabled":false,"rental_uris":{"android":"levelo://app?vid=cf16cb8a-3cc9-4a79-a05e-7abb06f2505e","ios":"levelo://app?vid=cf16cb8a-3cc9-4a79-a05e-7abb06f2505e"},"vehicle_type_id":"4","last_reported":1687298772,"current_range_meters":10400,"station_id":"ce4bhc92rcd13ifvqetg","pricing_plan_id":"free"},{"bike_id":"fb243d4e-56ab-4518-9a25-b91c678f975c","system_id":"levelo_inurba_marseille","lat":43.289468,"lon":5.363719,"is_reserved":false,"is_disabled":false,"rental_uris":{"android":"levelo://app?vid=fb243d4e-56ab-4518-9a25-b91c678f975c","ios":"levelo://app?vid=fb243d4e-56ab-4518-9a25-b91c678f975c"},"vehicle_type_id":"4","last_reported":1687298772,"current_range_meters":18800,"station_id":"ce4bhc92rcd13ifvqetg","pricing_plan_id":"free"},{"bike_id":"1afbbc7e-320c-43c1-a6c9-6327eb115ba8","system_id":"levelo_inurba_marseille","lat":43.283498,"lon":5.380948,"is_reserved":false,"is_disabled":false,"rental_uris":{"android":"levelo://app?vid=1afbbc7e-320c-43c1-a6c9-6327eb115ba8","ios":"levelo://app?vid=1afbbc7e-320c-43c1-a6c9-6327eb115ba8"},"vehicle_type_id":"4","last_reported":1687298772,"current_range_meters":18800,"station_id":"ce4bh412rcd13ifvqdr0","pricing_plan_id":"free"},{"bike_id":"f8513c32-11c3-4680-b591-2be6f83fd0cb","system_id":"levelo_inurba_marseille","lat":43.28931,"lon":5.36393,"is_reserved":false,"is_disabled":false,"rental_uris":{"android":"levelo://app?vid=f8513c32-11c3-4680-b591-2be6f83fd0cb","ios":"levelo://app?vid=f8513c32-11c3-4680-b591-2be6f83fd0cb"},"vehicle_type_id":"4","last_reported":1687298772,"current_range_meters":22400,"station_id":"ce4bhc92rcd13ifvqetg","pricing_plan_id":"free"},{"bike_id":"38eb09af-7166-42b9-865e-84246929498f","system_id":"levelo_inurba_marseille","lat":43.292642,"lon":5.384254,"is_reserved":false,"is_disabled":false,"rental_uris":{"android":"levelo://app?vid=38eb09af-7166-42b9-865e-84246929498f","ios":"levelo://app?vid=38eb09af-7166-42b9-865e-84246929498f"},"vehicle_type_id":"4","last_reported":1687298772,"current_range_meters":31200,"station_id":"ce4bh692rcd13ifvqea0","pricing_plan_id":"free"},{"bike_id":"ae338e58-2b9c-4273-b1f0-5d5418eda0dd","system_id":"levelo_inurba_marseille","lat":43.304274,"lon":5.397513,"is_reserved":false,"is_disabled":false,"rental_uris":{"android":"levelo://app?vid=ae338e58-2b9c-4273-b1f0-5d5418eda0dd","ios":"levelo://app?vid=ae338e58-2b9c-4273-b1f0-5d5418eda0dd"},"vehicle_type_id":"4","last_reported":1687298772,"current_range_meters":30000,"station_id":"ce4bh092rcd13ifvqd20","pricing_plan_id":"free"},{"bike_id":"60d45822-43ae-4a55-8081-8e7e4b585a53","system_id":"levelo_inurba_marseille","lat":43.292644,"lon":5.384257,"is_reserved":false,"is_disabled":false,"rental_uris":{"android":"levelo://app?vid=60d45822-43ae-4a55-8081-8e7e4b585a53","ios":"levelo://app?vid=60d45822-43ae-4a55-8081-8e7e4b585a53"},"vehicle_type_id":"4","last_reported":1687298772,"current_range_meters":8400,"station_id":"ce4bh692rcd13ifvqea0","pricing_plan_id":"free"},{"bike_id":"3a6cd18e-fdaf-4a7e-9d49-188d87f1ba8c","system_id":"levelo_inurba_marseille","lat":43.330235,"lon":5.389256,"is_reserved":false,"is_disabled":false,"rental_uris":{"android":"levelo://app?vid=3a6cd18e-fdaf-4a7e-9d49-188d87f1ba8c","ios":"levelo://app?vid=3a6cd18e-fdaf-4a7e-9d49-188d87f1ba8c"},"vehicle_type_id":"4","last_reported":1687298772,"current_range_meters":22400,"station_id":"ce4bhr92rcd13ifvqhrg","pricing_plan_id":"free"},{"bike_id":"3caffc17-39c9-41f2-8ba1-adb0bc1925da","system_id":"levelo_inurba_marseille","lat":43.33039,"lon":5.38915,"is_reserved":false,"is_disabled":false,"rental_uris":{"android":"levelo://app?vid=3caffc17-39c9-41f2-8ba1-adb0bc1925da","ios":"levelo://app?vid=3caffc17-39c9-41f2-8ba1-adb0bc1925da"},"vehicle_type_id":"4","last_reported":1687298772,"current_range_meters":26000,"station_id":"ce4bhr92rcd13ifvqhrg","pricing_plan_id":"free"},{"bike_id":"0a07d6d9-eee7-45eb-ba0a-43c8494a09b4","system_id":"levelo_inurba_marseille","lat":43.330569,"lon":5.388884,"is_reserved":false,"is_disabled":false,"rental_uris":{"android":"levelo://app?vid=0a07d6d9-eee7-45eb-ba0a-43c8494a09b4","ios":"levelo://app?vid=0a07d6d9-eee7-45eb-ba0a-43c8494a09b4"},"vehicle_type_id":"4","last_reported":1687298772,"current_range_meters":30400,"station_id":"ce4bhr92rcd13ifvqhrg","pricing_plan_id":"free"},{"bike_id":"7b4425c9-9a35-4378-9ded-5d710a02dfe0","system_id":"levelo_inurba_marseille","lat":43.33041,"lon":5.38916,"is_reserved":false,"is_disabled":false,"rental_uris":{"android":"levelo://app?vid=7b4425c9-9a35-4378-9ded-5d710a02dfe0","ios":"levelo://app?vid=7b4425c9-9a35-4378-9ded-5d710a02dfe0"},"vehicle_type_id":"4","last_reported":1687298772,"current_range_meters":20000,"station_id":"ce4bhr92rcd13ifvqhrg","pricing_plan_id":"free"},{"bike_id":"bfea3251-44a5-47b4-a6fa-5b481de5de8b","system_id":"levelo_inurba_marseille","lat":43.33041,"lon":5.38916,"is_reserved":false,"is_disabled":false,"rental_uris":{"android":"levelo://app?vid=bfea3251-44a5-47b4-a6fa-5b481de5de8b","ios":"levelo://app?vid=bfea3251-44a5-47b4-a6fa-5b481de5de8b"},"vehicle_type_id":"4","last_reported":1687298772,"current_range_meters":10800,"station_id":"ce4bhr92rcd13ifvqhrg","pricing_plan_id":"free"},{"bike_id":"e914f230-8e23-4cc4-8414-49404f0f0dbc","system_id":"levelo_inurba_marseille","lat":43.3304,"lon":5.38921,"is_reserved":false,"is_disabled":false,"rental_uris":{"android":"levelo://app?vid=e914f230-8e23-4cc4-8414-49404f0f0dbc","ios":"levelo://app?vid=e914f230-8e23-4cc4-8414-49404f0f0dbc"},"vehicle_type_id":"4","last_reported":1687298772,"current_range_meters":0,"station_id":"ce4bhr92rcd13ifvqhrg","pricing_plan_id":"free"},{"bike_id":"6c7db78f-2ed6-4b3a-a17d-2aa3f8ae2990","system_id":"levelo_inurba_marseille","lat":43.33044,"lon":5.38916,"is_reserved":false,"is_disabled":false,"rental_uris":{"android":"levelo://app?vid=6c7db78f-2ed6-4b3a-a17d-2aa3f8ae2990","ios":"levelo://app?vid=6c7db78f-2ed6-4b3a-a17d-2aa3f8ae2990"},"vehicle_type_id":"4","last_reported":1687298772,"current_range_meters":22400,"station_id":"ce4bhr92rcd13ifvqhrg","pricing_plan_id":"free"},{"bike_id":"d0a6518f-1e22-4242-a376-0e5f9eede3d6","system_id":"levelo_inurba_marseille","lat":43.33046,"lon":5.38918,"is_reserved":false,"is_disabled":false,"rental_uris":{"android":"levelo://app?vid=d0a6518f-1e22-4242-a376-0e5f9eede3d6","ios":"levelo://app?vid=d0a6518f-1e22-4242-a376-0e5f9eede3d6"},"vehicle_type_id":"4","last_reported":1687298772,"current_range_meters":10800,"station_id":"ce4bhr92rcd13ifvqhrg","pricing_plan_id":"free"},{"bike_id":"7bca5aa2-3d46-41b7-aade-65bb55af2371","system_id":"levelo_inurba_marseille","lat":43.331115,"lon":5.389141,"is_reserved":false,"is_disabled":false,"rental_uris":{"android":"levelo://app?vid=7bca5aa2-3d46-41b7-aade-65bb55af2371","ios":"levelo://app?vid=7bca5aa2-3d46-41b7-aade-65bb55af2371"},"vehicle_type_id":"4","last_reported":1687298772,"current_range_meters":26000,"station_id":"ce4bhr92rcd13ifvqhrg","pricing_plan_id":"free"},{"bike_id":"1a96309c-81e2-4ae5-b1e5-50a152990c97","system_id":"levelo_inurba_marseille","lat":43.309371,"lon":5.401449,"is_reserved":false,"is_disabled":false,"rental_uris":{"android":"levelo://app?vid=1a96309c-81e2-4ae5-b1e5-50a152990c97","ios":"levelo://app?vid=1a96309c-81e2-4ae5-b1e5-50a152990c97"},"vehicle_type_id":"4","last_reported":1687298772,"current_range_meters":10800,"station_id":"ce4bgvp2rcd13ifvqct0","pricing_plan_id":"free"},{"bike_id":"e4d02b92-332b-4014-a37d-368ee8c64f11","system_id":"levelo_inurba_marseille","lat":43.337791,"lon":5.37425,"is_reserved":false,"is_disabled":false,"rental_uris":{"android":"levelo://app?vid=e4d02b92-332b-4014-a37d-368ee8c64f11","ios":"levelo://app?vid=e4d02b92-332b-4014-a37d-368ee8c64f11"},"vehicle_type_id":"4","last_reported":1687298772,"current_range_meters":30400,"station_id":"","pricing_plan_id":"free"},{"bike_id":"278e5fa3-927d-4a44-b615-8b8d88be67cf","system_id":"levelo_inurba_marseille","lat":43.301117,"lon":5.398795,"is_reserved":false,"is_disabled":false,"rental_uris":{"android":"levelo://app?vid=278e5fa3-927d-4a44-b615-8b8d88be67cf","ios":"levelo://app?vid=278e5fa3-927d-4a44-b615-8b8d88be67cf"},"vehicle_type_id":"4","last_reported":1687298772,"current_range_meters":4000,"station_id":"ce4bh0h2rcd13ifvqd40","pricing_plan_id":"free"},{"bike_id":"14c9969e-4689-4e86-ade4-bb1b3c8ee89d","system_id":"levelo_inurba_marseille","lat":43.301117,"lon":5.398795,"is_reserved":false,"is_disabled":false,"rental_uris":{"android":"levelo://app?vid=14c9969e-4689-4e86-ade4-bb1b3c8ee89d","ios":"levelo://app?vid=14c9969e-4689-4e86-ade4-bb1b3c8ee89d"},"vehicle_type_id":"4","last_reported":1687298772,"current_range_meters":24400,"station_id":"ce4bh0h2rcd13ifvqd40","pricing_plan_id":"free"},{"bike_id":"c346f97b-6d74-47ec-af74-f15b869dc341","system_id":"levelo_inurba_marseille","lat":43.286591,"lon":5.363346,"is_reserved":false,"is_disabled":false,"rental_uris":{"android":"levelo://app?vid=c346f97b-6d74-47ec-af74-f15b869dc341","ios":"levelo://app?vid=c346f97b-6d74-47ec-af74-f15b869dc341"},"vehicle_type_id":"4","last_reported":1687298772,"current_range_meters":23200,"station_id":"ce4bhah2rcd13ifvqej0","pricing_plan_id":"free"},{"bike_id":"121785df-6b6a-4fbe-9eb3-c500b96f287f","system_id":"levelo_inurba_marseille","lat":43.286591,"lon":5.363346,"is_reserved":false,"is_disabled":false,"rental_uris":{"android":"levelo://app?vid=121785df-6b6a-4fbe-9eb3-c500b96f287f","ios":"levelo://app?vid=121785df-6b6a-4fbe-9eb3-c500b96f287f"},"vehicle_type_id":"4","last_reported":1687298772,"current_range_meters":12800,"station_id":"ce4bhah2rcd13ifvqej0","pricing_plan_id":"free"},{"bike_id":"bd2ee7eb-7fa8-40be-a24b-26778be6e827","system_id":"levelo_inurba_marseille","lat":43.286591,"lon":5.363346,"is_reserved":false,"is_disabled":false,"rental_uris":{"android":"levelo://app?vid=bd2ee7eb-7fa8-40be-a24b-26778be6e827","ios":"levelo://app?vid=bd2ee7eb-7fa8-40be-a24b-26778be6e827"},"vehicle_type_id":"4","last_reported":1687298772,"current_range_meters":31600,"station_id":"ce4bhah2rcd13ifvqej0","pricing_plan_id":"free"},{"bike_id":"26a78582-e2ee-4495-bc9e-2daf0c692872","system_id":"levelo_inurba_marseille","lat":43.286593,"lon":5.363346,"is_reserved":false,"is_disabled":false,"rental_uris":{"android":"levelo://app?vid=26a78582-e2ee-4495-bc9e-2daf0c692872","ios":"levelo://app?vid=26a78582-e2ee-4495-bc9e-2daf0c692872"},"vehicle_type_id":"4","last_reported":1687298772,"current_range_meters":21600,"station_id":"ce4bhah2rcd13ifvqej0","pricing_plan_id":"free"},{"bike_id":"9f64c7a6-dfc2-44e0-ab4f-76a3d1d3f591","system_id":"levelo_inurba_marseille","lat":43.286591,"lon":5.363346,"is_reserved":false,"is_disabled":false,"rental_uris":{"android":"levelo://app?vid=9f64c7a6-dfc2-44e0-ab4f-76a3d1d3f591","ios":"levelo://app?vid=9f64c7a6-dfc2-44e0-ab4f-76a3d1d3f591"},"vehicle_type_id":"4","last_reported":1687298772,"current_range_meters":21600,"station_id":"ce4bhah2rcd13ifvqej0","pricing_plan_id":"free"},{"bike_id":"222cbce9-7315-4a61-b40e-40b441f1422a","system_id":"levelo_inurba_marseille","lat":43.286591,"lon":5.363346,"is_reserved":false,"is_disabled":false,"rental_uris":{"android":"levelo://app?vid=222cbce9-7315-4a61-b40e-40b441f1422a","ios":"levelo://app?vid=222cbce9-7315-4a61-b40e-40b441f1422a"},"vehicle_type_id":"4","last_reported":1687298772,"current_range_meters":26400,"station_id":"ce4bhah2rcd13ifvqej0","pricing_plan_id":"free"},{"bike_id":"56c74675-01a4-45e4-bce8-c5c7335a422d","system_id":"levelo_inurba_marseille","lat":43.286593,"lon":5.363346,"is_reserved":false,"is_disabled":false,"rental_uris":{"android":"levelo://app?vid=56c74675-01a4-45e4-bce8-c5c7335a422d","ios":"levelo://app?vid=56c74675-01a4-45e4-bce8-c5c7335a422d"},"vehicle_type_id":"4","last_reported":1687298772,"current_range_meters":31200,"station_id":"ce4bhah2rcd13ifvqej0","pricing_plan_id":"free"},{"bike_id":"c76037a2-c80a-4d84-90f5-00474b839724","system_id":"levelo_inurba_marseille","lat":43.28702,"lon":5.37392,"is_reserved":false,"is_disabled":false,"rental_uris":{"android":"levelo://app?vid=c76037a2-c80a-4d84-90f5-00474b839724","ios":"levelo://app?vid=c76037a2-c80a-4d84-90f5-00474b839724"},"vehicle_type_id":"4","last_reported":1687298772,"current_range_meters":28400,"station_id":"ce4bh3p2rcd13ifvqdq0","pricing_plan_id":"free"},{"bike_id":"9c50dd7f-6236-4fbd-bae3-a811819130fa","system_id":"levelo_inurba_marseille","lat":43.29867,"lon":5.39736,"is_reserved":false,"is_disabled":false,"rental_uris":{"android":"levelo://app?vid=9c50dd7f-6236-4fbd-bae3-a811819130fa","ios":"levelo://app?vid=9c50dd7f-6236-4fbd-bae3-a811819130fa"},"vehicle_type_id":"4","last_reported":1687298772,"current_range_meters":400,"station_id":"ce4bh0h2rcd13ifvqd50","pricing_plan_id":"free"},{"bike_id":"5054e3ca-0890-4b45-969a-d7115d72bb9a","system_id":"levelo_inurba_marseille","lat":43.286961,"lon":5.373785,"is_reserved":false,"is_disabled":false,"rental_uris":{"android":"levelo://app?vid=5054e3ca-0890-4b45-969a-d7115d72bb9a","ios":"levelo://app?vid=5054e3ca-0890-4b45-969a-d7115d72bb9a"},"vehicle_type_id":"4","last_reported":1687298772,"current_range_meters":31200,"station_id":"ce4bh3p2rcd13ifvqdq0","pricing_plan_id":"free"},{"bike_id":"7b0761ec-5c08-4240-9563-19008f714a9c","system_id":"levelo_inurba_marseille","lat":43.286593,"lon":5.363346,"is_reserved":false,"is_disabled":false,"rental_uris":{"android":"levelo://app?vid=7b0761ec-5c08-4240-9563-19008f714a9c","ios":"levelo://app?vid=7b0761ec-5c08-4240-9563-19008f714a9c"},"vehicle_type_id":"4","last_reported":1687298772,"current_range_meters":16800,"station_id":"ce4bhah2rcd13ifvqej0","pricing_plan_id":"free"},{"bike_id":"fa020c06-37eb-41fb-9859-3646690505db","system_id":"levelo_inurba_marseille","lat":43.286961,"lon":5.373785,"is_reserved":false,"is_disabled":false,"rental_uris":{"android":"levelo://app?vid=fa020c06-37eb-41fb-9859-3646690505db","ios":"levelo://app?vid=fa020c06-37eb-41fb-9859-3646690505db"},"vehicle_type_id":"4","last_reported":1687298772,"current_range_meters":30000,"station_id":"ce4bh3p2rcd13ifvqdq0","pricing_plan_id":"free"},{"bike_id":"e3ec115b-dc29-4a3f-b07f-92adf2051303","system_id":"levelo_inurba_marseille","lat":43.286961,"lon":5.373785,"is_reserved":false,"is_disabled":false,"rental_uris":{"android":"levelo://app?vid=e3ec115b-dc29-4a3f-b07f-92adf2051303","ios":"levelo://app?vid=e3ec115b-dc29-4a3f-b07f-92adf2051303"},"vehicle_type_id":"4","last_reported":1687298772,"current_range_meters":25600,"station_id":"ce4bh3p2rcd13ifvqdq0","pricing_plan_id":"free"},{"bike_id":"c5b3dfcf-7545-4dd0-af2c-140a135ff17b","system_id":"levelo_inurba_marseille","lat":43.286039,"lon":5.370679,"is_reserved":false,"is_disabled":false,"rental_uris":{"android":"levelo://app?vid=c5b3dfcf-7545-4dd0-af2c-140a135ff17b","ios":"levelo://app?vid=c5b3dfcf-7545-4dd0-af2c-140a135ff17b"},"vehicle_type_id":"4","last_reported":1687298772,"current_range_meters":13200,"station_id":"ce4bht12rcd13ifvqi60","pricing_plan_id":"free"},{"bike_id":"e98b1d69-bde9-457a-9287-1b24b6f85e96","system_id":"levelo_inurba_marseille","lat":43.286039,"lon":5.370679,"is_reserved":false,"is_disabled":false,"rental_uris":{"android":"levelo://app?vid=e98b1d69-bde9-457a-9287-1b24b6f85e96","ios":"levelo://app?vid=e98b1d69-bde9-457a-9287-1b24b6f85e96"},"vehicle_type_id":"4","last_reported":1687298772,"current_range_meters":28400,"station_id":"ce4bht12rcd13ifvqi60","pricing_plan_id":"free"},{"bike_id":"5626af29-9ded-4339-8a4f-ae5eb09432c3","system_id":"levelo_inurba_marseille","lat":43.286039,"lon":5.370679,"is_reserved":false,"is_disabled":false,"rental_uris":{"android":"levelo://app?vid=5626af29-9ded-4339-8a4f-ae5eb09432c3","ios":"levelo://app?vid=5626af29-9ded-4339-8a4f-ae5eb09432c3"},"vehicle_type_id":"4","last_reported":1687298772,"current_range_meters":31200,"station_id":"ce4bht12rcd13ifvqi60","pricing_plan_id":"free"},{"bike_id":"e9bfbcd4-ff0c-4a60-a7fe-f90d864174f3","system_id":"levelo_inurba_marseille","lat":43.286039,"lon":5.370679,"is_reserved":false,"is_disabled":false,"rental_uris":{"android":"levelo://app?vid=e9bfbcd4-ff0c-4a60-a7fe-f90d864174f3","ios":"levelo://app?vid=e9bfbcd4-ff0c-4a60-a7fe-f90d864174f3"},"vehicle_type_id":"4","last_reported":1687298772,"current_range_meters":29200,"station_id":"ce4bht12rcd13ifvqi60","pricing_plan_id":"free"},{"bike_id":"4470a268-52ac-4b4d-b391-507b4e65c3d1","system_id":"levelo_inurba_marseille","lat":43.28599,"lon":5.37065,"is_reserved":false,"is_disabled":false,"rental_uris":{"android":"levelo://app?vid=4470a268-52ac-4b4d-b391-507b4e65c3d1","ios":"levelo://app?vid=4470a268-52ac-4b4d-b391-507b4e65c3d1"},"vehicle_type_id":"4","last_reported":1687298772,"current_range_meters":0,"station_id":"ce4bht12rcd13ifvqi60","pricing_plan_id":"free"},{"bike_id":"0d78731c-4958-412c-b8cb-4b6e0d2acd93","system_id":"levelo_inurba_marseille","lat":43.28718,"lon":5.37924,"is_reserved":false,"is_disabled":false,"rental_uris":{"android":"levelo://app?vid=0d78731c-4958-412c-b8cb-4b6e0d2acd93","ios":"levelo://app?vid=0d78731c-4958-412c-b8cb-4b6e0d2acd93"},"vehicle_type_id":"4","last_reported":1687298772,"current_range_meters":20400,"station_id":"ce4bh9p2rcd13ifvqec0","pricing_plan_id":"free"},{"bike_id":"445b90ad-2356-4548-ac3c-fc8d3701e05e","system_id":"levelo_inurba_marseille","lat":43.287185,"lon":5.379373,"is_reserved":false,"is_disabled":false,"rental_uris":{"android":"levelo://app?vid=445b90ad-2356-4548-ac3c-fc8d3701e05e","ios":"levelo://app?vid=445b90ad-2356-4548-ac3c-fc8d3701e05e"},"vehicle_type_id":"4","last_reported":1687298772,"current_range_meters":28800,"station_id":"ce4bh9p2rcd13ifvqec0","pricing_plan_id":"free"},{"bike_id":"86549a6f-8609-4025-ba42-8c02f728877b","system_id":"levelo_inurba_marseille","lat":43.287184,"lon":5.37937,"is_reserved":false,"is_disabled":false,"rental_uris":{"android":"levelo://app?vid=86549a6f-8609-4025-ba42-8c02f728877b","ios":"levelo://app?vid=86549a6f-8609-4025-ba42-8c02f728877b"},"vehicle_type_id":"4","last_reported":1687298772,"current_range_meters":30400,"station_id":"ce4bh9p2rcd13ifvqec0","pricing_plan_id":"free"},{"bike_id":"7fcda8f7-a34e-4c9e-aea9-952595232152","system_id":"levelo_inurba_marseille","lat":43.287185,"lon":5.379373,"is_reserved":false,"is_disabled":false,"rental_uris":{"android":"levelo://app?vid=7fcda8f7-a34e-4c9e-aea9-952595232152","ios":"levelo://app?vid=7fcda8f7-a34e-4c9e-aea9-952595232152"},"vehicle_type_id":"4","last_reported":1687298772,"current_range_meters":3200,"station_id":"ce4bh9p2rcd13ifvqec0","pricing_plan_id":"free"},{"bike_id":"51d029d5-41ff-49a3-a951-eb022aa7328d","system_id":"levelo_inurba_marseille","lat":43.287185,"lon":5.379373,"is_reserved":false,"is_disabled":false,"rental_uris":{"android":"levelo://app?vid=51d029d5-41ff-49a3-a951-eb022aa7328d","ios":"levelo://app?vid=51d029d5-41ff-49a3-a951-eb022aa7328d"},"vehicle_type_id":"4","last_reported":1687298772,"current_range_meters":0,"station_id":"ce4bh9p2rcd13ifvqec0","pricing_plan_id":"free"},{"bike_id":"2a2a4594-1a48-4c4d-a4bf-30f640d25d6c","system_id":"levelo_inurba_marseille","lat":43.287185,"lon":5.379373,"is_reserved":false,"is_disabled":false,"rental_uris":{"android":"levelo://app?vid=2a2a4594-1a48-4c4d-a4bf-30f640d25d6c","ios":"levelo://app?vid=2a2a4594-1a48-4c4d-a4bf-30f640d25d6c"},"vehicle_type_id":"4","last_reported":1687298772,"current_range_meters":14000,"station_id":"ce4bh9p2rcd13ifvqec0","pricing_plan_id":"free"},{"bike_id":"d1d40392-0170-4db9-a2ae-8d0f9a061771","system_id":"levelo_inurba_marseille","lat":43.287184,"lon":5.37937,"is_reserved":false,"is_disabled":false,"rental_uris":{"android":"levelo://app?vid=d1d40392-0170-4db9-a2ae-8d0f9a061771","ios":"levelo://app?vid=d1d40392-0170-4db9-a2ae-8d0f9a061771"},"vehicle_type_id":"4","last_reported":1687298772,"current_range_meters":28000,"station_id":"ce4bh9p2rcd13ifvqec0","pricing_plan_id":"free"},{"bike_id":"c050a06d-2966-4981-ab84-274d645d1f95","system_id":"levelo_inurba_marseille","lat":43.287185,"lon":5.379373,"is_reserved":false,"is_disabled":false,"rental_uris":{"android":"levelo://app?vid=c050a06d-2966-4981-ab84-274d645d1f95","ios":"levelo://app?vid=c050a06d-2966-4981-ab84-274d645d1f95"},"vehicle_type_id":"4","last_reported":1687298772,"current_range_meters":21200,"station_id":"ce4bh9p2rcd13ifvqec0","pricing_plan_id":"free"},{"bike_id":"131d8996-5e35-441c-a8f1-dbeaae016096","system_id":"levelo_inurba_marseille","lat":43.287185,"lon":5.379373,"is_reserved":false,"is_disabled":false,"rental_uris":{"android":"levelo://app?vid=131d8996-5e35-441c-a8f1-dbeaae016096","ios":"levelo://app?vid=131d8996-5e35-441c-a8f1-dbeaae016096"},"vehicle_type_id":"4","last_reported":1687298772,"current_range_meters":8400,"station_id":"ce4bh9p2rcd13ifvqec0","pricing_plan_id":"free"},{"bike_id":"ac23a2fe-d4b3-4702-8441-b7ed9f4f0ee2","system_id":"levelo_inurba_marseille","lat":43.316517,"lon":5.404375,"is_reserved":false,"is_disabled":false,"rental_uris":{"android":"levelo://app?vid=ac23a2fe-d4b3-4702-8441-b7ed9f4f0ee2","ios":"levelo://app?vid=ac23a2fe-d4b3-4702-8441-b7ed9f4f0ee2"},"vehicle_type_id":"4","last_reported":1687298772,"current_range_meters":2800,"station_id":"ce4bh012rcd13ifvqd00","pricing_plan_id":"free"},{"bike_id":"42e53e8a-cb68-4246-ad90-cd31cd93bee4","system_id":"levelo_inurba_marseille","lat":43.3164,"lon":5.40434,"is_reserved":false,"is_disabled":false,"rental_uris":{"android":"levelo://app?vid=42e53e8a-cb68-4246-ad90-cd31cd93bee4","ios":"levelo://app?vid=42e53e8a-cb68-4246-ad90-cd31cd93bee4"},"vehicle_type_id":"4","last_reported":1687298772,"current_range_meters":31200,"station_id":"ce4bh012rcd13ifvqd00","pricing_plan_id":"free"},{"bike_id":"9fb656f8-2919-4b66-9d4b-9dd42d34ed48","system_id":"levelo_inurba_marseille","lat":43.316517,"lon":5.404375,"is_reserved":false,"is_disabled":false,"rental_uris":{"android":"levelo://app?vid=9fb656f8-2919-4b66-9d4b-9dd42d34ed48","ios":"levelo://app?vid=9fb656f8-2919-4b66-9d4b-9dd42d34ed48"},"vehicle_type_id":"4","last_reported":1687298772,"current_range_meters":11200,"station_id":"ce4bh012rcd13ifvqd00","pricing_plan_id":"free"},{"bike_id":"4c1a61a6-96b4-4329-80dd-11df3c2e496c","system_id":"levelo_inurba_marseille","lat":43.316517,"lon":5.404375,"is_reserved":false,"is_disabled":false,"rental_uris":{"android":"levelo://app?vid=4c1a61a6-96b4-4329-80dd-11df3c2e496c","ios":"levelo://app?vid=4c1a61a6-96b4-4329-80dd-11df3c2e496c"},"vehicle_type_id":"4","last_reported":1687298772,"current_range_meters":31200,"station_id":"ce4bh012rcd13ifvqd00","pricing_plan_id":"free"},{"bike_id":"26392303-4bd8-455c-a2e4-d1bcd7d58670","system_id":"levelo_inurba_marseille","lat":43.316517,"lon":5.404375,"is_reserved":false,"is_disabled":false,"rental_uris":{"android":"levelo://app?vid=26392303-4bd8-455c-a2e4-d1bcd7d58670","ios":"levelo://app?vid=26392303-4bd8-455c-a2e4-d1bcd7d58670"},"vehicle_type_id":"4","last_reported":1687298772,"current_range_meters":28800,"station_id":"ce4bh012rcd13ifvqd00","pricing_plan_id":"free"},{"bike_id":"4abea754-0f18-4956-95da-39d148da046e","system_id":"levelo_inurba_marseille","lat":43.316517,"lon":5.404375,"is_reserved":false,"is_disabled":false,"rental_uris":{"android":"levelo://app?vid=4abea754-0f18-4956-95da-39d148da046e","ios":"levelo://app?vid=4abea754-0f18-4956-95da-39d148da046e"},"vehicle_type_id":"4","last_reported":1687298772,"current_range_meters":31200,"station_id":"ce4bh012rcd13ifvqd00","pricing_plan_id":"free"},{"bike_id":"453525a5-259a-444f-8a44-108d3fc10b6f","system_id":"levelo_inurba_marseille","lat":43.316517,"lon":5.404375,"is_reserved":false,"is_disabled":false,"rental_uris":{"android":"levelo://app?vid=453525a5-259a-444f-8a44-108d3fc10b6f","ios":"levelo://app?vid=453525a5-259a-444f-8a44-108d3fc10b6f"},"vehicle_type_id":"4","last_reported":1687298772,"current_range_meters":0,"station_id":"ce4bh012rcd13ifvqd00","pricing_plan_id":"free"},{"bike_id":"2b64fdd5-1677-4d8c-b743-f129f3a6d392","system_id":"levelo_inurba_marseille","lat":43.3165,"lon":5.40443,"is_reserved":false,"is_disabled":false,"rental_uris":{"android":"levelo://app?vid=2b64fdd5-1677-4d8c-b743-f129f3a6d392","ios":"levelo://app?vid=2b64fdd5-1677-4d8c-b743-f129f3a6d392"},"vehicle_type_id":"4","last_reported":1687298772,"current_range_meters":27200,"station_id":"ce4bh012rcd13ifvqd00","pricing_plan_id":"free"},{"bike_id":"dbc36be9-8983-4139-86c6-009b393a223c","system_id":"levelo_inurba_marseille","lat":43.291994,"lon":5.392907,"is_reserved":false,"is_disabled":false,"rental_uris":{"android":"levelo://app?vid=dbc36be9-8983-4139-86c6-009b393a223c","ios":"levelo://app?vid=dbc36be9-8983-4139-86c6-009b393a223c"},"vehicle_type_id":"4","last_reported":1687298772,"current_range_meters":24400,"station_id":"ce4bh192rcd13ifvqdd0","pricing_plan_id":"free"},{"bike_id":"d0e6035a-c593-45ce-87e3-5ec026dd528a","system_id":"levelo_inurba_marseille","lat":43.291994,"lon":5.392907,"is_reserved":false,"is_disabled":false,"rental_uris":{"android":"levelo://app?vid=d0e6035a-c593-45ce-87e3-5ec026dd528a","ios":"levelo://app?vid=d0e6035a-c593-45ce-87e3-5ec026dd528a"},"vehicle_type_id":"4","last_reported":1687298772,"current_range_meters":0,"station_id":"ce4bh192rcd13ifvqdd0","pricing_plan_id":"free"},{"bike_id":"f8cd5ee8-1494-4aaf-b6f0-d2f6cac5a854","system_id":"levelo_inurba_marseille","lat":43.291994,"lon":5.392907,"is_reserved":false,"is_disabled":false,"rental_uris":{"android":"levelo://app?vid=f8cd5ee8-1494-4aaf-b6f0-d2f6cac5a854","ios":"levelo://app?vid=f8cd5ee8-1494-4aaf-b6f0-d2f6cac5a854"},"vehicle_type_id":"4","last_reported":1687298772,"current_range_meters":23600,"station_id":"ce4bh192rcd13ifvqdd0","pricing_plan_id":"free"},{"bike_id":"977ca164-b874-4cd1-b7a4-044a420377d1","system_id":"levelo_inurba_marseille","lat":43.29192,"lon":5.39328,"is_reserved":false,"is_disabled":false,"rental_uris":{"android":"levelo://app?vid=977ca164-b874-4cd1-b7a4-044a420377d1","ios":"levelo://app?vid=977ca164-b874-4cd1-b7a4-044a420377d1"},"vehicle_type_id":"4","last_reported":1687298772,"current_range_meters":26400,"station_id":"ce4bh192rcd13ifvqdd0","pricing_plan_id":"free"},{"bike_id":"a7fc1897-79df-49f5-b5a0-3a86b7ed938b","system_id":"levelo_inurba_marseille","lat":43.33348,"lon":5.39375,"is_reserved":false,"is_disabled":false,"rental_uris":{"android":"levelo://app?vid=a7fc1897-79df-49f5-b5a0-3a86b7ed938b","ios":"levelo://app?vid=a7fc1897-79df-49f5-b5a0-3a86b7ed938b"},"vehicle_type_id":"4","last_reported":1687298772,"current_range_meters":0,"station_id":"","pricing_plan_id":"free"},{"bike_id":"06803be0-9b72-4d0b-a2b6-390e6a5c9ee3","system_id":"levelo_inurba_marseille","lat":43.28473,"lon":5.35873,"is_reserved":false,"is_disabled":false,"rental_uris":{"android":"levelo://app?vid=06803be0-9b72-4d0b-a2b6-390e6a5c9ee3","ios":"levelo://app?vid=06803be0-9b72-4d0b-a2b6-390e6a5c9ee3"},"vehicle_type_id":"4","last_reported":1687298772,"current_range_meters":20800,"station_id":"ce4bhah2rcd13ifvqei0","pricing_plan_id":"free"},{"bike_id":"d2ee41f7-506f-45d6-81a9-b4b3e31a5812","system_id":"levelo_inurba_marseille","lat":43.28461,"lon":5.35894,"is_reserved":false,"is_disabled":false,"rental_uris":{"android":"levelo://app?vid=d2ee41f7-506f-45d6-81a9-b4b3e31a5812","ios":"levelo://app?vid=d2ee41f7-506f-45d6-81a9-b4b3e31a5812"},"vehicle_type_id":"4","last_reported":1687298772,"current_range_meters":26400,"station_id":"ce4bhah2rcd13ifvqei0","pricing_plan_id":"free"},{"bike_id":"78e17254-29a2-4b88-9cf1-ae8e54ec40d5","system_id":"levelo_inurba_marseille","lat":43.284534,"lon":5.358662,"is_reserved":false,"is_disabled":false,"rental_uris":{"android":"levelo://app?vid=78e17254-29a2-4b88-9cf1-ae8e54ec40d5","ios":"levelo://app?vid=78e17254-29a2-4b88-9cf1-ae8e54ec40d5"},"vehicle_type_id":"4","last_reported":1687298772,"current_range_meters":26400,"station_id":"ce4bhah2rcd13ifvqei0","pricing_plan_id":"free"},{"bike_id":"2c3ed080-3326-4675-b179-db3f98306890","system_id":"levelo_inurba_marseille","lat":43.2846,"lon":5.35894,"is_reserved":false,"is_disabled":false,"rental_uris":{"android":"levelo://app?vid=2c3ed080-3326-4675-b179-db3f98306890","ios":"levelo://app?vid=2c3ed080-3326-4675-b179-db3f98306890"},"vehicle_type_id":"4","last_reported":1687298772,"current_range_meters":15200,"station_id":"ce4bhah2rcd13ifvqei0","pricing_plan_id":"free"},{"bike_id":"ebcbeabd-7cc6-4487-9e16-fa01c35244f2","system_id":"levelo_inurba_marseille","lat":43.284534,"lon":5.358662,"is_reserved":false,"is_disabled":false,"rental_uris":{"android":"levelo://app?vid=ebcbeabd-7cc6-4487-9e16-fa01c35244f2","ios":"levelo://app?vid=ebcbeabd-7cc6-4487-9e16-fa01c35244f2"},"vehicle_type_id":"4","last_reported":1687298772,"current_range_meters":20000,"station_id":"ce4bhah2rcd13ifvqei0","pricing_plan_id":"free"},{"bike_id":"4ef3663b-58f7-4278-9bc2-98f3e6eafaef","system_id":"levelo_inurba_marseille","lat":43.284534,"lon":5.358662,"is_reserved":false,"is_disabled":false,"rental_uris":{"android":"levelo://app?vid=4ef3663b-58f7-4278-9bc2-98f3e6eafaef","ios":"levelo://app?vid=4ef3663b-58f7-4278-9bc2-98f3e6eafaef"},"vehicle_type_id":"4","last_reported":1687298772,"current_range_meters":2800,"station_id":"ce4bhah2rcd13ifvqei0","pricing_plan_id":"free"},{"bike_id":"c45c133c-7e18-4892-ad2a-838c1064d748","system_id":"levelo_inurba_marseille","lat":43.28458,"lon":5.35891,"is_reserved":false,"is_disabled":false,"rental_uris":{"android":"levelo://app?vid=c45c133c-7e18-4892-ad2a-838c1064d748","ios":"levelo://app?vid=c45c133c-7e18-4892-ad2a-838c1064d748"},"vehicle_type_id":"4","last_reported":1687298772,"current_range_meters":17600,"station_id":"ce4bhah2rcd13ifvqei0","pricing_plan_id":"free"},{"bike_id":"31409284-7f02-4b13-b154-1874643c957c","system_id":"levelo_inurba_marseille","lat":43.28447,"lon":5.37446,"is_reserved":false,"is_disabled":false,"rental_uris":{"android":"levelo://app?vid=31409284-7f02-4b13-b154-1874643c957c","ios":"levelo://app?vid=31409284-7f02-4b13-b154-1874643c957c"},"vehicle_type_id":"4","last_reported":1687298772,"current_range_meters":28800,"station_id":"ce4bh412rcd13ifvqds0","pricing_plan_id":"free"},{"bike_id":"06c1b198-ede7-4a07-8f61-8caabe619297","system_id":"levelo_inurba_marseille","lat":43.285856,"lon":5.350771,"is_reserved":false,"is_disabled":false,"rental_uris":{"android":"levelo://app?vid=06c1b198-ede7-4a07-8f61-8caabe619297","ios":"levelo://app?vid=06c1b198-ede7-4a07-8f61-8caabe619297"},"vehicle_type_id":"4","last_reported":1687298772,"current_range_meters":3200,"station_id":"ce4bhch2rcd13ifvqeug","pricing_plan_id":"free"},{"bike_id":"c96c6ebf-83f7-404e-9329-5804e32057fd","system_id":"levelo_inurba_marseille","lat":43.283998,"lon":5.375062,"is_reserved":false,"is_disabled":false,"rental_uris":{"android":"levelo://app?vid=c96c6ebf-83f7-404e-9329-5804e32057fd","ios":"levelo://app?vid=c96c6ebf-83f7-404e-9329-5804e32057fd"},"vehicle_type_id":"4","last_reported":1687298772,"current_range_meters":18400,"station_id":"ce4bh412rcd13ifvqds0","pricing_plan_id":"free"},{"bike_id":"e145ee82-b278-441b-a5e7-00c4b1ffcf19","system_id":"levelo_inurba_marseille","lat":43.283998,"lon":5.375062,"is_reserved":false,"is_disabled":false,"rental_uris":{"android":"levelo://app?vid=e145ee82-b278-441b-a5e7-00c4b1ffcf19","ios":"levelo://app?vid=e145ee82-b278-441b-a5e7-00c4b1ffcf19"},"vehicle_type_id":"4","last_reported":1687298772,"current_range_meters":31200,"station_id":"ce4bh412rcd13ifvqds0","pricing_plan_id":"free"},{"bike_id":"1868ebe4-a43e-44a1-af52-4291b108813e","system_id":"levelo_inurba_marseille","lat":43.28411,"lon":5.37524,"is_reserved":false,"is_disabled":false,"rental_uris":{"android":"levelo://app?vid=1868ebe4-a43e-44a1-af52-4291b108813e","ios":"levelo://app?vid=1868ebe4-a43e-44a1-af52-4291b108813e"},"vehicle_type_id":"4","last_reported":1687298772,"current_range_meters":31200,"station_id":"ce4bh412rcd13ifvqds0","pricing_plan_id":"free"},{"bike_id":"05d09213-c085-4458-bbe4-964304b7d429","system_id":"levelo_inurba_marseille","lat":43.2841,"lon":5.37521,"is_reserved":false,"is_disabled":false,"rental_uris":{"android":"levelo://app?vid=05d09213-c085-4458-bbe4-964304b7d429","ios":"levelo://app?vid=05d09213-c085-4458-bbe4-964304b7d429"},"vehicle_type_id":"4","last_reported":1687298772,"current_range_meters":14800,"station_id":"ce4bh412rcd13ifvqds0","pricing_plan_id":"free"},{"bike_id":"7a928a9f-ea3f-45df-af15-66bb1b53c0cb","system_id":"levelo_inurba_marseille","lat":43.28399,"lon":5.37521,"is_reserved":false,"is_disabled":false,"rental_uris":{"android":"levelo://app?vid=7a928a9f-ea3f-45df-af15-66bb1b53c0cb","ios":"levelo://app?vid=7a928a9f-ea3f-45df-af15-66bb1b53c0cb"},"vehicle_type_id":"4","last_reported":1687298772,"current_range_meters":30800,"station_id":"ce4bh412rcd13ifvqds0","pricing_plan_id":"free"},{"bike_id":"48ddc696-db94-402e-9a2d-6dd4324d67dc","system_id":"levelo_inurba_marseille","lat":43.28399,"lon":5.37538,"is_reserved":false,"is_disabled":false,"rental_uris":{"android":"levelo://app?vid=48ddc696-db94-402e-9a2d-6dd4324d67dc","ios":"levelo://app?vid=48ddc696-db94-402e-9a2d-6dd4324d67dc"},"vehicle_type_id":"4","last_reported":1687298772,"current_range_meters":30800,"station_id":"ce4bh412rcd13ifvqds0","pricing_plan_id":"free"},{"bike_id":"a0294cbe-ddff-445e-81c2-60a75d245509","system_id":"levelo_inurba_marseille","lat":43.32183,"lon":5.40585,"is_reserved":false,"is_disabled":false,"rental_uris":{"android":"levelo://app?vid=a0294cbe-ddff-445e-81c2-60a75d245509","ios":"levelo://app?vid=a0294cbe-ddff-445e-81c2-60a75d245509"},"vehicle_type_id":"4","last_reported":1687298772,"current_range_meters":16800,"station_id":"","pricing_plan_id":"free"},{"bike_id":"90410345-3e87-4eac-a2d8-f7a3dc93042e","system_id":"levelo_inurba_marseille","lat":43.286595,"lon":5.386795,"is_reserved":false,"is_disabled":false,"rental_uris":{"android":"levelo://app?vid=90410345-3e87-4eac-a2d8-f7a3dc93042e","ios":"levelo://app?vid=90410345-3e87-4eac-a2d8-f7a3dc93042e"},"vehicle_type_id":"4","last_reported":1687298772,"current_range_meters":12800,"station_id":"ce4bh492rcd13ifvqdug","pricing_plan_id":"free"},{"bike_id":"4b1abbdb-790f-4b2f-be7a-456ada772288","system_id":"levelo_inurba_marseille","lat":43.286595,"lon":5.386795,"is_reserved":false,"is_disabled":false,"rental_uris":{"android":"levelo://app?vid=4b1abbdb-790f-4b2f-be7a-456ada772288","ios":"levelo://app?vid=4b1abbdb-790f-4b2f-be7a-456ada772288"},"vehicle_type_id":"4","last_reported":1687298772,"current_range_meters":16800,"station_id":"ce4bh492rcd13ifvqdug","pricing_plan_id":"free"},{"bike_id":"f6fda2f2-04f1-4377-bae3-2fc212d95c47","system_id":"levelo_inurba_marseille","lat":43.34237,"lon":5.36194,"is_reserved":false,"is_disabled":false,"rental_uris":{"android":"levelo://app?vid=f6fda2f2-04f1-4377-bae3-2fc212d95c47","ios":"levelo://app?vid=f6fda2f2-04f1-4377-bae3-2fc212d95c47"},"vehicle_type_id":"4","last_reported":1687298772,"current_range_meters":9200,"station_id":"","pricing_plan_id":"free"},{"bike_id":"1b5cab66-590b-460a-9914-864900fba592","system_id":"levelo_inurba_marseille","lat":43.33721,"lon":5.3919,"is_reserved":false,"is_disabled":false,"rental_uris":{"android":"levelo://app?vid=1b5cab66-590b-460a-9914-864900fba592","ios":"levelo://app?vid=1b5cab66-590b-460a-9914-864900fba592"},"vehicle_type_id":"4","last_reported":1687298772,"current_range_meters":7200,"station_id":"","pricing_plan_id":"free"},{"bike_id":"d7b29256-fc07-4272-a85c-ecffd4d1832a","system_id":"levelo_inurba_marseille","lat":43.33725,"lon":5.39189,"is_reserved":false,"is_disabled":false,"rental_uris":{"android":"levelo://app?vid=d7b29256-fc07-4272-a85c-ecffd4d1832a","ios":"levelo://app?vid=d7b29256-fc07-4272-a85c-ecffd4d1832a"},"vehicle_type_id":"4","last_reported":1687298772,"current_range_meters":10400,"station_id":"","pricing_plan_id":"free"},{"bike_id":"64766038-4d37-4bbb-8324-fdd09852a999","system_id":"levelo_inurba_marseille","lat":43.33725,"lon":5.39193,"is_reserved":false,"is_disabled":false,"rental_uris":{"android":"levelo://app?vid=64766038-4d37-4bbb-8324-fdd09852a999","ios":"levelo://app?vid=64766038-4d37-4bbb-8324-fdd09852a999"},"vehicle_type_id":"4","last_reported":1687298772,"current_range_meters":16400,"station_id":"","pricing_plan_id":"free"},{"bike_id":"394c15be-f870-4e21-ac8c-9af2cb0e0f03","system_id":"levelo_inurba_marseille","lat":43.284793,"lon":5.384119,"is_reserved":false,"is_disabled":false,"rental_uris":{"android":"levelo://app?vid=394c15be-f870-4e21-ac8c-9af2cb0e0f03","ios":"levelo://app?vid=394c15be-f870-4e21-ac8c-9af2cb0e0f03"},"vehicle_type_id":"4","last_reported":1687298772,"current_range_meters":8800,"station_id":"ce4bh512rcd13ifvqe3g","pricing_plan_id":"free"},{"bike_id":"80ff7286-f7ff-4410-80d4-2d890c218cb0","system_id":"levelo_inurba_marseille","lat":43.288497,"lon":5.393089,"is_reserved":false,"is_disabled":false,"rental_uris":{"android":"levelo://app?vid=80ff7286-f7ff-4410-80d4-2d890c218cb0","ios":"levelo://app?vid=80ff7286-f7ff-4410-80d4-2d890c218cb0"},"vehicle_type_id":"4","last_reported":1687298772,"current_range_meters":22400,"station_id":"ce4bh2p2rcd13ifvqdi0","pricing_plan_id":"free"},{"bike_id":"c20988c7-8ac1-4781-8fb7-5e468ba66e37","system_id":"levelo_inurba_marseille","lat":43.28848,"lon":5.393,"is_reserved":false,"is_disabled":false,"rental_uris":{"android":"levelo://app?vid=c20988c7-8ac1-4781-8fb7-5e468ba66e37","ios":"levelo://app?vid=c20988c7-8ac1-4781-8fb7-5e468ba66e37"},"vehicle_type_id":"4","last_reported":1687298772,"current_range_meters":800,"station_id":"ce4bh2p2rcd13ifvqdi0","pricing_plan_id":"free"},{"bike_id":"00b4d942-d645-4a17-a320-9c02b5ecca68","system_id":"levelo_inurba_marseille","lat":43.288501,"lon":5.393087,"is_reserved":false,"is_disabled":false,"rental_uris":{"android":"levelo://app?vid=00b4d942-d645-4a17-a320-9c02b5ecca68","ios":"levelo://app?vid=00b4d942-d645-4a17-a320-9c02b5ecca68"},"vehicle_type_id":"4","last_reported":1687298772,"current_range_meters":12800,"station_id":"ce4bh2p2rcd13ifvqdi0","pricing_plan_id":"free"},{"bike_id":"26559c6d-a53f-4b01-ab5a-efbfdbb61350","system_id":"levelo_inurba_marseille","lat":43.283498,"lon":5.380948,"is_reserved":false,"is_disabled":false,"rental_uris":{"android":"levelo://app?vid=26559c6d-a53f-4b01-ab5a-efbfdbb61350","ios":"levelo://app?vid=26559c6d-a53f-4b01-ab5a-efbfdbb61350"},"vehicle_type_id":"4","last_reported":1687298772,"current_range_meters":22400,"station_id":"ce4bh412rcd13ifvqdr0","pricing_plan_id":"free"},{"bike_id":"3d4c0f70-8e1c-43ed-85bb-8f137e214c26","system_id":"levelo_inurba_marseille","lat":43.283498,"lon":5.380948,"is_reserved":false,"is_disabled":false,"rental_uris":{"android":"levelo://app?vid=3d4c0f70-8e1c-43ed-85bb-8f137e214c26","ios":"levelo://app?vid=3d4c0f70-8e1c-43ed-85bb-8f137e214c26"},"vehicle_type_id":"4","last_reported":1687298772,"current_range_meters":3200,"station_id":"ce4bh412rcd13ifvqdr0","pricing_plan_id":"free"},{"bike_id":"475b6568-0f90-4add-a6be-0ca00a4dbb4f","system_id":"levelo_inurba_marseille","lat":43.283498,"lon":5.380948,"is_reserved":false,"is_disabled":false,"rental_uris":{"android":"levelo://app?vid=475b6568-0f90-4add-a6be-0ca00a4dbb4f","ios":"levelo://app?vid=475b6568-0f90-4add-a6be-0ca00a4dbb4f"},"vehicle_type_id":"4","last_reported":1687298772,"current_range_meters":31600,"station_id":"ce4bh412rcd13ifvqdr0","pricing_plan_id":"free"},{"bike_id":"e9e2d1ba-de81-40b5-8285-9e3d6d18de7b","system_id":"levelo_inurba_marseille","lat":43.284217,"lon":5.349697,"is_reserved":false,"is_disabled":false,"rental_uris":{"android":"levelo://app?vid=e9e2d1ba-de81-40b5-8285-9e3d6d18de7b","ios":"levelo://app?vid=e9e2d1ba-de81-40b5-8285-9e3d6d18de7b"},"vehicle_type_id":"4","last_reported":1687298772,"current_range_meters":0,"station_id":"ce4bhbh2rcd13ifvqepg","pricing_plan_id":"free"},{"bike_id":"16e5fedd-6e86-436a-a0a2-72c7cd60a6ea","system_id":"levelo_inurba_marseille","lat":43.32179,"lon":5.40792,"is_reserved":false,"is_disabled":false,"rental_uris":{"android":"levelo://app?vid=16e5fedd-6e86-436a-a0a2-72c7cd60a6ea","ios":"levelo://app?vid=16e5fedd-6e86-436a-a0a2-72c7cd60a6ea"},"vehicle_type_id":"4","last_reported":1687298772,"current_range_meters":22400,"station_id":"","pricing_plan_id":"free"},{"bike_id":"8577cf8d-a966-4978-94d5-36c11137a373","system_id":"levelo_inurba_marseille","lat":43.289363,"lon":5.396322,"is_reserved":false,"is_disabled":false,"rental_uris":{"android":"levelo://app?vid=8577cf8d-a966-4978-94d5-36c11137a373","ios":"levelo://app?vid=8577cf8d-a966-4978-94d5-36c11137a373"},"vehicle_type_id":"4","last_reported":1687298772,"current_range_meters":30000,"station_id":"ce4bh3h2rcd13ifvqdn0","pricing_plan_id":"free"},{"bike_id":"0704cf56-ea49-4e99-9c19-e0b78038c8dc","system_id":"levelo_inurba_marseille","lat":43.283502,"lon":5.386471,"is_reserved":false,"is_disabled":false,"rental_uris":{"android":"levelo://app?vid=0704cf56-ea49-4e99-9c19-e0b78038c8dc","ios":"levelo://app?vid=0704cf56-ea49-4e99-9c19-e0b78038c8dc"},"vehicle_type_id":"4","last_reported":1687298772,"current_range_meters":31200,"station_id":"ce4bh492rcd13ifvqdvg","pricing_plan_id":"free"},{"bike_id":"7717bc46-1c2c-462a-b988-44f11204d0ca","system_id":"levelo_inurba_marseille","lat":43.282754,"lon":5.350519,"is_reserved":false,"is_disabled":false,"rental_uris":{"android":"levelo://app?vid=7717bc46-1c2c-462a-b988-44f11204d0ca","ios":"levelo://app?vid=7717bc46-1c2c-462a-b988-44f11204d0ca"},"vehicle_type_id":"4","last_reported":1687298772,"current_range_meters":4000,"station_id":"ce4bhbp2rcd13ifvqerg","pricing_plan_id":"free"},{"bike_id":"c068aede-2c1a-4724-9849-2d42f3595acc","system_id":"levelo_inurba_marseille","lat":43.283502,"lon":5.386471,"is_reserved":false,"is_disabled":false,"rental_uris":{"android":"levelo://app?vid=c068aede-2c1a-4724-9849-2d42f3595acc","ios":"levelo://app?vid=c068aede-2c1a-4724-9849-2d42f3595acc"},"vehicle_type_id":"4","last_reported":1687298772,"current_range_meters":31200,"station_id":"ce4bh492rcd13ifvqdvg","pricing_plan_id":"free"},