{"last_updated":1761157036,"ttl":60,"version":"2.2","data":{"bikes":[{"bike_id":"ce4510e0-6015-4e47-8015-44d4b93179a9","system_id":"levelo_inurba_marseille","lat":43.30332,"lon":5.40448,"is_reserved":false,"is_disabled":false,"rental_uris":{"android":"levelo://app?vid=ce4510e0-6015-4e47-8015-44d4b93179a9","ios":"levelo://app?vid=ce4510e0-6015-4e47-8015-44d4b93179a9"},"vehicle_type_id":"4","last_reported":1761157036,"current_range_meters":2800,"station_id":"ce4bh012rcd13ifvqd10","pricing_plan_id":"cebpf4jnsgd1na2vs0mg"},{"bike_id":"6e2ec9a5-b717-49d6-9bcd-0a8edd5596f4","system_id":"levelo_inurba_marseille","lat":43.29306,"lon":5.37168,"is_reserved":false,"is_disabled":false,"rental_uris":{"android":"levelo://app?vid=6e2ec9a5-b717-49d6-9bcd-0a8edd5596f4","ios":"levelo://app?vid=6e2ec9a5-b717-49d6-9bcd-0a8edd5596f4"},"vehicle_type_id":"4","last_reported":1761157036,"current_range_meters":2800,"station_id":"ce4bgh92rcd13ifvqb40","pricing_plan_id":"cebpf4jnsgd1na2vs0mg"},{"bike_id":"63a6e951-8091-476f-a8cb-bf1c5c6ff639","system_id":"levelo_inurba_marseille","lat":43.31165,"lon":5.38725,"is_reserved":false,"is_disabled":false,"rental_uris":{"android":"levelo://app?vid=63a6e951-8091-476f-a8cb-bf1c5c6ff639","ios":"levelo://app?vid=63a6e951-8091-476f-a8cb-bf1c5c6ff639"},"vehicle_type_id":"4","last_reported":1761157036,"current_range_meters":2800,"station_id":"ce4bgv12rcd13ifvqcp0","pricing_plan_id":"cebpf4jnsgd1na2vs0mg"},{"bike_id":"76e793c3-127e-4520-9143-1c1b4960ae4c","system_id":"levelo_inurba_marseille","lat":43.30415,"lon":5.41287,"is_reserved":false,"is_disabled":false,"rental_uris":{"android":"levelo://app?vid=76e793c3-127e-4520-9143-1c1b4960ae4c","ios":"levelo://app?vid=76e793c3-127e-4520-9143-1c1b4960ae4c"},"vehicle_type_id":"4","last_reported":1761157036,"current_range_meters":2800,"station_id":"ce4bhop2rcd13ifvqh8g","pricing_plan_id":"cebpf4jnsgd1na2vs0mg"},{"bike_id":"e32daa48-e1c9-4658-8353-bf4227beda98","system_id":"levelo_inurba_marseille","lat":43.31477,"lon":5.37315,"is_reserved":false,"is_disabled":false,"rental_uris":{"android":"levelo://app?vid=e32daa48-e1c9-4658-8353-bf4227beda98","ios":"levelo://app?vid=e32daa48-e1c9-4658-8353-bf4227beda98"},"vehicle_type_id":"4","last_reported":1761157036,"current_range_meters":2800,"station_id":"ce4bgt12rcd13ifvqcd0","pricing_plan_id":"cebpf4jnsgd1na2vs0mg"},{"bike_id":"8ba4c56e-dc53-4311-86fb-7c960ae781c2","system_id":"levelo_inurba_marseille","lat":43.28444,"lon":5.39192,"is_reserved":false,"is_disabled":false,"rental_uris":{"android":"levelo://app?vid=8ba4c56e-dc53-4311-86fb-7c960ae781c2","ios":"levelo://app?vid=8ba4c56e-dc53-4311-86fb-7c960ae781c2"},"vehicle_type_id":"4","last_reported":1761157036,"current_range_meters":2800,"station_id":"ce4bhoh2rcd13ifvqh5g","pricing_plan_id":"cebpf4jnsgd1na2vs0mg"},{"bike_id":"8323816b-1b86-483c-8545-665a16217aff","system_id":"levelo_inurba_marseille","lat":43.29261,"lon":5.38443,"is_reserved":false,"is_disabled":false,"rental_uris":{"android":"levelo://app?vid=8323816b-1b86-483c-8545-665a16217aff","ios":"levelo://app?vid=8323816b-1b86-483c-8545-665a16217aff"},"vehicle_type_id":"4","last_reported":1761157036,"current_range_meters":3200,"station_id":"ce4bh692rcd13ifvqea0","pricing_plan_id":"cebpf4jnsgd1na2vs0mg"},{"bike_id":"0b8fe712-e421-439d-ae8f-476a01f086ec","system_id":"levelo_inurba_marseille","lat":43.29572,"lon":5.39975,"is_reserved":false,"is_disabled":false,"rental_uris":{"android":"levelo://app?vid=0b8fe712-e421-439d-ae8f-476a01f086ec","ios":"levelo://app?vid=0b8fe712-e421-439d-ae8f-476a01f086ec"},"vehicle_type_id":"4","last_reported":1761157036,"current_range_meters":3200,"station_id":"ce4bh312rcd13ifvqdj0","pricing_plan_id":"cebpf4jnsgd1na2vs0mg"},{"bike_id":"8c01ebbc-e84f-410c-b591-1885516a7346","system_id":"levelo_inurba_marseille","lat":43.28927,"lon":5.38403,"is_reserved":false,"is_disabled":false,"rental_uris":{"android":"levelo://app?vid=8c01ebbc-e84f-410c-b591-1885516a7346","ios":"levelo://app?vid=8c01ebbc-e84f-410c-b591-1885516a7346"},"vehicle_type_id":"4","last_reported":1761157036,"current_range_meters":3200,"station_id":"ce4bh612rcd13ifvqe6g","pricing_plan_id":"cebpf4jnsgd1na2vs0mg"},{"bike_id":"467d3fd6-809c-40ec-a191-765aec6d4557","system_id":"levelo_inurba_marseille","lat":43.28374,"lon":5.38636,"is_reserved":false,"is_disabled":true,"rental_uris":{"android":"levelo://app?vid=467d3fd6-809c-40ec-a191-765aec6d4557","ios":"levelo://app?vid=467d3fd6-809c-40ec-a191-765aec6d4557"},"vehicle_type_id":"4","last_reported":1761157036,"current_range_meters":3200,"station_id":"ce4bh492rcd13ifvqdvg","pricing_plan_id":"cebpf4jnsgd1na2vs0mg"},{"bike_id":"85d7bdff-3898-4bb1-a452-f23fc0413be8","system_id":"levelo_inurba_marseille","lat":43.29276,"lon":5.40112,"is_reserved":false,"is_disabled":false,"rental_uris":{"android":"levelo://app?vid=85d7bdff-3898-4bb1-a452-f23fc0413be8","ios":"levelo://app?vid=85d7bdff-3898-4bb1-a452-f23fc0413be8"},"vehicle_type_id":"4","last_reported":1761157036,"current_range_meters":3200,"station_id":"ce4bh312rcd13ifvqdk0","pricing_plan_id":"cebpf4jnsgd1na2vs0mg"},{"bike_id":"0779f26d-a672-4513-8202-b8042f86baf8","system_id":"levelo_inurba_marseille","lat":43.27818,"lon":5.40702,"is_reserved":false,"is_disabled":false,"rental_uris":{"android":"levelo://app?vid=0779f26d-a672-4513-8202-b8042f86baf8","ios":"levelo://app?vid=0779f26d-a672-4513-8202-b8042f86baf8"},"vehicle_type_id":"4","last_reported":1761157036,"current_range_meters":3200,"station_id":"ce4bhnh2rcd13ifvqgtg","pricing_plan_id":"cebpf4jnsgd1na2vs0mg"},{"bike_id":"0530819d-abf7-413a-b506-777807fa0fe6","system_id":"levelo_inurba_marseille","lat":43.2668,"lon":5.38268,"is_reserved":false,"is_disabled":false,"rental_uris":{"android":"levelo://app?vid=0530819d-abf7-413a-b506-777807fa0fe6","ios":"levelo://app?vid=0530819d-abf7-413a-b506-777807fa0fe6"},"vehicle_type_id":"4","last_reported":1761157036,"current_range_meters":3200,"station_id":"ce4bhg92rcd13ifvqf90","pricing_plan_id":"cebpf4jnsgd1na2vs0mg"},{"bike_id":"3cb824f4-8b61-44d3-ac0d-c128f8f85d4e","system_id":"levelo_inurba_marseille","lat":43.28565,"lon":5.39522,"is_reserved":false,"is_disabled":false,"rental_uris":{"android":"levelo://app?vid=3cb824f4-8b61-44d3-ac0d-c128f8f85d4e","ios":"levelo://app?vid=3cb824f4-8b61-44d3-ac0d-c128f8f85d4e"},"vehicle_type_id":"4","last_reported":1761157036,"current_range_meters":3600,"station_id":"ce4bh292rcd13ifvqdg0","pricing_plan_id":"cebpf4jnsgd1na2vs0mg"},{"bike_id":"5c547a9f-ba1d-4678-8e19-8f80d0472fe4","system_id":"levelo_inurba_marseille","lat":43.29315,"lon":5.37133,"is_reserved":false,"is_disabled":false,"rental_uris":{"android":"levelo://app?vid=5c547a9f-ba1d-4678-8e19-8f80d0472fe4","ios":"levelo://app?vid=5c547a9f-ba1d-4678-8e19-8f80d0472fe4"},"vehicle_type_id":"4","last_reported":1761157036,"current_range_meters":3600,"station_id":"ce4bgh92rcd13ifvqb40","pricing_plan_id":"cebpf4jnsgd1na2vs0mg"},{"bike_id":"fc1fd361-9e5d-4213-96ae-96d5f7924b9f","system_id":"levelo_inurba_marseille","lat":43.28936,"lon":5.36643,"is_reserved":false,"is_disabled":false,"rental_uris":{"android":"levelo://app?vid=fc1fd361-9e5d-4213-96ae-96d5f7924b9f","ios":"levelo://app?vid=fc1fd361-9e5d-4213-96ae-96d5f7924b9f"},"vehicle_type_id":"4","last_reported":1761157036,"current_range_meters":3600,"station_id":"ce4bhap2rcd13ifvqek0","pricing_plan_id":"cebpf4jnsgd1na2vs0mg"},{"bike_id":"886a0e31-b360-434a-8df1-aed271a2cc41","system_id":"levelo_inurba_marseille","lat":43.32361,"lon":5.36752,"is_reserved":false,"is_disabled":false,"rental_uris":{"android":"levelo://app?vid=886a0e31-b360-434a-8df1-aed271a2cc41","ios":"levelo://app?vid=886a0e31-b360-434a-8df1-aed271a2cc41"},"vehicle_type_id":"4","last_reported":1761157036,"current_range_meters":3600,"station_id":"ce4bhsh2rcd13ifvqi2g","pricing_plan_id":"cebpf4jnsgd1na2vs0mg"},{"bike_id":"da4226f6-7e42-4abe-860c-c7ef122197f6","system_id":"levelo_inurba_marseille","lat":43.28095,"lon":5.37856,"is_reserved":false,"is_disabled":false,"rental_uris":{"android":"levelo://app?vid=da4226f6-7e42-4abe-860c-c7ef122197f6","ios":"levelo://app?vid=da4226f6-7e42-4abe-860c-c7ef122197f6"},"vehicle_type_id":"4","last_reported":1761157036,"current_range_meters":3600,"station_id":"ce4bha12rcd13ifvqee0","pricing_plan_id":"cebpf4jnsgd1na2vs0mg"},{"bike_id":"a870d8c4-d388-4bd8-a292-a2b1665e7e0e","system_id":"levelo_inurba_marseille","lat":43.304308,"lon":5.405861,"is_reserved":false,"is_disabled":false,"rental_uris":{"android":"levelo://app?vid=a870d8c4-d388-4bd8-a292-a2b1665e7e0e","ios":"levelo://app?vid=a870d8c4-d388-4bd8-a292-a2b1665e7e0e"},"vehicle_type_id":"4","last_reported":1761157036,"current_range_meters":4000,"station_id":"","pricing_plan_id":"cebpf4jnsgd1na2vs0mg"},{"bike_id":"de6e7184-a66e-4a84-acfd-25f4d7820316","system_id":"levelo_inurba_marseille","lat":43.21191,"lon":5.35074,"is_reserved":false,"is_disabled":false,"rental_uris":{"android":"levelo://app?vid=de6e7184-a66e-4a84-acfd-25f4d7820316","ios":"levelo://app?vid=de6e7184-a66e-4a84-acfd-25f4d7820316"},"vehicle_type_id":"4","last_reported":1761157036,"current_range_meters":4000,"station_id":"","pricing_plan_id":"cebpf4jnsgd1na2vs0mg"},{"bike_id":"81b1ddd5-bca0-4fee-aa42-1f870ef58275","system_id":"levelo_inurba_marseille","lat":43.30428,"lon":5.38895,"is_reserved":false,"is_disabled":false,"rental_uris":{"android":"levelo://app?vid=81b1ddd5-bca0-4fee-aa42-1f870ef58275","ios":"levelo://app?vid=81b1ddd5-bca0-4fee-aa42-1f870ef58275"},"vehicle_type_id":"4","last_reported":1761157036,"current_range_meters":4000,"station_id":"ce4bgk12rcd13ifvqbi0","pricing_plan_id":"cebpf4jnsgd1na2vs0mg"},{"bike_id":"e7cb61d9-84d9-41c0-8427-00fc6a9e436b","system_id":"levelo_inurba_marseille","lat":43.31061,"lon":5.3757,"is_reserved":false,"is_disabled":false,"rental_uris":{"android":"levelo://app?vid=e7cb61d9-84d9-41c0-8427-00fc6a9e436b","ios":"levelo://app?vid=e7cb61d9-84d9-41c0-8427-00fc6a9e436b"},"vehicle_type_id":"4","last_reported":1761157036,"current_range_meters":4000,"station_id":"","pricing_plan_id":"cebpf4jnsgd1na2vs0mg"},{"bike_id":"cbc5c21e-235a-4f38-bb3a-735a5b38b3b6","system_id":"levelo_inurba_marseille","lat":43.28927,"lon":5.38398,"is_reserved":false,"is_disabled":false,"rental_uris":{"android":"levelo://app?vid=cbc5c21e-235a-4f38-bb3a-735a5b38b3b6","ios":"levelo://app?vid=cbc5c21e-235a-4f38-bb3a-735a5b38b3b6"},"vehicle_type_id":"4","last_reported":1761157036,"current_range_meters":4000,"station_id":"ce4bh612rcd13ifvqe6g","pricing_plan_id":"cebpf4jnsgd1na2vs0mg"},{"bike_id":"4154d683-e72a-4592-9e60-2a3872848698","system_id":"levelo_inurba_marseille","lat":43.28489,"lon":5.48393,"is_reserved":false,"is_disabled":false,"rental_uris":{"android":"levelo://app?vid=4154d683-e72a-4592-9e60-2a3872848698","ios":"levelo://app?vid=4154d683-e72a-4592-9e60-2a3872848698"},"vehicle_type_id":"4","last_reported":1761157036,"current_range_meters":4400,"station_id":"st_d3jp68qikq2c7381ktn0","pricing_plan_id":"cebpf4jnsgd1na2vs0mg"},{"bike_id":"31a81bfb-6ff8-4357-827f-e2c0af602333","system_id":"levelo_inurba_marseille","lat":43.271265,"lon":5.383486,"is_reserved":false,"is_disabled":false,"rental_uris":{"android":"levelo://app?vid=31a81bfb-6ff8-4357-827f-e2c0af602333","ios":"levelo://app?vid=31a81bfb-6ff8-4357-827f-e2c0af602333"},"vehicle_type_id":"4","last_reported":1761157036,"current_range_meters":4400,"station_id":"ce4bhbp2rcd13ifvqerg","pricing_plan_id":"cebpf4jnsgd1na2vs0mg"},{"bike_id":"0f60a50b-7b5c-441e-9d5e-38985c328e33","system_id":"levelo_inurba_marseille","lat":43.289321,"lon":5.366434,"is_reserved":false,"is_disabled":false,"rental_uris":{"android":"levelo://app?vid=0f60a50b-7b5c-441e-9d5e-38985c328e33","ios":"levelo://app?vid=0f60a50b-7b5c-441e-9d5e-38985c328e33"},"vehicle_type_id":"4","last_reported":1761157036,"current_range_meters":4400,"station_id":"ce4bhap2rcd13ifvqek0","pricing_plan_id":"cebpf4jnsgd1na2vs0mg"},{"bike_id":"a605e971-ff00-4c12-a47d-89ebb2b407bf","system_id":"levelo_inurba_marseille","lat":43.295288,"lon":5.385402,"is_reserved":false,"is_disabled":false,"rental_uris":{"android":"levelo://app?vid=a605e971-ff00-4c12-a47d-89ebb2b407bf","ios":"levelo://app?vid=a605e971-ff00-4c12-a47d-89ebb2b407bf"},"vehicle_type_id":"4","last_reported":1761157036,"current_range_meters":4400,"station_id":"ce4bgih2rcd13ifvqba0","pricing_plan_id":"cebpf4jnsgd1na2vs0mg"},{"bike_id":"6ff9e597-53e6-4285-ad9c-44300b714333","system_id":"levelo_inurba_marseille","lat":43.29534,"lon":5.38547,"is_reserved":false,"is_disabled":false,"rental_uris":{"android":"levelo://app?vid=6ff9e597-53e6-4285-ad9c-44300b714333","ios":"levelo://app?vid=6ff9e597-53e6-4285-ad9c-44300b714333"},"vehicle_type_id":"4","last_reported":1761157036,"current_range_meters":4400,"station_id":"ce4bgih2rcd13ifvqba0","pricing_plan_id":"cebpf4jnsgd1na2vs0mg"},{"bike_id":"661f935f-be4d-4e2a-82ae-0c2915afd7d1","system_id":"levelo_inurba_marseille","lat":43.28352,"lon":5.38106,"is_reserved":false,"is_disabled":false,"rental_uris":{"android":"levelo://app?vid=661f935f-be4d-4e2a-82ae-0c2915afd7d1","ios":"levelo://app?vid=661f935f-be4d-4e2a-82ae-0c2915afd7d1"},"vehicle_type_id":"4","last_reported":1761157036,"current_range_meters":4800,"station_id":"ce4bh412rcd13ifvqdr0","pricing_plan_id":"cebpf4jnsgd1na2vs0mg"},{"bike_id":"eea3c3c3-734f-4fd3-8061-ed84cfe47b38","system_id":"levelo_inurba_marseille","lat":43.32588,"lon":5.39214,"is_reserved":false,"is_disabled":false,"rental_uris":{"android":"levelo://app?vid=eea3c3c3-734f-4fd3-8061-ed84cfe47b38","ios":"levelo://app?vid=eea3c3c3-734f-4fd3-8061-ed84cfe47b38"},"vehicle_type_id":"4","last_reported":1761157036,"current_range_meters":4800,"station_id":"","pricing_plan_id":"cebpf4jnsgd1na2vs0mg"},{"bike_id":"d56a05fc-02e0-4bc9-bab7-5fa30f5dc5ca","system_id":"levelo_inurba_marseille","lat":43.29995,"lon":5.3717,"is_reserved":false,"is_disabled":false,"rental_uris":{"android":"levelo://app?vid=d56a05fc-02e0-4bc9-bab7-5fa30f5dc5ca","ios":"levelo://app?vid=d56a05fc-02e0-4bc9-bab7-5fa30f5dc5ca"},"vehicle_type_id":"4","last_reported":1761157036,"current_range_meters":4800,"station_id":"ce4bgr92rcd13ifvqc7g","pricing_plan_id":"cebpf4jnsgd1na2vs0mg"},{"bike_id":"dfa9c088-b016-43c8-a63f-95878087783f","system_id":"levelo_inurba_marseille","lat":43.28417,"lon":5.3752,"is_reserved":false,"is_disabled":false,"rental_uris":{"android":"levelo://app?vid=dfa9c088-b016-43c8-a63f-95878087783f","ios":"levelo://app?vid=dfa9c088-b016-43c8-a63f-95878087783f"},"vehicle_type_id":"4","last_reported":1761157036,"current_range_meters":4800,"station_id":"ce4bh3p2rcd13ifvqdp0","pricing_plan_id":"cebpf4jnsgd1na2vs0mg"},{"bike_id":"805cc412-434c-4829-8363-1954f7f430fd","system_id":"levelo_inurba_marseille","lat":43.29851,"lon":5.38387,"is_reserved":false,"is_disabled":false,"rental_uris":{"android":"levelo://app?vid=805cc412-434c-4829-8363-1954f7f430fd","ios":"levelo://app?vid=805cc412-434c-4829-8363-1954f7f430fd"},"vehicle_type_id":"4","last_reported":1761157036,"current_range_meters":4800,"station_id":"","pricing_plan_id":"cebpf4jnsgd1na2vs0mg"},{"bike_id":"bbad736e-c840-48af-abeb-bb40c3acb2cd","system_id":"levelo_inurba_marseille","lat":43.29034,"lon":5.38634,"is_reserved":false,"is_disabled":false,"rental_uris":{"android":"levelo://app?vid=bbad736e-c840-48af-abeb-bb40c3acb2cd","ios":"levelo://app?vid=bbad736e-c840-48af-abeb-bb40c3acb2cd"},"vehicle_type_id":"4","last_reported":1761157036,"current_range_meters":5600,"station_id":"ce4bh4p2rcd13ifvqe0g","pricing_plan_id":"cebpf4jnsgd1na2vs0mg"},{"bike_id":"c7339e95-e208-4515-abfd-17eed9450071","system_id":"levelo_inurba_marseille","lat":43.29259,"lon":5.40918,"is_reserved":false,"is_disabled":false,"rental_uris":{"android":"levelo://app?vid=c7339e95-e208-4515-abfd-17eed9450071","ios":"levelo://app?vid=c7339e95-e208-4515-abfd-17eed9450071"},"vehicle_type_id":"4","last_reported":1761157036,"current_range_meters":5600,"station_id":"ce4bh192rcd13ifvqdc0","pricing_plan_id":"cebpf4jnsgd1na2vs0mg"},{"bike_id":"08de50cb-4162-4d12-91bf-e25a465587d7","system_id":"levelo_inurba_marseille","lat":43.3088,"lon":5.39666,"is_reserved":false,"is_disabled":false,"rental_uris":{"android":"levelo://app?vid=08de50cb-4162-4d12-91bf-e25a465587d7","ios":"levelo://app?vid=08de50cb-4162-4d12-91bf-e25a465587d7"},"vehicle_type_id":"4","last_reported":1761157036,"current_range_meters":5600,"station_id":"ce4bh012rcd13ifvqcv0","pricing_plan_id":"cebpf4jnsgd1na2vs0mg"},{"bike_id":"4c9004fd-4f84-48e1-af7c-6cb7c405752a","system_id":"levelo_inurba_marseille","lat":43.28498,"lon":5.3843,"is_reserved":false,"is_disabled":false,"rental_uris":{"android":"levelo://app?vid=4c9004fd-4f84-48e1-af7c-6cb7c405752a","ios":"levelo://app?vid=4c9004fd-4f84-48e1-af7c-6cb7c405752a"},"vehicle_type_id":"4","last_reported":1761157036,"current_range_meters":6000,"station_id":"ce4bh512rcd13ifvqe3g","pricing_plan_id":"cebpf4jnsgd1na2vs0mg"},{"bike_id":"20186ffb-f094-404f-ad37-079904c7fed3","system_id":"levelo_inurba_marseille","lat":43.29251,"lon":5.38436,"is_reserved":false,"is_disabled":false,"rental_uris":{"android":"levelo://app?vid=20186ffb-f094-404f-ad37-079904c7fed3","ios":"levelo://app?vid=20186ffb-f094-404f-ad37-079904c7fed3"},"vehicle_type_id":"4","last_reported":1761157036,"current_range_meters":6000,"station_id":"ce4bh692rcd13ifvqea0","pricing_plan_id":"cebpf4jnsgd1na2vs0mg"},{"bike_id":"3659dfbc-680b-4d9c-ac66-9e666ba89d95","system_id":"levelo_inurba_marseille","lat":43.31265,"lon":5.40168,"is_reserved":false,"is_disabled":false,"rental_uris":{"android":"levelo://app?vid=3659dfbc-680b-4d9c-ac66-9e666ba89d95","ios":"levelo://app?vid=3659dfbc-680b-4d9c-ac66-9e666ba89d95"},"vehicle_type_id":"4","last_reported":1761157036,"current_range_meters":6000,"station_id":"ce4bh092rcd13ifvqd30","pricing_plan_id":"cebpf4jnsgd1na2vs0mg"},{"bike_id":"66bec76d-d7e9-4a1e-a715-39e56334bf96","system_id":"levelo_inurba_marseille","lat":43.2828,"lon":5.39652,"is_reserved":false,"is_disabled":false,"rental_uris":{"android":"levelo://app?vid=66bec76d-d7e9-4a1e-a715-39e56334bf96","ios":"levelo://app?vid=66bec76d-d7e9-4a1e-a715-39e56334bf96"},"vehicle_type_id":"4","last_reported":1761157036,"current_range_meters":6400,"station_id":"","pricing_plan_id":"cebpf4jnsgd1na2vs0mg"},{"bike_id":"7278e56a-01d6-4fad-b12d-53b8ce89a303","system_id":"levelo_inurba_marseille","lat":43.290314,"lon":5.38654,"is_reserved":false,"is_disabled":false,"rental_uris":{"android":"levelo://app?vid=7278e56a-01d6-4fad-b12d-53b8ce89a303","ios":"levelo://app?vid=7278e56a-01d6-4fad-b12d-53b8ce89a303"},"vehicle_type_id":"4","last_reported":1761157036,"current_range_meters":6400,"station_id":"ce4bh4p2rcd13ifvqe0g","pricing_plan_id":"cebpf4jnsgd1na2vs0mg"},{"bike_id":"3d068a7d-8c2c-4f97-8d7d-54140fa95800","system_id":"levelo_inurba_marseille","lat":43.273583,"lon":5.39879,"is_reserved":false,"is_disabled":false,"rental_uris":{"android":"levelo://app?vid=3d068a7d-8c2c-4f97-8d7d-54140fa95800","ios":"levelo://app?vid=3d068a7d-8c2c-4f97-8d7d-54140fa95800"},"vehicle_type_id":"4","last_reported":1761157036,"current_range_meters":6400,"station_id":"","pricing_plan_id":"cebpf4jnsgd1na2vs0mg"},{"bike_id":"6be382aa-c474-4181-8ce5-30d260604589","system_id":"levelo_inurba_marseille","lat":43.30297,"lon":5.39216,"is_reserved":false,"is_disabled":false,"rental_uris":{"android":"levelo://app?vid=6be382aa-c474-4181-8ce5-30d260604589","ios":"levelo://app?vid=6be382aa-c474-4181-8ce5-30d260604589"},"vehicle_type_id":"4","last_reported":1761157036,"current_range_meters":6400,"station_id":"ce4bgkh2rcd13ifvqbk0","pricing_plan_id":"cebpf4jnsgd1na2vs0mg"},{"bike_id":"aa52fae8-8ffc-4b4b-b82d-14607a9b8590","system_id":"levelo_inurba_marseille","lat":43.28921,"lon":5.38391,"is_reserved":false,"is_disabled":false,"rental_uris":{"android":"levelo://app?vid=aa52fae8-8ffc-4b4b-b82d-14607a9b8590","ios":"levelo://app?vid=aa52fae8-8ffc-4b4b-b82d-14607a9b8590"},"vehicle_type_id":"4","last_reported":1761157036,"current_range_meters":6400,"station_id":"ce4bh612rcd13ifvqe6g","pricing_plan_id":"cebpf4jnsgd1na2vs0mg"},{"bike_id":"8120c35c-7513-494c-a9a8-c923c18781f6","system_id":"levelo_inurba_marseille","lat":43.250882,"lon":5.395137,"is_reserved":false,"is_disabled":false,"rental_uris":{"android":"levelo://app?vid=8120c35c-7513-494c-a9a8-c923c18781f6","ios":"levelo://app?vid=8120c35c-7513-494c-a9a8-c923c18781f6"},"vehicle_type_id":"4","last_reported":1761157036,"current_range_meters":6400,"station_id":"ce4bhm12rcd13ifvqgkg","pricing_plan_id":"cebpf4jnsgd1na2vs0mg"},{"bike_id":"8282704c-cc62-4335-b9ac-9b5bffe83b08","system_id":"levelo_inurba_marseille","lat":43.30608,"lon":5.37227,"is_reserved":false,"is_disabled":false,"rental_uris":{"android":"levelo://app?vid=8282704c-cc62-4335-b9ac-9b5bffe83b08","ios":"levelo://app?vid=8282704c-cc62-4335-b9ac-9b5bffe83b08"},"vehicle_type_id":"4","last_reported":1761157036,"current_range_meters":6400,"station_id":"ce4bgqh2rcd13ifvqc4g","pricing_plan_id":"cebpf4jnsgd1na2vs0mg"},{"bike_id":"d6d1ab22-fe88-47e5-baaf-4ea3fc2e697e","system_id":"levelo_inurba_marseille","lat":43.28724,"lon":5.36085,"is_reserved":false,"is_disabled":false,"rental_uris":{"android":"levelo://app?vid=d6d1ab22-fe88-47e5-baaf-4ea3fc2e697e","ios":"levelo://app?vid=d6d1ab22-fe88-47e5-baaf-4ea3fc2e697e"},"vehicle_type_id":"4","last_reported":1761157036,"current_range_meters":6800,"station_id":"cki0cbj6b192h4jlfktg","pricing_plan_id":"cebpf4jnsgd1na2vs0mg"},{"bike_id":"0c751203-1b82-46df-8bbf-9a78837572d5","system_id":"levelo_inurba_marseille","lat":43.28409,"lon":5.3752,"is_reserved":false,"is_disabled":false,"rental_uris":{"android":"levelo://app?vid=0c751203-1b82-46df-8bbf-9a78837572d5","ios":"levelo://app?vid=0c751203-1b82-46df-8bbf-9a78837572d5"},"vehicle_type_id":"4","last_reported":1761157036,"current_range_meters":6800,"station_id":"ce4bh412rcd13ifvqds0","pricing_plan_id":"cebpf4jnsgd1na2vs0mg"},{"bike_id":"da3c5d5d-639d-4a11-88e1-f7b9c2ad220a","system_id":"levelo_inurba_marseille","lat":43.31702,"lon":5.37743,"is_reserved":false,"is_disabled":true,"rental_uris":{"android":"levelo://app?vid=da3c5d5d-639d-4a11-88e1-f7b9c2ad220a","ios":"levelo://app?vid=da3c5d5d-639d-4a11-88e1-f7b9c2ad220a"},"vehicle_type_id":"4","last_reported":1761157036,"current_range_meters":6800,"station_id":"ce4bgth2rcd13ifvqch0","pricing_plan_id":"cebpf4jnsgd1na2vs0mg"},{"bike_id":"2642dddf-6557-4940-8705-d31226f74eef","system_id":"levelo_inurba_marseille","lat":43.32003,"lon":5.38161,"is_reserved":false,"is_disabled":false,"rental_uris":{"android":"levelo://app?vid=2642dddf-6557-4940-8705-d31226f74eef","ios":"levelo://app?vid=2642dddf-6557-4940-8705-d31226f74eef"},"vehicle_type_id":"4","last_reported":1761157036,"current_range_meters":6800,"station_id":"ce4bhr12rcd13ifvqhpg","pricing_plan_id":"cebpf4jnsgd1na2vs0mg"},{"bike_id":"0a5d4571-b1f4-4457-bc54-b3018db5f0a8","system_id":"levelo_inurba_marseille","lat":43.28656,"lon":5.38674,"is_reserved":false,"is_disabled":false,"rental_uris":{"android":"levelo://app?vid=0a5d4571-b1f4-4457-bc54-b3018db5f0a8","ios":"levelo://app?vid=0a5d4571-b1f4-4457-bc54-b3018db5f0a8"},"vehicle_type_id":"4","last_reported":1761157036,"current_range_meters":7200,"station_id":"ce4bh492rcd13ifvqdug","pricing_plan_id":"cebpf4jnsgd1na2vs0mg"},{"bike_id":"2680dff3-cfda-4428-a0cf-8501597ca50a","system_id":"levelo_inurba_marseille","lat":43.30426,"lon":5.39748,"is_reserved":false,"is_disabled":false,"rental_uris":{"android":"levelo://app?vid=2680dff3-cfda-4428-a0cf-8501597ca50a","ios":"levelo://app?vid=2680dff3-cfda-4428-a0cf-8501597ca50a"},"vehicle_type_id":"4","last_reported":1761157036,"current_range_meters":7200,"station_id":"ce4bh092rcd13ifvqd20","pricing_plan_id":"cebpf4jnsgd1na2vs0mg"},{"bike_id":"eb3555d9-32d5-4880-957b-a4934087c0e9","system_id":"levelo_inurba_marseille","lat":43.26226,"lon":5.40453,"is_reserved":false,"is_disabled":false,"rental_uris":{"android":"levelo://app?vid=eb3555d9-32d5-4880-957b-a4934087c0e9","ios":"levelo://app?vid=eb3555d9-32d5-4880-957b-a4934087c0e9"},"vehicle_type_id":"4","last_reported":1761157036,"current_range_meters":7200,"station_id":"ce4bhmh2rcd13ifvqgmg","pricing_plan_id":"cebpf4jnsgd1na2vs0mg"},{"bike_id":"b7e41c34-cad5-468c-aadc-3ef8a1845b5a","system_id":"levelo_inurba_marseille","lat":43.28172,"lon":5.36117,"is_reserved":false,"is_disabled":false,"rental_uris":{"android":"levelo://app?vid=b7e41c34-cad5-468c-aadc-3ef8a1845b5a","ios":"levelo://app?vid=b7e41c34-cad5-468c-aadc-3ef8a1845b5a"},"vehicle_type_id":"4","last_reported":1761157036,"current_range_meters":7200,"station_id":"","pricing_plan_id":"cebpf4jnsgd1na2vs0mg"},{"bike_id":"97585d63-cae0-46a3-8fec-9651d52b3156","system_id":"levelo_inurba_marseille","lat":43.278948,"lon":5.379991,"is_reserved":false,"is_disabled":true,"rental_uris":{"android":"levelo://app?vid=97585d63-cae0-46a3-8fec-9651d52b3156","ios":"levelo://app?vid=97585d63-cae0-46a3-8fec-9651d52b3156"},"vehicle_type_id":"4","last_reported":1761157036,"current_range_meters":7200,"station_id":"ce4bhf92rcd13ifvqf50","pricing_plan_id":"cebpf4jnsgd1na2vs0mg"},{"bike_id":"b756fa15-45af-4124-9901-4f2d0a30202e","system_id":"levelo_inurba_marseille","lat":43.274272,"lon":5.394208,"is_reserved":false,"is_disabled":false,"rental_uris":{"android":"levelo://app?vid=b756fa15-45af-4124-9901-4f2d0a30202e","ios":"levelo://app?vid=b756fa15-45af-4124-9901-4f2d0a30202e"},"vehicle_type_id":"4","last_reported":1761157036,"current_range_meters":7200,"station_id":"ce4bhdp2rcd13ifvqf20","pricing_plan_id":"cebpf4jnsgd1na2vs0mg"},{"bike_id":"158efa80-12ab-4b7d-8a51-8d3a468fcc07","system_id":"levelo_inurba_marseille","lat":43.2119,"lon":5.35073,"is_reserved":false,"is_disabled":true,"rental_uris":{"android":"levelo://app?vid=158efa80-12ab-4b7d-8a51-8d3a468fcc07","ios":"levelo://app?vid=158efa80-12ab-4b7d-8a51-8d3a468fcc07"},"vehicle_type_id":"4","last_reported":1761157036,"current_range_meters":7200,"station_id":"","pricing_plan_id":"cebpf4jnsgd1na2vs0mg"},{"bike_id":"a1f7606d-9c8f-4ec2-a600-d01a90f1d133","system_id":"levelo_inurba_marseille","lat":43.29254,"lon":5.3762,"is_reserved":false,"is_disabled":false,"rental_uris":{"android":"levelo://app?vid=a1f7606d-9c8f-4ec2-a600-d01a90f1d133","ios":"levelo://app?vid=a1f7606d-9c8f-4ec2-a600-d01a90f1d133"},"vehicle_type_id":"4","last_reported":1761157036,"current_range_meters":7200,"station_id":"ce4bgi12rcd13ifvqb80","pricing_plan_id":"cebpf4jnsgd1na2vs0mg"},{"bike_id":"22fa346f-de63-43a2-8d1a-7a2c7f6c572c","system_id":"levelo_inurba_marseille","lat":43.25118,"lon":5.40317,"is_reserved":false,"is_disabled":false,"rental_uris":{"android":"levelo://app?vid=22fa346f-de63-43a2-8d1a-7a2c7f6c572c","ios":"levelo://app?vid=22fa346f-de63-43a2-8d1a-7a2c7f6c572c"},"vehicle_type_id":"4","last_reported":1761157036,"current_range_meters":8000,"station_id":"ce4bhlh2rcd13ifvqgig","pricing_plan_id":"cebpf4jnsgd1na2vs0mg"},{"bike_id":"75fe680e-fa32-4997-9b51-5442b9f3cc78","system_id":"levelo_inurba_marseille","lat":43.290292,"lon":5.381314,"is_reserved":false,"is_disabled":false,"rental_uris":{"android":"levelo://app?vid=75fe680e-fa32-4997-9b51-5442b9f3cc78","ios":"levelo://app?vid=75fe680e-fa32-4997-9b51-5442b9f3cc78"},"vehicle_type_id":"4","last_reported":1761157036,"current_range_meters":8000,"station_id":"ce4bh4p2rcd13ifvqe1g","pricing_plan_id":"cebpf4jnsgd1na2vs0mg"},{"bike_id":"7d2d5787-0ce3-440b-bd99-871ac3e090ec","system_id":"levelo_inurba_marseille","lat":43.28884,"lon":5.37877,"is_reserved":false,"is_disabled":false,"rental_uris":{"android":"levelo://app?vid=7d2d5787-0ce3-440b-bd99-871ac3e090ec","ios":"levelo://app?vid=7d2d5787-0ce3-440b-bd99-871ac3e090ec"},"vehicle_type_id":"4","last_reported":1761157036,"current_range_meters":8000,"station_id":"","pricing_plan_id":"cebpf4jnsgd1na2vs0mg"},{"bike_id":"441f5942-5bf8-4f79-af07-7a30b98b175f","system_id":"levelo_inurba_marseille","lat":43.29256,"lon":5.38453,"is_reserved":false,"is_disabled":false,"rental_uris":{"android":"levelo://app?vid=441f5942-5bf8-4f79-af07-7a30b98b175f","ios":"levelo://app?vid=441f5942-5bf8-4f79-af07-7a30b98b175f"},"vehicle_type_id":"4","last_reported":1761157036,"current_range_meters":8000,"station_id":"ce4bh692rcd13ifvqea0","pricing_plan_id":"cebpf4jnsgd1na2vs0mg"},{"bike_id":"3201e625-69d5-420e-838c-f4c3f44666ef","system_id":"levelo_inurba_marseille","lat":43.33775,"lon":5.37438,"is_reserved":false,"is_disabled":false,"rental_uris":{"android":"levelo://app?vid=3201e625-69d5-420e-838c-f4c3f44666ef","ios":"levelo://app?vid=3201e625-69d5-420e-838c-f4c3f44666ef"},"vehicle_type_id":"4","last_reported":1761157036,"current_range_meters":8000,"station_id":"","pricing_plan_id":"cebpf4jnsgd1na2vs0mg"},{"bike_id":"0f13fbd0-8a3d-472c-abd9-8eef3d81b06b","system_id":"levelo_inurba_marseille","lat":43.31068,"lon":5.38358,"is_reserved":false,"is_disabled":false,"rental_uris":{"android":"levelo://app?vid=0f13fbd0-8a3d-472c-abd9-8eef3d81b06b","ios":"levelo://app?vid=0f13fbd0-8a3d-472c-abd9-8eef3d81b06b"},"vehicle_type_id":"4","last_reported":1761157036,"current_range_meters":8000,"station_id":"ce4bgv92rcd13ifvqcr0","pricing_plan_id":"cebpf4jnsgd1na2vs0mg"},{"bike_id":"a7b06526-aea6-4369-9939-dc263cf58f1c","system_id":"levelo_inurba_marseille","lat":43.27829,"lon":5.39207,"is_reserved":false,"is_disabled":true,"rental_uris":{"android":"levelo://app?vid=a7b06526-aea6-4369-9939-dc263cf58f1c","ios":"levelo://app?vid=a7b06526-aea6-4369-9939-dc263cf58f1c"},"vehicle_type_id":"4","last_reported":1761157036,"current_range_meters":8000,"station_id":"ce4bhjp2rcd13ifvqga0","pricing_plan_id":"cebpf4jnsgd1na2vs0mg"},{"bike_id":"b8457e49-45d1-4539-8d31-1eb0283df508","system_id":"levelo_inurba_marseille","lat":43.33169,"lon":5.35514,"is_reserved":false,"is_disabled":false,"rental_uris":{"android":"levelo://app?vid=b8457e49-45d1-4539-8d31-1eb0283df508","ios":"levelo://app?vid=b8457e49-45d1-4539-8d31-1eb0283df508"},"vehicle_type_id":"4","last_reported":1761157036,"current_range_meters":8000,"station_id":"","pricing_plan_id":"cebpf4jnsgd1na2vs0mg"},{"bike_id":"577ecd2b-914e-4a10-9632-ee5c0350e5e6","system_id":"levelo_inurba_marseille","lat":43.295312,"lon":5.385415,"is_reserved":false,"is_disabled":false,"rental_uris":{"android":"levelo://app?vid=577ecd2b-914e-4a10-9632-ee5c0350e5e6","ios":"levelo://app?vid=577ecd2b-914e-4a10-9632-ee5c0350e5e6"},"vehicle_type_id":"4","last_reported":1761157036,"current_range_meters":8000,"station_id":"ce4bgih2rcd13ifvqba0","pricing_plan_id":"cebpf4jnsgd1na2vs0mg"},{"bike_id":"a4ade861-cbe1-4d7f-915a-5a257c2a95da","system_id":"levelo_inurba_marseille","lat":43.240136,"lon":5.366204,"is_reserved":false,"is_disabled":false,"rental_uris":{"android":"levelo://app?vid=a4ade861-cbe1-4d7f-915a-5a257c2a95da","ios":"levelo://app?vid=a4ade861-cbe1-4d7f-915a-5a257c2a95da"},"vehicle_type_id":"4","last_reported":1761157036,"current_range_meters":8000,"station_id":"ce4bhi12rcd13ifvqfp0","pricing_plan_id":"cebpf4jnsgd1na2vs0mg"},{"bike_id":"244b927c-472d-4dca-ab2a-062e850cc84f","system_id":"levelo_inurba_marseille","lat":43.29255,"lon":5.3845,"is_reserved":false,"is_disabled":false,"rental_uris":{"android":"levelo://app?vid=244b927c-472d-4dca-ab2a-062e850cc84f","ios":"levelo://app?vid=244b927c-472d-4dca-ab2a-062e850cc84f"},"vehicle_type_id":"4","last_reported":1761157036,"current_range_meters":8000,"station_id":"ce4bh692rcd13ifvqea0","pricing_plan_id":"cebpf4jnsgd1na2vs0mg"},{"bike_id":"4bed38ac-b194-4b3b-b8a1-ae0bc51439e0","system_id":"levelo_inurba_marseille","lat":43.30421,"lon":5.41286,"is_reserved":false,"is_disabled":false,"rental_uris":{"android":"levelo://app?vid=4bed38ac-b194-4b3b-b8a1-ae0bc51439e0","ios":"levelo://app?vid=4bed38ac-b194-4b3b-b8a1-ae0bc51439e0"},"vehicle_type_id":"4","last_reported":1761157036,"current_range_meters":8000,"station_id":"ce4bhop2rcd13ifvqh8g","pricing_plan_id":"cebpf4jnsgd1na2vs0mg"},{"bike_id":"9648558a-6bc8-443d-a1a3-78f4d1df24ab","system_id":"levelo_inurba_marseille","lat":43.295228,"lon":5.385432,"is_reserved":false,"is_disabled":false,"rental_uris":{"android":"levelo://app?vid=9648558a-6bc8-443d-a1a3-78f4d1df24ab","ios":"levelo://app?vid=9648558a-6bc8-443d-a1a3-78f4d1df24ab"},"vehicle_type_id":"4","last_reported":1761157036,"current_range_meters":8400,"station_id":"","pricing_plan_id":"cebpf4jnsgd1na2vs0mg"},{"bike_id":"73845d70-817e-466d-a91f-551a1bf5e243","system_id":"levelo_inurba_marseille","lat":43.30947,"lon":5.39047,"is_reserved":false,"is_disabled":true,"rental_uris":{"android":"levelo://app?vid=73845d70-817e-466d-a91f-551a1bf5e243","ios":"levelo://app?vid=73845d70-817e-466d-a91f-551a1bf5e243"},"vehicle_type_id":"4","last_reported":1761157036,"current_range_meters":8400,"station_id":"ce4bgup2rcd13ifvqco0","pricing_plan_id":"cebpf4jnsgd1na2vs0mg"},{"bike_id":"6cd2a84b-d019-476f-aa2c-191395fa631d","system_id":"levelo_inurba_marseille","lat":43.29536,"lon":5.39033,"is_reserved":false,"is_disabled":false,"rental_uris":{"android":"levelo://app?vid=6cd2a84b-d019-476f-aa2c-191395fa631d","ios":"levelo://app?vid=6cd2a84b-d019-476f-aa2c-191395fa631d"},"vehicle_type_id":"4","last_reported":1761157036,"current_range_meters":8400,"station_id":"ce4bh3p2rcd13ifvqdp0","pricing_plan_id":"cebpf4jnsgd1na2vs0mg"},{"bike_id":"82762e63-7db5-443e-b2c2-399b13e6e836","system_id":"levelo_inurba_marseille","lat":43.29619,"lon":5.37153,"is_reserved":false,"is_disabled":false,"rental_uris":{"android":"levelo://app?vid=82762e63-7db5-443e-b2c2-399b13e6e836","ios":"levelo://app?vid=82762e63-7db5-443e-b2c2-399b13e6e836"},"vehicle_type_id":"4","last_reported":1761157036,"current_range_meters":8400,"station_id":"ce4bgnh2rcd13ifvqc0g","pricing_plan_id":"cebpf4jnsgd1na2vs0mg"},{"bike_id":"886d6133-ecd9-4b80-91ad-bbacfdac74ff","system_id":"levelo_inurba_marseille","lat":43.26226,"lon":5.40449,"is_reserved":false,"is_disabled":false,"rental_uris":{"android":"levelo://app?vid=886d6133-ecd9-4b80-91ad-bbacfdac74ff","ios":"levelo://app?vid=886d6133-ecd9-4b80-91ad-bbacfdac74ff"},"vehicle_type_id":"4","last_reported":1761157036,"current_range_meters":8400,"station_id":"ce4bhmh2rcd13ifvqgmg","pricing_plan_id":"cebpf4jnsgd1na2vs0mg"},{"bike_id":"76d6d785-2795-4deb-a05c-2a8c101baca6","system_id":"levelo_inurba_marseille","lat":43.28935,"lon":5.3639,"is_reserved":false,"is_disabled":false,"rental_uris":{"android":"levelo://app?vid=76d6d785-2795-4deb-a05c-2a8c101baca6","ios":"levelo://app?vid=76d6d785-2795-4deb-a05c-2a8c101baca6"},"vehicle_type_id":"4","last_reported":1761157036,"current_range_meters":8400,"station_id":"ce4bhc92rcd13ifvqetg","pricing_plan_id":"cebpf4jnsgd1na2vs0mg"},{"bike_id":"7ffbdf46-1d13-4e32-ad8f-b99766448a99","system_id":"levelo_inurba_marseille","lat":43.31556,"lon":5.38872,"is_reserved":false,"is_disabled":false,"rental_uris":{"android":"levelo://app?vid=7ffbdf46-1d13-4e32-ad8f-b99766448a99","ios":"levelo://app?vid=7ffbdf46-1d13-4e32-ad8f-b99766448a99"},"vehicle_type_id":"4","last_reported":1761157036,"current_range_meters":8400,"station_id":"","pricing_plan_id":"cebpf4jnsgd1na2vs0mg"},{"bike_id":"ab4fdea5-a774-4688-aa4a-cbfbb4dda4e1","system_id":"levelo_inurba_marseille","lat":43.29253,"lon":5.38433,"is_reserved":false,"is_disabled":false,"rental_uris":{"android":"levelo://app?vid=ab4fdea5-a774-4688-aa4a-cbfbb4dda4e1","ios":"levelo://app?vid=ab4fdea5-a774-4688-aa4a-cbfbb4dda4e1"},"vehicle_type_id":"4","last_reported":1761157036,"current_range_meters":8400,"station_id":"ce4bh692rcd13ifvqea0","pricing_plan_id":"cebpf4jnsgd1na2vs0mg"},{"bike_id":"5dfd5fe3-2d3e-43bf-b185-d59d6bb475e6","system_id":"levelo_inurba_marseille","lat":43.296,"lon":5.38097,"is_reserved":false,"is_disabled":false,"rental_uris":{"android":"levelo://app?vid=5dfd5fe3-2d3e-43bf-b185-d59d6bb475e6","ios":"levelo://app?vid=5dfd5fe3-2d3e-43bf-b185-d59d6bb475e6"},"vehicle_type_id":"4","last_reported":1761157036,"current_range_meters":8800,"station_id":"ce4bgl12rcd13ifvqbo0","pricing_plan_id":"cebpf4jnsgd1na2vs0mg"},{"bike_id":"ac1df8dc-41e5-4954-977f-6f21ed12d11a","system_id":"levelo_inurba_marseille","lat":43.21745,"lon":5.34615,"is_reserved":false,"is_disabled":false,"rental_uris":{"android":"levelo://app?vid=ac1df8dc-41e5-4954-977f-6f21ed12d11a","ios":"levelo://app?vid=ac1df8dc-41e5-4954-977f-6f21ed12d11a"},"vehicle_type_id":"4","last_reported":1761157036,"current_range_meters":8800,"station_id":"st_cvj6r9ubvosntc0bgbag","pricing_plan_id":"cebpf4jnsgd1na2vs0mg"},{"bike_id":"2e025aae-92a4-4ca7-8a6c-68271765d415","system_id":"levelo_inurba_marseille","lat":43.29169,"lon":5.37158,"is_reserved":false,"is_disabled":false,"rental_uris":{"android":"levelo://app?vid=2e025aae-92a4-4ca7-8a6c-68271765d415","ios":"levelo://app?vid=2e025aae-92a4-4ca7-8a6c-68271765d415"},"vehicle_type_id":"4","last_reported":1761157036,"current_range_meters":8800,"station_id":"ce4bha92rcd13ifvqeh0","pricing_plan_id":"cebpf4jnsgd1na2vs0mg"},{"bike_id":"6d2e1d41-4579-4779-926b-488af53f67eb","system_id":"levelo_inurba_marseille","lat":43.309083,"lon":5.36835,"is_reserved":false,"is_disabled":false,"rental_uris":{"android":"levelo://app?vid=6d2e1d41-4579-4779-926b-488af53f67eb","ios":"levelo://app?vid=6d2e1d41-4579-4779-926b-488af53f67eb"},"vehicle_type_id":"4","last_reported":1761157036,"current_range_meters":8800,"station_id":"ce4bgn92rcd13ifvqbvg","pricing_plan_id":"cebpf4jnsgd1na2vs0mg"},{"bike_id":"1cc485fc-746f-4fa6-849c-73c97e21029d","system_id":"levelo_inurba_marseille","lat":43.28931,"lon":5.36401,"is_reserved":false,"is_disabled":false,"rental_uris":{"android":"levelo://app?vid=1cc485fc-746f-4fa6-849c-73c97e21029d","ios":"levelo://app?vid=1cc485fc-746f-4fa6-849c-73c97e21029d"},"vehicle_type_id":"4","last_reported":1761157036,"current_range_meters":8800,"station_id":"ce4bhc92rcd13ifvqetg","pricing_plan_id":"cebpf4jnsgd1na2vs0mg"},{"bike_id":"5c1fb861-83af-4d1f-a01f-57045b933e2e","system_id":"levelo_inurba_marseille","lat":43.32382,"lon":5.38894,"is_reserved":false,"is_disabled":false,"rental_uris":{"android":"levelo://app?vid=5c1fb861-83af-4d1f-a01f-57045b933e2e","ios":"levelo://app?vid=5c1fb861-83af-4d1f-a01f-57045b933e2e"},"vehicle_type_id":"4","last_reported":1761157036,"current_range_meters":8800,"station_id":"ce4bhqp2rcd13ifvqhog","pricing_plan_id":"cebpf4jnsgd1na2vs0mg"},{"bike_id":"d58b48da-fd27-4317-a154-a13c4a28537a","system_id":"levelo_inurba_marseille","lat":43.2953,"lon":5.37506,"is_reserved":false,"is_disabled":false,"rental_uris":{"android":"levelo://app?vid=d58b48da-fd27-4317-a154-a13c4a28537a","ios":"levelo://app?vid=d58b48da-fd27-4317-a154-a13c4a28537a"},"vehicle_type_id":"4","last_reported":1761157036,"current_range_meters":8800,"station_id":"ce4bgkp2rcd13ifvqbmg","pricing_plan_id":"cebpf4jnsgd1na2vs0mg"},{"bike_id":"c4432b73-0adb-475d-83b3-18f6e7bba483","system_id":"levelo_inurba_marseille","lat":43.3211,"lon":5.40787,"is_reserved":false,"is_disabled":false,"rental_uris":{"android":"levelo://app?vid=c4432b73-0adb-475d-83b3-18f6e7bba483","ios":"levelo://app?vid=c4432b73-0adb-475d-83b3-18f6e7bba483"},"vehicle_type_id":"4","last_reported":1761157036,"current_range_meters":8800,"station_id":"","pricing_plan_id":"cebpf4jnsgd1na2vs0mg"},{"bike_id":"ec930560-46f9-4b97-9bed-76776e67c81d","system_id":"levelo_inurba_marseille","lat":43.2679,"lon":5.39411,"is_reserved":false,"is_disabled":false,"rental_uris":{"android":"levelo://app?vid=ec930560-46f9-4b97-9bed-76776e67c81d","ios":"levelo://app?vid=ec930560-46f9-4b97-9bed-76776e67c81d"},"vehicle_type_id":"4","last_reported":1761157036,"current_range_meters":9200,"station_id":"ce4bhh12rcd13ifvqfg0","pricing_plan_id":"cebpf4jnsgd1na2vs0mg"},{"bike_id":"d38bb17a-4ac6-4da6-829b-fc2ffe260364","system_id":"levelo_inurba_marseille","lat":43.31877,"lon":5.40754,"is_reserved":false,"is_disabled":true,"rental_uris":{"android":"levelo://app?vid=d38bb17a-4ac6-4da6-829b-fc2ffe260364","ios":"levelo://app?vid=d38bb17a-4ac6-4da6-829b-fc2ffe260364"},"vehicle_type_id":"4","last_reported":1761157036,"current_range_meters":9200,"station_id":"ce4bhq12rcd13ifvqhig","pricing_plan_id":"cebpf4jnsgd1na2vs0mg"},{"bike_id":"03fe904c-64d6-47a4-bf03-a98e17b3d5ef","system_id":"levelo_inurba_marseille","lat":43.28727,"lon":5.36095,"is_reserved":false,"is_disabled":false,"rental_uris":{"android":"levelo://app?vid=03fe904c-64d6-47a4-bf03-a98e17b3d5ef","ios":"levelo://app?vid=03fe904c-64d6-47a4-bf03-a98e17b3d5ef"},"vehicle_type_id":"4","last_reported":1761157036,"current_range_meters":9200,"station_id":"cki0cbj6b192h4jlfktg","pricing_plan_id":"cebpf4jnsgd1na2vs0mg"},{"bike_id":"125b2120-46aa-4651-a8fe-63c199b6ffee","system_id":"levelo_inurba_marseille","lat":43.28605,"lon":5.37064,"is_reserved":false,"is_disabled":false,"rental_uris":{"android":"levelo://app?vid=125b2120-46aa-4651-a8fe-63c199b6ffee","ios":"levelo://app?vid=125b2120-46aa-4651-a8fe-63c199b6ffee"},"vehicle_type_id":"4","last_reported":1761157036,"current_range_meters":9200,"station_id":"ce4bht12rcd13ifvqi60","pricing_plan_id":"cebpf4jnsgd1na2vs0mg"},{"bike_id":"b7eb91dd-e20f-4730-98de-ad63b618f2b3","system_id":"levelo_inurba_marseille","lat":43.29254,"lon":5.38445,"is_reserved":false,"is_disabled":false,"rental_uris":{"android":"levelo://app?vid=b7eb91dd-e20f-4730-98de-ad63b618f2b3","ios":"levelo://app?vid=b7eb91dd-e20f-4730-98de-ad63b618f2b3"},"vehicle_type_id":"4","last_reported":1761157036,"current_range_meters":9200,"station_id":"ce4bh692rcd13ifvqea0","pricing_plan_id":"cebpf4jnsgd1na2vs0mg"},{"bike_id":"6096875b-ad5a-44be-9bdd-d89191fea721","system_id":"levelo_inurba_marseille","lat":43.28936,"lon":5.36399,"is_reserved":false,"is_disabled":false,"rental_uris":{"android":"levelo://app?vid=6096875b-ad5a-44be-9bdd-d89191fea721","ios":"levelo://app?vid=6096875b-ad5a-44be-9bdd-d89191fea721"},"vehicle_type_id":"4","last_reported":1761157036,"current_range_meters":9200,"station_id":"ce4bhc92rcd13ifvqetg","pricing_plan_id":"cebpf4jnsgd1na2vs0mg"},{"bike_id":"9b93a6ac-64c4-4599-9352-558ab57a7f45","system_id":"levelo_inurba_marseille","lat":43.31325,"lon":5.39697,"is_reserved":false,"is_disabled":false,"rental_uris":{"android":"levelo://app?vid=9b93a6ac-64c4-4599-9352-558ab57a7f45","ios":"levelo://app?vid=9b93a6ac-64c4-4599-9352-558ab57a7f45"},"vehicle_type_id":"4","last_reported":1761157036,"current_range_meters":9200,"station_id":"ce4bgvp2rcd13ifvqcu0","pricing_plan_id":"cebpf4jnsgd1na2vs0mg"},{"bike_id":"46ce4a6a-405b-4153-b2be-2dbc5814180a","system_id":"levelo_inurba_marseille","lat":43.28101,"lon":5.378467,"is_reserved":false,"is_disabled":false,"rental_uris":{"android":"levelo://app?vid=46ce4a6a-405b-4153-b2be-2dbc5814180a","ios":"levelo://app?vid=46ce4a6a-405b-4153-b2be-2dbc5814180a"},"vehicle_type_id":"4","last_reported":1761157036,"current_range_meters":9600,"station_id":"ce4bha12rcd13ifvqee0","pricing_plan_id":"cebpf4jnsgd1na2vs0mg"},{"bike_id":"953ee31c-f7b1-4bec-b8b8-eebe51f1267d","system_id":"levelo_inurba_marseille","lat":43.31169,"lon":5.387247,"is_reserved":false,"is_disabled":false,"rental_uris":{"android":"levelo://app?vid=953ee31c-f7b1-4bec-b8b8-eebe51f1267d","ios":"levelo://app?vid=953ee31c-f7b1-4bec-b8b8-eebe51f1267d"},"vehicle_type_id":"4","last_reported":1761157036,"current_range_meters":9600,"station_id":"ce4bgv12rcd13ifvqcp0","pricing_plan_id":"cebpf4jnsgd1na2vs0mg"},{"bike_id":"002f24a4-a094-4a40-ba76-94721c3a487d","system_id":"levelo_inurba_marseille","lat":43.28363,"lon":5.38633,"is_reserved":false,"is_disabled":false,"rental_uris":{"android":"levelo://app?vid=002f24a4-a094-4a40-ba76-94721c3a487d","ios":"levelo://app?vid=002f24a4-a094-4a40-ba76-94721c3a487d"},"vehicle_type_id":"4","last_reported":1761157036,"current_range_meters":9600,"station_id":"ce4bh492rcd13ifvqdvg","pricing_plan_id":"cebpf4jnsgd1na2vs0mg"},{"bike_id":"f4ecfd5e-3d1d-499e-99da-445cf52f1bd3","system_id":"levelo_inurba_marseille","lat":43.308912,"lon":5.396618,"is_reserved":false,"is_disabled":false,"rental_uris":{"android":"levelo://app?vid=f4ecfd5e-3d1d-499e-99da-445cf52f1bd3","ios":"levelo://app?vid=f4ecfd5e-3d1d-499e-99da-445cf52f1bd3"},"vehicle_type_id":"4","last_reported":1761157036,"current_range_meters":9600,"station_id":"","pricing_plan_id":"cebpf4jnsgd1na2vs0mg"},{"bike_id":"02f7835e-8895-43db-bc46-dc0659a292d5","system_id":"levelo_inurba_marseille","lat":43.29331,"lon":5.3707,"is_reserved":false,"is_disabled":false,"rental_uris":{"android":"levelo://app?vid=02f7835e-8895-43db-bc46-dc0659a292d5","ios":"levelo://app?vid=02f7835e-8895-43db-bc46-dc0659a292d5"},"vehicle_type_id":"4","last_reported":1761157036,"current_range_meters":9600,"station_id":"","pricing_plan_id":"cebpf4jnsgd1na2vs0mg"},{"bike_id":"31e9c06f-d6ff-415f-8d15-3ae0ebc4386d","system_id":"levelo_inurba_marseille","lat":43.31116,"lon":5.37792,"is_reserved":false,"is_disabled":false,"rental_uris":{"android":"levelo://app?vid=31e9c06f-d6ff-415f-8d15-3ae0ebc4386d","ios":"levelo://app?vid=31e9c06f-d6ff-415f-8d15-3ae0ebc4386d"},"vehicle_type_id":"4","last_reported":1761157036,"current_range_meters":10000,"station_id":"ce4bgt92rcd13ifvqcg0","pricing_plan_id":"cebpf4jnsgd1na2vs0mg"},{"bike_id":"3b244e6f-e184-4814-9c58-ecff97abe183","system_id":"levelo_inurba_marseille","lat":43.28144,"lon":5.42641,"is_reserved":false,"is_disabled":false,"rental_uris":{"android":"levelo://app?vid=3b244e6f-e184-4814-9c58-ecff97abe183","ios":"levelo://app?vid=3b244e6f-e184-4814-9c58-ecff97abe183"},"vehicle_type_id":"4","last_reported":1761157036,"current_range_meters":10000,"station_id":"ce4bhnh2rcd13ifvqgug","pricing_plan_id":"cebpf4jnsgd1na2vs0mg"},{"bike_id":"af409772-335c-438b-8ea5-a1ab70a4f8d3","system_id":"levelo_inurba_marseille","lat":43.29632,"lon":5.406,"is_reserved":false,"is_disabled":false,"rental_uris":{"android":"levelo://app?vid=af409772-335c-438b-8ea5-a1ab70a4f8d3","ios":"levelo://app?vid=af409772-335c-438b-8ea5-a1ab70a4f8d3"},"vehicle_type_id":"4","last_reported":1761157036,"current_range_meters":10000,"station_id":"ce4bh0h2rcd13ifvqd60","pricing_plan_id":"cebpf4jnsgd1na2vs0mg"},{"bike_id":"c1a2b3ea-0846-4f6a-942a-fde6d61df9ac","system_id":"levelo_inurba_marseille","lat":43.29224,"lon":5.36063,"is_reserved":false,"is_disabled":false,"rental_uris":{"android":"levelo://app?vid=c1a2b3ea-0846-4f6a-942a-fde6d61df9ac","ios":"levelo://app?vid=c1a2b3ea-0846-4f6a-942a-fde6d61df9ac"},"vehicle_type_id":"4","last_reported":1761157036,"current_range_meters":10000,"station_id":"ce4bhbh2rcd13ifvqeqg","pricing_plan_id":"cebpf4jnsgd1na2vs0mg"},{"bike_id":"d1094955-0e48-41ff-8fc7-b5fabb2f38b3","system_id":"levelo_inurba_marseille","lat":43.28721,"lon":5.36086,"is_reserved":false,"is_disabled":false,"rental_uris":{"android":"levelo://app?vid=d1094955-0e48-41ff-8fc7-b5fabb2f38b3","ios":"levelo://app?vid=d1094955-0e48-41ff-8fc7-b5fabb2f38b3"},"vehicle_type_id":"4","last_reported":1761157036,"current_range_meters":10000,"station_id":"cki0cbj6b192h4jlfktg","pricing_plan_id":"cebpf4jnsgd1na2vs0mg"},{"bike_id":"a8531c51-5a63-4a2e-880c-5b248cf9843e","system_id":"levelo_inurba_marseille","lat":43.31164,"lon":5.38726,"is_reserved":false,"is_disabled":false,"rental_uris":{"android":"levelo://app?vid=a8531c51-5a63-4a2e-880c-5b248cf9843e","ios":"levelo://app?vid=a8531c51-5a63-4a2e-880c-5b248cf9843e"},"vehicle_type_id":"4","last_reported":1761157036,"current_range_meters":10000,"station_id":"ce4bgv12rcd13ifvqcp0","pricing_plan_id":"cebpf4jnsgd1na2vs0mg"},{"bike_id":"44b1ad6b-1a98-4e37-a182-f58df3beccce","system_id":"levelo_inurba_marseille","lat":43.21197,"lon":5.35079,"is_reserved":false,"is_disabled":true,"rental_uris":{"android":"levelo://app?vid=44b1ad6b-1a98-4e37-a182-f58df3beccce","ios":"levelo://app?vid=44b1ad6b-1a98-4e37-a182-f58df3beccce"},"vehicle_type_id":"4","last_reported":1761157036,"current_range_meters":10800,"station_id":"","pricing_plan_id":"cebpf4jnsgd1na2vs0mg"},{"bike_id":"82576c51-8b9b-43eb-aa43-fc4a18c9ea5b","system_id":"levelo_inurba_marseille","lat":43.21745,"lon":5.34613,"is_reserved":false,"is_disabled":false,"rental_uris":{"android":"levelo://app?vid=82576c51-8b9b-43eb-aa43-fc4a18c9ea5b","ios":"levelo://app?vid=82576c51-8b9b-43eb-aa43-fc4a18c9ea5b"},"vehicle_type_id":"4","last_reported":1761157036,"current_range_meters":10800,"station_id":"st_cvj6r9ubvosntc0bgbag","pricing_plan_id":"cebpf4jnsgd1na2vs0mg"},{"bike_id":"89dd87c4-c8d0-4de7-8902-2b0447e67475","system_id":"levelo_inurba_marseille","lat":43.31232,"lon":5.36877,"is_reserved":false,"is_disabled":true,"rental_uris":{"android":"levelo://app?vid=89dd87c4-c8d0-4de7-8902-2b0447e67475","ios":"levelo://app?vid=89dd87c4-c8d0-4de7-8902-2b0447e67475"},"vehicle_type_id":"4","last_reported":1761157036,"current_range_meters":10800,"station_id":"","pricing_plan_id":"cebpf4jnsgd1na2vs0mg"},{"bike_id":"0c4cbdf6-cb17-4712-8770-294b25b90dbe","system_id":"levelo_inurba_marseille","lat":43.29909,"lon":5.38149,"is_reserved":false,"is_disabled":false,"rental_uris":{"android":"levelo://app?vid=0c4cbdf6-cb17-4712-8770-294b25b90dbe","ios":"levelo://app?vid=0c4cbdf6-cb17-4712-8770-294b25b90dbe"},"vehicle_type_id":"4","last_reported":1761157036,"current_range_meters":10800,"station_id":"ce4bgj12rcd13ifvqbc0","pricing_plan_id":"cebpf4jnsgd1na2vs0mg"},{"bike_id":"43a5f508-6b7c-4629-8ac2-bd8728645505","system_id":"levelo_inurba_marseille","lat":43.330079,"lon":5.390275,"is_reserved":false,"is_disabled":false,"rental_uris":{"android":"levelo://app?vid=43a5f508-6b7c-4629-8ac2-bd8728645505","ios":"levelo://app?vid=43a5f508-6b7c-4629-8ac2-bd8728645505"},"vehicle_type_id":"4","last_reported":1761157036,"current_range_meters":11200,"station_id":"ce4bhr92rcd13ifvqhrg","pricing_plan_id":"cebpf4jnsgd1na2vs0mg"},{"bike_id":"3eff91bd-cb09-4fd8-b85b-dcac6fe4af29","system_id":"levelo_inurba_marseille","lat":43.30219,"lon":5.39442,"is_reserved":false,"is_disabled":false,"rental_uris":{"android":"levelo://app?vid=3eff91bd-cb09-4fd8-b85b-dcac6fe4af29","ios":"levelo://app?vid=3eff91bd-cb09-4fd8-b85b-dcac6fe4af29"},"vehicle_type_id":"4","last_reported":1761157036,"current_range_meters":11200,"station_id":"","pricing_plan_id":"cebpf4jnsgd1na2vs0mg"},{"bike_id":"4a8f16ef-635b-4c28-84a7-65f96bf956db","system_id":"levelo_inurba_marseille","lat":43.286142,"lon":5.350988,"is_reserved":false,"is_disabled":false,"rental_uris":{"android":"levelo://app?vid=4a8f16ef-635b-4c28-84a7-65f96bf956db","ios":"levelo://app?vid=4a8f16ef-635b-4c28-84a7-65f96bf956db"},"vehicle_type_id":"4","last_reported":1761157036,"current_range_meters":11200,"station_id":"ce4bhch2rcd13ifvqeug","pricing_plan_id":"cebpf4jnsgd1na2vs0mg"},{"bike_id":"692d5539-84be-4569-9ece-e071dd439724","system_id":"levelo_inurba_marseille","lat":43.262238,"lon":5.404531,"is_reserved":false,"is_disabled":false,"rental_uris":{"android":"levelo://app?vid=692d5539-84be-4569-9ece-e071dd439724","ios":"levelo://app?vid=692d5539-84be-4569-9ece-e071dd439724"},"vehicle_type_id":"4","last_reported":1761157036,"current_range_meters":11200,"station_id":"","pricing_plan_id":"cebpf4jnsgd1na2vs0mg"},{"bike_id":"fe5786a2-3cbd-4e30-8ddf-18df8db18ee6","system_id":"levelo_inurba_marseille","lat":43.29993,"lon":5.37191,"is_reserved":false,"is_disabled":true,"rental_uris":{"android":"levelo://app?vid=fe5786a2-3cbd-4e30-8ddf-18df8db18ee6","ios":"levelo://app?vid=fe5786a2-3cbd-4e30-8ddf-18df8db18ee6"},"vehicle_type_id":"4","last_reported":1761157036,"current_range_meters":11200,"station_id":"ce4bgr92rcd13ifvqc7g","pricing_plan_id":"cebpf4jnsgd1na2vs0mg"},{"bike_id":"c59dd764-ed66-4350-bdc3-16de6e56d980","system_id":"levelo_inurba_marseille","lat":43.28616,"lon":5.35103,"is_reserved":false,"is_disabled":false,"rental_uris":{"android":"levelo://app?vid=c59dd764-ed66-4350-bdc3-16de6e56d980","ios":"levelo://app?vid=c59dd764-ed66-4350-bdc3-16de6e56d980"},"vehicle_type_id":"4","last_reported":1761157036,"current_range_meters":11200,"station_id":"ce4bhch2rcd13ifvqeug","pricing_plan_id":"cebpf4jnsgd1na2vs0mg"},{"bike_id":"7d3edfab-1200-4aab-936e-4fb6b3c138ce","system_id":"levelo_inurba_marseille","lat":43.29517,"lon":5.38534,"is_reserved":false,"is_disabled":false,"rental_uris":{"android":"levelo://app?vid=7d3edfab-1200-4aab-936e-4fb6b3c138ce","ios":"levelo://app?vid=7d3edfab-1200-4aab-936e-4fb6b3c138ce"},"vehicle_type_id":"4","last_reported":1761157036,"current_range_meters":11600,"station_id":"ce4bgih2rcd13ifvqba0","pricing_plan_id":"cebpf4jnsgd1na2vs0mg"},{"bike_id":"3fb9cf85-9945-497f-829d-d2991df9d1ee","system_id":"levelo_inurba_marseille","lat":43.31878,"lon":5.40737,"is_reserved":false,"is_disabled":false,"rental_uris":{"android":"levelo://app?vid=3fb9cf85-9945-497f-829d-d2991df9d1ee","ios":"levelo://app?vid=3fb9cf85-9945-497f-829d-d2991df9d1ee"},"vehicle_type_id":"4","last_reported":1761157036,"current_range_meters":11600,"station_id":"ce4bhq12rcd13ifvqhig","pricing_plan_id":"cebpf4jnsgd1na2vs0mg"},{"bike_id":"27938040-5f97-48c9-b073-25f510f7592c","system_id":"levelo_inurba_marseille","lat":43.33018,"lon":5.39047,"is_reserved":false,"is_disabled":false,"rental_uris":{"android":"levelo://app?vid=27938040-5f97-48c9-b073-25f510f7592c","ios":"levelo://app?vid=27938040-5f97-48c9-b073-25f510f7592c"},"vehicle_type_id":"4","last_reported":1761157036,"current_range_meters":11600,"station_id":"ce4bhr92rcd13ifvqhrg","pricing_plan_id":"cebpf4jnsgd1na2vs0mg"},{"bike_id":"19233420-de34-4448-a7cc-9af400a78bbb","system_id":"levelo_inurba_marseille","lat":43.30141,"lon":5.38071,"is_reserved":false,"is_disabled":false,"rental_uris":{"android":"levelo://app?vid=19233420-de34-4448-a7cc-9af400a78bbb","ios":"levelo://app?vid=19233420-de34-4448-a7cc-9af400a78bbb"},"vehicle_type_id":"4","last_reported":1761157036,"current_range_meters":11600,"station_id":"ce4bgjp2rcd13ifvqbh0","pricing_plan_id":"cebpf4jnsgd1na2vs0mg"},{"bike_id":"396aaa55-c35f-41fc-8337-93bac25c9dde","system_id":"levelo_inurba_marseille","lat":43.29235,"lon":5.35552,"is_reserved":false,"is_disabled":false,"rental_uris":{"android":"levelo://app?vid=396aaa55-c35f-41fc-8337-93bac25c9dde","ios":"levelo://app?vid=396aaa55-c35f-41fc-8337-93bac25c9dde"},"vehicle_type_id":"4","last_reported":1761157036,"current_range_meters":11600,"station_id":"","pricing_plan_id":"cebpf4jnsgd1na2vs0mg"},{"bike_id":"27e4da55-03ac-4a27-9cbb-4218c6a866bf","system_id":"levelo_inurba_marseille","lat":43.280642,"lon":5.352788,"is_reserved":false,"is_disabled":false,"rental_uris":{"android":"levelo://app?vid=27e4da55-03ac-4a27-9cbb-4218c6a866bf","ios":"levelo://app?vid=27e4da55-03ac-4a27-9cbb-4218c6a866bf"},"vehicle_type_id":"4","last_reported":1761157036,"current_range_meters":11600,"station_id":"","pricing_plan_id":"cebpf4jnsgd1na2vs0mg"},{"bike_id":"dcc6e2d6-2ba4-4f51-84d3-35a3d39467b2","system_id":"levelo_inurba_marseille","lat":43.27684,"lon":5.38873,"is_reserved":false,"is_disabled":false,"rental_uris":{"android":"levelo://app?vid=dcc6e2d6-2ba4-4f51-84d3-35a3d39467b2","ios":"levelo://app?vid=dcc6e2d6-2ba4-4f51-84d3-35a3d39467b2"},"vehicle_type_id":"4","last_reported":1761157036,"current_range_meters":11600,"station_id":"ce4bhi12rcd13ifvqfo0","pricing_plan_id":"cebpf4jnsgd1na2vs0mg"},{"bike_id":"9c4d94a0-5108-4609-a60a-231c7001f351","system_id":"levelo_inurba_marseille","lat":43.29285,"lon":5.401264,"is_reserved":false,"is_disabled":false,"rental_uris":{"android":"levelo://app?vid=9c4d94a0-5108-4609-a60a-231c7001f351","ios":"levelo://app?vid=9c4d94a0-5108-4609-a60a-231c7001f351"},"vehicle_type_id":"4","last_reported":1761157036,"current_range_meters":11600,"station_id":"ce4bh312rcd13ifvqdk0","pricing_plan_id":"cebpf4jnsgd1na2vs0mg"},{"bike_id":"1aecac62-4d50-47b3-8143-8200212d8a1f","system_id":"levelo_inurba_marseille","lat":43.29027,"lon":5.39966,"is_reserved":false,"is_disabled":false,"rental_uris":{"android":"levelo://app?vid=1aecac62-4d50-47b3-8143-8200212d8a1f","ios":"levelo://app?vid=1aecac62-4d50-47b3-8143-8200212d8a1f"},"vehicle_type_id":"4","last_reported":1761157036,"current_range_meters":11600,"station_id":"ce4bh392rcd13ifvqdm0","pricing_plan_id":"cebpf4jnsgd1na2vs0mg"},{"bike_id":"f6902d82-f394-4c17-aa0d-6a711dfb8cc4","system_id":"levelo_inurba_marseille","lat":43.2893,"lon":5.38388,"is_reserved":false,"is_disabled":false,"rental_uris":{"android":"levelo://app?vid=f6902d82-f394-4c17-aa0d-6a711dfb8cc4","ios":"levelo://app?vid=f6902d82-f394-4c17-aa0d-6a711dfb8cc4"},"vehicle_type_id":"4","last_reported":1761157036,"current_range_meters":12000,"station_id":"ce4bh612rcd13ifvqe6g","pricing_plan_id":"cebpf4jnsgd1na2vs0mg"},{"bike_id":"b14d5332-24d6-448e-b814-01997ba22907","system_id":"levelo_inurba_marseille","lat":43.26939,"lon":5.40268,"is_reserved":false,"is_disabled":false,"rental_uris":{"android":"levelo://app?vid=b14d5332-24d6-448e-b814-01997ba22907","ios":"levelo://app?vid=b14d5332-24d6-448e-b814-01997ba22907"},"vehicle_type_id":"4","last_reported":1761157036,"current_range_meters":12000,"station_id":"cjm6bp8fraef2m0cb0m0","pricing_plan_id":"cebpf4jnsgd1na2vs0mg"},{"bike_id":"6cedbdd4-d4fa-45a0-a47a-6925bf95118c","system_id":"levelo_inurba_marseille","lat":43.22939,"lon":5.35363,"is_reserved":false,"is_disabled":false,"rental_uris":{"android":"levelo://app?vid=6cedbdd4-d4fa-45a0-a47a-6925bf95118c","ios":"levelo://app?vid=6cedbdd4-d4fa-45a0-a47a-6925bf95118c"},"vehicle_type_id":"4","last_reported":1761157036,"current_range_meters":12000,"station_id":"cpo3532slgdg3j2ikp40","pricing_plan_id":"cebpf4jnsgd1na2vs0mg"},{"bike_id":"36dc1781-8c1b-41b2-ab6a-2740f17395eb","system_id":"levelo_inurba_marseille","lat":43.29799,"lon":5.38088,"is_reserved":false,"is_disabled":false,"rental_uris":{"android":"levelo://app?vid=36dc1781-8c1b-41b2-ab6a-2740f17395eb","ios":"levelo://app?vid=36dc1781-8c1b-41b2-ab6a-2740f17395eb"},"vehicle_type_id":"4","last_reported":1761157036,"current_range_meters":12000,"station_id":"ce4bgip2rcd13ifvqbb0","pricing_plan_id":"cebpf4jnsgd1na2vs0mg"},{"bike_id":"1a125c62-d155-41b9-859d-4e78a72272b6","system_id":"levelo_inurba_marseille","lat":43.30306,"lon":5.39217,"is_reserved":false,"is_disabled":false,"rental_uris":{"android":"levelo://app?vid=1a125c62-d155-41b9-859d-4e78a72272b6","ios":"levelo://app?vid=1a125c62-d155-41b9-859d-4e78a72272b6"},"vehicle_type_id":"4","last_reported":1761157036,"current_range_meters":12000,"station_id":"ce4bgkh2rcd13ifvqbk0","pricing_plan_id":"cebpf4jnsgd1na2vs0mg"},{"bike_id":"37d01fc8-4b4d-4652-a489-1254eb9d4c80","system_id":"levelo_inurba_marseille","lat":43.34076,"lon":5.40411,"is_reserved":false,"is_disabled":false,"rental_uris":{"android":"levelo://app?vid=37d01fc8-4b4d-4652-a489-1254eb9d4c80","ios":"levelo://app?vid=37d01fc8-4b4d-4652-a489-1254eb9d4c80"},"vehicle_type_id":"4","last_reported":1761157036,"current_range_meters":12000,"station_id":"","pricing_plan_id":"cebpf4jnsgd1na2vs0mg"},{"bike_id":"30ebb9ec-f73c-4d9f-baab-fc3e75e566b1","system_id":"levelo_inurba_marseille","lat":43.28612,"lon":5.3706,"is_reserved":false,"is_disabled":false,"rental_uris":{"android":"levelo://app?vid=30ebb9ec-f73c-4d9f-baab-fc3e75e566b1","ios":"levelo://app?vid=30ebb9ec-f73c-4d9f-baab-fc3e75e566b1"},"vehicle_type_id":"4","last_reported":1761157036,"current_range_meters":12000,"station_id":"ce4bht12rcd13ifvqi60","pricing_plan_id":"cebpf4jnsgd1na2vs0mg"},{"bike_id":"ec60652f-d3c2-400e-8251-0e42407708db","system_id":"levelo_inurba_marseille","lat":43.270671,"lon":5.422931,"is_reserved":false,"is_disabled":false,"rental_uris":{"android":"levelo://app?vid=ec60652f-d3c2-400e-8251-0e42407708db","ios":"levelo://app?vid=ec60652f-d3c2-400e-8251-0e42407708db"},"vehicle_type_id":"4","last_reported":1761157036,"current_range_meters":12400,"station_id":"ce4bhk92rcd13ifvqgb0","pricing_plan_id":"cebpf4jnsgd1na2vs0mg"},{"bike_id":"91d630cc-6558-474d-911d-2ff4a104ddb1","system_id":"levelo_inurba_marseille","lat":43.31751,"lon":5.39013,"is_reserved":false,"is_disabled":false,"rental_uris":{"android":"levelo://app?vid=91d630cc-6558-474d-911d-2ff4a104ddb1","ios":"levelo://app?vid=91d630cc-6558-474d-911d-2ff4a104ddb1"},"vehicle_type_id":"4","last_reported":1761157036,"current_range_meters":12400,"station_id":"ce4bhqp2rcd13ifvqhng","pricing_plan_id":"cebpf4jnsgd1na2vs0mg"},{"bike_id":"61c47949-89b9-4c27-95f4-2b581fa26bb6","system_id":"levelo_inurba_marseille","lat":43.23184,"lon":5.39982,"is_reserved":false,"is_disabled":false,"rental_uris":{"android":"levelo://app?vid=61c47949-89b9-4c27-95f4-2b581fa26bb6","ios":"levelo://app?vid=61c47949-89b9-4c27-95f4-2b581fa26bb6"},"vehicle_type_id":"4","last_reported":1761157036,"current_range_meters":12400,"station_id":"ce4bhn12rcd13ifvqgqg","pricing_plan_id":"cebpf4jnsgd1na2vs0mg"},{"bike_id":"bf392a00-fd96-4a1a-bd97-9eca50c23892","system_id":"levelo_inurba_marseille","lat":43.2732,"lon":5.39074,"is_reserved":false,"is_disabled":false,"rental_uris":{"android":"levelo://app?vid=bf392a00-fd96-4a1a-bd97-9eca50c23892","ios":"levelo://app?vid=bf392a00-fd96-4a1a-bd97-9eca50c23892"},"vehicle_type_id":"4","last_reported":1761157036,"current_range_meters":12400,"station_id":"ce4bhgp2rcd13ifvqfe0","pricing_plan_id":"cebpf4jnsgd1na2vs0mg"},{"bike_id":"6b968a21-1ae1-46c3-a772-24b54a4311ba","system_id":"levelo_inurba_marseille","lat":43.31329,"lon":5.39693,"is_reserved":false,"is_disabled":false,"rental_uris":{"android":"levelo://app?vid=6b968a21-1ae1-46c3-a772-24b54a4311ba","ios":"levelo://app?vid=6b968a21-1ae1-46c3-a772-24b54a4311ba"},"vehicle_type_id":"4","last_reported":1761157036,"current_range_meters":12400,"station_id":"ce4bgvp2rcd13ifvqcu0","pricing_plan_id":"cebpf4jnsgd1na2vs0mg"},{"bike_id":"79e8ea3e-55a6-4f49-b239-57d17b161b44","system_id":"levelo_inurba_marseille","lat":43.29536,"lon":5.38546,"is_reserved":false,"is_disabled":false,"rental_uris":{"android":"levelo://app?vid=79e8ea3e-55a6-4f49-b239-57d17b161b44","ios":"levelo://app?vid=79e8ea3e-55a6-4f49-b239-57d17b161b44"},"vehicle_type_id":"4","last_reported":1761157036,"current_range_meters":12400,"station_id":"ce4bgih2rcd13ifvqba0","pricing_plan_id":"cebpf4jnsgd1na2vs0mg"},{"bike_id":"cf4f8523-943a-4ccb-9ca4-89b3d37151d4","system_id":"levelo_inurba_marseille","lat":43.29516,"lon":5.38561,"is_reserved":false,"is_disabled":false,"rental_uris":{"android":"levelo://app?vid=cf4f8523-943a-4ccb-9ca4-89b3d37151d4","ios":"levelo://app?vid=cf4f8523-943a-4ccb-9ca4-89b3d37151d4"},"vehicle_type_id":"4","last_reported":1761157036,"current_range_meters":12400,"station_id":"ce4bgih2rcd13ifvqba0","pricing_plan_id":"cebpf4jnsgd1na2vs0mg"},{"bike_id":"425ded7c-04b3-4d95-a0c1-dd4a744a41a8","system_id":"levelo_inurba_marseille","lat":43.30135,"lon":5.39872,"is_reserved":false,"is_disabled":false,"rental_uris":{"android":"levelo://app?vid=425ded7c-04b3-4d95-a0c1-dd4a744a41a8","ios":"levelo://app?vid=425ded7c-04b3-4d95-a0c1-dd4a744a41a8"},"vehicle_type_id":"4","last_reported":1761157036,"current_range_meters":12400,"station_id":"ce4bh0h2rcd13ifvqd40","pricing_plan_id":"cebpf4jnsgd1na2vs0mg"},{"bike_id":"9314deb0-b2b7-47e8-a91b-f7022e77932a","system_id":"levelo_inurba_marseille","lat":43.31887,"lon":5.40739,"is_reserved":false,"is_disabled":false,"rental_uris":{"android":"levelo://app?vid=9314deb0-b2b7-47e8-a91b-f7022e77932a","ios":"levelo://app?vid=9314deb0-b2b7-47e8-a91b-f7022e77932a"},"vehicle_type_id":"4","last_reported":1761157036,"current_range_meters":12400,"station_id":"ce4bhq12rcd13ifvqhig","pricing_plan_id":"cebpf4jnsgd1na2vs0mg"},{"bike_id":"0914acf5-02b1-4eee-9278-a32a847bef2a","system_id":"levelo_inurba_marseille","lat":43.290283,"lon":5.386405,"is_reserved":false,"is_disabled":false,"rental_uris":{"android":"levelo://app?vid=0914acf5-02b1-4eee-9278-a32a847bef2a","ios":"levelo://app?vid=0914acf5-02b1-4eee-9278-a32a847bef2a"},"vehicle_type_id":"4","last_reported":1761157036,"current_range_meters":12800,"station_id":"ce4bh4p2rcd13ifvqe0g","pricing_plan_id":"cebpf4jnsgd1na2vs0mg"},{"bike_id":"d74e2df8-5632-4edb-9723-5ac247394e83","system_id":"levelo_inurba_marseille","lat":43.30729,"lon":5.42442,"is_reserved":false,"is_disabled":false,"rental_uris":{"android":"levelo://app?vid=d74e2df8-5632-4edb-9723-5ac247394e83","ios":"levelo://app?vid=d74e2df8-5632-4edb-9723-5ac247394e83"},"vehicle_type_id":"4","last_reported":1761157036,"current_range_meters":12800,"station_id":"st_cvj6ca6bvosntc0bfgr0","pricing_plan_id":"cebpf4jnsgd1na2vs0mg"},{"bike_id":"08e03dfd-c0ed-4610-983b-acee4787ab1e","system_id":"levelo_inurba_marseille","lat":43.320506,"lon":5.415449,"is_reserved":false,"is_disabled":false,"rental_uris":{"android":"levelo://app?vid=08e03dfd-c0ed-4610-983b-acee4787ab1e","ios":"levelo://app?vid=08e03dfd-c0ed-4610-983b-acee4787ab1e"},"vehicle_type_id":"4","last_reported":1761157036,"current_range_meters":12800,"station_id":"ce4bhq92rcd13ifvqhkg","pricing_plan_id":"cebpf4jnsgd1na2vs0mg"},{"bike_id":"450b662e-9480-40db-b67e-6b1ac7d9f61b","system_id":"levelo_inurba_marseille","lat":43.31109,"lon":5.37781,"is_reserved":false,"is_disabled":false,"rental_uris":{"android":"levelo://app?vid=450b662e-9480-40db-b67e-6b1ac7d9f61b","ios":"levelo://app?vid=450b662e-9480-40db-b67e-6b1ac7d9f61b"},"vehicle_type_id":"4","last_reported":1761157036,"current_range_meters":12800,"station_id":"ce4bgt92rcd13ifvqcg0","pricing_plan_id":"cebpf4jnsgd1na2vs0mg"},{"bike_id":"3aa8c3e6-230d-4538-ac39-2b944611f536","system_id":"levelo_inurba_marseille","lat":43.31335,"lon":5.36717,"is_reserved":false,"is_disabled":true,"rental_uris":{"android":"levelo://app?vid=3aa8c3e6-230d-4538-ac39-2b944611f536","ios":"levelo://app?vid=3aa8c3e6-230d-4538-ac39-2b944611f536"},"vehicle_type_id":"4","last_reported":1761157036,"current_range_meters":12800,"station_id":"ce4bgr92rcd13ifvqc6g","pricing_plan_id":"cebpf4jnsgd1na2vs0mg"},{"bike_id":"ac4f7d3c-5af7-44ad-8c8b-463d26f4b847","system_id":"levelo_inurba_marseille","lat":43.274451,"lon":5.390878,"is_reserved":false,"is_disabled":false,"rental_uris":{"android":"levelo://app?vid=ac4f7d3c-5af7-44ad-8c8b-463d26f4b847","ios":"levelo://app?vid=ac4f7d3c-5af7-44ad-8c8b-463d26f4b847"},"vehicle_type_id":"4","last_reported":1761157036,"current_range_meters":12800,"station_id":"ce4bhg12rcd13ifvqf80","pricing_plan_id":"cebpf4jnsgd1na2vs0mg"},{"bike_id":"dc6c007c-d1d1-4bc4-a9ef-1adb2ecac162","system_id":"levelo_inurba_marseille","lat":43.292603,"lon":5.384398,"is_reserved":false,"is_disabled":false,"rental_uris":{"android":"levelo://app?vid=dc6c007c-d1d1-4bc4-a9ef-1adb2ecac162","ios":"levelo://app?vid=dc6c007c-d1d1-4bc4-a9ef-1adb2ecac162"},"vehicle_type_id":"4","last_reported":1761157036,"current_range_meters":12800,"station_id":"ce4bh512rcd13ifvqe2g","pricing_plan_id":"cebpf4jnsgd1na2vs0mg"},{"bike_id":"9ad8fe6a-d04e-460c-a43d-bd856b7bef5f","system_id":"levelo_inurba_marseille","lat":43.281097,"lon":5.378451,"is_reserved":false,"is_disabled":false,"rental_uris":{"android":"levelo://app?vid=9ad8fe6a-d04e-460c-a43d-bd856b7bef5f","ios":"levelo://app?vid=9ad8fe6a-d04e-460c-a43d-bd856b7bef5f"},"vehicle_type_id":"4","last_reported":1761157036,"current_range_meters":12800,"station_id":"ce4bha12rcd13ifvqee0","pricing_plan_id":"cebpf4jnsgd1na2vs0mg"},{"bike_id":"abd0935b-1b50-4814-87bc-d8d3d456ba35","system_id":"levelo_inurba_marseille","lat":43.292658,"lon":5.384103,"is_reserved":false,"is_disabled":false,"rental_uris":{"android":"levelo://app?vid=abd0935b-1b50-4814-87bc-d8d3d456ba35","ios":"levelo://app?vid=abd0935b-1b50-4814-87bc-d8d3d456ba35"},"vehicle_type_id":"4","last_reported":1761157036,"current_range_meters":12800,"station_id":"ce4bh692rcd13ifvqea0","pricing_plan_id":"cebpf4jnsgd1na2vs0mg"},{"bike_id":"56d0fe63-5a56-433d-85a1-060e9100291a","system_id":"levelo_inurba_marseille","lat":43.286652,"lon":5.386722,"is_reserved":false,"is_disabled":false,"rental_uris":{"android":"levelo://app?vid=56d0fe63-5a56-433d-85a1-060e9100291a","ios":"levelo://app?vid=56d0fe63-5a56-433d-85a1-060e9100291a"},"vehicle_type_id":"4","last_reported":1761157036,"current_range_meters":13600,"station_id":"ce4bh492rcd13ifvqdug","pricing_plan_id":"cebpf4jnsgd1na2vs0mg"},{"bike_id":"5b2fb394-b654-4cda-abea-19d87e1a4938","system_id":"levelo_inurba_marseille","lat":43.240822,"lon":5.377519,"is_reserved":false,"is_disabled":false,"rental_uris":{"android":"levelo://app?vid=5b2fb394-b654-4cda-abea-19d87e1a4938","ios":"levelo://app?vid=5b2fb394-b654-4cda-abea-19d87e1a4938"},"vehicle_type_id":"4","last_reported":1761157036,"current_range_meters":13600,"station_id":"ce4bhnp2rcd13ifvqgvg","pricing_plan_id":"cebpf4jnsgd1na2vs0mg"},{"bike_id":"61f001a3-2cb1-43fb-bfe4-e4a1763b22c1","system_id":"levelo_inurba_marseille","lat":43.270726,"lon":5.422821,"is_reserved":false,"is_disabled":false,"rental_uris":{"android":"levelo://app?vid=61f001a3-2cb1-43fb-bfe4-e4a1763b22c1","ios":"levelo://app?vid=61f001a3-2cb1-43fb-bfe4-e4a1763b22c1"},"vehicle_type_id":"4","last_reported":1761157036,"current_range_meters":13600,"station_id":"ce4bhk92rcd13ifvqgb0","pricing_plan_id":"cebpf4jnsgd1na2vs0mg"},{"bike_id":"aef88e7f-d7bf-4c36-abcc-d9acc84d52cd","system_id":"levelo_inurba_marseille","lat":43.28886,"lon":5.37871,"is_reserved":false,"is_disabled":false,"rental_uris":{"android":"levelo://app?vid=aef88e7f-d7bf-4c36-abcc-d9acc84d52cd","ios":"levelo://app?vid=aef88e7f-d7bf-4c36-abcc-d9acc84d52cd"},"vehicle_type_id":"4","last_reported":1761157036,"current_range_meters":13600,"station_id":"","pricing_plan_id":"cebpf4jnsgd1na2vs0mg"},{"bike_id":"e7709aff-f080-4c40-b225-77642ea3c5cc","system_id":"levelo_inurba_marseille","lat":43.241715,"lon":5.363935,"is_reserved":false,"is_disabled":false,"rental_uris":{"android":"levelo://app?vid=e7709aff-f080-4c40-b225-77642ea3c5cc","ios":"levelo://app?vid=e7709aff-f080-4c40-b225-77642ea3c5cc"},"vehicle_type_id":"4","last_reported":1761157036,"current_range_meters":13600,"station_id":"cpo36qri1sfpv3e86is0","pricing_plan_id":"cebpf4jnsgd1na2vs0mg"},{"bike_id":"c7b9837e-da7f-48df-9970-e13eaa4f0aa6","system_id":"levelo_inurba_marseille","lat":43.29025,"lon":5.38633,"is_reserved":false,"is_disabled":false,"rental_uris":{"android":"levelo://app?vid=c7b9837e-da7f-48df-9970-e13eaa4f0aa6","ios":"levelo://app?vid=c7b9837e-da7f-48df-9970-e13eaa4f0aa6"},"vehicle_type_id":"4","last_reported":1761157036,"current_range_meters":14000,"station_id":"ce4bh4p2rcd13ifvqe0g","pricing_plan_id":"cebpf4jnsgd1na2vs0mg"},{"bike_id":"b61e6817-4496-4ad7-ab43-b524af2e26e5","system_id":"levelo_inurba_marseille","lat":43.2866,"lon":5.38661,"is_reserved":false,"is_disabled":false,"rental_uris":{"android":"levelo://app?vid=b61e6817-4496-4ad7-ab43-b524af2e26e5","ios":"levelo://app?vid=b61e6817-4496-4ad7-ab43-b524af2e26e5"},"vehicle_type_id":"4","last_reported":1761157036,"current_range_meters":14000,"station_id":"","pricing_plan_id":"cebpf4jnsgd1na2vs0mg"},{"bike_id":"07e992db-48e1-481b-a50e-3b491cfc1455","system_id":"levelo_inurba_marseille","lat":43.31991,"lon":5.41291,"is_reserved":false,"is_disabled":false,"rental_uris":{"android":"levelo://app?vid=07e992db-48e1-481b-a50e-3b491cfc1455","ios":"levelo://app?vid=07e992db-48e1-481b-a50e-3b491cfc1455"},"vehicle_type_id":"4","last_reported":1761157036,"current_range_meters":14000,"station_id":"","pricing_plan_id":"cebpf4jnsgd1na2vs0mg"},{"bike_id":"4eae2ec4-8862-466e-a3d9-395cca4276d0","system_id":"levelo_inurba_marseille","lat":43.30289,"lon":5.37496,"is_reserved":false,"is_disabled":false,"rental_uris":{"android":"levelo://app?vid=4eae2ec4-8862-466e-a3d9-395cca4276d0","ios":"levelo://app?vid=4eae2ec4-8862-466e-a3d9-395cca4276d0"},"vehicle_type_id":"4","last_reported":1761157036,"current_range_meters":14000,"station_id":"","pricing_plan_id":"cebpf4jnsgd1na2vs0mg"},{"bike_id":"7a274fe2-bedc-42c6-a736-99d3183a0359","system_id":"levelo_inurba_marseille","lat":43.2852,"lon":5.44108,"is_reserved":false,"is_disabled":false,"rental_uris":{"android":"levelo://app?vid=7a274fe2-bedc-42c6-a736-99d3183a0359","ios":"levelo://app?vid=7a274fe2-bedc-42c6-a736-99d3183a0359"},"vehicle_type_id":"4","last_reported":1761157036,"current_range_meters":14000,"station_id":"st_d3j3df2ikq2c7380ej80","pricing_plan_id":"cebpf4jnsgd1na2vs0mg"},{"bike_id":"bb80561e-167a-4644-8df0-65889c636dcf","system_id":"levelo_inurba_marseille","lat":43.29248,"lon":5.38442,"is_reserved":false,"is_disabled":false,"rental_uris":{"android":"levelo://app?vid=bb80561e-167a-4644-8df0-65889c636dcf","ios":"levelo://app?vid=bb80561e-167a-4644-8df0-65889c636dcf"},"vehicle_type_id":"4","last_reported":1761157036,"current_range_meters":14000,"station_id":"ce4bh692rcd13ifvqea0","pricing_plan_id":"cebpf4jnsgd1na2vs0mg"},{"bike_id":"1178d055-7adc-494e-a1df-820b9a7d50ed","system_id":"levelo_inurba_marseille","lat":43.29254,"lon":5.38443,"is_reserved":false,"is_disabled":false,"rental_uris":{"android":"levelo://app?vid=1178d055-7adc-494e-a1df-820b9a7d50ed","ios":"levelo://app?vid=1178d055-7adc-494e-a1df-820b9a7d50ed"},"vehicle_type_id":"4","last_reported":1761157036,"current_range_meters":14400,"station_id":"ce4bh692rcd13ifvqea0","pricing_plan_id":"cebpf4jnsgd1na2vs0mg"},{"bike_id":"9870a68d-ae62-4bec-82c3-a7443a850bdc","system_id":"levelo_inurba_marseille","lat":43.31303,"lon":5.37768,"is_reserved":false,"is_disabled":false,"rental_uris":{"android":"levelo://app?vid=9870a68d-ae62-4bec-82c3-a7443a850bdc","ios":"levelo://app?vid=9870a68d-ae62-4bec-82c3-a7443a850bdc"},"vehicle_type_id":"4","last_reported":1761157036,"current_range_meters":14400,"station_id":"","pricing_plan_id":"cebpf4jnsgd1na2vs0mg"},{"bike_id":"368f74f5-8977-4903-b23e-f342eb53799e","system_id":"levelo_inurba_marseille","lat":43.31171,"lon":5.38713,"is_reserved":false,"is_disabled":false,"rental_uris":{"android":"levelo://app?vid=368f74f5-8977-4903-b23e-f342eb53799e","ios":"levelo://app?vid=368f74f5-8977-4903-b23e-f342eb53799e"},"vehicle_type_id":"4","last_reported":1761157036,"current_range_meters":14400,"station_id":"ce4bgv12rcd13ifvqcp0","pricing_plan_id":"cebpf4jnsgd1na2vs0mg"},{"bike_id":"7e18ce23-6719-400c-85c2-fc9237a1c838","system_id":"levelo_inurba_marseille","lat":43.31758,"lon":5.39015,"is_reserved":false,"is_disabled":false,"rental_uris":{"android":"levelo://app?vid=7e18ce23-6719-400c-85c2-fc9237a1c838","ios":"levelo://app?vid=7e18ce23-6719-400c-85c2-fc9237a1c838"},"vehicle_type_id":"4","last_reported":1761157036,"current_range_meters":14400,"station_id":"ce4bhqp2rcd13ifvqhng","pricing_plan_id":"cebpf4jnsgd1na2vs0mg"},{"bike_id":"71f3f088-7e67-4058-82d2-63debc56b55b","system_id":"levelo_inurba_marseille","lat":43.307312,"lon":5.424399,"is_reserved":false,"is_disabled":false,"rental_uris":{"android":"levelo://app?vid=71f3f088-7e67-4058-82d2-63debc56b55b","ios":"levelo://app?vid=71f3f088-7e67-4058-82d2-63debc56b55b"},"vehicle_type_id":"4","last_reported":1761157036,"current_range_meters":14400,"station_id":"","pricing_plan_id":"cebpf4jnsgd1na2vs0mg"},{"bike_id":"18cf9059-649d-4dea-ae33-73b9f32a50da","system_id":"levelo_inurba_marseille","lat":43.24648,"lon":5.38893,"is_reserved":false,"is_disabled":false,"rental_uris":{"android":"levelo://app?vid=18cf9059-649d-4dea-ae33-73b9f32a50da","ios":"levelo://app?vid=18cf9059-649d-4dea-ae33-73b9f32a50da"},"vehicle_type_id":"4","last_reported":1761157036,"current_range_meters":14800,"station_id":"ce4bhg12rcd13ifvqf60","pricing_plan_id":"cebpf4jnsgd1na2vs0mg"},{"bike_id":"618a9c44-e479-45b6-b144-58d3228e3132","system_id":"levelo_inurba_marseille","lat":43.24632,"lon":5.3892,"is_reserved":false,"is_disabled":false,"rental_uris":{"android":"levelo://app?vid=618a9c44-e479-45b6-b144-58d3228e3132","ios":"levelo://app?vid=618a9c44-e479-45b6-b144-58d3228e3132"},"vehicle_type_id":"4","last_reported":1761157036,"current_range_meters":14800,"station_id":"ce4bhg12rcd13ifvqf60","pricing_plan_id":"cebpf4jnsgd1na2vs0mg"},{"bike_id":"b3b13e92-d401-45af-ad84-a41c7bbeb5fe","system_id":"levelo_inurba_marseille","lat":43.29526,"lon":5.37578,"is_reserved":false,"is_disabled":false,"rental_uris":{"android":"levelo://app?vid=b3b13e92-d401-45af-ad84-a41c7bbeb5fe","ios":"levelo://app?vid=b3b13e92-d401-45af-ad84-a41c7bbeb5fe"},"vehicle_type_id":"4","last_reported":1761157036,"current_range_meters":14800,"station_id":"","pricing_plan_id":"cebpf4jnsgd1na2vs0mg"},{"bike_id":"b6a28223-d562-41db-97ee-6334f9bc8696","system_id":"levelo_inurba_marseille","lat":43.29911,"lon":5.38147,"is_reserved":false,"is_disabled":false,"rental_uris":{"android":"levelo://app?vid=b6a28223-d562-41db-97ee-6334f9bc8696","ios":"levelo://app?vid=b6a28223-d562-41db-97ee-6334f9bc8696"},"vehicle_type_id":"4","last_reported":1761157036,"current_range_meters":14800,"station_id":"ce4bgj12rcd13ifvqbc0","pricing_plan_id":"cebpf4jnsgd1na2vs0mg"},{"bike_id":"a438dcf2-bed4-4ebc-84fb-3d8ef8193cbe","system_id":"levelo_inurba_marseille","lat":43.29511,"lon":5.39032,"is_reserved":false,"is_disabled":false,"rental_uris":{"android":"levelo://app?vid=a438dcf2-bed4-4ebc-84fb-3d8ef8193cbe","ios":"levelo://app?vid=a438dcf2-bed4-4ebc-84fb-3d8ef8193cbe"},"vehicle_type_id":"4","last_reported":1761157036,"current_range_meters":14800,"station_id":"ce4bh3p2rcd13ifvqdp0","pricing_plan_id":"cebpf4jnsgd1na2vs0mg"},{"bike_id":"ff3a5290-2e30-448c-b743-370f2bfd9ebc","system_id":"levelo_inurba_marseille","lat":43.30739,"lon":5.42445,"is_reserved":false,"is_disabled":false,"rental_uris":{"android":"levelo://app?vid=ff3a5290-2e30-448c-b743-370f2bfd9ebc","ios":"levelo://app?vid=ff3a5290-2e30-448c-b743-370f2bfd9ebc"},"vehicle_type_id":"4","last_reported":1761157036,"current_range_meters":14800,"station_id":"st_cvj6ca6bvosntc0bfgr0","pricing_plan_id":"cebpf4jnsgd1na2vs0mg"},{"bike_id":"4f5c5045-2f2c-4ab7-ad8b-eeba1d52fe66","system_id":"levelo_inurba_marseille","lat":43.31328,"lon":5.39693,"is_reserved":false,"is_disabled":false,"rental_uris":{"android":"levelo://app?vid=4f5c5045-2f2c-4ab7-ad8b-eeba1d52fe66","ios":"levelo://app?vid=4f5c5045-2f2c-4ab7-ad8b-eeba1d52fe66"},"vehicle_type_id":"4","last_reported":1761157036,"current_range_meters":15200,"station_id":"ce4bgvp2rcd13ifvqcu0","pricing_plan_id":"cebpf4jnsgd1na2vs0mg"},{"bike_id":"3106eb14-f058-4248-b3c6-aacd049ed0d4","system_id":"levelo_inurba_marseille","lat":43.29255,"lon":5.40922,"is_reserved":false,"is_disabled":false,"rental_uris":{"android":"levelo://app?vid=3106eb14-f058-4248-b3c6-aacd049ed0d4","ios":"levelo://app?vid=3106eb14-f058-4248-b3c6-aacd049ed0d4"},"vehicle_type_id":"4","last_reported":1761157036,"current_range_meters":15200,"station_id":"ce4bh192rcd13ifvqdc0","pricing_plan_id":"cebpf4jnsgd1na2vs0mg"},{"bike_id":"5c5f86d4-45e0-4ad5-a478-5119cd222b7f","system_id":"levelo_inurba_marseille","lat":43.33154,"lon":5.38156,"is_reserved":false,"is_disabled":false,"rental_uris":{"android":"levelo://app?vid=5c5f86d4-45e0-4ad5-a478-5119cd222b7f","ios":"levelo://app?vid=5c5f86d4-45e0-4ad5-a478-5119cd222b7f"},"vehicle_type_id":"4","last_reported":1761157036,"current_range_meters":15200,"station_id":"","pricing_plan_id":"cebpf4jnsgd1na2vs0mg"},{"bike_id":"25229034-a7be-4a92-b506-0f9d6cf48b63","system_id":"levelo_inurba_marseille","lat":43.248049,"lon":5.374564,"is_reserved":false,"is_disabled":false,"rental_uris":{"android":"levelo://app?vid=25229034-a7be-4a92-b506-0f9d6cf48b63","ios":"levelo://app?vid=25229034-a7be-4a92-b506-0f9d6cf48b63"},"vehicle_type_id":"4","last_reported":1761157036,"current_range_meters":15200,"station_id":"ce4bhgh2rcd13ifvqfb0","pricing_plan_id":"cebpf4jnsgd1na2vs0mg"},{"bike_id":"4b9c2cda-db75-4124-b7ef-647f11a03088","system_id":"levelo_inurba_marseille","lat":43.281037,"lon":5.378417,"is_reserved":false,"is_disabled":false,"rental_uris":{"android":"levelo://app?vid=4b9c2cda-db75-4124-b7ef-647f11a03088","ios":"levelo://app?vid=4b9c2cda-db75-4124-b7ef-647f11a03088"},"vehicle_type_id":"4","last_reported":1761157036,"current_range_meters":15200,"station_id":"ce4bha12rcd13ifvqee0","pricing_plan_id":"cebpf4jnsgd1na2vs0mg"},{"bike_id":"c0827350-d56e-49b6-b0b4-1661ec45f5e8","system_id":"levelo_inurba_marseille","lat":43.29596,"lon":5.381,"is_reserved":false,"is_disabled":false,"rental_uris":{"android":"levelo://app?vid=c0827350-d56e-49b6-b0b4-1661ec45f5e8","ios":"levelo://app?vid=c0827350-d56e-49b6-b0b4-1661ec45f5e8"},"vehicle_type_id":"4","last_reported":1761157036,"current_range_meters":16000,"station_id":"ce4bgl12rcd13ifvqbo0","pricing_plan_id":"cebpf4jnsgd1na2vs0mg"},{"bike_id":"c2c67b18-f0cb-46cd-8808-621cac3d55f8","system_id":"levelo_inurba_marseille","lat":43.30204,"lon":5.39468,"is_reserved":false,"is_disabled":false,"rental_uris":{"android":"levelo://app?vid=c2c67b18-f0cb-46cd-8808-621cac3d55f8","ios":"levelo://app?vid=c2c67b18-f0cb-46cd-8808-621cac3d55f8"},"vehicle_type_id":"4","last_reported":1761157036,"current_range_meters":16000,"station_id":"ce4bh0p2rcd13ifvqd70","pricing_plan_id":"cebpf4jnsgd1na2vs0mg"},{"bike_id":"e4754bf9-6179-4c8f-9723-28e1735b319c","system_id":"levelo_inurba_marseille","lat":43.31084,"lon":5.42432,"is_reserved":false,"is_disabled":false,"rental_uris":{"android":"levelo://app?vid=e4754bf9-6179-4c8f-9723-28e1735b319c","ios":"levelo://app?vid=e4754bf9-6179-4c8f-9723-28e1735b319c"},"vehicle_type_id":"4","last_reported":1761157036,"current_range_meters":16000,"station_id":"ce4bhp92rcd13ifvqhag","pricing_plan_id":"cebpf4jnsgd1na2vs0mg"},{"bike_id":"e26a4ba5-d1f0-450a-a9c3-d00a5fad899d","system_id":"levelo_inurba_marseille","lat":43.24164,"lon":5.36394,"is_reserved":false,"is_disabled":false,"rental_uris":{"android":"levelo://app?vid=e26a4ba5-d1f0-450a-a9c3-d00a5fad899d","ios":"levelo://app?vid=e26a4ba5-d1f0-450a-a9c3-d00a5fad899d"},"vehicle_type_id":"4","last_reported":1761157036,"current_range_meters":16000,"station_id":"cpo36qri1sfpv3e86is0","pricing_plan_id":"cebpf4jnsgd1na2vs0mg"},{"bike_id":"cf06ee6f-d420-499d-8dee-1fab4c8be77b","system_id":"levelo_inurba_marseille","lat":43.301286,"lon":5.38775,"is_reserved":false,"is_disabled":false,"rental_uris":{"android":"levelo://app?vid=cf06ee6f-d420-499d-8dee-1fab4c8be77b","ios":"levelo://app?vid=cf06ee6f-d420-499d-8dee-1fab4c8be77b"},"vehicle_type_id":"4","last_reported":1761157036,"current_range_meters":16000,"station_id":"","pricing_plan_id":"cebpf4jnsgd1na2vs0mg"},{"bike_id":"12560c82-fdef-4887-a8c4-b201c21f8929","system_id":"levelo_inurba_marseille","lat":43.2986,"lon":5.38914,"is_reserved":false,"is_disabled":false,"rental_uris":{"android":"levelo://app?vid=12560c82-fdef-4887-a8c4-b201c21f8929","ios":"levelo://app?vid=12560c82-fdef-4887-a8c4-b201c21f8929"},"vehicle_type_id":"4","last_reported":1761157036,"current_range_meters":16000,"station_id":"ce4bh392rcd13ifvqdl0","pricing_plan_id":"cebpf4jnsgd1na2vs0mg"},{"bike_id":"e7f308d7-1b97-44e5-8e1a-d393cb5f80a2","system_id":"levelo_inurba_marseille","lat":43.298789,"lon":5.380875,"is_reserved":false,"is_disabled":false,"rental_uris":{"android":"levelo://app?vid=e7f308d7-1b97-44e5-8e1a-d393cb5f80a2","ios":"levelo://app?vid=e7f308d7-1b97-44e5-8e1a-d393cb5f80a2"},"vehicle_type_id":"4","last_reported":1761157036,"current_range_meters":16000,"station_id":"ce4bgj12rcd13ifvqbc0","pricing_plan_id":"cebpf4jnsgd1na2vs0mg"},{"bike_id":"632c193c-e488-4935-b796-5025dbe10f2f","system_id":"levelo_inurba_marseille","lat":43.30115,"lon":5.37033,"is_reserved":false,"is_disabled":false,"rental_uris":{"android":"levelo://app?vid=632c193c-e488-4935-b796-5025dbe10f2f","ios":"levelo://app?vid=632c193c-e488-4935-b796-5025dbe10f2f"},"vehicle_type_id":"4","last_reported":1761157036,"current_range_meters":16000,"station_id":"","pricing_plan_id":"cebpf4jnsgd1na2vs0mg"},{"bike_id":"916496f8-e4cb-4cc4-bc50-774c8b6cf329","system_id":"levelo_inurba_marseille","lat":43.26806,"lon":5.40271,"is_reserved":false,"is_disabled":false,"rental_uris":{"android":"levelo://app?vid=916496f8-e4cb-4cc4-bc50-774c8b6cf329","ios":"levelo://app?vid=916496f8-e4cb-4cc4-bc50-774c8b6cf329"},"vehicle_type_id":"4","last_reported":1761157036,"current_range_meters":16000,"station_id":"ce501612rcd8frsf0b60","pricing_plan_id":"cebpf4jnsgd1na2vs0mg"},{"bike_id":"fecbe1f9-5b39-4a18-9133-88eaf36dc64f","system_id":"levelo_inurba_marseille","lat":43.297,"lon":5.38124,"is_reserved":false,"is_disabled":false,"rental_uris":{"android":"levelo://app?vid=fecbe1f9-5b39-4a18-9133-88eaf36dc64f","ios":"levelo://app?vid=fecbe1f9-5b39-4a18-9133-88eaf36dc64f"},"vehicle_type_id":"4","last_reported":1761157036,"current_range_meters":16000,"station_id":"","pricing_plan_id":"cebpf4jnsgd1na2vs0mg"},{"bike_id":"c8c0fa58-a519-4343-9887-b0c694f93aef","system_id":"levelo_inurba_marseille","lat":43.28864,"lon":5.42534,"is_reserved":false,"is_disabled":false,"rental_uris":{"android":"levelo://app?vid=c8c0fa58-a519-4343-9887-b0c694f93aef","ios":"levelo://app?vid=c8c0fa58-a519-4343-9887-b0c694f93aef"},"vehicle_type_id":"4","last_reported":1761157036,"current_range_meters":16400,"station_id":"st_d3b462108ojc7389ooeg","pricing_plan_id":"cebpf4jnsgd1na2vs0mg"},{"bike_id":"61525fe3-26d4-4c5c-a075-e59599c296c4","system_id":"levelo_inurba_marseille","lat":43.31436,"lon":5.39291,"is_reserved":false,"is_disabled":false,"rental_uris":{"android":"levelo://app?vid=61525fe3-26d4-4c5c-a075-e59599c296c4","ios":"levelo://app?vid=61525fe3-26d4-4c5c-a075-e59599c296c4"},"vehicle_type_id":"4","last_reported":1761157036,"current_range_meters":16400,"station_id":"","pricing_plan_id":"cebpf4jnsgd1na2vs0mg"},{"bike_id":"6b9158cc-993e-4fdb-bafb-7fa32e0adab3","system_id":"levelo_inurba_marseille","lat":43.21751,"lon":5.34614,"is_reserved":false,"is_disabled":false,"rental_uris":{"android":"levelo://app?vid=6b9158cc-993e-4fdb-bafb-7fa32e0adab3","ios":"levelo://app?vid=6b9158cc-993e-4fdb-bafb-7fa32e0adab3"},"vehicle_type_id":"4","last_reported":1761157036,"current_range_meters":16400,"station_id":"","pricing_plan_id":"cebpf4jnsgd1na2vs0mg"},{"bike_id":"fa0be1b3-ac79-46dd-bbc1-835a3fafa9e1","system_id":"levelo_inurba_marseille","lat":43.30096,"lon":5.39085,"is_reserved":false,"is_disabled":false,"rental_uris":{"android":"levelo://app?vid=fa0be1b3-ac79-46dd-bbc1-835a3fafa9e1","ios":"levelo://app?vid=fa0be1b3-ac79-46dd-bbc1-835a3fafa9e1"},"vehicle_type_id":"4","last_reported":1761157036,"current_range_meters":16400,"station_id":"ce4bh192rcd13ifvqdb0","pricing_plan_id":"cebpf4jnsgd1na2vs0mg"},{"bike_id":"ff3839d3-16ac-4aa9-9120-d4030bd2a260","system_id":"levelo_inurba_marseille","lat":43.29785,"lon":5.39329,"is_reserved":false,"is_disabled":true,"rental_uris":{"android":"levelo://app?vid=ff3839d3-16ac-4aa9-9120-d4030bd2a260","ios":"levelo://app?vid=ff3839d3-16ac-4aa9-9120-d4030bd2a260"},"vehicle_type_id":"4","last_reported":1761157036,"current_range_meters":16400,"station_id":"chh1huq6cuj3fo74tm60","pricing_plan_id":"cebpf4jnsgd1na2vs0mg"},{"bike_id":"c775e1ea-9a62-4435-8d4f-004bf2c26047","system_id":"levelo_inurba_marseille","lat":43.29821,"lon":5.44063,"is_reserved":false,"is_disabled":false,"rental_uris":{"android":"levelo://app?vid=c775e1ea-9a62-4435-8d4f-004bf2c26047","ios":"levelo://app?vid=c775e1ea-9a62-4435-8d4f-004bf2c26047"},"vehicle_type_id":"4","last_reported":1761157036,"current_range_meters":16800,"station_id":"st_d3jp68qikq2c7381ktn0","pricing_plan_id":"cebpf4jnsgd1na2vs0mg"},{"bike_id":"f94bbc39-8085-4208-a916-14cb898aa726","system_id":"levelo_inurba_marseille","lat":43.29533,"lon":5.38536,"is_reserved":false,"is_disabled":false,"rental_uris":{"android":"levelo://app?vid=f94bbc39-8085-4208-a916-14cb898aa726","ios":"levelo://app?vid=f94bbc39-8085-4208-a916-14cb898aa726"},"vehicle_type_id":"4","last_reported":1761157036,"current_range_meters":16800,"station_id":"ce4bgih2rcd13ifvqba0","pricing_plan_id":"cebpf4jnsgd1na2vs0mg"},{"bike_id":"3a18b3ad-8271-4113-9396-b98cbd04c804","system_id":"levelo_inurba_marseille","lat":43.28971,"lon":5.37835,"is_reserved":false,"is_disabled":false,"rental_uris":{"android":"levelo://app?vid=3a18b3ad-8271-4113-9396-b98cbd04c804","ios":"levelo://app?vid=3a18b3ad-8271-4113-9396-b98cbd04c804"},"vehicle_type_id":"4","last_reported":1761157036,"current_range_meters":16800,"station_id":"ce4bh9p2rcd13ifvqed0","pricing_plan_id":"cebpf4jnsgd1na2vs0mg"},{"bike_id":"c12d06a1-2a0f-4a58-a965-d65114395916","system_id":"levelo_inurba_marseille","lat":43.27904,"lon":5.38008,"is_reserved":false,"is_disabled":false,"rental_uris":{"android":"levelo://app?vid=c12d06a1-2a0f-4a58-a965-d65114395916","ios":"levelo://app?vid=c12d06a1-2a0f-4a58-a965-d65114395916"},"vehicle_type_id":"4","last_reported":1761157036,"current_range_meters":16800,"station_id":"ce4bhf92rcd13ifvqf50","pricing_plan_id":"cebpf4jnsgd1na2vs0mg"},{"bike_id":"71d530ff-c617-4500-862e-2196508ef7cb","system_id":"levelo_inurba_marseille","lat":43.23781,"lon":5.36637,"is_reserved":false,"is_disabled":false,"rental_uris":{"android":"levelo://app?vid=71d530ff-c617-4500-862e-2196508ef7cb","ios":"levelo://app?vid=71d530ff-c617-4500-862e-2196508ef7cb"},"vehicle_type_id":"4","last_reported":1761157036,"current_range_meters":17200,"station_id":"st_d3nk18o9ro0c73en2l3g","pricing_plan_id":"cebpf4jnsgd1na2vs0mg"},{"bike_id":"22556366-5b35-4879-b6f5-b944bfc8418c","system_id":"levelo_inurba_marseille","lat":43.30157,"lon":5.38099,"is_reserved":false,"is_disabled":true,"rental_uris":{"android":"levelo://app?vid=22556366-5b35-4879-b6f5-b944bfc8418c","ios":"levelo://app?vid=22556366-5b35-4879-b6f5-b944bfc8418c"},"vehicle_type_id":"4","last_reported":1761157036,"current_range_meters":17200,"station_id":"ce4bgjp2rcd13ifvqbh0","pricing_plan_id":"cebpf4jnsgd1na2vs0mg"},{"bike_id":"bda3ed1a-3199-4eb8-8229-577855d09dbb","system_id":"levelo_inurba_marseille","lat":43.3163,"lon":5.37876,"is_reserved":false,"is_disabled":false,"rental_uris":{"android":"levelo://app?vid=bda3ed1a-3199-4eb8-8229-577855d09dbb","ios":"levelo://app?vid=bda3ed1a-3199-4eb8-8229-577855d09dbb"},"vehicle_type_id":"4","last_reported":1761157036,"current_range_meters":17200,"station_id":"","pricing_plan_id":"cebpf4jnsgd1na2vs0mg"},{"bike_id":"797c23b1-666f-424d-8501-a4f95f964e1c","system_id":"levelo_inurba_marseille","lat":43.286217,"lon":5.35108,"is_reserved":false,"is_disabled":false,"rental_uris":{"android":"levelo://app?vid=797c23b1-666f-424d-8501-a4f95f964e1c","ios":"levelo://app?vid=797c23b1-666f-424d-8501-a4f95f964e1c"},"vehicle_type_id":"4","last_reported":1761157036,"current_range_meters":17200,"station_id":"ce4bhch2rcd13ifvqeug","pricing_plan_id":"cebpf4jnsgd1na2vs0mg"},{"bike_id":"e499c9d9-08ab-43ab-854d-1c49f0c5b630","system_id":"levelo_inurba_marseille","lat":43.25125,"lon":5.40331,"is_reserved":false,"is_disabled":false,"rental_uris":{"android":"levelo://app?vid=e499c9d9-08ab-43ab-854d-1c49f0c5b630","ios":"levelo://app?vid=e499c9d9-08ab-43ab-854d-1c49f0c5b630"},"vehicle_type_id":"4","last_reported":1761157036,"current_range_meters":17200,"station_id":"ce4bhlh2rcd13ifvqgig","pricing_plan_id":"cebpf4jnsgd1na2vs0mg"},{"bike_id":"37e6b374-e513-462a-9a1b-5e3ded1d4bad","system_id":"levelo_inurba_marseille","lat":43.31174,"lon":5.387118,"is_reserved":false,"is_disabled":false,"rental_uris":{"android":"levelo://app?vid=37e6b374-e513-462a-9a1b-5e3ded1d4bad","ios":"levelo://app?vid=37e6b374-e513-462a-9a1b-5e3ded1d4bad"},"vehicle_type_id":"4","last_reported":1761157036,"current_range_meters":17200,"station_id":"ce4bgv12rcd13ifvqcp0","pricing_plan_id":"cebpf4jnsgd1na2vs0mg"},{"bike_id":"9393f9ef-7253-457f-bdcb-e284d908af29","system_id":"levelo_inurba_marseille","lat":43.28855,"lon":5.35851,"is_reserved":false,"is_disabled":false,"rental_uris":{"android":"levelo://app?vid=9393f9ef-7253-457f-bdcb-e284d908af29","ios":"levelo://app?vid=9393f9ef-7253-457f-bdcb-e284d908af29"},"vehicle_type_id":"4","last_reported":1761157036,"current_range_meters":17200,"station_id":"ce4bhb12rcd13ifvqem0","pricing_plan_id":"cebpf4jnsgd1na2vs0mg"},{"bike_id":"05d4c5bf-5987-489d-85ae-be49589b581a","system_id":"levelo_inurba_marseille","lat":43.28421,"lon":5.37495,"is_reserved":false,"is_disabled":false,"rental_uris":{"android":"levelo://app?vid=05d4c5bf-5987-489d-85ae-be49589b581a","ios":"levelo://app?vid=05d4c5bf-5987-489d-85ae-be49589b581a"},"vehicle_type_id":"4","last_reported":1761157036,"current_range_meters":17200,"station_id":"ce4bh412rcd13ifvqds0","pricing_plan_id":"cebpf4jnsgd1na2vs0mg"},{"bike_id":"d9247930-f477-4727-872b-24c5b02f6614","system_id":"levelo_inurba_marseille","lat":43.27211,"lon":5.40996,"is_reserved":false,"is_disabled":false,"rental_uris":{"android":"levelo://app?vid=d9247930-f477-4727-872b-24c5b02f6614","ios":"levelo://app?vid=d9247930-f477-4727-872b-24c5b02f6614"},"vehicle_type_id":"4","last_reported":1761157036,"current_range_meters":17200,"station_id":"ce4bhl12rcd13ifvqgf0","pricing_plan_id":"cebpf4jnsgd1na2vs0mg"},{"bike_id":"84266477-27ea-49c2-a601-16ccb6cef0a7","system_id":"levelo_inurba_marseille","lat":43.29532,"lon":5.38544,"is_reserved":false,"is_disabled":false,"rental_uris":{"android":"levelo://app?vid=84266477-27ea-49c2-a601-16ccb6cef0a7","ios":"levelo://app?vid=84266477-27ea-49c2-a601-16ccb6cef0a7"},"vehicle_type_id":"4","last_reported":1761157036,"current_range_meters":17200,"station_id":"ce4bgih2rcd13ifvqba0","pricing_plan_id":"cebpf4jnsgd1na2vs0mg"},{"bike_id":"12275ef5-272a-4aae-b524-5e97cdfc2fd6","system_id":"levelo_inurba_marseille","lat":43.29534,"lon":5.38537,"is_reserved":false,"is_disabled":false,"rental_uris":{"android":"levelo://app?vid=12275ef5-272a-4aae-b524-5e97cdfc2fd6","ios":"levelo://app?vid=12275ef5-272a-4aae-b524-5e97cdfc2fd6"},"vehicle_type_id":"4","last_reported":1761157036,"current_range_meters":17600,"station_id":"ce4bgih2rcd13ifvqba0","pricing_plan_id":"cebpf4jnsgd1na2vs0mg"},{"bike_id":"d4502fc0-7f82-4ba1-90f9-1ee8588df1bc","system_id":"levelo_inurba_marseille","lat":43.28105,"lon":5.37841,"is_reserved":false,"is_disabled":false,"rental_uris":{"android":"levelo://app?vid=d4502fc0-7f82-4ba1-90f9-1ee8588df1bc","ios":"levelo://app?vid=d4502fc0-7f82-4ba1-90f9-1ee8588df1bc"},"vehicle_type_id":"4","last_reported":1761157036,"current_range_meters":17600,"station_id":"ce4bha12rcd13ifvqee0","pricing_plan_id":"cebpf4jnsgd1na2vs0mg"},{"bike_id":"2a22829e-2bd6-41ec-a3e5-ef826e7425d3","system_id":"levelo_inurba_marseille","lat":43.320998,"lon":5.367985,"is_reserved":false,"is_disabled":false,"rental_uris":{"android":"levelo://app?vid=2a22829e-2bd6-41ec-a3e5-ef826e7425d3","ios":"levelo://app?vid=2a22829e-2bd6-41ec-a3e5-ef826e7425d3"},"vehicle_type_id":"4","last_reported":1761157036,"current_range_meters":17600,"station_id":"ce4bhrh2rcd13ifvqhug","pricing_plan_id":"cebpf4jnsgd1na2vs0mg"},{"bike_id":"783c31b7-fbaa-44b2-a895-4587ac186552","system_id":"levelo_inurba_marseille","lat":43.26583,"lon":5.39056,"is_reserved":false,"is_disabled":false,"rental_uris":{"android":"levelo://app?vid=783c31b7-fbaa-44b2-a895-4587ac186552","ios":"levelo://app?vid=783c31b7-fbaa-44b2-a895-4587ac186552"},"vehicle_type_id":"4","last_reported":1761157036,"current_range_meters":17600,"station_id":"","pricing_plan_id":"cebpf4jnsgd1na2vs0mg"},{"bike_id":"b2549afa-3608-4ab0-8665-41ca5a0b6b7b","system_id":"levelo_inurba_marseille","lat":43.28921,"lon":5.38402,"is_reserved":false,"is_disabled":false,"rental_uris":{"android":"levelo://app?vid=b2549afa-3608-4ab0-8665-41ca5a0b6b7b","ios":"levelo://app?vid=b2549afa-3608-4ab0-8665-41ca5a0b6b7b"},"vehicle_type_id":"4","last_reported":1761157036,"current_range_meters":17600,"station_id":"ce4bh612rcd13ifvqe6g","pricing_plan_id":"cebpf4jnsgd1na2vs0mg"},{"bike_id":"a5ac9e0b-5a84-4f9c-845f-5698ef669772","system_id":"levelo_inurba_marseille","lat":43.25576,"lon":5.38243,"is_reserved":false,"is_disabled":false,"rental_uris":{"android":"levelo://app?vid=a5ac9e0b-5a84-4f9c-845f-5698ef669772","ios":"levelo://app?vid=a5ac9e0b-5a84-4f9c-845f-5698ef669772"},"vehicle_type_id":"4","last_reported":1761157036,"current_range_meters":17600,"station_id":"ce4bhih2rcd13ifvqfs0","pricing_plan_id":"cebpf4jnsgd1na2vs0mg"},{"bike_id":"62e025b3-e0fd-470f-bb93-c8ce647595ac","system_id":"levelo_inurba_marseille","lat":43.29536,"lon":5.38554,"is_reserved":false,"is_disabled":false,"rental_uris":{"android":"levelo://app?vid=62e025b3-e0fd-470f-bb93-c8ce647595ac","ios":"levelo://app?vid=62e025b3-e0fd-470f-bb93-c8ce647595ac"},"vehicle_type_id":"4","last_reported":1761157036,"current_range_meters":18000,"station_id":"ce4bgih2rcd13ifvqba0","pricing_plan_id":"cebpf4jnsgd1na2vs0mg"},{"bike_id":"2216620e-2b09-4013-aa17-3b0e34f8e367","system_id":"levelo_inurba_marseille","lat":43.30535,"lon":5.38426,"is_reserved":false,"is_disabled":false,"rental_uris":{"android":"levelo://app?vid=2216620e-2b09-4013-aa17-3b0e34f8e367","ios":"levelo://app?vid=2216620e-2b09-4013-aa17-3b0e34f8e367"},"vehicle_type_id":"4","last_reported":1761157036,"current_range_meters":18000,"station_id":"ce4bgg92rcd13ifvqb30","pricing_plan_id":"cebpf4jnsgd1na2vs0mg"},{"bike_id":"e05cf8aa-d9fb-4d72-aeb9-da31725d92f2","system_id":"levelo_inurba_marseille","lat":43.24951,"lon":5.40489,"is_reserved":false,"is_disabled":false,"rental_uris":{"android":"levelo://app?vid=e05cf8aa-d9fb-4d72-aeb9-da31725d92f2","ios":"levelo://app?vid=e05cf8aa-d9fb-4d72-aeb9-da31725d92f2"},"vehicle_type_id":"4","last_reported":1761157036,"current_range_meters":18000,"station_id":"st_d2ngiaodas8pm72gd1h0","pricing_plan_id":"cebpf4jnsgd1na2vs0mg"},{"bike_id":"1886588b-f912-4d31-83df-0afbb26f9951","system_id":"levelo_inurba_marseille","lat":43.24184,"lon":5.3972,"is_reserved":false,"is_disabled":false,"rental_uris":{"android":"levelo://app?vid=1886588b-f912-4d31-83df-0afbb26f9951","ios":"levelo://app?vid=1886588b-f912-4d31-83df-0afbb26f9951"},"vehicle_type_id":"4","last_reported":1761157036,"current_range_meters":18000,"station_id":"ce4bhn12rcd13ifvqgpg","pricing_plan_id":"cebpf4jnsgd1na2vs0mg"},{"bike_id":"48a42690-c773-497f-81a0-a44e69245117","system_id":"levelo_inurba_marseille","lat":43.239564,"lon":5.366256,"is_reserved":false,"is_disabled":false,"rental_uris":{"android":"levelo://app?vid=48a42690-c773-497f-81a0-a44e69245117","ios":"levelo://app?vid=48a42690-c773-497f-81a0-a44e69245117"},"vehicle_type_id":"4","last_reported":1761157036,"current_range_meters":18000,"station_id":"ce4bhi12rcd13ifvqfp0","pricing_plan_id":"cebpf4jnsgd1na2vs0mg"},{"bike_id":"4b38f119-4e8f-44b8-ab40-251b2672345a","system_id":"levelo_inurba_marseille","lat":43.30216,"lon":5.394719,"is_reserved":false,"is_disabled":false,"rental_uris":{"android":"levelo://app?vid=4b38f119-4e8f-44b8-ab40-251b2672345a","ios":"levelo://app?vid=4b38f119-4e8f-44b8-ab40-251b2672345a"},"vehicle_type_id":"4","last_reported":1761157036,"current_range_meters":18000,"station_id":"ce4bh0p2rcd13ifvqd70","pricing_plan_id":"cebpf4jnsgd1na2vs0mg"},{"bike_id":"13ffca06-ecc4-46ee-aa82-6818647126c8","system_id":"levelo_inurba_marseille","lat":43.29903,"lon":5.43662,"is_reserved":false,"is_disabled":false,"rental_uris":{"android":"levelo://app?vid=13ffca06-ecc4-46ee-aa82-6818647126c8","ios":"levelo://app?vid=13ffca06-ecc4-46ee-aa82-6818647126c8"},"vehicle_type_id":"4","last_reported":1761157036,"current_range_meters":18000,"station_id":"ce4bhpp2rcd13ifvqhfg","pricing_plan_id":"cebpf4jnsgd1na2vs0mg"},{"bike_id":"fe30cecb-f264-4fe0-b4a7-fca9a34f6ed4","system_id":"levelo_inurba_marseille","lat":43.290305,"lon":5.372418,"is_reserved":false,"is_disabled":false,"rental_uris":{"android":"levelo://app?vid=fe30cecb-f264-4fe0-b4a7-fca9a34f6ed4","ios":"levelo://app?vid=fe30cecb-f264-4fe0-b4a7-fca9a34f6ed4"},"vehicle_type_id":"4","last_reported":1761157036,"current_range_meters":18000,"station_id":"","pricing_plan_id":"cebpf4jnsgd1na2vs0mg"},{"bike_id":"a9b5f66c-4453-47bf-b898-2692ff7cb8a4","system_id":"levelo_inurba_marseille","lat":43.2931,"lon":5.37176,"is_reserved":false,"is_disabled":false,"rental_uris":{"android":"levelo://app?vid=a9b5f66c-4453-47bf-b898-2692ff7cb8a4","ios":"levelo://app?vid=a9b5f66c-4453-47bf-b898-2692ff7cb8a4"},"vehicle_type_id":"4","last_reported":1761157036,"current_range_meters":18000,"station_id":"ce4bgh92rcd13ifvqb40","pricing_plan_id":"cebpf4jnsgd1na2vs0mg"},{"bike_id":"0336934b-fe6d-46c5-994d-33100f98d30b","system_id":"levelo_inurba_marseille","lat":43.2894,"lon":5.39636,"is_reserved":false,"is_disabled":false,"rental_uris":{"android":"levelo://app?vid=0336934b-fe6d-46c5-994d-33100f98d30b","ios":"levelo://app?vid=0336934b-fe6d-46c5-994d-33100f98d30b"},"vehicle_type_id":"4","last_reported":1761157036,"current_range_meters":18800,"station_id":"ce4bh3h2rcd13ifvqdn0","pricing_plan_id":"cebpf4jnsgd1na2vs0mg"},