{"last_updated":1704564519,"ttl":30,"version":"2.2","data":{"bikes":[{"bike_id":"c425a59a-6e2e-4cf3-a83a-9195f97464e2","system_id":"levelo_inurba_marseille","lat":43.31341,"lon":5.367098,"is_reserved":false,"is_disabled":false,"rental_uris":{"android":"levelo://app?vid=c425a59a-6e2e-4cf3-a83a-9195f97464e2","ios":"levelo://app?vid=c425a59a-6e2e-4cf3-a83a-9195f97464e2"},"vehicle_type_id":"4","last_reported":1704564519,"current_range_meters":24400,"station_id":"ce4bgr92rcd13ifvqc6g","pricing_plan_id":"free"},{"bike_id":"85181d51-b3dd-45fb-95ba-c7d56b307797","system_id":"levelo_inurba_marseille","lat":43.312239,"lon":5.368562,"is_reserved":false,"is_disabled":false,"rental_uris":{"android":"levelo://app?vid=85181d51-b3dd-45fb-95ba-c7d56b307797","ios":"levelo://app?vid=85181d51-b3dd-45fb-95ba-c7d56b307797"},"vehicle_type_id":"4","last_reported":1704564519,"current_range_meters":30400,"station_id":"ce4bgl92rcd13ifvqbq0","pricing_plan_id":"free"},{"bike_id":"f32880fb-3d4e-42d2-a76a-53dd1275acc0","system_id":"levelo_inurba_marseille","lat":43.309076,"lon":5.368465,"is_reserved":false,"is_disabled":false,"rental_uris":{"android":"levelo://app?vid=f32880fb-3d4e-42d2-a76a-53dd1275acc0","ios":"levelo://app?vid=f32880fb-3d4e-42d2-a76a-53dd1275acc0"},"vehicle_type_id":"4","last_reported":1704564519,"current_range_meters":26000,"station_id":"ce4bgn92rcd13ifvqbvg","pricing_plan_id":"free"},{"bike_id":"14ef0add-ad81-4cbd-a4fb-6487d3cfd93e","system_id":"levelo_inurba_marseille","lat":43.309076,"lon":5.368465,"is_reserved":false,"is_disabled":false,"rental_uris":{"android":"levelo://app?vid=14ef0add-ad81-4cbd-a4fb-6487d3cfd93e","ios":"levelo://app?vid=14ef0add-ad81-4cbd-a4fb-6487d3cfd93e"},"vehicle_type_id":"4","last_reported":1704564519,"current_range_meters":3600,"station_id":"ce4bgn92rcd13ifvqbvg","pricing_plan_id":"free"},{"bike_id":"f27eeb9f-5146-4c79-afc8-55fc441894e6","system_id":"levelo_inurba_marseille","lat":43.309076,"lon":5.368465,"is_reserved":false,"is_disabled":false,"rental_uris":{"android":"levelo://app?vid=f27eeb9f-5146-4c79-afc8-55fc441894e6","ios":"levelo://app?vid=f27eeb9f-5146-4c79-afc8-55fc441894e6"},"vehicle_type_id":"4","last_reported":1704564519,"current_range_meters":31200,"station_id":"ce4bgn92rcd13ifvqbvg","pricing_plan_id":"free"},{"bike_id":"4977e478-d17a-444c-a194-1a06ed1e23f1","system_id":"levelo_inurba_marseille","lat":43.309039,"lon":5.371797,"is_reserved":false,"is_disabled":false,"rental_uris":{"android":"levelo://app?vid=4977e478-d17a-444c-a194-1a06ed1e23f1","ios":"levelo://app?vid=4977e478-d17a-444c-a194-1a06ed1e23f1"},"vehicle_type_id":"4","last_reported":1704564519,"current_range_meters":10400,"station_id":"ce4bguh2rcd13ifvqckg","pricing_plan_id":"free"},{"bike_id":"2fd0a687-191a-4884-8161-8ed02f6937a1","system_id":"levelo_inurba_marseille","lat":43.309039,"lon":5.371797,"is_reserved":false,"is_disabled":false,"rental_uris":{"android":"levelo://app?vid=2fd0a687-191a-4884-8161-8ed02f6937a1","ios":"levelo://app?vid=2fd0a687-191a-4884-8161-8ed02f6937a1"},"vehicle_type_id":"4","last_reported":1704564519,"current_range_meters":30400,"station_id":"ce4bguh2rcd13ifvqckg","pricing_plan_id":"free"},{"bike_id":"94a69736-d839-4807-92c3-58b9d14923b1","system_id":"levelo_inurba_marseille","lat":43.305368,"lon":5.367343,"is_reserved":false,"is_disabled":false,"rental_uris":{"android":"levelo://app?vid=94a69736-d839-4807-92c3-58b9d14923b1","ios":"levelo://app?vid=94a69736-d839-4807-92c3-58b9d14923b1"},"vehicle_type_id":"4","last_reported":1704564519,"current_range_meters":22800,"station_id":"ce4bgrp2rcd13ifvqc9g","pricing_plan_id":"free"},{"bike_id":"a561b9d3-9508-4efd-9f2e-1860b4e1bc5a","system_id":"levelo_inurba_marseille","lat":43.30537,"lon":5.36704,"is_reserved":false,"is_disabled":false,"rental_uris":{"android":"levelo://app?vid=a561b9d3-9508-4efd-9f2e-1860b4e1bc5a","ios":"levelo://app?vid=a561b9d3-9508-4efd-9f2e-1860b4e1bc5a"},"vehicle_type_id":"4","last_reported":1704564519,"current_range_meters":31200,"station_id":"ce4bgrp2rcd13ifvqc9g","pricing_plan_id":"free"},{"bike_id":"19125825-55bc-4683-b7f6-2df34b7b8bfe","system_id":"levelo_inurba_marseille","lat":43.305989,"lon":5.37225,"is_reserved":false,"is_disabled":false,"rental_uris":{"android":"levelo://app?vid=19125825-55bc-4683-b7f6-2df34b7b8bfe","ios":"levelo://app?vid=19125825-55bc-4683-b7f6-2df34b7b8bfe"},"vehicle_type_id":"4","last_reported":1704564519,"current_range_meters":18000,"station_id":"ce4bgqh2rcd13ifvqc4g","pricing_plan_id":"free"},{"bike_id":"37e016f2-9841-409c-9268-141b0a205a9a","system_id":"levelo_inurba_marseille","lat":43.311131,"lon":5.377651,"is_reserved":false,"is_disabled":false,"rental_uris":{"android":"levelo://app?vid=37e016f2-9841-409c-9268-141b0a205a9a","ios":"levelo://app?vid=37e016f2-9841-409c-9268-141b0a205a9a"},"vehicle_type_id":"4","last_reported":1704564519,"current_range_meters":0,"station_id":"ce4bgt92rcd13ifvqcg0","pricing_plan_id":"free"},{"bike_id":"99bc566d-1b57-4df2-83e0-cc12c54c3360","system_id":"levelo_inurba_marseille","lat":43.307945,"lon":5.376487,"is_reserved":false,"is_disabled":false,"rental_uris":{"android":"levelo://app?vid=99bc566d-1b57-4df2-83e0-cc12c54c3360","ios":"levelo://app?vid=99bc566d-1b57-4df2-83e0-cc12c54c3360"},"vehicle_type_id":"4","last_reported":1704564519,"current_range_meters":10400,"station_id":"ce4bgv92rcd13ifvqcq0","pricing_plan_id":"free"},{"bike_id":"3ec9293e-11ff-4adf-aeb8-768c6a96ec16","system_id":"levelo_inurba_marseille","lat":43.307945,"lon":5.376487,"is_reserved":false,"is_disabled":false,"rental_uris":{"android":"levelo://app?vid=3ec9293e-11ff-4adf-aeb8-768c6a96ec16","ios":"levelo://app?vid=3ec9293e-11ff-4adf-aeb8-768c6a96ec16"},"vehicle_type_id":"4","last_reported":1704564519,"current_range_meters":18800,"station_id":"ce4bgv92rcd13ifvqcq0","pricing_plan_id":"free"},{"bike_id":"c4e90871-bb94-4085-82dc-ccbd997a22ca","system_id":"levelo_inurba_marseille","lat":43.31529,"lon":5.37909,"is_reserved":false,"is_disabled":false,"rental_uris":{"android":"levelo://app?vid=c4e90871-bb94-4085-82dc-ccbd997a22ca","ios":"levelo://app?vid=c4e90871-bb94-4085-82dc-ccbd997a22ca"},"vehicle_type_id":"4","last_reported":1704564519,"current_range_meters":9600,"station_id":"","pricing_plan_id":"free"},{"bike_id":"eb922ebc-6250-4d21-ba2b-40559528d655","system_id":"levelo_inurba_marseille","lat":43.301939,"lon":5.366286,"is_reserved":false,"is_disabled":false,"rental_uris":{"android":"levelo://app?vid=eb922ebc-6250-4d21-ba2b-40559528d655","ios":"levelo://app?vid=eb922ebc-6250-4d21-ba2b-40559528d655"},"vehicle_type_id":"4","last_reported":1704564519,"current_range_meters":0,"station_id":"ce4bgrh2rcd13ifvqc8g","pricing_plan_id":"free"},{"bike_id":"8ef1a586-cc29-4bb1-a1d4-de2934bfeac9","system_id":"levelo_inurba_marseille","lat":43.315293,"lon":5.380349,"is_reserved":false,"is_disabled":false,"rental_uris":{"android":"levelo://app?vid=8ef1a586-cc29-4bb1-a1d4-de2934bfeac9","ios":"levelo://app?vid=8ef1a586-cc29-4bb1-a1d4-de2934bfeac9"},"vehicle_type_id":"4","last_reported":1704564519,"current_range_meters":5600,"station_id":"ce4bhsp2rcd13ifvqi50","pricing_plan_id":"free"},{"bike_id":"485caf9a-e512-4135-b75c-06cf339fbf33","system_id":"levelo_inurba_marseille","lat":43.304606,"lon":5.379026,"is_reserved":false,"is_disabled":false,"rental_uris":{"android":"levelo://app?vid=485caf9a-e512-4135-b75c-06cf339fbf33","ios":"levelo://app?vid=485caf9a-e512-4135-b75c-06cf339fbf33"},"vehicle_type_id":"4","last_reported":1704564519,"current_range_meters":26800,"station_id":"ce4bgup2rcd13ifvqcn0","pricing_plan_id":"free"},{"bike_id":"426a65cc-edb8-48fe-8f13-7b6febefc7f1","system_id":"levelo_inurba_marseille","lat":43.304606,"lon":5.379026,"is_reserved":false,"is_disabled":false,"rental_uris":{"android":"levelo://app?vid=426a65cc-edb8-48fe-8f13-7b6febefc7f1","ios":"levelo://app?vid=426a65cc-edb8-48fe-8f13-7b6febefc7f1"},"vehicle_type_id":"4","last_reported":1704564519,"current_range_meters":19200,"station_id":"ce4bgup2rcd13ifvqcn0","pricing_plan_id":"free"},{"bike_id":"68cc7061-1034-4a39-a2c2-975086eb337b","system_id":"levelo_inurba_marseille","lat":43.304606,"lon":5.379026,"is_reserved":false,"is_disabled":false,"rental_uris":{"android":"levelo://app?vid=68cc7061-1034-4a39-a2c2-975086eb337b","ios":"levelo://app?vid=68cc7061-1034-4a39-a2c2-975086eb337b"},"vehicle_type_id":"4","last_reported":1704564519,"current_range_meters":12800,"station_id":"ce4bgup2rcd13ifvqcn0","pricing_plan_id":"free"},{"bike_id":"14ce5d50-f0d8-49cc-96f8-86f0f986c394","system_id":"levelo_inurba_marseille","lat":43.304606,"lon":5.379026,"is_reserved":false,"is_disabled":false,"rental_uris":{"android":"levelo://app?vid=14ce5d50-f0d8-49cc-96f8-86f0f986c394","ios":"levelo://app?vid=14ce5d50-f0d8-49cc-96f8-86f0f986c394"},"vehicle_type_id":"4","last_reported":1704564519,"current_range_meters":9600,"station_id":"ce4bgup2rcd13ifvqcn0","pricing_plan_id":"free"},{"bike_id":"9a5d20fc-5739-4188-aece-a966211e1333","system_id":"levelo_inurba_marseille","lat":43.324771,"lon":5.36557,"is_reserved":false,"is_disabled":false,"rental_uris":{"android":"levelo://app?vid=9a5d20fc-5739-4188-aece-a966211e1333","ios":"levelo://app?vid=9a5d20fc-5739-4188-aece-a966211e1333"},"vehicle_type_id":"4","last_reported":1704564519,"current_range_meters":18800,"station_id":"ce4bhs12rcd13ifvqhvg","pricing_plan_id":"free"},{"bike_id":"8b22039e-c021-4b64-adcd-1e4eef450407","system_id":"levelo_inurba_marseille","lat":43.319935,"lon":5.381699,"is_reserved":false,"is_disabled":false,"rental_uris":{"android":"levelo://app?vid=8b22039e-c021-4b64-adcd-1e4eef450407","ios":"levelo://app?vid=8b22039e-c021-4b64-adcd-1e4eef450407"},"vehicle_type_id":"4","last_reported":1704564519,"current_range_meters":9200,"station_id":"ce4bhr12rcd13ifvqhpg","pricing_plan_id":"free"},{"bike_id":"17504bde-947a-4cd6-98b3-9a4c66aca99b","system_id":"levelo_inurba_marseille","lat":43.313827,"lon":5.385007,"is_reserved":false,"is_disabled":false,"rental_uris":{"android":"levelo://app?vid=17504bde-947a-4cd6-98b3-9a4c66aca99b","ios":"levelo://app?vid=17504bde-947a-4cd6-98b3-9a4c66aca99b"},"vehicle_type_id":"4","last_reported":1704564519,"current_range_meters":4800,"station_id":"","pricing_plan_id":"free"},{"bike_id":"8c92d5d8-065c-437c-9e44-a4211d9b0936","system_id":"levelo_inurba_marseille","lat":43.300293,"lon":5.37439,"is_reserved":false,"is_disabled":false,"rental_uris":{"android":"levelo://app?vid=8c92d5d8-065c-437c-9e44-a4211d9b0936","ios":"levelo://app?vid=8c92d5d8-065c-437c-9e44-a4211d9b0936"},"vehicle_type_id":"4","last_reported":1704564519,"current_range_meters":2800,"station_id":"","pricing_plan_id":"free"},{"bike_id":"3c69489c-925b-4888-a83b-5a2156f1e4a8","system_id":"levelo_inurba_marseille","lat":43.29985,"lon":5.37428,"is_reserved":false,"is_disabled":false,"rental_uris":{"android":"levelo://app?vid=3c69489c-925b-4888-a83b-5a2156f1e4a8","ios":"levelo://app?vid=3c69489c-925b-4888-a83b-5a2156f1e4a8"},"vehicle_type_id":"4","last_reported":1704564519,"current_range_meters":25600,"station_id":"","pricing_plan_id":"free"},{"bike_id":"ce0040e2-8a1f-4882-922d-ea15a02d1ba4","system_id":"levelo_inurba_marseille","lat":43.30073,"lon":5.37708,"is_reserved":false,"is_disabled":false,"rental_uris":{"android":"levelo://app?vid=ce0040e2-8a1f-4882-922d-ea15a02d1ba4","ios":"levelo://app?vid=ce0040e2-8a1f-4882-922d-ea15a02d1ba4"},"vehicle_type_id":"4","last_reported":1704564519,"current_range_meters":5600,"station_id":"","pricing_plan_id":"free"},{"bike_id":"b22604ec-0c4b-41b4-a20e-38add68f7682","system_id":"levelo_inurba_marseille","lat":43.32566,"lon":5.37476,"is_reserved":false,"is_disabled":false,"rental_uris":{"android":"levelo://app?vid=b22604ec-0c4b-41b4-a20e-38add68f7682","ios":"levelo://app?vid=b22604ec-0c4b-41b4-a20e-38add68f7682"},"vehicle_type_id":"4","last_reported":1704564519,"current_range_meters":13200,"station_id":"","pricing_plan_id":"free"},{"bike_id":"90f624c9-e920-42f0-bdb2-c7157855cdc0","system_id":"levelo_inurba_marseille","lat":43.311602,"lon":5.386833,"is_reserved":false,"is_disabled":false,"rental_uris":{"android":"levelo://app?vid=90f624c9-e920-42f0-bdb2-c7157855cdc0","ios":"levelo://app?vid=90f624c9-e920-42f0-bdb2-c7157855cdc0"},"vehicle_type_id":"4","last_reported":1704564519,"current_range_meters":12400,"station_id":"ce4bgv12rcd13ifvqcp0","pricing_plan_id":"free"},{"bike_id":"cdbbaafb-7bec-4ac4-ad97-43134737c87e","system_id":"levelo_inurba_marseille","lat":43.305364,"lon":5.384119,"is_reserved":false,"is_disabled":false,"rental_uris":{"android":"levelo://app?vid=cdbbaafb-7bec-4ac4-ad97-43134737c87e","ios":"levelo://app?vid=cdbbaafb-7bec-4ac4-ad97-43134737c87e"},"vehicle_type_id":"4","last_reported":1704564519,"current_range_meters":22800,"station_id":"ce4bgg92rcd13ifvqb30","pricing_plan_id":"free"},{"bike_id":"ab229e5f-622a-4939-a3f1-f8709d2f8aa4","system_id":"levelo_inurba_marseille","lat":43.305364,"lon":5.384119,"is_reserved":false,"is_disabled":false,"rental_uris":{"android":"levelo://app?vid=ab229e5f-622a-4939-a3f1-f8709d2f8aa4","ios":"levelo://app?vid=ab229e5f-622a-4939-a3f1-f8709d2f8aa4"},"vehicle_type_id":"4","last_reported":1704564519,"current_range_meters":11600,"station_id":"ce4bgg92rcd13ifvqb30","pricing_plan_id":"free"},{"bike_id":"71a7564d-7b69-49da-9b7f-e1561c081f68","system_id":"levelo_inurba_marseille","lat":43.305364,"lon":5.384119,"is_reserved":false,"is_disabled":false,"rental_uris":{"android":"levelo://app?vid=71a7564d-7b69-49da-9b7f-e1561c081f68","ios":"levelo://app?vid=71a7564d-7b69-49da-9b7f-e1561c081f68"},"vehicle_type_id":"4","last_reported":1704564519,"current_range_meters":22000,"station_id":"ce4bgg92rcd13ifvqb30","pricing_plan_id":"free"},{"bike_id":"49eca84d-37e7-470a-a6ac-0408ac7d16ad","system_id":"levelo_inurba_marseille","lat":43.298433,"lon":5.362774,"is_reserved":false,"is_disabled":false,"rental_uris":{"android":"levelo://app?vid=49eca84d-37e7-470a-a6ac-0408ac7d16ad","ios":"levelo://app?vid=49eca84d-37e7-470a-a6ac-0408ac7d16ad"},"vehicle_type_id":"4","last_reported":1704564519,"current_range_meters":30400,"station_id":"ce4bgpp2rcd13ifvqc3g","pricing_plan_id":"free"},{"bike_id":"6b7ec123-e5db-47ea-8006-323a06a300b2","system_id":"levelo_inurba_marseille","lat":43.311722,"lon":5.387247,"is_reserved":false,"is_disabled":false,"rental_uris":{"android":"levelo://app?vid=6b7ec123-e5db-47ea-8006-323a06a300b2","ios":"levelo://app?vid=6b7ec123-e5db-47ea-8006-323a06a300b2"},"vehicle_type_id":"4","last_reported":1704564519,"current_range_meters":25200,"station_id":"ce4bgv12rcd13ifvqcp0","pricing_plan_id":"free"},{"bike_id":"651de910-e4fb-418e-be2e-6ad3a088c6cd","system_id":"levelo_inurba_marseille","lat":43.297794,"lon":5.370888,"is_reserved":false,"is_disabled":false,"rental_uris":{"android":"levelo://app?vid=651de910-e4fb-418e-be2e-6ad3a088c6cd","ios":"levelo://app?vid=651de910-e4fb-418e-be2e-6ad3a088c6cd"},"vehicle_type_id":"4","last_reported":1704564519,"current_range_meters":17200,"station_id":"ce4bgop2rcd13ifvqc1g","pricing_plan_id":"free"},{"bike_id":"276c91d7-6ca9-48bc-bf75-acd9920b9ec2","system_id":"levelo_inurba_marseille","lat":43.322843,"lon":5.38268,"is_reserved":false,"is_disabled":false,"rental_uris":{"android":"levelo://app?vid=276c91d7-6ca9-48bc-bf75-acd9920b9ec2","ios":"levelo://app?vid=276c91d7-6ca9-48bc-bf75-acd9920b9ec2"},"vehicle_type_id":"4","last_reported":1704564519,"current_range_meters":25200,"station_id":"ce4bhr12rcd13ifvqhqg","pricing_plan_id":"free"},{"bike_id":"297a7823-4b34-45b3-8282-c78d31cc9f05","system_id":"levelo_inurba_marseille","lat":43.322872,"lon":5.382756,"is_reserved":false,"is_disabled":false,"rental_uris":{"android":"levelo://app?vid=297a7823-4b34-45b3-8282-c78d31cc9f05","ios":"levelo://app?vid=297a7823-4b34-45b3-8282-c78d31cc9f05"},"vehicle_type_id":"4","last_reported":1704564519,"current_range_meters":28000,"station_id":"ce4bhr12rcd13ifvqhqg","pricing_plan_id":"free"},{"bike_id":"09da622d-5ec6-4261-a95d-695d32c570ab","system_id":"levelo_inurba_marseille","lat":43.32288,"lon":5.382733,"is_reserved":false,"is_disabled":false,"rental_uris":{"android":"levelo://app?vid=09da622d-5ec6-4261-a95d-695d32c570ab","ios":"levelo://app?vid=09da622d-5ec6-4261-a95d-695d32c570ab"},"vehicle_type_id":"4","last_reported":1704564519,"current_range_meters":14000,"station_id":"ce4bhr12rcd13ifvqhqg","pricing_plan_id":"free"},{"bike_id":"d0aaa14f-1070-4a80-a2f2-78508dd9f6bd","system_id":"levelo_inurba_marseille","lat":43.322872,"lon":5.382756,"is_reserved":false,"is_disabled":false,"rental_uris":{"android":"levelo://app?vid=d0aaa14f-1070-4a80-a2f2-78508dd9f6bd","ios":"levelo://app?vid=d0aaa14f-1070-4a80-a2f2-78508dd9f6bd"},"vehicle_type_id":"4","last_reported":1704564519,"current_range_meters":31200,"station_id":"ce4bhr12rcd13ifvqhqg","pricing_plan_id":"free"},{"bike_id":"3bb7c7dd-5eca-4a2d-a889-98c939c30e62","system_id":"levelo_inurba_marseille","lat":43.32288,"lon":5.3828,"is_reserved":false,"is_disabled":false,"rental_uris":{"android":"levelo://app?vid=3bb7c7dd-5eca-4a2d-a889-98c939c30e62","ios":"levelo://app?vid=3bb7c7dd-5eca-4a2d-a889-98c939c30e62"},"vehicle_type_id":"4","last_reported":1704564519,"current_range_meters":30000,"station_id":"ce4bhr12rcd13ifvqhqg","pricing_plan_id":"free"},{"bike_id":"f661f6de-13d0-42ff-819f-05ad69d6ac0a","system_id":"levelo_inurba_marseille","lat":43.32812,"lon":5.36681,"is_reserved":false,"is_disabled":false,"rental_uris":{"android":"levelo://app?vid=f661f6de-13d0-42ff-819f-05ad69d6ac0a","ios":"levelo://app?vid=f661f6de-13d0-42ff-819f-05ad69d6ac0a"},"vehicle_type_id":"4","last_reported":1704564519,"current_range_meters":27600,"station_id":"ce4bhs92rcd13ifvqi0g","pricing_plan_id":"free"},{"bike_id":"c224ea64-7bb8-45be-8a3a-d137d9e17684","system_id":"levelo_inurba_marseille","lat":43.32824,"lon":5.36684,"is_reserved":false,"is_disabled":false,"rental_uris":{"android":"levelo://app?vid=c224ea64-7bb8-45be-8a3a-d137d9e17684","ios":"levelo://app?vid=c224ea64-7bb8-45be-8a3a-d137d9e17684"},"vehicle_type_id":"4","last_reported":1704564519,"current_range_meters":18000,"station_id":"ce4bhs92rcd13ifvqi0g","pricing_plan_id":"free"},{"bike_id":"387c1dff-fb7e-4547-838e-1af3f69c4219","system_id":"levelo_inurba_marseille","lat":43.32824,"lon":5.36681,"is_reserved":false,"is_disabled":false,"rental_uris":{"android":"levelo://app?vid=387c1dff-fb7e-4547-838e-1af3f69c4219","ios":"levelo://app?vid=387c1dff-fb7e-4547-838e-1af3f69c4219"},"vehicle_type_id":"4","last_reported":1704564519,"current_range_meters":26800,"station_id":"ce4bhs92rcd13ifvqi0g","pricing_plan_id":"free"},{"bike_id":"66addf4b-70b7-4ac4-8e17-37956e9ecfbb","system_id":"levelo_inurba_marseille","lat":43.328249,"lon":5.366772,"is_reserved":false,"is_disabled":false,"rental_uris":{"android":"levelo://app?vid=66addf4b-70b7-4ac4-8e17-37956e9ecfbb","ios":"levelo://app?vid=66addf4b-70b7-4ac4-8e17-37956e9ecfbb"},"vehicle_type_id":"4","last_reported":1704564519,"current_range_meters":23600,"station_id":"ce4bhs92rcd13ifvqi0g","pricing_plan_id":"free"},{"bike_id":"0f4d3e9a-7c47-4898-8890-89e08c97b864","system_id":"levelo_inurba_marseille","lat":43.32825,"lon":5.36685,"is_reserved":false,"is_disabled":false,"rental_uris":{"android":"levelo://app?vid=0f4d3e9a-7c47-4898-8890-89e08c97b864","ios":"levelo://app?vid=0f4d3e9a-7c47-4898-8890-89e08c97b864"},"vehicle_type_id":"4","last_reported":1704564519,"current_range_meters":24400,"station_id":"ce4bhs92rcd13ifvqi0g","pricing_plan_id":"free"},{"bike_id":"42895378-a21e-445b-8e89-325727904609","system_id":"levelo_inurba_marseille","lat":43.328371,"lon":5.366909,"is_reserved":false,"is_disabled":false,"rental_uris":{"android":"levelo://app?vid=42895378-a21e-445b-8e89-325727904609","ios":"levelo://app?vid=42895378-a21e-445b-8e89-325727904609"},"vehicle_type_id":"4","last_reported":1704564519,"current_range_meters":25600,"station_id":"ce4bhs92rcd13ifvqi0g","pricing_plan_id":"free"},{"bike_id":"48e8ea8a-74a9-44ba-bf7d-c5a3ef32811d","system_id":"levelo_inurba_marseille","lat":43.32826,"lon":5.36683,"is_reserved":false,"is_disabled":false,"rental_uris":{"android":"levelo://app?vid=48e8ea8a-74a9-44ba-bf7d-c5a3ef32811d","ios":"levelo://app?vid=48e8ea8a-74a9-44ba-bf7d-c5a3ef32811d"},"vehicle_type_id":"4","last_reported":1704564519,"current_range_meters":31200,"station_id":"ce4bhs92rcd13ifvqi0g","pricing_plan_id":"free"},{"bike_id":"064b14d2-f3e9-43be-a725-c95d6c66fd15","system_id":"levelo_inurba_marseille","lat":43.328371,"lon":5.366909,"is_reserved":false,"is_disabled":false,"rental_uris":{"android":"levelo://app?vid=064b14d2-f3e9-43be-a725-c95d6c66fd15","ios":"levelo://app?vid=064b14d2-f3e9-43be-a725-c95d6c66fd15"},"vehicle_type_id":"4","last_reported":1704564519,"current_range_meters":26000,"station_id":"ce4bhs92rcd13ifvqi0g","pricing_plan_id":"free"},{"bike_id":"43f47c35-ec23-411b-b2fa-7957e35eab11","system_id":"levelo_inurba_marseille","lat":43.328371,"lon":5.366909,"is_reserved":false,"is_disabled":false,"rental_uris":{"android":"levelo://app?vid=43f47c35-ec23-411b-b2fa-7957e35eab11","ios":"levelo://app?vid=43f47c35-ec23-411b-b2fa-7957e35eab11"},"vehicle_type_id":"4","last_reported":1704564519,"current_range_meters":14000,"station_id":"ce4bhs92rcd13ifvqi0g","pricing_plan_id":"free"},{"bike_id":"0725f2a6-de18-43ea-a245-f699ddc19b55","system_id":"levelo_inurba_marseille","lat":43.328371,"lon":5.366909,"is_reserved":false,"is_disabled":false,"rental_uris":{"android":"levelo://app?vid=0725f2a6-de18-43ea-a245-f699ddc19b55","ios":"levelo://app?vid=0725f2a6-de18-43ea-a245-f699ddc19b55"},"vehicle_type_id":"4","last_reported":1704564519,"current_range_meters":12400,"station_id":"ce4bhs92rcd13ifvqi0g","pricing_plan_id":"free"},{"bike_id":"ca02ca89-8dd5-4fc4-9a30-db37a36b7ff7","system_id":"levelo_inurba_marseille","lat":43.328305,"lon":5.366809,"is_reserved":false,"is_disabled":false,"rental_uris":{"android":"levelo://app?vid=ca02ca89-8dd5-4fc4-9a30-db37a36b7ff7","ios":"levelo://app?vid=ca02ca89-8dd5-4fc4-9a30-db37a36b7ff7"},"vehicle_type_id":"4","last_reported":1704564519,"current_range_meters":31200,"station_id":"ce4bhs92rcd13ifvqi0g","pricing_plan_id":"free"},{"bike_id":"ee966a52-c4f3-4b5b-b8b2-c85b17eb5fb4","system_id":"levelo_inurba_marseille","lat":43.328371,"lon":5.366909,"is_reserved":false,"is_disabled":false,"rental_uris":{"android":"levelo://app?vid=ee966a52-c4f3-4b5b-b8b2-c85b17eb5fb4","ios":"levelo://app?vid=ee966a52-c4f3-4b5b-b8b2-c85b17eb5fb4"},"vehicle_type_id":"4","last_reported":1704564519,"current_range_meters":20000,"station_id":"ce4bhs92rcd13ifvqi0g","pricing_plan_id":"free"},{"bike_id":"20ee9ffc-dea6-4ee0-aa5b-7f51a0c56576","system_id":"levelo_inurba_marseille","lat":43.298915,"lon":5.378965,"is_reserved":false,"is_disabled":false,"rental_uris":{"android":"levelo://app?vid=20ee9ffc-dea6-4ee0-aa5b-7f51a0c56576","ios":"levelo://app?vid=20ee9ffc-dea6-4ee0-aa5b-7f51a0c56576"},"vehicle_type_id":"4","last_reported":1704564519,"current_range_meters":18400,"station_id":"","pricing_plan_id":"free"},{"bike_id":"eec93932-52b4-4a07-b46f-44c831efcf42","system_id":"levelo_inurba_marseille","lat":43.29724,"lon":5.37689,"is_reserved":false,"is_disabled":false,"rental_uris":{"android":"levelo://app?vid=eec93932-52b4-4a07-b46f-44c831efcf42","ios":"levelo://app?vid=eec93932-52b4-4a07-b46f-44c831efcf42"},"vehicle_type_id":"4","last_reported":1704564519,"current_range_meters":0,"station_id":"ce4bgkh2rcd13ifvqbl0","pricing_plan_id":"free"},{"bike_id":"ccb63892-07d9-4021-92fd-2634a7f98252","system_id":"levelo_inurba_marseille","lat":43.296935,"lon":5.376544,"is_reserved":false,"is_disabled":false,"rental_uris":{"android":"levelo://app?vid=ccb63892-07d9-4021-92fd-2634a7f98252","ios":"levelo://app?vid=ccb63892-07d9-4021-92fd-2634a7f98252"},"vehicle_type_id":"4","last_reported":1704564519,"current_range_meters":3600,"station_id":"ce4bgkh2rcd13ifvqbl0","pricing_plan_id":"free"},{"bike_id":"d8d16ed4-be6f-4b49-83fc-7aeada7edd98","system_id":"levelo_inurba_marseille","lat":43.299028,"lon":5.381509,"is_reserved":false,"is_disabled":false,"rental_uris":{"android":"levelo://app?vid=d8d16ed4-be6f-4b49-83fc-7aeada7edd98","ios":"levelo://app?vid=d8d16ed4-be6f-4b49-83fc-7aeada7edd98"},"vehicle_type_id":"4","last_reported":1704564519,"current_range_meters":22400,"station_id":"ce4bgj12rcd13ifvqbc0","pricing_plan_id":"free"},{"bike_id":"712bc03c-4301-4f23-a402-31c4a3f6ea54","system_id":"levelo_inurba_marseille","lat":43.31752,"lon":5.39011,"is_reserved":false,"is_disabled":false,"rental_uris":{"android":"levelo://app?vid=712bc03c-4301-4f23-a402-31c4a3f6ea54","ios":"levelo://app?vid=712bc03c-4301-4f23-a402-31c4a3f6ea54"},"vehicle_type_id":"4","last_reported":1704564519,"current_range_meters":6800,"station_id":"ce4bhqp2rcd13ifvqhng","pricing_plan_id":"free"},{"bike_id":"e37c395a-9586-41ec-a7f6-e0ff510c2fd8","system_id":"levelo_inurba_marseille","lat":43.317553,"lon":5.39017,"is_reserved":false,"is_disabled":false,"rental_uris":{"android":"levelo://app?vid=e37c395a-9586-41ec-a7f6-e0ff510c2fd8","ios":"levelo://app?vid=e37c395a-9586-41ec-a7f6-e0ff510c2fd8"},"vehicle_type_id":"4","last_reported":1704564519,"current_range_meters":31200,"station_id":"ce4bhqp2rcd13ifvqhng","pricing_plan_id":"free"},{"bike_id":"53b8b99f-61cc-4dd1-a7ec-a32bd91f2e37","system_id":"levelo_inurba_marseille","lat":43.31762,"lon":5.39015,"is_reserved":false,"is_disabled":false,"rental_uris":{"android":"levelo://app?vid=53b8b99f-61cc-4dd1-a7ec-a32bd91f2e37","ios":"levelo://app?vid=53b8b99f-61cc-4dd1-a7ec-a32bd91f2e37"},"vehicle_type_id":"4","last_reported":1704564519,"current_range_meters":12400,"station_id":"ce4bhqp2rcd13ifvqhng","pricing_plan_id":"free"},{"bike_id":"9f99198d-706b-47c3-9d54-a5e733922f25","system_id":"levelo_inurba_marseille","lat":43.317557,"lon":5.390173,"is_reserved":false,"is_disabled":false,"rental_uris":{"android":"levelo://app?vid=9f99198d-706b-47c3-9d54-a5e733922f25","ios":"levelo://app?vid=9f99198d-706b-47c3-9d54-a5e733922f25"},"vehicle_type_id":"4","last_reported":1704564519,"current_range_meters":31200,"station_id":"ce4bhqp2rcd13ifvqhng","pricing_plan_id":"free"},{"bike_id":"039064ec-d551-42f8-8b33-3d8c07b377c5","system_id":"levelo_inurba_marseille","lat":43.29808,"lon":5.38083,"is_reserved":false,"is_disabled":false,"rental_uris":{"android":"levelo://app?vid=039064ec-d551-42f8-8b33-3d8c07b377c5","ios":"levelo://app?vid=039064ec-d551-42f8-8b33-3d8c07b377c5"},"vehicle_type_id":"4","last_reported":1704564519,"current_range_meters":0,"station_id":"ce4bgip2rcd13ifvqbb0","pricing_plan_id":"free"},{"bike_id":"d2b9ea91-fae6-48a0-a734-1d9f63e27ff3","system_id":"levelo_inurba_marseille","lat":43.30431,"lon":5.38892,"is_reserved":false,"is_disabled":false,"rental_uris":{"android":"levelo://app?vid=d2b9ea91-fae6-48a0-a734-1d9f63e27ff3","ios":"levelo://app?vid=d2b9ea91-fae6-48a0-a734-1d9f63e27ff3"},"vehicle_type_id":"4","last_reported":1704564519,"current_range_meters":24800,"station_id":"ce4bgk12rcd13ifvqbi0","pricing_plan_id":"free"},{"bike_id":"39cd1227-0de9-4745-ab35-e2838fb91889","system_id":"levelo_inurba_marseille","lat":43.304278,"lon":5.388868,"is_reserved":false,"is_disabled":false,"rental_uris":{"android":"levelo://app?vid=39cd1227-0de9-4745-ab35-e2838fb91889","ios":"levelo://app?vid=39cd1227-0de9-4745-ab35-e2838fb91889"},"vehicle_type_id":"4","last_reported":1704564519,"current_range_meters":2000,"station_id":"ce4bgk12rcd13ifvqbi0","pricing_plan_id":"free"},{"bike_id":"0e2437ab-015c-4c1b-a6f8-f31d39497f3a","system_id":"levelo_inurba_marseille","lat":43.295748,"lon":5.37522,"is_reserved":false,"is_disabled":false,"rental_uris":{"android":"levelo://app?vid=0e2437ab-015c-4c1b-a6f8-f31d39497f3a","ios":"levelo://app?vid=0e2437ab-015c-4c1b-a6f8-f31d39497f3a"},"vehicle_type_id":"4","last_reported":1704564519,"current_range_meters":0,"station_id":"ce4bgh92rcd13ifvqb50","pricing_plan_id":"free"},{"bike_id":"d60802d6-4f47-444a-b234-883690eec05b","system_id":"levelo_inurba_marseille","lat":43.33062,"lon":5.3627,"is_reserved":false,"is_disabled":false,"rental_uris":{"android":"levelo://app?vid=d60802d6-4f47-444a-b234-883690eec05b","ios":"levelo://app?vid=d60802d6-4f47-444a-b234-883690eec05b"},"vehicle_type_id":"4","last_reported":1704564519,"current_range_meters":0,"station_id":"","pricing_plan_id":"free"},{"bike_id":"2bfabee8-7e34-400f-912a-83f8084bc493","system_id":"levelo_inurba_marseille","lat":43.296277,"lon":5.377108,"is_reserved":false,"is_disabled":false,"rental_uris":{"android":"levelo://app?vid=2bfabee8-7e34-400f-912a-83f8084bc493","ios":"levelo://app?vid=2bfabee8-7e34-400f-912a-83f8084bc493"},"vehicle_type_id":"4","last_reported":1704564519,"current_range_meters":22000,"station_id":"ce4bgi92rcd13ifvqb90","pricing_plan_id":"free"},{"bike_id":"204dea3f-87e7-4326-9f54-6cdab23e9e5a","system_id":"levelo_inurba_marseille","lat":43.32367,"lon":5.388836,"is_reserved":false,"is_disabled":false,"rental_uris":{"android":"levelo://app?vid=204dea3f-87e7-4326-9f54-6cdab23e9e5a","ios":"levelo://app?vid=204dea3f-87e7-4326-9f54-6cdab23e9e5a"},"vehicle_type_id":"4","last_reported":1704564519,"current_range_meters":6400,"station_id":"ce4bhqp2rcd13ifvqhog","pricing_plan_id":"free"},{"bike_id":"be5082e4-6e6d-45b4-9ae2-335f9d2ce4d0","system_id":"levelo_inurba_marseille","lat":43.32367,"lon":5.388836,"is_reserved":false,"is_disabled":false,"rental_uris":{"android":"levelo://app?vid=be5082e4-6e6d-45b4-9ae2-335f9d2ce4d0","ios":"levelo://app?vid=be5082e4-6e6d-45b4-9ae2-335f9d2ce4d0"},"vehicle_type_id":"4","last_reported":1704564519,"current_range_meters":16800,"station_id":"ce4bhqp2rcd13ifvqhog","pricing_plan_id":"free"},{"bike_id":"e65d45d8-5d93-40c5-98a6-1d077f9f9065","system_id":"levelo_inurba_marseille","lat":43.293259,"lon":5.371586,"is_reserved":false,"is_disabled":false,"rental_uris":{"android":"levelo://app?vid=e65d45d8-5d93-40c5-98a6-1d077f9f9065","ios":"levelo://app?vid=e65d45d8-5d93-40c5-98a6-1d077f9f9065"},"vehicle_type_id":"4","last_reported":1704564519,"current_range_meters":28400,"station_id":"ce4bgh92rcd13ifvqb40","pricing_plan_id":"free"},{"bike_id":"fd5f1870-56c7-4844-9853-4ead76571e3e","system_id":"levelo_inurba_marseille","lat":43.293259,"lon":5.371586,"is_reserved":false,"is_disabled":false,"rental_uris":{"android":"levelo://app?vid=fd5f1870-56c7-4844-9853-4ead76571e3e","ios":"levelo://app?vid=fd5f1870-56c7-4844-9853-4ead76571e3e"},"vehicle_type_id":"4","last_reported":1704564519,"current_range_meters":26000,"station_id":"ce4bgh92rcd13ifvqb40","pricing_plan_id":"free"},{"bike_id":"010eb6b7-2326-4b9e-bcf6-7ac8013c85e1","system_id":"levelo_inurba_marseille","lat":43.293009,"lon":5.374584,"is_reserved":false,"is_disabled":false,"rental_uris":{"android":"levelo://app?vid=010eb6b7-2326-4b9e-bcf6-7ac8013c85e1","ios":"levelo://app?vid=010eb6b7-2326-4b9e-bcf6-7ac8013c85e1"},"vehicle_type_id":"4","last_reported":1704564519,"current_range_meters":23200,"station_id":"ce4bgi12rcd13ifvqb70","pricing_plan_id":"free"},{"bike_id":"a6d286b0-72c8-4892-80a8-ac69b525b92a","system_id":"levelo_inurba_marseille","lat":43.293009,"lon":5.374584,"is_reserved":false,"is_disabled":false,"rental_uris":{"android":"levelo://app?vid=a6d286b0-72c8-4892-80a8-ac69b525b92a","ios":"levelo://app?vid=a6d286b0-72c8-4892-80a8-ac69b525b92a"},"vehicle_type_id":"4","last_reported":1704564519,"current_range_meters":21600,"station_id":"ce4bgi12rcd13ifvqb70","pricing_plan_id":"free"},{"bike_id":"fd051463-58b6-45ac-895d-dd26d7864bf0","system_id":"levelo_inurba_marseille","lat":43.30595,"lon":5.39359,"is_reserved":false,"is_disabled":false,"rental_uris":{"android":"levelo://app?vid=fd051463-58b6-45ac-895d-dd26d7864bf0","ios":"levelo://app?vid=fd051463-58b6-45ac-895d-dd26d7864bf0"},"vehicle_type_id":"4","last_reported":1704564519,"current_range_meters":23200,"station_id":"ce4bh0p2rcd13ifvqd80","pricing_plan_id":"free"},{"bike_id":"9c1b2af2-56e8-46a6-8c9e-399f057cda49","system_id":"levelo_inurba_marseille","lat":43.303002,"lon":5.392142,"is_reserved":false,"is_disabled":false,"rental_uris":{"android":"levelo://app?vid=9c1b2af2-56e8-46a6-8c9e-399f057cda49","ios":"levelo://app?vid=9c1b2af2-56e8-46a6-8c9e-399f057cda49"},"vehicle_type_id":"4","last_reported":1704564519,"current_range_meters":26800,"station_id":"ce4bgkh2rcd13ifvqbk0","pricing_plan_id":"free"},{"bike_id":"ab170602-54b2-4d0d-a51b-acd886b67d45","system_id":"levelo_inurba_marseille","lat":43.302992,"lon":5.392136,"is_reserved":false,"is_disabled":false,"rental_uris":{"android":"levelo://app?vid=ab170602-54b2-4d0d-a51b-acd886b67d45","ios":"levelo://app?vid=ab170602-54b2-4d0d-a51b-acd886b67d45"},"vehicle_type_id":"4","last_reported":1704564519,"current_range_meters":16400,"station_id":"ce4bgkh2rcd13ifvqbk0","pricing_plan_id":"free"},{"bike_id":"c541f931-dcf1-4d28-b472-d73af063a433","system_id":"levelo_inurba_marseille","lat":43.309047,"lon":5.396551,"is_reserved":false,"is_disabled":false,"rental_uris":{"android":"levelo://app?vid=c541f931-dcf1-4d28-b472-d73af063a433","ios":"levelo://app?vid=c541f931-dcf1-4d28-b472-d73af063a433"},"vehicle_type_id":"4","last_reported":1704564519,"current_range_meters":21200,"station_id":"ce4bh012rcd13ifvqcv0","pricing_plan_id":"free"},{"bike_id":"afbb9cb5-4d9d-45ba-af5a-f7c0aaff68cb","system_id":"levelo_inurba_marseille","lat":43.313291,"lon":5.396838,"is_reserved":false,"is_disabled":false,"rental_uris":{"android":"levelo://app?vid=afbb9cb5-4d9d-45ba-af5a-f7c0aaff68cb","ios":"levelo://app?vid=afbb9cb5-4d9d-45ba-af5a-f7c0aaff68cb"},"vehicle_type_id":"4","last_reported":1704564519,"current_range_meters":17200,"station_id":"ce4bgvp2rcd13ifvqcu0","pricing_plan_id":"free"},{"bike_id":"858220e2-83c8-470a-9bdf-32af02d8cc27","system_id":"levelo_inurba_marseille","lat":43.313291,"lon":5.396838,"is_reserved":false,"is_disabled":false,"rental_uris":{"android":"levelo://app?vid=858220e2-83c8-470a-9bdf-32af02d8cc27","ios":"levelo://app?vid=858220e2-83c8-470a-9bdf-32af02d8cc27"},"vehicle_type_id":"4","last_reported":1704564519,"current_range_meters":13600,"station_id":"ce4bgvp2rcd13ifvqcu0","pricing_plan_id":"free"},{"bike_id":"a00e456c-9e22-4967-b4a8-8391232c4ecd","system_id":"levelo_inurba_marseille","lat":43.313291,"lon":5.396838,"is_reserved":false,"is_disabled":false,"rental_uris":{"android":"levelo://app?vid=a00e456c-9e22-4967-b4a8-8391232c4ecd","ios":"levelo://app?vid=a00e456c-9e22-4967-b4a8-8391232c4ecd"},"vehicle_type_id":"4","last_reported":1704564519,"current_range_meters":28800,"station_id":"ce4bgvp2rcd13ifvqcu0","pricing_plan_id":"free"},{"bike_id":"a18c9f18-dd23-4fa3-ae4c-750a813ec2dd","system_id":"levelo_inurba_marseille","lat":43.314009,"lon":5.397317,"is_reserved":false,"is_disabled":false,"rental_uris":{"android":"levelo://app?vid=a18c9f18-dd23-4fa3-ae4c-750a813ec2dd","ios":"levelo://app?vid=a18c9f18-dd23-4fa3-ae4c-750a813ec2dd"},"vehicle_type_id":"4","last_reported":1704564519,"current_range_meters":18000,"station_id":"","pricing_plan_id":"free"},{"bike_id":"392e3811-1ccc-437f-9195-7ad1aec8a3e2","system_id":"levelo_inurba_marseille","lat":43.290779,"lon":5.371482,"is_reserved":false,"is_disabled":false,"rental_uris":{"android":"levelo://app?vid=392e3811-1ccc-437f-9195-7ad1aec8a3e2","ios":"levelo://app?vid=392e3811-1ccc-437f-9195-7ad1aec8a3e2"},"vehicle_type_id":"4","last_reported":1704564519,"current_range_meters":30000,"station_id":"ce4bh5p2rcd13ifvqe4g","pricing_plan_id":"free"},{"bike_id":"d91fb6ab-24f3-49e1-b5a3-b6992710dbd7","system_id":"levelo_inurba_marseille","lat":43.290624,"lon":5.359245,"is_reserved":false,"is_disabled":false,"rental_uris":{"android":"levelo://app?vid=d91fb6ab-24f3-49e1-b5a3-b6992710dbd7","ios":"levelo://app?vid=d91fb6ab-24f3-49e1-b5a3-b6992710dbd7"},"vehicle_type_id":"4","last_reported":1704564519,"current_range_meters":21600,"station_id":"ce4bha92rcd13ifvqeg0","pricing_plan_id":"free"},{"bike_id":"a1b1aead-b755-443e-bf78-e7ab91138d78","system_id":"levelo_inurba_marseille","lat":43.2904,"lon":5.35922,"is_reserved":false,"is_disabled":false,"rental_uris":{"android":"levelo://app?vid=a1b1aead-b755-443e-bf78-e7ab91138d78","ios":"levelo://app?vid=a1b1aead-b755-443e-bf78-e7ab91138d78"},"vehicle_type_id":"4","last_reported":1704564519,"current_range_meters":2000,"station_id":"ce4bha92rcd13ifvqeg0","pricing_plan_id":"free"},{"bike_id":"84a2642a-87ae-42d7-b13a-4192672d7ca0","system_id":"levelo_inurba_marseille","lat":43.29422,"lon":5.38625,"is_reserved":false,"is_disabled":false,"rental_uris":{"android":"levelo://app?vid=84a2642a-87ae-42d7-b13a-4192672d7ca0","ios":"levelo://app?vid=84a2642a-87ae-42d7-b13a-4192672d7ca0"},"vehicle_type_id":"4","last_reported":1704564519,"current_range_meters":0,"station_id":"ce4bh2h2rcd13ifvqdh0","pricing_plan_id":"free"},{"bike_id":"85732af5-ad96-4b4e-86c4-fe5439735d28","system_id":"levelo_inurba_marseille","lat":43.294153,"lon":5.386305,"is_reserved":false,"is_disabled":false,"rental_uris":{"android":"levelo://app?vid=85732af5-ad96-4b4e-86c4-fe5439735d28","ios":"levelo://app?vid=85732af5-ad96-4b4e-86c4-fe5439735d28"},"vehicle_type_id":"4","last_reported":1704564519,"current_range_meters":3600,"station_id":"ce4bh2h2rcd13ifvqdh0","pricing_plan_id":"free"},{"bike_id":"1c5bcc8d-a083-4ce5-b294-ccbe8d096d06","system_id":"levelo_inurba_marseille","lat":43.294162,"lon":5.386292,"is_reserved":false,"is_disabled":false,"rental_uris":{"android":"levelo://app?vid=1c5bcc8d-a083-4ce5-b294-ccbe8d096d06","ios":"levelo://app?vid=1c5bcc8d-a083-4ce5-b294-ccbe8d096d06"},"vehicle_type_id":"4","last_reported":1704564519,"current_range_meters":24000,"station_id":"ce4bh2h2rcd13ifvqdh0","pricing_plan_id":"free"},{"bike_id":"5dfbd92f-2387-4cf4-97b8-28b9dd341ffd","system_id":"levelo_inurba_marseille","lat":43.289184,"lon":5.366408,"is_reserved":false,"is_disabled":false,"rental_uris":{"android":"levelo://app?vid=5dfbd92f-2387-4cf4-97b8-28b9dd341ffd","ios":"levelo://app?vid=5dfbd92f-2387-4cf4-97b8-28b9dd341ffd"},"vehicle_type_id":"4","last_reported":1704564519,"current_range_meters":11600,"station_id":"ce4bhap2rcd13ifvqek0","pricing_plan_id":"free"},{"bike_id":"1faf7258-ab47-4297-a705-6bf9eedaac67","system_id":"levelo_inurba_marseille","lat":43.289184,"lon":5.366408,"is_reserved":false,"is_disabled":false,"rental_uris":{"android":"levelo://app?vid=1faf7258-ab47-4297-a705-6bf9eedaac67","ios":"levelo://app?vid=1faf7258-ab47-4297-a705-6bf9eedaac67"},"vehicle_type_id":"4","last_reported":1704564519,"current_range_meters":28400,"station_id":"ce4bhap2rcd13ifvqek0","pricing_plan_id":"free"},{"bike_id":"fd63ac20-8c4b-40d4-ba98-e0fd9eb13173","system_id":"levelo_inurba_marseille","lat":43.289468,"lon":5.363719,"is_reserved":false,"is_disabled":false,"rental_uris":{"android":"levelo://app?vid=fd63ac20-8c4b-40d4-ba98-e0fd9eb13173","ios":"levelo://app?vid=fd63ac20-8c4b-40d4-ba98-e0fd9eb13173"},"vehicle_type_id":"4","last_reported":1704564519,"current_range_meters":3600,"station_id":"ce4bhc92rcd13ifvqetg","pricing_plan_id":"free"},{"bike_id":"621659f5-5ff2-4eba-a4cb-3e5963e3eeb7","system_id":"levelo_inurba_marseille","lat":43.289379,"lon":5.363999,"is_reserved":false,"is_disabled":false,"rental_uris":{"android":"levelo://app?vid=621659f5-5ff2-4eba-a4cb-3e5963e3eeb7","ios":"levelo://app?vid=621659f5-5ff2-4eba-a4cb-3e5963e3eeb7"},"vehicle_type_id":"4","last_reported":1704564519,"current_range_meters":8000,"station_id":"ce4bhc92rcd13ifvqetg","pricing_plan_id":"free"},{"bike_id":"0d682743-25f5-4378-af74-0f3e41d14262","system_id":"levelo_inurba_marseille","lat":43.304274,"lon":5.397513,"is_reserved":false,"is_disabled":false,"rental_uris":{"android":"levelo://app?vid=0d682743-25f5-4378-af74-0f3e41d14262","ios":"levelo://app?vid=0d682743-25f5-4378-af74-0f3e41d14262"},"vehicle_type_id":"4","last_reported":1704564519,"current_range_meters":14800,"station_id":"ce4bh092rcd13ifvqd20","pricing_plan_id":"free"},{"bike_id":"32fa5838-b03e-4260-a152-a3bd32b098c6","system_id":"levelo_inurba_marseille","lat":43.290103,"lon":5.356114,"is_reserved":false,"is_disabled":false,"rental_uris":{"android":"levelo://app?vid=32fa5838-b03e-4260-a152-a3bd32b098c6","ios":"levelo://app?vid=32fa5838-b03e-4260-a152-a3bd32b098c6"},"vehicle_type_id":"4","last_reported":1704564519,"current_range_meters":31200,"station_id":"ce4bhb92rcd13ifvqen0","pricing_plan_id":"free"},{"bike_id":"c58bcad1-11d5-46e2-aebd-e1fbe92a7012","system_id":"levelo_inurba_marseille","lat":43.28988,"lon":5.37818,"is_reserved":false,"is_disabled":false,"rental_uris":{"android":"levelo://app?vid=c58bcad1-11d5-46e2-aebd-e1fbe92a7012","ios":"levelo://app?vid=c58bcad1-11d5-46e2-aebd-e1fbe92a7012"},"vehicle_type_id":"4","last_reported":1704564519,"current_range_meters":0,"station_id":"ce4bh9p2rcd13ifvqed0","pricing_plan_id":"free"},{"bike_id":"63445f4b-da1d-454c-a265-ffd259706f56","system_id":"levelo_inurba_marseille","lat":43.289741,"lon":5.378306,"is_reserved":false,"is_disabled":false,"rental_uris":{"android":"levelo://app?vid=63445f4b-da1d-454c-a265-ffd259706f56","ios":"levelo://app?vid=63445f4b-da1d-454c-a265-ffd259706f56"},"vehicle_type_id":"4","last_reported":1704564519,"current_range_meters":10800,"station_id":"ce4bh9p2rcd13ifvqed0","pricing_plan_id":"free"},{"bike_id":"62afabd6-e047-4c87-85be-94b3bd302248","system_id":"levelo_inurba_marseille","lat":43.297815,"lon":5.393548,"is_reserved":false,"is_disabled":false,"rental_uris":{"android":"levelo://app?vid=62afabd6-e047-4c87-85be-94b3bd302248","ios":"levelo://app?vid=62afabd6-e047-4c87-85be-94b3bd302248"},"vehicle_type_id":"4","last_reported":1704564519,"current_range_meters":17200,"station_id":"chh1huq6cuj3fo74tm60","pricing_plan_id":"free"},{"bike_id":"c8f1c66d-517e-47cd-8c74-1fbdb664b117","system_id":"levelo_inurba_marseille","lat":43.33024,"lon":5.39031,"is_reserved":false,"is_disabled":false,"rental_uris":{"android":"levelo://app?vid=c8f1c66d-517e-47cd-8c74-1fbdb664b117","ios":"levelo://app?vid=c8f1c66d-517e-47cd-8c74-1fbdb664b117"},"vehicle_type_id":"4","last_reported":1704564519,"current_range_meters":18000,"station_id":"","pricing_plan_id":"free"},{"bike_id":"5c0e221b-54dc-4307-a6ad-cc1692cf4df3","system_id":"levelo_inurba_marseille","lat":43.33018,"lon":5.39043,"is_reserved":false,"is_disabled":false,"rental_uris":{"android":"levelo://app?vid=5c0e221b-54dc-4307-a6ad-cc1692cf4df3","ios":"levelo://app?vid=5c0e221b-54dc-4307-a6ad-cc1692cf4df3"},"vehicle_type_id":"4","last_reported":1704564519,"current_range_meters":18400,"station_id":"","pricing_plan_id":"free"},{"bike_id":"04ec1a46-291d-4424-964d-42cfee126bb8","system_id":"levelo_inurba_marseille","lat":43.33023,"lon":5.39036,"is_reserved":false,"is_disabled":false,"rental_uris":{"android":"levelo://app?vid=04ec1a46-291d-4424-964d-42cfee126bb8","ios":"levelo://app?vid=04ec1a46-291d-4424-964d-42cfee126bb8"},"vehicle_type_id":"4","last_reported":1704564519,"current_range_meters":23600,"station_id":"","pricing_plan_id":"free"},{"bike_id":"7c7a6206-545f-4749-ace7-a0c9f17d3062","system_id":"levelo_inurba_marseille","lat":43.330442,"lon":5.389148,"is_reserved":false,"is_disabled":false,"rental_uris":{"android":"levelo://app?vid=7c7a6206-545f-4749-ace7-a0c9f17d3062","ios":"levelo://app?vid=7c7a6206-545f-4749-ace7-a0c9f17d3062"},"vehicle_type_id":"4","last_reported":1704564519,"current_range_meters":18800,"station_id":"ce4bhr92rcd13ifvqhrg","pricing_plan_id":"free"},{"bike_id":"604d70e1-4bfc-4c1a-ad50-5c45b428d61e","system_id":"levelo_inurba_marseille","lat":43.330442,"lon":5.389148,"is_reserved":false,"is_disabled":false,"rental_uris":{"android":"levelo://app?vid=604d70e1-4bfc-4c1a-ad50-5c45b428d61e","ios":"levelo://app?vid=604d70e1-4bfc-4c1a-ad50-5c45b428d61e"},"vehicle_type_id":"4","last_reported":1704564519,"current_range_meters":23200,"station_id":"ce4bhr92rcd13ifvqhrg","pricing_plan_id":"free"},{"bike_id":"42a2d22f-ce67-446d-ab38-453f93bc49fa","system_id":"levelo_inurba_marseille","lat":43.330442,"lon":5.389148,"is_reserved":false,"is_disabled":false,"rental_uris":{"android":"levelo://app?vid=42a2d22f-ce67-446d-ab38-453f93bc49fa","ios":"levelo://app?vid=42a2d22f-ce67-446d-ab38-453f93bc49fa"},"vehicle_type_id":"4","last_reported":1704564519,"current_range_meters":16400,"station_id":"ce4bhr92rcd13ifvqhrg","pricing_plan_id":"free"},{"bike_id":"c34f06c4-072f-4a97-935b-714ff64dabeb","system_id":"levelo_inurba_marseille","lat":43.295169,"lon":5.390426,"is_reserved":false,"is_disabled":false,"rental_uris":{"android":"levelo://app?vid=c34f06c4-072f-4a97-935b-714ff64dabeb","ios":"levelo://app?vid=c34f06c4-072f-4a97-935b-714ff64dabeb"},"vehicle_type_id":"4","last_reported":1704564519,"current_range_meters":23600,"station_id":"ce4bh3p2rcd13ifvqdp0","pricing_plan_id":"free"},{"bike_id":"6c5eebbe-3606-40f4-b51a-cdf8266c0074","system_id":"levelo_inurba_marseille","lat":43.33024,"lon":5.3904,"is_reserved":false,"is_disabled":false,"rental_uris":{"android":"levelo://app?vid=6c5eebbe-3606-40f4-b51a-cdf8266c0074","ios":"levelo://app?vid=6c5eebbe-3606-40f4-b51a-cdf8266c0074"},"vehicle_type_id":"4","last_reported":1704564519,"current_range_meters":12000,"station_id":"","pricing_plan_id":"free"},{"bike_id":"50a06571-ee32-4006-8417-dd8ead2ab8e4","system_id":"levelo_inurba_marseille","lat":43.3302,"lon":5.39047,"is_reserved":false,"is_disabled":false,"rental_uris":{"android":"levelo://app?vid=50a06571-ee32-4006-8417-dd8ead2ab8e4","ios":"levelo://app?vid=50a06571-ee32-4006-8417-dd8ead2ab8e4"},"vehicle_type_id":"4","last_reported":1704564519,"current_range_meters":28400,"station_id":"","pricing_plan_id":"free"},{"bike_id":"d530d87c-e11a-49c2-87b6-8b3afd19f521","system_id":"levelo_inurba_marseille","lat":43.289741,"lon":5.378306,"is_reserved":false,"is_disabled":false,"rental_uris":{"android":"levelo://app?vid=d530d87c-e11a-49c2-87b6-8b3afd19f521","ios":"levelo://app?vid=d530d87c-e11a-49c2-87b6-8b3afd19f521"},"vehicle_type_id":"4","last_reported":1704564519,"current_range_meters":22800,"station_id":"ce4bh9p2rcd13ifvqed0","pricing_plan_id":"free"},{"bike_id":"8625464e-66d0-4621-bd34-1a2874fb7a19","system_id":"levelo_inurba_marseille","lat":43.330442,"lon":5.389148,"is_reserved":false,"is_disabled":false,"rental_uris":{"android":"levelo://app?vid=8625464e-66d0-4621-bd34-1a2874fb7a19","ios":"levelo://app?vid=8625464e-66d0-4621-bd34-1a2874fb7a19"},"vehicle_type_id":"4","last_reported":1704564519,"current_range_meters":10800,"station_id":"ce4bhr92rcd13ifvqhrg","pricing_plan_id":"free"},{"bike_id":"57a59c67-703f-4a83-aae5-f27109cb99b9","system_id":"levelo_inurba_marseille","lat":43.330442,"lon":5.389148,"is_reserved":false,"is_disabled":false,"rental_uris":{"android":"levelo://app?vid=57a59c67-703f-4a83-aae5-f27109cb99b9","ios":"levelo://app?vid=57a59c67-703f-4a83-aae5-f27109cb99b9"},"vehicle_type_id":"4","last_reported":1704564519,"current_range_meters":22400,"station_id":"ce4bhr92rcd13ifvqhrg","pricing_plan_id":"free"},{"bike_id":"0913753b-8d70-4c20-ade3-088ae64f136d","system_id":"levelo_inurba_marseille","lat":43.295169,"lon":5.390426,"is_reserved":false,"is_disabled":false,"rental_uris":{"android":"levelo://app?vid=0913753b-8d70-4c20-ade3-088ae64f136d","ios":"levelo://app?vid=0913753b-8d70-4c20-ade3-088ae64f136d"},"vehicle_type_id":"4","last_reported":1704564519,"current_range_meters":24000,"station_id":"ce4bh3p2rcd13ifvqdp0","pricing_plan_id":"free"},{"bike_id":"0c69c2cd-7ca5-4641-8030-ad60248600c8","system_id":"levelo_inurba_marseille","lat":43.28856,"lon":5.358371,"is_reserved":false,"is_disabled":false,"rental_uris":{"android":"levelo://app?vid=0c69c2cd-7ca5-4641-8030-ad60248600c8","ios":"levelo://app?vid=0c69c2cd-7ca5-4641-8030-ad60248600c8"},"vehicle_type_id":"4","last_reported":1704564519,"current_range_meters":14400,"station_id":"ce4bhb12rcd13ifvqem0","pricing_plan_id":"free"},{"bike_id":"336f7b12-d1ae-47e6-a8c8-9f77b809c09b","system_id":"levelo_inurba_marseille","lat":43.309371,"lon":5.401449,"is_reserved":false,"is_disabled":false,"rental_uris":{"android":"levelo://app?vid=336f7b12-d1ae-47e6-a8c8-9f77b809c09b","ios":"levelo://app?vid=336f7b12-d1ae-47e6-a8c8-9f77b809c09b"},"vehicle_type_id":"4","last_reported":1704564519,"current_range_meters":29200,"station_id":"ce4bgvp2rcd13ifvqct0","pricing_plan_id":"free"},{"bike_id":"83c714e2-2737-4e48-afcb-86ec7ddce011","system_id":"levelo_inurba_marseille","lat":43.312609,"lon":5.401662,"is_reserved":false,"is_disabled":false,"rental_uris":{"android":"levelo://app?vid=83c714e2-2737-4e48-afcb-86ec7ddce011","ios":"levelo://app?vid=83c714e2-2737-4e48-afcb-86ec7ddce011"},"vehicle_type_id":"4","last_reported":1704564519,"current_range_meters":22400,"station_id":"ce4bh092rcd13ifvqd30","pricing_plan_id":"free"},{"bike_id":"a790a606-10ce-470d-90ce-0ff4629ad99c","system_id":"levelo_inurba_marseille","lat":43.30922,"lon":5.40143,"is_reserved":false,"is_disabled":false,"rental_uris":{"android":"levelo://app?vid=a790a606-10ce-470d-90ce-0ff4629ad99c","ios":"levelo://app?vid=a790a606-10ce-470d-90ce-0ff4629ad99c"},"vehicle_type_id":"4","last_reported":1704564519,"current_range_meters":21600,"station_id":"ce4bgvp2rcd13ifvqct0","pricing_plan_id":"free"},{"bike_id":"0bba8259-2e07-436d-990c-fc2fb6282cf2","system_id":"levelo_inurba_marseille","lat":43.309371,"lon":5.401449,"is_reserved":false,"is_disabled":false,"rental_uris":{"android":"levelo://app?vid=0bba8259-2e07-436d-990c-fc2fb6282cf2","ios":"levelo://app?vid=0bba8259-2e07-436d-990c-fc2fb6282cf2"},"vehicle_type_id":"4","last_reported":1704564519,"current_range_meters":4800,"station_id":"ce4bgvp2rcd13ifvqct0","pricing_plan_id":"free"},{"bike_id":"ab807e7a-0774-41bb-8e29-7dd8f972728c","system_id":"levelo_inurba_marseille","lat":43.309371,"lon":5.401449,"is_reserved":false,"is_disabled":false,"rental_uris":{"android":"levelo://app?vid=ab807e7a-0774-41bb-8e29-7dd8f972728c","ios":"levelo://app?vid=ab807e7a-0774-41bb-8e29-7dd8f972728c"},"vehicle_type_id":"4","last_reported":1704564519,"current_range_meters":18400,"station_id":"ce4bgvp2rcd13ifvqct0","pricing_plan_id":"free"},{"bike_id":"fb68b38e-3d71-4c43-87c5-9f7041b73cdc","system_id":"levelo_inurba_marseille","lat":43.306412,"lon":5.401035,"is_reserved":false,"is_disabled":false,"rental_uris":{"android":"levelo://app?vid=fb68b38e-3d71-4c43-87c5-9f7041b73cdc","ios":"levelo://app?vid=fb68b38e-3d71-4c43-87c5-9f7041b73cdc"},"vehicle_type_id":"4","last_reported":1704564519,"current_range_meters":22800,"station_id":"ce4bh112rcd13ifvqda0","pricing_plan_id":"free"},{"bike_id":"9fe7ac7c-c0f6-45e7-a1ac-7a7d4f889af3","system_id":"levelo_inurba_marseille","lat":43.301117,"lon":5.398795,"is_reserved":false,"is_disabled":false,"rental_uris":{"android":"levelo://app?vid=9fe7ac7c-c0f6-45e7-a1ac-7a7d4f889af3","ios":"levelo://app?vid=9fe7ac7c-c0f6-45e7-a1ac-7a7d4f889af3"},"vehicle_type_id":"4","last_reported":1704564519,"current_range_meters":24000,"station_id":"ce4bh0h2rcd13ifvqd40","pricing_plan_id":"free"},{"bike_id":"fda9c414-e655-4282-a560-4266245fb9b3","system_id":"levelo_inurba_marseille","lat":43.301117,"lon":5.398795,"is_reserved":false,"is_disabled":false,"rental_uris":{"android":"levelo://app?vid=fda9c414-e655-4282-a560-4266245fb9b3","ios":"levelo://app?vid=fda9c414-e655-4282-a560-4266245fb9b3"},"vehicle_type_id":"4","last_reported":1704564519,"current_range_meters":9200,"station_id":"ce4bh0h2rcd13ifvqd40","pricing_plan_id":"free"},{"bike_id":"5c53de44-99cc-4112-ab13-0c2ed9659f54","system_id":"levelo_inurba_marseille","lat":43.286961,"lon":5.373785,"is_reserved":false,"is_disabled":false,"rental_uris":{"android":"levelo://app?vid=5c53de44-99cc-4112-ab13-0c2ed9659f54","ios":"levelo://app?vid=5c53de44-99cc-4112-ab13-0c2ed9659f54"},"vehicle_type_id":"4","last_reported":1704564519,"current_range_meters":30800,"station_id":"ce4bh3p2rcd13ifvqdq0","pricing_plan_id":"free"},{"bike_id":"27ed49ce-c54d-4bb5-8aad-4bb8de9be6e2","system_id":"levelo_inurba_marseille","lat":43.286961,"lon":5.373785,"is_reserved":false,"is_disabled":false,"rental_uris":{"android":"levelo://app?vid=27ed49ce-c54d-4bb5-8aad-4bb8de9be6e2","ios":"levelo://app?vid=27ed49ce-c54d-4bb5-8aad-4bb8de9be6e2"},"vehicle_type_id":"4","last_reported":1704564519,"current_range_meters":17600,"station_id":"ce4bh3p2rcd13ifvqdq0","pricing_plan_id":"free"},{"bike_id":"ac5056cf-8b40-44a0-aad3-bc4037f1358d","system_id":"levelo_inurba_marseille","lat":43.286961,"lon":5.373785,"is_reserved":false,"is_disabled":false,"rental_uris":{"android":"levelo://app?vid=ac5056cf-8b40-44a0-aad3-bc4037f1358d","ios":"levelo://app?vid=ac5056cf-8b40-44a0-aad3-bc4037f1358d"},"vehicle_type_id":"4","last_reported":1704564519,"current_range_meters":24800,"station_id":"ce4bh3p2rcd13ifvqdq0","pricing_plan_id":"free"},{"bike_id":"916eb063-d023-420b-8af3-7121dbd6a2a9","system_id":"levelo_inurba_marseille","lat":43.286961,"lon":5.373785,"is_reserved":false,"is_disabled":false,"rental_uris":{"android":"levelo://app?vid=916eb063-d023-420b-8af3-7121dbd6a2a9","ios":"levelo://app?vid=916eb063-d023-420b-8af3-7121dbd6a2a9"},"vehicle_type_id":"4","last_reported":1704564519,"current_range_meters":16000,"station_id":"ce4bh3p2rcd13ifvqdq0","pricing_plan_id":"free"},{"bike_id":"dea915f1-d72e-4774-b2f2-6b89147442fc","system_id":"levelo_inurba_marseille","lat":43.290345,"lon":5.38646,"is_reserved":false,"is_disabled":false,"rental_uris":{"android":"levelo://app?vid=dea915f1-d72e-4774-b2f2-6b89147442fc","ios":"levelo://app?vid=dea915f1-d72e-4774-b2f2-6b89147442fc"},"vehicle_type_id":"4","last_reported":1704564519,"current_range_meters":15600,"station_id":"ce4bh4p2rcd13ifvqe0g","pricing_plan_id":"free"},{"bike_id":"07f77bee-313e-491d-8d20-57d4f7ec4807","system_id":"levelo_inurba_marseille","lat":43.290345,"lon":5.38646,"is_reserved":false,"is_disabled":false,"rental_uris":{"android":"levelo://app?vid=07f77bee-313e-491d-8d20-57d4f7ec4807","ios":"levelo://app?vid=07f77bee-313e-491d-8d20-57d4f7ec4807"},"vehicle_type_id":"4","last_reported":1704564519,"current_range_meters":31200,"station_id":"ce4bh4p2rcd13ifvqe0g","pricing_plan_id":"free"},{"bike_id":"650a768d-edf0-4e0d-8f55-3901c560ad5e","system_id":"levelo_inurba_marseille","lat":43.290336,"lon":5.386425,"is_reserved":false,"is_disabled":false,"rental_uris":{"android":"levelo://app?vid=650a768d-edf0-4e0d-8f55-3901c560ad5e","ios":"levelo://app?vid=650a768d-edf0-4e0d-8f55-3901c560ad5e"},"vehicle_type_id":"4","last_reported":1704564519,"current_range_meters":17200,"station_id":"ce4bh4p2rcd13ifvqe0g","pricing_plan_id":"free"},{"bike_id":"da9c631e-5ce1-4823-b368-542f21d7de2f","system_id":"levelo_inurba_marseille","lat":43.290345,"lon":5.38646,"is_reserved":false,"is_disabled":false,"rental_uris":{"android":"levelo://app?vid=da9c631e-5ce1-4823-b368-542f21d7de2f","ios":"levelo://app?vid=da9c631e-5ce1-4823-b368-542f21d7de2f"},"vehicle_type_id":"4","last_reported":1704564519,"current_range_meters":14000,"station_id":"ce4bh4p2rcd13ifvqe0g","pricing_plan_id":"free"},{"bike_id":"28d5bcfa-269d-4cea-b1ca-508f8e4cb207","system_id":"levelo_inurba_marseille","lat":43.290345,"lon":5.38646,"is_reserved":false,"is_disabled":false,"rental_uris":{"android":"levelo://app?vid=28d5bcfa-269d-4cea-b1ca-508f8e4cb207","ios":"levelo://app?vid=28d5bcfa-269d-4cea-b1ca-508f8e4cb207"},"vehicle_type_id":"4","last_reported":1704564519,"current_range_meters":21600,"station_id":"ce4bh4p2rcd13ifvqe0g","pricing_plan_id":"free"},{"bike_id":"02eed534-c23b-40f9-bcec-3640200deef0","system_id":"levelo_inurba_marseille","lat":43.290336,"lon":5.386425,"is_reserved":false,"is_disabled":false,"rental_uris":{"android":"levelo://app?vid=02eed534-c23b-40f9-bcec-3640200deef0","ios":"levelo://app?vid=02eed534-c23b-40f9-bcec-3640200deef0"},"vehicle_type_id":"4","last_reported":1704564519,"current_range_meters":18800,"station_id":"ce4bh4p2rcd13ifvqe0g","pricing_plan_id":"free"},{"bike_id":"82f560e7-e677-4718-8091-c3445e52a682","system_id":"levelo_inurba_marseille","lat":43.286039,"lon":5.370679,"is_reserved":false,"is_disabled":false,"rental_uris":{"android":"levelo://app?vid=82f560e7-e677-4718-8091-c3445e52a682","ios":"levelo://app?vid=82f560e7-e677-4718-8091-c3445e52a682"},"vehicle_type_id":"4","last_reported":1704564519,"current_range_meters":24000,"station_id":"ce4bht12rcd13ifvqi60","pricing_plan_id":"free"},{"bike_id":"3d586703-e7c7-4c93-820c-cc285dc4e8ac","system_id":"levelo_inurba_marseille","lat":43.286039,"lon":5.370681,"is_reserved":false,"is_disabled":false,"rental_uris":{"android":"levelo://app?vid=3d586703-e7c7-4c93-820c-cc285dc4e8ac","ios":"levelo://app?vid=3d586703-e7c7-4c93-820c-cc285dc4e8ac"},"vehicle_type_id":"4","last_reported":1704564519,"current_range_meters":10000,"station_id":"ce4bht12rcd13ifvqi60","pricing_plan_id":"free"},{"bike_id":"2a877e30-884f-447d-9bda-91c93706195c","system_id":"levelo_inurba_marseille","lat":43.287185,"lon":5.379373,"is_reserved":false,"is_disabled":false,"rental_uris":{"android":"levelo://app?vid=2a877e30-884f-447d-9bda-91c93706195c","ios":"levelo://app?vid=2a877e30-884f-447d-9bda-91c93706195c"},"vehicle_type_id":"4","last_reported":1704564519,"current_range_meters":20800,"station_id":"ce4bh9p2rcd13ifvqec0","pricing_plan_id":"free"},{"bike_id":"ecc718c0-b93d-4766-9287-bf8f4f71c467","system_id":"levelo_inurba_marseille","lat":43.316821,"lon":5.404737,"is_reserved":false,"is_disabled":false,"rental_uris":{"android":"levelo://app?vid=ecc718c0-b93d-4766-9287-bf8f4f71c467","ios":"levelo://app?vid=ecc718c0-b93d-4766-9287-bf8f4f71c467"},"vehicle_type_id":"4","last_reported":1704564519,"current_range_meters":18400,"station_id":"ce4bh012rcd13ifvqd00","pricing_plan_id":"free"},{"bike_id":"733e0c96-b6fb-4506-aa18-1e9626ef7df1","system_id":"levelo_inurba_marseille","lat":43.291994,"lon":5.392907,"is_reserved":false,"is_disabled":false,"rental_uris":{"android":"levelo://app?vid=733e0c96-b6fb-4506-aa18-1e9626ef7df1","ios":"levelo://app?vid=733e0c96-b6fb-4506-aa18-1e9626ef7df1"},"vehicle_type_id":"4","last_reported":1704564519,"current_range_meters":14400,"station_id":"ce4bh192rcd13ifvqdd0","pricing_plan_id":"free"},{"bike_id":"5327394c-9558-4baa-b0dd-0f836727c703","system_id":"levelo_inurba_marseille","lat":43.284534,"lon":5.358662,"is_reserved":false,"is_disabled":false,"rental_uris":{"android":"levelo://app?vid=5327394c-9558-4baa-b0dd-0f836727c703","ios":"levelo://app?vid=5327394c-9558-4baa-b0dd-0f836727c703"},"vehicle_type_id":"4","last_reported":1704564519,"current_range_meters":30400,"station_id":"ce4bhah2rcd13ifvqei0","pricing_plan_id":"free"},{"bike_id":"96910b03-f01f-4ccf-9e76-9a065bfbbec5","system_id":"levelo_inurba_marseille","lat":43.285856,"lon":5.350771,"is_reserved":false,"is_disabled":false,"rental_uris":{"android":"levelo://app?vid=96910b03-f01f-4ccf-9e76-9a065bfbbec5","ios":"levelo://app?vid=96910b03-f01f-4ccf-9e76-9a065bfbbec5"},"vehicle_type_id":"4","last_reported":1704564519,"current_range_meters":31200,"station_id":"ce4bhch2rcd13ifvqeug","pricing_plan_id":"free"},{"bike_id":"77dcd9db-8541-482e-80ea-3465701dc93c","system_id":"levelo_inurba_marseille","lat":43.285856,"lon":5.350771,"is_reserved":false,"is_disabled":false,"rental_uris":{"android":"levelo://app?vid=77dcd9db-8541-482e-80ea-3465701dc93c","ios":"levelo://app?vid=77dcd9db-8541-482e-80ea-3465701dc93c"},"vehicle_type_id":"4","last_reported":1704564519,"current_range_meters":18400,"station_id":"ce4bhch2rcd13ifvqeug","pricing_plan_id":"free"},{"bike_id":"e7e08145-4601-41a4-9b39-d7f05b7c27b0","system_id":"levelo_inurba_marseille","lat":43.285856,"lon":5.350771,"is_reserved":false,"is_disabled":false,"rental_uris":{"android":"levelo://app?vid=e7e08145-4601-41a4-9b39-d7f05b7c27b0","ios":"levelo://app?vid=e7e08145-4601-41a4-9b39-d7f05b7c27b0"},"vehicle_type_id":"4","last_reported":1704564519,"current_range_meters":10800,"station_id":"ce4bhch2rcd13ifvqeug","pricing_plan_id":"free"},{"bike_id":"8ae8fd29-973b-477c-9463-de857e7f5178","system_id":"levelo_inurba_marseille","lat":43.285856,"lon":5.350771,"is_reserved":false,"is_disabled":false,"rental_uris":{"android":"levelo://app?vid=8ae8fd29-973b-477c-9463-de857e7f5178","ios":"levelo://app?vid=8ae8fd29-973b-477c-9463-de857e7f5178"},"vehicle_type_id":"4","last_reported":1704564519,"current_range_meters":25600,"station_id":"ce4bhch2rcd13ifvqeug","pricing_plan_id":"free"},{"bike_id":"6dba823a-7470-468c-beea-8f25015feb1d","system_id":"levelo_inurba_marseille","lat":43.285856,"lon":5.350771,"is_reserved":false,"is_disabled":false,"rental_uris":{"android":"levelo://app?vid=6dba823a-7470-468c-beea-8f25015feb1d","ios":"levelo://app?vid=6dba823a-7470-468c-beea-8f25015feb1d"},"vehicle_type_id":"4","last_reported":1704564519,"current_range_meters":14800,"station_id":"ce4bhch2rcd13ifvqeug","pricing_plan_id":"free"},{"bike_id":"154efb84-26fc-49e6-ada6-5bf0c44dd6f0","system_id":"levelo_inurba_marseille","lat":43.285856,"lon":5.350771,"is_reserved":false,"is_disabled":false,"rental_uris":{"android":"levelo://app?vid=154efb84-26fc-49e6-ada6-5bf0c44dd6f0","ios":"levelo://app?vid=154efb84-26fc-49e6-ada6-5bf0c44dd6f0"},"vehicle_type_id":"4","last_reported":1704564519,"current_range_meters":13200,"station_id":"ce4bhch2rcd13ifvqeug","pricing_plan_id":"free"},{"bike_id":"01e59b64-29e9-4e48-86ad-7a3b4b582e04","system_id":"levelo_inurba_marseille","lat":43.285856,"lon":5.350771,"is_reserved":false,"is_disabled":false,"rental_uris":{"android":"levelo://app?vid=01e59b64-29e9-4e48-86ad-7a3b4b582e04","ios":"levelo://app?vid=01e59b64-29e9-4e48-86ad-7a3b4b582e04"},"vehicle_type_id":"4","last_reported":1704564519,"current_range_meters":30000,"station_id":"ce4bhch2rcd13ifvqeug","pricing_plan_id":"free"},{"bike_id":"43b3ea92-a636-409a-a2bf-2cfcdf83346d","system_id":"levelo_inurba_marseille","lat":43.285856,"lon":5.350771,"is_reserved":false,"is_disabled":false,"rental_uris":{"android":"levelo://app?vid=43b3ea92-a636-409a-a2bf-2cfcdf83346d","ios":"levelo://app?vid=43b3ea92-a636-409a-a2bf-2cfcdf83346d"},"vehicle_type_id":"4","last_reported":1704564519,"current_range_meters":27600,"station_id":"ce4bhch2rcd13ifvqeug","pricing_plan_id":"free"},{"bike_id":"5688a380-9bf4-41fc-824e-d906fd2a2179","system_id":"levelo_inurba_marseille","lat":43.285856,"lon":5.350771,"is_reserved":false,"is_disabled":false,"rental_uris":{"android":"levelo://app?vid=5688a380-9bf4-41fc-824e-d906fd2a2179","ios":"levelo://app?vid=5688a380-9bf4-41fc-824e-d906fd2a2179"},"vehicle_type_id":"4","last_reported":1704564519,"current_range_meters":16800,"station_id":"ce4bhch2rcd13ifvqeug","pricing_plan_id":"free"},{"bike_id":"a8a5a961-0292-4b80-81a4-a594170f711e","system_id":"levelo_inurba_marseille","lat":43.285856,"lon":5.350771,"is_reserved":false,"is_disabled":false,"rental_uris":{"android":"levelo://app?vid=a8a5a961-0292-4b80-81a4-a594170f711e","ios":"levelo://app?vid=a8a5a961-0292-4b80-81a4-a594170f711e"},"vehicle_type_id":"4","last_reported":1704564519,"current_range_meters":22000,"station_id":"ce4bhch2rcd13ifvqeug","pricing_plan_id":"free"},{"bike_id":"e7d08906-0d87-4715-8ffa-bdb9be03abd3","system_id":"levelo_inurba_marseille","lat":43.285856,"lon":5.350771,"is_reserved":false,"is_disabled":false,"rental_uris":{"android":"levelo://app?vid=e7d08906-0d87-4715-8ffa-bdb9be03abd3","ios":"levelo://app?vid=e7d08906-0d87-4715-8ffa-bdb9be03abd3"},"vehicle_type_id":"4","last_reported":1704564519,"current_range_meters":20800,"station_id":"ce4bhch2rcd13ifvqeug","pricing_plan_id":"free"},{"bike_id":"ad416916-31a8-43a9-a9e3-26fdda5903b3","system_id":"levelo_inurba_marseille","lat":43.285848,"lon":5.350787,"is_reserved":false,"is_disabled":false,"rental_uris":{"android":"levelo://app?vid=ad416916-31a8-43a9-a9e3-26fdda5903b3","ios":"levelo://app?vid=ad416916-31a8-43a9-a9e3-26fdda5903b3"},"vehicle_type_id":"4","last_reported":1704564519,"current_range_meters":13200,"station_id":"ce4bhch2rcd13ifvqeug","pricing_plan_id":"free"},{"bike_id":"fb57a4ce-b80e-4e72-9b44-0357d82d3002","system_id":"levelo_inurba_marseille","lat":43.285848,"lon":5.350787,"is_reserved":false,"is_disabled":false,"rental_uris":{"android":"levelo://app?vid=fb57a4ce-b80e-4e72-9b44-0357d82d3002","ios":"levelo://app?vid=fb57a4ce-b80e-4e72-9b44-0357d82d3002"},"vehicle_type_id":"4","last_reported":1704564519,"current_range_meters":23200,"station_id":"ce4bhch2rcd13ifvqeug","pricing_plan_id":"free"},{"bike_id":"f6d84242-536a-4227-995d-300e54eb18f6","system_id":"levelo_inurba_marseille","lat":43.285856,"lon":5.350771,"is_reserved":false,"is_disabled":false,"rental_uris":{"android":"levelo://app?vid=f6d84242-536a-4227-995d-300e54eb18f6","ios":"levelo://app?vid=f6d84242-536a-4227-995d-300e54eb18f6"},"vehicle_type_id":"4","last_reported":1704564519,"current_range_meters":12400,"station_id":"ce4bhch2rcd13ifvqeug","pricing_plan_id":"free"},{"bike_id":"b0d9c37a-12b7-4fcf-b2cc-70034df7a04b","system_id":"levelo_inurba_marseille","lat":43.2983,"lon":5.40159,"is_reserved":false,"is_disabled":false,"rental_uris":{"android":"levelo://app?vid=b0d9c37a-12b7-4fcf-b2cc-70034df7a04b","ios":"levelo://app?vid=b0d9c37a-12b7-4fcf-b2cc-70034df7a04b"},"vehicle_type_id":"4","last_reported":1704564519,"current_range_meters":3600,"station_id":"","pricing_plan_id":"free"},{"bike_id":"75be8418-e080-466b-8bc6-a3bbf35b2d36","system_id":"levelo_inurba_marseille","lat":43.283998,"lon":5.375062,"is_reserved":false,"is_disabled":false,"rental_uris":{"android":"levelo://app?vid=75be8418-e080-466b-8bc6-a3bbf35b2d36","ios":"levelo://app?vid=75be8418-e080-466b-8bc6-a3bbf35b2d36"},"vehicle_type_id":"4","last_reported":1704564519,"current_range_meters":0,"station_id":"ce4bh412rcd13ifvqds0","pricing_plan_id":"free"},{"bike_id":"fbad2125-fac4-47af-8aef-bb952a3b5438","system_id":"levelo_inurba_marseille","lat":43.2841,"lon":5.37516,"is_reserved":false,"is_disabled":false,"rental_uris":{"android":"levelo://app?vid=fbad2125-fac4-47af-8aef-bb952a3b5438","ios":"levelo://app?vid=fbad2125-fac4-47af-8aef-bb952a3b5438"},"vehicle_type_id":"4","last_reported":1704564519,"current_range_meters":27600,"station_id":"ce4bh412rcd13ifvqds0","pricing_plan_id":"free"},{"bike_id":"5d33a591-66c9-4019-8f53-c69d7d2be421","system_id":"levelo_inurba_marseille","lat":43.283998,"lon":5.375062,"is_reserved":false,"is_disabled":false,"rental_uris":{"android":"levelo://app?vid=5d33a591-66c9-4019-8f53-c69d7d2be421","ios":"levelo://app?vid=5d33a591-66c9-4019-8f53-c69d7d2be421"},"vehicle_type_id":"4","last_reported":1704564519,"current_range_meters":1600,"station_id":"ce4bh412rcd13ifvqds0","pricing_plan_id":"free"},{"bike_id":"38e7a5b3-9d1e-4c27-9424-19673725fc98","system_id":"levelo_inurba_marseille","lat":43.284073,"lon":5.3752,"is_reserved":false,"is_disabled":false,"rental_uris":{"android":"levelo://app?vid=38e7a5b3-9d1e-4c27-9424-19673725fc98","ios":"levelo://app?vid=38e7a5b3-9d1e-4c27-9424-19673725fc98"},"vehicle_type_id":"4","last_reported":1704564519,"current_range_meters":6000,"station_id":"ce4bh412rcd13ifvqds0","pricing_plan_id":"free"},{"bike_id":"b3721e83-4cd8-4326-bc59-8c0ed4f50f7e","system_id":"levelo_inurba_marseille","lat":43.28405,"lon":5.37512,"is_reserved":false,"is_disabled":false,"rental_uris":{"android":"levelo://app?vid=b3721e83-4cd8-4326-bc59-8c0ed4f50f7e","ios":"levelo://app?vid=b3721e83-4cd8-4326-bc59-8c0ed4f50f7e"},"vehicle_type_id":"4","last_reported":1704564519,"current_range_meters":0,"station_id":"ce4bh412rcd13ifvqds0","pricing_plan_id":"free"},{"bike_id":"67ac3761-6d22-4242-8a33-e8933ed41b0a","system_id":"levelo_inurba_marseille","lat":43.284,"lon":5.37516,"is_reserved":false,"is_disabled":false,"rental_uris":{"android":"levelo://app?vid=67ac3761-6d22-4242-8a33-e8933ed41b0a","ios":"levelo://app?vid=67ac3761-6d22-4242-8a33-e8933ed41b0a"},"vehicle_type_id":"4","last_reported":1704564519,"current_range_meters":9600,"station_id":"ce4bh412rcd13ifvqds0","pricing_plan_id":"free"},{"bike_id":"0da500d6-ad68-457c-8990-b0a59828eb28","system_id":"levelo_inurba_marseille","lat":43.286595,"lon":5.386795,"is_reserved":false,"is_disabled":false,"rental_uris":{"android":"levelo://app?vid=0da500d6-ad68-457c-8990-b0a59828eb28","ios":"levelo://app?vid=0da500d6-ad68-457c-8990-b0a59828eb28"},"vehicle_type_id":"4","last_reported":1704564519,"current_range_meters":5200,"station_id":"ce4bh492rcd13ifvqdug","pricing_plan_id":"free"},{"bike_id":"0423f27a-e43d-47ef-b22a-91e8b325dfcb","system_id":"levelo_inurba_marseille","lat":43.286595,"lon":5.386795,"is_reserved":false,"is_disabled":false,"rental_uris":{"android":"levelo://app?vid=0423f27a-e43d-47ef-b22a-91e8b325dfcb","ios":"levelo://app?vid=0423f27a-e43d-47ef-b22a-91e8b325dfcb"},"vehicle_type_id":"4","last_reported":1704564519,"current_range_meters":18000,"station_id":"ce4bh492rcd13ifvqdug","pricing_plan_id":"free"},{"bike_id":"002b4379-69d7-41c9-ab53-4de44a1e07fa","system_id":"levelo_inurba_marseille","lat":43.33717,"lon":5.39184,"is_reserved":false,"is_disabled":false,"rental_uris":{"android":"levelo://app?vid=002b4379-69d7-41c9-ab53-4de44a1e07fa","ios":"levelo://app?vid=002b4379-69d7-41c9-ab53-4de44a1e07fa"},"vehicle_type_id":"4","last_reported":1704564519,"current_range_meters":11600,"station_id":"ce4bhr92rcd13ifvqhsg","pricing_plan_id":"free"},{"bike_id":"06caedf2-df7c-40c2-9829-2b48950fe45e","system_id":"levelo_inurba_marseille","lat":43.284793,"lon":5.384119,"is_reserved":false,"is_disabled":false,"rental_uris":{"android":"levelo://app?vid=06caedf2-df7c-40c2-9829-2b48950fe45e","ios":"levelo://app?vid=06caedf2-df7c-40c2-9829-2b48950fe45e"},"vehicle_type_id":"4","last_reported":1704564519,"current_range_meters":400,"station_id":"ce4bh512rcd13ifvqe3g","pricing_plan_id":"free"},{"bike_id":"7483bf40-2f7f-4251-baac-e5af17390b76","system_id":"levelo_inurba_marseille","lat":43.297946,"lon":5.404063,"is_reserved":false,"is_disabled":false,"rental_uris":{"android":"levelo://app?vid=7483bf40-2f7f-4251-baac-e5af17390b76","ios":"levelo://app?vid=7483bf40-2f7f-4251-baac-e5af17390b76"},"vehicle_type_id":"4","last_reported":1704564519,"current_range_meters":9600,"station_id":"ce4bh112rcd13ifvqd90","pricing_plan_id":"free"},{"bike_id":"77f21ead-88be-416e-8b5b-c5c2515aacd1","system_id":"levelo_inurba_marseille","lat":43.297946,"lon":5.404063,"is_reserved":false,"is_disabled":false,"rental_uris":{"android":"levelo://app?vid=77f21ead-88be-416e-8b5b-c5c2515aacd1","ios":"levelo://app?vid=77f21ead-88be-416e-8b5b-c5c2515aacd1"},"vehicle_type_id":"4","last_reported":1704564519,"current_range_meters":24000,"station_id":"ce4bh112rcd13ifvqd90","pricing_plan_id":"free"},{"bike_id":"4687e2e5-491e-4a09-86b2-0fd15d7eaa61","system_id":"levelo_inurba_marseille","lat":43.283494,"lon":5.380945,"is_reserved":false,"is_disabled":false,"rental_uris":{"android":"levelo://app?vid=4687e2e5-491e-4a09-86b2-0fd15d7eaa61","ios":"levelo://app?vid=4687e2e5-491e-4a09-86b2-0fd15d7eaa61"},"vehicle_type_id":"4","last_reported":1704564519,"current_range_meters":8400,"station_id":"ce4bh412rcd13ifvqdr0","pricing_plan_id":"free"},{"bike_id":"4714bef9-5f38-4c26-b888-7b40cc11f281","system_id":"levelo_inurba_marseille","lat":43.284219,"lon":5.3497,"is_reserved":false,"is_disabled":false,"rental_uris":{"android":"levelo://app?vid=4714bef9-5f38-4c26-b888-7b40cc11f281","ios":"levelo://app?vid=4714bef9-5f38-4c26-b888-7b40cc11f281"},"vehicle_type_id":"4","last_reported":1704564519,"current_range_meters":30400,"station_id":"ce4bhbh2rcd13ifvqepg","pricing_plan_id":"free"},{"bike_id":"74c757a3-57f5-43bc-9cbd-c0caf045d565","system_id":"levelo_inurba_marseille","lat":43.284219,"lon":5.3497,"is_reserved":false,"is_disabled":false,"rental_uris":{"android":"levelo://app?vid=74c757a3-57f5-43bc-9cbd-c0caf045d565","ios":"levelo://app?vid=74c757a3-57f5-43bc-9cbd-c0caf045d565"},"vehicle_type_id":"4","last_reported":1704564519,"current_range_meters":28400,"station_id":"ce4bhbh2rcd13ifvqepg","pricing_plan_id":"free"},{"bike_id":"c3f119c8-a2c3-48cd-a23a-407567ed222b","system_id":"levelo_inurba_marseille","lat":43.284217,"lon":5.349697,"is_reserved":false,"is_disabled":false,"rental_uris":{"android":"levelo://app?vid=c3f119c8-a2c3-48cd-a23a-407567ed222b","ios":"levelo://app?vid=c3f119c8-a2c3-48cd-a23a-407567ed222b"},"vehicle_type_id":"4","last_reported":1704564519,"current_range_meters":31600,"station_id":"ce4bhbh2rcd13ifvqepg","pricing_plan_id":"free"},{"bike_id":"d9053633-3e20-4b04-aade-d069042c0c0a","system_id":"levelo_inurba_marseille","lat":43.284217,"lon":5.349697,"is_reserved":false,"is_disabled":false,"rental_uris":{"android":"levelo://app?vid=d9053633-3e20-4b04-aade-d069042c0c0a","ios":"levelo://app?vid=d9053633-3e20-4b04-aade-d069042c0c0a"},"vehicle_type_id":"4","last_reported":1704564519,"current_range_meters":18800,"station_id":"ce4bhbh2rcd13ifvqepg","pricing_plan_id":"free"},{"bike_id":"a2b2319c-8302-4c6c-8e3d-f0397969e6f4","system_id":"levelo_inurba_marseille","lat":43.284217,"lon":5.349697,"is_reserved":false,"is_disabled":false,"rental_uris":{"android":"levelo://app?vid=a2b2319c-8302-4c6c-8e3d-f0397969e6f4","ios":"levelo://app?vid=a2b2319c-8302-4c6c-8e3d-f0397969e6f4"},"vehicle_type_id":"4","last_reported":1704564519,"current_range_meters":14000,"station_id":"ce4bhbh2rcd13ifvqepg","pricing_plan_id":"free"},{"bike_id":"089fd505-dace-46fe-a5f8-d3c86a685bad","system_id":"levelo_inurba_marseille","lat":43.28425,"lon":5.34977,"is_reserved":false,"is_disabled":false,"rental_uris":{"android":"levelo://app?vid=089fd505-dace-46fe-a5f8-d3c86a685bad","ios":"levelo://app?vid=089fd505-dace-46fe-a5f8-d3c86a685bad"},"vehicle_type_id":"4","last_reported":1704564519,"current_range_meters":24400,"station_id":"ce4bhbh2rcd13ifvqepg","pricing_plan_id":"free"},{"bike_id":"926bf977-20f0-4baa-823a-5a3233532899","system_id":"levelo_inurba_marseille","lat":43.292724,"lon":5.401131,"is_reserved":false,"is_disabled":false,"rental_uris":{"android":"levelo://app?vid=926bf977-20f0-4baa-823a-5a3233532899","ios":"levelo://app?vid=926bf977-20f0-4baa-823a-5a3233532899"},"vehicle_type_id":"4","last_reported":1704564519,"current_range_meters":22400,"station_id":"ce4bh312rcd13ifvqdk0","pricing_plan_id":"free"},{"bike_id":"5d724bc6-af52-4d46-8d06-42885fe6618d","system_id":"levelo_inurba_marseille","lat":43.284217,"lon":5.349697,"is_reserved":false,"is_disabled":false,"rental_uris":{"android":"levelo://app?vid=5d724bc6-af52-4d46-8d06-42885fe6618d","ios":"levelo://app?vid=5d724bc6-af52-4d46-8d06-42885fe6618d"},"vehicle_type_id":"4","last_reported":1704564519,"current_range_meters":6000,"station_id":"ce4bhbh2rcd13ifvqepg","pricing_plan_id":"free"},{"bike_id":"07cc596f-0165-4488-8afd-869e10fdf2ca","system_id":"levelo_inurba_marseille","lat":43.292724,"lon":5.401131,"is_reserved":false,"is_disabled":false,"rental_uris":{"android":"levelo://app?vid=07cc596f-0165-4488-8afd-869e10fdf2ca","ios":"levelo://app?vid=07cc596f-0165-4488-8afd-869e10fdf2ca"},"vehicle_type_id":"4","last_reported":1704564519,"current_range_meters":5600,"station_id":"ce4bh312rcd13ifvqdk0","pricing_plan_id":"free"},{"bike_id":"802c669b-afbb-4d5a-8505-e24b86d98fcb","system_id":"levelo_inurba_marseille","lat":43.282744,"lon":5.350533,"is_reserved":false,"is_disabled":false,"rental_uris":{"android":"levelo://app?vid=802c669b-afbb-4d5a-8505-e24b86d98fcb","ios":"levelo://app?vid=802c669b-afbb-4d5a-8505-e24b86d98fcb"},"vehicle_type_id":"4","last_reported":1704564519,"current_range_meters":16800,"station_id":"ce4bhbp2rcd13ifvqerg","pricing_plan_id":"free"},{"bike_id":"f504af7c-df2b-40ed-b292-73fc5838a0d1","system_id":"levelo_inurba_marseille","lat":43.282744,"lon":5.350533,"is_reserved":false,"is_disabled":false,"rental_uris":{"android":"levelo://app?vid=f504af7c-df2b-40ed-b292-73fc5838a0d1","ios":"levelo://app?vid=f504af7c-df2b-40ed-b292-73fc5838a0d1"},"vehicle_type_id":"4","last_reported":1704564519,"current_range_meters":24000,"station_id":"ce4bhbp2rcd13ifvqerg","pricing_plan_id":"free"},{"bike_id":"fd817817-289b-4ac7-a1d1-8ad432f14ee3","system_id":"levelo_inurba_marseille","lat":43.282744,"lon":5.350533,"is_reserved":false,"is_disabled":false,"rental_uris":{"android":"levelo://app?vid=fd817817-289b-4ac7-a1d1-8ad432f14ee3","ios":"levelo://app?vid=fd817817-289b-4ac7-a1d1-8ad432f14ee3"},"vehicle_type_id":"4","last_reported":1704564519,"current_range_meters":20400,"station_id":"ce4bhbp2rcd13ifvqerg","pricing_plan_id":"free"},{"bike_id":"0460cab1-97c5-4774-a16c-e37100078aa5","system_id":"levelo_inurba_marseille","lat":43.28268,"lon":5.3508,"is_reserved":false,"is_disabled":false,"rental_uris":{"android":"levelo://app?vid=0460cab1-97c5-4774-a16c-e37100078aa5","ios":"levelo://app?vid=0460cab1-97c5-4774-a16c-e37100078aa5"},"vehicle_type_id":"4","last_reported":1704564519,"current_range_meters":15200,"station_id":"ce4bhbp2rcd13ifvqerg","pricing_plan_id":"free"},{"bike_id":"f8dd31ec-fac5-40aa-bf57-1849aadae574","system_id":"levelo_inurba_marseille","lat":43.282744,"lon":5.350533,"is_reserved":false,"is_disabled":false,"rental_uris":{"android":"levelo://app?vid=f8dd31ec-fac5-40aa-bf57-1849aadae574","ios":"levelo://app?vid=f8dd31ec-fac5-40aa-bf57-1849aadae574"},"vehicle_type_id":"4","last_reported":1704564519,"current_range_meters":27600,"station_id":"ce4bhbp2rcd13ifvqerg","pricing_plan_id":"free"},{"bike_id":"52596233-efe2-42f7-a154-9ab226054d49","system_id":"levelo_inurba_marseille","lat":43.282744,"lon":5.350533,"is_reserved":false,"is_disabled":false,"rental_uris":{"android":"levelo://app?vid=52596233-efe2-42f7-a154-9ab226054d49","ios":"levelo://app?vid=52596233-efe2-42f7-a154-9ab226054d49"},"vehicle_type_id":"4","last_reported":1704564519,"current_range_meters":18800,"station_id":"ce4bhbp2rcd13ifvqerg","pricing_plan_id":"free"},{"bike_id":"21804342-5a63-4a0e-ad51-7b719089cba5","system_id":"levelo_inurba_marseille","lat":43.280402,"lon":5.369454,"is_reserved":false,"is_disabled":false,"rental_uris":{"android":"levelo://app?vid=21804342-5a63-4a0e-ad51-7b719089cba5","ios":"levelo://app?vid=21804342-5a63-4a0e-ad51-7b719089cba5"},"vehicle_type_id":"4","last_reported":1704564519,"current_range_meters":21200,"station_id":"ce4bha12rcd13ifvqef0","pricing_plan_id":"free"},{"bike_id":"fb969a69-197d-4369-a02b-0a6699187958","system_id":"levelo_inurba_marseille","lat":43.280382,"lon":5.369291,"is_reserved":false,"is_disabled":false,"rental_uris":{"android":"levelo://app?vid=fb969a69-197d-4369-a02b-0a6699187958","ios":"levelo://app?vid=fb969a69-197d-4369-a02b-0a6699187958"},"vehicle_type_id":"4","last_reported":1704564519,"current_range_meters":24000,"station_id":"ce4bha12rcd13ifvqef0","pricing_plan_id":"free"},{"bike_id":"62d8bf06-ed3c-462b-81f8-d83317ac061f","system_id":"levelo_inurba_marseille","lat":43.29041,"lon":5.399634,"is_reserved":false,"is_disabled":false,"rental_uris":{"android":"levelo://app?vid=62d8bf06-ed3c-462b-81f8-d83317ac061f","ios":"levelo://app?vid=62d8bf06-ed3c-462b-81f8-d83317ac061f"},"vehicle_type_id":"4","last_reported":1704564519,"current_range_meters":21600,"station_id":"ce4bh392rcd13ifvqdm0","pricing_plan_id":"free"},{"bike_id":"9985952e-90d5-4cd6-904e-6ab0a5ed76c5","system_id":"levelo_inurba_marseille","lat":43.281044,"lon":5.378308,"is_reserved":false,"is_disabled":false,"rental_uris":{"android":"levelo://app?vid=9985952e-90d5-4cd6-904e-6ab0a5ed76c5","ios":"levelo://app?vid=9985952e-90d5-4cd6-904e-6ab0a5ed76c5"},"vehicle_type_id":"4","last_reported":1704564519,"current_range_meters":20000,"station_id":"ce4bha12rcd13ifvqee0","pricing_plan_id":"free"},{"bike_id":"73b7c303-bb17-492e-9d0f-94d5ac695eac","system_id":"levelo_inurba_marseille","lat":43.326632,"lon":5.409841,"is_reserved":false,"is_disabled":false,"rental_uris":{"android":"levelo://app?vid=73b7c303-bb17-492e-9d0f-94d5ac695eac","ios":"levelo://app?vid=73b7c303-bb17-492e-9d0f-94d5ac695eac"},"vehicle_type_id":"4","last_reported":1704564519,"current_range_meters":20400,"station_id":"ce4bhpp2rcd13ifvqhgg","pricing_plan_id":"free"},{"bike_id":"a0d20dd8-a3b3-4fa3-a6e9-2896226abf35","system_id":"levelo_inurba_marseille","lat":43.326605,"lon":5.409903,"is_reserved":false,"is_disabled":false,"rental_uris":{"android":"levelo://app?vid=a0d20dd8-a3b3-4fa3-a6e9-2896226abf35","ios":"levelo://app?vid=a0d20dd8-a3b3-4fa3-a6e9-2896226abf35"},"vehicle_type_id":"4","last_reported":1704564519,"current_range_meters":10000,"station_id":"ce4bhpp2rcd13ifvqhgg","pricing_plan_id":"free"},{"bike_id":"804748a1-919c-4286-95e2-023037287763","system_id":"levelo_inurba_marseille","lat":43.326605,"lon":5.409903,"is_reserved":false,"is_disabled":false,"rental_uris":{"android":"levelo://app?vid=804748a1-919c-4286-95e2-023037287763","ios":"levelo://app?vid=804748a1-919c-4286-95e2-023037287763"},"vehicle_type_id":"4","last_reported":1704564519,"current_range_meters":28400,"station_id":"ce4bhpp2rcd13ifvqhgg","pricing_plan_id":"free"},{"bike_id":"88cf4283-3e8d-494c-96d6-c64b6bbe48f6","system_id":"levelo_inurba_marseille","lat":43.326605,"lon":5.409903,"is_reserved":false,"is_disabled":false,"rental_uris":{"android":"levelo://app?vid=88cf4283-3e8d-494c-96d6-c64b6bbe48f6","ios":"levelo://app?vid=88cf4283-3e8d-494c-96d6-c64b6bbe48f6"},"vehicle_type_id":"4","last_reported":1704564519,"current_range_meters":21600,"station_id":"ce4bhpp2rcd13ifvqhgg","pricing_plan_id":"free"},{"bike_id":"d55c7753-ef5f-41aa-b15e-db9a64fda310","system_id":"levelo_inurba_marseille","lat":43.326605,"lon":5.409903,"is_reserved":false,"is_disabled":false,"rental_uris":{"android":"levelo://app?vid=d55c7753-ef5f-41aa-b15e-db9a64fda310","ios":"levelo://app?vid=d55c7753-ef5f-41aa-b15e-db9a64fda310"},"vehicle_type_id":"4","last_reported":1704564519,"current_range_meters":12800,"station_id":"ce4bhpp2rcd13ifvqhgg","pricing_plan_id":"free"},{"bike_id":"3d351d06-0266-45af-8adb-554012353f4c","system_id":"levelo_inurba_marseille","lat":43.304196,"lon":5.412867,"is_reserved":false,"is_disabled":false,"rental_uris":{"android":"levelo://app?vid=3d351d06-0266-45af-8adb-554012353f4c","ios":"levelo://app?vid=3d351d06-0266-45af-8adb-554012353f4c"},"vehicle_type_id":"4","last_reported":1704564519,"current_range_meters":30000,"station_id":"ce4bhop2rcd13ifvqh8g","pricing_plan_id":"free"},{"bike_id":"6b32fc1f-04a9-4fe2-b9d5-f7ed7bb851d8","system_id":"levelo_inurba_marseille","lat":43.30414,"lon":5.41286,"is_reserved":false,"is_disabled":false,"rental_uris":{"android":"levelo://app?vid=6b32fc1f-04a9-4fe2-b9d5-f7ed7bb851d8","ios":"levelo://app?vid=6b32fc1f-04a9-4fe2-b9d5-f7ed7bb851d8"},"vehicle_type_id":"4","last_reported":1704564519,"current_range_meters":6800,"station_id":"ce4bhop2rcd13ifvqh8g","pricing_plan_id":"free"},{"bike_id":"972edd4b-8675-4059-9023-4a33ecc36aa5","system_id":"levelo_inurba_marseille","lat":43.30421,"lon":5.4129,"is_reserved":false,"is_disabled":false,"rental_uris":{"android":"levelo://app?vid=972edd4b-8675-4059-9023-4a33ecc36aa5","ios":"levelo://app?vid=972edd4b-8675-4059-9023-4a33ecc36aa5"},"vehicle_type_id":"4","last_reported":1704564519,"current_range_meters":20400,"station_id":"ce4bhop2rcd13ifvqh8g","pricing_plan_id":"free"},{"bike_id":"34d0ac35-3ac7-4b8b-a1c5-105fd039b867","system_id":"levelo_inurba_marseille","lat":43.3042,"lon":5.41293,"is_reserved":false,"is_disabled":false,"rental_uris":{"android":"levelo://app?vid=34d0ac35-3ac7-4b8b-a1c5-105fd039b867","ios":"levelo://app?vid=34d0ac35-3ac7-4b8b-a1c5-105fd039b867"},"vehicle_type_id":"4","last_reported":1704564519,"current_range_meters":13600,"station_id":"ce4bhop2rcd13ifvqh8g","pricing_plan_id":"free"},{"bike_id":"42cbd23f-a351-4504-8913-fdf670468387","system_id":"levelo_inurba_marseille","lat":43.30417,"lon":5.41293,"is_reserved":false,"is_disabled":false,"rental_uris":{"android":"levelo://app?vid=42cbd23f-a351-4504-8913-fdf670468387","ios":"levelo://app?vid=42cbd23f-a351-4504-8913-fdf670468387"},"vehicle_type_id":"4","last_reported":1704564519,"current_range_meters":1600,"station_id":"ce4bhop2rcd13ifvqh8g","pricing_plan_id":"free"},{"bike_id":"618b2525-98d1-43ef-9f26-2b907efca56c","system_id":"levelo_inurba_marseille","lat":43.27908,"lon":5.38017,"is_reserved":false,"is_disabled":false,"rental_uris":{"android":"levelo://app?vid=618b2525-98d1-43ef-9f26-2b907efca56c","ios":"levelo://app?vid=618b2525-98d1-43ef-9f26-2b907efca56c"},"vehicle_type_id":"4","last_reported":1704564519,"current_range_meters":23200,"station_id":"ce4bhf92rcd13ifvqf50","pricing_plan_id":"free"},{"bike_id":"29fd871a-0e31-443c-8652-18ee686f5ee2","system_id":"levelo_inurba_marseille","lat":43.27904,"lon":5.38016,"is_reserved":false,"is_disabled":false,"rental_uris":{"android":"levelo://app?vid=29fd871a-0e31-443c-8652-18ee686f5ee2","ios":"levelo://app?vid=29fd871a-0e31-443c-8652-18ee686f5ee2"},"vehicle_type_id":"4","last_reported":1704564519,"current_range_meters":6400,"station_id":"ce4bhf92rcd13ifvqf50","pricing_plan_id":"free"},{"bike_id":"1773922a-ba1e-48f6-8178-120cf1f3455c","system_id":"levelo_inurba_marseille","lat":43.279087,"lon":5.380114,"is_reserved":false,"is_disabled":false,"rental_uris":{"android":"levelo://app?vid=1773922a-ba1e-48f6-8178-120cf1f3455c","ios":"levelo://app?vid=1773922a-ba1e-48f6-8178-120cf1f3455c"},"vehicle_type_id":"4","last_reported":1704564519,"current_range_meters":21200,"station_id":"ce4bhf92rcd13ifvqf50","pricing_plan_id":"free"},{"bike_id":"7e5179c0-0d00-43b1-b539-1cd262f46429","system_id":"levelo_inurba_marseille","lat":43.287154,"lon":5.399979,"is_reserved":false,"is_disabled":false,"rental_uris":{"android":"levelo://app?vid=7e5179c0-0d00-43b1-b539-1cd262f46429","ios":"levelo://app?vid=7e5179c0-0d00-43b1-b539-1cd262f46429"},"vehicle_type_id":"4","last_reported":1704564519,"current_range_meters":22400,"station_id":"ce4bho92rcd13ifvqh3g","pricing_plan_id":"free"},{"bike_id":"94c79cb4-f50a-4858-8347-f71298301ffa","system_id":"levelo_inurba_marseille","lat":43.287154,"lon":5.399979,"is_reserved":false,"is_disabled":false,"rental_uris":{"android":"levelo://app?vid=94c79cb4-f50a-4858-8347-f71298301ffa","ios":"levelo://app?vid=94c79cb4-f50a-4858-8347-f71298301ffa"},"vehicle_type_id":"4","last_reported":1704564519,"current_range_meters":14000,"station_id":"ce4bho92rcd13ifvqh3g","pricing_plan_id":"free"},{"bike_id":"f1fa638c-dde4-4656-b4b2-61c62350aa80","system_id":"levelo_inurba_marseille","lat":43.287154,"lon":5.399979,"is_reserved":false,"is_disabled":false,"rental_uris":{"android":"levelo://app?vid=f1fa638c-dde4-4656-b4b2-61c62350aa80","ios":"levelo://app?vid=f1fa638c-dde4-4656-b4b2-61c62350aa80"},"vehicle_type_id":"4","last_reported":1704564519,"current_range_meters":30800,"station_id":"ce4bho92rcd13ifvqh3g","pricing_plan_id":"free"},{"bike_id":"5568dd0f-9eb3-430d-a963-ab44c4f709c4","system_id":"levelo_inurba_marseille","lat":43.320045,"lon":5.415046,"is_reserved":false,"is_disabled":false,"rental_uris":{"android":"levelo://app?vid=5568dd0f-9eb3-430d-a963-ab44c4f709c4","ios":"levelo://app?vid=5568dd0f-9eb3-430d-a963-ab44c4f709c4"},"vehicle_type_id":"4","last_reported":1704564519,"current_range_meters":30000,"station_id":"ce4bhq92rcd13ifvqhkg","pricing_plan_id":"free"},{"bike_id":"c091dd33-318a-4a7a-b50f-997c9e30af63","system_id":"levelo_inurba_marseille","lat":43.2996,"lon":5.41326,"is_reserved":false,"is_disabled":false,"rental_uris":{"android":"levelo://app?vid=c091dd33-318a-4a7a-b50f-997c9e30af63","ios":"levelo://app?vid=c091dd33-318a-4a7a-b50f-997c9e30af63"},"vehicle_type_id":"4","last_reported":1704564519,"current_range_meters":30000,"station_id":"ce4bhp12rcd13ifvqh9g","pricing_plan_id":"free"},{"bike_id":"b8cb2190-720c-4b59-bfb8-59d79db26918","system_id":"levelo_inurba_marseille","lat":43.279742,"lon":5.38744,"is_reserved":false,"is_disabled":false,"rental_uris":{"android":"levelo://app?vid=b8cb2190-720c-4b59-bfb8-59d79db26918","ios":"levelo://app?vid=b8cb2190-720c-4b59-bfb8-59d79db26918"},"vehicle_type_id":"4","last_reported":1704564519,"current_range_meters":14800,"station_id":"ce4bhg12rcd13ifvqf80","pricing_plan_id":"free"},{"bike_id":"d5b382b5-4769-41c0-86a7-f7277acff2b1","system_id":"levelo_inurba_marseille","lat":43.27618,"lon":5.361009,"is_reserved":false,"is_disabled":false,"rental_uris":{"android":"levelo://app?vid=d5b382b5-4769-41c0-86a7-f7277acff2b1","ios":"levelo://app?vid=d5b382b5-4769-41c0-86a7-f7277acff2b1"},"vehicle_type_id":"4","last_reported":1704564519,"current_range_meters":22000,"station_id":"ce4bgj92rcd13ifvqbe0","pricing_plan_id":"free"},{"bike_id":"82d304de-d4b6-45d8-a05c-d2eb3ae4742a","system_id":"levelo_inurba_marseille","lat":43.325233,"lon":5.414318,"is_reserved":false,"is_disabled":false,"rental_uris":{"android":"levelo://app?vid=82d304de-d4b6-45d8-a05c-d2eb3ae4742a","ios":"levelo://app?vid=82d304de-d4b6-45d8-a05c-d2eb3ae4742a"},"vehicle_type_id":"4","last_reported":1704564519,"current_range_meters":25200,"station_id":"ce4bhq12rcd13ifvqhhg","pricing_plan_id":"free"},{"bike_id":"141d8f62-d431-4979-8358-54f524263357","system_id":"levelo_inurba_marseille","lat":43.32535,"lon":5.41455,"is_reserved":false,"is_disabled":false,"rental_uris":{"android":"levelo://app?vid=141d8f62-d431-4979-8358-54f524263357","ios":"levelo://app?vid=141d8f62-d431-4979-8358-54f524263357"},"vehicle_type_id":"4","last_reported":1704564519,"current_range_meters":22400,"station_id":"ce4bhq12rcd13ifvqhhg","pricing_plan_id":"free"},{"bike_id":"f5949106-917a-47f4-864b-ec544cb9e921","system_id":"levelo_inurba_marseille","lat":43.325243,"lon":5.414326,"is_reserved":false,"is_disabled":false,"rental_uris":{"android":"levelo://app?vid=f5949106-917a-47f4-864b-ec544cb9e921","ios":"levelo://app?vid=f5949106-917a-47f4-864b-ec544cb9e921"},"vehicle_type_id":"4","last_reported":1704564519,"current_range_meters":24800,"station_id":"ce4bhq12rcd13ifvqhhg","pricing_plan_id":"free"},{"bike_id":"faed9830-08a8-4600-8768-558d25529bdb","system_id":"levelo_inurba_marseille","lat":43.279742,"lon":5.38744,"is_reserved":false,"is_disabled":false,"rental_uris":{"android":"levelo://app?vid=faed9830-08a8-4600-8768-558d25529bdb","ios":"levelo://app?vid=faed9830-08a8-4600-8768-558d25529bdb"},"vehicle_type_id":"4","last_reported":1704564519,"current_range_meters":27600,"station_id":"ce4bhg12rcd13ifvqf80","pricing_plan_id":"free"},{"bike_id":"c4ed9b85-e20f-4462-9e42-d6b56c67d6b0","system_id":"levelo_inurba_marseille","lat":43.280784,"lon":5.396622,"is_reserved":false,"is_disabled":false,"rental_uris":{"android":"levelo://app?vid=c4ed9b85-e20f-4462-9e42-d6b56c67d6b0","ios":"levelo://app?vid=c4ed9b85-e20f-4462-9e42-d6b56c67d6b0"},"vehicle_type_id":"4","last_reported":1704564519,"current_range_meters":12800,"station_id":"ce4bho12rcd13ifvqh2g","pricing_plan_id":"free"},{"bike_id":"48ae1ea2-8d09-42be-864e-4461b750428f","system_id":"levelo_inurba_marseille","lat":43.303837,"lon":5.418724,"is_reserved":false,"is_disabled":false,"rental_uris":{"android":"levelo://app?vid=48ae1ea2-8d09-42be-864e-4461b750428f","ios":"levelo://app?vid=48ae1ea2-8d09-42be-864e-4461b750428f"},"vehicle_type_id":"4","last_reported":1704564519,"current_range_meters":22000,"station_id":"ce4bhop2rcd13ifvqh7g","pricing_plan_id":"free"},{"bike_id":"8c5ec460-665f-4c8a-9cff-114d2b2664da","system_id":"levelo_inurba_marseille","lat":43.275625,"lon":5.384392,"is_reserved":false,"is_disabled":false,"rental_uris":{"android":"levelo://app?vid=8c5ec460-665f-4c8a-9cff-114d2b2664da","ios":"levelo://app?vid=8c5ec460-665f-4c8a-9cff-114d2b2664da"},"vehicle_type_id":"4","last_reported":1704564519,"current_range_meters":16800,"station_id":"ce4bhh92rcd13ifvqfi0","pricing_plan_id":"free"},{"bike_id":"5fc30fc3-488f-4d72-9e64-423a0a8557fc","system_id":"levelo_inurba_marseille","lat":43.276771,"lon":5.388799,"is_reserved":false,"is_disabled":false,"rental_uris":{"android":"levelo://app?vid=5fc30fc3-488f-4d72-9e64-423a0a8557fc","ios":"levelo://app?vid=5fc30fc3-488f-4d72-9e64-423a0a8557fc"},"vehicle_type_id":"4","last_reported":1704564519,"current_range_meters":16400,"station_id":"ce4bhi12rcd13ifvqfo0","pricing_plan_id":"free"},{"bike_id":"a6bbe7be-9aae-4406-89dd-3e08bde15f0d","system_id":"levelo_inurba_marseille","lat":43.279952,"lon":5.400085,"is_reserved":false,"is_disabled":false,"rental_uris":{"android":"levelo://app?vid=a6bbe7be-9aae-4406-89dd-3e08bde15f0d","ios":"levelo://app?vid=a6bbe7be-9aae-4406-89dd-3e08bde15f0d"},"vehicle_type_id":"4","last_reported":1704564519,"current_range_meters":5600,"station_id":"ce4bho92rcd13ifvqh4g","pricing_plan_id":"free"},{"bike_id":"e7a411eb-84b4-4951-b315-a348e176a550","system_id":"levelo_inurba_marseille","lat":43.279952,"lon":5.400085,"is_reserved":false,"is_disabled":false,"rental_uris":{"android":"levelo://app?vid=e7a411eb-84b4-4951-b315-a348e176a550","ios":"levelo://app?vid=e7a411eb-84b4-4951-b315-a348e176a550"},"vehicle_type_id":"4","last_reported":1704564519,"current_range_meters":23200,"station_id":"ce4bho92rcd13ifvqh4g","pricing_plan_id":"free"},{"bike_id":"fd98a01d-a26e-47b4-84e0-658df16ac608","system_id":"levelo_inurba_marseille","lat":43.276771,"lon":5.388799,"is_reserved":false,"is_disabled":false,"rental_uris":{"android":"levelo://app?vid=fd98a01d-a26e-47b4-84e0-658df16ac608","ios":"levelo://app?vid=fd98a01d-a26e-47b4-84e0-658df16ac608"},"vehicle_type_id":"4","last_reported":1704564519,"current_range_meters":22000,"station_id":"ce4bhi12rcd13ifvqfo0","pricing_plan_id":"free"},{"bike_id":"b64097b7-cafd-40c8-9192-664316f67849","system_id":"levelo_inurba_marseille","lat":43.317121,"lon":5.423936,"is_reserved":false,"is_disabled":false,"rental_uris":{"android":"levelo://app?vid=b64097b7-cafd-40c8-9192-664316f67849","ios":"levelo://app?vid=b64097b7-cafd-40c8-9192-664316f67849"},"vehicle_type_id":"4","last_reported":1704564519,"current_range_meters":28000,"station_id":"ce4bhp92rcd13ifvqhbg","pricing_plan_id":"free"},{"bike_id":"464b252f-4a0d-4ecb-9f59-3d1a072c4274","system_id":"levelo_inurba_marseille","lat":43.317121,"lon":5.423936,"is_reserved":false,"is_disabled":false,"rental_uris":{"android":"levelo://app?vid=464b252f-4a0d-4ecb-9f59-3d1a072c4274","ios":"levelo://app?vid=464b252f-4a0d-4ecb-9f59-3d1a072c4274"},"vehicle_type_id":"4","last_reported":1704564519,"current_range_meters":30800,"station_id":"ce4bhp92rcd13ifvqhbg","pricing_plan_id":"free"},{"bike_id":"add79ccb-d238-4b0b-9447-1ee9e99bc8fe","system_id":"levelo_inurba_marseille","lat":43.310785,"lon":5.424305,"is_reserved":false,"is_disabled":false,"rental_uris":{"android":"levelo://app?vid=add79ccb-d238-4b0b-9447-1ee9e99bc8fe","ios":"levelo://app?vid=add79ccb-d238-4b0b-9447-1ee9e99bc8fe"},"vehicle_type_id":"4","last_reported":1704564519,"current_range_meters":31200,"station_id":"ce4bhp92rcd13ifvqhag","pricing_plan_id":"free"},{"bike_id":"59d91862-a9e6-4831-bca0-cbfa7b15b6f2","system_id":"levelo_inurba_marseille","lat":43.340804,"lon":5.410219,"is_reserved":false,"is_disabled":false,"rental_uris":{"android":"levelo://app?vid=59d91862-a9e6-4831-bca0-cbfa7b15b6f2","ios":"levelo://app?vid=59d91862-a9e6-4831-bca0-cbfa7b15b6f2"},"vehicle_type_id":"4","last_reported":1704564519,"current_range_meters":26000,"station_id":"ce4bhqh2rcd13ifvqhlg","pricing_plan_id":"free"},{"bike_id":"461657c9-e33a-46b1-991e-8729539ba8aa","system_id":"levelo_inurba_marseille","lat":43.340804,"lon":5.410219,"is_reserved":false,"is_disabled":false,"rental_uris":{"android":"levelo://app?vid=461657c9-e33a-46b1-991e-8729539ba8aa","ios":"levelo://app?vid=461657c9-e33a-46b1-991e-8729539ba8aa"},"vehicle_type_id":"4","last_reported":1704564519,"current_range_meters":15200,"station_id":"ce4bhqh2rcd13ifvqhlg","pricing_plan_id":"free"},{"bike_id":"e32197ec-50ab-4598-ab9c-64dc9e38685c","system_id":"levelo_inurba_marseille","lat":43.273125,"lon":5.390731,"is_reserved":false,"is_disabled":false,"rental_uris":{"android":"levelo://app?vid=e32197ec-50ab-4598-ab9c-64dc9e38685c","ios":"levelo://app?vid=e32197ec-50ab-4598-ab9c-64dc9e38685c"},"vehicle_type_id":"4","last_reported":1704564519,"current_range_meters":7200,"station_id":"ce4bhgp2rcd13ifvqfe0","pricing_plan_id":"free"},{"bike_id":"358caa32-33bf-43e7-a1f8-f8b6af2f2d25","system_id":"levelo_inurba_marseille","lat":43.304096,"lon":5.425385,"is_reserved":false,"is_disabled":false,"rental_uris":{"android":"levelo://app?vid=358caa32-33bf-43e7-a1f8-f8b6af2f2d25","ios":"levelo://app?vid=358caa32-33bf-43e7-a1f8-f8b6af2f2d25"},"vehicle_type_id":"4","last_reported":1704564519,"current_range_meters":17200,"station_id":"ce4bhoh2rcd13ifvqh6g","pricing_plan_id":"free"},{"bike_id":"bfdf7147-9522-498c-bba2-b6be425def2e","system_id":"levelo_inurba_marseille","lat":43.304096,"lon":5.425385,"is_reserved":false,"is_disabled":false,"rental_uris":{"android":"levelo://app?vid=bfdf7147-9522-498c-bba2-b6be425def2e","ios":"levelo://app?vid=bfdf7147-9522-498c-bba2-b6be425def2e"},"vehicle_type_id":"4","last_reported":1704564519,"current_range_meters":11600,"station_id":"ce4bhoh2rcd13ifvqh6g","pricing_plan_id":"free"},{"bike_id":"1329ecce-d968-4dfa-857d-48c98983749e","system_id":"levelo_inurba_marseille","lat":43.304096,"lon":5.425385,"is_reserved":false,"is_disabled":false,"rental_uris":{"android":"levelo://app?vid=1329ecce-d968-4dfa-857d-48c98983749e","ios":"levelo://app?vid=1329ecce-d968-4dfa-857d-48c98983749e"},"vehicle_type_id":"4","last_reported":1704564519,"current_range_meters":18000,"station_id":"ce4bhoh2rcd13ifvqh6g","pricing_plan_id":"free"},{"bike_id":"7d91815f-b01c-4b04-a387-438be19e9d2b","system_id":"levelo_inurba_marseille","lat":43.304096,"lon":5.425385,"is_reserved":false,"is_disabled":false,"rental_uris":{"android":"levelo://app?vid=7d91815f-b01c-4b04-a387-438be19e9d2b","ios":"levelo://app?vid=7d91815f-b01c-4b04-a387-438be19e9d2b"},"vehicle_type_id":"4","last_reported":1704564519,"current_range_meters":26400,"station_id":"ce4bhoh2rcd13ifvqh6g","pricing_plan_id":"free"},{"bike_id":"7345abd2-09ef-440c-b6e9-d57569a8415a","system_id":"levelo_inurba_marseille","lat":43.304096,"lon":5.425385,"is_reserved":false,"is_disabled":false,"rental_uris":{"android":"levelo://app?vid=7345abd2-09ef-440c-b6e9-d57569a8415a","ios":"levelo://app?vid=7345abd2-09ef-440c-b6e9-d57569a8415a"},"vehicle_type_id":"4","last_reported":1704564519,"current_range_meters":9600,"station_id":"ce4bhoh2rcd13ifvqh6g","pricing_plan_id":"free"},{"bike_id":"865a45af-3e86-4acf-803b-b8502e0cec9a","system_id":"levelo_inurba_marseille","lat":43.295511,"lon":5.422926,"is_reserved":false,"is_disabled":false,"rental_uris":{"android":"levelo://app?vid=865a45af-3e86-4acf-803b-b8502e0cec9a","ios":"levelo://app?vid=865a45af-3e86-4acf-803b-b8502e0cec9a"},"vehicle_type_id":"4","last_reported":1704564519,"current_range_meters":24400,"station_id":"ce4bhph2rcd13ifvqhdg","pricing_plan_id":"free"},{"bike_id":"0b8823b4-0d19-49b4-8b0d-fccd0696e8d2","system_id":"levelo_inurba_marseille","lat":43.295511,"lon":5.422926,"is_reserved":false,"is_disabled":false,"rental_uris":{"android":"levelo://app?vid=0b8823b4-0d19-49b4-8b0d-fccd0696e8d2","ios":"levelo://app?vid=0b8823b4-0d19-49b4-8b0d-fccd0696e8d2"},"vehicle_type_id":"4","last_reported":1704564519,"current_range_meters":12000,"station_id":"ce4bhph2rcd13ifvqhdg","pricing_plan_id":"free"},{"bike_id":"dedfeb80-a469-42d1-9c3a-8edbe7edef46","system_id":"levelo_inurba_marseille","lat":43.272116,"lon":5.391763,"is_reserved":false,"is_disabled":false,"rental_uris":{"android":"levelo://app?vid=dedfeb80-a469-42d1-9c3a-8edbe7edef46","ios":"levelo://app?vid=dedfeb80-a469-42d1-9c3a-8edbe7edef46"},"vehicle_type_id":"4","last_reported":1704564519,"current_range_meters":16800,"station_id":"ce4bhhp2rcd13ifvqfm0","pricing_plan_id":"free"},{"bike_id":"7a1f0ac5-2663-4d46-9fa5-9297bfb0f62f","system_id":"levelo_inurba_marseille","lat":43.271388,"lon":5.409269,"is_reserved":false,"is_disabled":false,"rental_uris":{"android":"levelo://app?vid=7a1f0ac5-2663-4d46-9fa5-9297bfb0f62f","ios":"levelo://app?vid=7a1f0ac5-2663-4d46-9fa5-9297bfb0f62f"},"vehicle_type_id":"4","last_reported":1704564519,"current_range_meters":26000,"station_id":"ce4bhl12rcd13ifvqgf0","pricing_plan_id":"free"},{"bike_id":"1bc2eafb-3866-40c4-afa0-c77d57b32138","system_id":"levelo_inurba_marseille","lat":43.278128,"lon":5.407195,"is_reserved":false,"is_disabled":false,"rental_uris":{"android":"levelo://app?vid=1bc2eafb-3866-40c4-afa0-c77d57b32138","ios":"levelo://app?vid=1bc2eafb-3866-40c4-afa0-c77d57b32138"},"vehicle_type_id":"4","last_reported":1704564519,"current_range_meters":26800,"station_id":"ce4bhnh2rcd13ifvqgtg","pricing_plan_id":"free"},{"bike_id":"a18c7bde-60a4-4969-9a76-91dc9707f8ef","system_id":"levelo_inurba_marseille","lat":43.278128,"lon":5.407195,"is_reserved":false,"is_disabled":false,"rental_uris":{"android":"levelo://app?vid=a18c7bde-60a4-4969-9a76-91dc9707f8ef","ios":"levelo://app?vid=a18c7bde-60a4-4969-9a76-91dc9707f8ef"},