{"last_updated":1680282364,"ttl":30,"version":"2.2","data":{"bikes":[{"bike_id":"5aa439a4-a18a-4a42-96da-07f2db79fbd7","system_id":"levelo_inurba_marseille","lat":43.314811,"lon":5.373103,"is_reserved":false,"is_disabled":false,"rental_uris":{"android":"levelo://app?vid=5aa439a4-a18a-4a42-96da-07f2db79fbd7","ios":"levelo://app?vid=5aa439a4-a18a-4a42-96da-07f2db79fbd7"},"vehicle_type_id":"4","last_reported":1680282365,"current_range_meters":800,"station_id":"ce4bgt12rcd13ifvqcd0","pricing_plan_id":"free"},{"bike_id":"f846451a-0a1d-440e-acce-06e897d4bcf4","system_id":"levelo_inurba_marseille","lat":43.314811,"lon":5.373103,"is_reserved":false,"is_disabled":false,"rental_uris":{"android":"levelo://app?vid=f846451a-0a1d-440e-acce-06e897d4bcf4","ios":"levelo://app?vid=f846451a-0a1d-440e-acce-06e897d4bcf4"},"vehicle_type_id":"4","last_reported":1680282365,"current_range_meters":0,"station_id":"ce4bgt12rcd13ifvqcd0","pricing_plan_id":"free"},{"bike_id":"d8b05425-f6e8-4b2b-83e4-cf35adc968ae","system_id":"levelo_inurba_marseille","lat":43.31483,"lon":5.3731,"is_reserved":false,"is_disabled":false,"rental_uris":{"android":"levelo://app?vid=d8b05425-f6e8-4b2b-83e4-cf35adc968ae","ios":"levelo://app?vid=d8b05425-f6e8-4b2b-83e4-cf35adc968ae"},"vehicle_type_id":"4","last_reported":1680282365,"current_range_meters":3600,"station_id":"ce4bgt12rcd13ifvqcd0","pricing_plan_id":"free"},{"bike_id":"5fff5ae8-6bae-4dbf-9b49-66e393fdd380","system_id":"levelo_inurba_marseille","lat":43.31494,"lon":5.37305,"is_reserved":false,"is_disabled":false,"rental_uris":{"android":"levelo://app?vid=5fff5ae8-6bae-4dbf-9b49-66e393fdd380","ios":"levelo://app?vid=5fff5ae8-6bae-4dbf-9b49-66e393fdd380"},"vehicle_type_id":"4","last_reported":1680282365,"current_range_meters":400,"station_id":"ce4bgt12rcd13ifvqcd0","pricing_plan_id":"free"},{"bike_id":"c6dc78dc-e349-4fab-a3dc-c48fbc38519b","system_id":"levelo_inurba_marseille","lat":43.267966,"lon":5.393976,"is_reserved":false,"is_disabled":false,"rental_uris":{"android":"levelo://app?vid=c6dc78dc-e349-4fab-a3dc-c48fbc38519b","ios":"levelo://app?vid=c6dc78dc-e349-4fab-a3dc-c48fbc38519b"},"vehicle_type_id":"4","last_reported":1680282365,"current_range_meters":0,"station_id":"ce4bhh12rcd13ifvqfg0","pricing_plan_id":"free"},{"bike_id":"4c7e1346-eff5-4973-aae7-2807b94001e3","system_id":"levelo_inurba_marseille","lat":43.31489,"lon":5.37314,"is_reserved":false,"is_disabled":false,"rental_uris":{"android":"levelo://app?vid=4c7e1346-eff5-4973-aae7-2807b94001e3","ios":"levelo://app?vid=4c7e1346-eff5-4973-aae7-2807b94001e3"},"vehicle_type_id":"4","last_reported":1680282365,"current_range_meters":28800,"station_id":"ce4bgt12rcd13ifvqcd0","pricing_plan_id":"free"},{"bike_id":"f3d4911b-fc39-4568-90a3-5008883d7090","system_id":"levelo_inurba_marseille","lat":43.31213,"lon":5.37851,"is_reserved":false,"is_disabled":false,"rental_uris":{"android":"levelo://app?vid=f3d4911b-fc39-4568-90a3-5008883d7090","ios":"levelo://app?vid=f3d4911b-fc39-4568-90a3-5008883d7090"},"vehicle_type_id":"4","last_reported":1680282365,"current_range_meters":10000,"station_id":"","pricing_plan_id":"free"},{"bike_id":"f1d0bd68-5f5d-4938-8424-10b3d01ec265","system_id":"levelo_inurba_marseille","lat":43.317075,"lon":5.377367,"is_reserved":false,"is_disabled":false,"rental_uris":{"android":"levelo://app?vid=f1d0bd68-5f5d-4938-8424-10b3d01ec265","ios":"levelo://app?vid=f1d0bd68-5f5d-4938-8424-10b3d01ec265"},"vehicle_type_id":"4","last_reported":1680282365,"current_range_meters":0,"station_id":"ce4bgth2rcd13ifvqch0","pricing_plan_id":"free"},{"bike_id":"7cc7a0c5-cd8a-43be-a70e-6fe8dc2076d4","system_id":"levelo_inurba_marseille","lat":43.30304,"lon":5.368987,"is_reserved":false,"is_disabled":false,"rental_uris":{"android":"levelo://app?vid=7cc7a0c5-cd8a-43be-a70e-6fe8dc2076d4","ios":"levelo://app?vid=7cc7a0c5-cd8a-43be-a70e-6fe8dc2076d4"},"vehicle_type_id":"4","last_reported":1680282365,"current_range_meters":0,"station_id":"ce4bgqh2rcd13ifvqc5g","pricing_plan_id":"free"},{"bike_id":"4d90f39a-02b8-4b63-a9c2-6681582c9f1b","system_id":"levelo_inurba_marseille","lat":43.31536,"lon":5.38028,"is_reserved":false,"is_disabled":false,"rental_uris":{"android":"levelo://app?vid=4d90f39a-02b8-4b63-a9c2-6681582c9f1b","ios":"levelo://app?vid=4d90f39a-02b8-4b63-a9c2-6681582c9f1b"},"vehicle_type_id":"4","last_reported":1680282365,"current_range_meters":0,"station_id":"","pricing_plan_id":"free"},{"bike_id":"73ca1afc-ee17-4643-bfaf-6b1c35863a2c","system_id":"levelo_inurba_marseille","lat":43.30156,"lon":5.36705,"is_reserved":false,"is_disabled":false,"rental_uris":{"android":"levelo://app?vid=73ca1afc-ee17-4643-bfaf-6b1c35863a2c","ios":"levelo://app?vid=73ca1afc-ee17-4643-bfaf-6b1c35863a2c"},"vehicle_type_id":"4","last_reported":1680282365,"current_range_meters":1200,"station_id":"","pricing_plan_id":"free"},{"bike_id":"d455c4ff-0e37-4b96-86e8-c1cbea48191e","system_id":"levelo_inurba_marseille","lat":43.308012,"lon":5.381511,"is_reserved":false,"is_disabled":false,"rental_uris":{"android":"levelo://app?vid=d455c4ff-0e37-4b96-86e8-c1cbea48191e","ios":"levelo://app?vid=d455c4ff-0e37-4b96-86e8-c1cbea48191e"},"vehicle_type_id":"4","last_reported":1680282365,"current_range_meters":1600,"station_id":"ce4bgt12rcd13ifvqce0","pricing_plan_id":"free"},{"bike_id":"d034e524-5147-4ec7-92fb-8f01b21e5df5","system_id":"levelo_inurba_marseille","lat":43.31369,"lon":5.38368,"is_reserved":false,"is_disabled":false,"rental_uris":{"android":"levelo://app?vid=d034e524-5147-4ec7-92fb-8f01b21e5df5","ios":"levelo://app?vid=d034e524-5147-4ec7-92fb-8f01b21e5df5"},"vehicle_type_id":"4","last_reported":1680282365,"current_range_meters":23200,"station_id":"","pricing_plan_id":"free"},{"bike_id":"813465e8-446f-43dd-9081-04c1313a2495","system_id":"levelo_inurba_marseille","lat":43.31324,"lon":5.38451,"is_reserved":false,"is_disabled":false,"rental_uris":{"android":"levelo://app?vid=813465e8-446f-43dd-9081-04c1313a2495","ios":"levelo://app?vid=813465e8-446f-43dd-9081-04c1313a2495"},"vehicle_type_id":"4","last_reported":1680282365,"current_range_meters":0,"station_id":"","pricing_plan_id":"free"},{"bike_id":"f6ed73af-f7fc-4a86-8fd9-f4e20d92f54e","system_id":"levelo_inurba_marseille","lat":43.30143,"lon":5.37413,"is_reserved":false,"is_disabled":false,"rental_uris":{"android":"levelo://app?vid=f6ed73af-f7fc-4a86-8fd9-f4e20d92f54e","ios":"levelo://app?vid=f6ed73af-f7fc-4a86-8fd9-f4e20d92f54e"},"vehicle_type_id":"4","last_reported":1680282365,"current_range_meters":0,"station_id":"ce4bgs92rcd13ifvqcc0","pricing_plan_id":"free"},{"bike_id":"771ff514-ab8a-42b5-9a6d-389d16c5f3c0","system_id":"levelo_inurba_marseille","lat":43.32823,"lon":5.36696,"is_reserved":false,"is_disabled":false,"rental_uris":{"android":"levelo://app?vid=771ff514-ab8a-42b5-9a6d-389d16c5f3c0","ios":"levelo://app?vid=771ff514-ab8a-42b5-9a6d-389d16c5f3c0"},"vehicle_type_id":"4","last_reported":1680282365,"current_range_meters":0,"station_id":"ce4bhs92rcd13ifvqi0g","pricing_plan_id":"free"},{"bike_id":"139df2ab-0762-4056-974d-cff69921875a","system_id":"levelo_inurba_marseille","lat":43.32827,"lon":5.36692,"is_reserved":false,"is_disabled":false,"rental_uris":{"android":"levelo://app?vid=139df2ab-0762-4056-974d-cff69921875a","ios":"levelo://app?vid=139df2ab-0762-4056-974d-cff69921875a"},"vehicle_type_id":"4","last_reported":1680282365,"current_range_meters":4400,"station_id":"ce4bhs92rcd13ifvqi0g","pricing_plan_id":"free"},{"bike_id":"8c17778e-b775-494d-8533-afd115c55289","system_id":"levelo_inurba_marseille","lat":43.328371,"lon":5.366909,"is_reserved":false,"is_disabled":false,"rental_uris":{"android":"levelo://app?vid=8c17778e-b775-494d-8533-afd115c55289","ios":"levelo://app?vid=8c17778e-b775-494d-8533-afd115c55289"},"vehicle_type_id":"4","last_reported":1680282365,"current_range_meters":400,"station_id":"ce4bhs92rcd13ifvqi0g","pricing_plan_id":"free"},{"bike_id":"326accb6-196c-45be-9cc9-99860d002cb6","system_id":"levelo_inurba_marseille","lat":43.3283,"lon":5.36691,"is_reserved":false,"is_disabled":false,"rental_uris":{"android":"levelo://app?vid=326accb6-196c-45be-9cc9-99860d002cb6","ios":"levelo://app?vid=326accb6-196c-45be-9cc9-99860d002cb6"},"vehicle_type_id":"4","last_reported":1680282365,"current_range_meters":0,"station_id":"ce4bhs92rcd13ifvqi0g","pricing_plan_id":"free"},{"bike_id":"3413f084-7717-4859-bc32-00392f848266","system_id":"levelo_inurba_marseille","lat":43.32835,"lon":5.36695,"is_reserved":false,"is_disabled":false,"rental_uris":{"android":"levelo://app?vid=3413f084-7717-4859-bc32-00392f848266","ios":"levelo://app?vid=3413f084-7717-4859-bc32-00392f848266"},"vehicle_type_id":"4","last_reported":1680282365,"current_range_meters":27600,"station_id":"ce4bhs92rcd13ifvqi0g","pricing_plan_id":"free"},{"bike_id":"b75053be-2fab-41de-9fe4-2f488a1d3778","system_id":"levelo_inurba_marseille","lat":43.29582,"lon":5.36741,"is_reserved":false,"is_disabled":false,"rental_uris":{"android":"levelo://app?vid=b75053be-2fab-41de-9fe4-2f488a1d3778","ios":"levelo://app?vid=b75053be-2fab-41de-9fe4-2f488a1d3778"},"vehicle_type_id":"4","last_reported":1680282365,"current_range_meters":0,"station_id":"ce4bgph2rcd13ifvqc2g","pricing_plan_id":"free"},{"bike_id":"6b32ce44-8996-400a-b753-7dac1d0b361c","system_id":"levelo_inurba_marseille","lat":43.30948,"lon":5.39023,"is_reserved":false,"is_disabled":false,"rental_uris":{"android":"levelo://app?vid=6b32ce44-8996-400a-b753-7dac1d0b361c","ios":"levelo://app?vid=6b32ce44-8996-400a-b753-7dac1d0b361c"},"vehicle_type_id":"4","last_reported":1680282365,"current_range_meters":0,"station_id":"ce4bgup2rcd13ifvqco0","pricing_plan_id":"free"},{"bike_id":"c9a7a40c-d1e7-4f1b-845f-4e3e95067155","system_id":"levelo_inurba_marseille","lat":43.309589,"lon":5.390258,"is_reserved":false,"is_disabled":false,"rental_uris":{"android":"levelo://app?vid=c9a7a40c-d1e7-4f1b-845f-4e3e95067155","ios":"levelo://app?vid=c9a7a40c-d1e7-4f1b-845f-4e3e95067155"},"vehicle_type_id":"4","last_reported":1680282365,"current_range_meters":0,"station_id":"ce4bgup2rcd13ifvqco0","pricing_plan_id":"free"},{"bike_id":"b5dc3acc-0bdf-4855-b278-58bf20646cfb","system_id":"levelo_inurba_marseille","lat":43.29573,"lon":5.37525,"is_reserved":false,"is_disabled":false,"rental_uris":{"android":"levelo://app?vid=b5dc3acc-0bdf-4855-b278-58bf20646cfb","ios":"levelo://app?vid=b5dc3acc-0bdf-4855-b278-58bf20646cfb"},"vehicle_type_id":"4","last_reported":1680282365,"current_range_meters":0,"station_id":"","pricing_plan_id":"free"},{"bike_id":"c74aa1fd-e2bd-4132-9b6a-b00d72f1e9bf","system_id":"levelo_inurba_marseille","lat":43.299607,"lon":5.384896,"is_reserved":false,"is_disabled":false,"rental_uris":{"android":"levelo://app?vid=c74aa1fd-e2bd-4132-9b6a-b00d72f1e9bf","ios":"levelo://app?vid=c74aa1fd-e2bd-4132-9b6a-b00d72f1e9bf"},"vehicle_type_id":"4","last_reported":1680282365,"current_range_meters":0,"station_id":"","pricing_plan_id":"free"},{"bike_id":"984a526c-254a-4b09-b711-b4e27acf1176","system_id":"levelo_inurba_marseille","lat":43.2923,"lon":5.36072,"is_reserved":false,"is_disabled":false,"rental_uris":{"android":"levelo://app?vid=984a526c-254a-4b09-b711-b4e27acf1176","ios":"levelo://app?vid=984a526c-254a-4b09-b711-b4e27acf1176"},"vehicle_type_id":"4","last_reported":1680282365,"current_range_meters":9200,"station_id":"","pricing_plan_id":"free"},{"bike_id":"1b338b1e-07a8-419f-9342-86cc7f902486","system_id":"levelo_inurba_marseille","lat":43.2936,"lon":5.37835,"is_reserved":false,"is_disabled":false,"rental_uris":{"android":"levelo://app?vid=1b338b1e-07a8-419f-9342-86cc7f902486","ios":"levelo://app?vid=1b338b1e-07a8-419f-9342-86cc7f902486"},"vehicle_type_id":"4","last_reported":1680282365,"current_range_meters":9600,"station_id":"ce4bgjh2rcd13ifvqbf0","pricing_plan_id":"free"},{"bike_id":"bf3e0c03-55a5-4020-8b3c-21af26cf9a75","system_id":"levelo_inurba_marseille","lat":43.309038,"lon":5.396546,"is_reserved":false,"is_disabled":false,"rental_uris":{"android":"levelo://app?vid=bf3e0c03-55a5-4020-8b3c-21af26cf9a75","ios":"levelo://app?vid=bf3e0c03-55a5-4020-8b3c-21af26cf9a75"},"vehicle_type_id":"4","last_reported":1680282365,"current_range_meters":0,"station_id":"ce4bh012rcd13ifvqcv0","pricing_plan_id":"free"},{"bike_id":"c65dbea2-4c06-4c8c-bb4e-d2496c3a3dc3","system_id":"levelo_inurba_marseille","lat":43.290624,"lon":5.359245,"is_reserved":false,"is_disabled":false,"rental_uris":{"android":"levelo://app?vid=c65dbea2-4c06-4c8c-bb4e-d2496c3a3dc3","ios":"levelo://app?vid=c65dbea2-4c06-4c8c-bb4e-d2496c3a3dc3"},"vehicle_type_id":"4","last_reported":1680282365,"current_range_meters":2400,"station_id":"ce4bha92rcd13ifvqeg0","pricing_plan_id":"free"},{"bike_id":"628e895e-e41e-495c-a34c-ad5fe62ae4fe","system_id":"levelo_inurba_marseille","lat":43.289184,"lon":5.366408,"is_reserved":false,"is_disabled":false,"rental_uris":{"android":"levelo://app?vid=628e895e-e41e-495c-a34c-ad5fe62ae4fe","ios":"levelo://app?vid=628e895e-e41e-495c-a34c-ad5fe62ae4fe"},"vehicle_type_id":"4","last_reported":1680282365,"current_range_meters":800,"station_id":"ce4bhap2rcd13ifvqek0","pricing_plan_id":"free"},{"bike_id":"d58b258f-8ab9-40b7-8bc6-64278f9d46c8","system_id":"levelo_inurba_marseille","lat":43.28936,"lon":5.36637,"is_reserved":false,"is_disabled":false,"rental_uris":{"android":"levelo://app?vid=d58b258f-8ab9-40b7-8bc6-64278f9d46c8","ios":"levelo://app?vid=d58b258f-8ab9-40b7-8bc6-64278f9d46c8"},"vehicle_type_id":"4","last_reported":1680282365,"current_range_meters":2400,"station_id":"ce4bhap2rcd13ifvqek0","pricing_plan_id":"free"},{"bike_id":"4cdddd40-23b6-4d59-9600-ba8582750610","system_id":"levelo_inurba_marseille","lat":43.289184,"lon":5.366408,"is_reserved":false,"is_disabled":false,"rental_uris":{"android":"levelo://app?vid=4cdddd40-23b6-4d59-9600-ba8582750610","ios":"levelo://app?vid=4cdddd40-23b6-4d59-9600-ba8582750610"},"vehicle_type_id":"4","last_reported":1680282365,"current_range_meters":10800,"station_id":"ce4bhap2rcd13ifvqek0","pricing_plan_id":"free"},{"bike_id":"7cd5cf60-2048-40f7-9d8b-48b80775b3c5","system_id":"levelo_inurba_marseille","lat":43.330378,"lon":5.389075,"is_reserved":false,"is_disabled":false,"rental_uris":{"android":"levelo://app?vid=7cd5cf60-2048-40f7-9d8b-48b80775b3c5","ios":"levelo://app?vid=7cd5cf60-2048-40f7-9d8b-48b80775b3c5"},"vehicle_type_id":"4","last_reported":1680282365,"current_range_meters":18800,"station_id":"ce4bhqp2rcd13ifvqhng","pricing_plan_id":"free"},{"bike_id":"917011f2-eeee-4877-a019-048feb799ff9","system_id":"levelo_inurba_marseille","lat":43.330442,"lon":5.389148,"is_reserved":false,"is_disabled":false,"rental_uris":{"android":"levelo://app?vid=917011f2-eeee-4877-a019-048feb799ff9","ios":"levelo://app?vid=917011f2-eeee-4877-a019-048feb799ff9"},"vehicle_type_id":"4","last_reported":1680282365,"current_range_meters":2000,"station_id":"ce4bhr92rcd13ifvqhrg","pricing_plan_id":"free"},{"bike_id":"2c19d31e-9dfc-416b-8a26-768dbba84dea","system_id":"levelo_inurba_marseille","lat":43.295169,"lon":5.390426,"is_reserved":false,"is_disabled":false,"rental_uris":{"android":"levelo://app?vid=2c19d31e-9dfc-416b-8a26-768dbba84dea","ios":"levelo://app?vid=2c19d31e-9dfc-416b-8a26-768dbba84dea"},"vehicle_type_id":"4","last_reported":1680282365,"current_range_meters":9200,"station_id":"ce4bh3p2rcd13ifvqdp0","pricing_plan_id":"free"},{"bike_id":"f0cbbe87-11dc-4008-a087-5a91694e0949","system_id":"levelo_inurba_marseille","lat":43.2901,"lon":5.381269,"is_reserved":false,"is_disabled":false,"rental_uris":{"android":"levelo://app?vid=f0cbbe87-11dc-4008-a087-5a91694e0949","ios":"levelo://app?vid=f0cbbe87-11dc-4008-a087-5a91694e0949"},"vehicle_type_id":"4","last_reported":1680282365,"current_range_meters":0,"station_id":"ce4bh4p2rcd13ifvqe1g","pricing_plan_id":"free"},{"bike_id":"8a4d78f6-9c4a-4942-a881-dc828a079baa","system_id":"levelo_inurba_marseille","lat":43.33744,"lon":5.37468,"is_reserved":false,"is_disabled":false,"rental_uris":{"android":"levelo://app?vid=8a4d78f6-9c4a-4942-a881-dc828a079baa","ios":"levelo://app?vid=8a4d78f6-9c4a-4942-a881-dc828a079baa"},"vehicle_type_id":"4","last_reported":1680282365,"current_range_meters":17600,"station_id":"","pricing_plan_id":"free"},{"bike_id":"ea67b675-6cf9-4383-a1f0-7bde2738e2c4","system_id":"levelo_inurba_marseille","lat":43.3375,"lon":5.374474,"is_reserved":false,"is_disabled":false,"rental_uris":{"android":"levelo://app?vid=ea67b675-6cf9-4383-a1f0-7bde2738e2c4","ios":"levelo://app?vid=ea67b675-6cf9-4383-a1f0-7bde2738e2c4"},"vehicle_type_id":"4","last_reported":1680282365,"current_range_meters":31200,"station_id":"","pricing_plan_id":"free"},{"bike_id":"9f186915-d0ac-4d58-8da4-09999d2cd3e6","system_id":"levelo_inurba_marseille","lat":43.33756,"lon":5.37444,"is_reserved":false,"is_disabled":false,"rental_uris":{"android":"levelo://app?vid=9f186915-d0ac-4d58-8da4-09999d2cd3e6","ios":"levelo://app?vid=9f186915-d0ac-4d58-8da4-09999d2cd3e6"},"vehicle_type_id":"4","last_reported":1680282365,"current_range_meters":12800,"station_id":"","pricing_plan_id":"free"},{"bike_id":"4a171fd2-fa1e-4995-9d7f-f41a03195252","system_id":"levelo_inurba_marseille","lat":43.30642,"lon":5.401031,"is_reserved":false,"is_disabled":false,"rental_uris":{"android":"levelo://app?vid=4a171fd2-fa1e-4995-9d7f-f41a03195252","ios":"levelo://app?vid=4a171fd2-fa1e-4995-9d7f-f41a03195252"},"vehicle_type_id":"4","last_reported":1680282365,"current_range_meters":16000,"station_id":"ce4bh112rcd13ifvqda0","pricing_plan_id":"free"},{"bike_id":"f6d8e38f-c4c5-4219-bb63-d5e0d3fff0de","system_id":"levelo_inurba_marseille","lat":43.30642,"lon":5.401031,"is_reserved":false,"is_disabled":false,"rental_uris":{"android":"levelo://app?vid=f6d8e38f-c4c5-4219-bb63-d5e0d3fff0de","ios":"levelo://app?vid=f6d8e38f-c4c5-4219-bb63-d5e0d3fff0de"},"vehicle_type_id":"4","last_reported":1680282365,"current_range_meters":11200,"station_id":"ce4bh112rcd13ifvqda0","pricing_plan_id":"free"},{"bike_id":"5441ae69-e652-4abd-a990-4cf587a54dc7","system_id":"levelo_inurba_marseille","lat":43.316523,"lon":5.404367,"is_reserved":false,"is_disabled":false,"rental_uris":{"android":"levelo://app?vid=5441ae69-e652-4abd-a990-4cf587a54dc7","ios":"levelo://app?vid=5441ae69-e652-4abd-a990-4cf587a54dc7"},"vehicle_type_id":"4","last_reported":1680282365,"current_range_meters":3200,"station_id":"ce4bh012rcd13ifvqd00","pricing_plan_id":"free"},{"bike_id":"0837c234-1200-4577-a31f-a7fba8bf221d","system_id":"levelo_inurba_marseille","lat":43.316523,"lon":5.404367,"is_reserved":false,"is_disabled":false,"rental_uris":{"android":"levelo://app?vid=0837c234-1200-4577-a31f-a7fba8bf221d","ios":"levelo://app?vid=0837c234-1200-4577-a31f-a7fba8bf221d"},"vehicle_type_id":"4","last_reported":1680282365,"current_range_meters":0,"station_id":"ce4bh012rcd13ifvqd00","pricing_plan_id":"free"},{"bike_id":"20fe1a76-270c-4429-9e54-30b18fdf6422","system_id":"levelo_inurba_marseille","lat":43.316638,"lon":5.407657,"is_reserved":false,"is_disabled":false,"rental_uris":{"android":"levelo://app?vid=20fe1a76-270c-4429-9e54-30b18fdf6422","ios":"levelo://app?vid=20fe1a76-270c-4429-9e54-30b18fdf6422"},"vehicle_type_id":"4","last_reported":1680282365,"current_range_meters":27600,"station_id":"","pricing_plan_id":"free"},{"bike_id":"ab2fa763-bbba-46bb-9d69-40cc31301ec3","system_id":"levelo_inurba_marseille","lat":43.323464,"lon":5.406297,"is_reserved":false,"is_disabled":false,"rental_uris":{"android":"levelo://app?vid=ab2fa763-bbba-46bb-9d69-40cc31301ec3","ios":"levelo://app?vid=ab2fa763-bbba-46bb-9d69-40cc31301ec3"},"vehicle_type_id":"4","last_reported":1680282365,"current_range_meters":800,"station_id":"ce4bhq92rcd13ifvqhjg","pricing_plan_id":"free"},{"bike_id":"8989d6cd-383f-4d48-8aaa-579a6af0b69b","system_id":"levelo_inurba_marseille","lat":43.323464,"lon":5.406297,"is_reserved":false,"is_disabled":false,"rental_uris":{"android":"levelo://app?vid=8989d6cd-383f-4d48-8aaa-579a6af0b69b","ios":"levelo://app?vid=8989d6cd-383f-4d48-8aaa-579a6af0b69b"},"vehicle_type_id":"4","last_reported":1680282365,"current_range_meters":11600,"station_id":"ce4bhq92rcd13ifvqhjg","pricing_plan_id":"free"},{"bike_id":"5847def8-f95c-43a3-b110-554733ae9fd8","system_id":"levelo_inurba_marseille","lat":43.2847,"lon":5.3842,"is_reserved":false,"is_disabled":false,"rental_uris":{"android":"levelo://app?vid=5847def8-f95c-43a3-b110-554733ae9fd8","ios":"levelo://app?vid=5847def8-f95c-43a3-b110-554733ae9fd8"},"vehicle_type_id":"4","last_reported":1680282365,"current_range_meters":14800,"station_id":"ce4bh512rcd13ifvqe3g","pricing_plan_id":"free"},{"bike_id":"5afbffac-5999-4517-a33b-99dea905cbf7","system_id":"levelo_inurba_marseille","lat":43.28403,"lon":5.38544,"is_reserved":false,"is_disabled":false,"rental_uris":{"android":"levelo://app?vid=5afbffac-5999-4517-a33b-99dea905cbf7","ios":"levelo://app?vid=5afbffac-5999-4517-a33b-99dea905cbf7"},"vehicle_type_id":"4","last_reported":1680282365,"current_range_meters":0,"station_id":"","pricing_plan_id":"free"},{"bike_id":"c9463cbb-e687-482f-a634-33d7863399c3","system_id":"levelo_inurba_marseille","lat":43.292724,"lon":5.401131,"is_reserved":false,"is_disabled":false,"rental_uris":{"android":"levelo://app?vid=c9463cbb-e687-482f-a634-33d7863399c3","ios":"levelo://app?vid=c9463cbb-e687-482f-a634-33d7863399c3"},"vehicle_type_id":"4","last_reported":1680282365,"current_range_meters":0,"station_id":"ce4bh312rcd13ifvqdk0","pricing_plan_id":"free"},{"bike_id":"ac9de422-8353-4869-84a0-27536b6e1f64","system_id":"levelo_inurba_marseille","lat":43.28267,"lon":5.35055,"is_reserved":false,"is_disabled":false,"rental_uris":{"android":"levelo://app?vid=ac9de422-8353-4869-84a0-27536b6e1f64","ios":"levelo://app?vid=ac9de422-8353-4869-84a0-27536b6e1f64"},"vehicle_type_id":"4","last_reported":1680282365,"current_range_meters":15200,"station_id":"ce4bhbp2rcd13ifvqerg","pricing_plan_id":"free"},{"bike_id":"8fbb5874-25f7-48da-803c-64a80490d972","system_id":"levelo_inurba_marseille","lat":43.29041,"lon":5.399634,"is_reserved":false,"is_disabled":false,"rental_uris":{"android":"levelo://app?vid=8fbb5874-25f7-48da-803c-64a80490d972","ios":"levelo://app?vid=8fbb5874-25f7-48da-803c-64a80490d972"},"vehicle_type_id":"4","last_reported":1680282365,"current_range_meters":0,"station_id":"ce4bh392rcd13ifvqdm0","pricing_plan_id":"free"},{"bike_id":"7f02ee90-86ab-4a12-abf7-7d84ec84cb65","system_id":"levelo_inurba_marseille","lat":43.296263,"lon":5.40601,"is_reserved":false,"is_disabled":false,"rental_uris":{"android":"levelo://app?vid=7f02ee90-86ab-4a12-abf7-7d84ec84cb65","ios":"levelo://app?vid=7f02ee90-86ab-4a12-abf7-7d84ec84cb65"},"vehicle_type_id":"4","last_reported":1680282365,"current_range_meters":0,"station_id":"ce4bh0h2rcd13ifvqd60","pricing_plan_id":"free"},{"bike_id":"5858a3c6-fd5a-4873-a993-86e4057265da","system_id":"levelo_inurba_marseille","lat":43.29171,"lon":5.40307,"is_reserved":false,"is_disabled":false,"rental_uris":{"android":"levelo://app?vid=5858a3c6-fd5a-4873-a993-86e4057265da","ios":"levelo://app?vid=5858a3c6-fd5a-4873-a993-86e4057265da"},"vehicle_type_id":"4","last_reported":1680282365,"current_range_meters":17200,"station_id":"","pricing_plan_id":"free"},{"bike_id":"9a0c3735-ab07-4eb4-9fea-752c0d1cda2c","system_id":"levelo_inurba_marseille","lat":43.304188,"lon":5.412904,"is_reserved":false,"is_disabled":false,"rental_uris":{"android":"levelo://app?vid=9a0c3735-ab07-4eb4-9fea-752c0d1cda2c","ios":"levelo://app?vid=9a0c3735-ab07-4eb4-9fea-752c0d1cda2c"},"vehicle_type_id":"4","last_reported":1680282365,"current_range_meters":0,"station_id":"ce4bhop2rcd13ifvqh8g","pricing_plan_id":"free"},{"bike_id":"b7091c0d-e9db-4238-bf90-52dc15d1f72f","system_id":"levelo_inurba_marseille","lat":43.304188,"lon":5.412904,"is_reserved":false,"is_disabled":false,"rental_uris":{"android":"levelo://app?vid=b7091c0d-e9db-4238-bf90-52dc15d1f72f","ios":"levelo://app?vid=b7091c0d-e9db-4238-bf90-52dc15d1f72f"},"vehicle_type_id":"4","last_reported":1680282365,"current_range_meters":22800,"station_id":"ce4bhop2rcd13ifvqh8g","pricing_plan_id":"free"},{"bike_id":"f34ebdcd-0829-4ff9-b489-4f43b1f96f58","system_id":"levelo_inurba_marseille","lat":43.320045,"lon":5.415048,"is_reserved":false,"is_disabled":false,"rental_uris":{"android":"levelo://app?vid=f34ebdcd-0829-4ff9-b489-4f43b1f96f58","ios":"levelo://app?vid=f34ebdcd-0829-4ff9-b489-4f43b1f96f58"},"vehicle_type_id":"4","last_reported":1680282365,"current_range_meters":21600,"station_id":"ce4bhq92rcd13ifvqhkg","pricing_plan_id":"free"},{"bike_id":"8d5cbeb9-7838-4c40-9492-8237d0c97357","system_id":"levelo_inurba_marseille","lat":43.32046,"lon":5.4155,"is_reserved":false,"is_disabled":false,"rental_uris":{"android":"levelo://app?vid=8d5cbeb9-7838-4c40-9492-8237d0c97357","ios":"levelo://app?vid=8d5cbeb9-7838-4c40-9492-8237d0c97357"},"vehicle_type_id":"4","last_reported":1680282365,"current_range_meters":17600,"station_id":"","pricing_plan_id":"free"},{"bike_id":"860e83de-f64b-43b6-ae3e-13d39a2015a4","system_id":"levelo_inurba_marseille","lat":43.320045,"lon":5.415048,"is_reserved":false,"is_disabled":false,"rental_uris":{"android":"levelo://app?vid=860e83de-f64b-43b6-ae3e-13d39a2015a4","ios":"levelo://app?vid=860e83de-f64b-43b6-ae3e-13d39a2015a4"},"vehicle_type_id":"4","last_reported":1680282365,"current_range_meters":13200,"station_id":"ce4bhq92rcd13ifvqhkg","pricing_plan_id":"free"},{"bike_id":"bd4eed69-a9d7-4029-a344-389f1d16afcc","system_id":"levelo_inurba_marseille","lat":43.32539,"lon":5.41421,"is_reserved":false,"is_disabled":false,"rental_uris":{"android":"levelo://app?vid=bd4eed69-a9d7-4029-a344-389f1d16afcc","ios":"levelo://app?vid=bd4eed69-a9d7-4029-a344-389f1d16afcc"},"vehicle_type_id":"4","last_reported":1680282365,"current_range_meters":25200,"station_id":"ce4bhq12rcd13ifvqhhg","pricing_plan_id":"free"},{"bike_id":"f4c41185-19c5-4963-baf4-25a2b409dd7f","system_id":"levelo_inurba_marseille","lat":43.29264,"lon":5.40905,"is_reserved":false,"is_disabled":false,"rental_uris":{"android":"levelo://app?vid=f4c41185-19c5-4963-baf4-25a2b409dd7f","ios":"levelo://app?vid=f4c41185-19c5-4963-baf4-25a2b409dd7f"},"vehicle_type_id":"4","last_reported":1680282365,"current_range_meters":19200,"station_id":"ce4bh192rcd13ifvqdc0","pricing_plan_id":"free"},{"bike_id":"7a039bc0-6812-4caa-aebf-bb7917f82749","system_id":"levelo_inurba_marseille","lat":43.32537,"lon":5.41424,"is_reserved":false,"is_disabled":false,"rental_uris":{"android":"levelo://app?vid=7a039bc0-6812-4caa-aebf-bb7917f82749","ios":"levelo://app?vid=7a039bc0-6812-4caa-aebf-bb7917f82749"},"vehicle_type_id":"4","last_reported":1680282365,"current_range_meters":20400,"station_id":"ce4bhq12rcd13ifvqhhg","pricing_plan_id":"free"},{"bike_id":"8e615981-6ded-40a3-b9f4-c11d26e806e0","system_id":"levelo_inurba_marseille","lat":43.27618,"lon":5.361009,"is_reserved":false,"is_disabled":false,"rental_uris":{"android":"levelo://app?vid=8e615981-6ded-40a3-b9f4-c11d26e806e0","ios":"levelo://app?vid=8e615981-6ded-40a3-b9f4-c11d26e806e0"},"vehicle_type_id":"4","last_reported":1680282365,"current_range_meters":17200,"station_id":"ce4bgj92rcd13ifvqbe0","pricing_plan_id":"free"},{"bike_id":"7b6c99cc-8259-4dd9-8f53-f77b5aa2116f","system_id":"levelo_inurba_marseille","lat":43.33612,"lon":5.410321,"is_reserved":false,"is_disabled":false,"rental_uris":{"android":"levelo://app?vid=7b6c99cc-8259-4dd9-8f53-f77b5aa2116f","ios":"levelo://app?vid=7b6c99cc-8259-4dd9-8f53-f77b5aa2116f"},"vehicle_type_id":"4","last_reported":1680282365,"current_range_meters":24000,"station_id":"ce4bhqh2rcd13ifvqhmg","pricing_plan_id":"free"},{"bike_id":"e0dd18b4-0cce-426d-93e0-b6c5556b2ca4","system_id":"levelo_inurba_marseille","lat":43.273609,"lon":5.362708,"is_reserved":false,"is_disabled":false,"rental_uris":{"android":"levelo://app?vid=e0dd18b4-0cce-426d-93e0-b6c5556b2ca4","ios":"levelo://app?vid=e0dd18b4-0cce-426d-93e0-b6c5556b2ca4"},"vehicle_type_id":"4","last_reported":1680282365,"current_range_meters":29600,"station_id":"ce4bhbh2rcd13ifvqeo0","pricing_plan_id":"free"},{"bike_id":"c5c16629-87f6-48df-93ed-139d5a7a8133","system_id":"levelo_inurba_marseille","lat":43.273613,"lon":5.362705,"is_reserved":false,"is_disabled":false,"rental_uris":{"android":"levelo://app?vid=c5c16629-87f6-48df-93ed-139d5a7a8133","ios":"levelo://app?vid=c5c16629-87f6-48df-93ed-139d5a7a8133"},"vehicle_type_id":"4","last_reported":1680282365,"current_range_meters":28800,"station_id":"ce4bhbh2rcd13ifvqeo0","pricing_plan_id":"free"},{"bike_id":"cf61faab-b7b5-4699-ae7e-6b92e05a6c19","system_id":"levelo_inurba_marseille","lat":43.33612,"lon":5.410321,"is_reserved":false,"is_disabled":false,"rental_uris":{"android":"levelo://app?vid=cf61faab-b7b5-4699-ae7e-6b92e05a6c19","ios":"levelo://app?vid=cf61faab-b7b5-4699-ae7e-6b92e05a6c19"},"vehicle_type_id":"4","last_reported":1680282365,"current_range_meters":21600,"station_id":"ce4bhqh2rcd13ifvqhmg","pricing_plan_id":"free"},{"bike_id":"211dad24-b92e-410b-82af-7cd1bece322a","system_id":"levelo_inurba_marseille","lat":43.336134,"lon":5.410341,"is_reserved":false,"is_disabled":false,"rental_uris":{"android":"levelo://app?vid=211dad24-b92e-410b-82af-7cd1bece322a","ios":"levelo://app?vid=211dad24-b92e-410b-82af-7cd1bece322a"},"vehicle_type_id":"4","last_reported":1680282365,"current_range_meters":12400,"station_id":"ce4bhqh2rcd13ifvqhmg","pricing_plan_id":"free"},{"bike_id":"3a40b266-bd19-44af-aae7-205f82897218","system_id":"levelo_inurba_marseille","lat":43.336134,"lon":5.410341,"is_reserved":false,"is_disabled":false,"rental_uris":{"android":"levelo://app?vid=3a40b266-bd19-44af-aae7-205f82897218","ios":"levelo://app?vid=3a40b266-bd19-44af-aae7-205f82897218"},"vehicle_type_id":"4","last_reported":1680282365,"current_range_meters":18400,"station_id":"ce4bhqh2rcd13ifvqhmg","pricing_plan_id":"free"},{"bike_id":"024833a8-5b05-4797-813d-99af4b095aad","system_id":"levelo_inurba_marseille","lat":43.33612,"lon":5.410321,"is_reserved":false,"is_disabled":false,"rental_uris":{"android":"levelo://app?vid=024833a8-5b05-4797-813d-99af4b095aad","ios":"levelo://app?vid=024833a8-5b05-4797-813d-99af4b095aad"},"vehicle_type_id":"4","last_reported":1680282365,"current_range_meters":28800,"station_id":"ce4bhqh2rcd13ifvqhmg","pricing_plan_id":"free"},{"bike_id":"5d960272-0499-45a6-b9d1-e87093d9bf15","system_id":"levelo_inurba_marseille","lat":43.336033,"lon":5.410585,"is_reserved":false,"is_disabled":false,"rental_uris":{"android":"levelo://app?vid=5d960272-0499-45a6-b9d1-e87093d9bf15","ios":"levelo://app?vid=5d960272-0499-45a6-b9d1-e87093d9bf15"},"vehicle_type_id":"4","last_reported":1680282365,"current_range_meters":26800,"station_id":"","pricing_plan_id":"free"},{"bike_id":"a38c6c67-4054-4888-a9af-420be2178daf","system_id":"levelo_inurba_marseille","lat":43.273129,"lon":5.390725,"is_reserved":false,"is_disabled":false,"rental_uris":{"android":"levelo://app?vid=a38c6c67-4054-4888-a9af-420be2178daf","ios":"levelo://app?vid=a38c6c67-4054-4888-a9af-420be2178daf"},"vehicle_type_id":"4","last_reported":1680282365,"current_range_meters":0,"station_id":"ce4bhgp2rcd13ifvqfe0","pricing_plan_id":"free"},{"bike_id":"6730ae16-967e-4ac2-a51a-785692316064","system_id":"levelo_inurba_marseille","lat":43.304096,"lon":5.425385,"is_reserved":false,"is_disabled":false,"rental_uris":{"android":"levelo://app?vid=6730ae16-967e-4ac2-a51a-785692316064","ios":"levelo://app?vid=6730ae16-967e-4ac2-a51a-785692316064"},"vehicle_type_id":"4","last_reported":1680282365,"current_range_meters":800,"station_id":"ce4bhoh2rcd13ifvqh6g","pricing_plan_id":"free"},{"bike_id":"9488e4a8-85de-465e-80fa-3d7426978dce","system_id":"levelo_inurba_marseille","lat":43.269467,"lon":5.386439,"is_reserved":false,"is_disabled":false,"rental_uris":{"android":"levelo://app?vid=9488e4a8-85de-465e-80fa-3d7426978dce","ios":"levelo://app?vid=9488e4a8-85de-465e-80fa-3d7426978dce"},"vehicle_type_id":"4","last_reported":1680282365,"current_range_meters":1200,"station_id":"ce4bhh92rcd13ifvqfh0","pricing_plan_id":"free"},{"bike_id":"031d60bb-4a23-427f-92c8-a75fa56a2db6","system_id":"levelo_inurba_marseille","lat":43.278128,"lon":5.407195,"is_reserved":false,"is_disabled":false,"rental_uris":{"android":"levelo://app?vid=031d60bb-4a23-427f-92c8-a75fa56a2db6","ios":"levelo://app?vid=031d60bb-4a23-427f-92c8-a75fa56a2db6"},"vehicle_type_id":"4","last_reported":1680282365,"current_range_meters":0,"station_id":"ce4bhnh2rcd13ifvqgtg","pricing_plan_id":"free"},{"bike_id":"ec73dd22-aa6f-42b3-9691-66d0329dddb3","system_id":"levelo_inurba_marseille","lat":43.269467,"lon":5.386439,"is_reserved":false,"is_disabled":false,"rental_uris":{"android":"levelo://app?vid=ec73dd22-aa6f-42b3-9691-66d0329dddb3","ios":"levelo://app?vid=ec73dd22-aa6f-42b3-9691-66d0329dddb3"},"vehicle_type_id":"4","last_reported":1680282365,"current_range_meters":7200,"station_id":"ce4bhh92rcd13ifvqfh0","pricing_plan_id":"free"},{"bike_id":"85c9bb09-c5a0-4acc-99b1-4e8aa7994c59","system_id":"levelo_inurba_marseille","lat":43.29188,"lon":5.4227,"is_reserved":false,"is_disabled":false,"rental_uris":{"android":"levelo://app?vid=85c9bb09-c5a0-4acc-99b1-4e8aa7994c59","ios":"levelo://app?vid=85c9bb09-c5a0-4acc-99b1-4e8aa7994c59"},"vehicle_type_id":"4","last_reported":1680282365,"current_range_meters":25200,"station_id":"","pricing_plan_id":"free"},{"bike_id":"628c9ed0-2042-46c4-9330-a718859700e6","system_id":"levelo_inurba_marseille","lat":43.26554,"lon":5.37279,"is_reserved":false,"is_disabled":false,"rental_uris":{"android":"levelo://app?vid=628c9ed0-2042-46c4-9330-a718859700e6","ios":"levelo://app?vid=628c9ed0-2042-46c4-9330-a718859700e6"},"vehicle_type_id":"4","last_reported":1680282365,"current_range_meters":20000,"station_id":"ce4bhg12rcd13ifvqf70","pricing_plan_id":"free"},{"bike_id":"bb670dc3-fae8-45fb-846e-55a277e9bbfb","system_id":"levelo_inurba_marseille","lat":43.27996,"lon":5.416624,"is_reserved":false,"is_disabled":false,"rental_uris":{"android":"levelo://app?vid=bb670dc3-fae8-45fb-846e-55a277e9bbfb","ios":"levelo://app?vid=bb670dc3-fae8-45fb-846e-55a277e9bbfb"},"vehicle_type_id":"4","last_reported":1680282365,"current_range_meters":16000,"station_id":"ce4bho12rcd13ifvqh1g","pricing_plan_id":"free"},{"bike_id":"90919b0b-97d1-4366-81c8-f4255f2ec8ad","system_id":"levelo_inurba_marseille","lat":43.26783,"lon":5.39406,"is_reserved":false,"is_disabled":false,"rental_uris":{"android":"levelo://app?vid=90919b0b-97d1-4366-81c8-f4255f2ec8ad","ios":"levelo://app?vid=90919b0b-97d1-4366-81c8-f4255f2ec8ad"},"vehicle_type_id":"4","last_reported":1680282365,"current_range_meters":9600,"station_id":"ce4bhh12rcd13ifvqfg0","pricing_plan_id":"free"},{"bike_id":"361f9435-0ed1-4427-9a1d-87b3eb9b61b5","system_id":"levelo_inurba_marseille","lat":43.26359,"lon":5.37553,"is_reserved":false,"is_disabled":false,"rental_uris":{"android":"levelo://app?vid=361f9435-0ed1-4427-9a1d-87b3eb9b61b5","ios":"levelo://app?vid=361f9435-0ed1-4427-9a1d-87b3eb9b61b5"},"vehicle_type_id":"4","last_reported":1680282365,"current_range_meters":11600,"station_id":"","pricing_plan_id":"free"},{"bike_id":"c8ea8206-901a-488c-ac4b-8b1e01485d14","system_id":"levelo_inurba_marseille","lat":43.331864,"lon":5.431794,"is_reserved":false,"is_disabled":false,"rental_uris":{"android":"levelo://app?vid=c8ea8206-901a-488c-ac4b-8b1e01485d14","ios":"levelo://app?vid=c8ea8206-901a-488c-ac4b-8b1e01485d14"},"vehicle_type_id":"4","last_reported":1680282365,"current_range_meters":0,"station_id":"","pricing_plan_id":"free"},{"bike_id":"dc9edd13-2ad7-48bf-bb6c-4cd94067b9bc","system_id":"levelo_inurba_marseille","lat":43.317104,"lon":5.436818,"is_reserved":false,"is_disabled":false,"rental_uris":{"android":"levelo://app?vid=dc9edd13-2ad7-48bf-bb6c-4cd94067b9bc","ios":"levelo://app?vid=dc9edd13-2ad7-48bf-bb6c-4cd94067b9bc"},"vehicle_type_id":"4","last_reported":1680282365,"current_range_meters":11600,"station_id":"ce4bhp92rcd13ifvqhcg","pricing_plan_id":"free"},{"bike_id":"9ce2775f-7712-499a-94b3-bb7e93b8b09d","system_id":"levelo_inurba_marseille","lat":43.31713,"lon":5.43708,"is_reserved":false,"is_disabled":false,"rental_uris":{"android":"levelo://app?vid=9ce2775f-7712-499a-94b3-bb7e93b8b09d","ios":"levelo://app?vid=9ce2775f-7712-499a-94b3-bb7e93b8b09d"},"vehicle_type_id":"4","last_reported":1680282365,"current_range_meters":0,"station_id":"ce4bhp92rcd13ifvqhcg","pricing_plan_id":"free"},{"bike_id":"5c2a528f-1e43-4279-b1d0-b781d85c19b4","system_id":"levelo_inurba_marseille","lat":43.267959,"lon":5.402687,"is_reserved":false,"is_disabled":false,"rental_uris":{"android":"levelo://app?vid=5c2a528f-1e43-4279-b1d0-b781d85c19b4","ios":"levelo://app?vid=5c2a528f-1e43-4279-b1d0-b781d85c19b4"},"vehicle_type_id":"4","last_reported":1680282365,"current_range_meters":5200,"station_id":"ce501612rcd8frsf0b60","pricing_plan_id":"free"},{"bike_id":"33ce1978-45ae-4472-ba3e-f2dab8236011","system_id":"levelo_inurba_marseille","lat":43.267959,"lon":5.402687,"is_reserved":false,"is_disabled":false,"rental_uris":{"android":"levelo://app?vid=33ce1978-45ae-4472-ba3e-f2dab8236011","ios":"levelo://app?vid=33ce1978-45ae-4472-ba3e-f2dab8236011"},"vehicle_type_id":"4","last_reported":1680282365,"current_range_meters":0,"station_id":"ce501612rcd8frsf0b60","pricing_plan_id":"free"},{"bike_id":"57b4c542-93e7-4135-9ab2-860be450fd2b","system_id":"levelo_inurba_marseille","lat":43.267959,"lon":5.402685,"is_reserved":false,"is_disabled":false,"rental_uris":{"android":"levelo://app?vid=57b4c542-93e7-4135-9ab2-860be450fd2b","ios":"levelo://app?vid=57b4c542-93e7-4135-9ab2-860be450fd2b"},"vehicle_type_id":"4","last_reported":1680282365,"current_range_meters":24000,"station_id":"ce501612rcd8frsf0b60","pricing_plan_id":"free"},{"bike_id":"b106dee3-4d7e-4e5a-937f-9bac49bfb185","system_id":"levelo_inurba_marseille","lat":43.298768,"lon":5.43643,"is_reserved":false,"is_disabled":false,"rental_uris":{"android":"levelo://app?vid=b106dee3-4d7e-4e5a-937f-9bac49bfb185","ios":"levelo://app?vid=b106dee3-4d7e-4e5a-937f-9bac49bfb185"},"vehicle_type_id":"4","last_reported":1680282365,"current_range_meters":28000,"station_id":"ce4bhpp2rcd13ifvqhfg","pricing_plan_id":"free"},{"bike_id":"2f9c8698-c6b0-4051-bd2e-89139f9a2006","system_id":"levelo_inurba_marseille","lat":43.298768,"lon":5.43643,"is_reserved":false,"is_disabled":false,"rental_uris":{"android":"levelo://app?vid=2f9c8698-c6b0-4051-bd2e-89139f9a2006","ios":"levelo://app?vid=2f9c8698-c6b0-4051-bd2e-89139f9a2006"},"vehicle_type_id":"4","last_reported":1680282365,"current_range_meters":26000,"station_id":"ce4bhpp2rcd13ifvqhfg","pricing_plan_id":"free"},{"bike_id":"35125bfc-b91c-47e4-b702-0d5e52965949","system_id":"levelo_inurba_marseille","lat":43.260219,"lon":5.37546,"is_reserved":false,"is_disabled":false,"rental_uris":{"android":"levelo://app?vid=35125bfc-b91c-47e4-b702-0d5e52965949","ios":"levelo://app?vid=35125bfc-b91c-47e4-b702-0d5e52965949"},"vehicle_type_id":"4","last_reported":1680282365,"current_range_meters":16000,"station_id":"ce4bhgh2rcd13ifvqfa0","pricing_plan_id":"free"},{"bike_id":"636a97a7-0b31-4233-bc91-6cc7dc5f6e10","system_id":"levelo_inurba_marseille","lat":43.254947,"lon":5.376454,"is_reserved":false,"is_disabled":false,"rental_uris":{"android":"levelo://app?vid=636a97a7-0b31-4233-bc91-6cc7dc5f6e10","ios":"levelo://app?vid=636a97a7-0b31-4233-bc91-6cc7dc5f6e10"},"vehicle_type_id":"4","last_reported":1680282365,"current_range_meters":9600,"station_id":"ce4bhh12rcd13ifvqff0","pricing_plan_id":"free"},{"bike_id":"7313a285-1597-45c9-bca2-b17b57bd54e7","system_id":"levelo_inurba_marseille","lat":43.255618,"lon":5.382083,"is_reserved":false,"is_disabled":false,"rental_uris":{"android":"levelo://app?vid=7313a285-1597-45c9-bca2-b17b57bd54e7","ios":"levelo://app?vid=7313a285-1597-45c9-bca2-b17b57bd54e7"},"vehicle_type_id":"4","last_reported":1680282365,"current_range_meters":2400,"station_id":"ce4bhih2rcd13ifvqfs0","pricing_plan_id":"free"},{"bike_id":"9c2c7738-eef4-4628-92ec-c2f73c9f0458","system_id":"levelo_inurba_marseille","lat":43.2479,"lon":5.374457,"is_reserved":false,"is_disabled":false,"rental_uris":{"android":"levelo://app?vid=9c2c7738-eef4-4628-92ec-c2f73c9f0458","ios":"levelo://app?vid=9c2c7738-eef4-4628-92ec-c2f73c9f0458"},"vehicle_type_id":"4","last_reported":1680282365,"current_range_meters":2400,"station_id":"ce4bhgh2rcd13ifvqfb0","pricing_plan_id":"free"},{"bike_id":"8aecbd7a-9979-48b2-a6d5-8dee6848afda","system_id":"levelo_inurba_marseille","lat":43.2479,"lon":5.374457,"is_reserved":false,"is_disabled":false,"rental_uris":{"android":"levelo://app?vid=8aecbd7a-9979-48b2-a6d5-8dee6848afda","ios":"levelo://app?vid=8aecbd7a-9979-48b2-a6d5-8dee6848afda"},"vehicle_type_id":"4","last_reported":1680282365,"current_range_meters":13200,"station_id":"ce4bhgh2rcd13ifvqfb0","pricing_plan_id":"free"},{"bike_id":"cb64821b-2279-4d70-96b4-d15faaf91434","system_id":"levelo_inurba_marseille","lat":43.250966,"lon":5.395186,"is_reserved":false,"is_disabled":false,"rental_uris":{"android":"levelo://app?vid=cb64821b-2279-4d70-96b4-d15faaf91434","ios":"levelo://app?vid=cb64821b-2279-4d70-96b4-d15faaf91434"},"vehicle_type_id":"4","last_reported":1680282365,"current_range_meters":27200,"station_id":"ce4bhm12rcd13ifvqgkg","pricing_plan_id":"free"},{"bike_id":"b7b98492-0ac3-400a-8beb-bae332f344fb","system_id":"levelo_inurba_marseille","lat":43.24693,"lon":5.382096,"is_reserved":false,"is_disabled":false,"rental_uris":{"android":"levelo://app?vid=b7b98492-0ac3-400a-8beb-bae332f344fb","ios":"levelo://app?vid=b7b98492-0ac3-400a-8beb-bae332f344fb"},"vehicle_type_id":"4","last_reported":1680282365,"current_range_meters":3200,"station_id":"ce4bhih2rcd13ifvqfr0","pricing_plan_id":"free"},{"bike_id":"eb1fd160-588c-4027-b8fa-b10cd4a2fcae","system_id":"levelo_inurba_marseille","lat":43.24693,"lon":5.382096,"is_reserved":false,"is_disabled":false,"rental_uris":{"android":"levelo://app?vid=eb1fd160-588c-4027-b8fa-b10cd4a2fcae","ios":"levelo://app?vid=eb1fd160-588c-4027-b8fa-b10cd4a2fcae"},"vehicle_type_id":"4","last_reported":1680282365,"current_range_meters":1600,"station_id":"ce4bhih2rcd13ifvqfr0","pricing_plan_id":"free"},{"bike_id":"071871cd-d2dc-4c70-aefb-2857e9839b01","system_id":"levelo_inurba_marseille","lat":43.24693,"lon":5.382096,"is_reserved":false,"is_disabled":false,"rental_uris":{"android":"levelo://app?vid=071871cd-d2dc-4c70-aefb-2857e9839b01","ios":"levelo://app?vid=071871cd-d2dc-4c70-aefb-2857e9839b01"},"vehicle_type_id":"4","last_reported":1680282365,"current_range_meters":26000,"station_id":"ce4bhih2rcd13ifvqfr0","pricing_plan_id":"free"},{"bike_id":"f07e67d8-1b2b-425c-889a-20b4a8f0a3a7","system_id":"levelo_inurba_marseille","lat":43.2511,"lon":5.40319,"is_reserved":false,"is_disabled":false,"rental_uris":{"android":"levelo://app?vid=f07e67d8-1b2b-425c-889a-20b4a8f0a3a7","ios":"levelo://app?vid=f07e67d8-1b2b-425c-889a-20b4a8f0a3a7"},"vehicle_type_id":"4","last_reported":1680282365,"current_range_meters":21200,"station_id":"ce4bhlh2rcd13ifvqgig","pricing_plan_id":"free"},{"bike_id":"ae0b7269-78a2-4622-a0d4-464eff2b8665","system_id":"levelo_inurba_marseille","lat":43.24693,"lon":5.382096,"is_reserved":false,"is_disabled":false,"rental_uris":{"android":"levelo://app?vid=ae0b7269-78a2-4622-a0d4-464eff2b8665","ios":"levelo://app?vid=ae0b7269-78a2-4622-a0d4-464eff2b8665"},"vehicle_type_id":"4","last_reported":1680282365,"current_range_meters":1600,"station_id":"ce4bhih2rcd13ifvqfr0","pricing_plan_id":"free"},{"bike_id":"98c75fd5-c940-4c34-94ab-366938b361e0","system_id":"levelo_inurba_marseille","lat":43.246467,"lon":5.388984,"is_reserved":false,"is_disabled":false,"rental_uris":{"android":"levelo://app?vid=98c75fd5-c940-4c34-94ab-366938b361e0","ios":"levelo://app?vid=98c75fd5-c940-4c34-94ab-366938b361e0"},"vehicle_type_id":"4","last_reported":1680282365,"current_range_meters":12800,"station_id":"ce4bhg12rcd13ifvqf60","pricing_plan_id":"free"},{"bike_id":"2553e504-d446-41c6-b318-5052bc8255c8","system_id":"levelo_inurba_marseille","lat":43.2855,"lon":5.45623,"is_reserved":false,"is_disabled":false,"rental_uris":{"android":"levelo://app?vid=2553e504-d446-41c6-b318-5052bc8255c8","ios":"levelo://app?vid=2553e504-d446-41c6-b318-5052bc8255c8"},"vehicle_type_id":"4","last_reported":1680282365,"current_range_meters":8400,"station_id":"","pricing_plan_id":"free"},{"bike_id":"879d2598-6798-4291-b661-bb11fecfc4f5","system_id":"levelo_inurba_marseille","lat":43.24109,"lon":5.37704,"is_reserved":false,"is_disabled":false,"rental_uris":{"android":"levelo://app?vid=879d2598-6798-4291-b661-bb11fecfc4f5","ios":"levelo://app?vid=879d2598-6798-4291-b661-bb11fecfc4f5"},"vehicle_type_id":"4","last_reported":1680282365,"current_range_meters":21200,"station_id":"","pricing_plan_id":"free"},{"bike_id":"8dd2cc29-9401-4d0d-a8fb-60a258806b85","system_id":"levelo_inurba_marseille","lat":43.24693,"lon":5.382096,"is_reserved":false,"is_disabled":false,"rental_uris":{"android":"levelo://app?vid=8dd2cc29-9401-4d0d-a8fb-60a258806b85","ios":"levelo://app?vid=8dd2cc29-9401-4d0d-a8fb-60a258806b85"},"vehicle_type_id":"4","last_reported":1680282365,"current_range_meters":3200,"station_id":"ce4bhih2rcd13ifvqfr0","pricing_plan_id":"free"},{"bike_id":"c239e7ee-771d-410f-96ed-080b5363aba7","system_id":"levelo_inurba_marseille","lat":43.240623,"lon":5.377642,"is_reserved":false,"is_disabled":false,"rental_uris":{"android":"levelo://app?vid=c239e7ee-771d-410f-96ed-080b5363aba7","ios":"levelo://app?vid=c239e7ee-771d-410f-96ed-080b5363aba7"},"vehicle_type_id":"4","last_reported":1680282365,"current_range_meters":17200,"station_id":"ce4bhnp2rcd13ifvqgvg","pricing_plan_id":"free"},{"bike_id":"55d09fee-5166-43cb-882d-99cb864a49a0","system_id":"levelo_inurba_marseille","lat":43.240623,"lon":5.377642,"is_reserved":false,"is_disabled":false,"rental_uris":{"android":"levelo://app?vid=55d09fee-5166-43cb-882d-99cb864a49a0","ios":"levelo://app?vid=55d09fee-5166-43cb-882d-99cb864a49a0"},"vehicle_type_id":"4","last_reported":1680282365,"current_range_meters":23200,"station_id":"ce4bhnp2rcd13ifvqgvg","pricing_plan_id":"free"},{"bike_id":"d1cdfa87-a455-4126-a92b-37664bfa9276","system_id":"levelo_inurba_marseille","lat":43.24561,"lon":5.41521,"is_reserved":false,"is_disabled":false,"rental_uris":{"android":"levelo://app?vid=d1cdfa87-a455-4126-a92b-37664bfa9276","ios":"levelo://app?vid=d1cdfa87-a455-4126-a92b-37664bfa9276"},"vehicle_type_id":"4","last_reported":1680282365,"current_range_meters":14400,"station_id":"","pricing_plan_id":"free"},{"bike_id":"7c169ae2-37c2-45b8-a1c6-f60a5fcd578a","system_id":"levelo_inurba_marseille","lat":43.231919,"lon":5.355532,"is_reserved":false,"is_disabled":false,"rental_uris":{"android":"levelo://app?vid=7c169ae2-37c2-45b8-a1c6-f60a5fcd578a","ios":"levelo://app?vid=7c169ae2-37c2-45b8-a1c6-f60a5fcd578a"},"vehicle_type_id":"4","last_reported":1680282365,"current_range_meters":0,"station_id":"ce4bhu92rcd13ifvqi70","pricing_plan_id":"free"},{"bike_id":"88876c42-425a-4bfb-82d4-94b85dd939b5","system_id":"levelo_inurba_marseille","lat":43.231919,"lon":5.355532,"is_reserved":false,"is_disabled":false,"rental_uris":{"android":"levelo://app?vid=88876c42-425a-4bfb-82d4-94b85dd939b5","ios":"levelo://app?vid=88876c42-425a-4bfb-82d4-94b85dd939b5"},"vehicle_type_id":"4","last_reported":1680282365,"current_range_meters":26800,"station_id":"ce4bhu92rcd13ifvqi70","pricing_plan_id":"free"},{"bike_id":"304849be-6771-4ee2-a34d-f22d2728ab26","system_id":"levelo_inurba_marseille","lat":43.231923,"lon":5.355545,"is_reserved":false,"is_disabled":false,"rental_uris":{"android":"levelo://app?vid=304849be-6771-4ee2-a34d-f22d2728ab26","ios":"levelo://app?vid=304849be-6771-4ee2-a34d-f22d2728ab26"},"vehicle_type_id":"4","last_reported":1680282365,"current_range_meters":14800,"station_id":"ce4bhu92rcd13ifvqi70","pricing_plan_id":"free"}]}}