{"last_updated":1744531902,"ttl":60,"version":"2.2","data":{"bikes":[{"bike_id":"7a14f72f-bcc8-41f1-9913-18f06d463497","system_id":"levelo_inurba_marseille","lat":43.31272,"lon":5.4017,"is_reserved":false,"is_disabled":false,"rental_uris":{"android":"levelo://app?vid=7a14f72f-bcc8-41f1-9913-18f06d463497","ios":"levelo://app?vid=7a14f72f-bcc8-41f1-9913-18f06d463497"},"vehicle_type_id":"4","last_reported":1744531902,"current_range_meters":2800,"station_id":"ce4bh092rcd13ifvqd30","pricing_plan_id":"cebpf4jnsgd1na2vs0mg"},{"bike_id":"826c0beb-b859-44fc-9e3b-2569fdc20685","system_id":"levelo_inurba_marseille","lat":43.30362,"lon":5.42495,"is_reserved":false,"is_disabled":false,"rental_uris":{"android":"levelo://app?vid=826c0beb-b859-44fc-9e3b-2569fdc20685","ios":"levelo://app?vid=826c0beb-b859-44fc-9e3b-2569fdc20685"},"vehicle_type_id":"4","last_reported":1744531902,"current_range_meters":2800,"station_id":"ce4bhoh2rcd13ifvqh6g","pricing_plan_id":"cebpf4jnsgd1na2vs0mg"},{"bike_id":"3df6e7c2-41ac-4b05-8cc3-71c81009cfd4","system_id":"levelo_inurba_marseille","lat":43.30308,"lon":5.36905,"is_reserved":false,"is_disabled":false,"rental_uris":{"android":"levelo://app?vid=3df6e7c2-41ac-4b05-8cc3-71c81009cfd4","ios":"levelo://app?vid=3df6e7c2-41ac-4b05-8cc3-71c81009cfd4"},"vehicle_type_id":"4","last_reported":1744531902,"current_range_meters":2800,"station_id":"ce4bgqh2rcd13ifvqc5g","pricing_plan_id":"cebpf4jnsgd1na2vs0mg"},{"bike_id":"b6ff7e66-b821-4f07-a3cf-b9f4abde04e1","system_id":"levelo_inurba_marseille","lat":43.2801,"lon":5.40025,"is_reserved":false,"is_disabled":false,"rental_uris":{"android":"levelo://app?vid=b6ff7e66-b821-4f07-a3cf-b9f4abde04e1","ios":"levelo://app?vid=b6ff7e66-b821-4f07-a3cf-b9f4abde04e1"},"vehicle_type_id":"4","last_reported":1744531902,"current_range_meters":3200,"station_id":"ce4bho92rcd13ifvqh4g","pricing_plan_id":"cebpf4jnsgd1na2vs0mg"},{"bike_id":"7dc6f05c-f257-4d62-b71b-a2b97753d797","system_id":"levelo_inurba_marseille","lat":43.305349,"lon":5.384421,"is_reserved":false,"is_disabled":true,"rental_uris":{"android":"levelo://app?vid=7dc6f05c-f257-4d62-b71b-a2b97753d797","ios":"levelo://app?vid=7dc6f05c-f257-4d62-b71b-a2b97753d797"},"vehicle_type_id":"4","last_reported":1744531902,"current_range_meters":3200,"station_id":"ce4bgg92rcd13ifvqb30","pricing_plan_id":"cebpf4jnsgd1na2vs0mg"},{"bike_id":"94455896-0f19-4fae-bd72-9879f01fcd6e","system_id":"levelo_inurba_marseille","lat":43.29555,"lon":5.42271,"is_reserved":false,"is_disabled":true,"rental_uris":{"android":"levelo://app?vid=94455896-0f19-4fae-bd72-9879f01fcd6e","ios":"levelo://app?vid=94455896-0f19-4fae-bd72-9879f01fcd6e"},"vehicle_type_id":"4","last_reported":1744531902,"current_range_meters":3200,"station_id":"ce4bhph2rcd13ifvqhdg","pricing_plan_id":"cebpf4jnsgd1na2vs0mg"},{"bike_id":"90945a28-00f9-4b3e-905e-ba8b26b2fd54","system_id":"levelo_inurba_marseille","lat":43.26209,"lon":5.3744,"is_reserved":false,"is_disabled":false,"rental_uris":{"android":"levelo://app?vid=90945a28-00f9-4b3e-905e-ba8b26b2fd54","ios":"levelo://app?vid=90945a28-00f9-4b3e-905e-ba8b26b2fd54"},"vehicle_type_id":"4","last_reported":1744531902,"current_range_meters":3200,"station_id":"ce4bhgp2rcd13ifvqfc0","pricing_plan_id":"cebpf4jnsgd1na2vs0mg"},{"bike_id":"f2c9af42-a832-4609-be6a-7a6fa0049083","system_id":"levelo_inurba_marseille","lat":43.26925,"lon":5.3904,"is_reserved":false,"is_disabled":false,"rental_uris":{"android":"levelo://app?vid=f2c9af42-a832-4609-be6a-7a6fa0049083","ios":"levelo://app?vid=f2c9af42-a832-4609-be6a-7a6fa0049083"},"vehicle_type_id":"4","last_reported":1744531902,"current_range_meters":3600,"station_id":"","pricing_plan_id":"cebpf4jnsgd1na2vs0mg"},{"bike_id":"b82143db-149c-4f5d-831d-938a930561b7","system_id":"levelo_inurba_marseille","lat":43.28616,"lon":5.35106,"is_reserved":false,"is_disabled":false,"rental_uris":{"android":"levelo://app?vid=b82143db-149c-4f5d-831d-938a930561b7","ios":"levelo://app?vid=b82143db-149c-4f5d-831d-938a930561b7"},"vehicle_type_id":"4","last_reported":1744531902,"current_range_meters":3600,"station_id":"ce4bhch2rcd13ifvqeug","pricing_plan_id":"cebpf4jnsgd1na2vs0mg"},{"bike_id":"368308c4-6e19-4dd3-9ed2-703ee237c38d","system_id":"levelo_inurba_marseille","lat":43.23944,"lon":5.36631,"is_reserved":false,"is_disabled":false,"rental_uris":{"android":"levelo://app?vid=368308c4-6e19-4dd3-9ed2-703ee237c38d","ios":"levelo://app?vid=368308c4-6e19-4dd3-9ed2-703ee237c38d"},"vehicle_type_id":"4","last_reported":1744531902,"current_range_meters":3600,"station_id":"ce4bhi12rcd13ifvqfp0","pricing_plan_id":"cebpf4jnsgd1na2vs0mg"},{"bike_id":"f96c0c65-7fce-4b6c-8bb2-232128e93959","system_id":"levelo_inurba_marseille","lat":43.30498,"lon":5.393,"is_reserved":false,"is_disabled":false,"rental_uris":{"android":"levelo://app?vid=f96c0c65-7fce-4b6c-8bb2-232128e93959","ios":"levelo://app?vid=f96c0c65-7fce-4b6c-8bb2-232128e93959"},"vehicle_type_id":"4","last_reported":1744531902,"current_range_meters":4000,"station_id":"","pricing_plan_id":"cebpf4jnsgd1na2vs0mg"},{"bike_id":"cc83a7aa-57a1-4769-9137-8531613b4691","system_id":"levelo_inurba_marseille","lat":43.312463,"lon":5.372972,"is_reserved":false,"is_disabled":false,"rental_uris":{"android":"levelo://app?vid=cc83a7aa-57a1-4769-9137-8531613b4691","ios":"levelo://app?vid=cc83a7aa-57a1-4769-9137-8531613b4691"},"vehicle_type_id":"4","last_reported":1744531902,"current_range_meters":4000,"station_id":"","pricing_plan_id":"cebpf4jnsgd1na2vs0mg"},{"bike_id":"36b07fd3-320f-4514-8031-7b755956e488","system_id":"levelo_inurba_marseille","lat":43.30628,"lon":5.40103,"is_reserved":false,"is_disabled":false,"rental_uris":{"android":"levelo://app?vid=36b07fd3-320f-4514-8031-7b755956e488","ios":"levelo://app?vid=36b07fd3-320f-4514-8031-7b755956e488"},"vehicle_type_id":"4","last_reported":1744531902,"current_range_meters":4000,"station_id":"ce4bh112rcd13ifvqda0","pricing_plan_id":"cebpf4jnsgd1na2vs0mg"},{"bike_id":"3f08cc69-711e-4264-b923-68891203ffa4","system_id":"levelo_inurba_marseille","lat":43.32285,"lon":5.38243,"is_reserved":false,"is_disabled":true,"rental_uris":{"android":"levelo://app?vid=3f08cc69-711e-4264-b923-68891203ffa4","ios":"levelo://app?vid=3f08cc69-711e-4264-b923-68891203ffa4"},"vehicle_type_id":"4","last_reported":1744531902,"current_range_meters":4000,"station_id":"ce4bhr12rcd13ifvqhqg","pricing_plan_id":"cebpf4jnsgd1na2vs0mg"},{"bike_id":"ba24cbaa-72bb-4d7f-ba63-3f5baabde8bf","system_id":"levelo_inurba_marseille","lat":43.28288,"lon":5.35064,"is_reserved":false,"is_disabled":false,"rental_uris":{"android":"levelo://app?vid=ba24cbaa-72bb-4d7f-ba63-3f5baabde8bf","ios":"levelo://app?vid=ba24cbaa-72bb-4d7f-ba63-3f5baabde8bf"},"vehicle_type_id":"4","last_reported":1744531902,"current_range_meters":4400,"station_id":"ce4bhbp2rcd13ifvqerg","pricing_plan_id":"cebpf4jnsgd1na2vs0mg"},{"bike_id":"bc7c6bd2-e571-41ff-b83a-78a716352b86","system_id":"levelo_inurba_marseille","lat":43.31104,"lon":5.37762,"is_reserved":false,"is_disabled":false,"rental_uris":{"android":"levelo://app?vid=bc7c6bd2-e571-41ff-b83a-78a716352b86","ios":"levelo://app?vid=bc7c6bd2-e571-41ff-b83a-78a716352b86"},"vehicle_type_id":"4","last_reported":1744531902,"current_range_meters":4400,"station_id":"ce4bgt92rcd13ifvqcg0","pricing_plan_id":"cebpf4jnsgd1na2vs0mg"},{"bike_id":"61087c9c-58a2-45af-89fa-c020f9313355","system_id":"levelo_inurba_marseille","lat":43.21784,"lon":5.34581,"is_reserved":false,"is_disabled":true,"rental_uris":{"android":"levelo://app?vid=61087c9c-58a2-45af-89fa-c020f9313355","ios":"levelo://app?vid=61087c9c-58a2-45af-89fa-c020f9313355"},"vehicle_type_id":"4","last_reported":1744531902,"current_range_meters":4400,"station_id":"","pricing_plan_id":"cebpf4jnsgd1na2vs0mg"},{"bike_id":"e4380e13-6ea1-432c-b547-badeba89c1b3","system_id":"levelo_inurba_marseille","lat":43.28851,"lon":5.39342,"is_reserved":false,"is_disabled":true,"rental_uris":{"android":"levelo://app?vid=e4380e13-6ea1-432c-b547-badeba89c1b3","ios":"levelo://app?vid=e4380e13-6ea1-432c-b547-badeba89c1b3"},"vehicle_type_id":"4","last_reported":1744531902,"current_range_meters":4400,"station_id":"ce4bh2p2rcd13ifvqdi0","pricing_plan_id":"cebpf4jnsgd1na2vs0mg"},{"bike_id":"ad16bf93-0d9a-44a4-9c15-562c7fd0cde4","system_id":"levelo_inurba_marseille","lat":43.25573,"lon":5.38238,"is_reserved":false,"is_disabled":false,"rental_uris":{"android":"levelo://app?vid=ad16bf93-0d9a-44a4-9c15-562c7fd0cde4","ios":"levelo://app?vid=ad16bf93-0d9a-44a4-9c15-562c7fd0cde4"},"vehicle_type_id":"4","last_reported":1744531902,"current_range_meters":4400,"station_id":"ce4bhih2rcd13ifvqfs0","pricing_plan_id":"cebpf4jnsgd1na2vs0mg"},{"bike_id":"4c56221a-0f46-4530-955a-7184a07c8a88","system_id":"levelo_inurba_marseille","lat":43.23196,"lon":5.35557,"is_reserved":false,"is_disabled":true,"rental_uris":{"android":"levelo://app?vid=4c56221a-0f46-4530-955a-7184a07c8a88","ios":"levelo://app?vid=4c56221a-0f46-4530-955a-7184a07c8a88"},"vehicle_type_id":"4","last_reported":1744531902,"current_range_meters":4400,"station_id":"ce4bhu92rcd13ifvqi70","pricing_plan_id":"cebpf4jnsgd1na2vs0mg"},{"bike_id":"dd64b78e-5e6f-40ad-92d7-5ed8a19c86fa","system_id":"levelo_inurba_marseille","lat":43.27954,"lon":5.41076,"is_reserved":false,"is_disabled":false,"rental_uris":{"android":"levelo://app?vid=dd64b78e-5e6f-40ad-92d7-5ed8a19c86fa","ios":"levelo://app?vid=dd64b78e-5e6f-40ad-92d7-5ed8a19c86fa"},"vehicle_type_id":"4","last_reported":1744531902,"current_range_meters":4800,"station_id":"ce4bhnp2rcd13ifvqh0g","pricing_plan_id":"cebpf4jnsgd1na2vs0mg"},{"bike_id":"9b0ae5e8-390f-4f43-a54d-3f6755f85f5e","system_id":"levelo_inurba_marseille","lat":43.26539,"lon":5.39018,"is_reserved":false,"is_disabled":false,"rental_uris":{"android":"levelo://app?vid=9b0ae5e8-390f-4f43-a54d-3f6755f85f5e","ios":"levelo://app?vid=9b0ae5e8-390f-4f43-a54d-3f6755f85f5e"},"vehicle_type_id":"4","last_reported":1744531902,"current_range_meters":5600,"station_id":"ce4bhe12rcd13ifvqf30","pricing_plan_id":"cebpf4jnsgd1na2vs0mg"},{"bike_id":"dd081b68-0a47-41b3-9975-782e5d7a940e","system_id":"levelo_inurba_marseille","lat":43.27491,"lon":5.42496,"is_reserved":false,"is_disabled":false,"rental_uris":{"android":"levelo://app?vid=dd081b68-0a47-41b3-9975-782e5d7a940e","ios":"levelo://app?vid=dd081b68-0a47-41b3-9975-782e5d7a940e"},"vehicle_type_id":"4","last_reported":1744531902,"current_range_meters":5600,"station_id":"ce4bhn92rcd13ifvqgrg","pricing_plan_id":"cebpf4jnsgd1na2vs0mg"},{"bike_id":"61526959-0495-4c82-b747-c427427fef4b","system_id":"levelo_inurba_marseille","lat":43.23156,"lon":5.43704,"is_reserved":false,"is_disabled":false,"rental_uris":{"android":"levelo://app?vid=61526959-0495-4c82-b747-c427427fef4b","ios":"levelo://app?vid=61526959-0495-4c82-b747-c427427fef4b"},"vehicle_type_id":"4","last_reported":1744531902,"current_range_meters":5600,"station_id":"ce4bhmp2rcd13ifvqgog","pricing_plan_id":"cebpf4jnsgd1na2vs0mg"},{"bike_id":"7fc5054b-d89b-428b-969c-570e0c95ca38","system_id":"levelo_inurba_marseille","lat":43.26582,"lon":5.39018,"is_reserved":false,"is_disabled":false,"rental_uris":{"android":"levelo://app?vid=7fc5054b-d89b-428b-969c-570e0c95ca38","ios":"levelo://app?vid=7fc5054b-d89b-428b-969c-570e0c95ca38"},"vehicle_type_id":"4","last_reported":1744531902,"current_range_meters":6000,"station_id":"ce4bhe12rcd13ifvqf30","pricing_plan_id":"cebpf4jnsgd1na2vs0mg"},{"bike_id":"8708dd08-3274-46ab-b322-809752473736","system_id":"levelo_inurba_marseille","lat":43.30328,"lon":5.40445,"is_reserved":false,"is_disabled":false,"rental_uris":{"android":"levelo://app?vid=8708dd08-3274-46ab-b322-809752473736","ios":"levelo://app?vid=8708dd08-3274-46ab-b322-809752473736"},"vehicle_type_id":"4","last_reported":1744531902,"current_range_meters":6000,"station_id":"ce4bh012rcd13ifvqd10","pricing_plan_id":"cebpf4jnsgd1na2vs0mg"},{"bike_id":"a8549609-d3ea-4809-91b2-8c9b727de959","system_id":"levelo_inurba_marseille","lat":43.32354,"lon":5.40587,"is_reserved":false,"is_disabled":false,"rental_uris":{"android":"levelo://app?vid=a8549609-d3ea-4809-91b2-8c9b727de959","ios":"levelo://app?vid=a8549609-d3ea-4809-91b2-8c9b727de959"},"vehicle_type_id":"4","last_reported":1744531902,"current_range_meters":6000,"station_id":"ce4bhq92rcd13ifvqhjg","pricing_plan_id":"cebpf4jnsgd1na2vs0mg"},{"bike_id":"f1e00540-c2d1-4f3b-ba05-711232888e6e","system_id":"levelo_inurba_marseille","lat":43.21765,"lon":5.34611,"is_reserved":false,"is_disabled":true,"rental_uris":{"android":"levelo://app?vid=f1e00540-c2d1-4f3b-ba05-711232888e6e","ios":"levelo://app?vid=f1e00540-c2d1-4f3b-ba05-711232888e6e"},"vehicle_type_id":"4","last_reported":1744531902,"current_range_meters":6000,"station_id":"st_cvj6r9ubvosntc0bgbag","pricing_plan_id":"cebpf4jnsgd1na2vs0mg"},{"bike_id":"46905939-8408-4098-89bd-d37cf841313d","system_id":"levelo_inurba_marseille","lat":43.282696,"lon":5.350668,"is_reserved":false,"is_disabled":false,"rental_uris":{"android":"levelo://app?vid=46905939-8408-4098-89bd-d37cf841313d","ios":"levelo://app?vid=46905939-8408-4098-89bd-d37cf841313d"},"vehicle_type_id":"4","last_reported":1744531902,"current_range_meters":6000,"station_id":"ce4bhbp2rcd13ifvqerg","pricing_plan_id":"cebpf4jnsgd1na2vs0mg"},{"bike_id":"614afa2a-75cd-4215-864e-cc03348de840","system_id":"levelo_inurba_marseille","lat":43.24812,"lon":5.37454,"is_reserved":false,"is_disabled":false,"rental_uris":{"android":"levelo://app?vid=614afa2a-75cd-4215-864e-cc03348de840","ios":"levelo://app?vid=614afa2a-75cd-4215-864e-cc03348de840"},"vehicle_type_id":"4","last_reported":1744531902,"current_range_meters":5600,"station_id":"ce4bhgh2rcd13ifvqfb0","pricing_plan_id":"cebpf4jnsgd1na2vs0mg"},{"bike_id":"8c58f2fa-99e1-41f8-bf90-9c1648b679b1","system_id":"levelo_inurba_marseille","lat":43.273044,"lon":5.414375,"is_reserved":false,"is_disabled":false,"rental_uris":{"android":"levelo://app?vid=8c58f2fa-99e1-41f8-bf90-9c1648b679b1","ios":"levelo://app?vid=8c58f2fa-99e1-41f8-bf90-9c1648b679b1"},"vehicle_type_id":"4","last_reported":1744531902,"current_range_meters":6000,"station_id":"","pricing_plan_id":"cebpf4jnsgd1na2vs0mg"},{"bike_id":"adfb08db-ad3d-4a60-889b-8e3a7bf8e1c1","system_id":"levelo_inurba_marseille","lat":43.23142,"lon":5.43708,"is_reserved":false,"is_disabled":false,"rental_uris":{"android":"levelo://app?vid=adfb08db-ad3d-4a60-889b-8e3a7bf8e1c1","ios":"levelo://app?vid=adfb08db-ad3d-4a60-889b-8e3a7bf8e1c1"},"vehicle_type_id":"4","last_reported":1744531902,"current_range_meters":6000,"station_id":"ce4bhmp2rcd13ifvqgog","pricing_plan_id":"cebpf4jnsgd1na2vs0mg"},{"bike_id":"6955b998-9661-4258-be6b-a95cffb9b0da","system_id":"levelo_inurba_marseille","lat":43.23193,"lon":5.35558,"is_reserved":false,"is_disabled":false,"rental_uris":{"android":"levelo://app?vid=6955b998-9661-4258-be6b-a95cffb9b0da","ios":"levelo://app?vid=6955b998-9661-4258-be6b-a95cffb9b0da"},"vehicle_type_id":"4","last_reported":1744531902,"current_range_meters":6400,"station_id":"ce4bhu92rcd13ifvqi70","pricing_plan_id":"cebpf4jnsgd1na2vs0mg"},{"bike_id":"00673b85-6711-4859-b3bf-30a6d0492894","system_id":"levelo_inurba_marseille","lat":43.25517,"lon":5.37663,"is_reserved":false,"is_disabled":true,"rental_uris":{"android":"levelo://app?vid=00673b85-6711-4859-b3bf-30a6d0492894","ios":"levelo://app?vid=00673b85-6711-4859-b3bf-30a6d0492894"},"vehicle_type_id":"4","last_reported":1744531902,"current_range_meters":6400,"station_id":"ce4bhh12rcd13ifvqff0","pricing_plan_id":"cebpf4jnsgd1na2vs0mg"},{"bike_id":"c3473d21-6de6-4a88-8155-9e560dd0e3ba","system_id":"levelo_inurba_marseille","lat":43.30818,"lon":5.38159,"is_reserved":false,"is_disabled":false,"rental_uris":{"android":"levelo://app?vid=c3473d21-6de6-4a88-8155-9e560dd0e3ba","ios":"levelo://app?vid=c3473d21-6de6-4a88-8155-9e560dd0e3ba"},"vehicle_type_id":"4","last_reported":1744531902,"current_range_meters":6400,"station_id":"ce4bgt12rcd13ifvqce0","pricing_plan_id":"cebpf4jnsgd1na2vs0mg"},{"bike_id":"894db133-1314-46ab-858c-7a96bf454400","system_id":"levelo_inurba_marseille","lat":43.2869,"lon":5.40005,"is_reserved":false,"is_disabled":false,"rental_uris":{"android":"levelo://app?vid=894db133-1314-46ab-858c-7a96bf454400","ios":"levelo://app?vid=894db133-1314-46ab-858c-7a96bf454400"},"vehicle_type_id":"4","last_reported":1744531902,"current_range_meters":6400,"station_id":"ce4bho92rcd13ifvqh3g","pricing_plan_id":"cebpf4jnsgd1na2vs0mg"},{"bike_id":"11a43c94-a38d-41e0-a080-ed73cc7e38ee","system_id":"levelo_inurba_marseille","lat":43.28152,"lon":5.42643,"is_reserved":false,"is_disabled":false,"rental_uris":{"android":"levelo://app?vid=11a43c94-a38d-41e0-a080-ed73cc7e38ee","ios":"levelo://app?vid=11a43c94-a38d-41e0-a080-ed73cc7e38ee"},"vehicle_type_id":"4","last_reported":1744531902,"current_range_meters":6400,"station_id":"ce4bhnh2rcd13ifvqgug","pricing_plan_id":"cebpf4jnsgd1na2vs0mg"},{"bike_id":"e068ae23-58fc-4665-9c9c-3385c29f8aa2","system_id":"levelo_inurba_marseille","lat":43.23169,"lon":5.39998,"is_reserved":false,"is_disabled":false,"rental_uris":{"android":"levelo://app?vid=e068ae23-58fc-4665-9c9c-3385c29f8aa2","ios":"levelo://app?vid=e068ae23-58fc-4665-9c9c-3385c29f8aa2"},"vehicle_type_id":"4","last_reported":1744531902,"current_range_meters":6400,"station_id":"ce4bhn12rcd13ifvqgqg","pricing_plan_id":"cebpf4jnsgd1na2vs0mg"},{"bike_id":"3e13ca99-833e-475e-909b-680863a2f005","system_id":"levelo_inurba_marseille","lat":43.2419,"lon":5.39712,"is_reserved":false,"is_disabled":false,"rental_uris":{"android":"levelo://app?vid=3e13ca99-833e-475e-909b-680863a2f005","ios":"levelo://app?vid=3e13ca99-833e-475e-909b-680863a2f005"},"vehicle_type_id":"4","last_reported":1744531902,"current_range_meters":6400,"station_id":"ce4bhn12rcd13ifvqgpg","pricing_plan_id":"cebpf4jnsgd1na2vs0mg"},{"bike_id":"4cedd733-2587-4eb1-87b3-3ab69e1574bc","system_id":"levelo_inurba_marseille","lat":43.289795,"lon":5.366146,"is_reserved":false,"is_disabled":false,"rental_uris":{"android":"levelo://app?vid=4cedd733-2587-4eb1-87b3-3ab69e1574bc","ios":"levelo://app?vid=4cedd733-2587-4eb1-87b3-3ab69e1574bc"},"vehicle_type_id":"4","last_reported":1744531902,"current_range_meters":6800,"station_id":"","pricing_plan_id":"cebpf4jnsgd1na2vs0mg"},{"bike_id":"fff1a45b-1cf5-40cb-882c-81b30fd76c44","system_id":"levelo_inurba_marseille","lat":43.30762,"lon":5.37663,"is_reserved":false,"is_disabled":false,"rental_uris":{"android":"levelo://app?vid=fff1a45b-1cf5-40cb-882c-81b30fd76c44","ios":"levelo://app?vid=fff1a45b-1cf5-40cb-882c-81b30fd76c44"},"vehicle_type_id":"4","last_reported":1744531902,"current_range_meters":6800,"station_id":"ce4bgv92rcd13ifvqcq0","pricing_plan_id":"cebpf4jnsgd1na2vs0mg"},{"bike_id":"4c893399-b4ed-40ed-a49f-713da320f269","system_id":"levelo_inurba_marseille","lat":43.29861,"lon":5.37841,"is_reserved":false,"is_disabled":false,"rental_uris":{"android":"levelo://app?vid=4c893399-b4ed-40ed-a49f-713da320f269","ios":"levelo://app?vid=4c893399-b4ed-40ed-a49f-713da320f269"},"vehicle_type_id":"4","last_reported":1744531902,"current_range_meters":6800,"station_id":"","pricing_plan_id":"cebpf4jnsgd1na2vs0mg"},{"bike_id":"03c150dd-2e6f-4d93-a813-3885c6574c7f","system_id":"levelo_inurba_marseille","lat":43.30249,"lon":5.40039,"is_reserved":false,"is_disabled":false,"rental_uris":{"android":"levelo://app?vid=03c150dd-2e6f-4d93-a813-3885c6574c7f","ios":"levelo://app?vid=03c150dd-2e6f-4d93-a813-3885c6574c7f"},"vehicle_type_id":"4","last_reported":1744531902,"current_range_meters":6800,"station_id":"ce4bgvh2rcd13ifvqcs0","pricing_plan_id":"cebpf4jnsgd1na2vs0mg"},{"bike_id":"fe9bbe0c-faed-4249-a412-3fc1452e5015","system_id":"levelo_inurba_marseille","lat":43.24647,"lon":5.38933,"is_reserved":false,"is_disabled":false,"rental_uris":{"android":"levelo://app?vid=fe9bbe0c-faed-4249-a412-3fc1452e5015","ios":"levelo://app?vid=fe9bbe0c-faed-4249-a412-3fc1452e5015"},"vehicle_type_id":"4","last_reported":1744531902,"current_range_meters":6800,"station_id":"ce4bhg12rcd13ifvqf60","pricing_plan_id":"cebpf4jnsgd1na2vs0mg"},{"bike_id":"37864421-51e4-4d5e-801c-7ac32e01e722","system_id":"levelo_inurba_marseille","lat":43.312679,"lon":5.378408,"is_reserved":false,"is_disabled":false,"rental_uris":{"android":"levelo://app?vid=37864421-51e4-4d5e-801c-7ac32e01e722","ios":"levelo://app?vid=37864421-51e4-4d5e-801c-7ac32e01e722"},"vehicle_type_id":"4","last_reported":1744531902,"current_range_meters":6800,"station_id":"","pricing_plan_id":"cebpf4jnsgd1na2vs0mg"},{"bike_id":"cfadcc33-5bb8-4f29-9a84-ae98565bb4a2","system_id":"levelo_inurba_marseille","lat":43.240646,"lon":5.378253,"is_reserved":false,"is_disabled":false,"rental_uris":{"android":"levelo://app?vid=cfadcc33-5bb8-4f29-9a84-ae98565bb4a2","ios":"levelo://app?vid=cfadcc33-5bb8-4f29-9a84-ae98565bb4a2"},"vehicle_type_id":"4","last_reported":1744531902,"current_range_meters":7200,"station_id":"ce4bhnp2rcd13ifvqgvg","pricing_plan_id":"cebpf4jnsgd1na2vs0mg"},{"bike_id":"1130922e-9ccc-463b-9207-aadecd794edb","system_id":"levelo_inurba_marseille","lat":43.32005,"lon":5.38162,"is_reserved":false,"is_disabled":true,"rental_uris":{"android":"levelo://app?vid=1130922e-9ccc-463b-9207-aadecd794edb","ios":"levelo://app?vid=1130922e-9ccc-463b-9207-aadecd794edb"},"vehicle_type_id":"4","last_reported":1744531902,"current_range_meters":7200,"station_id":"ce4bhr12rcd13ifvqhpg","pricing_plan_id":"cebpf4jnsgd1na2vs0mg"},{"bike_id":"ef291804-1477-432e-b153-82ea15725418","system_id":"levelo_inurba_marseille","lat":43.33742,"lon":5.37454,"is_reserved":false,"is_disabled":false,"rental_uris":{"android":"levelo://app?vid=ef291804-1477-432e-b153-82ea15725418","ios":"levelo://app?vid=ef291804-1477-432e-b153-82ea15725418"},"vehicle_type_id":"4","last_reported":1744531902,"current_range_meters":7200,"station_id":"","pricing_plan_id":"cebpf4jnsgd1na2vs0mg"},{"bike_id":"620b61f1-23d7-4e76-aa20-50b1e573b2b9","system_id":"levelo_inurba_marseille","lat":43.31521,"lon":5.37271,"is_reserved":false,"is_disabled":false,"rental_uris":{"android":"levelo://app?vid=620b61f1-23d7-4e76-aa20-50b1e573b2b9","ios":"levelo://app?vid=620b61f1-23d7-4e76-aa20-50b1e573b2b9"},"vehicle_type_id":"4","last_reported":1744531902,"current_range_meters":7200,"station_id":"","pricing_plan_id":"cebpf4jnsgd1na2vs0mg"},{"bike_id":"fb3bf63f-cb8b-4e2d-97b5-e2bd30164ab5","system_id":"levelo_inurba_marseille","lat":43.31055,"lon":5.36665,"is_reserved":false,"is_disabled":false,"rental_uris":{"android":"levelo://app?vid=fb3bf63f-cb8b-4e2d-97b5-e2bd30164ab5","ios":"levelo://app?vid=fb3bf63f-cb8b-4e2d-97b5-e2bd30164ab5"},"vehicle_type_id":"4","last_reported":1744531902,"current_range_meters":7200,"station_id":"","pricing_plan_id":"cebpf4jnsgd1na2vs0mg"},{"bike_id":"e643793d-238f-4c32-a599-a7376b883569","system_id":"levelo_inurba_marseille","lat":43.24997,"lon":5.389357,"is_reserved":false,"is_disabled":false,"rental_uris":{"android":"levelo://app?vid=e643793d-238f-4c32-a599-a7376b883569","ios":"levelo://app?vid=e643793d-238f-4c32-a599-a7376b883569"},"vehicle_type_id":"4","last_reported":1744531902,"current_range_meters":8000,"station_id":"ce4bhgp2rcd13ifvqfd0","pricing_plan_id":"cebpf4jnsgd1na2vs0mg"},{"bike_id":"d53356ed-34e7-4ce0-8d94-e073954cdd85","system_id":"levelo_inurba_marseille","lat":43.27071,"lon":5.40306,"is_reserved":false,"is_disabled":true,"rental_uris":{"android":"levelo://app?vid=d53356ed-34e7-4ce0-8d94-e073954cdd85","ios":"levelo://app?vid=d53356ed-34e7-4ce0-8d94-e073954cdd85"},"vehicle_type_id":"4","last_reported":1744531902,"current_range_meters":8000,"station_id":"ce4bhk92rcd13ifvqgc0","pricing_plan_id":"cebpf4jnsgd1na2vs0mg"},{"bike_id":"8207ea29-fd0c-4c7e-a5fa-88a3cf6888d1","system_id":"levelo_inurba_marseille","lat":43.24174,"lon":5.39729,"is_reserved":false,"is_disabled":false,"rental_uris":{"android":"levelo://app?vid=8207ea29-fd0c-4c7e-a5fa-88a3cf6888d1","ios":"levelo://app?vid=8207ea29-fd0c-4c7e-a5fa-88a3cf6888d1"},"vehicle_type_id":"4","last_reported":1744531902,"current_range_meters":8000,"station_id":"ce4bhn12rcd13ifvqgpg","pricing_plan_id":"cebpf4jnsgd1na2vs0mg"},{"bike_id":"c013d600-5e08-48f0-830e-8c965978436b","system_id":"levelo_inurba_marseille","lat":43.30453,"lon":5.38898,"is_reserved":false,"is_disabled":true,"rental_uris":{"android":"levelo://app?vid=c013d600-5e08-48f0-830e-8c965978436b","ios":"levelo://app?vid=c013d600-5e08-48f0-830e-8c965978436b"},"vehicle_type_id":"4","last_reported":1744531902,"current_range_meters":8000,"station_id":"ce4bgk12rcd13ifvqbi0","pricing_plan_id":"cebpf4jnsgd1na2vs0mg"},{"bike_id":"88802da1-90f2-4aff-90a1-c3598e933096","system_id":"levelo_inurba_marseille","lat":43.302799,"lon":5.391644,"is_reserved":false,"is_disabled":false,"rental_uris":{"android":"levelo://app?vid=88802da1-90f2-4aff-90a1-c3598e933096","ios":"levelo://app?vid=88802da1-90f2-4aff-90a1-c3598e933096"},"vehicle_type_id":"4","last_reported":1744531902,"current_range_meters":8000,"station_id":"ce4bgkh2rcd13ifvqbk0","pricing_plan_id":"cebpf4jnsgd1na2vs0mg"},{"bike_id":"fba14dc4-f065-46f4-a67b-b47ee9a5123b","system_id":"levelo_inurba_marseille","lat":43.293,"lon":5.37182,"is_reserved":false,"is_disabled":true,"rental_uris":{"android":"levelo://app?vid=fba14dc4-f065-46f4-a67b-b47ee9a5123b","ios":"levelo://app?vid=fba14dc4-f065-46f4-a67b-b47ee9a5123b"},"vehicle_type_id":"4","last_reported":1744531902,"current_range_meters":8400,"station_id":"ce4bgh92rcd13ifvqb40","pricing_plan_id":"cebpf4jnsgd1na2vs0mg"},{"bike_id":"019576dd-4d5b-449f-bee3-6016e550c1da","system_id":"levelo_inurba_marseille","lat":43.30329,"lon":5.42507,"is_reserved":false,"is_disabled":false,"rental_uris":{"android":"levelo://app?vid=019576dd-4d5b-449f-bee3-6016e550c1da","ios":"levelo://app?vid=019576dd-4d5b-449f-bee3-6016e550c1da"},"vehicle_type_id":"4","last_reported":1744531902,"current_range_meters":8400,"station_id":"","pricing_plan_id":"cebpf4jnsgd1na2vs0mg"},{"bike_id":"28eeaca7-5bf4-4e7a-82d5-1259919cc45d","system_id":"levelo_inurba_marseille","lat":43.28983,"lon":5.37828,"is_reserved":false,"is_disabled":false,"rental_uris":{"android":"levelo://app?vid=28eeaca7-5bf4-4e7a-82d5-1259919cc45d","ios":"levelo://app?vid=28eeaca7-5bf4-4e7a-82d5-1259919cc45d"},"vehicle_type_id":"4","last_reported":1744531902,"current_range_meters":8400,"station_id":"ce4bh9p2rcd13ifvqed0","pricing_plan_id":"cebpf4jnsgd1na2vs0mg"},{"bike_id":"7a16e283-b53b-4b88-854c-640e282c52b2","system_id":"levelo_inurba_marseille","lat":43.336021,"lon":5.410327,"is_reserved":false,"is_disabled":false,"rental_uris":{"android":"levelo://app?vid=7a16e283-b53b-4b88-854c-640e282c52b2","ios":"levelo://app?vid=7a16e283-b53b-4b88-854c-640e282c52b2"},"vehicle_type_id":"4","last_reported":1744531902,"current_range_meters":8400,"station_id":"ce4bhqh2rcd13ifvqhmg","pricing_plan_id":"cebpf4jnsgd1na2vs0mg"},{"bike_id":"86e3fd62-ce53-4f21-93c1-2fb7456de3cf","system_id":"levelo_inurba_marseille","lat":43.23062,"lon":5.35489,"is_reserved":false,"is_disabled":false,"rental_uris":{"android":"levelo://app?vid=86e3fd62-ce53-4f21-93c1-2fb7456de3cf","ios":"levelo://app?vid=86e3fd62-ce53-4f21-93c1-2fb7456de3cf"},"vehicle_type_id":"4","last_reported":1744531902,"current_range_meters":8400,"station_id":"cpo3342slgdg3j2ifvpg","pricing_plan_id":"cebpf4jnsgd1na2vs0mg"},{"bike_id":"cda00ca5-b429-4ad4-8d45-efc9549291c5","system_id":"levelo_inurba_marseille","lat":43.28701,"lon":5.39981,"is_reserved":false,"is_disabled":false,"rental_uris":{"android":"levelo://app?vid=cda00ca5-b429-4ad4-8d45-efc9549291c5","ios":"levelo://app?vid=cda00ca5-b429-4ad4-8d45-efc9549291c5"},"vehicle_type_id":"4","last_reported":1744531902,"current_range_meters":8400,"station_id":"ce4bho92rcd13ifvqh3g","pricing_plan_id":"cebpf4jnsgd1na2vs0mg"},{"bike_id":"9b32ab6f-a44d-4e83-baf1-eb3f5bda95da","system_id":"levelo_inurba_marseille","lat":43.29372,"lon":5.37832,"is_reserved":false,"is_disabled":false,"rental_uris":{"android":"levelo://app?vid=9b32ab6f-a44d-4e83-baf1-eb3f5bda95da","ios":"levelo://app?vid=9b32ab6f-a44d-4e83-baf1-eb3f5bda95da"},"vehicle_type_id":"4","last_reported":1744531902,"current_range_meters":8400,"station_id":"ce4bgjh2rcd13ifvqbf0","pricing_plan_id":"cebpf4jnsgd1na2vs0mg"},{"bike_id":"4a0973b0-92a0-41e8-9b0d-a99e944bafe0","system_id":"levelo_inurba_marseille","lat":43.344836,"lon":5.412846,"is_reserved":false,"is_disabled":false,"rental_uris":{"android":"levelo://app?vid=4a0973b0-92a0-41e8-9b0d-a99e944bafe0","ios":"levelo://app?vid=4a0973b0-92a0-41e8-9b0d-a99e944bafe0"},"vehicle_type_id":"4","last_reported":1744531902,"current_range_meters":8400,"station_id":"","pricing_plan_id":"cebpf4jnsgd1na2vs0mg"},{"bike_id":"211990ef-4669-4091-86ec-137c884b610d","system_id":"levelo_inurba_marseille","lat":43.29288,"lon":5.38451,"is_reserved":false,"is_disabled":true,"rental_uris":{"android":"levelo://app?vid=211990ef-4669-4091-86ec-137c884b610d","ios":"levelo://app?vid=211990ef-4669-4091-86ec-137c884b610d"},"vehicle_type_id":"4","last_reported":1744531902,"current_range_meters":8400,"station_id":"ce4bh692rcd13ifvqea0","pricing_plan_id":"cebpf4jnsgd1na2vs0mg"},{"bike_id":"e67afdfc-9350-498f-8b78-93ca3802c2a4","system_id":"levelo_inurba_marseille","lat":43.29892,"lon":5.38146,"is_reserved":false,"is_disabled":false,"rental_uris":{"android":"levelo://app?vid=e67afdfc-9350-498f-8b78-93ca3802c2a4","ios":"levelo://app?vid=e67afdfc-9350-498f-8b78-93ca3802c2a4"},"vehicle_type_id":"4","last_reported":1744531902,"current_range_meters":8400,"station_id":"ce4bgj12rcd13ifvqbc0","pricing_plan_id":"cebpf4jnsgd1na2vs0mg"},{"bike_id":"321918c8-a023-4277-b9ad-d6ce73d59c41","system_id":"levelo_inurba_marseille","lat":43.28439,"lon":5.35899,"is_reserved":false,"is_disabled":false,"rental_uris":{"android":"levelo://app?vid=321918c8-a023-4277-b9ad-d6ce73d59c41","ios":"levelo://app?vid=321918c8-a023-4277-b9ad-d6ce73d59c41"},"vehicle_type_id":"4","last_reported":1744531902,"current_range_meters":8400,"station_id":"ce4bhah2rcd13ifvqei0","pricing_plan_id":"cebpf4jnsgd1na2vs0mg"},{"bike_id":"ec8be3ba-966d-4f71-bd9f-1e7f316362f5","system_id":"levelo_inurba_marseille","lat":43.33019,"lon":5.43865,"is_reserved":false,"is_disabled":false,"rental_uris":{"android":"levelo://app?vid=ec8be3ba-966d-4f71-bd9f-1e7f316362f5","ios":"levelo://app?vid=ec8be3ba-966d-4f71-bd9f-1e7f316362f5"},"vehicle_type_id":"4","last_reported":1744531902,"current_range_meters":8400,"station_id":"","pricing_plan_id":"cebpf4jnsgd1na2vs0mg"},{"bike_id":"12fd078a-9327-40d2-9383-059dfc0f3a24","system_id":"levelo_inurba_marseille","lat":43.31327,"lon":5.39699,"is_reserved":false,"is_disabled":false,"rental_uris":{"android":"levelo://app?vid=12fd078a-9327-40d2-9383-059dfc0f3a24","ios":"levelo://app?vid=12fd078a-9327-40d2-9383-059dfc0f3a24"},"vehicle_type_id":"4","last_reported":1744531902,"current_range_meters":8800,"station_id":"ce4bgvp2rcd13ifvqcu0","pricing_plan_id":"cebpf4jnsgd1na2vs0mg"},{"bike_id":"d8f603cd-3b83-4148-bab8-3a185ad2a59f","system_id":"levelo_inurba_marseille","lat":43.32416,"lon":5.3913,"is_reserved":false,"is_disabled":false,"rental_uris":{"android":"levelo://app?vid=d8f603cd-3b83-4148-bab8-3a185ad2a59f","ios":"levelo://app?vid=d8f603cd-3b83-4148-bab8-3a185ad2a59f"},"vehicle_type_id":"4","last_reported":1744531902,"current_range_meters":8800,"station_id":"","pricing_plan_id":"cebpf4jnsgd1na2vs0mg"},{"bike_id":"8d7af1b9-8e4e-438e-a4d9-249701554749","system_id":"levelo_inurba_marseille","lat":43.31307,"lon":5.39739,"is_reserved":false,"is_disabled":false,"rental_uris":{"android":"levelo://app?vid=8d7af1b9-8e4e-438e-a4d9-249701554749","ios":"levelo://app?vid=8d7af1b9-8e4e-438e-a4d9-249701554749"},"vehicle_type_id":"4","last_reported":1744531902,"current_range_meters":8800,"station_id":"","pricing_plan_id":"cebpf4jnsgd1na2vs0mg"},{"bike_id":"f7d1eee0-1715-419d-beac-1b98ec9e62ed","system_id":"levelo_inurba_marseille","lat":43.31002,"lon":5.39071,"is_reserved":false,"is_disabled":true,"rental_uris":{"android":"levelo://app?vid=f7d1eee0-1715-419d-beac-1b98ec9e62ed","ios":"levelo://app?vid=f7d1eee0-1715-419d-beac-1b98ec9e62ed"},"vehicle_type_id":"4","last_reported":1744531902,"current_range_meters":8800,"station_id":"","pricing_plan_id":"cebpf4jnsgd1na2vs0mg"},{"bike_id":"2d1ead79-f201-4cec-a76d-238b76cb4dcb","system_id":"levelo_inurba_marseille","lat":43.30314,"lon":5.40443,"is_reserved":false,"is_disabled":false,"rental_uris":{"android":"levelo://app?vid=2d1ead79-f201-4cec-a76d-238b76cb4dcb","ios":"levelo://app?vid=2d1ead79-f201-4cec-a76d-238b76cb4dcb"},"vehicle_type_id":"4","last_reported":1744531902,"current_range_meters":8800,"station_id":"ce4bh012rcd13ifvqd10","pricing_plan_id":"cebpf4jnsgd1na2vs0mg"},{"bike_id":"3a8eb72c-53ad-4f36-8afb-69614fb363cd","system_id":"levelo_inurba_marseille","lat":43.28442,"lon":5.35897,"is_reserved":false,"is_disabled":false,"rental_uris":{"android":"levelo://app?vid=3a8eb72c-53ad-4f36-8afb-69614fb363cd","ios":"levelo://app?vid=3a8eb72c-53ad-4f36-8afb-69614fb363cd"},"vehicle_type_id":"4","last_reported":1744531902,"current_range_meters":8800,"station_id":"ce4bhah2rcd13ifvqei0","pricing_plan_id":"cebpf4jnsgd1na2vs0mg"},{"bike_id":"a07ec593-602c-4b1b-8a91-69ccfeb8a222","system_id":"levelo_inurba_marseille","lat":43.29623,"lon":5.40602,"is_reserved":false,"is_disabled":false,"rental_uris":{"android":"levelo://app?vid=a07ec593-602c-4b1b-8a91-69ccfeb8a222","ios":"levelo://app?vid=a07ec593-602c-4b1b-8a91-69ccfeb8a222"},"vehicle_type_id":"4","last_reported":1744531902,"current_range_meters":8800,"station_id":"ce4bh0h2rcd13ifvqd60","pricing_plan_id":"cebpf4jnsgd1na2vs0mg"},{"bike_id":"97c5290c-6dcd-4f81-953a-f5953018fa5b","system_id":"levelo_inurba_marseille","lat":43.31092,"lon":5.37543,"is_reserved":false,"is_disabled":false,"rental_uris":{"android":"levelo://app?vid=97c5290c-6dcd-4f81-953a-f5953018fa5b","ios":"levelo://app?vid=97c5290c-6dcd-4f81-953a-f5953018fa5b"},"vehicle_type_id":"4","last_reported":1744531902,"current_range_meters":8800,"station_id":"","pricing_plan_id":"cebpf4jnsgd1na2vs0mg"},{"bike_id":"12995a58-d943-4084-bd4e-dfca89bd59c0","system_id":"levelo_inurba_marseille","lat":43.323311,"lon":5.406163,"is_reserved":false,"is_disabled":false,"rental_uris":{"android":"levelo://app?vid=12995a58-d943-4084-bd4e-dfca89bd59c0","ios":"levelo://app?vid=12995a58-d943-4084-bd4e-dfca89bd59c0"},"vehicle_type_id":"4","last_reported":1744531902,"current_range_meters":8800,"station_id":"ce4bhq92rcd13ifvqhjg","pricing_plan_id":"cebpf4jnsgd1na2vs0mg"},{"bike_id":"94153f5e-7b0b-4b1a-87eb-86b9257d88a7","system_id":"levelo_inurba_marseille","lat":43.29282,"lon":5.36841,"is_reserved":false,"is_disabled":false,"rental_uris":{"android":"levelo://app?vid=94153f5e-7b0b-4b1a-87eb-86b9257d88a7","ios":"levelo://app?vid=94153f5e-7b0b-4b1a-87eb-86b9257d88a7"},"vehicle_type_id":"4","last_reported":1744531902,"current_range_meters":8800,"station_id":"ce4bhbp2rcd13ifvqesg","pricing_plan_id":"cebpf4jnsgd1na2vs0mg"},{"bike_id":"c1888c01-968b-4041-97df-b7303b3635f6","system_id":"levelo_inurba_marseille","lat":43.31103,"lon":5.42432,"is_reserved":false,"is_disabled":false,"rental_uris":{"android":"levelo://app?vid=c1888c01-968b-4041-97df-b7303b3635f6","ios":"levelo://app?vid=c1888c01-968b-4041-97df-b7303b3635f6"},"vehicle_type_id":"4","last_reported":1744531902,"current_range_meters":8800,"station_id":"ce4bhp92rcd13ifvqhag","pricing_plan_id":"cebpf4jnsgd1na2vs0mg"},{"bike_id":"0e7bf4ae-5aed-4055-a1f8-96debbb9847e","system_id":"levelo_inurba_marseille","lat":43.241701,"lon":5.363976,"is_reserved":false,"is_disabled":false,"rental_uris":{"android":"levelo://app?vid=0e7bf4ae-5aed-4055-a1f8-96debbb9847e","ios":"levelo://app?vid=0e7bf4ae-5aed-4055-a1f8-96debbb9847e"},"vehicle_type_id":"4","last_reported":1744531902,"current_range_meters":8800,"station_id":"cpo36qri1sfpv3e86is0","pricing_plan_id":"cebpf4jnsgd1na2vs0mg"},{"bike_id":"8609ec5b-db31-4682-89f6-95794d251c5e","system_id":"levelo_inurba_marseille","lat":43.231533,"lon":5.437181,"is_reserved":false,"is_disabled":false,"rental_uris":{"android":"levelo://app?vid=8609ec5b-db31-4682-89f6-95794d251c5e","ios":"levelo://app?vid=8609ec5b-db31-4682-89f6-95794d251c5e"},"vehicle_type_id":"4","last_reported":1744531902,"current_range_meters":8800,"station_id":"ce4bhmp2rcd13ifvqgog","pricing_plan_id":"cebpf4jnsgd1na2vs0mg"},{"bike_id":"25965b25-f0de-41db-ac4c-4f5e82c417f4","system_id":"levelo_inurba_marseille","lat":43.306121,"lon":5.372173,"is_reserved":false,"is_disabled":false,"rental_uris":{"android":"levelo://app?vid=25965b25-f0de-41db-ac4c-4f5e82c417f4","ios":"levelo://app?vid=25965b25-f0de-41db-ac4c-4f5e82c417f4"},"vehicle_type_id":"4","last_reported":1744531902,"current_range_meters":8800,"station_id":"ce4bgqh2rcd13ifvqc4g","pricing_plan_id":"cebpf4jnsgd1na2vs0mg"},{"bike_id":"5b77a833-8185-45c2-9fe3-07eb40df54ca","system_id":"levelo_inurba_marseille","lat":43.33995,"lon":5.38057,"is_reserved":false,"is_disabled":false,"rental_uris":{"android":"levelo://app?vid=5b77a833-8185-45c2-9fe3-07eb40df54ca","ios":"levelo://app?vid=5b77a833-8185-45c2-9fe3-07eb40df54ca"},"vehicle_type_id":"4","last_reported":1744531902,"current_range_meters":8800,"station_id":"","pricing_plan_id":"cebpf4jnsgd1na2vs0mg"},{"bike_id":"78ae55a1-f7e2-42f4-a199-9949c75ff67c","system_id":"levelo_inurba_marseille","lat":43.28509,"lon":5.38539,"is_reserved":false,"is_disabled":false,"rental_uris":{"android":"levelo://app?vid=78ae55a1-f7e2-42f4-a199-9949c75ff67c","ios":"levelo://app?vid=78ae55a1-f7e2-42f4-a199-9949c75ff67c"},"vehicle_type_id":"4","last_reported":1744531902,"current_range_meters":9200,"station_id":"ce4bh8p2rcd13ifvqeb0","pricing_plan_id":"cebpf4jnsgd1na2vs0mg"},{"bike_id":"7a3b5e9c-803a-43cc-a38c-adf2f32ded5b","system_id":"levelo_inurba_marseille","lat":43.26206,"lon":5.37923,"is_reserved":false,"is_disabled":false,"rental_uris":{"android":"levelo://app?vid=7a3b5e9c-803a-43cc-a38c-adf2f32ded5b","ios":"levelo://app?vid=7a3b5e9c-803a-43cc-a38c-adf2f32ded5b"},"vehicle_type_id":"4","last_reported":1744531902,"current_range_meters":9200,"station_id":"ce4bhjp2rcd13ifvqg90","pricing_plan_id":"cebpf4jnsgd1na2vs0mg"},{"bike_id":"4f38e127-be9f-468e-8871-e9cd4f365dca","system_id":"levelo_inurba_marseille","lat":43.246948,"lon":5.411728,"is_reserved":false,"is_disabled":false,"rental_uris":{"android":"levelo://app?vid=4f38e127-be9f-468e-8871-e9cd4f365dca","ios":"levelo://app?vid=4f38e127-be9f-468e-8871-e9cd4f365dca"},"vehicle_type_id":"4","last_reported":1744531902,"current_range_meters":9200,"station_id":"","pricing_plan_id":"cebpf4jnsgd1na2vs0mg"},{"bike_id":"8dd2889d-38c9-467e-b08f-304dd5a8d060","system_id":"levelo_inurba_marseille","lat":43.28702,"lon":5.37385,"is_reserved":false,"is_disabled":false,"rental_uris":{"android":"levelo://app?vid=8dd2889d-38c9-467e-b08f-304dd5a8d060","ios":"levelo://app?vid=8dd2889d-38c9-467e-b08f-304dd5a8d060"},"vehicle_type_id":"4","last_reported":1744531902,"current_range_meters":8800,"station_id":"ce4bh3p2rcd13ifvqdq0","pricing_plan_id":"cebpf4jnsgd1na2vs0mg"},{"bike_id":"493cde9e-7859-4c26-a2e6-f744ee5d8553","system_id":"levelo_inurba_marseille","lat":43.31815,"lon":5.36809,"is_reserved":false,"is_disabled":false,"rental_uris":{"android":"levelo://app?vid=493cde9e-7859-4c26-a2e6-f744ee5d8553","ios":"levelo://app?vid=493cde9e-7859-4c26-a2e6-f744ee5d8553"},"vehicle_type_id":"4","last_reported":1744531902,"current_range_meters":9200,"station_id":"","pricing_plan_id":"cebpf4jnsgd1na2vs0mg"},{"bike_id":"d3f929ac-f8b8-4200-a9a3-3b8c9249ebce","system_id":"levelo_inurba_marseille","lat":43.279439,"lon":5.410467,"is_reserved":false,"is_disabled":false,"rental_uris":{"android":"levelo://app?vid=d3f929ac-f8b8-4200-a9a3-3b8c9249ebce","ios":"levelo://app?vid=d3f929ac-f8b8-4200-a9a3-3b8c9249ebce"},"vehicle_type_id":"4","last_reported":1744531902,"current_range_meters":9200,"station_id":"ce4bhnp2rcd13ifvqh0g","pricing_plan_id":"cebpf4jnsgd1na2vs0mg"},{"bike_id":"a2ff1fd3-15da-4d5f-b61b-e4b6df7fc149","system_id":"levelo_inurba_marseille","lat":43.30651,"lon":5.40078,"is_reserved":false,"is_disabled":false,"rental_uris":{"android":"levelo://app?vid=a2ff1fd3-15da-4d5f-b61b-e4b6df7fc149","ios":"levelo://app?vid=a2ff1fd3-15da-4d5f-b61b-e4b6df7fc149"},"vehicle_type_id":"4","last_reported":1744531902,"current_range_meters":9200,"station_id":"ce4bh112rcd13ifvqda0","pricing_plan_id":"cebpf4jnsgd1na2vs0mg"},{"bike_id":"0e28dec3-f76d-48a9-b282-944b4e9f06dd","system_id":"levelo_inurba_marseille","lat":43.24806,"lon":5.37456,"is_reserved":false,"is_disabled":false,"rental_uris":{"android":"levelo://app?vid=0e28dec3-f76d-48a9-b282-944b4e9f06dd","ios":"levelo://app?vid=0e28dec3-f76d-48a9-b282-944b4e9f06dd"},"vehicle_type_id":"4","last_reported":1744531902,"current_range_meters":9600,"station_id":"ce4bhgh2rcd13ifvqfb0","pricing_plan_id":"cebpf4jnsgd1na2vs0mg"},{"bike_id":"5c05218a-2f8c-4ccb-969a-803820ad166e","system_id":"levelo_inurba_marseille","lat":43.31893,"lon":5.40731,"is_reserved":false,"is_disabled":false,"rental_uris":{"android":"levelo://app?vid=5c05218a-2f8c-4ccb-969a-803820ad166e","ios":"levelo://app?vid=5c05218a-2f8c-4ccb-969a-803820ad166e"},"vehicle_type_id":"4","last_reported":1744531902,"current_range_meters":9600,"station_id":"ce4bhq12rcd13ifvqhig","pricing_plan_id":"cebpf4jnsgd1na2vs0mg"},{"bike_id":"2f5bc015-0a98-4a0d-a50f-f7181e1d6abe","system_id":"levelo_inurba_marseille","lat":43.23457,"lon":5.41248,"is_reserved":false,"is_disabled":false,"rental_uris":{"android":"levelo://app?vid=2f5bc015-0a98-4a0d-a50f-f7181e1d6abe","ios":"levelo://app?vid=2f5bc015-0a98-4a0d-a50f-f7181e1d6abe"},"vehicle_type_id":"4","last_reported":1744531902,"current_range_meters":9600,"station_id":"","pricing_plan_id":"cebpf4jnsgd1na2vs0mg"},{"bike_id":"1bdd6146-09e5-4301-9c8a-af9980521802","system_id":"levelo_inurba_marseille","lat":43.287048,"lon":5.399987,"is_reserved":false,"is_disabled":false,"rental_uris":{"android":"levelo://app?vid=1bdd6146-09e5-4301-9c8a-af9980521802","ios":"levelo://app?vid=1bdd6146-09e5-4301-9c8a-af9980521802"},"vehicle_type_id":"4","last_reported":1744531902,"current_range_meters":9600,"station_id":"ce4bho92rcd13ifvqh3g","pricing_plan_id":"cebpf4jnsgd1na2vs0mg"},{"bike_id":"fb501f50-392f-4559-8563-4e861a0fef86","system_id":"levelo_inurba_marseille","lat":43.301543,"lon":5.380753,"is_reserved":false,"is_disabled":false,"rental_uris":{"android":"levelo://app?vid=fb501f50-392f-4559-8563-4e861a0fef86","ios":"levelo://app?vid=fb501f50-392f-4559-8563-4e861a0fef86"},"vehicle_type_id":"4","last_reported":1744531902,"current_range_meters":9600,"station_id":"ce4bgjp2rcd13ifvqbh0","pricing_plan_id":"cebpf4jnsgd1na2vs0mg"},{"bike_id":"30cc8b33-f5d2-402b-bc22-73b6e88b3714","system_id":"levelo_inurba_marseille","lat":43.24671,"lon":5.3816,"is_reserved":false,"is_disabled":false,"rental_uris":{"android":"levelo://app?vid=30cc8b33-f5d2-402b-bc22-73b6e88b3714","ios":"levelo://app?vid=30cc8b33-f5d2-402b-bc22-73b6e88b3714"},"vehicle_type_id":"4","last_reported":1744531902,"current_range_meters":9600,"station_id":"ce4bhih2rcd13ifvqfr0","pricing_plan_id":"cebpf4jnsgd1na2vs0mg"},{"bike_id":"0a050c7a-f0f5-47ba-9b87-b807d64924bd","system_id":"levelo_inurba_marseille","lat":43.26804,"lon":5.40259,"is_reserved":false,"is_disabled":false,"rental_uris":{"android":"levelo://app?vid=0a050c7a-f0f5-47ba-9b87-b807d64924bd","ios":"levelo://app?vid=0a050c7a-f0f5-47ba-9b87-b807d64924bd"},"vehicle_type_id":"4","last_reported":1744531902,"current_range_meters":10000,"station_id":"ce501612rcd8frsf0b60","pricing_plan_id":"cebpf4jnsgd1na2vs0mg"},{"bike_id":"76450c2c-888f-4d08-a5c0-d825237615aa","system_id":"levelo_inurba_marseille","lat":43.27078,"lon":5.42279,"is_reserved":false,"is_disabled":false,"rental_uris":{"android":"levelo://app?vid=76450c2c-888f-4d08-a5c0-d825237615aa","ios":"levelo://app?vid=76450c2c-888f-4d08-a5c0-d825237615aa"},"vehicle_type_id":"4","last_reported":1744531902,"current_range_meters":10000,"station_id":"ce4bhk92rcd13ifvqgb0","pricing_plan_id":"cebpf4jnsgd1na2vs0mg"},{"bike_id":"cbe38776-6e0f-4adb-854c-25e7db7e42d0","system_id":"levelo_inurba_marseille","lat":43.24088,"lon":5.37754,"is_reserved":false,"is_disabled":false,"rental_uris":{"android":"levelo://app?vid=cbe38776-6e0f-4adb-854c-25e7db7e42d0","ios":"levelo://app?vid=cbe38776-6e0f-4adb-854c-25e7db7e42d0"},"vehicle_type_id":"4","last_reported":1744531902,"current_range_meters":10000,"station_id":"ce4bhnp2rcd13ifvqgvg","pricing_plan_id":"cebpf4jnsgd1na2vs0mg"},{"bike_id":"f7843f46-58aa-4cf6-a1d0-1b94b16f71c2","system_id":"levelo_inurba_marseille","lat":43.29892,"lon":5.39662,"is_reserved":false,"is_disabled":false,"rental_uris":{"android":"levelo://app?vid=f7843f46-58aa-4cf6-a1d0-1b94b16f71c2","ios":"levelo://app?vid=f7843f46-58aa-4cf6-a1d0-1b94b16f71c2"},"vehicle_type_id":"4","last_reported":1744531902,"current_range_meters":10000,"station_id":"","pricing_plan_id":"cebpf4jnsgd1na2vs0mg"},{"bike_id":"6e2ac28e-dfb7-46b8-8016-b7ae92b2a4f0","system_id":"levelo_inurba_marseille","lat":43.27994,"lon":5.40022,"is_reserved":false,"is_disabled":false,"rental_uris":{"android":"levelo://app?vid=6e2ac28e-dfb7-46b8-8016-b7ae92b2a4f0","ios":"levelo://app?vid=6e2ac28e-dfb7-46b8-8016-b7ae92b2a4f0"},"vehicle_type_id":"4","last_reported":1744531902,"current_range_meters":10000,"station_id":"ce4bho92rcd13ifvqh4g","pricing_plan_id":"cebpf4jnsgd1na2vs0mg"},{"bike_id":"b7e965ff-4854-44fc-8e2a-103893462049","system_id":"levelo_inurba_marseille","lat":43.337444,"lon":5.374475,"is_reserved":false,"is_disabled":true,"rental_uris":{"android":"levelo://app?vid=b7e965ff-4854-44fc-8e2a-103893462049","ios":"levelo://app?vid=b7e965ff-4854-44fc-8e2a-103893462049"},"vehicle_type_id":"4","last_reported":1744531902,"current_range_meters":10000,"station_id":"","pricing_plan_id":"cebpf4jnsgd1na2vs0mg"},{"bike_id":"59218caf-4d91-41fa-a37e-bf7c3bc19c6a","system_id":"levelo_inurba_marseille","lat":43.28612,"lon":5.35107,"is_reserved":false,"is_disabled":false,"rental_uris":{"android":"levelo://app?vid=59218caf-4d91-41fa-a37e-bf7c3bc19c6a","ios":"levelo://app?vid=59218caf-4d91-41fa-a37e-bf7c3bc19c6a"},"vehicle_type_id":"4","last_reported":1744531902,"current_range_meters":10000,"station_id":"ce4bhch2rcd13ifvqeug","pricing_plan_id":"cebpf4jnsgd1na2vs0mg"},{"bike_id":"66071f80-03b6-4959-a0a8-9f96907642a1","system_id":"levelo_inurba_marseille","lat":43.27424,"lon":5.39409,"is_reserved":false,"is_disabled":false,"rental_uris":{"android":"levelo://app?vid=66071f80-03b6-4959-a0a8-9f96907642a1","ios":"levelo://app?vid=66071f80-03b6-4959-a0a8-9f96907642a1"},"vehicle_type_id":"4","last_reported":1744531902,"current_range_meters":10000,"station_id":"ce4bhdp2rcd13ifvqf20","pricing_plan_id":"cebpf4jnsgd1na2vs0mg"},{"bike_id":"72c6aab6-3a44-430e-a84d-843d2a93e616","system_id":"levelo_inurba_marseille","lat":43.21211,"lon":5.35081,"is_reserved":false,"is_disabled":true,"rental_uris":{"android":"levelo://app?vid=72c6aab6-3a44-430e-a84d-843d2a93e616","ios":"levelo://app?vid=72c6aab6-3a44-430e-a84d-843d2a93e616"},"vehicle_type_id":"4","last_reported":1744531902,"current_range_meters":10800,"station_id":"st_cvj6sg6p6f1abm77japg","pricing_plan_id":"cebpf4jnsgd1na2vs0mg"},{"bike_id":"f7cd819f-b752-47cc-848d-ff43c669ccb8","system_id":"levelo_inurba_marseille","lat":43.309877,"lon":5.417239,"is_reserved":false,"is_disabled":false,"rental_uris":{"android":"levelo://app?vid=f7cd819f-b752-47cc-848d-ff43c669ccb8","ios":"levelo://app?vid=f7cd819f-b752-47cc-848d-ff43c669ccb8"},"vehicle_type_id":"4","last_reported":1744531902,"current_range_meters":10800,"station_id":"","pricing_plan_id":"cebpf4jnsgd1na2vs0mg"},{"bike_id":"0c30a5d7-82b9-4bb2-9032-224893c69d2f","system_id":"levelo_inurba_marseille","lat":43.26454,"lon":5.39598,"is_reserved":false,"is_disabled":true,"rental_uris":{"android":"levelo://app?vid=0c30a5d7-82b9-4bb2-9032-224893c69d2f","ios":"levelo://app?vid=0c30a5d7-82b9-4bb2-9032-224893c69d2f"},"vehicle_type_id":"4","last_reported":1744531902,"current_range_meters":10800,"station_id":"ce4bhi12rcd13ifvqfq0","pricing_plan_id":"cebpf4jnsgd1na2vs0mg"},{"bike_id":"91fffdcd-2fa7-4f34-b242-95e7e93ac05b","system_id":"levelo_inurba_marseille","lat":43.26301,"lon":5.39765,"is_reserved":false,"is_disabled":false,"rental_uris":{"android":"levelo://app?vid=91fffdcd-2fa7-4f34-b242-95e7e93ac05b","ios":"levelo://app?vid=91fffdcd-2fa7-4f34-b242-95e7e93ac05b"},"vehicle_type_id":"4","last_reported":1744531902,"current_range_meters":10800,"station_id":"","pricing_plan_id":"cebpf4jnsgd1na2vs0mg"},{"bike_id":"e6f75c56-47a8-4c02-a40f-6288b5c187f6","system_id":"levelo_inurba_marseille","lat":43.26062,"lon":5.39396,"is_reserved":false,"is_disabled":false,"rental_uris":{"android":"levelo://app?vid=e6f75c56-47a8-4c02-a40f-6288b5c187f6","ios":"levelo://app?vid=e6f75c56-47a8-4c02-a40f-6288b5c187f6"},"vehicle_type_id":"4","last_reported":1744531902,"current_range_meters":10800,"station_id":"ce4bhh92rcd13ifvqfj0","pricing_plan_id":"cebpf4jnsgd1na2vs0mg"},{"bike_id":"e0e59bfb-5088-41a2-835c-398ab715e8d6","system_id":"levelo_inurba_marseille","lat":43.24203,"lon":5.39711,"is_reserved":false,"is_disabled":false,"rental_uris":{"android":"levelo://app?vid=e0e59bfb-5088-41a2-835c-398ab715e8d6","ios":"levelo://app?vid=e0e59bfb-5088-41a2-835c-398ab715e8d6"},"vehicle_type_id":"4","last_reported":1744531902,"current_range_meters":10800,"station_id":"ce4bhn12rcd13ifvqgpg","pricing_plan_id":"cebpf4jnsgd1na2vs0mg"},{"bike_id":"8043ed93-c0e0-4b20-a22a-1ce703744524","system_id":"levelo_inurba_marseille","lat":43.289432,"lon":5.366318,"is_reserved":false,"is_disabled":true,"rental_uris":{"android":"levelo://app?vid=8043ed93-c0e0-4b20-a22a-1ce703744524","ios":"levelo://app?vid=8043ed93-c0e0-4b20-a22a-1ce703744524"},"vehicle_type_id":"4","last_reported":1744531902,"current_range_meters":10800,"station_id":"ce4bhap2rcd13ifvqek0","pricing_plan_id":"cebpf4jnsgd1na2vs0mg"},{"bike_id":"c14a3d0e-03f7-430a-80a8-18644645ea89","system_id":"levelo_inurba_marseille","lat":43.32338,"lon":5.40643,"is_reserved":false,"is_disabled":false,"rental_uris":{"android":"levelo://app?vid=c14a3d0e-03f7-430a-80a8-18644645ea89","ios":"levelo://app?vid=c14a3d0e-03f7-430a-80a8-18644645ea89"},"vehicle_type_id":"4","last_reported":1744531902,"current_range_meters":10800,"station_id":"ce4bhq92rcd13ifvqhjg","pricing_plan_id":"cebpf4jnsgd1na2vs0mg"},{"bike_id":"e48f952f-c6be-4ef7-9295-13bfba252544","system_id":"levelo_inurba_marseille","lat":43.30926,"lon":5.40154,"is_reserved":false,"is_disabled":false,"rental_uris":{"android":"levelo://app?vid=e48f952f-c6be-4ef7-9295-13bfba252544","ios":"levelo://app?vid=e48f952f-c6be-4ef7-9295-13bfba252544"},"vehicle_type_id":"4","last_reported":1744531902,"current_range_meters":11200,"station_id":"ce4bgvp2rcd13ifvqct0","pricing_plan_id":"cebpf4jnsgd1na2vs0mg"},{"bike_id":"82d38bd3-c046-4f55-aec8-4eb686f05e29","system_id":"levelo_inurba_marseille","lat":43.22933,"lon":5.35372,"is_reserved":false,"is_disabled":true,"rental_uris":{"android":"levelo://app?vid=82d38bd3-c046-4f55-aec8-4eb686f05e29","ios":"levelo://app?vid=82d38bd3-c046-4f55-aec8-4eb686f05e29"},"vehicle_type_id":"4","last_reported":1744531902,"current_range_meters":11200,"station_id":"cpo3532slgdg3j2ikp40","pricing_plan_id":"cebpf4jnsgd1na2vs0mg"},{"bike_id":"c21b93f5-7db2-4b47-9873-cc836a08f1d9","system_id":"levelo_inurba_marseille","lat":43.29443,"lon":5.39741,"is_reserved":false,"is_disabled":false,"rental_uris":{"android":"levelo://app?vid=c21b93f5-7db2-4b47-9873-cc836a08f1d9","ios":"levelo://app?vid=c21b93f5-7db2-4b47-9873-cc836a08f1d9"},"vehicle_type_id":"4","last_reported":1744531902,"current_range_meters":11200,"station_id":"ce4bh3h2rcd13ifvqdo0","pricing_plan_id":"cebpf4jnsgd1na2vs0mg"},{"bike_id":"efd328ca-f8bf-4550-bd94-c2fd75978f3c","system_id":"levelo_inurba_marseille","lat":43.33085,"lon":5.38076,"is_reserved":false,"is_disabled":false,"rental_uris":{"android":"levelo://app?vid=efd328ca-f8bf-4550-bd94-c2fd75978f3c","ios":"levelo://app?vid=efd328ca-f8bf-4550-bd94-c2fd75978f3c"},"vehicle_type_id":"4","last_reported":1744531902,"current_range_meters":11200,"station_id":"","pricing_plan_id":"cebpf4jnsgd1na2vs0mg"},{"bike_id":"a6cb932b-facc-44a2-950c-11e335330177","system_id":"levelo_inurba_marseille","lat":43.288484,"lon":5.358431,"is_reserved":false,"is_disabled":false,"rental_uris":{"android":"levelo://app?vid=a6cb932b-facc-44a2-950c-11e335330177","ios":"levelo://app?vid=a6cb932b-facc-44a2-950c-11e335330177"},"vehicle_type_id":"4","last_reported":1744531902,"current_range_meters":11600,"station_id":"ce4bhb12rcd13ifvqem0","pricing_plan_id":"cebpf4jnsgd1na2vs0mg"},{"bike_id":"12aec038-db5e-4d5d-a5cf-e01dc2e28ea3","system_id":"levelo_inurba_marseille","lat":43.30126,"lon":5.40497,"is_reserved":false,"is_disabled":true,"rental_uris":{"android":"levelo://app?vid=12aec038-db5e-4d5d-a5cf-e01dc2e28ea3","ios":"levelo://app?vid=12aec038-db5e-4d5d-a5cf-e01dc2e28ea3"},"vehicle_type_id":"4","last_reported":1744531902,"current_range_meters":12000,"station_id":"","pricing_plan_id":"cebpf4jnsgd1na2vs0mg"},{"bike_id":"5bd83869-317c-4f7d-93ed-182a084c5a24","system_id":"levelo_inurba_marseille","lat":43.25711,"lon":5.41106,"is_reserved":false,"is_disabled":false,"rental_uris":{"android":"levelo://app?vid=5bd83869-317c-4f7d-93ed-182a084c5a24","ios":"levelo://app?vid=5bd83869-317c-4f7d-93ed-182a084c5a24"},"vehicle_type_id":"4","last_reported":1744531902,"current_range_meters":12000,"station_id":"ce4bhkp2rcd13ifvqgd0","pricing_plan_id":"cebpf4jnsgd1na2vs0mg"},{"bike_id":"f956cf72-92c6-4d9b-b65e-7e64c9a3e7e9","system_id":"levelo_inurba_marseille","lat":43.28845,"lon":5.35848,"is_reserved":false,"is_disabled":false,"rental_uris":{"android":"levelo://app?vid=f956cf72-92c6-4d9b-b65e-7e64c9a3e7e9","ios":"levelo://app?vid=f956cf72-92c6-4d9b-b65e-7e64c9a3e7e9"},"vehicle_type_id":"4","last_reported":1744531902,"current_range_meters":12000,"station_id":"ce4bhb12rcd13ifvqem0","pricing_plan_id":"cebpf4jnsgd1na2vs0mg"},{"bike_id":"ec5529ba-a86c-439a-9c90-c79bfd022883","system_id":"levelo_inurba_marseille","lat":43.26587,"lon":5.39049,"is_reserved":false,"is_disabled":false,"rental_uris":{"android":"levelo://app?vid=ec5529ba-a86c-439a-9c90-c79bfd022883","ios":"levelo://app?vid=ec5529ba-a86c-439a-9c90-c79bfd022883"},"vehicle_type_id":"4","last_reported":1744531902,"current_range_meters":12000,"station_id":"ce4bhe12rcd13ifvqf30","pricing_plan_id":"cebpf4jnsgd1na2vs0mg"},{"bike_id":"020e9999-d552-48d0-ae5f-b725af0dbea2","system_id":"levelo_inurba_marseille","lat":43.29899,"lon":5.43754,"is_reserved":false,"is_disabled":false,"rental_uris":{"android":"levelo://app?vid=020e9999-d552-48d0-ae5f-b725af0dbea2","ios":"levelo://app?vid=020e9999-d552-48d0-ae5f-b725af0dbea2"},"vehicle_type_id":"4","last_reported":1744531902,"current_range_meters":12000,"station_id":"","pricing_plan_id":"cebpf4jnsgd1na2vs0mg"},{"bike_id":"a3bf51d9-08b7-458c-9b6d-ef5680cc95d6","system_id":"levelo_inurba_marseille","lat":43.217491,"lon":5.346068,"is_reserved":false,"is_disabled":true,"rental_uris":{"android":"levelo://app?vid=a3bf51d9-08b7-458c-9b6d-ef5680cc95d6","ios":"levelo://app?vid=a3bf51d9-08b7-458c-9b6d-ef5680cc95d6"},"vehicle_type_id":"4","last_reported":1744531902,"current_range_meters":12000,"station_id":"cpo36qri1sfpv3e86is0","pricing_plan_id":"cebpf4jnsgd1na2vs0mg"},{"bike_id":"73bbc97d-2b39-4276-bc22-fd7aa78f429c","system_id":"levelo_inurba_marseille","lat":43.298968,"lon":5.43675,"is_reserved":false,"is_disabled":false,"rental_uris":{"android":"levelo://app?vid=73bbc97d-2b39-4276-bc22-fd7aa78f429c","ios":"levelo://app?vid=73bbc97d-2b39-4276-bc22-fd7aa78f429c"},"vehicle_type_id":"4","last_reported":1744531902,"current_range_meters":12000,"station_id":"ce4bhpp2rcd13ifvqhfg","pricing_plan_id":"cebpf4jnsgd1na2vs0mg"},{"bike_id":"7e3e39d6-ca7d-4676-bc32-2fc36970bc26","system_id":"levelo_inurba_marseille","lat":43.284789,"lon":5.38423,"is_reserved":false,"is_disabled":false,"rental_uris":{"android":"levelo://app?vid=7e3e39d6-ca7d-4676-bc32-2fc36970bc26","ios":"levelo://app?vid=7e3e39d6-ca7d-4676-bc32-2fc36970bc26"},"vehicle_type_id":"4","last_reported":1744531902,"current_range_meters":12400,"station_id":"ce4bh512rcd13ifvqe3g","pricing_plan_id":"cebpf4jnsgd1na2vs0mg"},{"bike_id":"b55dd5e7-54b2-4035-b945-7b626dd7afc7","system_id":"levelo_inurba_marseille","lat":43.275438,"lon":5.409312,"is_reserved":false,"is_disabled":false,"rental_uris":{"android":"levelo://app?vid=b55dd5e7-54b2-4035-b945-7b626dd7afc7","ios":"levelo://app?vid=b55dd5e7-54b2-4035-b945-7b626dd7afc7"},"vehicle_type_id":"4","last_reported":1744531902,"current_range_meters":12400,"station_id":"","pricing_plan_id":"cebpf4jnsgd1na2vs0mg"},{"bike_id":"4bbe6e48-9bfa-4dec-aab0-5597477f7da1","system_id":"levelo_inurba_marseille","lat":43.32412,"lon":5.39141,"is_reserved":false,"is_disabled":false,"rental_uris":{"android":"levelo://app?vid=4bbe6e48-9bfa-4dec-aab0-5597477f7da1","ios":"levelo://app?vid=4bbe6e48-9bfa-4dec-aab0-5597477f7da1"},"vehicle_type_id":"4","last_reported":1744531902,"current_range_meters":12400,"station_id":"","pricing_plan_id":"cebpf4jnsgd1na2vs0mg"},{"bike_id":"c70dc66c-d4a1-4e50-81d7-22e212eff3e3","system_id":"levelo_inurba_marseille","lat":43.2466,"lon":5.38173,"is_reserved":false,"is_disabled":false,"rental_uris":{"android":"levelo://app?vid=c70dc66c-d4a1-4e50-81d7-22e212eff3e3","ios":"levelo://app?vid=c70dc66c-d4a1-4e50-81d7-22e212eff3e3"},"vehicle_type_id":"4","last_reported":1744531902,"current_range_meters":12800,"station_id":"ce4bhih2rcd13ifvqfr0","pricing_plan_id":"cebpf4jnsgd1na2vs0mg"},{"bike_id":"c5de9f04-a68c-4314-9995-789e3d717983","system_id":"levelo_inurba_marseille","lat":43.24395,"lon":5.370623,"is_reserved":false,"is_disabled":true,"rental_uris":{"android":"levelo://app?vid=c5de9f04-a68c-4314-9995-789e3d717983","ios":"levelo://app?vid=c5de9f04-a68c-4314-9995-789e3d717983"},"vehicle_type_id":"4","last_reported":1744531902,"current_range_meters":12800,"station_id":"ce4bhhh2rcd13ifvqfk0","pricing_plan_id":"cebpf4jnsgd1na2vs0mg"},{"bike_id":"cfd83540-c302-4d53-a981-fe5c5d843662","system_id":"levelo_inurba_marseille","lat":43.29881,"lon":5.38902,"is_reserved":false,"is_disabled":true,"rental_uris":{"android":"levelo://app?vid=cfd83540-c302-4d53-a981-fe5c5d843662","ios":"levelo://app?vid=cfd83540-c302-4d53-a981-fe5c5d843662"},"vehicle_type_id":"4","last_reported":1744531902,"current_range_meters":12800,"station_id":"ce4bh392rcd13ifvqdl0","pricing_plan_id":"cebpf4jnsgd1na2vs0mg"},{"bike_id":"982bb1bc-457f-43d7-ae21-85035c856353","system_id":"levelo_inurba_marseille","lat":43.2251,"lon":5.34784,"is_reserved":false,"is_disabled":false,"rental_uris":{"android":"levelo://app?vid=982bb1bc-457f-43d7-ae21-85035c856353","ios":"levelo://app?vid=982bb1bc-457f-43d7-ae21-85035c856353"},"vehicle_type_id":"4","last_reported":1744531902,"current_range_meters":12800,"station_id":"st_cvj5dfep6f1abm77gieg","pricing_plan_id":"cebpf4jnsgd1na2vs0mg"},{"bike_id":"024f5024-4b56-480d-ac3c-45228dfdbfea","system_id":"levelo_inurba_marseille","lat":43.2871,"lon":5.39988,"is_reserved":false,"is_disabled":false,"rental_uris":{"android":"levelo://app?vid=024f5024-4b56-480d-ac3c-45228dfdbfea","ios":"levelo://app?vid=024f5024-4b56-480d-ac3c-45228dfdbfea"},"vehicle_type_id":"4","last_reported":1744531902,"current_range_meters":38800,"station_id":"ce4bho92rcd13ifvqh3g","pricing_plan_id":"cebpf4jnsgd1na2vs0mg"},{"bike_id":"d8b9884b-4022-4710-9f87-50e0dbfd421d","system_id":"levelo_inurba_marseille","lat":43.24164,"lon":5.36404,"is_reserved":false,"is_disabled":false,"rental_uris":{"android":"levelo://app?vid=d8b9884b-4022-4710-9f87-50e0dbfd421d","ios":"levelo://app?vid=d8b9884b-4022-4710-9f87-50e0dbfd421d"},"vehicle_type_id":"4","last_reported":1744531902,"current_range_meters":12800,"station_id":"cpo36qri1sfpv3e86is0","pricing_plan_id":"cebpf4jnsgd1na2vs0mg"},{"bike_id":"1578cdda-fa32-4486-ac62-617f457b0927","system_id":"levelo_inurba_marseille","lat":43.29009,"lon":5.35602,"is_reserved":false,"is_disabled":true,"rental_uris":{"android":"levelo://app?vid=1578cdda-fa32-4486-ac62-617f457b0927","ios":"levelo://app?vid=1578cdda-fa32-4486-ac62-617f457b0927"},"vehicle_type_id":"4","last_reported":1744531902,"current_range_meters":13600,"station_id":"ce4bhb92rcd13ifvqen0","pricing_plan_id":"cebpf4jnsgd1na2vs0mg"},{"bike_id":"670350e7-8b16-4095-8222-1a9ab089eb5a","system_id":"levelo_inurba_marseille","lat":43.27953,"lon":5.41041,"is_reserved":false,"is_disabled":false,"rental_uris":{"android":"levelo://app?vid=670350e7-8b16-4095-8222-1a9ab089eb5a","ios":"levelo://app?vid=670350e7-8b16-4095-8222-1a9ab089eb5a"},"vehicle_type_id":"4","last_reported":1744531902,"current_range_meters":13600,"station_id":"ce4bhnp2rcd13ifvqh0g","pricing_plan_id":"cebpf4jnsgd1na2vs0mg"},{"bike_id":"36fba903-b172-4d89-b99d-9805fe3291d5","system_id":"levelo_inurba_marseille","lat":43.30464,"lon":5.3792,"is_reserved":false,"is_disabled":false,"rental_uris":{"android":"levelo://app?vid=36fba903-b172-4d89-b99d-9805fe3291d5","ios":"levelo://app?vid=36fba903-b172-4d89-b99d-9805fe3291d5"},"vehicle_type_id":"4","last_reported":1744531902,"current_range_meters":13600,"station_id":"ce4bgup2rcd13ifvqcn0","pricing_plan_id":"cebpf4jnsgd1na2vs0mg"},{"bike_id":"2fc88268-9338-4674-a8f4-36dfb8363ca0","system_id":"levelo_inurba_marseille","lat":43.21208,"lon":5.35062,"is_reserved":false,"is_disabled":true,"rental_uris":{"android":"levelo://app?vid=2fc88268-9338-4674-a8f4-36dfb8363ca0","ios":"levelo://app?vid=2fc88268-9338-4674-a8f4-36dfb8363ca0"},"vehicle_type_id":"4","last_reported":1744531902,"current_range_meters":13600,"station_id":"st_cvj6sg6p6f1abm77japg","pricing_plan_id":"cebpf4jnsgd1na2vs0mg"},{"bike_id":"0ec2ec42-7e77-461a-9cca-c87111e6f33f","system_id":"levelo_inurba_marseille","lat":43.28502,"lon":5.38569,"is_reserved":false,"is_disabled":false,"rental_uris":{"android":"levelo://app?vid=0ec2ec42-7e77-461a-9cca-c87111e6f33f","ios":"levelo://app?vid=0ec2ec42-7e77-461a-9cca-c87111e6f33f"},"vehicle_type_id":"4","last_reported":1744531902,"current_range_meters":13600,"station_id":"ce4bh8p2rcd13ifvqeb0","pricing_plan_id":"cebpf4jnsgd1na2vs0mg"},{"bike_id":"d49ed5f3-63dd-41d8-a7c3-7b7860b035b1","system_id":"levelo_inurba_marseille","lat":43.24808,"lon":5.37459,"is_reserved":false,"is_disabled":true,"rental_uris":{"android":"levelo://app?vid=d49ed5f3-63dd-41d8-a7c3-7b7860b035b1","ios":"levelo://app?vid=d49ed5f3-63dd-41d8-a7c3-7b7860b035b1"},"vehicle_type_id":"4","last_reported":1744531902,"current_range_meters":13600,"station_id":"ce4bhgh2rcd13ifvqfb0","pricing_plan_id":"cebpf4jnsgd1na2vs0mg"},{"bike_id":"5591936e-ca63-41c7-89f3-9c9493c86f89","system_id":"levelo_inurba_marseille","lat":43.24156,"lon":5.36403,"is_reserved":false,"is_disabled":false,"rental_uris":{"android":"levelo://app?vid=5591936e-ca63-41c7-89f3-9c9493c86f89","ios":"levelo://app?vid=5591936e-ca63-41c7-89f3-9c9493c86f89"},"vehicle_type_id":"4","last_reported":1744531902,"current_range_meters":13600,"station_id":"cpo36qri1sfpv3e86is0","pricing_plan_id":"cebpf4jnsgd1na2vs0mg"},{"bike_id":"c5668a5c-eabb-4363-a042-b20f82d9a571","system_id":"levelo_inurba_marseille","lat":43.26047,"lon":5.39407,"is_reserved":false,"is_disabled":false,"rental_uris":{"android":"levelo://app?vid=c5668a5c-eabb-4363-a042-b20f82d9a571","ios":"levelo://app?vid=c5668a5c-eabb-4363-a042-b20f82d9a571"},"vehicle_type_id":"4","last_reported":1744531902,"current_range_meters":13600,"station_id":"ce4bhh92rcd13ifvqfj0","pricing_plan_id":"cebpf4jnsgd1na2vs0mg"},{"bike_id":"2a51123b-0ea2-40c6-97d0-0bd0e1bca448","system_id":"levelo_inurba_marseille","lat":43.23157,"lon":5.43705,"is_reserved":false,"is_disabled":false,"rental_uris":{"android":"levelo://app?vid=2a51123b-0ea2-40c6-97d0-0bd0e1bca448","ios":"levelo://app?vid=2a51123b-0ea2-40c6-97d0-0bd0e1bca448"},"vehicle_type_id":"4","last_reported":1744531902,"current_range_meters":13600,"station_id":"ce4bhmp2rcd13ifvqgog","pricing_plan_id":"cebpf4jnsgd1na2vs0mg"},{"bike_id":"4d874086-2615-45ee-92bb-518b7ad00a4d","system_id":"levelo_inurba_marseille","lat":43.30955,"lon":5.39042,"is_reserved":false,"is_disabled":true,"rental_uris":{"android":"levelo://app?vid=4d874086-2615-45ee-92bb-518b7ad00a4d","ios":"levelo://app?vid=4d874086-2615-45ee-92bb-518b7ad00a4d"},"vehicle_type_id":"4","last_reported":1744531902,"current_range_meters":14000,"station_id":"ce4bgup2rcd13ifvqco0","pricing_plan_id":"cebpf4jnsgd1na2vs0mg"},{"bike_id":"3d925dcc-cdfc-409e-8643-8ee56b7ed51b","system_id":"levelo_inurba_marseille","lat":43.31517,"lon":5.37259,"is_reserved":false,"is_disabled":false,"rental_uris":{"android":"levelo://app?vid=3d925dcc-cdfc-409e-8643-8ee56b7ed51b","ios":"levelo://app?vid=3d925dcc-cdfc-409e-8643-8ee56b7ed51b"},"vehicle_type_id":"4","last_reported":1744531902,"current_range_meters":14000,"station_id":"ce4bgt12rcd13ifvqcd0","pricing_plan_id":"cebpf4jnsgd1na2vs0mg"},{"bike_id":"239b457a-7da8-49b2-9197-3c47133b2b7d","system_id":"levelo_inurba_marseille","lat":43.29044,"lon":5.39928,"is_reserved":false,"is_disabled":true,"rental_uris":{"android":"levelo://app?vid=239b457a-7da8-49b2-9197-3c47133b2b7d","ios":"levelo://app?vid=239b457a-7da8-49b2-9197-3c47133b2b7d"},"vehicle_type_id":"4","last_reported":1744531902,"current_range_meters":14000,"station_id":"ce4bh392rcd13ifvqdm0","pricing_plan_id":"cebpf4jnsgd1na2vs0mg"},{"bike_id":"eeecd2fe-6254-4002-abf4-dbb4c5b284dc","system_id":"levelo_inurba_marseille","lat":43.27982,"lon":5.41666,"is_reserved":false,"is_disabled":true,"rental_uris":{"android":"levelo://app?vid=eeecd2fe-6254-4002-abf4-dbb4c5b284dc","ios":"levelo://app?vid=eeecd2fe-6254-4002-abf4-dbb4c5b284dc"},"vehicle_type_id":"4","last_reported":1744531902,"current_range_meters":14400,"station_id":"ce4bho12rcd13ifvqh1g","pricing_plan_id":"cebpf4jnsgd1na2vs0mg"},{"bike_id":"3507dfca-319b-4174-9d98-ddf67a8f0f8e","system_id":"levelo_inurba_marseille","lat":43.29722,"lon":5.36572,"is_reserved":false,"is_disabled":false,"rental_uris":{"android":"levelo://app?vid=3507dfca-319b-4174-9d98-ddf67a8f0f8e","ios":"levelo://app?vid=3507dfca-319b-4174-9d98-ddf67a8f0f8e"},"vehicle_type_id":"4","last_reported":1744531902,"current_range_meters":14400,"station_id":"ce4bgn12rcd13ifvqbt0","pricing_plan_id":"cebpf4jnsgd1na2vs0mg"},{"bike_id":"063db7c9-946a-411d-a19c-5702c3d7f60a","system_id":"levelo_inurba_marseille","lat":43.30618,"lon":5.37207,"is_reserved":false,"is_disabled":false,"rental_uris":{"android":"levelo://app?vid=063db7c9-946a-411d-a19c-5702c3d7f60a","ios":"levelo://app?vid=063db7c9-946a-411d-a19c-5702c3d7f60a"},"vehicle_type_id":"4","last_reported":1744531902,"current_range_meters":14400,"station_id":"ce4bgqh2rcd13ifvqc4g","pricing_plan_id":"cebpf4jnsgd1na2vs0mg"},{"bike_id":"94c5bfb1-356f-45dd-b1e3-92e67beafaf7","system_id":"levelo_inurba_marseille","lat":43.3153,"lon":5.37265,"is_reserved":false,"is_disabled":false,"rental_uris":{"android":"levelo://app?vid=94c5bfb1-356f-45dd-b1e3-92e67beafaf7","ios":"levelo://app?vid=94c5bfb1-356f-45dd-b1e3-92e67beafaf7"},"vehicle_type_id":"4","last_reported":1744531902,"current_range_meters":14400,"station_id":"","pricing_plan_id":"cebpf4jnsgd1na2vs0mg"},{"bike_id":"2625f396-ea8c-4723-9962-19369033d7c8","system_id":"levelo_inurba_marseille","lat":43.32326,"lon":5.4063,"is_reserved":false,"is_disabled":false,"rental_uris":{"android":"levelo://app?vid=2625f396-ea8c-4723-9962-19369033d7c8","ios":"levelo://app?vid=2625f396-ea8c-4723-9962-19369033d7c8"},"vehicle_type_id":"4","last_reported":1744531902,"current_range_meters":14400,"station_id":"ce4bhq92rcd13ifvqhjg","pricing_plan_id":"cebpf4jnsgd1na2vs0mg"},{"bike_id":"e09b0a72-9049-4f0a-8c1e-9c77d8777c41","system_id":"levelo_inurba_marseille","lat":43.28461,"lon":5.358966,"is_reserved":false,"is_disabled":false,"rental_uris":{"android":"levelo://app?vid=e09b0a72-9049-4f0a-8c1e-9c77d8777c41","ios":"levelo://app?vid=e09b0a72-9049-4f0a-8c1e-9c77d8777c41"},"vehicle_type_id":"4","last_reported":1744531902,"current_range_meters":14800,"station_id":"ce4bhah2rcd13ifvqei0","pricing_plan_id":"cebpf4jnsgd1na2vs0mg"},{"bike_id":"4edaa12a-299e-4fd4-b2e6-5e6d5aa33c82","system_id":"levelo_inurba_marseille","lat":43.294,"lon":5.38643,"is_reserved":false,"is_disabled":false,"rental_uris":{"android":"levelo://app?vid=4edaa12a-299e-4fd4-b2e6-5e6d5aa33c82","ios":"levelo://app?vid=4edaa12a-299e-4fd4-b2e6-5e6d5aa33c82"},"vehicle_type_id":"4","last_reported":1744531902,"current_range_meters":14800,"station_id":"ce4bh2h2rcd13ifvqdh0","pricing_plan_id":"cebpf4jnsgd1na2vs0mg"},{"bike_id":"211eb830-0957-42fb-82e1-b26412a4110a","system_id":"levelo_inurba_marseille","lat":43.30311,"lon":5.3693,"is_reserved":false,"is_disabled":false,"rental_uris":{"android":"levelo://app?vid=211eb830-0957-42fb-82e1-b26412a4110a","ios":"levelo://app?vid=211eb830-0957-42fb-82e1-b26412a4110a"},"vehicle_type_id":"4","last_reported":1744531902,"current_range_meters":14800,"station_id":"ce4bgqh2rcd13ifvqc5g","pricing_plan_id":"cebpf4jnsgd1na2vs0mg"},{"bike_id":"51ca3998-1d52-48da-b48d-af2858da5929","system_id":"levelo_inurba_marseille","lat":43.314824,"lon":5.3731,"is_reserved":false,"is_disabled":false,"rental_uris":{"android":"levelo://app?vid=51ca3998-1d52-48da-b48d-af2858da5929","ios":"levelo://app?vid=51ca3998-1d52-48da-b48d-af2858da5929"},"vehicle_type_id":"4","last_reported":1744531902,"current_range_meters":15200,"station_id":"ce4bgt12rcd13ifvqcd0","pricing_plan_id":"cebpf4jnsgd1na2vs0mg"},{"bike_id":"54f95021-ece3-4c1e-a98d-33e005a5619a","system_id":"levelo_inurba_marseille","lat":43.21204,"lon":5.35061,"is_reserved":false,"is_disabled":false,"rental_uris":{"android":"levelo://app?vid=54f95021-ece3-4c1e-a98d-33e005a5619a","ios":"levelo://app?vid=54f95021-ece3-4c1e-a98d-33e005a5619a"},"vehicle_type_id":"4","last_reported":1744531902,"current_range_meters":15200,"station_id":"st_cvj6sg6p6f1abm77japg","pricing_plan_id":"cebpf4jnsgd1na2vs0mg"},{"bike_id":"6a003e47-a1cc-4c38-b762-6e37af426d05","system_id":"levelo_inurba_marseille","lat":43.323553,"lon":5.367468,"is_reserved":false,"is_disabled":false,"rental_uris":{"android":"levelo://app?vid=6a003e47-a1cc-4c38-b762-6e37af426d05","ios":"levelo://app?vid=6a003e47-a1cc-4c38-b762-6e37af426d05"},"vehicle_type_id":"4","last_reported":1744531902,"current_range_meters":15200,"station_id":"ce4bhsh2rcd13ifvqi2g","pricing_plan_id":"cebpf4jnsgd1na2vs0mg"},{"bike_id":"c7a109f1-cffb-43f4-92fd-fd60df803d79","system_id":"levelo_inurba_marseille","lat":43.29053,"lon":5.37562,"is_reserved":false,"is_disabled":false,"rental_uris":{"android":"levelo://app?vid=c7a109f1-cffb-43f4-92fd-fd60df803d79","ios":"levelo://app?vid=c7a109f1-cffb-43f4-92fd-fd60df803d79"},"vehicle_type_id":"4","last_reported":1744531902,"current_range_meters":15200,"station_id":"ce4bh692rcd13ifvqe90","pricing_plan_id":"cebpf4jnsgd1na2vs0mg"},{"bike_id":"fbcffd98-9af3-437e-a238-670cf1dcb555","system_id":"levelo_inurba_marseille","lat":43.289438,"lon":5.366397,"is_reserved":false,"is_disabled":true,"rental_uris":{"android":"levelo://app?vid=fbcffd98-9af3-437e-a238-670cf1dcb555","ios":"levelo://app?vid=fbcffd98-9af3-437e-a238-670cf1dcb555"},"vehicle_type_id":"4","last_reported":1744531902,"current_range_meters":15200,"station_id":"ce4bhap2rcd13ifvqek0","pricing_plan_id":"cebpf4jnsgd1na2vs0mg"},{"bike_id":"e5773f43-8f28-4d81-b94d-55ad617eff4c","system_id":"levelo_inurba_marseille","lat":43.29006,"lon":5.39997,"is_reserved":false,"is_disabled":false,"rental_uris":{"android":"levelo://app?vid=e5773f43-8f28-4d81-b94d-55ad617eff4c","ios":"levelo://app?vid=e5773f43-8f28-4d81-b94d-55ad617eff4c"},"vehicle_type_id":"4","last_reported":1744531902,"current_range_meters":15200,"station_id":"ce4bh392rcd13ifvqdm0","pricing_plan_id":"cebpf4jnsgd1na2vs0mg"},{"bike_id":"3dfd87a1-3cd0-40c0-81cd-65464712a522","system_id":"levelo_inurba_marseille","lat":43.241801,"lon":5.397631,"is_reserved":false,"is_disabled":false,"rental_uris":{"android":"levelo://app?vid=3dfd87a1-3cd0-40c0-81cd-65464712a522","ios":"levelo://app?vid=3dfd87a1-3cd0-40c0-81cd-65464712a522"},"vehicle_type_id":"4","last_reported":1744531902,"current_range_meters":15200,"station_id":"ce4bhn12rcd13ifvqgpg","pricing_plan_id":"cebpf4jnsgd1na2vs0mg"},{"bike_id":"d9214e74-30ad-45b9-bf16-f3f0709b1cbf","system_id":"levelo_inurba_marseille","lat":43.23176,"lon":5.35553,"is_reserved":false,"is_disabled":false,"rental_uris":{"android":"levelo://app?vid=d9214e74-30ad-45b9-bf16-f3f0709b1cbf","ios":"levelo://app?vid=d9214e74-30ad-45b9-bf16-f3f0709b1cbf"},"vehicle_type_id":"4","last_reported":1744531902,"current_range_meters":16000,"station_id":"ce4bhu92rcd13ifvqi70","pricing_plan_id":"cebpf4jnsgd1na2vs0mg"},{"bike_id":"7a4d8550-4fc4-4934-b8e1-6821bf65a225","system_id":"levelo_inurba_marseille","lat":43.2559,"lon":5.38227,"is_reserved":false,"is_disabled":false,"rental_uris":{"android":"levelo://app?vid=7a4d8550-4fc4-4934-b8e1-6821bf65a225","ios":"levelo://app?vid=7a4d8550-4fc4-4934-b8e1-6821bf65a225"},"vehicle_type_id":"4","last_reported":1744531902,"current_range_meters":16000,"station_id":"ce4bhih2rcd13ifvqfs0","pricing_plan_id":"cebpf4jnsgd1na2vs0mg"},{"bike_id":"59790fdf-1ea1-455c-92c2-962c077501dc","system_id":"levelo_inurba_marseille","lat":43.24164,"lon":5.39709,"is_reserved":false,"is_disabled":false,"rental_uris":{"android":"levelo://app?vid=59790fdf-1ea1-455c-92c2-962c077501dc","ios":"levelo://app?vid=59790fdf-1ea1-455c-92c2-962c077501dc"},"vehicle_type_id":"4","last_reported":1744531902,"current_range_meters":16000,"station_id":"ce4bhn12rcd13ifvqgpg","pricing_plan_id":"cebpf4jnsgd1na2vs0mg"},{"bike_id":"fe3ac574-7289-40f7-b570-48ee67778735","system_id":"levelo_inurba_marseille","lat":43.28069,"lon":5.39646,"is_reserved":false,"is_disabled":false,"rental_uris":{"android":"levelo://app?vid=fe3ac574-7289-40f7-b570-48ee67778735","ios":"levelo://app?vid=fe3ac574-7289-40f7-b570-48ee67778735"},"vehicle_type_id":"4","last_reported":1744531902,"current_range_meters":16000,"station_id":"ce4bho12rcd13ifvqh2g","pricing_plan_id":"cebpf4jnsgd1na2vs0mg"},{"bike_id":"a3dabeac-c119-4e34-83cf-5de52a4ce63d","system_id":"levelo_inurba_marseille","lat":43.28465,"lon":5.3589,"is_reserved":false,"is_disabled":false,"rental_uris":{"android":"levelo://app?vid=a3dabeac-c119-4e34-83cf-5de52a4ce63d","ios":"levelo://app?vid=a3dabeac-c119-4e34-83cf-5de52a4ce63d"},"vehicle_type_id":"4","last_reported":1744531902,"current_range_meters":16000,"station_id":"ce4bhah2rcd13ifvqei0","pricing_plan_id":"cebpf4jnsgd1na2vs0mg"},{"bike_id":"8575ef2f-3266-4af2-97ea-ba0773bee658","system_id":"levelo_inurba_marseille","lat":43.29422,"lon":5.38621,"is_reserved":false,"is_disabled":false,"rental_uris":{"android":"levelo://app?vid=8575ef2f-3266-4af2-97ea-ba0773bee658","ios":"levelo://app?vid=8575ef2f-3266-4af2-97ea-ba0773bee658"},"vehicle_type_id":"4","last_reported":1744531902,"current_range_meters":16400,"station_id":"ce4bh2h2rcd13ifvqdh0","pricing_plan_id":"cebpf4jnsgd1na2vs0mg"},{"bike_id":"148d6d37-7a05-470b-b2d0-5de114ced696","system_id":"levelo_inurba_marseille","lat":43.24805,"lon":5.3745,"is_reserved":false,"is_disabled":false,"rental_uris":{"android":"levelo://app?vid=148d6d37-7a05-470b-b2d0-5de114ced696","ios":"levelo://app?vid=148d6d37-7a05-470b-b2d0-5de114ced696"},"vehicle_type_id":"4","last_reported":1744531902,"current_range_meters":16400,"station_id":"ce4bhgh2rcd13ifvqfb0","pricing_plan_id":"cebpf4jnsgd1na2vs0mg"},{"bike_id":"aca1669d-f586-4489-8f38-6c4e1a840656","system_id":"levelo_inurba_marseille","lat":43.30804,"lon":5.38134,"is_reserved":false,"is_disabled":false,"rental_uris":{"android":"levelo://app?vid=aca1669d-f586-4489-8f38-6c4e1a840656","ios":"levelo://app?vid=aca1669d-f586-4489-8f38-6c4e1a840656"},"vehicle_type_id":"4","last_reported":1744531902,"current_range_meters":16400,"station_id":"ce4bgt12rcd13ifvqce0","pricing_plan_id":"cebpf4jnsgd1na2vs0mg"},{"bike_id":"fc717318-eb74-48d7-a733-c38b2c4b8364","system_id":"levelo_inurba_marseille","lat":43.26585,"lon":5.39036,"is_reserved":false,"is_disabled":false,"rental_uris":{"android":"levelo://app?vid=fc717318-eb74-48d7-a733-c38b2c4b8364","ios":"levelo://app?vid=fc717318-eb74-48d7-a733-c38b2c4b8364"},"vehicle_type_id":"4","last_reported":1744531902,"current_range_meters":16400,"station_id":"ce4bhe12rcd13ifvqf30","pricing_plan_id":"cebpf4jnsgd1na2vs0mg"},{"bike_id":"e617923d-5e38-4ab5-9f0a-d006b9dcc88d","system_id":"levelo_inurba_marseille","lat":43.29564,"lon":5.38532,"is_reserved":false,"is_disabled":true,"rental_uris":{"android":"levelo://app?vid=e617923d-5e38-4ab5-9f0a-d006b9dcc88d","ios":"levelo://app?vid=e617923d-5e38-4ab5-9f0a-d006b9dcc88d"},"vehicle_type_id":"4","last_reported":1744531902,"current_range_meters":16800,"station_id":"ce4bgih2rcd13ifvqba0","pricing_plan_id":"cebpf4jnsgd1na2vs0mg"},{"bike_id":"1accc1aa-a277-48f3-9da3-98151bc48e3d","system_id":"levelo_inurba_marseille","lat":43.31075,"lon":5.42437,"is_reserved":false,"is_disabled":false,"rental_uris":{"android":"levelo://app?vid=1accc1aa-a277-48f3-9da3-98151bc48e3d","ios":"levelo://app?vid=1accc1aa-a277-48f3-9da3-98151bc48e3d"},"vehicle_type_id":"4","last_reported":1744531902,"current_range_meters":17200,"station_id":"ce4bhp92rcd13ifvqhag","pricing_plan_id":"cebpf4jnsgd1na2vs0mg"},{"bike_id":"33f48ddf-dcd7-4458-84d3-d2d5fb778239","system_id":"levelo_inurba_marseille","lat":43.29276,"lon":5.36849,"is_reserved":false,"is_disabled":false,"rental_uris":{"android":"levelo://app?vid=33f48ddf-dcd7-4458-84d3-d2d5fb778239","ios":"levelo://app?vid=33f48ddf-dcd7-4458-84d3-d2d5fb778239"},"vehicle_type_id":"4","last_reported":1744531902,"current_range_meters":17200,"station_id":"ce4bhbp2rcd13ifvqesg","pricing_plan_id":"cebpf4jnsgd1na2vs0mg"},{"bike_id":"70adfe44-94a3-4906-8210-6c716d244a4c","system_id":"levelo_inurba_marseille","lat":43.25744,"lon":5.41093,"is_reserved":false,"is_disabled":false,"rental_uris":{"android":"levelo://app?vid=70adfe44-94a3-4906-8210-6c716d244a4c","ios":"levelo://app?vid=70adfe44-94a3-4906-8210-6c716d244a4c"},"vehicle_type_id":"4","last_reported":1744531902,"current_range_meters":17200,"station_id":"ce4bhkp2rcd13ifvqgd0","pricing_plan_id":"cebpf4jnsgd1na2vs0mg"},{"bike_id":"1a551867-f246-4fff-a5de-8229547f513c","system_id":"levelo_inurba_marseille","lat":43.2899,"lon":5.3559,"is_reserved":false,"is_disabled":false,"rental_uris":{"android":"levelo://app?vid=1a551867-f246-4fff-a5de-8229547f513c","ios":"levelo://app?vid=1a551867-f246-4fff-a5de-8229547f513c"},"vehicle_type_id":"4","last_reported":1744531902,"current_range_meters":17200,"station_id":"ce4bhb92rcd13ifvqen0","pricing_plan_id":"cebpf4jnsgd1na2vs0mg"},{"bike_id":"48aab2a1-babe-45be-a8c2-730a9253a339","system_id":"levelo_inurba_marseille","lat":43.30602,"lon":5.37229,"is_reserved":false,"is_disabled":false,"rental_uris":{"android":"levelo://app?vid=48aab2a1-babe-45be-a8c2-730a9253a339","ios":"levelo://app?vid=48aab2a1-babe-45be-a8c2-730a9253a339"},"vehicle_type_id":"4","last_reported":1744531902,"current_range_meters":17200,"station_id":"ce4bgqh2rcd13ifvqc4g","pricing_plan_id":"cebpf4jnsgd1na2vs0mg"},{"bike_id":"2ef70209-0309-4820-b2af-1cd6abf8da8f","system_id":"levelo_inurba_marseille","lat":43.2582,"lon":5.39429,"is_reserved":false,"is_disabled":false,"rental_uris":{"android":"levelo://app?vid=2ef70209-0309-4820-b2af-1cd6abf8da8f","ios":"levelo://app?vid=2ef70209-0309-4820-b2af-1cd6abf8da8f"},"vehicle_type_id":"4","last_reported":1744531902,"current_range_meters":17200,"station_id":"ce4bhip2rcd13ifvqft0","pricing_plan_id":"cebpf4jnsgd1na2vs0mg"},{"bike_id":"ebfe90c3-9223-4301-8889-57ddac517533","system_id":"levelo_inurba_marseille","lat":43.28449,"lon":5.35899,"is_reserved":false,"is_disabled":false,"rental_uris":{"android":"levelo://app?vid=ebfe90c3-9223-4301-8889-57ddac517533","ios":"levelo://app?vid=ebfe90c3-9223-4301-8889-57ddac517533"},"vehicle_type_id":"4","last_reported":1744531902,"current_range_meters":17200,"station_id":"ce4bhah2rcd13ifvqei0","pricing_plan_id":"cebpf4jnsgd1na2vs0mg"},{"bike_id":"8eaed4ed-e8c2-480f-b49b-7829f95ec9fc","system_id":"levelo_inurba_marseille","lat":43.28682,"lon":5.40003,"is_reserved":false,"is_disabled":false,"rental_uris":{"android":"levelo://app?vid=8eaed4ed-e8c2-480f-b49b-7829f95ec9fc","ios":"levelo://app?vid=8eaed4ed-e8c2-480f-b49b-7829f95ec9fc"},"vehicle_type_id":"4","last_reported":1744531902,"current_range_meters":17200,"station_id":"ce4bho92rcd13ifvqh3g","pricing_plan_id":"cebpf4jnsgd1na2vs0mg"},{"bike_id":"a2213ab8-ff9d-4aff-85fc-3e8a3d89954c","system_id":"levelo_inurba_marseille","lat":43.32639,"lon":5.40974,"is_reserved":false,"is_disabled":false,"rental_uris":{"android":"levelo://app?vid=a2213ab8-ff9d-4aff-85fc-3e8a3d89954c","ios":"levelo://app?vid=a2213ab8-ff9d-4aff-85fc-3e8a3d89954c"},"vehicle_type_id":"4","last_reported":1744531902,"current_range_meters":17600,"station_id":"ce4bhpp2rcd13ifvqhgg","pricing_plan_id":"cebpf4jnsgd1na2vs0mg"},{"bike_id":"604b4e29-58a6-4cad-8fac-5599fbdb6f4c","system_id":"levelo_inurba_marseille","lat":43.29898,"lon":5.4037,"is_reserved":false,"is_disabled":false,"rental_uris":{"android":"levelo://app?vid=604b4e29-58a6-4cad-8fac-5599fbdb6f4c","ios":"levelo://app?vid=604b4e29-58a6-4cad-8fac-5599fbdb6f4c"},"vehicle_type_id":"4","last_reported":1744531902,"current_range_meters":17600,"station_id":"","pricing_plan_id":"cebpf4jnsgd1na2vs0mg"},{"bike_id":"a6ecdfb6-884d-4710-af03-e9f966cbe87a","system_id":"levelo_inurba_marseille","lat":43.307922,"lon":5.435286,"is_reserved":false,"is_disabled":false,"rental_uris":{"android":"levelo://app?vid=a6ecdfb6-884d-4710-af03-e9f966cbe87a","ios":"levelo://app?vid=a6ecdfb6-884d-4710-af03-e9f966cbe87a"},"vehicle_type_id":"4","last_reported":1744531902,"current_range_meters":17600,"station_id":"ce4bhph2rcd13ifvqheg","pricing_plan_id":"cebpf4jnsgd1na2vs0mg"},{"bike_id":"2551df23-46eb-4dc9-b328-33c9a95ff7ca","system_id":"levelo_inurba_marseille","lat":43.29273,"lon":5.3602,"is_reserved":false,"is_disabled":true,"rental_uris":{"android":"levelo://app?vid=2551df23-46eb-4dc9-b328-33c9a95ff7ca","ios":"levelo://app?vid=2551df23-46eb-4dc9-b328-33c9a95ff7ca"},"vehicle_type_id":"4","last_reported":1744531902,"current_range_meters":17600,"station_id":"","pricing_plan_id":"cebpf4jnsgd1na2vs0mg"},{"bike_id":"b37e3cf1-8912-4521-bd5d-d3d48c62823c","system_id":"levelo_inurba_marseille","lat":43.29228,"lon":5.36047,"is_reserved":false,"is_disabled":false,"rental_uris":{"android":"levelo://app?vid=b37e3cf1-8912-4521-bd5d-d3d48c62823c","ios":"levelo://app?vid=b37e3cf1-8912-4521-bd5d-d3d48c62823c"},"vehicle_type_id":"4","last_reported":1744531902,"current_range_meters":18000,"station_id":"ce4bhbh2rcd13ifvqeqg","pricing_plan_id":"cebpf4jnsgd1na2vs0mg"},{"bike_id":"ae21569e-68a3-4032-9977-e6b72d7838c1","system_id":"levelo_inurba_marseille","lat":43.28931,"lon":5.38386,"is_reserved":false,"is_disabled":false,"rental_uris":{"android":"levelo://app?vid=ae21569e-68a3-4032-9977-e6b72d7838c1","ios":"levelo://app?vid=ae21569e-68a3-4032-9977-e6b72d7838c1"},"vehicle_type_id":"4","last_reported":1744531902,"current_range_meters":18000,"station_id":"ce4bh612rcd13ifvqe6g","pricing_plan_id":"cebpf4jnsgd1na2vs0mg"},{"bike_id":"73092de6-c84c-4bd7-a2c6-7df2d038be58","system_id":"levelo_inurba_marseille","lat":43.30377,"lon":5.42487,"is_reserved":false,"is_disabled":false,"rental_uris":{"android":"levelo://app?vid=73092de6-c84c-4bd7-a2c6-7df2d038be58","ios":"levelo://app?vid=73092de6-c84c-4bd7-a2c6-7df2d038be58"},"vehicle_type_id":"4","last_reported":1744531902,"current_range_meters":18000,"station_id":"ce4bhoh2rcd13ifvqh6g","pricing_plan_id":"cebpf4jnsgd1na2vs0mg"},{"bike_id":"966c30fe-75ee-428d-bd92-711a06a6720b","system_id":"levelo_inurba_marseille","lat":43.31329,"lon":5.39704,"is_reserved":false,"is_disabled":false,"rental_uris":{"android":"levelo://app?vid=966c30fe-75ee-428d-bd92-711a06a6720b","ios":"levelo://app?vid=966c30fe-75ee-428d-bd92-711a06a6720b"},"vehicle_type_id":"4","last_reported":1744531902,"current_range_meters":18000,"station_id":"ce4bgvp2rcd13ifvqcu0","pricing_plan_id":"cebpf4jnsgd1na2vs0mg"},{"bike_id":"fb247644-eb06-4a2f-a8ad-4bb83952f7c9","system_id":"levelo_inurba_marseille","lat":43.3054,"lon":5.365594,"is_reserved":false,"is_disabled":false,"rental_uris":{"android":"levelo://app?vid=fb247644-eb06-4a2f-a8ad-4bb83952f7c9","ios":"levelo://app?vid=fb247644-eb06-4a2f-a8ad-4bb83952f7c9"},"vehicle_type_id":"4","last_reported":1744531902,"current_range_meters":18000,"station_id":"ce4bgs12rcd13ifvqcag","pricing_plan_id":"cebpf4jnsgd1na2vs0mg"},{"bike_id":"e52e6673-d506-4da4-8bcb-b7cdcaf5a9ed","system_id":"levelo_inurba_marseille","lat":43.31102,"lon":5.37766,"is_reserved":false,"is_disabled":false,"rental_uris":{"android":"levelo://app?vid=e52e6673-d506-4da4-8bcb-b7cdcaf5a9ed","ios":"levelo://app?vid=e52e6673-d506-4da4-8bcb-b7cdcaf5a9ed"},"vehicle_type_id":"4","last_reported":1744531902,"current_range_meters":18000,"station_id":"ce4bgt92rcd13ifvqcg0","pricing_plan_id":"cebpf4jnsgd1na2vs0mg"},{"bike_id":"d602d5a6-5ae6-40cd-985a-254d6e95634c","system_id":"levelo_inurba_marseille","lat":43.298916,"lon":5.388981,"is_reserved":false,"is_disabled":false,"rental_uris":{"android":"levelo://app?vid=d602d5a6-5ae6-40cd-985a-254d6e95634c","ios":"levelo://app?vid=d602d5a6-5ae6-40cd-985a-254d6e95634c"},"vehicle_type_id":"4","last_reported":1744531902,"current_range_meters":18000,"station_id":"ce4bh392rcd13ifvqdl0","pricing_plan_id":"cebpf4jnsgd1na2vs0mg"},{"bike_id":"50f3a6ca-1b32-4e17-a21b-a50e16960e96","system_id":"levelo_inurba_marseille","lat":43.337766,"lon":5.374441,"is_reserved":false,"is_disabled":false,"rental_uris":{"android":"levelo://app?vid=50f3a6ca-1b32-4e17-a21b-a50e16960e96","ios":"levelo://app?vid=50f3a6ca-1b32-4e17-a21b-a50e16960e96"},"vehicle_type_id":"4","last_reported":1744531902,"current_range_meters":18000,"station_id":"","pricing_plan_id":"cebpf4jnsgd1na2vs0mg"},{"bike_id":"ee3d94e1-9536-48aa-8307-1c3318b457b7","system_id":"levelo_inurba_marseille","lat":43.28469,"lon":5.35887,"is_reserved":false,"is_disabled":false,"rental_uris":{"android":"levelo://app?vid=ee3d94e1-9536-48aa-8307-1c3318b457b7","ios":"levelo://app?vid=ee3d94e1-9536-48aa-8307-1c3318b457b7"},"vehicle_type_id":"4","last_reported":1744531902,"current_range_meters":18000,"station_id":"ce4bhah2rcd13ifvqei0","pricing_plan_id":"cebpf4jnsgd1na2vs0mg"},{"bike_id":"d67b0876-a2c1-44c0-8039-0e3711da0d8b","system_id":"levelo_inurba_marseille","lat":43.31479,"lon":5.373,"is_reserved":false,"is_disabled":false,"rental_uris":{"android":"levelo://app?vid=d67b0876-a2c1-44c0-8039-0e3711da0d8b","ios":"levelo://app?vid=d67b0876-a2c1-44c0-8039-0e3711da0d8b"},"vehicle_type_id":"4","last_reported":1744531902,"current_range_meters":18000,"station_id":"ce4bgt12rcd13ifvqcd0","pricing_plan_id":"cebpf4jnsgd1na2vs0mg"},{"bike_id":"48e8de4e-b116-46c1-b669-80219c22de85","system_id":"levelo_inurba_marseille","lat":43.27205,"lon":5.39171,"is_reserved":false,"is_disabled":false,"rental_uris":{"android":"levelo://app?vid=48e8de4e-b116-46c1-b669-80219c22de85","ios":"levelo://app?vid=48e8de4e-b116-46c1-b669-80219c22de85"},"vehicle_type_id":"4","last_reported":1744531902,"current_range_meters":17600,"station_id":"ce4bhhp2rcd13ifvqfm0","pricing_plan_id":"cebpf4jnsgd1na2vs0mg"},{"bike_id":"d06291ab-e60c-4ee9-a2f8-f55c784c28fe","system_id":"levelo_inurba_marseille","lat":43.21235,"lon":5.35082,"is_reserved":false,"is_disabled":false,"rental_uris":{"android":"levelo://app?vid=d06291ab-e60c-4ee9-a2f8-f55c784c28fe","ios":"levelo://app?vid=d06291ab-e60c-4ee9-a2f8-f55c784c28fe"},"vehicle_type_id":"4","last_reported":1744531902,"current_range_meters":18000,"station_id":"","pricing_plan_id":"cebpf4jnsgd1na2vs0mg"},{"bike_id":"3dc80c07-434b-47ac-8bf0-b9785a286641","system_id":"levelo_inurba_marseille","lat":43.2679,"lon":5.39419,"is_reserved":false,"is_disabled":false,"rental_uris":{"android":"levelo://app?vid=3dc80c07-434b-47ac-8bf0-b9785a286641","ios":"levelo://app?vid=3dc80c07-434b-47ac-8bf0-b9785a286641"},"vehicle_type_id":"4","last_reported":1744531902,"current_range_meters":18000,"station_id":"ce4bhh12rcd13ifvqfg0","pricing_plan_id":"cebpf4jnsgd1na2vs0mg"},{"bike_id":"935a7e55-4cea-4394-8ed2-15f7e1ee706c","system_id":"levelo_inurba_marseille","lat":43.27245,"lon":5.43154,"is_reserved":false,"is_disabled":false,"rental_uris":{"android":"levelo://app?vid=935a7e55-4cea-4394-8ed2-15f7e1ee706c","ios":"levelo://app?vid=935a7e55-4cea-4394-8ed2-15f7e1ee706c"},"vehicle_type_id":"4","last_reported":1744531902,"current_range_meters":18800,"station_id":"","pricing_plan_id":"cebpf4jnsgd1na2vs0mg"},{"bike_id":"da48e56b-5b98-4592-a2ea-cf5907cac18b","system_id":"levelo_inurba_marseille","lat":43.337652,"lon":5.374374,"is_reserved":false,"is_disabled":false,"rental_uris":{"android":"levelo://app?vid=da48e56b-5b98-4592-a2ea-cf5907cac18b","ios":"levelo://app?vid=da48e56b-5b98-4592-a2ea-cf5907cac18b"},"vehicle_type_id":"4","last_reported":1744531902,"current_range_meters":18800,"station_id":"","pricing_plan_id":"cebpf4jnsgd1na2vs0mg"},{"bike_id":"e23a2fbf-390c-4634-8902-fbe9c490d2fe","system_id":"levelo_inurba_marseille","lat":43.25924,"lon":5.40894,"is_reserved":false,"is_disabled":false,"rental_uris":{"android":"levelo://app?vid=e23a2fbf-390c-4634-8902-fbe9c490d2fe","ios":"levelo://app?vid=e23a2fbf-390c-4634-8902-fbe9c490d2fe"},"vehicle_type_id":"4","last_reported":1744531902,"current_range_meters":18800,"station_id":"ce4bhm92rcd13ifvqglg","pricing_plan_id":"cebpf4jnsgd1na2vs0mg"},{"bike_id":"731410b2-eccc-4c2a-acee-dabaf5f819ea","system_id":"levelo_inurba_marseille","lat":43.26559,"lon":5.37289,"is_reserved":false,"is_disabled":false,"rental_uris":{"android":"levelo://app?vid=731410b2-eccc-4c2a-acee-dabaf5f819ea","ios":"levelo://app?vid=731410b2-eccc-4c2a-acee-dabaf5f819ea"},"vehicle_type_id":"4","last_reported":1744531902,"current_range_meters":19200,"station_id":"ce4bhg12rcd13ifvqf70","pricing_plan_id":"cebpf4jnsgd1na2vs0mg"},{"bike_id":"3f89f6d9-7a29-42a4-8a0a-9c6ae3f14d61","system_id":"levelo_inurba_marseille","lat":43.30206,"lon":5.36619,"is_reserved":false,"is_disabled":false,"rental_uris":{"android":"levelo://app?vid=3f89f6d9-7a29-42a4-8a0a-9c6ae3f14d61","ios":"levelo://app?vid=3f89f6d9-7a29-42a4-8a0a-9c6ae3f14d61"},"vehicle_type_id":"4","last_reported":1744531902,"current_range_meters":19200,"station_id":"ce4bgrh2rcd13ifvqc8g","pricing_plan_id":"cebpf4jnsgd1na2vs0mg"},{"bike_id":"ce97861f-023e-4c47-9640-6effe8ce270a","system_id":"levelo_inurba_marseille","lat":43.29034,"lon":5.38632,"is_reserved":false,"is_disabled":false,"rental_uris":{"android":"levelo://app?vid=ce97861f-023e-4c47-9640-6effe8ce270a","ios":"levelo://app?vid=ce97861f-023e-4c47-9640-6effe8ce270a"},"vehicle_type_id":"4","last_reported":1744531902,"current_range_meters":19200,"station_id":"ce4bh4p2rcd13ifvqe0g","pricing_plan_id":"cebpf4jnsgd1na2vs0mg"},{"bike_id":"a81f4d84-a26c-4be0-b0a2-9a9be1c237e8","system_id":"levelo_inurba_marseille","lat":43.26803,"lon":5.40258,"is_reserved":false,"is_disabled":false,"rental_uris":{"android":"levelo://app?vid=a81f4d84-a26c-4be0-b0a2-9a9be1c237e8","ios":"levelo://app?vid=a81f4d84-a26c-4be0-b0a2-9a9be1c237e8"},"vehicle_type_id":"4","last_reported":1744531902,"current_range_meters":19200,"station_id":"ce501612rcd8frsf0b60","pricing_plan_id":"cebpf4jnsgd1na2vs0mg"},{"bike_id":"b72c6d84-2480-4efc-9e0a-4bb9ddedaa45","system_id":"levelo_inurba_marseille","lat":43.30153,"lon":5.3808,"is_reserved":false,"is_disabled":false,"rental_uris":{"android":"levelo://app?vid=b72c6d84-2480-4efc-9e0a-4bb9ddedaa45","ios":"levelo://app?vid=b72c6d84-2480-4efc-9e0a-4bb9ddedaa45"},"vehicle_type_id":"4","last_reported":1744531902,"current_range_meters":19600,"station_id":"ce4bgjp2rcd13ifvqbh0","pricing_plan_id":"cebpf4jnsgd1na2vs0mg"},{"bike_id":"9e335b17-0bd3-425d-86cc-4e0f6cccf8c1","system_id":"levelo_inurba_marseille","lat":43.34142,"lon":5.40905,"is_reserved":false,"is_disabled":false,"rental_uris":{"android":"levelo://app?vid=9e335b17-0bd3-425d-86cc-4e0f6cccf8c1","ios":"levelo://app?vid=9e335b17-0bd3-425d-86cc-4e0f6cccf8c1"},"vehicle_type_id":"4","last_reported":1744531902,"current_range_meters":20000,"station_id":"ce4bhqh2rcd13ifvqhlg","pricing_plan_id":"cebpf4jnsgd1na2vs0mg"},{"bike_id":"bf292281-e0e3-4a7a-8b38-3f1f596f1b40","system_id":"levelo_inurba_marseille","lat":43.241665,"lon":5.363912,"is_reserved":false,"is_disabled":false,"rental_uris":{"android":"levelo://app?vid=bf292281-e0e3-4a7a-8b38-3f1f596f1b40","ios":"levelo://app?vid=bf292281-e0e3-4a7a-8b38-3f1f596f1b40"},"vehicle_type_id":"4","last_reported":1744531902,"current_range_meters":20000,"station_id":"cpo36qri1sfpv3e86is0","pricing_plan_id":"cebpf4jnsgd1na2vs0mg"},{"bike_id":"377814b8-f768-49f0-9445-30ce7cbbddb0","system_id":"levelo_inurba_marseille","lat":43.32339,"lon":5.4062,"is_reserved":false,"is_disabled":false,"rental_uris":{"android":"levelo://app?vid=377814b8-f768-49f0-9445-30ce7cbbddb0","ios":"levelo://app?vid=377814b8-f768-49f0-9445-30ce7cbbddb0"},"vehicle_type_id":"4","last_reported":1744531902,"current_range_meters":20000,"station_id":"ce4bhq92rcd13ifvqhjg","pricing_plan_id":"cebpf4jnsgd1na2vs0mg"},{"bike_id":"bced71b4-58b7-462c-8aec-3aa148639c87","system_id":"levelo_inurba_marseille","lat":43.241658,"lon":5.397354,"is_reserved":false,"is_disabled":false,"rental_uris":{"android":"levelo://app?vid=bced71b4-58b7-462c-8aec-3aa148639c87","ios":"levelo://app?vid=bced71b4-58b7-462c-8aec-3aa148639c87"},"vehicle_type_id":"4","last_reported":1744531902,"current_range_meters":20000,"station_id":"ce4bhn12rcd13ifvqgpg","pricing_plan_id":"cebpf4jnsgd1na2vs0mg"},{"bike_id":"4a3c9e30-07b5-43fd-bc7c-bfab52b93442","system_id":"levelo_inurba_marseille","lat":43.299809,"lon":5.371691,"is_reserved":false,"is_disabled":false,"rental_uris":{"android":"levelo://app?vid=4a3c9e30-07b5-43fd-bc7c-bfab52b93442","ios":"levelo://app?vid=4a3c9e30-07b5-43fd-bc7c-bfab52b93442"},"vehicle_type_id":"4","last_reported":1744531902,"current_range_meters":19600,"station_id":"ce4bh0h2rcd13ifvqd60","pricing_plan_id":"cebpf4jnsgd1na2vs0mg"},{"bike_id":"bd41319d-8572-46ce-bd35-d28e2708bb03","system_id":"levelo_inurba_marseille","lat":43.279694,"lon":5.387299,"is_reserved":false,"is_disabled":false,"rental_uris":{"android":"levelo://app?vid=bd41319d-8572-46ce-bd35-d28e2708bb03","ios":"levelo://app?vid=bd41319d-8572-46ce-bd35-d28e2708bb03"},"vehicle_type_id":"4","last_reported":1744531902,"current_range_meters":20400,"station_id":"ce4bhg12rcd13ifvqf80","pricing_plan_id":"cebpf4jnsgd1na2vs0mg"},{"bike_id":"8e84781a-82c3-4b14-a541-78f95f1999c0","system_id":"levelo_inurba_marseille","lat":43.27455,"lon":5.394,"is_reserved":false,"is_disabled":true,"rental_uris":{"android":"levelo://app?vid=8e84781a-82c3-4b14-a541-78f95f1999c0","ios":"levelo://app?vid=8e84781a-82c3-4b14-a541-78f95f1999c0"},"vehicle_type_id":"4","last_reported":1744531902,"current_range_meters":20400,"station_id":"ce4bhdp2rcd13ifvqf20","pricing_plan_id":"cebpf4jnsgd1na2vs0mg"},{"bike_id":"59c7d7f9-492d-4240-b3d4-e8d1015f1ebd","system_id":"levelo_inurba_marseille","lat":43.21772,"lon":5.34626,"is_reserved":false,"is_disabled":true,"rental_uris":{"android":"levelo://app?vid=59c7d7f9-492d-4240-b3d4-e8d1015f1ebd","ios":"levelo://app?vid=59c7d7f9-492d-4240-b3d4-e8d1015f1ebd"},"vehicle_type_id":"4","last_reported":1744531902,"current_range_meters":20400,"station_id":"cpo36qri1sfpv3e86is0","pricing_plan_id":"cebpf4jnsgd1na2vs0mg"},{"bike_id":"df49f249-4aa5-4aa6-9193-27ea889ed0d0","system_id":"levelo_inurba_marseille","lat":43.304411,"lon":5.388933,"is_reserved":false,"is_disabled":true,"rental_uris":{"android":"levelo://app?vid=df49f249-4aa5-4aa6-9193-27ea889ed0d0","ios":"levelo://app?vid=df49f249-4aa5-4aa6-9193-27ea889ed0d0"},"vehicle_type_id":"4","last_reported":1744531902,"current_range_meters":20400,"station_id":"ce4bgk12rcd13ifvqbi0","pricing_plan_id":"cebpf4jnsgd1na2vs0mg"},{"bike_id":"b8f7eba9-af11-4a32-acfe-4e98451861c3","system_id":"levelo_inurba_marseille","lat":43.2797,"lon":5.41055,"is_reserved":false,"is_disabled":false,"rental_uris":{"android":"levelo://app?vid=b8f7eba9-af11-4a32-acfe-4e98451861c3","ios":"levelo://app?vid=b8f7eba9-af11-4a32-acfe-4e98451861c3"},"vehicle_type_id":"4","last_reported":1744531902,"current_range_meters":20400,"station_id":"ce4bhnp2rcd13ifvqh0g","pricing_plan_id":"cebpf4jnsgd1na2vs0mg"},{"bike_id":"6127eec7-b05c-4b35-a7f7-cfc48beea6c2","system_id":"levelo_inurba_marseille","lat":43.26463,"lon":5.39586,"is_reserved":false,"is_disabled":false,"rental_uris":{"android":"levelo://app?vid=6127eec7-b05c-4b35-a7f7-cfc48beea6c2","ios":"levelo://app?vid=6127eec7-b05c-4b35-a7f7-cfc48beea6c2"},"vehicle_type_id":"4","last_reported":1744531902,"current_range_meters":20400,"station_id":"","pricing_plan_id":"cebpf4jnsgd1na2vs0mg"},{"bike_id":"27a55245-8dd2-4f1a-af63-95a9d7b71690","system_id":"levelo_inurba_marseille","lat":43.31058,"lon":5.37861,"is_reserved":false,"is_disabled":true,"rental_uris":{"android":"levelo://app?vid=27a55245-8dd2-4f1a-af63-95a9d7b71690","ios":"levelo://app?vid=27a55245-8dd2-4f1a-af63-95a9d7b71690"},"vehicle_type_id":"4","last_reported":1744531902,"current_range_meters":20400,"station_id":"","pricing_plan_id":"cebpf4jnsgd1na2vs0mg"},{"bike_id":"81eae6f7-3a30-449a-8cdc-6c50a84974cc","system_id":"levelo_inurba_marseille","lat":43.24161,"lon":5.36395,"is_reserved":false,"is_disabled":false,"rental_uris":{"android":"levelo://app?vid=81eae6f7-3a30-449a-8cdc-6c50a84974cc","ios":"levelo://app?vid=81eae6f7-3a30-449a-8cdc-6c50a84974cc"},"vehicle_type_id":"4","last_reported":1744531902,"current_range_meters":20400,"station_id":"cpo36qri1sfpv3e86is0","pricing_plan_id":"cebpf4jnsgd1na2vs0mg"},{"bike_id":"d0e78fc7-70d8-4830-aa71-36ee4f5580bc","system_id":"levelo_inurba_marseille","lat":43.26811,"lon":5.40249,"is_reserved":false,"is_disabled":false,"rental_uris":{"android":"levelo://app?vid=d0e78fc7-70d8-4830-aa71-36ee4f5580bc","ios":"levelo://app?vid=d0e78fc7-70d8-4830-aa71-36ee4f5580bc"},"vehicle_type_id":"4","last_reported":1744531902,"current_range_meters":20800,"station_id":"ce501612rcd8frsf0b60","pricing_plan_id":"cebpf4jnsgd1na2vs0mg"},{"bike_id":"48304a08-5a69-4a32-a932-369007df2aca","system_id":"levelo_inurba_marseille","lat":43.31482,"lon":5.37293,"is_reserved":false,"is_disabled":false,"rental_uris":{"android":"levelo://app?vid=48304a08-5a69-4a32-a932-369007df2aca","ios":"levelo://app?vid=48304a08-5a69-4a32-a932-369007df2aca"},"vehicle_type_id":"4","last_reported":1744531902,"current_range_meters":20800,"station_id":"ce4bgt12rcd13ifvqcd0","pricing_plan_id":"cebpf4jnsgd1na2vs0mg"},{"bike_id":"177c3862-a430-4a5c-ad18-5b822ad7a8c8","system_id":"levelo_inurba_marseille","lat":43.29458,"lon":5.39753,"is_reserved":false,"is_disabled":false,"rental_uris":{"android":"levelo://app?vid=177c3862-a430-4a5c-ad18-5b822ad7a8c8","ios":"levelo://app?vid=177c3862-a430-4a5c-ad18-5b822ad7a8c8"},"vehicle_type_id":"4","last_reported":1744531902,"current_range_meters":20800,"station_id":"ce4bh3h2rcd13ifvqdo0","pricing_plan_id":"cebpf4jnsgd1na2vs0mg"},{"bike_id":"1deb9350-7de0-498c-8c7a-806a1e9db2ca","system_id":"levelo_inurba_marseille","lat":43.25721,"lon":5.41108,"is_reserved":false,"is_disabled":false,"rental_uris":{"android":"levelo://app?vid=1deb9350-7de0-498c-8c7a-806a1e9db2ca","ios":"levelo://app?vid=1deb9350-7de0-498c-8c7a-806a1e9db2ca"},"vehicle_type_id":"4","last_reported":1744531902,"current_range_meters":20800,"station_id":"ce4bhkp2rcd13ifvqgd0","pricing_plan_id":"cebpf4jnsgd1na2vs0mg"},{"bike_id":"5a1a2614-ab8e-44f3-bb9f-a31bc70b28b4","system_id":"levelo_inurba_marseille","lat":43.30597,"lon":5.39339,"is_reserved":false,"is_disabled":false,"rental_uris":{"android":"levelo://app?vid=5a1a2614-ab8e-44f3-bb9f-a31bc70b28b4","ios":"levelo://app?vid=5a1a2614-ab8e-44f3-bb9f-a31bc70b28b4"},"vehicle_type_id":"4","last_reported":1744531902,"current_range_meters":20800,"station_id":"ce4bh0p2rcd13ifvqd80","pricing_plan_id":"cebpf4jnsgd1na2vs0mg"},