{"last_updated":1761919848,"ttl":60,"version":"2.2","data":{"bikes":[{"bike_id":"fdf050b8-b3fa-449e-b039-5747dbce1232","system_id":"levelo_inurba_marseille","lat":43.2927,"lon":5.36841,"is_reserved":false,"is_disabled":false,"rental_uris":{"android":"levelo://app?vid=fdf050b8-b3fa-449e-b039-5747dbce1232","ios":"levelo://app?vid=fdf050b8-b3fa-449e-b039-5747dbce1232"},"vehicle_type_id":"4","last_reported":1761919848,"current_range_meters":2800,"station_id":"ce4bhbp2rcd13ifvqesg","pricing_plan_id":"cebpf4jnsgd1na2vs0mg"},{"bike_id":"b418c441-0482-4c7f-9b94-2ec9c0964d99","system_id":"levelo_inurba_marseille","lat":43.27201,"lon":5.39186,"is_reserved":false,"is_disabled":false,"rental_uris":{"android":"levelo://app?vid=b418c441-0482-4c7f-9b94-2ec9c0964d99","ios":"levelo://app?vid=b418c441-0482-4c7f-9b94-2ec9c0964d99"},"vehicle_type_id":"4","last_reported":1761919848,"current_range_meters":2800,"station_id":"ce4bhhp2rcd13ifvqfm0","pricing_plan_id":"cebpf4jnsgd1na2vs0mg"},{"bike_id":"d1abe563-c007-4f3a-a914-7c06629ff561","system_id":"levelo_inurba_marseille","lat":43.29929,"lon":5.36543,"is_reserved":false,"is_disabled":false,"rental_uris":{"android":"levelo://app?vid=d1abe563-c007-4f3a-a914-7c06629ff561","ios":"levelo://app?vid=d1abe563-c007-4f3a-a914-7c06629ff561"},"vehicle_type_id":"4","last_reported":1761919848,"current_range_meters":2800,"station_id":"ce4bgm92rcd13ifvqbr0","pricing_plan_id":"cebpf4jnsgd1na2vs0mg"},{"bike_id":"d6c5c7ed-267b-4628-a446-92f0420368bc","system_id":"levelo_inurba_marseille","lat":43.289224,"lon":5.383919,"is_reserved":false,"is_disabled":false,"rental_uris":{"android":"levelo://app?vid=d6c5c7ed-267b-4628-a446-92f0420368bc","ios":"levelo://app?vid=d6c5c7ed-267b-4628-a446-92f0420368bc"},"vehicle_type_id":"4","last_reported":1761919848,"current_range_meters":2800,"station_id":"ce4bh612rcd13ifvqe6g","pricing_plan_id":"cebpf4jnsgd1na2vs0mg"},{"bike_id":"04c37b00-78ef-4797-8d53-8bc1f23df3f9","system_id":"levelo_inurba_marseille","lat":43.290335,"lon":5.381142,"is_reserved":false,"is_disabled":false,"rental_uris":{"android":"levelo://app?vid=04c37b00-78ef-4797-8d53-8bc1f23df3f9","ios":"levelo://app?vid=04c37b00-78ef-4797-8d53-8bc1f23df3f9"},"vehicle_type_id":"4","last_reported":1761919848,"current_range_meters":2800,"station_id":"ce4bh4p2rcd13ifvqe1g","pricing_plan_id":"cebpf4jnsgd1na2vs0mg"},{"bike_id":"d90e1df1-8d42-4289-9134-f02098bece01","system_id":"levelo_inurba_marseille","lat":43.24388,"lon":5.37064,"is_reserved":false,"is_disabled":false,"rental_uris":{"android":"levelo://app?vid=d90e1df1-8d42-4289-9134-f02098bece01","ios":"levelo://app?vid=d90e1df1-8d42-4289-9134-f02098bece01"},"vehicle_type_id":"4","last_reported":1761919848,"current_range_meters":3200,"station_id":"ce4bhhh2rcd13ifvqfk0","pricing_plan_id":"cebpf4jnsgd1na2vs0mg"},{"bike_id":"465a950f-babe-4c10-9bda-1d99b3678051","system_id":"levelo_inurba_marseille","lat":43.29486,"lon":5.43314,"is_reserved":false,"is_disabled":false,"rental_uris":{"android":"levelo://app?vid=465a950f-babe-4c10-9bda-1d99b3678051","ios":"levelo://app?vid=465a950f-babe-4c10-9bda-1d99b3678051"},"vehicle_type_id":"4","last_reported":1761919848,"current_range_meters":3600,"station_id":"st_d3j5ugp08ojc73fj9d10","pricing_plan_id":"cebpf4jnsgd1na2vs0mg"},{"bike_id":"6b035337-64ed-4f17-bf10-0a33a9618a8c","system_id":"levelo_inurba_marseille","lat":43.26207,"lon":5.37447,"is_reserved":false,"is_disabled":false,"rental_uris":{"android":"levelo://app?vid=6b035337-64ed-4f17-bf10-0a33a9618a8c","ios":"levelo://app?vid=6b035337-64ed-4f17-bf10-0a33a9618a8c"},"vehicle_type_id":"4","last_reported":1761919848,"current_range_meters":3600,"station_id":"ce4bhgp2rcd13ifvqfc0","pricing_plan_id":"cebpf4jnsgd1na2vs0mg"},{"bike_id":"cec9a579-b83d-49fe-8cd1-6628c9674691","system_id":"levelo_inurba_marseille","lat":43.31247,"lon":5.36849,"is_reserved":false,"is_disabled":false,"rental_uris":{"android":"levelo://app?vid=cec9a579-b83d-49fe-8cd1-6628c9674691","ios":"levelo://app?vid=cec9a579-b83d-49fe-8cd1-6628c9674691"},"vehicle_type_id":"4","last_reported":1761919848,"current_range_meters":4000,"station_id":"ce4bgl92rcd13ifvqbq0","pricing_plan_id":"cebpf4jnsgd1na2vs0mg"},{"bike_id":"d40f0ed5-8ac5-4fc7-876e-58b3bbf6bf9b","system_id":"levelo_inurba_marseille","lat":43.27324,"lon":5.39066,"is_reserved":false,"is_disabled":false,"rental_uris":{"android":"levelo://app?vid=d40f0ed5-8ac5-4fc7-876e-58b3bbf6bf9b","ios":"levelo://app?vid=d40f0ed5-8ac5-4fc7-876e-58b3bbf6bf9b"},"vehicle_type_id":"4","last_reported":1761919848,"current_range_meters":4000,"station_id":"ce4bhgp2rcd13ifvqfe0","pricing_plan_id":"cebpf4jnsgd1na2vs0mg"},{"bike_id":"578383f1-2c1a-4a63-8744-3f60621281fa","system_id":"levelo_inurba_marseille","lat":43.29031,"lon":5.37571,"is_reserved":false,"is_disabled":false,"rental_uris":{"android":"levelo://app?vid=578383f1-2c1a-4a63-8744-3f60621281fa","ios":"levelo://app?vid=578383f1-2c1a-4a63-8744-3f60621281fa"},"vehicle_type_id":"4","last_reported":1761919848,"current_range_meters":4000,"station_id":"","pricing_plan_id":"cebpf4jnsgd1na2vs0mg"},{"bike_id":"afa4077a-36a7-4e0c-adbc-b6fea302c38c","system_id":"levelo_inurba_marseille","lat":43.267892,"lon":5.394115,"is_reserved":false,"is_disabled":false,"rental_uris":{"android":"levelo://app?vid=afa4077a-36a7-4e0c-adbc-b6fea302c38c","ios":"levelo://app?vid=afa4077a-36a7-4e0c-adbc-b6fea302c38c"},"vehicle_type_id":"4","last_reported":1761919848,"current_range_meters":4000,"station_id":"ce4bhh12rcd13ifvqfg0","pricing_plan_id":"cebpf4jnsgd1na2vs0mg"},{"bike_id":"6a68ab46-8aa9-4233-8887-9a7e49ab4c49","system_id":"levelo_inurba_marseille","lat":43.23182,"lon":5.39981,"is_reserved":false,"is_disabled":false,"rental_uris":{"android":"levelo://app?vid=6a68ab46-8aa9-4233-8887-9a7e49ab4c49","ios":"levelo://app?vid=6a68ab46-8aa9-4233-8887-9a7e49ab4c49"},"vehicle_type_id":"4","last_reported":1761919848,"current_range_meters":4000,"station_id":"ce4bhn12rcd13ifvqgqg","pricing_plan_id":"cebpf4jnsgd1na2vs0mg"},{"bike_id":"80cde17b-197a-4666-8e1e-92c981f7a2d9","system_id":"levelo_inurba_marseille","lat":43.29551,"lon":5.42274,"is_reserved":false,"is_disabled":false,"rental_uris":{"android":"levelo://app?vid=80cde17b-197a-4666-8e1e-92c981f7a2d9","ios":"levelo://app?vid=80cde17b-197a-4666-8e1e-92c981f7a2d9"},"vehicle_type_id":"4","last_reported":1761919848,"current_range_meters":4400,"station_id":"ce4bhph2rcd13ifvqhdg","pricing_plan_id":"cebpf4jnsgd1na2vs0mg"},{"bike_id":"723e905e-b932-4593-bf98-59501ceb292e","system_id":"levelo_inurba_marseille","lat":43.2993,"lon":5.36551,"is_reserved":false,"is_disabled":false,"rental_uris":{"android":"levelo://app?vid=723e905e-b932-4593-bf98-59501ceb292e","ios":"levelo://app?vid=723e905e-b932-4593-bf98-59501ceb292e"},"vehicle_type_id":"4","last_reported":1761919848,"current_range_meters":4400,"station_id":"ce4bgm92rcd13ifvqbr0","pricing_plan_id":"cebpf4jnsgd1na2vs0mg"},{"bike_id":"2c28eae7-ae69-4bbd-b543-da98b26b9927","system_id":"levelo_inurba_marseille","lat":43.3024,"lon":5.40075,"is_reserved":false,"is_disabled":false,"rental_uris":{"android":"levelo://app?vid=2c28eae7-ae69-4bbd-b543-da98b26b9927","ios":"levelo://app?vid=2c28eae7-ae69-4bbd-b543-da98b26b9927"},"vehicle_type_id":"4","last_reported":1761919848,"current_range_meters":4800,"station_id":"ce4bgvh2rcd13ifvqcs0","pricing_plan_id":"cebpf4jnsgd1na2vs0mg"},{"bike_id":"d66f0a2c-6a20-4c9c-9c48-a0af1bd64efa","system_id":"levelo_inurba_marseille","lat":43.21746,"lon":5.34606,"is_reserved":false,"is_disabled":false,"rental_uris":{"android":"levelo://app?vid=d66f0a2c-6a20-4c9c-9c48-a0af1bd64efa","ios":"levelo://app?vid=d66f0a2c-6a20-4c9c-9c48-a0af1bd64efa"},"vehicle_type_id":"4","last_reported":1761919848,"current_range_meters":4800,"station_id":"st_cvj6r9ubvosntc0bgbag","pricing_plan_id":"cebpf4jnsgd1na2vs0mg"},{"bike_id":"68618520-cfb3-423f-80d3-84d02ed9fa76","system_id":"levelo_inurba_marseille","lat":43.25575,"lon":5.38252,"is_reserved":false,"is_disabled":false,"rental_uris":{"android":"levelo://app?vid=68618520-cfb3-423f-80d3-84d02ed9fa76","ios":"levelo://app?vid=68618520-cfb3-423f-80d3-84d02ed9fa76"},"vehicle_type_id":"4","last_reported":1761919848,"current_range_meters":4800,"station_id":"ce4bhih2rcd13ifvqfs0","pricing_plan_id":"cebpf4jnsgd1na2vs0mg"},{"bike_id":"f5d09d48-3319-470d-bbf7-c676df68075e","system_id":"levelo_inurba_marseille","lat":43.28482,"lon":5.38558,"is_reserved":false,"is_disabled":false,"rental_uris":{"android":"levelo://app?vid=f5d09d48-3319-470d-bbf7-c676df68075e","ios":"levelo://app?vid=f5d09d48-3319-470d-bbf7-c676df68075e"},"vehicle_type_id":"4","last_reported":1761919848,"current_range_meters":4800,"station_id":"ce4bh8p2rcd13ifvqeb0","pricing_plan_id":"cebpf4jnsgd1na2vs0mg"},{"bike_id":"c8fe6bd8-39d4-4e87-b761-def998e4876b","system_id":"levelo_inurba_marseille","lat":43.29274,"lon":5.36851,"is_reserved":false,"is_disabled":false,"rental_uris":{"android":"levelo://app?vid=c8fe6bd8-39d4-4e87-b761-def998e4876b","ios":"levelo://app?vid=c8fe6bd8-39d4-4e87-b761-def998e4876b"},"vehicle_type_id":"4","last_reported":1761919848,"current_range_meters":4800,"station_id":"ce4bhbp2rcd13ifvqesg","pricing_plan_id":"cebpf4jnsgd1na2vs0mg"},{"bike_id":"184d4afd-9425-4c0a-a5ae-3927750773bf","system_id":"levelo_inurba_marseille","lat":43.217595,"lon":5.346062,"is_reserved":false,"is_disabled":false,"rental_uris":{"android":"levelo://app?vid=184d4afd-9425-4c0a-a5ae-3927750773bf","ios":"levelo://app?vid=184d4afd-9425-4c0a-a5ae-3927750773bf"},"vehicle_type_id":"4","last_reported":1761919848,"current_range_meters":4800,"station_id":"st_cvj6r9ubvosntc0bgbag","pricing_plan_id":"cebpf4jnsgd1na2vs0mg"},{"bike_id":"78fd214b-10e8-47d7-9a79-f59af6acac5b","system_id":"levelo_inurba_marseille","lat":43.27966,"lon":5.38714,"is_reserved":false,"is_disabled":false,"rental_uris":{"android":"levelo://app?vid=78fd214b-10e8-47d7-9a79-f59af6acac5b","ios":"levelo://app?vid=78fd214b-10e8-47d7-9a79-f59af6acac5b"},"vehicle_type_id":"4","last_reported":1761919848,"current_range_meters":5600,"station_id":"ce4bhg12rcd13ifvqf80","pricing_plan_id":"cebpf4jnsgd1na2vs0mg"},{"bike_id":"6be3ce6f-f09f-466d-8c2f-6e60ebe7919d","system_id":"levelo_inurba_marseille","lat":43.28965,"lon":5.37841,"is_reserved":false,"is_disabled":false,"rental_uris":{"android":"levelo://app?vid=6be3ce6f-f09f-466d-8c2f-6e60ebe7919d","ios":"levelo://app?vid=6be3ce6f-f09f-466d-8c2f-6e60ebe7919d"},"vehicle_type_id":"4","last_reported":1761919848,"current_range_meters":5600,"station_id":"ce4bh9p2rcd13ifvqed0","pricing_plan_id":"cebpf4jnsgd1na2vs0mg"},{"bike_id":"c9e427f3-1e43-4a4c-8f21-d5f0dd8d6f92","system_id":"levelo_inurba_marseille","lat":43.25724,"lon":5.41107,"is_reserved":false,"is_disabled":false,"rental_uris":{"android":"levelo://app?vid=c9e427f3-1e43-4a4c-8f21-d5f0dd8d6f92","ios":"levelo://app?vid=c9e427f3-1e43-4a4c-8f21-d5f0dd8d6f92"},"vehicle_type_id":"4","last_reported":1761919848,"current_range_meters":5600,"station_id":"ce4bhkp2rcd13ifvqgd0","pricing_plan_id":"cebpf4jnsgd1na2vs0mg"},{"bike_id":"3d1c8fec-5be1-42b8-8694-1d92f430c3f4","system_id":"levelo_inurba_marseille","lat":43.28976,"lon":5.37836,"is_reserved":false,"is_disabled":false,"rental_uris":{"android":"levelo://app?vid=3d1c8fec-5be1-42b8-8694-1d92f430c3f4","ios":"levelo://app?vid=3d1c8fec-5be1-42b8-8694-1d92f430c3f4"},"vehicle_type_id":"4","last_reported":1761919848,"current_range_meters":5600,"station_id":"ce4bh9p2rcd13ifvqed0","pricing_plan_id":"cebpf4jnsgd1na2vs0mg"},{"bike_id":"2391958f-2f40-4da2-af29-ede1993f2e5d","system_id":"levelo_inurba_marseille","lat":43.26569,"lon":5.39013,"is_reserved":false,"is_disabled":false,"rental_uris":{"android":"levelo://app?vid=2391958f-2f40-4da2-af29-ede1993f2e5d","ios":"levelo://app?vid=2391958f-2f40-4da2-af29-ede1993f2e5d"},"vehicle_type_id":"4","last_reported":1761919848,"current_range_meters":5600,"station_id":"ce4bhe12rcd13ifvqf30","pricing_plan_id":"cebpf4jnsgd1na2vs0mg"},{"bike_id":"4d87c5bf-1e08-4761-98f4-8dcea73cff1b","system_id":"levelo_inurba_marseille","lat":43.28569,"lon":5.39501,"is_reserved":false,"is_disabled":false,"rental_uris":{"android":"levelo://app?vid=4d87c5bf-1e08-4761-98f4-8dcea73cff1b","ios":"levelo://app?vid=4d87c5bf-1e08-4761-98f4-8dcea73cff1b"},"vehicle_type_id":"4","last_reported":1761919848,"current_range_meters":5600,"station_id":"ce4bh292rcd13ifvqdg0","pricing_plan_id":"cebpf4jnsgd1na2vs0mg"},{"bike_id":"1d677e77-04a4-4d80-9467-4d9808d9f786","system_id":"levelo_inurba_marseille","lat":43.273864,"lon":5.362474,"is_reserved":false,"is_disabled":false,"rental_uris":{"android":"levelo://app?vid=1d677e77-04a4-4d80-9467-4d9808d9f786","ios":"levelo://app?vid=1d677e77-04a4-4d80-9467-4d9808d9f786"},"vehicle_type_id":"4","last_reported":1761919848,"current_range_meters":5600,"station_id":"ce4bhbh2rcd13ifvqeo0","pricing_plan_id":"cebpf4jnsgd1na2vs0mg"},{"bike_id":"bcb808ac-9407-4895-bd46-fdb8da10969a","system_id":"levelo_inurba_marseille","lat":43.30331,"lon":5.40435,"is_reserved":false,"is_disabled":false,"rental_uris":{"android":"levelo://app?vid=bcb808ac-9407-4895-bd46-fdb8da10969a","ios":"levelo://app?vid=bcb808ac-9407-4895-bd46-fdb8da10969a"},"vehicle_type_id":"4","last_reported":1761919848,"current_range_meters":6000,"station_id":"ce4bh012rcd13ifvqd10","pricing_plan_id":"cebpf4jnsgd1na2vs0mg"},{"bike_id":"50e84b02-7cda-452e-bc2e-bf6dd88087cc","system_id":"levelo_inurba_marseille","lat":43.27056,"lon":5.40259,"is_reserved":false,"is_disabled":false,"rental_uris":{"android":"levelo://app?vid=50e84b02-7cda-452e-bc2e-bf6dd88087cc","ios":"levelo://app?vid=50e84b02-7cda-452e-bc2e-bf6dd88087cc"},"vehicle_type_id":"4","last_reported":1761919848,"current_range_meters":6000,"station_id":"ce4bhk92rcd13ifvqgc0","pricing_plan_id":"cebpf4jnsgd1na2vs0mg"},{"bike_id":"fcab4ddf-7c9a-4832-a957-af763c1f4abb","system_id":"levelo_inurba_marseille","lat":43.303754,"lon":5.424958,"is_reserved":false,"is_disabled":true,"rental_uris":{"android":"levelo://app?vid=fcab4ddf-7c9a-4832-a957-af763c1f4abb","ios":"levelo://app?vid=fcab4ddf-7c9a-4832-a957-af763c1f4abb"},"vehicle_type_id":"4","last_reported":1761919848,"current_range_meters":6400,"station_id":"","pricing_plan_id":"cebpf4jnsgd1na2vs0mg"},{"bike_id":"1bdb0524-fd2f-434a-9e83-4b7a1a09b5bb","system_id":"levelo_inurba_marseille","lat":43.33402,"lon":5.41116,"is_reserved":false,"is_disabled":false,"rental_uris":{"android":"levelo://app?vid=1bdb0524-fd2f-434a-9e83-4b7a1a09b5bb","ios":"levelo://app?vid=1bdb0524-fd2f-434a-9e83-4b7a1a09b5bb"},"vehicle_type_id":"4","last_reported":1761919848,"current_range_meters":6400,"station_id":"","pricing_plan_id":"cebpf4jnsgd1na2vs0mg"},{"bike_id":"ae672b5b-fab2-4dfa-9ece-35c6f288d851","system_id":"levelo_inurba_marseille","lat":43.24998,"lon":5.38942,"is_reserved":false,"is_disabled":false,"rental_uris":{"android":"levelo://app?vid=ae672b5b-fab2-4dfa-9ece-35c6f288d851","ios":"levelo://app?vid=ae672b5b-fab2-4dfa-9ece-35c6f288d851"},"vehicle_type_id":"4","last_reported":1761919848,"current_range_meters":6800,"station_id":"ce4bhgp2rcd13ifvqfd0","pricing_plan_id":"cebpf4jnsgd1na2vs0mg"},{"bike_id":"fac2281b-453d-41be-9e57-aa2373713318","system_id":"levelo_inurba_marseille","lat":43.29569,"lon":5.37517,"is_reserved":false,"is_disabled":false,"rental_uris":{"android":"levelo://app?vid=fac2281b-453d-41be-9e57-aa2373713318","ios":"levelo://app?vid=fac2281b-453d-41be-9e57-aa2373713318"},"vehicle_type_id":"4","last_reported":1761919848,"current_range_meters":6800,"station_id":"ce4bgh92rcd13ifvqb50","pricing_plan_id":"cebpf4jnsgd1na2vs0mg"},{"bike_id":"bc66ccaa-e368-456d-a3fa-64d188868e54","system_id":"levelo_inurba_marseille","lat":43.30951,"lon":5.39036,"is_reserved":false,"is_disabled":false,"rental_uris":{"android":"levelo://app?vid=bc66ccaa-e368-456d-a3fa-64d188868e54","ios":"levelo://app?vid=bc66ccaa-e368-456d-a3fa-64d188868e54"},"vehicle_type_id":"4","last_reported":1761919848,"current_range_meters":6800,"station_id":"ce4bgup2rcd13ifvqco0","pricing_plan_id":"cebpf4jnsgd1na2vs0mg"},{"bike_id":"7a05058d-8c03-4be4-8d45-916db0f2d0de","system_id":"levelo_inurba_marseille","lat":43.33596,"lon":5.41028,"is_reserved":false,"is_disabled":false,"rental_uris":{"android":"levelo://app?vid=7a05058d-8c03-4be4-8d45-916db0f2d0de","ios":"levelo://app?vid=7a05058d-8c03-4be4-8d45-916db0f2d0de"},"vehicle_type_id":"4","last_reported":1761919848,"current_range_meters":6800,"station_id":"ce4bhqh2rcd13ifvqhmg","pricing_plan_id":"cebpf4jnsgd1na2vs0mg"},{"bike_id":"ca14ac92-082c-4827-b50e-7a1805673da9","system_id":"levelo_inurba_marseille","lat":43.25931,"lon":5.40912,"is_reserved":false,"is_disabled":false,"rental_uris":{"android":"levelo://app?vid=ca14ac92-082c-4827-b50e-7a1805673da9","ios":"levelo://app?vid=ca14ac92-082c-4827-b50e-7a1805673da9"},"vehicle_type_id":"4","last_reported":1761919848,"current_range_meters":7200,"station_id":"ce4bhm92rcd13ifvqglg","pricing_plan_id":"cebpf4jnsgd1na2vs0mg"},{"bike_id":"d267d0f2-bdb7-4c90-a8eb-d7c90a914e45","system_id":"levelo_inurba_marseille","lat":43.29594,"lon":5.3809,"is_reserved":false,"is_disabled":false,"rental_uris":{"android":"levelo://app?vid=d267d0f2-bdb7-4c90-a8eb-d7c90a914e45","ios":"levelo://app?vid=d267d0f2-bdb7-4c90-a8eb-d7c90a914e45"},"vehicle_type_id":"4","last_reported":1761919848,"current_range_meters":7200,"station_id":"ce4bgl12rcd13ifvqbo0","pricing_plan_id":"cebpf4jnsgd1na2vs0mg"},{"bike_id":"4ea5c8d3-596b-4c15-9f77-2d54d14bff42","system_id":"levelo_inurba_marseille","lat":43.29875,"lon":5.3844,"is_reserved":false,"is_disabled":false,"rental_uris":{"android":"levelo://app?vid=4ea5c8d3-596b-4c15-9f77-2d54d14bff42","ios":"levelo://app?vid=4ea5c8d3-596b-4c15-9f77-2d54d14bff42"},"vehicle_type_id":"4","last_reported":1761919848,"current_range_meters":7200,"station_id":"","pricing_plan_id":"cebpf4jnsgd1na2vs0mg"},{"bike_id":"0181abcb-06db-4986-9ddd-609f8594ba25","system_id":"levelo_inurba_marseille","lat":43.29535,"lon":5.3902,"is_reserved":false,"is_disabled":false,"rental_uris":{"android":"levelo://app?vid=0181abcb-06db-4986-9ddd-609f8594ba25","ios":"levelo://app?vid=0181abcb-06db-4986-9ddd-609f8594ba25"},"vehicle_type_id":"4","last_reported":1761919848,"current_range_meters":7200,"station_id":"","pricing_plan_id":"cebpf4jnsgd1na2vs0mg"},{"bike_id":"6fff56e2-dc33-4322-9554-e738206d1bc0","system_id":"levelo_inurba_marseille","lat":43.21212,"lon":5.35066,"is_reserved":false,"is_disabled":false,"rental_uris":{"android":"levelo://app?vid=6fff56e2-dc33-4322-9554-e738206d1bc0","ios":"levelo://app?vid=6fff56e2-dc33-4322-9554-e738206d1bc0"},"vehicle_type_id":"4","last_reported":1761919848,"current_range_meters":7200,"station_id":"st_cvj6sg6p6f1abm77japg","pricing_plan_id":"cebpf4jnsgd1na2vs0mg"},{"bike_id":"9038c29f-6a34-4120-bb79-f434e4a87b1c","system_id":"levelo_inurba_marseille","lat":43.2316,"lon":5.43707,"is_reserved":false,"is_disabled":false,"rental_uris":{"android":"levelo://app?vid=9038c29f-6a34-4120-bb79-f434e4a87b1c","ios":"levelo://app?vid=9038c29f-6a34-4120-bb79-f434e4a87b1c"},"vehicle_type_id":"4","last_reported":1761919848,"current_range_meters":7200,"station_id":"ce4bhmp2rcd13ifvqgog","pricing_plan_id":"cebpf4jnsgd1na2vs0mg"},{"bike_id":"bdb3fad5-1f28-4608-a488-605efbbb5f0d","system_id":"levelo_inurba_marseille","lat":43.261893,"lon":5.374475,"is_reserved":false,"is_disabled":false,"rental_uris":{"android":"levelo://app?vid=bdb3fad5-1f28-4608-a488-605efbbb5f0d","ios":"levelo://app?vid=bdb3fad5-1f28-4608-a488-605efbbb5f0d"},"vehicle_type_id":"4","last_reported":1761919848,"current_range_meters":7200,"station_id":"ce4bh412rcd13ifvqdr0","pricing_plan_id":"cebpf4jnsgd1na2vs0mg"},{"bike_id":"b842f61a-3b9e-46d7-8109-51a8910c026a","system_id":"levelo_inurba_marseille","lat":43.21196,"lon":5.35088,"is_reserved":false,"is_disabled":false,"rental_uris":{"android":"levelo://app?vid=b842f61a-3b9e-46d7-8109-51a8910c026a","ios":"levelo://app?vid=b842f61a-3b9e-46d7-8109-51a8910c026a"},"vehicle_type_id":"4","last_reported":1761919848,"current_range_meters":8000,"station_id":"st_cvj6sg6p6f1abm77japg","pricing_plan_id":"cebpf4jnsgd1na2vs0mg"},{"bike_id":"3126ce35-4101-4b06-a7b2-19548fb25089","system_id":"levelo_inurba_marseille","lat":43.22924,"lon":5.35378,"is_reserved":false,"is_disabled":false,"rental_uris":{"android":"levelo://app?vid=3126ce35-4101-4b06-a7b2-19548fb25089","ios":"levelo://app?vid=3126ce35-4101-4b06-a7b2-19548fb25089"},"vehicle_type_id":"4","last_reported":1761919848,"current_range_meters":8000,"station_id":"cpo3532slgdg3j2ikp40","pricing_plan_id":"cebpf4jnsgd1na2vs0mg"},{"bike_id":"90174b17-4272-44a0-bb36-0eab66bb23c0","system_id":"levelo_inurba_marseille","lat":43.26481,"lon":5.39552,"is_reserved":false,"is_disabled":false,"rental_uris":{"android":"levelo://app?vid=90174b17-4272-44a0-bb36-0eab66bb23c0","ios":"levelo://app?vid=90174b17-4272-44a0-bb36-0eab66bb23c0"},"vehicle_type_id":"4","last_reported":1761919848,"current_range_meters":8400,"station_id":"ce4bhi12rcd13ifvqfq0","pricing_plan_id":"cebpf4jnsgd1na2vs0mg"},{"bike_id":"688e0991-23bb-4f67-a97d-b9bb7704a66a","system_id":"levelo_inurba_marseille","lat":43.29255,"lon":5.39101,"is_reserved":false,"is_disabled":false,"rental_uris":{"android":"levelo://app?vid=688e0991-23bb-4f67-a97d-b9bb7704a66a","ios":"levelo://app?vid=688e0991-23bb-4f67-a97d-b9bb7704a66a"},"vehicle_type_id":"4","last_reported":1761919848,"current_range_meters":8400,"station_id":"","pricing_plan_id":"cebpf4jnsgd1na2vs0mg"},{"bike_id":"661d241c-cb0a-4e05-baaa-19fe8320a84a","system_id":"levelo_inurba_marseille","lat":43.27956,"lon":5.38729,"is_reserved":false,"is_disabled":false,"rental_uris":{"android":"levelo://app?vid=661d241c-cb0a-4e05-baaa-19fe8320a84a","ios":"levelo://app?vid=661d241c-cb0a-4e05-baaa-19fe8320a84a"},"vehicle_type_id":"4","last_reported":1761919848,"current_range_meters":8400,"station_id":"ce4bhg12rcd13ifvqf80","pricing_plan_id":"cebpf4jnsgd1na2vs0mg"},{"bike_id":"b2f4b2d5-7e2a-4edd-97ae-333b8aaf69a4","system_id":"levelo_inurba_marseille","lat":43.23152,"lon":5.43727,"is_reserved":false,"is_disabled":false,"rental_uris":{"android":"levelo://app?vid=b2f4b2d5-7e2a-4edd-97ae-333b8aaf69a4","ios":"levelo://app?vid=b2f4b2d5-7e2a-4edd-97ae-333b8aaf69a4"},"vehicle_type_id":"4","last_reported":1761919848,"current_range_meters":8400,"station_id":"ce4bhmp2rcd13ifvqgog","pricing_plan_id":"cebpf4jnsgd1na2vs0mg"},{"bike_id":"8aac98d8-a610-4b45-8f33-d1420c5b01d7","system_id":"levelo_inurba_marseille","lat":43.29086,"lon":5.3816,"is_reserved":false,"is_disabled":false,"rental_uris":{"android":"levelo://app?vid=8aac98d8-a610-4b45-8f33-d1420c5b01d7","ios":"levelo://app?vid=8aac98d8-a610-4b45-8f33-d1420c5b01d7"},"vehicle_type_id":"4","last_reported":1761919848,"current_range_meters":8400,"station_id":"ce4bh512rcd13ifvqe2g","pricing_plan_id":"cebpf4jnsgd1na2vs0mg"},{"bike_id":"b41a26a2-4416-4670-92ef-4f9cf4633c3e","system_id":"levelo_inurba_marseille","lat":43.31317,"lon":5.36851,"is_reserved":false,"is_disabled":false,"rental_uris":{"android":"levelo://app?vid=b41a26a2-4416-4670-92ef-4f9cf4633c3e","ios":"levelo://app?vid=b41a26a2-4416-4670-92ef-4f9cf4633c3e"},"vehicle_type_id":"4","last_reported":1761919848,"current_range_meters":8800,"station_id":"","pricing_plan_id":"cebpf4jnsgd1na2vs0mg"},{"bike_id":"f5eedd56-7735-4454-87cb-3c091748c91d","system_id":"levelo_inurba_marseille","lat":43.240781,"lon":5.377567,"is_reserved":false,"is_disabled":false,"rental_uris":{"android":"levelo://app?vid=f5eedd56-7735-4454-87cb-3c091748c91d","ios":"levelo://app?vid=f5eedd56-7735-4454-87cb-3c091748c91d"},"vehicle_type_id":"4","last_reported":1761919848,"current_range_meters":8800,"station_id":"ce4bhnp2rcd13ifvqgvg","pricing_plan_id":"cebpf4jnsgd1na2vs0mg"},{"bike_id":"6647fba3-8c9f-4316-8e75-e5a829b7a5bd","system_id":"levelo_inurba_marseille","lat":43.23161,"lon":5.43714,"is_reserved":false,"is_disabled":false,"rental_uris":{"android":"levelo://app?vid=6647fba3-8c9f-4316-8e75-e5a829b7a5bd","ios":"levelo://app?vid=6647fba3-8c9f-4316-8e75-e5a829b7a5bd"},"vehicle_type_id":"4","last_reported":1761919848,"current_range_meters":8800,"station_id":"ce4bhmp2rcd13ifvqgog","pricing_plan_id":"cebpf4jnsgd1na2vs0mg"},{"bike_id":"0d875070-2c9c-470d-85f9-a0e4bdedafe0","system_id":"levelo_inurba_marseille","lat":43.2964,"lon":5.37709,"is_reserved":false,"is_disabled":false,"rental_uris":{"android":"levelo://app?vid=0d875070-2c9c-470d-85f9-a0e4bdedafe0","ios":"levelo://app?vid=0d875070-2c9c-470d-85f9-a0e4bdedafe0"},"vehicle_type_id":"4","last_reported":1761919848,"current_range_meters":8800,"station_id":"ce4bgi92rcd13ifvqb90","pricing_plan_id":"cebpf4jnsgd1na2vs0mg"},{"bike_id":"b3af6956-4399-4683-b864-112583080a3b","system_id":"levelo_inurba_marseille","lat":43.24543,"lon":5.39525,"is_reserved":false,"is_disabled":false,"rental_uris":{"android":"levelo://app?vid=b3af6956-4399-4683-b864-112583080a3b","ios":"levelo://app?vid=b3af6956-4399-4683-b864-112583080a3b"},"vehicle_type_id":"4","last_reported":1761919848,"current_range_meters":9200,"station_id":"ce4bhlp2rcd13ifvqgjg","pricing_plan_id":"cebpf4jnsgd1na2vs0mg"},{"bike_id":"3907cbc4-d852-47a1-ba6a-707a0fb6b769","system_id":"levelo_inurba_marseille","lat":43.273799,"lon":5.362539,"is_reserved":false,"is_disabled":false,"rental_uris":{"android":"levelo://app?vid=3907cbc4-d852-47a1-ba6a-707a0fb6b769","ios":"levelo://app?vid=3907cbc4-d852-47a1-ba6a-707a0fb6b769"},"vehicle_type_id":"4","last_reported":1761919848,"current_range_meters":9200,"station_id":"ce4bhbh2rcd13ifvqeo0","pricing_plan_id":"cebpf4jnsgd1na2vs0mg"},{"bike_id":"bbea39c3-3a7e-4049-989c-283a95ea2ac0","system_id":"levelo_inurba_marseille","lat":43.27061,"lon":5.40258,"is_reserved":false,"is_disabled":false,"rental_uris":{"android":"levelo://app?vid=bbea39c3-3a7e-4049-989c-283a95ea2ac0","ios":"levelo://app?vid=bbea39c3-3a7e-4049-989c-283a95ea2ac0"},"vehicle_type_id":"4","last_reported":1761919848,"current_range_meters":9200,"station_id":"ce4bhk92rcd13ifvqgc0","pricing_plan_id":"cebpf4jnsgd1na2vs0mg"},{"bike_id":"d99505fe-d7a7-4e44-b7f5-f0065cd01a03","system_id":"levelo_inurba_marseille","lat":43.33378,"lon":5.42902,"is_reserved":false,"is_disabled":false,"rental_uris":{"android":"levelo://app?vid=d99505fe-d7a7-4e44-b7f5-f0065cd01a03","ios":"levelo://app?vid=d99505fe-d7a7-4e44-b7f5-f0065cd01a03"},"vehicle_type_id":"4","last_reported":1761919848,"current_range_meters":10000,"station_id":"","pricing_plan_id":"cebpf4jnsgd1na2vs0mg"},{"bike_id":"9b93b5e1-c939-4745-bf85-2d21945442dc","system_id":"levelo_inurba_marseille","lat":43.29988,"lon":5.36399,"is_reserved":false,"is_disabled":false,"rental_uris":{"android":"levelo://app?vid=9b93b5e1-c939-4745-bf85-2d21945442dc","ios":"levelo://app?vid=9b93b5e1-c939-4745-bf85-2d21945442dc"},"vehicle_type_id":"4","last_reported":1761919848,"current_range_meters":10000,"station_id":"","pricing_plan_id":"cebpf4jnsgd1na2vs0mg"},{"bike_id":"b7bf08da-3155-4ebd-90f6-2c65138a1e9a","system_id":"levelo_inurba_marseille","lat":43.21188,"lon":5.35081,"is_reserved":false,"is_disabled":false,"rental_uris":{"android":"levelo://app?vid=b7bf08da-3155-4ebd-90f6-2c65138a1e9a","ios":"levelo://app?vid=b7bf08da-3155-4ebd-90f6-2c65138a1e9a"},"vehicle_type_id":"4","last_reported":1761919848,"current_range_meters":10000,"station_id":"st_cvj6sg6p6f1abm77japg","pricing_plan_id":"cebpf4jnsgd1na2vs0mg"},{"bike_id":"6d793f1a-bffd-4dca-8689-f30f1f050b48","system_id":"levelo_inurba_marseille","lat":43.28536,"lon":5.44103,"is_reserved":false,"is_disabled":false,"rental_uris":{"android":"levelo://app?vid=6d793f1a-bffd-4dca-8689-f30f1f050b48","ios":"levelo://app?vid=6d793f1a-bffd-4dca-8689-f30f1f050b48"},"vehicle_type_id":"4","last_reported":1761919848,"current_range_meters":10000,"station_id":"st_d3j3df2ikq2c7380ej80","pricing_plan_id":"cebpf4jnsgd1na2vs0mg"},{"bike_id":"a18dbf48-2c4d-4fa4-a4c5-c9871d73c9a0","system_id":"levelo_inurba_marseille","lat":43.301994,"lon":5.383462,"is_reserved":false,"is_disabled":false,"rental_uris":{"android":"levelo://app?vid=a18dbf48-2c4d-4fa4-a4c5-c9871d73c9a0","ios":"levelo://app?vid=a18dbf48-2c4d-4fa4-a4c5-c9871d73c9a0"},"vehicle_type_id":"4","last_reported":1761919848,"current_range_meters":10000,"station_id":"ce4bgup2rcd13ifvqcn0","pricing_plan_id":"cebpf4jnsgd1na2vs0mg"},{"bike_id":"b61e1e59-261f-4781-9885-10fc3dd1eaf7","system_id":"levelo_inurba_marseille","lat":43.30476,"lon":5.36908,"is_reserved":false,"is_disabled":false,"rental_uris":{"android":"levelo://app?vid=b61e1e59-261f-4781-9885-10fc3dd1eaf7","ios":"levelo://app?vid=b61e1e59-261f-4781-9885-10fc3dd1eaf7"},"vehicle_type_id":"4","last_reported":1761919848,"current_range_meters":10000,"station_id":"","pricing_plan_id":"cebpf4jnsgd1na2vs0mg"},{"bike_id":"45f46e23-7c09-43e8-9d95-fa5045c9e939","system_id":"levelo_inurba_marseille","lat":43.324776,"lon":5.365653,"is_reserved":false,"is_disabled":false,"rental_uris":{"android":"levelo://app?vid=45f46e23-7c09-43e8-9d95-fa5045c9e939","ios":"levelo://app?vid=45f46e23-7c09-43e8-9d95-fa5045c9e939"},"vehicle_type_id":"4","last_reported":1761919848,"current_range_meters":10000,"station_id":"ce4bhs12rcd13ifvqhvg","pricing_plan_id":"cebpf4jnsgd1na2vs0mg"},{"bike_id":"0ed7bef9-4bc7-4377-ab19-7fc1a9a948d6","system_id":"levelo_inurba_marseille","lat":43.28211,"lon":5.39055,"is_reserved":false,"is_disabled":false,"rental_uris":{"android":"levelo://app?vid=0ed7bef9-4bc7-4377-ab19-7fc1a9a948d6","ios":"levelo://app?vid=0ed7bef9-4bc7-4377-ab19-7fc1a9a948d6"},"vehicle_type_id":"4","last_reported":1761919848,"current_range_meters":10000,"station_id":"ce4bhn92rcd13ifvqgsg","pricing_plan_id":"cebpf4jnsgd1na2vs0mg"},{"bike_id":"2662fe9b-aa47-4e6a-8505-64d896678582","system_id":"levelo_inurba_marseille","lat":43.2256,"lon":5.41655,"is_reserved":false,"is_disabled":false,"rental_uris":{"android":"levelo://app?vid=2662fe9b-aa47-4e6a-8505-64d896678582","ios":"levelo://app?vid=2662fe9b-aa47-4e6a-8505-64d896678582"},"vehicle_type_id":"4","last_reported":1761919848,"current_range_meters":10800,"station_id":"st_d2o4gvlbi1j2169b742g","pricing_plan_id":"cebpf4jnsgd1na2vs0mg"},{"bike_id":"aad731fe-f402-47a2-a9e2-d1ab53621c21","system_id":"levelo_inurba_marseille","lat":43.23779,"lon":5.36637,"is_reserved":false,"is_disabled":false,"rental_uris":{"android":"levelo://app?vid=aad731fe-f402-47a2-a9e2-d1ab53621c21","ios":"levelo://app?vid=aad731fe-f402-47a2-a9e2-d1ab53621c21"},"vehicle_type_id":"4","last_reported":1761919848,"current_range_meters":10800,"station_id":"st_d3nk18o9ro0c73en2l3g","pricing_plan_id":"cebpf4jnsgd1na2vs0mg"},{"bike_id":"06bd3920-933a-4962-b9fc-baaa064cc24b","system_id":"levelo_inurba_marseille","lat":43.27431,"lon":5.39422,"is_reserved":false,"is_disabled":false,"rental_uris":{"android":"levelo://app?vid=06bd3920-933a-4962-b9fc-baaa064cc24b","ios":"levelo://app?vid=06bd3920-933a-4962-b9fc-baaa064cc24b"},"vehicle_type_id":"4","last_reported":1761919848,"current_range_meters":10800,"station_id":"ce4bhdp2rcd13ifvqf20","pricing_plan_id":"cebpf4jnsgd1na2vs0mg"},{"bike_id":"ff2229c6-5b6a-4d25-8b22-35c3f54ae73c","system_id":"levelo_inurba_marseille","lat":43.211912,"lon":5.350722,"is_reserved":false,"is_disabled":false,"rental_uris":{"android":"levelo://app?vid=ff2229c6-5b6a-4d25-8b22-35c3f54ae73c","ios":"levelo://app?vid=ff2229c6-5b6a-4d25-8b22-35c3f54ae73c"},"vehicle_type_id":"4","last_reported":1761919848,"current_range_meters":10800,"station_id":"st_cvj6sg6p6f1abm77japg","pricing_plan_id":"cebpf4jnsgd1na2vs0mg"},{"bike_id":"13b5bebc-2277-4643-9efc-b419c3a09bbd","system_id":"levelo_inurba_marseille","lat":43.229409,"lon":5.353833,"is_reserved":false,"is_disabled":false,"rental_uris":{"android":"levelo://app?vid=13b5bebc-2277-4643-9efc-b419c3a09bbd","ios":"levelo://app?vid=13b5bebc-2277-4643-9efc-b419c3a09bbd"},"vehicle_type_id":"4","last_reported":1761919848,"current_range_meters":11200,"station_id":"cpo3532slgdg3j2ikp40","pricing_plan_id":"cebpf4jnsgd1na2vs0mg"},{"bike_id":"2878923d-e67f-4416-a54f-9331f798c768","system_id":"levelo_inurba_marseille","lat":43.2175,"lon":5.34603,"is_reserved":false,"is_disabled":false,"rental_uris":{"android":"levelo://app?vid=2878923d-e67f-4416-a54f-9331f798c768","ios":"levelo://app?vid=2878923d-e67f-4416-a54f-9331f798c768"},"vehicle_type_id":"4","last_reported":1761919848,"current_range_meters":11200,"station_id":"st_cvj6r9ubvosntc0bgbag","pricing_plan_id":"cebpf4jnsgd1na2vs0mg"},{"bike_id":"5a335bf7-eb9a-4663-804a-c8456d060d25","system_id":"levelo_inurba_marseille","lat":43.290063,"lon":5.356212,"is_reserved":false,"is_disabled":false,"rental_uris":{"android":"levelo://app?vid=5a335bf7-eb9a-4663-804a-c8456d060d25","ios":"levelo://app?vid=5a335bf7-eb9a-4663-804a-c8456d060d25"},"vehicle_type_id":"4","last_reported":1761919848,"current_range_meters":11600,"station_id":"","pricing_plan_id":"cebpf4jnsgd1na2vs0mg"},{"bike_id":"88327406-ba65-4ce0-831c-3da476dbb691","system_id":"levelo_inurba_marseille","lat":43.237817,"lon":5.366325,"is_reserved":false,"is_disabled":false,"rental_uris":{"android":"levelo://app?vid=88327406-ba65-4ce0-831c-3da476dbb691","ios":"levelo://app?vid=88327406-ba65-4ce0-831c-3da476dbb691"},"vehicle_type_id":"4","last_reported":1761919848,"current_range_meters":11600,"station_id":"st_d3nk18o9ro0c73en2l3g","pricing_plan_id":"cebpf4jnsgd1na2vs0mg"},{"bike_id":"60ef5c64-5d03-41c7-afc2-aafc3eb32b64","system_id":"levelo_inurba_marseille","lat":43.26223,"lon":5.40484,"is_reserved":false,"is_disabled":false,"rental_uris":{"android":"levelo://app?vid=60ef5c64-5d03-41c7-afc2-aafc3eb32b64","ios":"levelo://app?vid=60ef5c64-5d03-41c7-afc2-aafc3eb32b64"},"vehicle_type_id":"4","last_reported":1761919848,"current_range_meters":11600,"station_id":"ce4bhmh2rcd13ifvqgmg","pricing_plan_id":"cebpf4jnsgd1na2vs0mg"},{"bike_id":"7afafebc-9388-4b96-826a-eb1746b15f9a","system_id":"levelo_inurba_marseille","lat":43.27065,"lon":5.42277,"is_reserved":false,"is_disabled":false,"rental_uris":{"android":"levelo://app?vid=7afafebc-9388-4b96-826a-eb1746b15f9a","ios":"levelo://app?vid=7afafebc-9388-4b96-826a-eb1746b15f9a"},"vehicle_type_id":"4","last_reported":1761919848,"current_range_meters":11600,"station_id":"ce4bhk92rcd13ifvqgb0","pricing_plan_id":"cebpf4jnsgd1na2vs0mg"},{"bike_id":"7e861a14-da65-40ad-9c5b-cd8e8ab883f4","system_id":"levelo_inurba_marseille","lat":43.30138,"lon":5.39877,"is_reserved":false,"is_disabled":false,"rental_uris":{"android":"levelo://app?vid=7e861a14-da65-40ad-9c5b-cd8e8ab883f4","ios":"levelo://app?vid=7e861a14-da65-40ad-9c5b-cd8e8ab883f4"},"vehicle_type_id":"4","last_reported":1761919848,"current_range_meters":11600,"station_id":"ce4bh0h2rcd13ifvqd40","pricing_plan_id":"cebpf4jnsgd1na2vs0mg"},{"bike_id":"8a0ff850-cf9f-4e75-bc3f-994489f28f31","system_id":"levelo_inurba_marseille","lat":43.22559,"lon":5.41634,"is_reserved":false,"is_disabled":false,"rental_uris":{"android":"levelo://app?vid=8a0ff850-cf9f-4e75-bc3f-994489f28f31","ios":"levelo://app?vid=8a0ff850-cf9f-4e75-bc3f-994489f28f31"},"vehicle_type_id":"4","last_reported":1761919848,"current_range_meters":11600,"station_id":"st_d2o4gvlbi1j2169b742g","pricing_plan_id":"cebpf4jnsgd1na2vs0mg"},{"bike_id":"b8f404d3-62c4-4489-a471-d37212346558","system_id":"levelo_inurba_marseille","lat":43.31083,"lon":5.37852,"is_reserved":false,"is_disabled":false,"rental_uris":{"android":"levelo://app?vid=b8f404d3-62c4-4489-a471-d37212346558","ios":"levelo://app?vid=b8f404d3-62c4-4489-a471-d37212346558"},"vehicle_type_id":"4","last_reported":1761919848,"current_range_meters":11600,"station_id":"","pricing_plan_id":"cebpf4jnsgd1na2vs0mg"},{"bike_id":"12c24c1a-5f34-4e4f-b6c0-f07cd6755b8d","system_id":"levelo_inurba_marseille","lat":43.249493,"lon":5.40507,"is_reserved":false,"is_disabled":false,"rental_uris":{"android":"levelo://app?vid=12c24c1a-5f34-4e4f-b6c0-f07cd6755b8d","ios":"levelo://app?vid=12c24c1a-5f34-4e4f-b6c0-f07cd6755b8d"},"vehicle_type_id":"4","last_reported":1761919848,"current_range_meters":12000,"station_id":"st_d2ngiaodas8pm72gd1h0","pricing_plan_id":"cebpf4jnsgd1na2vs0mg"},{"bike_id":"358d17ad-9395-4151-9889-d8900f75ab79","system_id":"levelo_inurba_marseille","lat":43.27814,"lon":5.40717,"is_reserved":false,"is_disabled":false,"rental_uris":{"android":"levelo://app?vid=358d17ad-9395-4151-9889-d8900f75ab79","ios":"levelo://app?vid=358d17ad-9395-4151-9889-d8900f75ab79"},"vehicle_type_id":"4","last_reported":1761919848,"current_range_meters":12000,"station_id":"ce4bhnh2rcd13ifvqgtg","pricing_plan_id":"cebpf4jnsgd1na2vs0mg"},{"bike_id":"2f477f8f-972b-406c-841a-14096d9c76ee","system_id":"levelo_inurba_marseille","lat":43.2976,"lon":5.42794,"is_reserved":false,"is_disabled":false,"rental_uris":{"android":"levelo://app?vid=2f477f8f-972b-406c-841a-14096d9c76ee","ios":"levelo://app?vid=2f477f8f-972b-406c-841a-14096d9c76ee"},"vehicle_type_id":"4","last_reported":1761919848,"current_range_meters":12400,"station_id":"st_d3md5207bmas73dh9klg","pricing_plan_id":"cebpf4jnsgd1na2vs0mg"},{"bike_id":"80c53fab-d9fd-4b9a-94e7-e3f3183e35da","system_id":"levelo_inurba_marseille","lat":43.3301,"lon":5.39092,"is_reserved":false,"is_disabled":false,"rental_uris":{"android":"levelo://app?vid=80c53fab-d9fd-4b9a-94e7-e3f3183e35da","ios":"levelo://app?vid=80c53fab-d9fd-4b9a-94e7-e3f3183e35da"},"vehicle_type_id":"4","last_reported":1761919848,"current_range_meters":12400,"station_id":"ce4bhr92rcd13ifvqhrg","pricing_plan_id":"cebpf4jnsgd1na2vs0mg"},{"bike_id":"52c9906d-aae6-424f-acd9-5d23ab6ce71f","system_id":"levelo_inurba_marseille","lat":43.24685,"lon":5.38155,"is_reserved":false,"is_disabled":false,"rental_uris":{"android":"levelo://app?vid=52c9906d-aae6-424f-acd9-5d23ab6ce71f","ios":"levelo://app?vid=52c9906d-aae6-424f-acd9-5d23ab6ce71f"},"vehicle_type_id":"4","last_reported":1761919848,"current_range_meters":12400,"station_id":"ce4bhih2rcd13ifvqfr0","pricing_plan_id":"cebpf4jnsgd1na2vs0mg"},{"bike_id":"70b7527d-67eb-4818-84c6-51aae343ca97","system_id":"levelo_inurba_marseille","lat":43.28478,"lon":5.48396,"is_reserved":false,"is_disabled":false,"rental_uris":{"android":"levelo://app?vid=70b7527d-67eb-4818-84c6-51aae343ca97","ios":"levelo://app?vid=70b7527d-67eb-4818-84c6-51aae343ca97"},"vehicle_type_id":"4","last_reported":1761919848,"current_range_meters":12400,"station_id":"st_d3svhcjqgbts73a3dn0g","pricing_plan_id":"cebpf4jnsgd1na2vs0mg"},{"bike_id":"26fe4533-5c07-4958-b5d9-0147ffd7b60b","system_id":"levelo_inurba_marseille","lat":43.30951,"lon":5.39031,"is_reserved":false,"is_disabled":false,"rental_uris":{"android":"levelo://app?vid=26fe4533-5c07-4958-b5d9-0147ffd7b60b","ios":"levelo://app?vid=26fe4533-5c07-4958-b5d9-0147ffd7b60b"},"vehicle_type_id":"4","last_reported":1761919848,"current_range_meters":12400,"station_id":"ce4bgup2rcd13ifvqco0","pricing_plan_id":"cebpf4jnsgd1na2vs0mg"},{"bike_id":"037cb7e4-a70d-4a56-91a9-083a1b38d5d5","system_id":"levelo_inurba_marseille","lat":43.25002,"lon":5.38933,"is_reserved":false,"is_disabled":false,"rental_uris":{"android":"levelo://app?vid=037cb7e4-a70d-4a56-91a9-083a1b38d5d5","ios":"levelo://app?vid=037cb7e4-a70d-4a56-91a9-083a1b38d5d5"},"vehicle_type_id":"4","last_reported":1761919848,"current_range_meters":12800,"station_id":"ce4bhgp2rcd13ifvqfd0","pricing_plan_id":"cebpf4jnsgd1na2vs0mg"},{"bike_id":"e1374d14-ca8c-4d30-bf7a-1e91101e2cee","system_id":"levelo_inurba_marseille","lat":43.28526,"lon":5.44092,"is_reserved":false,"is_disabled":false,"rental_uris":{"android":"levelo://app?vid=e1374d14-ca8c-4d30-bf7a-1e91101e2cee","ios":"levelo://app?vid=e1374d14-ca8c-4d30-bf7a-1e91101e2cee"},"vehicle_type_id":"4","last_reported":1761919848,"current_range_meters":12800,"station_id":"st_d3j3df2ikq2c7380ej80","pricing_plan_id":"cebpf4jnsgd1na2vs0mg"},{"bike_id":"1213ff01-604d-4b83-b3a2-60440c4b245e","system_id":"levelo_inurba_marseille","lat":43.23775,"lon":5.36631,"is_reserved":false,"is_disabled":false,"rental_uris":{"android":"levelo://app?vid=1213ff01-604d-4b83-b3a2-60440c4b245e","ios":"levelo://app?vid=1213ff01-604d-4b83-b3a2-60440c4b245e"},"vehicle_type_id":"4","last_reported":1761919848,"current_range_meters":12800,"station_id":"st_d3nk18o9ro0c73en2l3g","pricing_plan_id":"cebpf4jnsgd1na2vs0mg"},{"bike_id":"96ad2f8e-1ff0-415a-a84a-9186f2a5baf6","system_id":"levelo_inurba_marseille","lat":43.29606,"lon":5.37672,"is_reserved":false,"is_disabled":false,"rental_uris":{"android":"levelo://app?vid=96ad2f8e-1ff0-415a-a84a-9186f2a5baf6","ios":"levelo://app?vid=96ad2f8e-1ff0-415a-a84a-9186f2a5baf6"},"vehicle_type_id":"4","last_reported":1761919848,"current_range_meters":12800,"station_id":"ce4bgi12rcd13ifvqb80","pricing_plan_id":"cebpf4jnsgd1na2vs0mg"},{"bike_id":"46835159-5dd5-4fc9-a732-591f6a5307e4","system_id":"levelo_inurba_marseille","lat":43.31351,"lon":5.37912,"is_reserved":false,"is_disabled":false,"rental_uris":{"android":"levelo://app?vid=46835159-5dd5-4fc9-a732-591f6a5307e4","ios":"levelo://app?vid=46835159-5dd5-4fc9-a732-591f6a5307e4"},"vehicle_type_id":"4","last_reported":1761919848,"current_range_meters":12800,"station_id":"","pricing_plan_id":"cebpf4jnsgd1na2vs0mg"},{"bike_id":"96d76f51-dbff-4e65-b751-f15ef37dcf0b","system_id":"levelo_inurba_marseille","lat":43.260631,"lon":5.406452,"is_reserved":false,"is_disabled":false,"rental_uris":{"android":"levelo://app?vid=96d76f51-dbff-4e65-b751-f15ef37dcf0b","ios":"levelo://app?vid=96d76f51-dbff-4e65-b751-f15ef37dcf0b"},"vehicle_type_id":"4","last_reported":1761919848,"current_range_meters":12800,"station_id":"ce4bhm92rcd13ifvqglg","pricing_plan_id":"cebpf4jnsgd1na2vs0mg"},{"bike_id":"6e63b687-2a56-4918-a5d7-846b817e4bfa","system_id":"levelo_inurba_marseille","lat":43.34137,"lon":5.40902,"is_reserved":false,"is_disabled":false,"rental_uris":{"android":"levelo://app?vid=6e63b687-2a56-4918-a5d7-846b817e4bfa","ios":"levelo://app?vid=6e63b687-2a56-4918-a5d7-846b817e4bfa"},"vehicle_type_id":"4","last_reported":1761919848,"current_range_meters":12800,"station_id":"ce4bhqh2rcd13ifvqhlg","pricing_plan_id":"cebpf4jnsgd1na2vs0mg"},{"bike_id":"c1ad3c38-0ea7-4042-b92f-07af0f47ab84","system_id":"levelo_inurba_marseille","lat":43.2707,"lon":5.42283,"is_reserved":false,"is_disabled":false,"rental_uris":{"android":"levelo://app?vid=c1ad3c38-0ea7-4042-b92f-07af0f47ab84","ios":"levelo://app?vid=c1ad3c38-0ea7-4042-b92f-07af0f47ab84"},"vehicle_type_id":"4","last_reported":1761919848,"current_range_meters":13600,"station_id":"ce4bhk92rcd13ifvqgb0","pricing_plan_id":"cebpf4jnsgd1na2vs0mg"},{"bike_id":"2a2feabc-1101-4140-aee3-30dcd7c2588d","system_id":"levelo_inurba_marseille","lat":43.31868,"lon":5.39998,"is_reserved":false,"is_disabled":false,"rental_uris":{"android":"levelo://app?vid=2a2feabc-1101-4140-aee3-30dcd7c2588d","ios":"levelo://app?vid=2a2feabc-1101-4140-aee3-30dcd7c2588d"},"vehicle_type_id":"4","last_reported":1761919848,"current_range_meters":13600,"station_id":"","pricing_plan_id":"cebpf4jnsgd1na2vs0mg"},{"bike_id":"a4dac4fa-66e6-48be-a654-6e17cdc7ca0b","system_id":"levelo_inurba_marseille","lat":43.337571,"lon":5.374323,"is_reserved":false,"is_disabled":false,"rental_uris":{"android":"levelo://app?vid=a4dac4fa-66e6-48be-a654-6e17cdc7ca0b","ios":"levelo://app?vid=a4dac4fa-66e6-48be-a654-6e17cdc7ca0b"},"vehicle_type_id":"4","last_reported":1761919848,"current_range_meters":13600,"station_id":"","pricing_plan_id":"cebpf4jnsgd1na2vs0mg"},{"bike_id":"3f1d0b5b-ef7c-4900-9b69-05d962856003","system_id":"levelo_inurba_marseille","lat":43.28694,"lon":5.37394,"is_reserved":false,"is_disabled":false,"rental_uris":{"android":"levelo://app?vid=3f1d0b5b-ef7c-4900-9b69-05d962856003","ios":"levelo://app?vid=3f1d0b5b-ef7c-4900-9b69-05d962856003"},"vehicle_type_id":"4","last_reported":1761919848,"current_range_meters":13600,"station_id":"ce4bh3p2rcd13ifvqdq0","pricing_plan_id":"cebpf4jnsgd1na2vs0mg"},{"bike_id":"ee261a32-9de1-4b9e-a923-6c91e1e26176","system_id":"levelo_inurba_marseille","lat":43.28475,"lon":5.48406,"is_reserved":false,"is_disabled":false,"rental_uris":{"android":"levelo://app?vid=ee261a32-9de1-4b9e-a923-6c91e1e26176","ios":"levelo://app?vid=ee261a32-9de1-4b9e-a923-6c91e1e26176"},"vehicle_type_id":"4","last_reported":1761919848,"current_range_meters":13600,"station_id":"st_d3svhcjqgbts73a3dn0g","pricing_plan_id":"cebpf4jnsgd1na2vs0mg"},{"bike_id":"040bb8e7-fa9b-4593-89be-dcc92bf6660b","system_id":"levelo_inurba_marseille","lat":43.25577,"lon":5.38239,"is_reserved":false,"is_disabled":false,"rental_uris":{"android":"levelo://app?vid=040bb8e7-fa9b-4593-89be-dcc92bf6660b","ios":"levelo://app?vid=040bb8e7-fa9b-4593-89be-dcc92bf6660b"},"vehicle_type_id":"4","last_reported":1761919848,"current_range_meters":14000,"station_id":"ce4bhih2rcd13ifvqfs0","pricing_plan_id":"cebpf4jnsgd1na2vs0mg"},{"bike_id":"d622a861-f25d-4127-896f-c755034e4161","system_id":"levelo_inurba_marseille","lat":43.21192,"lon":5.35076,"is_reserved":false,"is_disabled":false,"rental_uris":{"android":"levelo://app?vid=d622a861-f25d-4127-896f-c755034e4161","ios":"levelo://app?vid=d622a861-f25d-4127-896f-c755034e4161"},"vehicle_type_id":"4","last_reported":1761919848,"current_range_meters":14000,"station_id":"st_cvj6sg6p6f1abm77japg","pricing_plan_id":"cebpf4jnsgd1na2vs0mg"},{"bike_id":"beb5aeba-4e4d-4667-9243-ae63f411ac6a","system_id":"levelo_inurba_marseille","lat":43.305566,"lon":5.36565,"is_reserved":false,"is_disabled":false,"rental_uris":{"android":"levelo://app?vid=beb5aeba-4e4d-4667-9243-ae63f411ac6a","ios":"levelo://app?vid=beb5aeba-4e4d-4667-9243-ae63f411ac6a"},"vehicle_type_id":"4","last_reported":1761919848,"current_range_meters":14000,"station_id":"ce4bgs12rcd13ifvqcag","pricing_plan_id":"cebpf4jnsgd1na2vs0mg"},{"bike_id":"6f29f227-540f-4cb2-adff-f09ac89ea0e3","system_id":"levelo_inurba_marseille","lat":43.30292,"lon":5.39258,"is_reserved":false,"is_disabled":false,"rental_uris":{"android":"levelo://app?vid=6f29f227-540f-4cb2-adff-f09ac89ea0e3","ios":"levelo://app?vid=6f29f227-540f-4cb2-adff-f09ac89ea0e3"},"vehicle_type_id":"4","last_reported":1761919848,"current_range_meters":14400,"station_id":"ce4bgkh2rcd13ifvqbk0","pricing_plan_id":"cebpf4jnsgd1na2vs0mg"},{"bike_id":"08173caa-da0f-4493-a0dc-569af39d4af7","system_id":"levelo_inurba_marseille","lat":43.301217,"lon":5.431178,"is_reserved":false,"is_disabled":false,"rental_uris":{"android":"levelo://app?vid=08173caa-da0f-4493-a0dc-569af39d4af7","ios":"levelo://app?vid=08173caa-da0f-4493-a0dc-569af39d4af7"},"vehicle_type_id":"4","last_reported":1761919848,"current_range_meters":14400,"station_id":"st_d3js3co5814s73ftftug","pricing_plan_id":"cebpf4jnsgd1na2vs0mg"},{"bike_id":"8a632559-d61b-4289-915b-e6215ea4bf27","system_id":"levelo_inurba_marseille","lat":43.3236,"lon":5.36757,"is_reserved":false,"is_disabled":false,"rental_uris":{"android":"levelo://app?vid=8a632559-d61b-4289-915b-e6215ea4bf27","ios":"levelo://app?vid=8a632559-d61b-4289-915b-e6215ea4bf27"},"vehicle_type_id":"4","last_reported":1761919848,"current_range_meters":14400,"station_id":"ce4bhsh2rcd13ifvqi2g","pricing_plan_id":"cebpf4jnsgd1na2vs0mg"},{"bike_id":"aad6a064-c048-4ba9-a156-1745b89548aa","system_id":"levelo_inurba_marseille","lat":43.283083,"lon":5.411057,"is_reserved":false,"is_disabled":false,"rental_uris":{"android":"levelo://app?vid=aad6a064-c048-4ba9-a156-1745b89548aa","ios":"levelo://app?vid=aad6a064-c048-4ba9-a156-1745b89548aa"},"vehicle_type_id":"4","last_reported":1761919848,"current_range_meters":14400,"station_id":"","pricing_plan_id":"cebpf4jnsgd1na2vs0mg"},{"bike_id":"65b74a09-ca21-47cd-a089-1f1f9daa9aea","system_id":"levelo_inurba_marseille","lat":43.29932,"lon":5.36546,"is_reserved":false,"is_disabled":false,"rental_uris":{"android":"levelo://app?vid=65b74a09-ca21-47cd-a089-1f1f9daa9aea","ios":"levelo://app?vid=65b74a09-ca21-47cd-a089-1f1f9daa9aea"},"vehicle_type_id":"4","last_reported":1761919848,"current_range_meters":14800,"station_id":"ce4bgm92rcd13ifvqbr0","pricing_plan_id":"cebpf4jnsgd1na2vs0mg"},{"bike_id":"b18834a5-4a56-45f5-a983-d45b01db4b44","system_id":"levelo_inurba_marseille","lat":43.2407,"lon":5.37752,"is_reserved":false,"is_disabled":false,"rental_uris":{"android":"levelo://app?vid=b18834a5-4a56-45f5-a983-d45b01db4b44","ios":"levelo://app?vid=b18834a5-4a56-45f5-a983-d45b01db4b44"},"vehicle_type_id":"4","last_reported":1761919848,"current_range_meters":14800,"station_id":"ce4bhnp2rcd13ifvqgvg","pricing_plan_id":"cebpf4jnsgd1na2vs0mg"},{"bike_id":"2b29f55c-b77a-4fe1-949f-2e9879375c91","system_id":"levelo_inurba_marseille","lat":43.269545,"lon":5.386315,"is_reserved":false,"is_disabled":false,"rental_uris":{"android":"levelo://app?vid=2b29f55c-b77a-4fe1-949f-2e9879375c91","ios":"levelo://app?vid=2b29f55c-b77a-4fe1-949f-2e9879375c91"},"vehicle_type_id":"4","last_reported":1761919848,"current_range_meters":14800,"station_id":"ce4bhh92rcd13ifvqfh0","pricing_plan_id":"cebpf4jnsgd1na2vs0mg"},{"bike_id":"c6cc2ad5-87f3-46b4-954a-6b3fc4efe701","system_id":"levelo_inurba_marseille","lat":43.2985,"lon":5.36287,"is_reserved":false,"is_disabled":false,"rental_uris":{"android":"levelo://app?vid=c6cc2ad5-87f3-46b4-954a-6b3fc4efe701","ios":"levelo://app?vid=c6cc2ad5-87f3-46b4-954a-6b3fc4efe701"},"vehicle_type_id":"4","last_reported":1761919848,"current_range_meters":14800,"station_id":"ce4bgpp2rcd13ifvqc3g","pricing_plan_id":"cebpf4jnsgd1na2vs0mg"},{"bike_id":"3b8d8128-20c3-4189-8013-ffc8bbfec252","system_id":"levelo_inurba_marseille","lat":43.28591,"lon":5.35108,"is_reserved":false,"is_disabled":false,"rental_uris":{"android":"levelo://app?vid=3b8d8128-20c3-4189-8013-ffc8bbfec252","ios":"levelo://app?vid=3b8d8128-20c3-4189-8013-ffc8bbfec252"},"vehicle_type_id":"4","last_reported":1761919848,"current_range_meters":14800,"station_id":"ce4bhch2rcd13ifvqeug","pricing_plan_id":"cebpf4jnsgd1na2vs0mg"},{"bike_id":"3a172b99-41f8-430f-9fd2-da99702f165d","system_id":"levelo_inurba_marseille","lat":43.2481,"lon":5.37462,"is_reserved":false,"is_disabled":false,"rental_uris":{"android":"levelo://app?vid=3a172b99-41f8-430f-9fd2-da99702f165d","ios":"levelo://app?vid=3a172b99-41f8-430f-9fd2-da99702f165d"},"vehicle_type_id":"4","last_reported":1761919848,"current_range_meters":14800,"station_id":"ce4bhgh2rcd13ifvqfb0","pricing_plan_id":"cebpf4jnsgd1na2vs0mg"},{"bike_id":"b73a6953-cd02-45c7-837a-11b77f330955","system_id":"levelo_inurba_marseille","lat":43.30452,"lon":5.37908,"is_reserved":false,"is_disabled":false,"rental_uris":{"android":"levelo://app?vid=b73a6953-cd02-45c7-837a-11b77f330955","ios":"levelo://app?vid=b73a6953-cd02-45c7-837a-11b77f330955"},"vehicle_type_id":"4","last_reported":1761919848,"current_range_meters":14800,"station_id":"ce4bgup2rcd13ifvqcn0","pricing_plan_id":"cebpf4jnsgd1na2vs0mg"},{"bike_id":"90cc4e35-1e9a-4d48-878d-a3997094c0ce","system_id":"levelo_inurba_marseille","lat":43.246442,"lon":5.431331,"is_reserved":false,"is_disabled":false,"rental_uris":{"android":"levelo://app?vid=90cc4e35-1e9a-4d48-878d-a3997094c0ce","ios":"levelo://app?vid=90cc4e35-1e9a-4d48-878d-a3997094c0ce"},"vehicle_type_id":"4","last_reported":1761919848,"current_range_meters":14800,"station_id":"st_d2m6c4gdas8pm72e190g","pricing_plan_id":"cebpf4jnsgd1na2vs0mg"},{"bike_id":"7f71708b-0ea1-4389-ad9e-9eb55c6a6cb9","system_id":"levelo_inurba_marseille","lat":43.288587,"lon":5.425236,"is_reserved":false,"is_disabled":false,"rental_uris":{"android":"levelo://app?vid=7f71708b-0ea1-4389-ad9e-9eb55c6a6cb9","ios":"levelo://app?vid=7f71708b-0ea1-4389-ad9e-9eb55c6a6cb9"},"vehicle_type_id":"4","last_reported":1761919848,"current_range_meters":14800,"station_id":"st_d3b462108ojc7389ooeg","pricing_plan_id":"cebpf4jnsgd1na2vs0mg"},{"bike_id":"5b1456bf-c4ee-43d7-8935-31ac6bf9ce09","system_id":"levelo_inurba_marseille","lat":43.28,"lon":5.41675,"is_reserved":false,"is_disabled":false,"rental_uris":{"android":"levelo://app?vid=5b1456bf-c4ee-43d7-8935-31ac6bf9ce09","ios":"levelo://app?vid=5b1456bf-c4ee-43d7-8935-31ac6bf9ce09"},"vehicle_type_id":"4","last_reported":1761919848,"current_range_meters":14800,"station_id":"ce4bho12rcd13ifvqh1g","pricing_plan_id":"cebpf4jnsgd1na2vs0mg"},{"bike_id":"8c43d01f-80f7-4458-9ef3-746a3c6690d7","system_id":"levelo_inurba_marseille","lat":43.29593,"lon":5.36738,"is_reserved":false,"is_disabled":false,"rental_uris":{"android":"levelo://app?vid=8c43d01f-80f7-4458-9ef3-746a3c6690d7","ios":"levelo://app?vid=8c43d01f-80f7-4458-9ef3-746a3c6690d7"},"vehicle_type_id":"4","last_reported":1761919848,"current_range_meters":14800,"station_id":"ce4bgph2rcd13ifvqc2g","pricing_plan_id":"cebpf4jnsgd1na2vs0mg"},{"bike_id":"b455b474-75e1-41e0-b3e3-a1449376f7ae","system_id":"levelo_inurba_marseille","lat":43.27813,"lon":5.4072,"is_reserved":false,"is_disabled":false,"rental_uris":{"android":"levelo://app?vid=b455b474-75e1-41e0-b3e3-a1449376f7ae","ios":"levelo://app?vid=b455b474-75e1-41e0-b3e3-a1449376f7ae"},"vehicle_type_id":"4","last_reported":1761919848,"current_range_meters":15200,"station_id":"ce4bhnh2rcd13ifvqgtg","pricing_plan_id":"cebpf4jnsgd1na2vs0mg"},{"bike_id":"948327bb-168b-4321-89ff-3d83d88fb012","system_id":"levelo_inurba_marseille","lat":43.30142,"lon":5.37422,"is_reserved":false,"is_disabled":false,"rental_uris":{"android":"levelo://app?vid=948327bb-168b-4321-89ff-3d83d88fb012","ios":"levelo://app?vid=948327bb-168b-4321-89ff-3d83d88fb012"},"vehicle_type_id":"4","last_reported":1761919848,"current_range_meters":15200,"station_id":"ce4bgs92rcd13ifvqcc0","pricing_plan_id":"cebpf4jnsgd1na2vs0mg"},{"bike_id":"39f80525-6ab3-4587-b9cf-170bcb7f783b","system_id":"levelo_inurba_marseille","lat":43.30154,"lon":5.38095,"is_reserved":false,"is_disabled":false,"rental_uris":{"android":"levelo://app?vid=39f80525-6ab3-4587-b9cf-170bcb7f783b","ios":"levelo://app?vid=39f80525-6ab3-4587-b9cf-170bcb7f783b"},"vehicle_type_id":"4","last_reported":1761919848,"current_range_meters":15200,"station_id":"ce4bgjp2rcd13ifvqbh0","pricing_plan_id":"cebpf4jnsgd1na2vs0mg"},{"bike_id":"a74ca4e6-9019-4ce4-a364-7a22bd8e206a","system_id":"levelo_inurba_marseille","lat":43.264961,"lon":5.385192,"is_reserved":false,"is_disabled":false,"rental_uris":{"android":"levelo://app?vid=a74ca4e6-9019-4ce4-a364-7a22bd8e206a","ios":"levelo://app?vid=a74ca4e6-9019-4ce4-a364-7a22bd8e206a"},"vehicle_type_id":"4","last_reported":1761919848,"current_range_meters":15200,"station_id":"","pricing_plan_id":"cebpf4jnsgd1na2vs0mg"},{"bike_id":"319b8584-93f2-449c-b056-ea3f20ebc971","system_id":"levelo_inurba_marseille","lat":43.28519,"lon":5.43038,"is_reserved":false,"is_disabled":false,"rental_uris":{"android":"levelo://app?vid=319b8584-93f2-449c-b056-ea3f20ebc971","ios":"levelo://app?vid=319b8584-93f2-449c-b056-ea3f20ebc971"},"vehicle_type_id":"4","last_reported":1761919848,"current_range_meters":15200,"station_id":"","pricing_plan_id":"cebpf4jnsgd1na2vs0mg"},{"bike_id":"a74e1f7b-fe2b-4cfa-9207-539d981aefdc","system_id":"levelo_inurba_marseille","lat":43.241806,"lon":5.397316,"is_reserved":false,"is_disabled":false,"rental_uris":{"android":"levelo://app?vid=a74e1f7b-fe2b-4cfa-9207-539d981aefdc","ios":"levelo://app?vid=a74e1f7b-fe2b-4cfa-9207-539d981aefdc"},"vehicle_type_id":"4","last_reported":1761919848,"current_range_meters":15200,"station_id":"ce4bhn12rcd13ifvqgpg","pricing_plan_id":"cebpf4jnsgd1na2vs0mg"},{"bike_id":"0dc930ae-88e6-493c-ab95-8df0b3ac1f8b","system_id":"levelo_inurba_marseille","lat":43.29879,"lon":5.43673,"is_reserved":false,"is_disabled":false,"rental_uris":{"android":"levelo://app?vid=0dc930ae-88e6-493c-ab95-8df0b3ac1f8b","ios":"levelo://app?vid=0dc930ae-88e6-493c-ab95-8df0b3ac1f8b"},"vehicle_type_id":"4","last_reported":1761919848,"current_range_meters":16000,"station_id":"ce4bhpp2rcd13ifvqhfg","pricing_plan_id":"cebpf4jnsgd1na2vs0mg"},{"bike_id":"0ba9da42-64a1-4209-af52-e19dfbdee845","system_id":"levelo_inurba_marseille","lat":43.26765,"lon":5.39457,"is_reserved":false,"is_disabled":false,"rental_uris":{"android":"levelo://app?vid=0ba9da42-64a1-4209-af52-e19dfbdee845","ios":"levelo://app?vid=0ba9da42-64a1-4209-af52-e19dfbdee845"},"vehicle_type_id":"4","last_reported":1761919848,"current_range_meters":16000,"station_id":"","pricing_plan_id":"cebpf4jnsgd1na2vs0mg"},{"bike_id":"b2ce8e73-e59b-4d30-b8e2-e59e2e1e3b22","system_id":"levelo_inurba_marseille","lat":43.33775,"lon":5.37482,"is_reserved":false,"is_disabled":false,"rental_uris":{"android":"levelo://app?vid=b2ce8e73-e59b-4d30-b8e2-e59e2e1e3b22","ios":"levelo://app?vid=b2ce8e73-e59b-4d30-b8e2-e59e2e1e3b22"},"vehicle_type_id":"4","last_reported":1761919848,"current_range_meters":16000,"station_id":"","pricing_plan_id":"cebpf4jnsgd1na2vs0mg"},{"bike_id":"6cd59db7-cb12-4301-8385-22b87d7a5cfd","system_id":"levelo_inurba_marseille","lat":43.28535,"lon":5.44104,"is_reserved":false,"is_disabled":false,"rental_uris":{"android":"levelo://app?vid=6cd59db7-cb12-4301-8385-22b87d7a5cfd","ios":"levelo://app?vid=6cd59db7-cb12-4301-8385-22b87d7a5cfd"},"vehicle_type_id":"4","last_reported":1761919848,"current_range_meters":16000,"station_id":"st_d3j3df2ikq2c7380ej80","pricing_plan_id":"cebpf4jnsgd1na2vs0mg"},{"bike_id":"ec8e4f97-d500-4b79-b9f1-140344d7f670","system_id":"levelo_inurba_marseille","lat":43.2314,"lon":5.43718,"is_reserved":false,"is_disabled":false,"rental_uris":{"android":"levelo://app?vid=ec8e4f97-d500-4b79-b9f1-140344d7f670","ios":"levelo://app?vid=ec8e4f97-d500-4b79-b9f1-140344d7f670"},"vehicle_type_id":"4","last_reported":1761919848,"current_range_meters":16000,"station_id":"ce4bhmp2rcd13ifvqgog","pricing_plan_id":"cebpf4jnsgd1na2vs0mg"},{"bike_id":"a9cdbb07-222c-4ae2-b8a0-add1896b5ebf","system_id":"levelo_inurba_marseille","lat":43.260677,"lon":5.393812,"is_reserved":false,"is_disabled":false,"rental_uris":{"android":"levelo://app?vid=a9cdbb07-222c-4ae2-b8a0-add1896b5ebf","ios":"levelo://app?vid=a9cdbb07-222c-4ae2-b8a0-add1896b5ebf"},"vehicle_type_id":"4","last_reported":1761919848,"current_range_meters":16400,"station_id":"ce4bhh92rcd13ifvqfj0","pricing_plan_id":"cebpf4jnsgd1na2vs0mg"},{"bike_id":"577835b1-303e-4422-96c0-2f9ea1b8670d","system_id":"levelo_inurba_marseille","lat":43.27318,"lon":5.39083,"is_reserved":false,"is_disabled":false,"rental_uris":{"android":"levelo://app?vid=577835b1-303e-4422-96c0-2f9ea1b8670d","ios":"levelo://app?vid=577835b1-303e-4422-96c0-2f9ea1b8670d"},"vehicle_type_id":"4","last_reported":1761919848,"current_range_meters":16400,"station_id":"ce4bhgp2rcd13ifvqfe0","pricing_plan_id":"cebpf4jnsgd1na2vs0mg"},{"bike_id":"b1e81361-2b17-4ef1-8a58-6def5753471b","system_id":"levelo_inurba_marseille","lat":43.33753,"lon":5.37484,"is_reserved":false,"is_disabled":false,"rental_uris":{"android":"levelo://app?vid=b1e81361-2b17-4ef1-8a58-6def5753471b","ios":"levelo://app?vid=b1e81361-2b17-4ef1-8a58-6def5753471b"},"vehicle_type_id":"4","last_reported":1761919848,"current_range_meters":16400,"station_id":"","pricing_plan_id":"cebpf4jnsgd1na2vs0mg"},{"bike_id":"e7ead618-cc2b-4c53-bc61-330caff21889","system_id":"levelo_inurba_marseille","lat":43.253374,"lon":5.421632,"is_reserved":false,"is_disabled":false,"rental_uris":{"android":"levelo://app?vid=e7ead618-cc2b-4c53-bc61-330caff21889","ios":"levelo://app?vid=e7ead618-cc2b-4c53-bc61-330caff21889"},"vehicle_type_id":"4","last_reported":1761919848,"current_range_meters":16400,"station_id":"st_d2m65c5bi1j21697t3ng","pricing_plan_id":"cebpf4jnsgd1na2vs0mg"},{"bike_id":"52b117f2-4c01-4f66-887d-006722496528","system_id":"levelo_inurba_marseille","lat":43.30853,"lon":5.37139,"is_reserved":false,"is_disabled":false,"rental_uris":{"android":"levelo://app?vid=52b117f2-4c01-4f66-887d-006722496528","ios":"levelo://app?vid=52b117f2-4c01-4f66-887d-006722496528"},"vehicle_type_id":"4","last_reported":1761919848,"current_range_meters":16400,"station_id":"","pricing_plan_id":"cebpf4jnsgd1na2vs0mg"},{"bike_id":"9426e984-d66a-46ec-83f8-e2f4059a3e57","system_id":"levelo_inurba_marseille","lat":43.298481,"lon":5.362874,"is_reserved":false,"is_disabled":false,"rental_uris":{"android":"levelo://app?vid=9426e984-d66a-46ec-83f8-e2f4059a3e57","ios":"levelo://app?vid=9426e984-d66a-46ec-83f8-e2f4059a3e57"},"vehicle_type_id":"4","last_reported":1761919848,"current_range_meters":16400,"station_id":"","pricing_plan_id":"cebpf4jnsgd1na2vs0mg"},{"bike_id":"5b90e5b1-8d0e-4a9c-a12d-ee9a09cc0d79","system_id":"levelo_inurba_marseille","lat":43.30528,"lon":5.36711,"is_reserved":false,"is_disabled":false,"rental_uris":{"android":"levelo://app?vid=5b90e5b1-8d0e-4a9c-a12d-ee9a09cc0d79","ios":"levelo://app?vid=5b90e5b1-8d0e-4a9c-a12d-ee9a09cc0d79"},"vehicle_type_id":"4","last_reported":1761919848,"current_range_meters":16400,"station_id":"ce4bgrp2rcd13ifvqc9g","pricing_plan_id":"cebpf4jnsgd1na2vs0mg"},{"bike_id":"0963a0f8-8a97-4d36-91dc-70e891d8de9a","system_id":"levelo_inurba_marseille","lat":43.28537,"lon":5.44116,"is_reserved":false,"is_disabled":false,"rental_uris":{"android":"levelo://app?vid=0963a0f8-8a97-4d36-91dc-70e891d8de9a","ios":"levelo://app?vid=0963a0f8-8a97-4d36-91dc-70e891d8de9a"},"vehicle_type_id":"4","last_reported":1761919848,"current_range_meters":16800,"station_id":"st_d3j3df2ikq2c7380ej80","pricing_plan_id":"cebpf4jnsgd1na2vs0mg"},{"bike_id":"6d92041a-4697-4dfd-8c2d-2f09d7eecbac","system_id":"levelo_inurba_marseille","lat":43.27805,"lon":5.40719,"is_reserved":false,"is_disabled":false,"rental_uris":{"android":"levelo://app?vid=6d92041a-4697-4dfd-8c2d-2f09d7eecbac","ios":"levelo://app?vid=6d92041a-4697-4dfd-8c2d-2f09d7eecbac"},"vehicle_type_id":"4","last_reported":1761919848,"current_range_meters":16800,"station_id":"ce4bhnh2rcd13ifvqgtg","pricing_plan_id":"cebpf4jnsgd1na2vs0mg"},{"bike_id":"19c8bc17-94ab-4999-b22d-f0693bd41968","system_id":"levelo_inurba_marseille","lat":43.28664,"lon":5.36362,"is_reserved":false,"is_disabled":false,"rental_uris":{"android":"levelo://app?vid=19c8bc17-94ab-4999-b22d-f0693bd41968","ios":"levelo://app?vid=19c8bc17-94ab-4999-b22d-f0693bd41968"},"vehicle_type_id":"4","last_reported":1761919848,"current_range_meters":16800,"station_id":"ce4bhah2rcd13ifvqej0","pricing_plan_id":"cebpf4jnsgd1na2vs0mg"},{"bike_id":"719cab00-fc05-4a10-b7e7-f67576adad60","system_id":"levelo_inurba_marseille","lat":43.23153,"lon":5.43705,"is_reserved":false,"is_disabled":false,"rental_uris":{"android":"levelo://app?vid=719cab00-fc05-4a10-b7e7-f67576adad60","ios":"levelo://app?vid=719cab00-fc05-4a10-b7e7-f67576adad60"},"vehicle_type_id":"4","last_reported":1761919848,"current_range_meters":16800,"station_id":"ce4bhmp2rcd13ifvqgog","pricing_plan_id":"cebpf4jnsgd1na2vs0mg"},{"bike_id":"31bb67ee-1330-45f8-a539-eef5b877da95","system_id":"levelo_inurba_marseille","lat":43.2306,"lon":5.35509,"is_reserved":false,"is_disabled":false,"rental_uris":{"android":"levelo://app?vid=31bb67ee-1330-45f8-a539-eef5b877da95","ios":"levelo://app?vid=31bb67ee-1330-45f8-a539-eef5b877da95"},"vehicle_type_id":"4","last_reported":1761919848,"current_range_meters":16800,"station_id":"cpo3342slgdg3j2ifvpg","pricing_plan_id":"cebpf4jnsgd1na2vs0mg"},{"bike_id":"b4a09523-a270-4330-980c-fdbd4508d99a","system_id":"levelo_inurba_marseille","lat":43.23181,"lon":5.3999,"is_reserved":false,"is_disabled":false,"rental_uris":{"android":"levelo://app?vid=b4a09523-a270-4330-980c-fdbd4508d99a","ios":"levelo://app?vid=b4a09523-a270-4330-980c-fdbd4508d99a"},"vehicle_type_id":"4","last_reported":1761919848,"current_range_meters":16800,"station_id":"ce4bhn12rcd13ifvqgqg","pricing_plan_id":"cebpf4jnsgd1na2vs0mg"},{"bike_id":"7706a1eb-2457-4a86-a54c-de9a5adc11d8","system_id":"levelo_inurba_marseille","lat":43.337444,"lon":5.374475,"is_reserved":false,"is_disabled":false,"rental_uris":{"android":"levelo://app?vid=7706a1eb-2457-4a86-a54c-de9a5adc11d8","ios":"levelo://app?vid=7706a1eb-2457-4a86-a54c-de9a5adc11d8"},"vehicle_type_id":"4","last_reported":1761919848,"current_range_meters":17200,"station_id":"ce4bhnh2rcd13ifvqgug","pricing_plan_id":"cebpf4jnsgd1na2vs0mg"},{"bike_id":"c133af37-e01c-4d7a-9b48-dbcb4a7a5575","system_id":"levelo_inurba_marseille","lat":43.301288,"lon":5.374912,"is_reserved":false,"is_disabled":false,"rental_uris":{"android":"levelo://app?vid=c133af37-e01c-4d7a-9b48-dbcb4a7a5575","ios":"levelo://app?vid=c133af37-e01c-4d7a-9b48-dbcb4a7a5575"},"vehicle_type_id":"4","last_reported":1761919848,"current_range_meters":17600,"station_id":"","pricing_plan_id":"cebpf4jnsgd1na2vs0mg"},{"bike_id":"472a1028-9e29-4e6f-b089-eae1dc72cf56","system_id":"levelo_inurba_marseille","lat":43.23069,"lon":5.35477,"is_reserved":false,"is_disabled":false,"rental_uris":{"android":"levelo://app?vid=472a1028-9e29-4e6f-b089-eae1dc72cf56","ios":"levelo://app?vid=472a1028-9e29-4e6f-b089-eae1dc72cf56"},"vehicle_type_id":"4","last_reported":1761919848,"current_range_meters":17600,"station_id":"cpo3342slgdg3j2ifvpg","pricing_plan_id":"cebpf4jnsgd1na2vs0mg"},{"bike_id":"32256126-0adb-487b-8df3-565a5def15d2","system_id":"levelo_inurba_marseille","lat":43.28936,"lon":5.36397,"is_reserved":false,"is_disabled":false,"rental_uris":{"android":"levelo://app?vid=32256126-0adb-487b-8df3-565a5def15d2","ios":"levelo://app?vid=32256126-0adb-487b-8df3-565a5def15d2"},"vehicle_type_id":"4","last_reported":1761919848,"current_range_meters":17600,"station_id":"ce4bhc92rcd13ifvqetg","pricing_plan_id":"cebpf4jnsgd1na2vs0mg"},{"bike_id":"5329277d-b696-4f32-9412-95d13ccb7cbb","system_id":"levelo_inurba_marseille","lat":43.298136,"lon":5.440558,"is_reserved":false,"is_disabled":false,"rental_uris":{"android":"levelo://app?vid=5329277d-b696-4f32-9412-95d13ccb7cbb","ios":"levelo://app?vid=5329277d-b696-4f32-9412-95d13ccb7cbb"},"vehicle_type_id":"4","last_reported":1761919848,"current_range_meters":17600,"station_id":"st_d3jp68qikq2c7381ktn0","pricing_plan_id":"cebpf4jnsgd1na2vs0mg"},{"bike_id":"c2807477-fd8d-44ed-9bdc-b3f90f0cbde0","system_id":"levelo_inurba_marseille","lat":43.3187,"lon":5.39992,"is_reserved":false,"is_disabled":false,"rental_uris":{"android":"levelo://app?vid=c2807477-fd8d-44ed-9bdc-b3f90f0cbde0","ios":"levelo://app?vid=c2807477-fd8d-44ed-9bdc-b3f90f0cbde0"},"vehicle_type_id":"4","last_reported":1761919848,"current_range_meters":17600,"station_id":"","pricing_plan_id":"cebpf4jnsgd1na2vs0mg"},{"bike_id":"ac0e00e7-47a0-44b9-a947-896220468ad5","system_id":"levelo_inurba_marseille","lat":43.23785,"lon":5.36641,"is_reserved":false,"is_disabled":false,"rental_uris":{"android":"levelo://app?vid=ac0e00e7-47a0-44b9-a947-896220468ad5","ios":"levelo://app?vid=ac0e00e7-47a0-44b9-a947-896220468ad5"},"vehicle_type_id":"4","last_reported":1761919848,"current_range_meters":17600,"station_id":"st_d3nk18o9ro0c73en2l3g","pricing_plan_id":"cebpf4jnsgd1na2vs0mg"},{"bike_id":"a5e0a9e7-2930-4ebf-aa40-5e9ef3fa0368","system_id":"levelo_inurba_marseille","lat":43.23154,"lon":5.43717,"is_reserved":false,"is_disabled":false,"rental_uris":{"android":"levelo://app?vid=a5e0a9e7-2930-4ebf-aa40-5e9ef3fa0368","ios":"levelo://app?vid=a5e0a9e7-2930-4ebf-aa40-5e9ef3fa0368"},"vehicle_type_id":"4","last_reported":1761919848,"current_range_meters":17600,"station_id":"ce4bhmp2rcd13ifvqgog","pricing_plan_id":"cebpf4jnsgd1na2vs0mg"},{"bike_id":"436c5184-4206-42f3-89dc-e8288cae5c96","system_id":"levelo_inurba_marseille","lat":43.25327,"lon":5.42167,"is_reserved":false,"is_disabled":false,"rental_uris":{"android":"levelo://app?vid=436c5184-4206-42f3-89dc-e8288cae5c96","ios":"levelo://app?vid=436c5184-4206-42f3-89dc-e8288cae5c96"},"vehicle_type_id":"4","last_reported":1761919848,"current_range_meters":18000,"station_id":"st_d2m65c5bi1j21697t3ng","pricing_plan_id":"cebpf4jnsgd1na2vs0mg"},{"bike_id":"a3a7bcb5-7e88-4420-a17d-a2128fbf1fc0","system_id":"levelo_inurba_marseille","lat":43.29932,"lon":5.36558,"is_reserved":false,"is_disabled":false,"rental_uris":{"android":"levelo://app?vid=a3a7bcb5-7e88-4420-a17d-a2128fbf1fc0","ios":"levelo://app?vid=a3a7bcb5-7e88-4420-a17d-a2128fbf1fc0"},"vehicle_type_id":"4","last_reported":1761919848,"current_range_meters":18000,"station_id":"ce4bgm92rcd13ifvqbr0","pricing_plan_id":"cebpf4jnsgd1na2vs0mg"},{"bike_id":"e04f332d-b41c-47fd-b12f-6fdc7d63f429","system_id":"levelo_inurba_marseille","lat":43.30839,"lon":5.38291,"is_reserved":false,"is_disabled":false,"rental_uris":{"android":"levelo://app?vid=e04f332d-b41c-47fd-b12f-6fdc7d63f429","ios":"levelo://app?vid=e04f332d-b41c-47fd-b12f-6fdc7d63f429"},"vehicle_type_id":"4","last_reported":1761919848,"current_range_meters":18000,"station_id":"","pricing_plan_id":"cebpf4jnsgd1na2vs0mg"},{"bike_id":"add3453b-9e80-4cc3-b17c-aaccf9f5030c","system_id":"levelo_inurba_marseille","lat":43.30164,"lon":5.38104,"is_reserved":false,"is_disabled":false,"rental_uris":{"android":"levelo://app?vid=add3453b-9e80-4cc3-b17c-aaccf9f5030c","ios":"levelo://app?vid=add3453b-9e80-4cc3-b17c-aaccf9f5030c"},"vehicle_type_id":"4","last_reported":1761919848,"current_range_meters":18000,"station_id":"ce4bgjp2rcd13ifvqbh0","pricing_plan_id":"cebpf4jnsgd1na2vs0mg"},{"bike_id":"72a87cc7-9af0-4e8c-b563-bb6eaad396f7","system_id":"levelo_inurba_marseille","lat":43.32481,"lon":5.3658,"is_reserved":false,"is_disabled":false,"rental_uris":{"android":"levelo://app?vid=72a87cc7-9af0-4e8c-b563-bb6eaad396f7","ios":"levelo://app?vid=72a87cc7-9af0-4e8c-b563-bb6eaad396f7"},"vehicle_type_id":"4","last_reported":1761919848,"current_range_meters":18000,"station_id":"ce4bhs12rcd13ifvqhvg","pricing_plan_id":"cebpf4jnsgd1na2vs0mg"},{"bike_id":"35f56537-e71c-4ab7-9d88-b0e867eeb41b","system_id":"levelo_inurba_marseille","lat":43.297105,"lon":5.376929,"is_reserved":false,"is_disabled":false,"rental_uris":{"android":"levelo://app?vid=35f56537-e71c-4ab7-9d88-b0e867eeb41b","ios":"levelo://app?vid=35f56537-e71c-4ab7-9d88-b0e867eeb41b"},"vehicle_type_id":"4","last_reported":1761919848,"current_range_meters":18000,"station_id":"ce4bgm92rcd13ifvqbr0","pricing_plan_id":"cebpf4jnsgd1na2vs0mg"},{"bike_id":"aafcdc3e-7fbc-440c-8755-17a53301fced","system_id":"levelo_inurba_marseille","lat":43.23147,"lon":5.43698,"is_reserved":false,"is_disabled":false,"rental_uris":{"android":"levelo://app?vid=aafcdc3e-7fbc-440c-8755-17a53301fced","ios":"levelo://app?vid=aafcdc3e-7fbc-440c-8755-17a53301fced"},"vehicle_type_id":"4","last_reported":1761919848,"current_range_meters":18800,"station_id":"ce4bhmp2rcd13ifvqgog","pricing_plan_id":"cebpf4jnsgd1na2vs0mg"},{"bike_id":"8a8f8ef9-0de3-4843-8538-90f7d1ea44ce","system_id":"levelo_inurba_marseille","lat":43.24573,"lon":5.42112,"is_reserved":false,"is_disabled":false,"rental_uris":{"android":"levelo://app?vid=8a8f8ef9-0de3-4843-8538-90f7d1ea44ce","ios":"levelo://app?vid=8a8f8ef9-0de3-4843-8538-90f7d1ea44ce"},"vehicle_type_id":"4","last_reported":1761919848,"current_range_meters":18800,"station_id":"","pricing_plan_id":"cebpf4jnsgd1na2vs0mg"},{"bike_id":"ebfb452f-d953-4d55-89f1-158485ccc478","system_id":"levelo_inurba_marseille","lat":43.29269,"lon":5.36856,"is_reserved":false,"is_disabled":false,"rental_uris":{"android":"levelo://app?vid=ebfb452f-d953-4d55-89f1-158485ccc478","ios":"levelo://app?vid=ebfb452f-d953-4d55-89f1-158485ccc478"},"vehicle_type_id":"4","last_reported":1761919848,"current_range_meters":18800,"station_id":"ce4bhbp2rcd13ifvqesg","pricing_plan_id":"cebpf4jnsgd1na2vs0mg"},{"bike_id":"c04ea6ec-c85d-4b9a-aa74-f0de2415a6d2","system_id":"levelo_inurba_marseille","lat":43.31548,"lon":5.38246,"is_reserved":false,"is_disabled":false,"rental_uris":{"android":"levelo://app?vid=c04ea6ec-c85d-4b9a-aa74-f0de2415a6d2","ios":"levelo://app?vid=c04ea6ec-c85d-4b9a-aa74-f0de2415a6d2"},"vehicle_type_id":"4","last_reported":1761919848,"current_range_meters":18800,"station_id":"","pricing_plan_id":"cebpf4jnsgd1na2vs0mg"},{"bike_id":"fbcc5886-69e3-488f-96fd-e45314a075e6","system_id":"levelo_inurba_marseille","lat":43.28859,"lon":5.42518,"is_reserved":false,"is_disabled":false,"rental_uris":{"android":"levelo://app?vid=fbcc5886-69e3-488f-96fd-e45314a075e6","ios":"levelo://app?vid=fbcc5886-69e3-488f-96fd-e45314a075e6"},"vehicle_type_id":"4","last_reported":1761919848,"current_range_meters":18800,"station_id":"st_d3b462108ojc7389ooeg","pricing_plan_id":"cebpf4jnsgd1na2vs0mg"},{"bike_id":"e30a6103-e269-4203-90f6-50178fe5590f","system_id":"levelo_inurba_marseille","lat":43.23152,"lon":5.4372,"is_reserved":false,"is_disabled":false,"rental_uris":{"android":"levelo://app?vid=e30a6103-e269-4203-90f6-50178fe5590f","ios":"levelo://app?vid=e30a6103-e269-4203-90f6-50178fe5590f"},"vehicle_type_id":"4","last_reported":1761919848,"current_range_meters":18800,"station_id":"ce4bhmp2rcd13ifvqgog","pricing_plan_id":"cebpf4jnsgd1na2vs0mg"},{"bike_id":"93641f31-faad-4324-83aa-3f877176da49","system_id":"levelo_inurba_marseille","lat":43.30732,"lon":5.42437,"is_reserved":false,"is_disabled":false,"rental_uris":{"android":"levelo://app?vid=93641f31-faad-4324-83aa-3f877176da49","ios":"levelo://app?vid=93641f31-faad-4324-83aa-3f877176da49"},"vehicle_type_id":"4","last_reported":1761919848,"current_range_meters":18800,"station_id":"st_cvj6ca6bvosntc0bfgr0","pricing_plan_id":"cebpf4jnsgd1na2vs0mg"},{"bike_id":"17a64f81-2e1b-4b48-a98c-ca5473db634f","system_id":"levelo_inurba_marseille","lat":43.24545,"lon":5.39523,"is_reserved":false,"is_disabled":false,"rental_uris":{"android":"levelo://app?vid=17a64f81-2e1b-4b48-a98c-ca5473db634f","ios":"levelo://app?vid=17a64f81-2e1b-4b48-a98c-ca5473db634f"},"vehicle_type_id":"4","last_reported":1761919848,"current_range_meters":18800,"station_id":"ce4bhlp2rcd13ifvqgjg","pricing_plan_id":"cebpf4jnsgd1na2vs0mg"},{"bike_id":"9c1c5831-f78e-453f-8a28-90b58938513e","system_id":"levelo_inurba_marseille","lat":43.29028,"lon":5.37562,"is_reserved":false,"is_disabled":false,"rental_uris":{"android":"levelo://app?vid=9c1c5831-f78e-453f-8a28-90b58938513e","ios":"levelo://app?vid=9c1c5831-f78e-453f-8a28-90b58938513e"},"vehicle_type_id":"4","last_reported":1761919848,"current_range_meters":19200,"station_id":"ce4bh692rcd13ifvqe90","pricing_plan_id":"cebpf4jnsgd1na2vs0mg"},{"bike_id":"3965660d-d019-448d-9ea6-ad76591ec156","system_id":"levelo_inurba_marseille","lat":43.32101,"lon":5.3679,"is_reserved":false,"is_disabled":false,"rental_uris":{"android":"levelo://app?vid=3965660d-d019-448d-9ea6-ad76591ec156","ios":"levelo://app?vid=3965660d-d019-448d-9ea6-ad76591ec156"},"vehicle_type_id":"4","last_reported":1761919848,"current_range_meters":19200,"station_id":"ce4bhrh2rcd13ifvqhug","pricing_plan_id":"cebpf4jnsgd1na2vs0mg"},{"bike_id":"2819da96-e74b-4499-817d-c62867e34f4e","system_id":"levelo_inurba_marseille","lat":43.29842,"lon":5.36277,"is_reserved":false,"is_disabled":false,"rental_uris":{"android":"levelo://app?vid=2819da96-e74b-4499-817d-c62867e34f4e","ios":"levelo://app?vid=2819da96-e74b-4499-817d-c62867e34f4e"},"vehicle_type_id":"4","last_reported":1761919848,"current_range_meters":19600,"station_id":"ce4bgpp2rcd13ifvqc3g","pricing_plan_id":"cebpf4jnsgd1na2vs0mg"},{"bike_id":"e086c24a-e8f1-48a0-a5b9-58d377a0111d","system_id":"levelo_inurba_marseille","lat":43.29523,"lon":5.39033,"is_reserved":false,"is_disabled":false,"rental_uris":{"android":"levelo://app?vid=e086c24a-e8f1-48a0-a5b9-58d377a0111d","ios":"levelo://app?vid=e086c24a-e8f1-48a0-a5b9-58d377a0111d"},"vehicle_type_id":"4","last_reported":1761919848,"current_range_meters":19600,"station_id":"ce4bh3p2rcd13ifvqdp0","pricing_plan_id":"cebpf4jnsgd1na2vs0mg"},{"bike_id":"18e64e14-2231-4e22-8c4b-d71f11f949e0","system_id":"levelo_inurba_marseille","lat":43.311375,"lon":5.396193,"is_reserved":false,"is_disabled":false,"rental_uris":{"android":"levelo://app?vid=18e64e14-2231-4e22-8c4b-d71f11f949e0","ios":"levelo://app?vid=18e64e14-2231-4e22-8c4b-d71f11f949e0"},"vehicle_type_id":"4","last_reported":1761919848,"current_range_meters":20000,"station_id":"ce4bgvp2rcd13ifvqcu0","pricing_plan_id":"cebpf4jnsgd1na2vs0mg"},{"bike_id":"91c8015b-44e8-4e54-8b90-7689a12b16b9","system_id":"levelo_inurba_marseille","lat":43.30432,"lon":5.38893,"is_reserved":false,"is_disabled":false,"rental_uris":{"android":"levelo://app?vid=91c8015b-44e8-4e54-8b90-7689a12b16b9","ios":"levelo://app?vid=91c8015b-44e8-4e54-8b90-7689a12b16b9"},"vehicle_type_id":"4","last_reported":1761919848,"current_range_meters":20000,"station_id":"ce4bgk12rcd13ifvqbi0","pricing_plan_id":"cebpf4jnsgd1na2vs0mg"},{"bike_id":"06bde4a7-497c-469a-9516-37b9f9755e65","system_id":"levelo_inurba_marseille","lat":43.337444,"lon":5.374475,"is_reserved":false,"is_disabled":false,"rental_uris":{"android":"levelo://app?vid=06bde4a7-497c-469a-9516-37b9f9755e65","ios":"levelo://app?vid=06bde4a7-497c-469a-9516-37b9f9755e65"},"vehicle_type_id":"4","last_reported":1761919848,"current_range_meters":20000,"station_id":"ce4bhnh2rcd13ifvqgug","pricing_plan_id":"cebpf4jnsgd1na2vs0mg"},{"bike_id":"32632625-b281-4348-990f-071d78c42b84","system_id":"levelo_inurba_marseille","lat":43.26569,"lon":5.39014,"is_reserved":false,"is_disabled":false,"rental_uris":{"android":"levelo://app?vid=32632625-b281-4348-990f-071d78c42b84","ios":"levelo://app?vid=32632625-b281-4348-990f-071d78c42b84"},"vehicle_type_id":"4","last_reported":1761919848,"current_range_meters":20000,"station_id":"","pricing_plan_id":"cebpf4jnsgd1na2vs0mg"},{"bike_id":"3150b169-6d8b-4786-81cd-4b890da98702","system_id":"levelo_inurba_marseille","lat":43.237906,"lon":5.366259,"is_reserved":false,"is_disabled":false,"rental_uris":{"android":"levelo://app?vid=3150b169-6d8b-4786-81cd-4b890da98702","ios":"levelo://app?vid=3150b169-6d8b-4786-81cd-4b890da98702"},"vehicle_type_id":"4","last_reported":1761919848,"current_range_meters":20000,"station_id":"st_d3nk18o9ro0c73en2l3g","pricing_plan_id":"cebpf4jnsgd1na2vs0mg"},{"bike_id":"a5f9d115-2eb0-463d-bf65-9070eaddf3fb","system_id":"levelo_inurba_marseille","lat":43.239587,"lon":5.366257,"is_reserved":false,"is_disabled":false,"rental_uris":{"android":"levelo://app?vid=a5f9d115-2eb0-463d-bf65-9070eaddf3fb","ios":"levelo://app?vid=a5f9d115-2eb0-463d-bf65-9070eaddf3fb"},"vehicle_type_id":"4","last_reported":1761919848,"current_range_meters":20000,"station_id":"ce4bhi12rcd13ifvqfp0","pricing_plan_id":"cebpf4jnsgd1na2vs0mg"},{"bike_id":"c7b1f467-f9c9-46a7-9c71-428c954f8cb4","system_id":"levelo_inurba_marseille","lat":43.30157,"lon":5.38102,"is_reserved":false,"is_disabled":false,"rental_uris":{"android":"levelo://app?vid=c7b1f467-f9c9-46a7-9c71-428c954f8cb4","ios":"levelo://app?vid=c7b1f467-f9c9-46a7-9c71-428c954f8cb4"},"vehicle_type_id":"4","last_reported":1761919848,"current_range_meters":20400,"station_id":"ce4bgjp2rcd13ifvqbh0","pricing_plan_id":"cebpf4jnsgd1na2vs0mg"},{"bike_id":"c5d2aab8-41e1-44b0-92bb-fb216c25c524","system_id":"levelo_inurba_marseille","lat":43.33768,"lon":5.3744,"is_reserved":false,"is_disabled":false,"rental_uris":{"android":"levelo://app?vid=c5d2aab8-41e1-44b0-92bb-fb216c25c524","ios":"levelo://app?vid=c5d2aab8-41e1-44b0-92bb-fb216c25c524"},"vehicle_type_id":"4","last_reported":1761919848,"current_range_meters":20400,"station_id":"ce4bh0h2rcd13ifvqd40","pricing_plan_id":"cebpf4jnsgd1na2vs0mg"},{"bike_id":"94084d75-b1ec-4cf5-8736-b1d0c7eed7ce","system_id":"levelo_inurba_marseille","lat":43.33041,"lon":5.39049,"is_reserved":false,"is_disabled":false,"rental_uris":{"android":"levelo://app?vid=94084d75-b1ec-4cf5-8736-b1d0c7eed7ce","ios":"levelo://app?vid=94084d75-b1ec-4cf5-8736-b1d0c7eed7ce"},"vehicle_type_id":"4","last_reported":1761919848,"current_range_meters":20400,"station_id":"ce4bhr92rcd13ifvqhrg","pricing_plan_id":"cebpf4jnsgd1na2vs0mg"},{"bike_id":"221c3823-220f-41c8-8f15-a9ff04506d5d","system_id":"levelo_inurba_marseille","lat":43.29913,"lon":5.37475,"is_reserved":false,"is_disabled":false,"rental_uris":{"android":"levelo://app?vid=221c3823-220f-41c8-8f15-a9ff04506d5d","ios":"levelo://app?vid=221c3823-220f-41c8-8f15-a9ff04506d5d"},"vehicle_type_id":"4","last_reported":1761919848,"current_range_meters":20400,"station_id":"ce4bgjh2rcd13ifvqbg0","pricing_plan_id":"cebpf4jnsgd1na2vs0mg"},{"bike_id":"3121a0e2-8041-4bba-8ecc-3f5451b1a7cd","system_id":"levelo_inurba_marseille","lat":43.29933,"lon":5.36543,"is_reserved":false,"is_disabled":false,"rental_uris":{"android":"levelo://app?vid=3121a0e2-8041-4bba-8ecc-3f5451b1a7cd","ios":"levelo://app?vid=3121a0e2-8041-4bba-8ecc-3f5451b1a7cd"},"vehicle_type_id":"4","last_reported":1761919848,"current_range_meters":20400,"station_id":"ce4bgm92rcd13ifvqbr0","pricing_plan_id":"cebpf4jnsgd1na2vs0mg"},{"bike_id":"69159093-00cd-4440-ac69-dc30ddc32f4f","system_id":"levelo_inurba_marseille","lat":43.23964,"lon":5.36627,"is_reserved":false,"is_disabled":false,"rental_uris":{"android":"levelo://app?vid=69159093-00cd-4440-ac69-dc30ddc32f4f","ios":"levelo://app?vid=69159093-00cd-4440-ac69-dc30ddc32f4f"},"vehicle_type_id":"4","last_reported":1761919848,"current_range_meters":20400,"station_id":"ce4bhi12rcd13ifvqfp0","pricing_plan_id":"cebpf4jnsgd1na2vs0mg"},{"bike_id":"41598790-345d-414f-9e87-720cb432f278","system_id":"levelo_inurba_marseille","lat":43.29477,"lon":5.36227,"is_reserved":false,"is_disabled":false,"rental_uris":{"android":"levelo://app?vid=41598790-345d-414f-9e87-720cb432f278","ios":"levelo://app?vid=41598790-345d-414f-9e87-720cb432f278"},"vehicle_type_id":"4","last_reported":1761919848,"current_range_meters":20400,"station_id":"","pricing_plan_id":"cebpf4jnsgd1na2vs0mg"},{"bike_id":"3ffbae57-8ecd-4e3d-96ad-932247e3fe54","system_id":"levelo_inurba_marseille","lat":43.323647,"lon":5.367625,"is_reserved":false,"is_disabled":false,"rental_uris":{"android":"levelo://app?vid=3ffbae57-8ecd-4e3d-96ad-932247e3fe54","ios":"levelo://app?vid=3ffbae57-8ecd-4e3d-96ad-932247e3fe54"},"vehicle_type_id":"4","last_reported":1761919848,"current_range_meters":20400,"station_id":"ce4bhsh2rcd13ifvqi2g","pricing_plan_id":"cebpf4jnsgd1na2vs0mg"},{"bike_id":"30fe1658-7a14-463b-a80e-7a1b304d6740","system_id":"levelo_inurba_marseille","lat":43.21196,"lon":5.35078,"is_reserved":false,"is_disabled":false,"rental_uris":{"android":"levelo://app?vid=30fe1658-7a14-463b-a80e-7a1b304d6740","ios":"levelo://app?vid=30fe1658-7a14-463b-a80e-7a1b304d6740"},"vehicle_type_id":"4","last_reported":1761919848,"current_range_meters":20400,"station_id":"st_cvj6sg6p6f1abm77japg","pricing_plan_id":"cebpf4jnsgd1na2vs0mg"},{"bike_id":"50c2c89c-4a9b-41f6-af05-b4e430e07029","system_id":"levelo_inurba_marseille","lat":43.24621,"lon":5.43154,"is_reserved":false,"is_disabled":false,"rental_uris":{"android":"levelo://app?vid=50c2c89c-4a9b-41f6-af05-b4e430e07029","ios":"levelo://app?vid=50c2c89c-4a9b-41f6-af05-b4e430e07029"},"vehicle_type_id":"4","last_reported":1761919848,"current_range_meters":20400,"station_id":"st_d2m6c4gdas8pm72e190g","pricing_plan_id":"cebpf4jnsgd1na2vs0mg"},{"bike_id":"cc0d6697-bf7c-4001-828f-c5cf42c80c59","system_id":"levelo_inurba_marseille","lat":43.21179,"lon":5.3509,"is_reserved":false,"is_disabled":false,"rental_uris":{"android":"levelo://app?vid=cc0d6697-bf7c-4001-828f-c5cf42c80c59","ios":"levelo://app?vid=cc0d6697-bf7c-4001-828f-c5cf42c80c59"},"vehicle_type_id":"4","last_reported":1761919848,"current_range_meters":20400,"station_id":"","pricing_plan_id":"cebpf4jnsgd1na2vs0mg"},{"bike_id":"1d29646a-da1f-4f66-b008-0838ffb2fa84","system_id":"levelo_inurba_marseille","lat":43.29994,"lon":5.37225,"is_reserved":false,"is_disabled":false,"rental_uris":{"android":"levelo://app?vid=1d29646a-da1f-4f66-b008-0838ffb2fa84","ios":"levelo://app?vid=1d29646a-da1f-4f66-b008-0838ffb2fa84"},"vehicle_type_id":"4","last_reported":1761919848,"current_range_meters":20400,"station_id":"ce4bgr92rcd13ifvqc7g","pricing_plan_id":"cebpf4jnsgd1na2vs0mg"},{"bike_id":"257b0e71-f30c-45ea-9c78-e7cd88f8d3e9","system_id":"levelo_inurba_marseille","lat":43.30293,"lon":5.3922,"is_reserved":false,"is_disabled":false,"rental_uris":{"android":"levelo://app?vid=257b0e71-f30c-45ea-9c78-e7cd88f8d3e9","ios":"levelo://app?vid=257b0e71-f30c-45ea-9c78-e7cd88f8d3e9"},"vehicle_type_id":"4","last_reported":1761919848,"current_range_meters":20400,"station_id":"ce4bgkh2rcd13ifvqbk0","pricing_plan_id":"cebpf4jnsgd1na2vs0mg"},{"bike_id":"42ee845a-4e54-4f5b-8729-bb3ec7276302","system_id":"levelo_inurba_marseille","lat":43.29444,"lon":5.40129,"is_reserved":false,"is_disabled":false,"rental_uris":{"android":"levelo://app?vid=42ee845a-4e54-4f5b-8729-bb3ec7276302","ios":"levelo://app?vid=42ee845a-4e54-4f5b-8729-bb3ec7276302"},"vehicle_type_id":"4","last_reported":1761919848,"current_range_meters":20800,"station_id":"","pricing_plan_id":"cebpf4jnsgd1na2vs0mg"},{"bike_id":"bbc64c8c-a5e7-4fc2-936f-ec02d196f147","system_id":"levelo_inurba_marseille","lat":43.30209,"lon":5.39465,"is_reserved":false,"is_disabled":false,"rental_uris":{"android":"levelo://app?vid=bbc64c8c-a5e7-4fc2-936f-ec02d196f147","ios":"levelo://app?vid=bbc64c8c-a5e7-4fc2-936f-ec02d196f147"},"vehicle_type_id":"4","last_reported":1761919848,"current_range_meters":20800,"station_id":"ce4bh0p2rcd13ifvqd70","pricing_plan_id":"cebpf4jnsgd1na2vs0mg"},{"bike_id":"c311dcd7-8990-4d0c-b893-da6fc911ae2a","system_id":"levelo_inurba_marseille","lat":43.23187,"lon":5.40005,"is_reserved":false,"is_disabled":false,"rental_uris":{"android":"levelo://app?vid=c311dcd7-8990-4d0c-b893-da6fc911ae2a","ios":"levelo://app?vid=c311dcd7-8990-4d0c-b893-da6fc911ae2a"},"vehicle_type_id":"4","last_reported":1761919848,"current_range_meters":20800,"station_id":"ce4bhn12rcd13ifvqgqg","pricing_plan_id":"cebpf4jnsgd1na2vs0mg"},{"bike_id":"06fc4c44-20ba-493c-8944-d78c73d93c94","system_id":"levelo_inurba_marseille","lat":43.31188,"lon":5.39352,"is_reserved":false,"is_disabled":false,"rental_uris":{"android":"levelo://app?vid=06fc4c44-20ba-493c-8944-d78c73d93c94","ios":"levelo://app?vid=06fc4c44-20ba-493c-8944-d78c73d93c94"},"vehicle_type_id":"4","last_reported":1761919848,"current_range_meters":20800,"station_id":"","pricing_plan_id":"cebpf4jnsgd1na2vs0mg"},{"bike_id":"71bdb168-c8a5-4d21-ae4a-bcd931f67343","system_id":"levelo_inurba_marseille","lat":43.29036,"lon":5.37572,"is_reserved":false,"is_disabled":false,"rental_uris":{"android":"levelo://app?vid=71bdb168-c8a5-4d21-ae4a-bcd931f67343","ios":"levelo://app?vid=71bdb168-c8a5-4d21-ae4a-bcd931f67343"},"vehicle_type_id":"4","last_reported":1761919848,"current_range_meters":20800,"station_id":"ce4bh692rcd13ifvqe90","pricing_plan_id":"cebpf4jnsgd1na2vs0mg"},{"bike_id":"74204de1-5ac6-4629-befd-205f396f5014","system_id":"levelo_inurba_marseille","lat":43.292938,"lon":5.377819,"is_reserved":false,"is_disabled":false,"rental_uris":{"android":"levelo://app?vid=74204de1-5ac6-4629-befd-205f396f5014","ios":"levelo://app?vid=74204de1-5ac6-4629-befd-205f396f5014"},"vehicle_type_id":"4","last_reported":1761919848,"current_range_meters":20800,"station_id":"ce4bha92rcd13ifvqeg0","pricing_plan_id":"cebpf4jnsgd1na2vs0mg"},{"bike_id":"7c19b7e9-393b-4fa2-b057-4dd7dff08f6d","system_id":"levelo_inurba_marseille","lat":43.21194,"lon":5.35101,"is_reserved":false,"is_disabled":false,"rental_uris":{"android":"levelo://app?vid=7c19b7e9-393b-4fa2-b057-4dd7dff08f6d","ios":"levelo://app?vid=7c19b7e9-393b-4fa2-b057-4dd7dff08f6d"},"vehicle_type_id":"4","last_reported":1761919848,"current_range_meters":20800,"station_id":"st_cvj6sg6p6f1abm77japg","pricing_plan_id":"cebpf4jnsgd1na2vs0mg"},{"bike_id":"a73a24c3-2218-4652-a302-2ad81b7034ad","system_id":"levelo_inurba_marseille","lat":43.31825,"lon":5.38776,"is_reserved":false,"is_disabled":false,"rental_uris":{"android":"levelo://app?vid=a73a24c3-2218-4652-a302-2ad81b7034ad","ios":"levelo://app?vid=a73a24c3-2218-4652-a302-2ad81b7034ad"},"vehicle_type_id":"4","last_reported":1761919848,"current_range_meters":20800,"station_id":"","pricing_plan_id":"cebpf4jnsgd1na2vs0mg"},{"bike_id":"209d5f11-6329-4767-a52e-48809c4c4245","system_id":"levelo_inurba_marseille","lat":43.26208,"lon":5.37443,"is_reserved":false,"is_disabled":false,"rental_uris":{"android":"levelo://app?vid=209d5f11-6329-4767-a52e-48809c4c4245","ios":"levelo://app?vid=209d5f11-6329-4767-a52e-48809c4c4245"},"vehicle_type_id":"4","last_reported":1761919848,"current_range_meters":20800,"station_id":"ce4bhgp2rcd13ifvqfc0","pricing_plan_id":"cebpf4jnsgd1na2vs0mg"},{"bike_id":"52b04612-cd38-411f-a68e-6bb9cb24a90a","system_id":"levelo_inurba_marseille","lat":43.24159,"lon":5.3641,"is_reserved":false,"is_disabled":false,"rental_uris":{"android":"levelo://app?vid=52b04612-cd38-411f-a68e-6bb9cb24a90a","ios":"levelo://app?vid=52b04612-cd38-411f-a68e-6bb9cb24a90a"},"vehicle_type_id":"4","last_reported":1761919848,"current_range_meters":21600,"station_id":"cpo36qri1sfpv3e86is0","pricing_plan_id":"cebpf4jnsgd1na2vs0mg"},{"bike_id":"f0b623d3-0945-4823-acd2-3859c939eb4d","system_id":"levelo_inurba_marseille","lat":43.27812,"lon":5.40724,"is_reserved":false,"is_disabled":false,"rental_uris":{"android":"levelo://app?vid=f0b623d3-0945-4823-acd2-3859c939eb4d","ios":"levelo://app?vid=f0b623d3-0945-4823-acd2-3859c939eb4d"},"vehicle_type_id":"4","last_reported":1761919848,"current_range_meters":21600,"station_id":"ce4bhnh2rcd13ifvqgtg","pricing_plan_id":"cebpf4jnsgd1na2vs0mg"},{"bike_id":"5eea2411-e155-43d0-855f-f2d6be233722","system_id":"levelo_inurba_marseille","lat":43.30181,"lon":5.36611,"is_reserved":false,"is_disabled":false,"rental_uris":{"android":"levelo://app?vid=5eea2411-e155-43d0-855f-f2d6be233722","ios":"levelo://app?vid=5eea2411-e155-43d0-855f-f2d6be233722"},"vehicle_type_id":"4","last_reported":1761919848,"current_range_meters":21600,"station_id":"ce4bgrh2rcd13ifvqc8g","pricing_plan_id":"cebpf4jnsgd1na2vs0mg"},{"bike_id":"f4c38a56-4a35-49a9-bdea-5d14ae1ba768","system_id":"levelo_inurba_marseille","lat":43.29754,"lon":5.4279,"is_reserved":false,"is_disabled":false,"rental_uris":{"android":"levelo://app?vid=f4c38a56-4a35-49a9-bdea-5d14ae1ba768","ios":"levelo://app?vid=f4c38a56-4a35-49a9-bdea-5d14ae1ba768"},"vehicle_type_id":"4","last_reported":1761919848,"current_range_meters":21600,"station_id":"st_d3md5207bmas73dh9klg","pricing_plan_id":"cebpf4jnsgd1na2vs0mg"},{"bike_id":"7776d34e-6db1-4a95-b64a-dfa1faf6c280","system_id":"levelo_inurba_marseille","lat":43.30172,"lon":5.36963,"is_reserved":false,"is_disabled":false,"rental_uris":{"android":"levelo://app?vid=7776d34e-6db1-4a95-b64a-dfa1faf6c280","ios":"levelo://app?vid=7776d34e-6db1-4a95-b64a-dfa1faf6c280"},"vehicle_type_id":"4","last_reported":1761919848,"current_range_meters":21600,"station_id":"","pricing_plan_id":"cebpf4jnsgd1na2vs0mg"},{"bike_id":"e35e0abe-4c2a-4cc0-a145-913ed5b94495","system_id":"levelo_inurba_marseille","lat":43.24163,"lon":5.36416,"is_reserved":false,"is_disabled":false,"rental_uris":{"android":"levelo://app?vid=e35e0abe-4c2a-4cc0-a145-913ed5b94495","ios":"levelo://app?vid=e35e0abe-4c2a-4cc0-a145-913ed5b94495"},"vehicle_type_id":"4","last_reported":1761919848,"current_range_meters":21600,"station_id":"cpo36qri1sfpv3e86is0","pricing_plan_id":"cebpf4jnsgd1na2vs0mg"},{"bike_id":"11583497-1bae-45e4-891c-32165cd1a773","system_id":"levelo_inurba_marseille","lat":43.29269,"lon":5.38453,"is_reserved":false,"is_disabled":false,"rental_uris":{"android":"levelo://app?vid=11583497-1bae-45e4-891c-32165cd1a773","ios":"levelo://app?vid=11583497-1bae-45e4-891c-32165cd1a773"},"vehicle_type_id":"4","last_reported":1761919848,"current_range_meters":21600,"station_id":"ce4bh692rcd13ifvqea0","pricing_plan_id":"cebpf4jnsgd1na2vs0mg"},{"bike_id":"2d97b67d-87bd-4b87-934d-0c52a8424a35","system_id":"levelo_inurba_marseille","lat":43.2594,"lon":5.40907,"is_reserved":false,"is_disabled":false,"rental_uris":{"android":"levelo://app?vid=2d97b67d-87bd-4b87-934d-0c52a8424a35","ios":"levelo://app?vid=2d97b67d-87bd-4b87-934d-0c52a8424a35"},"vehicle_type_id":"4","last_reported":1761919848,"current_range_meters":21600,"station_id":"ce4bhm92rcd13ifvqglg","pricing_plan_id":"cebpf4jnsgd1na2vs0mg"},{"bike_id":"e234df06-1f05-4887-b706-85c5b9955892","system_id":"levelo_inurba_marseille","lat":43.29846,"lon":5.36288,"is_reserved":false,"is_disabled":false,"rental_uris":{"android":"levelo://app?vid=e234df06-1f05-4887-b706-85c5b9955892","ios":"levelo://app?vid=e234df06-1f05-4887-b706-85c5b9955892"},"vehicle_type_id":"4","last_reported":1761919848,"current_range_meters":21600,"station_id":"ce4bgpp2rcd13ifvqc3g","pricing_plan_id":"cebpf4jnsgd1na2vs0mg"},{"bike_id":"b42166d1-0c22-4836-8d75-b3bcaa9188a0","system_id":"levelo_inurba_marseille","lat":43.30933,"lon":5.40147,"is_reserved":false,"is_disabled":false,"rental_uris":{"android":"levelo://app?vid=b42166d1-0c22-4836-8d75-b3bcaa9188a0","ios":"levelo://app?vid=b42166d1-0c22-4836-8d75-b3bcaa9188a0"},"vehicle_type_id":"4","last_reported":1761919848,"current_range_meters":22000,"station_id":"ce4bgvp2rcd13ifvqct0","pricing_plan_id":"cebpf4jnsgd1na2vs0mg"},{"bike_id":"cf7a8ce5-6096-4f39-86c5-cb2e7875b3f2","system_id":"levelo_inurba_marseille","lat":43.2452,"lon":5.39534,"is_reserved":false,"is_disabled":false,"rental_uris":{"android":"levelo://app?vid=cf7a8ce5-6096-4f39-86c5-cb2e7875b3f2","ios":"levelo://app?vid=cf7a8ce5-6096-4f39-86c5-cb2e7875b3f2"},"vehicle_type_id":"4","last_reported":1761919848,"current_range_meters":22000,"station_id":"ce4bhlp2rcd13ifvqgjg","pricing_plan_id":"cebpf4jnsgd1na2vs0mg"},{"bike_id":"ae1b14b7-6df9-4740-9c2c-d158be0c58c9","system_id":"levelo_inurba_marseille","lat":43.29568,"lon":5.37525,"is_reserved":false,"is_disabled":false,"rental_uris":{"android":"levelo://app?vid=ae1b14b7-6df9-4740-9c2c-d158be0c58c9","ios":"levelo://app?vid=ae1b14b7-6df9-4740-9c2c-d158be0c58c9"},"vehicle_type_id":"4","last_reported":1761919848,"current_range_meters":22000,"station_id":"ce4bgh92rcd13ifvqb50","pricing_plan_id":"cebpf4jnsgd1na2vs0mg"},{"bike_id":"23cb16f2-c582-41bf-a574-739135a15767","system_id":"levelo_inurba_marseille","lat":43.30639,"lon":5.40102,"is_reserved":false,"is_disabled":false,"rental_uris":{"android":"levelo://app?vid=23cb16f2-c582-41bf-a574-739135a15767","ios":"levelo://app?vid=23cb16f2-c582-41bf-a574-739135a15767"},"vehicle_type_id":"4","last_reported":1761919848,"current_range_meters":22000,"station_id":"ce4bh112rcd13ifvqda0","pricing_plan_id":"cebpf4jnsgd1na2vs0mg"},{"bike_id":"0d595a78-5f73-471c-8f21-a0df6fb57226","system_id":"levelo_inurba_marseille","lat":43.29273,"lon":5.36854,"is_reserved":false,"is_disabled":false,"rental_uris":{"android":"levelo://app?vid=0d595a78-5f73-471c-8f21-a0df6fb57226","ios":"levelo://app?vid=0d595a78-5f73-471c-8f21-a0df6fb57226"},"vehicle_type_id":"4","last_reported":1761919848,"current_range_meters":22000,"station_id":"ce4bhbp2rcd13ifvqesg","pricing_plan_id":"cebpf4jnsgd1na2vs0mg"},{"bike_id":"759e2c24-b6f9-462a-849c-96322fe2b441","system_id":"levelo_inurba_marseille","lat":43.23148,"lon":5.43724,"is_reserved":false,"is_disabled":false,"rental_uris":{"android":"levelo://app?vid=759e2c24-b6f9-462a-849c-96322fe2b441","ios":"levelo://app?vid=759e2c24-b6f9-462a-849c-96322fe2b441"},"vehicle_type_id":"4","last_reported":1761919848,"current_range_meters":22000,"station_id":"ce4bhmp2rcd13ifvqgog","pricing_plan_id":"cebpf4jnsgd1na2vs0mg"},{"bike_id":"7b398713-e01c-4991-ac43-9a866f67d1f1","system_id":"levelo_inurba_marseille","lat":43.21181,"lon":5.35065,"is_reserved":false,"is_disabled":false,"rental_uris":{"android":"levelo://app?vid=7b398713-e01c-4991-ac43-9a866f67d1f1","ios":"levelo://app?vid=7b398713-e01c-4991-ac43-9a866f67d1f1"},"vehicle_type_id":"4","last_reported":1761919848,"current_range_meters":22000,"station_id":"st_cvj6sg6p6f1abm77japg","pricing_plan_id":"cebpf4jnsgd1na2vs0mg"},{"bike_id":"aea69efe-0503-4b60-bce9-564bde7f7791","system_id":"levelo_inurba_marseille","lat":43.32105,"lon":5.368,"is_reserved":false,"is_disabled":false,"rental_uris":{"android":"levelo://app?vid=aea69efe-0503-4b60-bce9-564bde7f7791","ios":"levelo://app?vid=aea69efe-0503-4b60-bce9-564bde7f7791"},"vehicle_type_id":"4","last_reported":1761919848,"current_range_meters":22000,"station_id":"ce4bhrh2rcd13ifvqhug","pricing_plan_id":"cebpf4jnsgd1na2vs0mg"},{"bike_id":"5b06856a-e7f7-4084-8da5-2110c79efa8c","system_id":"levelo_inurba_marseille","lat":43.25496,"lon":5.37649,"is_reserved":false,"is_disabled":false,"rental_uris":{"android":"levelo://app?vid=5b06856a-e7f7-4084-8da5-2110c79efa8c","ios":"levelo://app?vid=5b06856a-e7f7-4084-8da5-2110c79efa8c"},"vehicle_type_id":"4","last_reported":1761919848,"current_range_meters":22000,"station_id":"ce4bhh12rcd13ifvqff0","pricing_plan_id":"cebpf4jnsgd1na2vs0mg"},{"bike_id":"ba541a52-7e4e-4241-9791-ae6f1fb03dcd","system_id":"levelo_inurba_marseille","lat":43.31997,"lon":5.41599,"is_reserved":false,"is_disabled":false,"rental_uris":{"android":"levelo://app?vid=ba541a52-7e4e-4241-9791-ae6f1fb03dcd","ios":"levelo://app?vid=ba541a52-7e4e-4241-9791-ae6f1fb03dcd"},"vehicle_type_id":"4","last_reported":1761919848,"current_range_meters":22000,"station_id":"","pricing_plan_id":"cebpf4jnsgd1na2vs0mg"},{"bike_id":"1136e99b-8f65-4f52-a80f-5fb0646b6964","system_id":"levelo_inurba_marseille","lat":43.29931,"lon":5.36542,"is_reserved":false,"is_disabled":false,"rental_uris":{"android":"levelo://app?vid=1136e99b-8f65-4f52-a80f-5fb0646b6964","ios":"levelo://app?vid=1136e99b-8f65-4f52-a80f-5fb0646b6964"},"vehicle_type_id":"4","last_reported":1761919848,"current_range_meters":22000,"station_id":"ce4bgm92rcd13ifvqbr0","pricing_plan_id":"cebpf4jnsgd1na2vs0mg"},{"bike_id":"a144d19c-2b8e-47c8-9798-6ea2855e0c41","system_id":"levelo_inurba_marseille","lat":43.30537,"lon":5.36561,"is_reserved":false,"is_disabled":false,"rental_uris":{"android":"levelo://app?vid=a144d19c-2b8e-47c8-9798-6ea2855e0c41","ios":"levelo://app?vid=a144d19c-2b8e-47c8-9798-6ea2855e0c41"},"vehicle_type_id":"4","last_reported":1761919848,"current_range_meters":22400,"station_id":"ce4bgs12rcd13ifvqcag","pricing_plan_id":"cebpf4jnsgd1na2vs0mg"},{"bike_id":"62de671e-7a32-4ba9-9083-1401010c4da7","system_id":"levelo_inurba_marseille","lat":43.23155,"lon":5.43719,"is_reserved":false,"is_disabled":false,"rental_uris":{"android":"levelo://app?vid=62de671e-7a32-4ba9-9083-1401010c4da7","ios":"levelo://app?vid=62de671e-7a32-4ba9-9083-1401010c4da7"},"vehicle_type_id":"4","last_reported":1761919848,"current_range_meters":22400,"station_id":"ce4bhmp2rcd13ifvqgog","pricing_plan_id":"cebpf4jnsgd1na2vs0mg"},{"bike_id":"79c3e17b-6b52-40f3-829f-6b443681b1d3","system_id":"levelo_inurba_marseille","lat":43.28069,"lon":5.39659,"is_reserved":false,"is_disabled":false,"rental_uris":{"android":"levelo://app?vid=79c3e17b-6b52-40f3-829f-6b443681b1d3","ios":"levelo://app?vid=79c3e17b-6b52-40f3-829f-6b443681b1d3"},"vehicle_type_id":"4","last_reported":1761919848,"current_range_meters":22400,"station_id":"ce4bho12rcd13ifvqh2g","pricing_plan_id":"cebpf4jnsgd1na2vs0mg"},{"bike_id":"8ac4fbc9-ac0d-4af5-9421-6ac71f656b7f","system_id":"levelo_inurba_marseille","lat":43.29932,"lon":5.36528,"is_reserved":false,"is_disabled":false,"rental_uris":{"android":"levelo://app?vid=8ac4fbc9-ac0d-4af5-9421-6ac71f656b7f","ios":"levelo://app?vid=8ac4fbc9-ac0d-4af5-9421-6ac71f656b7f"},"vehicle_type_id":"4","last_reported":1761919848,"current_range_meters":22400,"station_id":"ce4bgm92rcd13ifvqbr0","pricing_plan_id":"cebpf4jnsgd1na2vs0mg"},{"bike_id":"f6fe8f29-1d57-438d-829a-b63876f5774c","system_id":"levelo_inurba_marseille","lat":43.29571,"lon":5.37525,"is_reserved":false,"is_disabled":false,"rental_uris":{"android":"levelo://app?vid=f6fe8f29-1d57-438d-829a-b63876f5774c","ios":"levelo://app?vid=f6fe8f29-1d57-438d-829a-b63876f5774c"},"vehicle_type_id":"4","last_reported":1761919848,"current_range_meters":22400,"station_id":"ce4bgh92rcd13ifvqb50","pricing_plan_id":"cebpf4jnsgd1na2vs0mg"},{"bike_id":"93090fa5-74c7-45e4-9568-47912a17742f","system_id":"levelo_inurba_marseille","lat":43.30546,"lon":5.36562,"is_reserved":false,"is_disabled":false,"rental_uris":{"android":"levelo://app?vid=93090fa5-74c7-45e4-9568-47912a17742f","ios":"levelo://app?vid=93090fa5-74c7-45e4-9568-47912a17742f"},"vehicle_type_id":"4","last_reported":1761919848,"current_range_meters":22400,"station_id":"ce4bgs12rcd13ifvqcag","pricing_plan_id":"cebpf4jnsgd1na2vs0mg"},{"bike_id":"9c10daea-f2f4-48c5-819b-352853953525","system_id":"levelo_inurba_marseille","lat":43.29624,"lon":5.3773,"is_reserved":false,"is_disabled":false,"rental_uris":{"android":"levelo://app?vid=9c10daea-f2f4-48c5-819b-352853953525","ios":"levelo://app?vid=9c10daea-f2f4-48c5-819b-352853953525"},"vehicle_type_id":"4","last_reported":1761919848,"current_range_meters":22400,"station_id":"ce4bgi92rcd13ifvqb90","pricing_plan_id":"cebpf4jnsgd1na2vs0mg"},