{"last_updated":1728148104,"ttl":60,"version":"2.2","data":{"bikes":[{"bike_id":"aeeb7eb0-5703-470d-bfc9-60f693ae9b8a","system_id":"levelo_inurba_marseille","lat":43.2892,"lon":5.36675,"is_reserved":false,"is_disabled":false,"rental_uris":{"android":"levelo://app?vid=aeeb7eb0-5703-470d-bfc9-60f693ae9b8a","ios":"levelo://app?vid=aeeb7eb0-5703-470d-bfc9-60f693ae9b8a"},"vehicle_type_id":"4","last_reported":1728148105,"current_range_meters":18000,"station_id":"ce4bhap2rcd13ifvqek0","pricing_plan_id":"cebpf4jnsgd1na2vs0mg"},{"bike_id":"c7d15b25-d13a-4f01-a642-401505f6d667","system_id":"levelo_inurba_marseille","lat":43.29625,"lon":5.406,"is_reserved":false,"is_disabled":false,"rental_uris":{"android":"levelo://app?vid=c7d15b25-d13a-4f01-a642-401505f6d667","ios":"levelo://app?vid=c7d15b25-d13a-4f01-a642-401505f6d667"},"vehicle_type_id":"4","last_reported":1728148105,"current_range_meters":28800,"station_id":"ce4bh0h2rcd13ifvqd60","pricing_plan_id":"cebpf4jnsgd1na2vs0mg"},{"bike_id":"3edccbad-c604-40df-acb2-6e9d91b67298","system_id":"levelo_inurba_marseille","lat":43.33759,"lon":5.37437,"is_reserved":false,"is_disabled":false,"rental_uris":{"android":"levelo://app?vid=3edccbad-c604-40df-acb2-6e9d91b67298","ios":"levelo://app?vid=3edccbad-c604-40df-acb2-6e9d91b67298"},"vehicle_type_id":"4","last_reported":1728148105,"current_range_meters":33600,"station_id":"","pricing_plan_id":"cebpf4jnsgd1na2vs0mg"},{"bike_id":"a8e0b62f-8e1f-40a1-a12b-6911df26969c","system_id":"levelo_inurba_marseille","lat":43.31493,"lon":5.37313,"is_reserved":false,"is_disabled":false,"rental_uris":{"android":"levelo://app?vid=a8e0b62f-8e1f-40a1-a12b-6911df26969c","ios":"levelo://app?vid=a8e0b62f-8e1f-40a1-a12b-6911df26969c"},"vehicle_type_id":"4","last_reported":1728148105,"current_range_meters":27600,"station_id":"ce4bgt12rcd13ifvqcd0","pricing_plan_id":"cebpf4jnsgd1na2vs0mg"},{"bike_id":"574414af-c1da-4775-bd17-971904d909e0","system_id":"levelo_inurba_marseille","lat":43.29783,"lon":5.39343,"is_reserved":false,"is_disabled":false,"rental_uris":{"android":"levelo://app?vid=574414af-c1da-4775-bd17-971904d909e0","ios":"levelo://app?vid=574414af-c1da-4775-bd17-971904d909e0"},"vehicle_type_id":"4","last_reported":1728148105,"current_range_meters":12000,"station_id":"chh1huq6cuj3fo74tm60","pricing_plan_id":"cebpf4jnsgd1na2vs0mg"},{"bike_id":"ab0367cf-00bc-4ce2-8dbe-9ece204e1c3f","system_id":"levelo_inurba_marseille","lat":43.292285,"lon":5.377451,"is_reserved":false,"is_disabled":false,"rental_uris":{"android":"levelo://app?vid=ab0367cf-00bc-4ce2-8dbe-9ece204e1c3f","ios":"levelo://app?vid=ab0367cf-00bc-4ce2-8dbe-9ece204e1c3f"},"vehicle_type_id":"4","last_reported":1728148105,"current_range_meters":6800,"station_id":"ce4bhop2rcd13ifvqh7g","pricing_plan_id":"cebpf4jnsgd1na2vs0mg"},{"bike_id":"ba0180d4-cf64-48df-8270-0db5fe20d0c7","system_id":"levelo_inurba_marseille","lat":43.29544,"lon":5.42286,"is_reserved":false,"is_disabled":false,"rental_uris":{"android":"levelo://app?vid=ba0180d4-cf64-48df-8270-0db5fe20d0c7","ios":"levelo://app?vid=ba0180d4-cf64-48df-8270-0db5fe20d0c7"},"vehicle_type_id":"4","last_reported":1728148105,"current_range_meters":16400,"station_id":"ce4bhph2rcd13ifvqhdg","pricing_plan_id":"cebpf4jnsgd1na2vs0mg"},{"bike_id":"e49f0730-1997-4a8e-9c02-572ce428e0c3","system_id":"levelo_inurba_marseille","lat":43.30597,"lon":5.39361,"is_reserved":false,"is_disabled":false,"rental_uris":{"android":"levelo://app?vid=e49f0730-1997-4a8e-9c02-572ce428e0c3","ios":"levelo://app?vid=e49f0730-1997-4a8e-9c02-572ce428e0c3"},"vehicle_type_id":"4","last_reported":1728148105,"current_range_meters":37600,"station_id":"ce4bh0p2rcd13ifvqd80","pricing_plan_id":"cebpf4jnsgd1na2vs0mg"},{"bike_id":"d0ade16a-b294-44b3-9917-a5cd983913cc","system_id":"levelo_inurba_marseille","lat":43.28483,"lon":5.38407,"is_reserved":false,"is_disabled":false,"rental_uris":{"android":"levelo://app?vid=d0ade16a-b294-44b3-9917-a5cd983913cc","ios":"levelo://app?vid=d0ade16a-b294-44b3-9917-a5cd983913cc"},"vehicle_type_id":"4","last_reported":1728148105,"current_range_meters":38000,"station_id":"ce4bh512rcd13ifvqe3g","pricing_plan_id":"cebpf4jnsgd1na2vs0mg"},{"bike_id":"7147547e-04e9-4c96-b6a2-fee48b802fef","system_id":"levelo_inurba_marseille","lat":43.26556,"lon":5.37287,"is_reserved":false,"is_disabled":false,"rental_uris":{"android":"levelo://app?vid=7147547e-04e9-4c96-b6a2-fee48b802fef","ios":"levelo://app?vid=7147547e-04e9-4c96-b6a2-fee48b802fef"},"vehicle_type_id":"4","last_reported":1728148105,"current_range_meters":38800,"station_id":"ce4bhg12rcd13ifvqf70","pricing_plan_id":"cebpf4jnsgd1na2vs0mg"},{"bike_id":"0a05aa33-5775-497c-81ad-5266559a8bb3","system_id":"levelo_inurba_marseille","lat":43.28942,"lon":5.3663,"is_reserved":false,"is_disabled":false,"rental_uris":{"android":"levelo://app?vid=0a05aa33-5775-497c-81ad-5266559a8bb3","ios":"levelo://app?vid=0a05aa33-5775-497c-81ad-5266559a8bb3"},"vehicle_type_id":"4","last_reported":1728148105,"current_range_meters":2800,"station_id":"ce4bhap2rcd13ifvqek0","pricing_plan_id":"cebpf4jnsgd1na2vs0mg"},{"bike_id":"35bc703f-b478-4ca0-9e17-d8651f8378f5","system_id":"levelo_inurba_marseille","lat":43.29513,"lon":5.39048,"is_reserved":false,"is_disabled":false,"rental_uris":{"android":"levelo://app?vid=35bc703f-b478-4ca0-9e17-d8651f8378f5","ios":"levelo://app?vid=35bc703f-b478-4ca0-9e17-d8651f8378f5"},"vehicle_type_id":"4","last_reported":1728148105,"current_range_meters":9600,"station_id":"ce4bh3p2rcd13ifvqdp0","pricing_plan_id":"cebpf4jnsgd1na2vs0mg"},{"bike_id":"097ec12c-c9ad-490c-99e1-992468d616fa","system_id":"levelo_inurba_marseille","lat":43.28973,"lon":5.3784,"is_reserved":false,"is_disabled":false,"rental_uris":{"android":"levelo://app?vid=097ec12c-c9ad-490c-99e1-992468d616fa","ios":"levelo://app?vid=097ec12c-c9ad-490c-99e1-992468d616fa"},"vehicle_type_id":"4","last_reported":1728148105,"current_range_meters":36400,"station_id":"ce4bh9p2rcd13ifvqed0","pricing_plan_id":"cebpf4jnsgd1na2vs0mg"},{"bike_id":"561dc380-2a8a-4b16-aebc-86865271f3ab","system_id":"levelo_inurba_marseille","lat":43.33023,"lon":5.39041,"is_reserved":false,"is_disabled":false,"rental_uris":{"android":"levelo://app?vid=561dc380-2a8a-4b16-aebc-86865271f3ab","ios":"levelo://app?vid=561dc380-2a8a-4b16-aebc-86865271f3ab"},"vehicle_type_id":"4","last_reported":1728148105,"current_range_meters":6400,"station_id":"ce4bhr92rcd13ifvqhrg","pricing_plan_id":"cebpf4jnsgd1na2vs0mg"},{"bike_id":"03ebdfef-60b9-4383-b780-f6e10ef5dff9","system_id":"levelo_inurba_marseille","lat":43.33754,"lon":5.37456,"is_reserved":false,"is_disabled":false,"rental_uris":{"android":"levelo://app?vid=03ebdfef-60b9-4383-b780-f6e10ef5dff9","ios":"levelo://app?vid=03ebdfef-60b9-4383-b780-f6e10ef5dff9"},"vehicle_type_id":"4","last_reported":1728148105,"current_range_meters":32000,"station_id":"","pricing_plan_id":"cebpf4jnsgd1na2vs0mg"},{"bike_id":"f33ee0f2-889b-413e-b751-84aaae8a6f0d","system_id":"levelo_inurba_marseille","lat":43.28103,"lon":5.40617,"is_reserved":false,"is_disabled":false,"rental_uris":{"android":"levelo://app?vid=f33ee0f2-889b-413e-b751-84aaae8a6f0d","ios":"levelo://app?vid=f33ee0f2-889b-413e-b751-84aaae8a6f0d"},"vehicle_type_id":"4","last_reported":1728148105,"current_range_meters":38800,"station_id":"","pricing_plan_id":"cebpf4jnsgd1na2vs0mg"},{"bike_id":"02083394-c94e-4a99-b766-2af4ea129e09","system_id":"levelo_inurba_marseille","lat":43.33018,"lon":5.39044,"is_reserved":false,"is_disabled":false,"rental_uris":{"android":"levelo://app?vid=02083394-c94e-4a99-b766-2af4ea129e09","ios":"levelo://app?vid=02083394-c94e-4a99-b766-2af4ea129e09"},"vehicle_type_id":"4","last_reported":1728148105,"current_range_meters":36400,"station_id":"ce4bhr92rcd13ifvqhrg","pricing_plan_id":"cebpf4jnsgd1na2vs0mg"},{"bike_id":"e6b2df58-b4a0-4aec-933d-a62e42f34d34","system_id":"levelo_inurba_marseille","lat":43.33723,"lon":5.39198,"is_reserved":false,"is_disabled":false,"rental_uris":{"android":"levelo://app?vid=e6b2df58-b4a0-4aec-933d-a62e42f34d34","ios":"levelo://app?vid=e6b2df58-b4a0-4aec-933d-a62e42f34d34"},"vehicle_type_id":"4","last_reported":1728148105,"current_range_meters":11600,"station_id":"ce4bhr92rcd13ifvqhsg","pricing_plan_id":"cebpf4jnsgd1na2vs0mg"},{"bike_id":"d77938b7-ff1e-465c-a8b9-4b07085a5cc9","system_id":"levelo_inurba_marseille","lat":43.23062,"lon":5.35488,"is_reserved":false,"is_disabled":false,"rental_uris":{"android":"levelo://app?vid=d77938b7-ff1e-465c-a8b9-4b07085a5cc9","ios":"levelo://app?vid=d77938b7-ff1e-465c-a8b9-4b07085a5cc9"},"vehicle_type_id":"4","last_reported":1728148105,"current_range_meters":10800,"station_id":"cpo3342slgdg3j2ifvpg","pricing_plan_id":"cebpf4jnsgd1na2vs0mg"},{"bike_id":"852457a1-813f-46b8-bb13-232384e208e9","system_id":"levelo_inurba_marseille","lat":43.33766,"lon":5.37426,"is_reserved":false,"is_disabled":false,"rental_uris":{"android":"levelo://app?vid=852457a1-813f-46b8-bb13-232384e208e9","ios":"levelo://app?vid=852457a1-813f-46b8-bb13-232384e208e9"},"vehicle_type_id":"4","last_reported":1728148105,"current_range_meters":32400,"station_id":"","pricing_plan_id":"cebpf4jnsgd1na2vs0mg"},{"bike_id":"cd625677-e309-4054-a2e3-5c6529de0322","system_id":"levelo_inurba_marseille","lat":43.23191,"lon":5.35556,"is_reserved":false,"is_disabled":false,"rental_uris":{"android":"levelo://app?vid=cd625677-e309-4054-a2e3-5c6529de0322","ios":"levelo://app?vid=cd625677-e309-4054-a2e3-5c6529de0322"},"vehicle_type_id":"4","last_reported":1728148105,"current_range_meters":17600,"station_id":"ce4bhu92rcd13ifvqi70","pricing_plan_id":"cebpf4jnsgd1na2vs0mg"},{"bike_id":"dda69271-7921-4909-9628-99a245009441","system_id":"levelo_inurba_marseille","lat":43.31228,"lon":5.36864,"is_reserved":false,"is_disabled":false,"rental_uris":{"android":"levelo://app?vid=dda69271-7921-4909-9628-99a245009441","ios":"levelo://app?vid=dda69271-7921-4909-9628-99a245009441"},"vehicle_type_id":"4","last_reported":1728148105,"current_range_meters":7200,"station_id":"ce4bgl92rcd13ifvqbq0","pricing_plan_id":"cebpf4jnsgd1na2vs0mg"},{"bike_id":"d2a0efae-62e1-4355-8e70-4d992f406449","system_id":"levelo_inurba_marseille","lat":43.27374,"lon":5.36259,"is_reserved":false,"is_disabled":false,"rental_uris":{"android":"levelo://app?vid=d2a0efae-62e1-4355-8e70-4d992f406449","ios":"levelo://app?vid=d2a0efae-62e1-4355-8e70-4d992f406449"},"vehicle_type_id":"4","last_reported":1728148105,"current_range_meters":37600,"station_id":"ce4bhbh2rcd13ifvqeo0","pricing_plan_id":"cebpf4jnsgd1na2vs0mg"},{"bike_id":"54d09a39-e79d-434c-8a05-a8f2660c6a94","system_id":"levelo_inurba_marseille","lat":43.29898,"lon":5.43679,"is_reserved":false,"is_disabled":false,"rental_uris":{"android":"levelo://app?vid=54d09a39-e79d-434c-8a05-a8f2660c6a94","ios":"levelo://app?vid=54d09a39-e79d-434c-8a05-a8f2660c6a94"},"vehicle_type_id":"4","last_reported":1728148105,"current_range_meters":9200,"station_id":"ce4bhpp2rcd13ifvqhfg","pricing_plan_id":"cebpf4jnsgd1na2vs0mg"},{"bike_id":"7c68188c-efe0-4146-85c6-c0abaf8e9abe","system_id":"levelo_inurba_marseille","lat":43.25862,"lon":5.39889,"is_reserved":false,"is_disabled":false,"rental_uris":{"android":"levelo://app?vid=7c68188c-efe0-4146-85c6-c0abaf8e9abe","ios":"levelo://app?vid=7c68188c-efe0-4146-85c6-c0abaf8e9abe"},"vehicle_type_id":"4","last_reported":1728148105,"current_range_meters":5600,"station_id":"ce4bhl92rcd13ifvqghg","pricing_plan_id":"cebpf4jnsgd1na2vs0mg"},{"bike_id":"491813ec-5bcd-4eda-acb2-c01ccb4e9894","system_id":"levelo_inurba_marseille","lat":43.33768,"lon":5.37451,"is_reserved":false,"is_disabled":false,"rental_uris":{"android":"levelo://app?vid=491813ec-5bcd-4eda-acb2-c01ccb4e9894","ios":"levelo://app?vid=491813ec-5bcd-4eda-acb2-c01ccb4e9894"},"vehicle_type_id":"4","last_reported":1728148105,"current_range_meters":34800,"station_id":"","pricing_plan_id":"cebpf4jnsgd1na2vs0mg"},{"bike_id":"baba7691-81ff-4c7d-90d9-c89eba9696cb","system_id":"levelo_inurba_marseille","lat":43.25929,"lon":5.40912,"is_reserved":false,"is_disabled":false,"rental_uris":{"android":"levelo://app?vid=baba7691-81ff-4c7d-90d9-c89eba9696cb","ios":"levelo://app?vid=baba7691-81ff-4c7d-90d9-c89eba9696cb"},"vehicle_type_id":"4","last_reported":1728148105,"current_range_meters":36400,"station_id":"ce4bhm92rcd13ifvqglg","pricing_plan_id":"cebpf4jnsgd1na2vs0mg"},{"bike_id":"093b3944-e91d-4e90-928d-538e58ec2466","system_id":"levelo_inurba_marseille","lat":43.29513,"lon":5.39401,"is_reserved":false,"is_disabled":false,"rental_uris":{"android":"levelo://app?vid=093b3944-e91d-4e90-928d-538e58ec2466","ios":"levelo://app?vid=093b3944-e91d-4e90-928d-538e58ec2466"},"vehicle_type_id":"4","last_reported":1728148105,"current_range_meters":38800,"station_id":"ce4bh292rcd13ifvqdf0","pricing_plan_id":"cebpf4jnsgd1na2vs0mg"},{"bike_id":"5d8e710a-9717-4b15-8706-fd361d71bb31","system_id":"levelo_inurba_marseille","lat":43.27994,"lon":5.41656,"is_reserved":false,"is_disabled":false,"rental_uris":{"android":"levelo://app?vid=5d8e710a-9717-4b15-8706-fd361d71bb31","ios":"levelo://app?vid=5d8e710a-9717-4b15-8706-fd361d71bb31"},"vehicle_type_id":"4","last_reported":1728148105,"current_range_meters":27600,"station_id":"ce4bho12rcd13ifvqh1g","pricing_plan_id":"cebpf4jnsgd1na2vs0mg"},{"bike_id":"0f9e4da9-2d5e-4578-ad5d-bb0bff9fab4a","system_id":"levelo_inurba_marseille","lat":43.28945,"lon":5.36637,"is_reserved":false,"is_disabled":false,"rental_uris":{"android":"levelo://app?vid=0f9e4da9-2d5e-4578-ad5d-bb0bff9fab4a","ios":"levelo://app?vid=0f9e4da9-2d5e-4578-ad5d-bb0bff9fab4a"},"vehicle_type_id":"4","last_reported":1728148105,"current_range_meters":32000,"station_id":"ce4bhap2rcd13ifvqek0","pricing_plan_id":"cebpf4jnsgd1na2vs0mg"},{"bike_id":"4af55307-045f-4c66-a045-a91d88bb4c16","system_id":"levelo_inurba_marseille","lat":43.33761,"lon":5.3744,"is_reserved":false,"is_disabled":false,"rental_uris":{"android":"levelo://app?vid=4af55307-045f-4c66-a045-a91d88bb4c16","ios":"levelo://app?vid=4af55307-045f-4c66-a045-a91d88bb4c16"},"vehicle_type_id":"4","last_reported":1728148105,"current_range_meters":35600,"station_id":"","pricing_plan_id":"cebpf4jnsgd1na2vs0mg"},{"bike_id":"eee9c222-4ca2-44b6-acbc-cf0547ff73f3","system_id":"levelo_inurba_marseille","lat":43.301467,"lon":5.380807,"is_reserved":false,"is_disabled":false,"rental_uris":{"android":"levelo://app?vid=eee9c222-4ca2-44b6-acbc-cf0547ff73f3","ios":"levelo://app?vid=eee9c222-4ca2-44b6-acbc-cf0547ff73f3"},"vehicle_type_id":"4","last_reported":1728148105,"current_range_meters":9200,"station_id":"ce4bgjp2rcd13ifvqbh0","pricing_plan_id":"cebpf4jnsgd1na2vs0mg"},{"bike_id":"13a35d1a-1c21-4cdd-9282-17040c700716","system_id":"levelo_inurba_marseille","lat":43.32544,"lon":5.41437,"is_reserved":false,"is_disabled":false,"rental_uris":{"android":"levelo://app?vid=13a35d1a-1c21-4cdd-9282-17040c700716","ios":"levelo://app?vid=13a35d1a-1c21-4cdd-9282-17040c700716"},"vehicle_type_id":"4","last_reported":1728148105,"current_range_meters":37600,"station_id":"ce4bhq12rcd13ifvqhhg","pricing_plan_id":"cebpf4jnsgd1na2vs0mg"},{"bike_id":"ec6e251e-99d1-4ac4-a075-545dbd029bdc","system_id":"levelo_inurba_marseille","lat":43.28909,"lon":5.36208,"is_reserved":false,"is_disabled":false,"rental_uris":{"android":"levelo://app?vid=ec6e251e-99d1-4ac4-a075-545dbd029bdc","ios":"levelo://app?vid=ec6e251e-99d1-4ac4-a075-545dbd029bdc"},"vehicle_type_id":"4","last_reported":1728148105,"current_range_meters":33600,"station_id":"","pricing_plan_id":"cebpf4jnsgd1na2vs0mg"},{"bike_id":"ef79d58e-d7cb-43d9-bc01-e0bfc561443a","system_id":"levelo_inurba_marseille","lat":43.30531,"lon":5.36717,"is_reserved":false,"is_disabled":false,"rental_uris":{"android":"levelo://app?vid=ef79d58e-d7cb-43d9-bc01-e0bfc561443a","ios":"levelo://app?vid=ef79d58e-d7cb-43d9-bc01-e0bfc561443a"},"vehicle_type_id":"4","last_reported":1728148105,"current_range_meters":2000,"station_id":"ce4bgrp2rcd13ifvqc9g","pricing_plan_id":"cebpf4jnsgd1na2vs0mg"},{"bike_id":"5c9e0ec4-e939-4299-92ba-0af01295d31c","system_id":"levelo_inurba_marseille","lat":43.29508,"lon":5.39405,"is_reserved":false,"is_disabled":false,"rental_uris":{"android":"levelo://app?vid=5c9e0ec4-e939-4299-92ba-0af01295d31c","ios":"levelo://app?vid=5c9e0ec4-e939-4299-92ba-0af01295d31c"},"vehicle_type_id":"4","last_reported":1728148105,"current_range_meters":20800,"station_id":"ce4bh292rcd13ifvqdf0","pricing_plan_id":"cebpf4jnsgd1na2vs0mg"},{"bike_id":"f6a10792-56c1-4548-914c-8b0fbf046802","system_id":"levelo_inurba_marseille","lat":43.26557,"lon":5.37287,"is_reserved":false,"is_disabled":false,"rental_uris":{"android":"levelo://app?vid=f6a10792-56c1-4548-914c-8b0fbf046802","ios":"levelo://app?vid=f6a10792-56c1-4548-914c-8b0fbf046802"},"vehicle_type_id":"4","last_reported":1728148105,"current_range_meters":30800,"station_id":"ce4bhg12rcd13ifvqf70","pricing_plan_id":"cebpf4jnsgd1na2vs0mg"},{"bike_id":"4fa0626e-0320-4513-bc05-d053d4840322","system_id":"levelo_inurba_marseille","lat":43.294162,"lon":5.374124,"is_reserved":false,"is_disabled":false,"rental_uris":{"android":"levelo://app?vid=4fa0626e-0320-4513-bc05-d053d4840322","ios":"levelo://app?vid=4fa0626e-0320-4513-bc05-d053d4840322"},"vehicle_type_id":"4","last_reported":1728148105,"current_range_meters":8800,"station_id":"ce4bgr92rcd13ifvqc7g","pricing_plan_id":"cebpf4jnsgd1na2vs0mg"},{"bike_id":"d9baaca6-ad15-4f1b-b5cf-3cfa2d7ea0af","system_id":"levelo_inurba_marseille","lat":43.28927,"lon":5.38384,"is_reserved":false,"is_disabled":false,"rental_uris":{"android":"levelo://app?vid=d9baaca6-ad15-4f1b-b5cf-3cfa2d7ea0af","ios":"levelo://app?vid=d9baaca6-ad15-4f1b-b5cf-3cfa2d7ea0af"},"vehicle_type_id":"4","last_reported":1728148105,"current_range_meters":35600,"station_id":"ce4bh612rcd13ifvqe6g","pricing_plan_id":"cebpf4jnsgd1na2vs0mg"},{"bike_id":"b465cbb8-4719-4dc8-8f0a-dad238495295","system_id":"levelo_inurba_marseille","lat":43.27952,"lon":5.41048,"is_reserved":false,"is_disabled":false,"rental_uris":{"android":"levelo://app?vid=b465cbb8-4719-4dc8-8f0a-dad238495295","ios":"levelo://app?vid=b465cbb8-4719-4dc8-8f0a-dad238495295"},"vehicle_type_id":"4","last_reported":1728148105,"current_range_meters":3200,"station_id":"ce4bhnp2rcd13ifvqh0g","pricing_plan_id":"cebpf4jnsgd1na2vs0mg"},{"bike_id":"5b418202-2cf2-4319-b11f-ff23eb7c3f02","system_id":"levelo_inurba_marseille","lat":43.29895,"lon":5.43672,"is_reserved":false,"is_disabled":false,"rental_uris":{"android":"levelo://app?vid=5b418202-2cf2-4319-b11f-ff23eb7c3f02","ios":"levelo://app?vid=5b418202-2cf2-4319-b11f-ff23eb7c3f02"},"vehicle_type_id":"4","last_reported":1728148105,"current_range_meters":22800,"station_id":"ce4bhpp2rcd13ifvqhfg","pricing_plan_id":"cebpf4jnsgd1na2vs0mg"},{"bike_id":"33cfbada-dcbb-495c-86e1-25ff8b0e77c0","system_id":"levelo_inurba_marseille","lat":43.29263,"lon":5.3845,"is_reserved":false,"is_disabled":false,"rental_uris":{"android":"levelo://app?vid=33cfbada-dcbb-495c-86e1-25ff8b0e77c0","ios":"levelo://app?vid=33cfbada-dcbb-495c-86e1-25ff8b0e77c0"},"vehicle_type_id":"4","last_reported":1728148105,"current_range_meters":38400,"station_id":"ce4bh692rcd13ifvqea0","pricing_plan_id":"cebpf4jnsgd1na2vs0mg"},{"bike_id":"93c976da-5b48-4b4b-bcd9-f72c392ad8fa","system_id":"levelo_inurba_marseille","lat":43.29419,"lon":5.38622,"is_reserved":false,"is_disabled":false,"rental_uris":{"android":"levelo://app?vid=93c976da-5b48-4b4b-bcd9-f72c392ad8fa","ios":"levelo://app?vid=93c976da-5b48-4b4b-bcd9-f72c392ad8fa"},"vehicle_type_id":"4","last_reported":1728148105,"current_range_meters":38800,"station_id":"ce4bh2h2rcd13ifvqdh0","pricing_plan_id":"cebpf4jnsgd1na2vs0mg"},{"bike_id":"dcc1de08-146b-47af-bf95-722dab89d0c7","system_id":"levelo_inurba_marseille","lat":43.29776,"lon":5.39334,"is_reserved":false,"is_disabled":false,"rental_uris":{"android":"levelo://app?vid=dcc1de08-146b-47af-bf95-722dab89d0c7","ios":"levelo://app?vid=dcc1de08-146b-47af-bf95-722dab89d0c7"},"vehicle_type_id":"4","last_reported":1728148105,"current_range_meters":37600,"station_id":"chh1huq6cuj3fo74tm60","pricing_plan_id":"cebpf4jnsgd1na2vs0mg"},{"bike_id":"ac7539cd-79bf-4d0d-922e-241f7c93f89f","system_id":"levelo_inurba_marseille","lat":43.31894,"lon":5.40734,"is_reserved":false,"is_disabled":false,"rental_uris":{"android":"levelo://app?vid=ac7539cd-79bf-4d0d-922e-241f7c93f89f","ios":"levelo://app?vid=ac7539cd-79bf-4d0d-922e-241f7c93f89f"},"vehicle_type_id":"4","last_reported":1728148105,"current_range_meters":16800,"station_id":"ce4bhq12rcd13ifvqhig","pricing_plan_id":"cebpf4jnsgd1na2vs0mg"},{"bike_id":"22facbef-c691-4e79-ba04-2b6a07121550","system_id":"levelo_inurba_marseille","lat":43.29269,"lon":5.38449,"is_reserved":false,"is_disabled":false,"rental_uris":{"android":"levelo://app?vid=22facbef-c691-4e79-ba04-2b6a07121550","ios":"levelo://app?vid=22facbef-c691-4e79-ba04-2b6a07121550"},"vehicle_type_id":"4","last_reported":1728148105,"current_range_meters":38800,"station_id":"ce4bh692rcd13ifvqea0","pricing_plan_id":"cebpf4jnsgd1na2vs0mg"},{"bike_id":"037daabe-b44e-453a-af5a-386837163092","system_id":"levelo_inurba_marseille","lat":43.26549,"lon":5.37288,"is_reserved":false,"is_disabled":false,"rental_uris":{"android":"levelo://app?vid=037daabe-b44e-453a-af5a-386837163092","ios":"levelo://app?vid=037daabe-b44e-453a-af5a-386837163092"},"vehicle_type_id":"4","last_reported":1728148105,"current_range_meters":24800,"station_id":"ce4bhg12rcd13ifvqf70","pricing_plan_id":"cebpf4jnsgd1na2vs0mg"},{"bike_id":"0550f8fd-d691-4a28-959c-de6d35b9cc7b","system_id":"levelo_inurba_marseille","lat":43.29706,"lon":5.36616,"is_reserved":false,"is_disabled":false,"rental_uris":{"android":"levelo://app?vid=0550f8fd-d691-4a28-959c-de6d35b9cc7b","ios":"levelo://app?vid=0550f8fd-d691-4a28-959c-de6d35b9cc7b"},"vehicle_type_id":"4","last_reported":1728148105,"current_range_meters":8400,"station_id":"ce4bgn12rcd13ifvqbt0","pricing_plan_id":"cebpf4jnsgd1na2vs0mg"},{"bike_id":"8696823f-7dda-4a5e-bad7-d8721ddc7e7e","system_id":"levelo_inurba_marseille","lat":43.29791,"lon":5.37693,"is_reserved":false,"is_disabled":false,"rental_uris":{"android":"levelo://app?vid=8696823f-7dda-4a5e-bad7-d8721ddc7e7e","ios":"levelo://app?vid=8696823f-7dda-4a5e-bad7-d8721ddc7e7e"},"vehicle_type_id":"4","last_reported":1728148105,"current_range_meters":25600,"station_id":"ce4bgt92rcd13ifvqcf0","pricing_plan_id":"cebpf4jnsgd1na2vs0mg"},{"bike_id":"c518ca6c-87e3-43cb-a3c9-793a8dc6affb","system_id":"levelo_inurba_marseille","lat":43.31688,"lon":5.40473,"is_reserved":false,"is_disabled":false,"rental_uris":{"android":"levelo://app?vid=c518ca6c-87e3-43cb-a3c9-793a8dc6affb","ios":"levelo://app?vid=c518ca6c-87e3-43cb-a3c9-793a8dc6affb"},"vehicle_type_id":"4","last_reported":1728148105,"current_range_meters":28800,"station_id":"ce4bh012rcd13ifvqd00","pricing_plan_id":"cebpf4jnsgd1na2vs0mg"},{"bike_id":"1223fd3d-4137-47a9-a751-77f2f9500d8b","system_id":"levelo_inurba_marseille","lat":43.30135,"lon":5.40462,"is_reserved":false,"is_disabled":false,"rental_uris":{"android":"levelo://app?vid=1223fd3d-4137-47a9-a751-77f2f9500d8b","ios":"levelo://app?vid=1223fd3d-4137-47a9-a751-77f2f9500d8b"},"vehicle_type_id":"4","last_reported":1728148105,"current_range_meters":38800,"station_id":"","pricing_plan_id":"cebpf4jnsgd1na2vs0mg"},{"bike_id":"23138da7-e8c1-4147-a15a-453695a035de","system_id":"levelo_inurba_marseille","lat":43.277831,"lon":5.399245,"is_reserved":false,"is_disabled":false,"rental_uris":{"android":"levelo://app?vid=23138da7-e8c1-4147-a15a-453695a035de","ios":"levelo://app?vid=23138da7-e8c1-4147-a15a-453695a035de"},"vehicle_type_id":"4","last_reported":1728148105,"current_range_meters":9600,"station_id":"","pricing_plan_id":"cebpf4jnsgd1na2vs0mg"},{"bike_id":"c35ab35d-f0ea-421b-b5be-46580d4eaf48","system_id":"levelo_inurba_marseille","lat":43.32048,"lon":5.41559,"is_reserved":false,"is_disabled":false,"rental_uris":{"android":"levelo://app?vid=c35ab35d-f0ea-421b-b5be-46580d4eaf48","ios":"levelo://app?vid=c35ab35d-f0ea-421b-b5be-46580d4eaf48"},"vehicle_type_id":"4","last_reported":1728148105,"current_range_meters":38800,"station_id":"ce4bhq92rcd13ifvqhkg","pricing_plan_id":"cebpf4jnsgd1na2vs0mg"},{"bike_id":"c25e5060-41fc-4e3d-8591-f52068bbefdb","system_id":"levelo_inurba_marseille","lat":43.30435,"lon":5.38895,"is_reserved":false,"is_disabled":false,"rental_uris":{"android":"levelo://app?vid=c25e5060-41fc-4e3d-8591-f52068bbefdb","ios":"levelo://app?vid=c25e5060-41fc-4e3d-8591-f52068bbefdb"},"vehicle_type_id":"4","last_reported":1728148105,"current_range_meters":14000,"station_id":"ce4bgk12rcd13ifvqbi0","pricing_plan_id":"cebpf4jnsgd1na2vs0mg"},{"bike_id":"0a557b30-6edf-4207-9a3c-2db2b454fe2a","system_id":"levelo_inurba_marseille","lat":43.30909,"lon":5.3685,"is_reserved":false,"is_disabled":false,"rental_uris":{"android":"levelo://app?vid=0a557b30-6edf-4207-9a3c-2db2b454fe2a","ios":"levelo://app?vid=0a557b30-6edf-4207-9a3c-2db2b454fe2a"},"vehicle_type_id":"4","last_reported":1728148105,"current_range_meters":14000,"station_id":"ce4bgn92rcd13ifvqbvg","pricing_plan_id":"cebpf4jnsgd1na2vs0mg"},{"bike_id":"061252fb-abb6-4f8e-82db-cb1984165841","system_id":"levelo_inurba_marseille","lat":43.31327,"lon":5.39695,"is_reserved":false,"is_disabled":false,"rental_uris":{"android":"levelo://app?vid=061252fb-abb6-4f8e-82db-cb1984165841","ios":"levelo://app?vid=061252fb-abb6-4f8e-82db-cb1984165841"},"vehicle_type_id":"4","last_reported":1728148105,"current_range_meters":30800,"station_id":"ce4bgvp2rcd13ifvqcu0","pricing_plan_id":"cebpf4jnsgd1na2vs0mg"},{"bike_id":"8e16f09f-686b-47d5-ac94-121dcf7d3a2f","system_id":"levelo_inurba_marseille","lat":43.255238,"lon":5.375631,"is_reserved":false,"is_disabled":false,"rental_uris":{"android":"levelo://app?vid=8e16f09f-686b-47d5-ac94-121dcf7d3a2f","ios":"levelo://app?vid=8e16f09f-686b-47d5-ac94-121dcf7d3a2f"},"vehicle_type_id":"4","last_reported":1728148105,"current_range_meters":23200,"station_id":"ce4bhgp2rcd13ifvqfd0","pricing_plan_id":"cebpf4jnsgd1na2vs0mg"},{"bike_id":"81eb6053-656c-43fe-98da-35e19cb0d476","system_id":"levelo_inurba_marseille","lat":43.25,"lon":5.38927,"is_reserved":false,"is_disabled":false,"rental_uris":{"android":"levelo://app?vid=81eb6053-656c-43fe-98da-35e19cb0d476","ios":"levelo://app?vid=81eb6053-656c-43fe-98da-35e19cb0d476"},"vehicle_type_id":"4","last_reported":1728148105,"current_range_meters":8000,"station_id":"ce4bhgp2rcd13ifvqfd0","pricing_plan_id":"cebpf4jnsgd1na2vs0mg"},{"bike_id":"1fe83ca7-362f-45c0-90cc-259c470e843a","system_id":"levelo_inurba_marseille","lat":43.28939,"lon":5.36639,"is_reserved":false,"is_disabled":false,"rental_uris":{"android":"levelo://app?vid=1fe83ca7-362f-45c0-90cc-259c470e843a","ios":"levelo://app?vid=1fe83ca7-362f-45c0-90cc-259c470e843a"},"vehicle_type_id":"4","last_reported":1728148105,"current_range_meters":24800,"station_id":"ce4bhap2rcd13ifvqek0","pricing_plan_id":"cebpf4jnsgd1na2vs0mg"},{"bike_id":"12b2bc48-849a-43f3-80b5-b303bb3e6f1c","system_id":"levelo_inurba_marseille","lat":43.27365,"lon":5.36266,"is_reserved":false,"is_disabled":false,"rental_uris":{"android":"levelo://app?vid=12b2bc48-849a-43f3-80b5-b303bb3e6f1c","ios":"levelo://app?vid=12b2bc48-849a-43f3-80b5-b303bb3e6f1c"},"vehicle_type_id":"4","last_reported":1728148105,"current_range_meters":27600,"station_id":"ce4bhbh2rcd13ifvqeo0","pricing_plan_id":"cebpf4jnsgd1na2vs0mg"},{"bike_id":"ada062e5-6ff8-4c16-abc7-23e495d5f0f9","system_id":"levelo_inurba_marseille","lat":43.29958,"lon":5.37912,"is_reserved":false,"is_disabled":false,"rental_uris":{"android":"levelo://app?vid=ada062e5-6ff8-4c16-abc7-23e495d5f0f9","ios":"levelo://app?vid=ada062e5-6ff8-4c16-abc7-23e495d5f0f9"},"vehicle_type_id":"4","last_reported":1728148105,"current_range_meters":8000,"station_id":"","pricing_plan_id":"cebpf4jnsgd1na2vs0mg"},{"bike_id":"9af989ed-1763-4d9e-a492-564bed09cfe7","system_id":"levelo_inurba_marseille","lat":43.24805,"lon":5.374531,"is_reserved":false,"is_disabled":false,"rental_uris":{"android":"levelo://app?vid=9af989ed-1763-4d9e-a492-564bed09cfe7","ios":"levelo://app?vid=9af989ed-1763-4d9e-a492-564bed09cfe7"},"vehicle_type_id":"4","last_reported":1728148105,"current_range_meters":35200,"station_id":"ce4bhgh2rcd13ifvqfb0","pricing_plan_id":"cebpf4jnsgd1na2vs0mg"},{"bike_id":"bb5f5452-4b9b-417d-b148-b396a874f3d9","system_id":"levelo_inurba_marseille","lat":43.33764,"lon":5.37438,"is_reserved":false,"is_disabled":false,"rental_uris":{"android":"levelo://app?vid=bb5f5452-4b9b-417d-b148-b396a874f3d9","ios":"levelo://app?vid=bb5f5452-4b9b-417d-b148-b396a874f3d9"},"vehicle_type_id":"4","last_reported":1728148105,"current_range_meters":30800,"station_id":"","pricing_plan_id":"cebpf4jnsgd1na2vs0mg"},{"bike_id":"ef8194ac-523c-4317-92b9-1a7c4440f3c4","system_id":"levelo_inurba_marseille","lat":43.24385,"lon":5.37056,"is_reserved":false,"is_disabled":false,"rental_uris":{"android":"levelo://app?vid=ef8194ac-523c-4317-92b9-1a7c4440f3c4","ios":"levelo://app?vid=ef8194ac-523c-4317-92b9-1a7c4440f3c4"},"vehicle_type_id":"4","last_reported":1728148105,"current_range_meters":32400,"station_id":"ce4bhhh2rcd13ifvqfk0","pricing_plan_id":"cebpf4jnsgd1na2vs0mg"},{"bike_id":"ab83fadf-d068-4c8e-b6a0-a2c4cd43bc9b","system_id":"levelo_inurba_marseille","lat":43.31997,"lon":5.3815,"is_reserved":false,"is_disabled":false,"rental_uris":{"android":"levelo://app?vid=ab83fadf-d068-4c8e-b6a0-a2c4cd43bc9b","ios":"levelo://app?vid=ab83fadf-d068-4c8e-b6a0-a2c4cd43bc9b"},"vehicle_type_id":"4","last_reported":1728148105,"current_range_meters":32800,"station_id":"ce4bhr12rcd13ifvqhpg","pricing_plan_id":"cebpf4jnsgd1na2vs0mg"},{"bike_id":"c65c1e9c-d776-44fd-aeca-228761d20860","system_id":"levelo_inurba_marseille","lat":43.30817,"lon":5.43497,"is_reserved":false,"is_disabled":false,"rental_uris":{"android":"levelo://app?vid=c65c1e9c-d776-44fd-aeca-228761d20860","ios":"levelo://app?vid=c65c1e9c-d776-44fd-aeca-228761d20860"},"vehicle_type_id":"4","last_reported":1728148105,"current_range_meters":35600,"station_id":"ce4bhph2rcd13ifvqheg","pricing_plan_id":"cebpf4jnsgd1na2vs0mg"},{"bike_id":"04fe04f7-c7ea-4f30-b7e5-03fae3b3fb55","system_id":"levelo_inurba_marseille","lat":43.29976,"lon":5.37192,"is_reserved":false,"is_disabled":false,"rental_uris":{"android":"levelo://app?vid=04fe04f7-c7ea-4f30-b7e5-03fae3b3fb55","ios":"levelo://app?vid=04fe04f7-c7ea-4f30-b7e5-03fae3b3fb55"},"vehicle_type_id":"4","last_reported":1728148105,"current_range_meters":38000,"station_id":"ce4bgr92rcd13ifvqc7g","pricing_plan_id":"cebpf4jnsgd1na2vs0mg"},{"bike_id":"ee383f80-bb7b-4677-97db-1d520d2e4a37","system_id":"levelo_inurba_marseille","lat":43.2977,"lon":5.37099,"is_reserved":false,"is_disabled":false,"rental_uris":{"android":"levelo://app?vid=ee383f80-bb7b-4677-97db-1d520d2e4a37","ios":"levelo://app?vid=ee383f80-bb7b-4677-97db-1d520d2e4a37"},"vehicle_type_id":"4","last_reported":1728148105,"current_range_meters":37600,"station_id":"ce4bgop2rcd13ifvqc1g","pricing_plan_id":"cebpf4jnsgd1na2vs0mg"},{"bike_id":"238f97dc-663f-4b51-9ca1-3e8d50371363","system_id":"levelo_inurba_marseille","lat":43.2917,"lon":5.37165,"is_reserved":false,"is_disabled":false,"rental_uris":{"android":"levelo://app?vid=238f97dc-663f-4b51-9ca1-3e8d50371363","ios":"levelo://app?vid=238f97dc-663f-4b51-9ca1-3e8d50371363"},"vehicle_type_id":"4","last_reported":1728148105,"current_range_meters":30400,"station_id":"ce4bha92rcd13ifvqeh0","pricing_plan_id":"cebpf4jnsgd1na2vs0mg"},{"bike_id":"21198631-04db-43f2-aeb5-c0bcbc3850f4","system_id":"levelo_inurba_marseille","lat":43.29529,"lon":5.39403,"is_reserved":false,"is_disabled":false,"rental_uris":{"android":"levelo://app?vid=21198631-04db-43f2-aeb5-c0bcbc3850f4","ios":"levelo://app?vid=21198631-04db-43f2-aeb5-c0bcbc3850f4"},"vehicle_type_id":"4","last_reported":1728148105,"current_range_meters":38800,"station_id":"ce4bh292rcd13ifvqdf0","pricing_plan_id":"cebpf4jnsgd1na2vs0mg"},{"bike_id":"4f3c7d70-d152-4f09-ab55-90ba3d87809a","system_id":"levelo_inurba_marseille","lat":43.28937,"lon":5.36631,"is_reserved":false,"is_disabled":false,"rental_uris":{"android":"levelo://app?vid=4f3c7d70-d152-4f09-ab55-90ba3d87809a","ios":"levelo://app?vid=4f3c7d70-d152-4f09-ab55-90ba3d87809a"},"vehicle_type_id":"4","last_reported":1728148105,"current_range_meters":38000,"station_id":"ce4bhap2rcd13ifvqek0","pricing_plan_id":"cebpf4jnsgd1na2vs0mg"},{"bike_id":"4fddac12-ad3e-4e17-b12e-1b7c7d1b7201","system_id":"levelo_inurba_marseille","lat":43.23193,"lon":5.35556,"is_reserved":false,"is_disabled":false,"rental_uris":{"android":"levelo://app?vid=4fddac12-ad3e-4e17-b12e-1b7c7d1b7201","ios":"levelo://app?vid=4fddac12-ad3e-4e17-b12e-1b7c7d1b7201"},"vehicle_type_id":"4","last_reported":1728148105,"current_range_meters":6800,"station_id":"ce4bhu92rcd13ifvqi70","pricing_plan_id":"cebpf4jnsgd1na2vs0mg"},{"bike_id":"14ea6244-34ae-4d9d-b7c4-3afd9b05c2e1","system_id":"levelo_inurba_marseille","lat":43.29521,"lon":5.39405,"is_reserved":false,"is_disabled":false,"rental_uris":{"android":"levelo://app?vid=14ea6244-34ae-4d9d-b7c4-3afd9b05c2e1","ios":"levelo://app?vid=14ea6244-34ae-4d9d-b7c4-3afd9b05c2e1"},"vehicle_type_id":"4","last_reported":1728148105,"current_range_meters":38400,"station_id":"ce4bh292rcd13ifvqdf0","pricing_plan_id":"cebpf4jnsgd1na2vs0mg"},{"bike_id":"24b16c2c-2bc0-4945-b669-32e404ce9be1","system_id":"levelo_inurba_marseille","lat":43.31887,"lon":5.40745,"is_reserved":false,"is_disabled":false,"rental_uris":{"android":"levelo://app?vid=24b16c2c-2bc0-4945-b669-32e404ce9be1","ios":"levelo://app?vid=24b16c2c-2bc0-4945-b669-32e404ce9be1"},"vehicle_type_id":"4","last_reported":1728148105,"current_range_meters":11200,"station_id":"ce4bhq12rcd13ifvqhig","pricing_plan_id":"cebpf4jnsgd1na2vs0mg"},{"bike_id":"f87158f2-6c0b-4b76-b373-39c44e3b5e8a","system_id":"levelo_inurba_marseille","lat":43.30551,"lon":5.36549,"is_reserved":false,"is_disabled":false,"rental_uris":{"android":"levelo://app?vid=f87158f2-6c0b-4b76-b373-39c44e3b5e8a","ios":"levelo://app?vid=f87158f2-6c0b-4b76-b373-39c44e3b5e8a"},"vehicle_type_id":"4","last_reported":1728148105,"current_range_meters":2800,"station_id":"ce4bgs12rcd13ifvqcag","pricing_plan_id":"cebpf4jnsgd1na2vs0mg"},{"bike_id":"928880f0-bc65-4cc9-9f46-a1792cd0060c","system_id":"levelo_inurba_marseille","lat":43.23189,"lon":5.35558,"is_reserved":false,"is_disabled":false,"rental_uris":{"android":"levelo://app?vid=928880f0-bc65-4cc9-9f46-a1792cd0060c","ios":"levelo://app?vid=928880f0-bc65-4cc9-9f46-a1792cd0060c"},"vehicle_type_id":"4","last_reported":1728148105,"current_range_meters":19600,"station_id":"ce4bhu92rcd13ifvqi70","pricing_plan_id":"cebpf4jnsgd1na2vs0mg"},{"bike_id":"c0e18266-7170-4f2a-ada5-2fc746b8e50f","system_id":"levelo_inurba_marseille","lat":43.304199,"lon":5.397637,"is_reserved":false,"is_disabled":false,"rental_uris":{"android":"levelo://app?vid=c0e18266-7170-4f2a-ada5-2fc746b8e50f","ios":"levelo://app?vid=c0e18266-7170-4f2a-ada5-2fc746b8e50f"},"vehicle_type_id":"4","last_reported":1728148105,"current_range_meters":38000,"station_id":"ce4bh092rcd13ifvqd20","pricing_plan_id":"cebpf4jnsgd1na2vs0mg"},{"bike_id":"d2b0596a-338c-475c-a27f-f53ce416452a","system_id":"levelo_inurba_marseille","lat":43.31066,"lon":5.40095,"is_reserved":false,"is_disabled":false,"rental_uris":{"android":"levelo://app?vid=d2b0596a-338c-475c-a27f-f53ce416452a","ios":"levelo://app?vid=d2b0596a-338c-475c-a27f-f53ce416452a"},"vehicle_type_id":"4","last_reported":1728148105,"current_range_meters":20800,"station_id":"","pricing_plan_id":"cebpf4jnsgd1na2vs0mg"},{"bike_id":"713def1b-67ce-4cfb-8dec-dcbcedc9901a","system_id":"levelo_inurba_marseille","lat":43.32111,"lon":5.36768,"is_reserved":false,"is_disabled":false,"rental_uris":{"android":"levelo://app?vid=713def1b-67ce-4cfb-8dec-dcbcedc9901a","ios":"levelo://app?vid=713def1b-67ce-4cfb-8dec-dcbcedc9901a"},"vehicle_type_id":"4","last_reported":1728148105,"current_range_meters":29600,"station_id":"ce4bhrh2rcd13ifvqhug","pricing_plan_id":"cebpf4jnsgd1na2vs0mg"},{"bike_id":"9d4e1622-687d-407b-a9c7-c41e1e14f8f3","system_id":"levelo_inurba_marseille","lat":43.30246,"lon":5.40068,"is_reserved":false,"is_disabled":false,"rental_uris":{"android":"levelo://app?vid=9d4e1622-687d-407b-a9c7-c41e1e14f8f3","ios":"levelo://app?vid=9d4e1622-687d-407b-a9c7-c41e1e14f8f3"},"vehicle_type_id":"4","last_reported":1728148105,"current_range_meters":16400,"station_id":"ce4bgvh2rcd13ifvqcs0","pricing_plan_id":"cebpf4jnsgd1na2vs0mg"},{"bike_id":"24fdfdf9-16f4-49f8-b24b-ad50cd0713f5","system_id":"levelo_inurba_marseille","lat":43.29557,"lon":5.42288,"is_reserved":false,"is_disabled":false,"rental_uris":{"android":"levelo://app?vid=24fdfdf9-16f4-49f8-b24b-ad50cd0713f5","ios":"levelo://app?vid=24fdfdf9-16f4-49f8-b24b-ad50cd0713f5"},"vehicle_type_id":"4","last_reported":1728148105,"current_range_meters":38800,"station_id":"ce4bhph2rcd13ifvqhdg","pricing_plan_id":"cebpf4jnsgd1na2vs0mg"},{"bike_id":"1fce07fb-0437-4834-870d-74526309b92f","system_id":"levelo_inurba_marseille","lat":43.32062,"lon":5.41558,"is_reserved":false,"is_disabled":false,"rental_uris":{"android":"levelo://app?vid=1fce07fb-0437-4834-870d-74526309b92f","ios":"levelo://app?vid=1fce07fb-0437-4834-870d-74526309b92f"},"vehicle_type_id":"4","last_reported":1728148105,"current_range_meters":14000,"station_id":"ce4bhq92rcd13ifvqhkg","pricing_plan_id":"cebpf4jnsgd1na2vs0mg"},{"bike_id":"b9063ace-90d6-4b01-bcf2-d78082cc421d","system_id":"levelo_inurba_marseille","lat":43.3031,"lon":5.36892,"is_reserved":false,"is_disabled":false,"rental_uris":{"android":"levelo://app?vid=b9063ace-90d6-4b01-bcf2-d78082cc421d","ios":"levelo://app?vid=b9063ace-90d6-4b01-bcf2-d78082cc421d"},"vehicle_type_id":"4","last_reported":1728148105,"current_range_meters":4800,"station_id":"ce4bgqh2rcd13ifvqc5g","pricing_plan_id":"cebpf4jnsgd1na2vs0mg"},{"bike_id":"4a4fbeae-7246-413e-8123-dcfd095fd984","system_id":"levelo_inurba_marseille","lat":43.29303,"lon":5.37169,"is_reserved":false,"is_disabled":false,"rental_uris":{"android":"levelo://app?vid=4a4fbeae-7246-413e-8123-dcfd095fd984","ios":"levelo://app?vid=4a4fbeae-7246-413e-8123-dcfd095fd984"},"vehicle_type_id":"4","last_reported":1728148105,"current_range_meters":32000,"station_id":"ce4bgh92rcd13ifvqb40","pricing_plan_id":"cebpf4jnsgd1na2vs0mg"},{"bike_id":"68cf9b8e-9291-4be2-a15e-df033a7fac5d","system_id":"levelo_inurba_marseille","lat":43.29032,"lon":5.37564,"is_reserved":false,"is_disabled":false,"rental_uris":{"android":"levelo://app?vid=68cf9b8e-9291-4be2-a15e-df033a7fac5d","ios":"levelo://app?vid=68cf9b8e-9291-4be2-a15e-df033a7fac5d"},"vehicle_type_id":"4","last_reported":1728148105,"current_range_meters":38400,"station_id":"ce4bh692rcd13ifvqe90","pricing_plan_id":"cebpf4jnsgd1na2vs0mg"},{"bike_id":"7dcb597c-2091-46b7-ba3b-f60f7b3b9a76","system_id":"levelo_inurba_marseille","lat":43.32489,"lon":5.36571,"is_reserved":false,"is_disabled":false,"rental_uris":{"android":"levelo://app?vid=7dcb597c-2091-46b7-ba3b-f60f7b3b9a76","ios":"levelo://app?vid=7dcb597c-2091-46b7-ba3b-f60f7b3b9a76"},"vehicle_type_id":"4","last_reported":1728148105,"current_range_meters":10000,"station_id":"ce4bhs12rcd13ifvqhvg","pricing_plan_id":"cebpf4jnsgd1na2vs0mg"},{"bike_id":"d47c818e-1ba8-48f1-bcb9-c888373b9615","system_id":"levelo_inurba_marseille","lat":43.2927,"lon":5.38447,"is_reserved":false,"is_disabled":false,"rental_uris":{"android":"levelo://app?vid=d47c818e-1ba8-48f1-bcb9-c888373b9615","ios":"levelo://app?vid=d47c818e-1ba8-48f1-bcb9-c888373b9615"},"vehicle_type_id":"4","last_reported":1728148105,"current_range_meters":38800,"station_id":"ce4bh692rcd13ifvqea0","pricing_plan_id":"cebpf4jnsgd1na2vs0mg"},{"bike_id":"ca9042b1-0dc6-4eca-9ace-44718503dd71","system_id":"levelo_inurba_marseille","lat":43.284605,"lon":5.358802,"is_reserved":false,"is_disabled":false,"rental_uris":{"android":"levelo://app?vid=ca9042b1-0dc6-4eca-9ace-44718503dd71","ios":"levelo://app?vid=ca9042b1-0dc6-4eca-9ace-44718503dd71"},"vehicle_type_id":"4","last_reported":1728148105,"current_range_meters":21600,"station_id":"ce4bhah2rcd13ifvqei0","pricing_plan_id":"cebpf4jnsgd1na2vs0mg"},{"bike_id":"2d2d7706-cdab-4f66-814d-3843b1cf7019","system_id":"levelo_inurba_marseille","lat":43.25086,"lon":5.39507,"is_reserved":false,"is_disabled":false,"rental_uris":{"android":"levelo://app?vid=2d2d7706-cdab-4f66-814d-3843b1cf7019","ios":"levelo://app?vid=2d2d7706-cdab-4f66-814d-3843b1cf7019"},"vehicle_type_id":"4","last_reported":1728148105,"current_range_meters":6800,"station_id":"ce4bhm12rcd13ifvqgkg","pricing_plan_id":"cebpf4jnsgd1na2vs0mg"},{"bike_id":"d9513a24-3235-43a7-b9a5-1c5cfe37603f","system_id":"levelo_inurba_marseille","lat":43.23052,"lon":5.35486,"is_reserved":false,"is_disabled":false,"rental_uris":{"android":"levelo://app?vid=d9513a24-3235-43a7-b9a5-1c5cfe37603f","ios":"levelo://app?vid=d9513a24-3235-43a7-b9a5-1c5cfe37603f"},"vehicle_type_id":"4","last_reported":1728148105,"current_range_meters":18800,"station_id":"cpo3342slgdg3j2ifvpg","pricing_plan_id":"cebpf4jnsgd1na2vs0mg"},{"bike_id":"009d6d0e-c1a8-4ddc-b330-ebf04e9c45b9","system_id":"levelo_inurba_marseille","lat":43.299,"lon":5.43679,"is_reserved":false,"is_disabled":false,"rental_uris":{"android":"levelo://app?vid=009d6d0e-c1a8-4ddc-b330-ebf04e9c45b9","ios":"levelo://app?vid=009d6d0e-c1a8-4ddc-b330-ebf04e9c45b9"},"vehicle_type_id":"4","last_reported":1728148105,"current_range_meters":19600,"station_id":"ce4bhpp2rcd13ifvqhfg","pricing_plan_id":"cebpf4jnsgd1na2vs0mg"},{"bike_id":"39ba480e-3e45-424f-b257-9edd37cfe9a6","system_id":"levelo_inurba_marseille","lat":43.289307,"lon":5.384083,"is_reserved":false,"is_disabled":false,"rental_uris":{"android":"levelo://app?vid=39ba480e-3e45-424f-b257-9edd37cfe9a6","ios":"levelo://app?vid=39ba480e-3e45-424f-b257-9edd37cfe9a6"},"vehicle_type_id":"4","last_reported":1728148105,"current_range_meters":8800,"station_id":"ce4bh612rcd13ifvqe6g","pricing_plan_id":"cebpf4jnsgd1na2vs0mg"},{"bike_id":"3dab4827-cd35-424a-9484-d3bec6ad0347","system_id":"levelo_inurba_marseille","lat":43.23182,"lon":5.35552,"is_reserved":false,"is_disabled":false,"rental_uris":{"android":"levelo://app?vid=3dab4827-cd35-424a-9484-d3bec6ad0347","ios":"levelo://app?vid=3dab4827-cd35-424a-9484-d3bec6ad0347"},"vehicle_type_id":"4","last_reported":1728148105,"current_range_meters":8800,"station_id":"ce4bhh12rcd13ifvqfg0","pricing_plan_id":"cebpf4jnsgd1na2vs0mg"},{"bike_id":"4e0c83a2-b0c3-4894-8559-e509681998d3","system_id":"levelo_inurba_marseille","lat":43.3111,"lon":5.38327,"is_reserved":false,"is_disabled":false,"rental_uris":{"android":"levelo://app?vid=4e0c83a2-b0c3-4894-8559-e509681998d3","ios":"levelo://app?vid=4e0c83a2-b0c3-4894-8559-e509681998d3"},"vehicle_type_id":"4","last_reported":1728148105,"current_range_meters":16000,"station_id":"ce4bgv92rcd13ifvqcr0","pricing_plan_id":"cebpf4jnsgd1na2vs0mg"},{"bike_id":"ec0f6e18-8dcb-4ba1-9f4d-468854fad27d","system_id":"levelo_inurba_marseille","lat":43.32363,"lon":5.38882,"is_reserved":false,"is_disabled":false,"rental_uris":{"android":"levelo://app?vid=ec0f6e18-8dcb-4ba1-9f4d-468854fad27d","ios":"levelo://app?vid=ec0f6e18-8dcb-4ba1-9f4d-468854fad27d"},"vehicle_type_id":"4","last_reported":1728148105,"current_range_meters":8000,"station_id":"ce4bhqp2rcd13ifvqhog","pricing_plan_id":"cebpf4jnsgd1na2vs0mg"},{"bike_id":"d427221e-fa40-4f55-a382-329e20a197d5","system_id":"levelo_inurba_marseille","lat":43.26553,"lon":5.37293,"is_reserved":false,"is_disabled":false,"rental_uris":{"android":"levelo://app?vid=d427221e-fa40-4f55-a382-329e20a197d5","ios":"levelo://app?vid=d427221e-fa40-4f55-a382-329e20a197d5"},"vehicle_type_id":"4","last_reported":1728148105,"current_range_meters":36800,"station_id":"ce4bhg12rcd13ifvqf70","pricing_plan_id":"cebpf4jnsgd1na2vs0mg"},{"bike_id":"3b64c3b7-cfdb-41a7-b0be-5f6e1daf96e6","system_id":"levelo_inurba_marseille","lat":43.23185,"lon":5.35565,"is_reserved":false,"is_disabled":false,"rental_uris":{"android":"levelo://app?vid=3b64c3b7-cfdb-41a7-b0be-5f6e1daf96e6","ios":"levelo://app?vid=3b64c3b7-cfdb-41a7-b0be-5f6e1daf96e6"},"vehicle_type_id":"4","last_reported":1728148105,"current_range_meters":22000,"station_id":"ce4bhu92rcd13ifvqi70","pricing_plan_id":"cebpf4jnsgd1na2vs0mg"},{"bike_id":"d3814e5d-fdb5-4c13-bb04-72b9d9fbb2ec","system_id":"levelo_inurba_marseille","lat":43.30904,"lon":5.36837,"is_reserved":false,"is_disabled":false,"rental_uris":{"android":"levelo://app?vid=d3814e5d-fdb5-4c13-bb04-72b9d9fbb2ec","ios":"levelo://app?vid=d3814e5d-fdb5-4c13-bb04-72b9d9fbb2ec"},"vehicle_type_id":"4","last_reported":1728148105,"current_range_meters":25200,"station_id":"ce4bgn92rcd13ifvqbvg","pricing_plan_id":"cebpf4jnsgd1na2vs0mg"},{"bike_id":"3ed7afdf-627a-4c62-9ddc-af8538f5174b","system_id":"levelo_inurba_marseille","lat":43.27497,"lon":5.42451,"is_reserved":false,"is_disabled":false,"rental_uris":{"android":"levelo://app?vid=3ed7afdf-627a-4c62-9ddc-af8538f5174b","ios":"levelo://app?vid=3ed7afdf-627a-4c62-9ddc-af8538f5174b"},"vehicle_type_id":"4","last_reported":1728148105,"current_range_meters":10000,"station_id":"ce4bhn92rcd13ifvqgrg","pricing_plan_id":"cebpf4jnsgd1na2vs0mg"},{"bike_id":"45be7e90-0423-4212-b3dc-7eedc90568a3","system_id":"levelo_inurba_marseille","lat":43.27422,"lon":5.39422,"is_reserved":false,"is_disabled":false,"rental_uris":{"android":"levelo://app?vid=45be7e90-0423-4212-b3dc-7eedc90568a3","ios":"levelo://app?vid=45be7e90-0423-4212-b3dc-7eedc90568a3"},"vehicle_type_id":"4","last_reported":1728148105,"current_range_meters":11200,"station_id":"ce4bhdp2rcd13ifvqf20","pricing_plan_id":"cebpf4jnsgd1na2vs0mg"},{"bike_id":"2df6ce1d-d892-48d0-b874-b3690911a81a","system_id":"levelo_inurba_marseille","lat":43.29959,"lon":5.41317,"is_reserved":false,"is_disabled":false,"rental_uris":{"android":"levelo://app?vid=2df6ce1d-d892-48d0-b874-b3690911a81a","ios":"levelo://app?vid=2df6ce1d-d892-48d0-b874-b3690911a81a"},"vehicle_type_id":"4","last_reported":1728148105,"current_range_meters":14000,"station_id":"ce4bhp12rcd13ifvqh9g","pricing_plan_id":"cebpf4jnsgd1na2vs0mg"},{"bike_id":"ef424894-3c2f-4344-ab13-970fc1d3e362","system_id":"levelo_inurba_marseille","lat":43.24174,"lon":5.39726,"is_reserved":false,"is_disabled":false,"rental_uris":{"android":"levelo://app?vid=ef424894-3c2f-4344-ab13-970fc1d3e362","ios":"levelo://app?vid=ef424894-3c2f-4344-ab13-970fc1d3e362"},"vehicle_type_id":"4","last_reported":1728148105,"current_range_meters":16000,"station_id":"ce4bhn12rcd13ifvqgpg","pricing_plan_id":"cebpf4jnsgd1na2vs0mg"},{"bike_id":"bdefae95-7cc5-4880-bfcb-b1af39586be0","system_id":"levelo_inurba_marseille","lat":43.32662,"lon":5.40995,"is_reserved":false,"is_disabled":false,"rental_uris":{"android":"levelo://app?vid=bdefae95-7cc5-4880-bfcb-b1af39586be0","ios":"levelo://app?vid=bdefae95-7cc5-4880-bfcb-b1af39586be0"},"vehicle_type_id":"4","last_reported":1728148105,"current_range_meters":38800,"station_id":"ce4bhpp2rcd13ifvqhgg","pricing_plan_id":"cebpf4jnsgd1na2vs0mg"},{"bike_id":"802a0815-0cd0-4228-9beb-0800a98d6a24","system_id":"levelo_inurba_marseille","lat":43.2888,"lon":5.35402,"is_reserved":false,"is_disabled":false,"rental_uris":{"android":"levelo://app?vid=802a0815-0cd0-4228-9beb-0800a98d6a24","ios":"levelo://app?vid=802a0815-0cd0-4228-9beb-0800a98d6a24"},"vehicle_type_id":"4","last_reported":1728148105,"current_range_meters":36400,"station_id":"","pricing_plan_id":"cebpf4jnsgd1na2vs0mg"},{"bike_id":"c631506c-82fc-42ec-ad4a-1316297d81b3","system_id":"levelo_inurba_marseille","lat":43.28472,"lon":5.38425,"is_reserved":false,"is_disabled":false,"rental_uris":{"android":"levelo://app?vid=c631506c-82fc-42ec-ad4a-1316297d81b3","ios":"levelo://app?vid=c631506c-82fc-42ec-ad4a-1316297d81b3"},"vehicle_type_id":"4","last_reported":1728148105,"current_range_meters":37600,"station_id":"ce4bh512rcd13ifvqe3g","pricing_plan_id":"cebpf4jnsgd1na2vs0mg"},{"bike_id":"20bfb619-7e57-4ab9-9b5a-680562705bc3","system_id":"levelo_inurba_marseille","lat":43.26186,"lon":5.37461,"is_reserved":false,"is_disabled":false,"rental_uris":{"android":"levelo://app?vid=20bfb619-7e57-4ab9-9b5a-680562705bc3","ios":"levelo://app?vid=20bfb619-7e57-4ab9-9b5a-680562705bc3"},"vehicle_type_id":"4","last_reported":1728148105,"current_range_meters":36800,"station_id":"ce4bhgp2rcd13ifvqfc0","pricing_plan_id":"cebpf4jnsgd1na2vs0mg"},{"bike_id":"e03c9d0c-17ae-4003-b903-fd8aa9951041","system_id":"levelo_inurba_marseille","lat":43.33748,"lon":5.3746,"is_reserved":false,"is_disabled":false,"rental_uris":{"android":"levelo://app?vid=e03c9d0c-17ae-4003-b903-fd8aa9951041","ios":"levelo://app?vid=e03c9d0c-17ae-4003-b903-fd8aa9951041"},"vehicle_type_id":"4","last_reported":1728148105,"current_range_meters":38400,"station_id":"","pricing_plan_id":"cebpf4jnsgd1na2vs0mg"},{"bike_id":"e3a6f0d7-8f8e-42c3-834d-533f9916febe","system_id":"levelo_inurba_marseille","lat":43.29894,"lon":5.43671,"is_reserved":false,"is_disabled":false,"rental_uris":{"android":"levelo://app?vid=e3a6f0d7-8f8e-42c3-834d-533f9916febe","ios":"levelo://app?vid=e3a6f0d7-8f8e-42c3-834d-533f9916febe"},"vehicle_type_id":"4","last_reported":1728148105,"current_range_meters":18000,"station_id":"ce4bhpp2rcd13ifvqhfg","pricing_plan_id":"cebpf4jnsgd1na2vs0mg"},{"bike_id":"b6adfae7-daa4-4c09-8e2a-99a222418997","system_id":"levelo_inurba_marseille","lat":43.28264,"lon":5.35064,"is_reserved":false,"is_disabled":false,"rental_uris":{"android":"levelo://app?vid=b6adfae7-daa4-4c09-8e2a-99a222418997","ios":"levelo://app?vid=b6adfae7-daa4-4c09-8e2a-99a222418997"},"vehicle_type_id":"4","last_reported":1728148105,"current_range_meters":6000,"station_id":"ce4bgop2rcd13ifvqc1g","pricing_plan_id":"cebpf4jnsgd1na2vs0mg"},{"bike_id":"3a72e3ff-297f-4e29-b219-321456da90cb","system_id":"levelo_inurba_marseille","lat":43.28933,"lon":5.36641,"is_reserved":false,"is_disabled":false,"rental_uris":{"android":"levelo://app?vid=3a72e3ff-297f-4e29-b219-321456da90cb","ios":"levelo://app?vid=3a72e3ff-297f-4e29-b219-321456da90cb"},"vehicle_type_id":"4","last_reported":1728148105,"current_range_meters":15200,"station_id":"ce4bhap2rcd13ifvqek0","pricing_plan_id":"cebpf4jnsgd1na2vs0mg"},{"bike_id":"479d2c74-741b-451c-aad5-79817a9efaea","system_id":"levelo_inurba_marseille","lat":43.24802,"lon":5.37456,"is_reserved":false,"is_disabled":false,"rental_uris":{"android":"levelo://app?vid=479d2c74-741b-451c-aad5-79817a9efaea","ios":"levelo://app?vid=479d2c74-741b-451c-aad5-79817a9efaea"},"vehicle_type_id":"4","last_reported":1728148105,"current_range_meters":36400,"station_id":"ce4bhgh2rcd13ifvqfb0","pricing_plan_id":"cebpf4jnsgd1na2vs0mg"},{"bike_id":"b6a817d8-5787-46a3-898e-0b46c75fc481","system_id":"levelo_inurba_marseille","lat":43.32965,"lon":5.40344,"is_reserved":false,"is_disabled":false,"rental_uris":{"android":"levelo://app?vid=b6a817d8-5787-46a3-898e-0b46c75fc481","ios":"levelo://app?vid=b6a817d8-5787-46a3-898e-0b46c75fc481"},"vehicle_type_id":"4","last_reported":1728148105,"current_range_meters":5600,"station_id":"","pricing_plan_id":"cebpf4jnsgd1na2vs0mg"},{"bike_id":"4b56e70a-b59c-4162-a516-1deb9477e400","system_id":"levelo_inurba_marseille","lat":43.29514,"lon":5.39403,"is_reserved":false,"is_disabled":false,"rental_uris":{"android":"levelo://app?vid=4b56e70a-b59c-4162-a516-1deb9477e400","ios":"levelo://app?vid=4b56e70a-b59c-4162-a516-1deb9477e400"},"vehicle_type_id":"4","last_reported":1728148105,"current_range_meters":4000,"station_id":"ce4bh292rcd13ifvqdf0","pricing_plan_id":"cebpf4jnsgd1na2vs0mg"},{"bike_id":"6856d22e-440d-40d9-809f-3167dacdbdc3","system_id":"levelo_inurba_marseille","lat":43.337444,"lon":5.374475,"is_reserved":false,"is_disabled":false,"rental_uris":{"android":"levelo://app?vid=6856d22e-440d-40d9-809f-3167dacdbdc3","ios":"levelo://app?vid=6856d22e-440d-40d9-809f-3167dacdbdc3"},"vehicle_type_id":"4","last_reported":1728148105,"current_range_meters":18800,"station_id":"","pricing_plan_id":"cebpf4jnsgd1na2vs0mg"},{"bike_id":"64bd957e-b978-44cb-a85c-928d627d24ec","system_id":"levelo_inurba_marseille","lat":43.35424,"lon":5.35869,"is_reserved":false,"is_disabled":false,"rental_uris":{"android":"levelo://app?vid=64bd957e-b978-44cb-a85c-928d627d24ec","ios":"levelo://app?vid=64bd957e-b978-44cb-a85c-928d627d24ec"},"vehicle_type_id":"4","last_reported":1728148105,"current_range_meters":6800,"station_id":"","pricing_plan_id":"cebpf4jnsgd1na2vs0mg"},{"bike_id":"64995d1a-0a95-43c1-8426-b3115325266b","system_id":"levelo_inurba_marseille","lat":43.27917,"lon":5.42309,"is_reserved":false,"is_disabled":false,"rental_uris":{"android":"levelo://app?vid=64995d1a-0a95-43c1-8426-b3115325266b","ios":"levelo://app?vid=64995d1a-0a95-43c1-8426-b3115325266b"},"vehicle_type_id":"4","last_reported":1728148105,"current_range_meters":17600,"station_id":"","pricing_plan_id":"cebpf4jnsgd1na2vs0mg"},{"bike_id":"f3564a94-4990-42e2-a0f5-829080a91016","system_id":"levelo_inurba_marseille","lat":43.32109,"lon":5.36774,"is_reserved":false,"is_disabled":false,"rental_uris":{"android":"levelo://app?vid=f3564a94-4990-42e2-a0f5-829080a91016","ios":"levelo://app?vid=f3564a94-4990-42e2-a0f5-829080a91016"},"vehicle_type_id":"4","last_reported":1728148105,"current_range_meters":24400,"station_id":"ce4bhrh2rcd13ifvqhug","pricing_plan_id":"cebpf4jnsgd1na2vs0mg"},{"bike_id":"eddae5db-5849-42bc-828b-e7a706bb96f2","system_id":"levelo_inurba_marseille","lat":43.25082,"lon":5.39524,"is_reserved":false,"is_disabled":false,"rental_uris":{"android":"levelo://app?vid=eddae5db-5849-42bc-828b-e7a706bb96f2","ios":"levelo://app?vid=eddae5db-5849-42bc-828b-e7a706bb96f2"},"vehicle_type_id":"4","last_reported":1728148105,"current_range_meters":11200,"station_id":"ce4bhm12rcd13ifvqgkg","pricing_plan_id":"cebpf4jnsgd1na2vs0mg"},{"bike_id":"03f49c69-571f-46d3-92c2-b469efb07e42","system_id":"levelo_inurba_marseille","lat":43.29887,"lon":5.38892,"is_reserved":false,"is_disabled":false,"rental_uris":{"android":"levelo://app?vid=03f49c69-571f-46d3-92c2-b469efb07e42","ios":"levelo://app?vid=03f49c69-571f-46d3-92c2-b469efb07e42"},"vehicle_type_id":"4","last_reported":1728148105,"current_range_meters":19600,"station_id":"ce4bh392rcd13ifvqdl0","pricing_plan_id":"cebpf4jnsgd1na2vs0mg"},{"bike_id":"79d4ce44-dde0-4856-adfb-9d048612b764","system_id":"levelo_inurba_marseille","lat":43.33752,"lon":5.37431,"is_reserved":false,"is_disabled":false,"rental_uris":{"android":"levelo://app?vid=79d4ce44-dde0-4856-adfb-9d048612b764","ios":"levelo://app?vid=79d4ce44-dde0-4856-adfb-9d048612b764"},"vehicle_type_id":"4","last_reported":1728148105,"current_range_meters":37600,"station_id":"","pricing_plan_id":"cebpf4jnsgd1na2vs0mg"},{"bike_id":"6362dd7e-711b-4b82-af8e-291ea8f6ea1e","system_id":"levelo_inurba_marseille","lat":43.33761,"lon":5.37437,"is_reserved":false,"is_disabled":false,"rental_uris":{"android":"levelo://app?vid=6362dd7e-711b-4b82-af8e-291ea8f6ea1e","ios":"levelo://app?vid=6362dd7e-711b-4b82-af8e-291ea8f6ea1e"},"vehicle_type_id":"4","last_reported":1728148105,"current_range_meters":36400,"station_id":"","pricing_plan_id":"cebpf4jnsgd1na2vs0mg"},{"bike_id":"d366c603-0baa-4130-aa14-9de1acc340c3","system_id":"levelo_inurba_marseille","lat":43.3122,"lon":5.36865,"is_reserved":false,"is_disabled":false,"rental_uris":{"android":"levelo://app?vid=d366c603-0baa-4130-aa14-9de1acc340c3","ios":"levelo://app?vid=d366c603-0baa-4130-aa14-9de1acc340c3"},"vehicle_type_id":"4","last_reported":1728148105,"current_range_meters":8000,"station_id":"ce4bgl92rcd13ifvqbq0","pricing_plan_id":"cebpf4jnsgd1na2vs0mg"},{"bike_id":"1f07a676-a374-44b9-8790-c7b8b7e7c04d","system_id":"levelo_inurba_marseille","lat":43.26189,"lon":5.3745,"is_reserved":false,"is_disabled":false,"rental_uris":{"android":"levelo://app?vid=1f07a676-a374-44b9-8790-c7b8b7e7c04d","ios":"levelo://app?vid=1f07a676-a374-44b9-8790-c7b8b7e7c04d"},"vehicle_type_id":"4","last_reported":1728148105,"current_range_meters":38800,"station_id":"ce4bhgp2rcd13ifvqfc0","pricing_plan_id":"cebpf4jnsgd1na2vs0mg"},{"bike_id":"7c84b03f-3891-46b8-9420-06c75b7b7c16","system_id":"levelo_inurba_marseille","lat":43.28938,"lon":5.36639,"is_reserved":false,"is_disabled":false,"rental_uris":{"android":"levelo://app?vid=7c84b03f-3891-46b8-9420-06c75b7b7c16","ios":"levelo://app?vid=7c84b03f-3891-46b8-9420-06c75b7b7c16"},"vehicle_type_id":"4","last_reported":1728148105,"current_range_meters":6800,"station_id":"ce4bhap2rcd13ifvqek0","pricing_plan_id":"cebpf4jnsgd1na2vs0mg"},{"bike_id":"bf290a4a-77d5-4fc3-84b3-f37910991a7a","system_id":"levelo_inurba_marseille","lat":43.26681,"lon":5.38269,"is_reserved":false,"is_disabled":false,"rental_uris":{"android":"levelo://app?vid=bf290a4a-77d5-4fc3-84b3-f37910991a7a","ios":"levelo://app?vid=bf290a4a-77d5-4fc3-84b3-f37910991a7a"},"vehicle_type_id":"4","last_reported":1728148105,"current_range_meters":400,"station_id":"ce4bhg92rcd13ifvqf90","pricing_plan_id":"cebpf4jnsgd1na2vs0mg"},{"bike_id":"5305316b-eb43-43cb-bedf-3a735be36892","system_id":"levelo_inurba_marseille","lat":43.31715,"lon":5.43706,"is_reserved":false,"is_disabled":false,"rental_uris":{"android":"levelo://app?vid=5305316b-eb43-43cb-bedf-3a735be36892","ios":"levelo://app?vid=5305316b-eb43-43cb-bedf-3a735be36892"},"vehicle_type_id":"4","last_reported":1728148105,"current_range_meters":36800,"station_id":"ce4bhp92rcd13ifvqhcg","pricing_plan_id":"cebpf4jnsgd1na2vs0mg"},{"bike_id":"7e439a50-1436-4b15-ba33-cb53098e32c8","system_id":"levelo_inurba_marseille","lat":43.30906,"lon":5.36849,"is_reserved":false,"is_disabled":false,"rental_uris":{"android":"levelo://app?vid=7e439a50-1436-4b15-ba33-cb53098e32c8","ios":"levelo://app?vid=7e439a50-1436-4b15-ba33-cb53098e32c8"},"vehicle_type_id":"4","last_reported":1728148105,"current_range_meters":36400,"station_id":"ce4bgn92rcd13ifvqbvg","pricing_plan_id":"cebpf4jnsgd1na2vs0mg"},{"bike_id":"3c16bf2a-d9ce-411b-a38e-742079f812c9","system_id":"levelo_inurba_marseille","lat":43.27916,"lon":5.39582,"is_reserved":false,"is_disabled":false,"rental_uris":{"android":"levelo://app?vid=3c16bf2a-d9ce-411b-a38e-742079f812c9","ios":"levelo://app?vid=3c16bf2a-d9ce-411b-a38e-742079f812c9"},"vehicle_type_id":"4","last_reported":1728148105,"current_range_meters":36000,"station_id":"ce4bhf92rcd13ifvqf40","pricing_plan_id":"cebpf4jnsgd1na2vs0mg"},{"bike_id":"fbad9cbf-d2d3-4efc-be58-b0a7f0e779c7","system_id":"levelo_inurba_marseille","lat":43.23193,"lon":5.35562,"is_reserved":false,"is_disabled":false,"rental_uris":{"android":"levelo://app?vid=fbad9cbf-d2d3-4efc-be58-b0a7f0e779c7","ios":"levelo://app?vid=fbad9cbf-d2d3-4efc-be58-b0a7f0e779c7"},"vehicle_type_id":"4","last_reported":1728148105,"current_range_meters":24000,"station_id":"ce4bhu92rcd13ifvqi70","pricing_plan_id":"cebpf4jnsgd1na2vs0mg"},{"bike_id":"1065fa13-c96e-4ab3-bba9-3bc3a991f59d","system_id":"levelo_inurba_marseille","lat":43.33021,"lon":5.3904,"is_reserved":false,"is_disabled":false,"rental_uris":{"android":"levelo://app?vid=1065fa13-c96e-4ab3-bba9-3bc3a991f59d","ios":"levelo://app?vid=1065fa13-c96e-4ab3-bba9-3bc3a991f59d"},"vehicle_type_id":"4","last_reported":1728148105,"current_range_meters":24400,"station_id":"ce4bhr92rcd13ifvqhrg","pricing_plan_id":"cebpf4jnsgd1na2vs0mg"},{"bike_id":"7835eac1-e1cc-45f3-ae7c-879b2937a54f","system_id":"levelo_inurba_marseille","lat":43.308895,"lon":5.396515,"is_reserved":false,"is_disabled":false,"rental_uris":{"android":"levelo://app?vid=7835eac1-e1cc-45f3-ae7c-879b2937a54f","ios":"levelo://app?vid=7835eac1-e1cc-45f3-ae7c-879b2937a54f"},"vehicle_type_id":"4","last_reported":1728148105,"current_range_meters":10000,"station_id":"ce4bh012rcd13ifvqcv0","pricing_plan_id":"cebpf4jnsgd1na2vs0mg"},{"bike_id":"ebaa2bc0-75b8-4930-8c51-f1c39028c651","system_id":"levelo_inurba_marseille","lat":43.29265,"lon":5.3845,"is_reserved":false,"is_disabled":false,"rental_uris":{"android":"levelo://app?vid=ebaa2bc0-75b8-4930-8c51-f1c39028c651","ios":"levelo://app?vid=ebaa2bc0-75b8-4930-8c51-f1c39028c651"},"vehicle_type_id":"4","last_reported":1728148105,"current_range_meters":38800,"station_id":"ce4bh692rcd13ifvqea0","pricing_plan_id":"cebpf4jnsgd1na2vs0mg"},{"bike_id":"f253477c-29dd-4e64-8302-49ae961ba158","system_id":"levelo_inurba_marseille","lat":43.26209,"lon":5.37442,"is_reserved":false,"is_disabled":false,"rental_uris":{"android":"levelo://app?vid=f253477c-29dd-4e64-8302-49ae961ba158","ios":"levelo://app?vid=f253477c-29dd-4e64-8302-49ae961ba158"},"vehicle_type_id":"4","last_reported":1728148105,"current_range_meters":38800,"station_id":"ce4bhgp2rcd13ifvqfc0","pricing_plan_id":"cebpf4jnsgd1na2vs0mg"},{"bike_id":"10e2cad8-5b87-4361-a750-816e7c888c91","system_id":"levelo_inurba_marseille","lat":43.33751,"lon":5.37445,"is_reserved":false,"is_disabled":false,"rental_uris":{"android":"levelo://app?vid=10e2cad8-5b87-4361-a750-816e7c888c91","ios":"levelo://app?vid=10e2cad8-5b87-4361-a750-816e7c888c91"},"vehicle_type_id":"4","last_reported":1728148105,"current_range_meters":35600,"station_id":"","pricing_plan_id":"cebpf4jnsgd1na2vs0mg"},{"bike_id":"dbc081ef-c965-4754-a7dd-55bed6ca14e4","system_id":"levelo_inurba_marseille","lat":43.33022,"lon":5.39049,"is_reserved":false,"is_disabled":false,"rental_uris":{"android":"levelo://app?vid=dbc081ef-c965-4754-a7dd-55bed6ca14e4","ios":"levelo://app?vid=dbc081ef-c965-4754-a7dd-55bed6ca14e4"},"vehicle_type_id":"4","last_reported":1728148105,"current_range_meters":11200,"station_id":"ce4bhr92rcd13ifvqhrg","pricing_plan_id":"cebpf4jnsgd1na2vs0mg"},{"bike_id":"0cc228de-bb34-48fb-b209-c57b5764874c","system_id":"levelo_inurba_marseille","lat":43.26189,"lon":5.37452,"is_reserved":false,"is_disabled":false,"rental_uris":{"android":"levelo://app?vid=0cc228de-bb34-48fb-b209-c57b5764874c","ios":"levelo://app?vid=0cc228de-bb34-48fb-b209-c57b5764874c"},"vehicle_type_id":"4","last_reported":1728148105,"current_range_meters":38800,"station_id":"ce4bhgp2rcd13ifvqfc0","pricing_plan_id":"cebpf4jnsgd1na2vs0mg"},{"bike_id":"d3f7f46a-6847-46a5-8cb5-18953cb9d97a","system_id":"levelo_inurba_marseille","lat":43.30328,"lon":5.40445,"is_reserved":false,"is_disabled":false,"rental_uris":{"android":"levelo://app?vid=d3f7f46a-6847-46a5-8cb5-18953cb9d97a","ios":"levelo://app?vid=d3f7f46a-6847-46a5-8cb5-18953cb9d97a"},"vehicle_type_id":"4","last_reported":1728148105,"current_range_meters":38800,"station_id":"","pricing_plan_id":"cebpf4jnsgd1na2vs0mg"},{"bike_id":"a513ccaa-0c27-439e-bc69-84cf7ff60039","system_id":"levelo_inurba_marseille","lat":43.337444,"lon":5.374475,"is_reserved":false,"is_disabled":false,"rental_uris":{"android":"levelo://app?vid=a513ccaa-0c27-439e-bc69-84cf7ff60039","ios":"levelo://app?vid=a513ccaa-0c27-439e-bc69-84cf7ff60039"},"vehicle_type_id":"4","last_reported":1728148105,"current_range_meters":33600,"station_id":"","pricing_plan_id":"cebpf4jnsgd1na2vs0mg"},{"bike_id":"4fd87688-b8be-42ce-af55-a395281345d5","system_id":"levelo_inurba_marseille","lat":43.25491,"lon":5.37651,"is_reserved":false,"is_disabled":false,"rental_uris":{"android":"levelo://app?vid=4fd87688-b8be-42ce-af55-a395281345d5","ios":"levelo://app?vid=4fd87688-b8be-42ce-af55-a395281345d5"},"vehicle_type_id":"4","last_reported":1728148105,"current_range_meters":8400,"station_id":"ce4bhh12rcd13ifvqff0","pricing_plan_id":"cebpf4jnsgd1na2vs0mg"},{"bike_id":"e939507b-d34a-4e16-a8ac-1ed89d21ae31","system_id":"levelo_inurba_marseille","lat":43.27975,"lon":5.38733,"is_reserved":false,"is_disabled":false,"rental_uris":{"android":"levelo://app?vid=e939507b-d34a-4e16-a8ac-1ed89d21ae31","ios":"levelo://app?vid=e939507b-d34a-4e16-a8ac-1ed89d21ae31"},"vehicle_type_id":"4","last_reported":1728148105,"current_range_meters":38800,"station_id":"ce4bhg12rcd13ifvqf80","pricing_plan_id":"cebpf4jnsgd1na2vs0mg"},{"bike_id":"1a9fe545-c0ea-48a5-92b0-9f7f7d3cd847","system_id":"levelo_inurba_marseille","lat":43.29042,"lon":5.39942,"is_reserved":false,"is_disabled":false,"rental_uris":{"android":"levelo://app?vid=1a9fe545-c0ea-48a5-92b0-9f7f7d3cd847","ios":"levelo://app?vid=1a9fe545-c0ea-48a5-92b0-9f7f7d3cd847"},"vehicle_type_id":"4","last_reported":1728148105,"current_range_meters":38800,"station_id":"ce4bh392rcd13ifvqdm0","pricing_plan_id":"cebpf4jnsgd1na2vs0mg"},{"bike_id":"5c56a3bd-eee6-46f6-9565-18e2d60b4a2a","system_id":"levelo_inurba_marseille","lat":43.33754,"lon":5.37441,"is_reserved":false,"is_disabled":false,"rental_uris":{"android":"levelo://app?vid=5c56a3bd-eee6-46f6-9565-18e2d60b4a2a","ios":"levelo://app?vid=5c56a3bd-eee6-46f6-9565-18e2d60b4a2a"},"vehicle_type_id":"4","last_reported":1728148105,"current_range_meters":38400,"station_id":"","pricing_plan_id":"cebpf4jnsgd1na2vs0mg"},{"bike_id":"eb2f9a98-b313-486b-be3e-977ca6a30eaf","system_id":"levelo_inurba_marseille","lat":43.29441,"lon":5.39747,"is_reserved":false,"is_disabled":false,"rental_uris":{"android":"levelo://app?vid=eb2f9a98-b313-486b-be3e-977ca6a30eaf","ios":"levelo://app?vid=eb2f9a98-b313-486b-be3e-977ca6a30eaf"},"vehicle_type_id":"4","last_reported":1728148105,"current_range_meters":20800,"station_id":"ce4bh3h2rcd13ifvqdo0","pricing_plan_id":"cebpf4jnsgd1na2vs0mg"},{"bike_id":"e315600c-3ff8-4893-abe5-0c310d48465d","system_id":"levelo_inurba_marseille","lat":43.33765,"lon":5.37438,"is_reserved":false,"is_disabled":false,"rental_uris":{"android":"levelo://app?vid=e315600c-3ff8-4893-abe5-0c310d48465d","ios":"levelo://app?vid=e315600c-3ff8-4893-abe5-0c310d48465d"},"vehicle_type_id":"4","last_reported":1728148105,"current_range_meters":32400,"station_id":"","pricing_plan_id":"cebpf4jnsgd1na2vs0mg"},{"bike_id":"be148d47-d7f0-4e3b-8308-0b6a3961a66a","system_id":"levelo_inurba_marseille","lat":43.32288,"lon":5.38278,"is_reserved":false,"is_disabled":false,"rental_uris":{"android":"levelo://app?vid=be148d47-d7f0-4e3b-8308-0b6a3961a66a","ios":"levelo://app?vid=be148d47-d7f0-4e3b-8308-0b6a3961a66a"},"vehicle_type_id":"4","last_reported":1728148105,"current_range_meters":6400,"station_id":"ce4bhr12rcd13ifvqhqg","pricing_plan_id":"cebpf4jnsgd1na2vs0mg"},{"bike_id":"fa4531fd-8794-46c1-91d5-1f9c7966b806","system_id":"levelo_inurba_marseille","lat":43.27175,"lon":5.40995,"is_reserved":false,"is_disabled":false,"rental_uris":{"android":"levelo://app?vid=fa4531fd-8794-46c1-91d5-1f9c7966b806","ios":"levelo://app?vid=fa4531fd-8794-46c1-91d5-1f9c7966b806"},"vehicle_type_id":"4","last_reported":1728148105,"current_range_meters":7200,"station_id":"ce4bhl12rcd13ifvqgf0","pricing_plan_id":"cebpf4jnsgd1na2vs0mg"},{"bike_id":"8ac7ccb9-a1dc-4dde-b740-82e9421e2d39","system_id":"levelo_inurba_marseille","lat":43.24075,"lon":5.37759,"is_reserved":false,"is_disabled":false,"rental_uris":{"android":"levelo://app?vid=8ac7ccb9-a1dc-4dde-b740-82e9421e2d39","ios":"levelo://app?vid=8ac7ccb9-a1dc-4dde-b740-82e9421e2d39"},"vehicle_type_id":"4","last_reported":1728148105,"current_range_meters":3200,"station_id":"ce4bhnp2rcd13ifvqgvg","pricing_plan_id":"cebpf4jnsgd1na2vs0mg"},{"bike_id":"b2ae2fbd-258d-44f1-9cab-4671b1ea82a4","system_id":"levelo_inurba_marseille","lat":43.25087,"lon":5.39525,"is_reserved":false,"is_disabled":false,"rental_uris":{"android":"levelo://app?vid=b2ae2fbd-258d-44f1-9cab-4671b1ea82a4","ios":"levelo://app?vid=b2ae2fbd-258d-44f1-9cab-4671b1ea82a4"},"vehicle_type_id":"4","last_reported":1728148105,"current_range_meters":20000,"station_id":"ce4bhm12rcd13ifvqgkg","pricing_plan_id":"cebpf4jnsgd1na2vs0mg"},{"bike_id":"a5ebe1c9-6580-42fe-97b5-4ef8f2774229","system_id":"levelo_inurba_marseille","lat":43.28418,"lon":5.34987,"is_reserved":false,"is_disabled":false,"rental_uris":{"android":"levelo://app?vid=a5ebe1c9-6580-42fe-97b5-4ef8f2774229","ios":"levelo://app?vid=a5ebe1c9-6580-42fe-97b5-4ef8f2774229"},"vehicle_type_id":"4","last_reported":1728148105,"current_range_meters":39200,"station_id":"ce4bhbh2rcd13ifvqepg","pricing_plan_id":"cebpf4jnsgd1na2vs0mg"},{"bike_id":"40dcb9b5-5c17-48fd-a594-d9141c7edc74","system_id":"levelo_inurba_marseille","lat":43.2894,"lon":5.36629,"is_reserved":false,"is_disabled":false,"rental_uris":{"android":"levelo://app?vid=40dcb9b5-5c17-48fd-a594-d9141c7edc74","ios":"levelo://app?vid=40dcb9b5-5c17-48fd-a594-d9141c7edc74"},"vehicle_type_id":"4","last_reported":1728148105,"current_range_meters":19200,"station_id":"ce4bhap2rcd13ifvqek0","pricing_plan_id":"cebpf4jnsgd1na2vs0mg"},{"bike_id":"740aa9b1-bf7f-495f-b4b6-8c44676bc674","system_id":"levelo_inurba_marseille","lat":43.3375,"lon":5.37447,"is_reserved":false,"is_disabled":false,"rental_uris":{"android":"levelo://app?vid=740aa9b1-bf7f-495f-b4b6-8c44676bc674","ios":"levelo://app?vid=740aa9b1-bf7f-495f-b4b6-8c44676bc674"},"vehicle_type_id":"4","last_reported":1728148105,"current_range_meters":4000,"station_id":"","pricing_plan_id":"cebpf4jnsgd1na2vs0mg"},{"bike_id":"190217fb-b286-4a2d-b5a2-ff554429c70a","system_id":"levelo_inurba_marseille","lat":43.2904,"lon":5.35915,"is_reserved":false,"is_disabled":false,"rental_uris":{"android":"levelo://app?vid=190217fb-b286-4a2d-b5a2-ff554429c70a","ios":"levelo://app?vid=190217fb-b286-4a2d-b5a2-ff554429c70a"},"vehicle_type_id":"4","last_reported":1728148105,"current_range_meters":12400,"station_id":"ce4bha92rcd13ifvqeg0","pricing_plan_id":"cebpf4jnsgd1na2vs0mg"},{"bike_id":"5ca248b0-c413-42f8-9407-c12494c2d1cd","system_id":"levelo_inurba_marseille","lat":43.31693,"lon":5.40476,"is_reserved":false,"is_disabled":false,"rental_uris":{"android":"levelo://app?vid=5ca248b0-c413-42f8-9407-c12494c2d1cd","ios":"levelo://app?vid=5ca248b0-c413-42f8-9407-c12494c2d1cd"},"vehicle_type_id":"4","last_reported":1728148105,"current_range_meters":38800,"station_id":"ce4bh012rcd13ifvqd00","pricing_plan_id":"cebpf4jnsgd1na2vs0mg"},{"bike_id":"77b9203a-0842-4b45-acd8-ada92dfc3441","system_id":"levelo_inurba_marseille","lat":43.29921,"lon":5.38133,"is_reserved":false,"is_disabled":false,"rental_uris":{"android":"levelo://app?vid=77b9203a-0842-4b45-acd8-ada92dfc3441","ios":"levelo://app?vid=77b9203a-0842-4b45-acd8-ada92dfc3441"},"vehicle_type_id":"4","last_reported":1728148105,"current_range_meters":10800,"station_id":"ce4bgj12rcd13ifvqbc0","pricing_plan_id":"cebpf4jnsgd1na2vs0mg"},{"bike_id":"8c61526c-2d67-4b1a-8f32-0018924d753f","system_id":"levelo_inurba_marseille","lat":43.337444,"lon":5.374475,"is_reserved":false,"is_disabled":false,"rental_uris":{"android":"levelo://app?vid=8c61526c-2d67-4b1a-8f32-0018924d753f","ios":"levelo://app?vid=8c61526c-2d67-4b1a-8f32-0018924d753f"},"vehicle_type_id":"4","last_reported":1728148105,"current_range_meters":33600,"station_id":"","pricing_plan_id":"cebpf4jnsgd1na2vs0mg"},{"bike_id":"50cc7fcf-70f9-4bc9-93ed-2c2286730103","system_id":"levelo_inurba_marseille","lat":43.28721,"lon":5.36078,"is_reserved":false,"is_disabled":false,"rental_uris":{"android":"levelo://app?vid=50cc7fcf-70f9-4bc9-93ed-2c2286730103","ios":"levelo://app?vid=50cc7fcf-70f9-4bc9-93ed-2c2286730103"},"vehicle_type_id":"4","last_reported":1728148105,"current_range_meters":8000,"station_id":"cki0cbj6b192h4jlfktg","pricing_plan_id":"cebpf4jnsgd1na2vs0mg"},{"bike_id":"f14a9d4e-5024-441f-8516-20716acd7523","system_id":"levelo_inurba_marseille","lat":43.31712,"lon":5.43706,"is_reserved":false,"is_disabled":false,"rental_uris":{"android":"levelo://app?vid=f14a9d4e-5024-441f-8516-20716acd7523","ios":"levelo://app?vid=f14a9d4e-5024-441f-8516-20716acd7523"},"vehicle_type_id":"4","last_reported":1728148105,"current_range_meters":22800,"station_id":"ce4bhp92rcd13ifvqhcg","pricing_plan_id":"cebpf4jnsgd1na2vs0mg"},{"bike_id":"69be0f07-7180-4d2b-af05-c4004b76021e","system_id":"levelo_inurba_marseille","lat":43.31885,"lon":5.40736,"is_reserved":false,"is_disabled":false,"rental_uris":{"android":"levelo://app?vid=69be0f07-7180-4d2b-af05-c4004b76021e","ios":"levelo://app?vid=69be0f07-7180-4d2b-af05-c4004b76021e"},"vehicle_type_id":"4","last_reported":1728148105,"current_range_meters":30000,"station_id":"ce4bhq12rcd13ifvqhig","pricing_plan_id":"cebpf4jnsgd1na2vs0mg"},{"bike_id":"6b315d99-3ae8-4acd-8c24-9531c7a83eb8","system_id":"levelo_inurba_marseille","lat":43.23068,"lon":5.35491,"is_reserved":false,"is_disabled":false,"rental_uris":{"android":"levelo://app?vid=6b315d99-3ae8-4acd-8c24-9531c7a83eb8","ios":"levelo://app?vid=6b315d99-3ae8-4acd-8c24-9531c7a83eb8"},"vehicle_type_id":"4","last_reported":1728148105,"current_range_meters":12000,"station_id":"cpo3342slgdg3j2ifvpg","pricing_plan_id":"cebpf4jnsgd1na2vs0mg"},{"bike_id":"ce55e3ee-5ef9-406e-a60e-51f187bb621c","system_id":"levelo_inurba_marseille","lat":43.24184,"lon":5.39731,"is_reserved":false,"is_disabled":false,"rental_uris":{"android":"levelo://app?vid=ce55e3ee-5ef9-406e-a60e-51f187bb621c","ios":"levelo://app?vid=ce55e3ee-5ef9-406e-a60e-51f187bb621c"},"vehicle_type_id":"4","last_reported":1728148105,"current_range_meters":9200,"station_id":"ce4bhn12rcd13ifvqgpg","pricing_plan_id":"cebpf4jnsgd1na2vs0mg"},{"bike_id":"9eb53b89-7a05-44e2-923b-44f4ecd2f358","system_id":"levelo_inurba_marseille","lat":43.337444,"lon":5.374475,"is_reserved":false,"is_disabled":false,"rental_uris":{"android":"levelo://app?vid=9eb53b89-7a05-44e2-923b-44f4ecd2f358","ios":"levelo://app?vid=9eb53b89-7a05-44e2-923b-44f4ecd2f358"},"vehicle_type_id":"4","last_reported":1728148105,"current_range_meters":30000,"station_id":"","pricing_plan_id":"cebpf4jnsgd1na2vs0mg"},{"bike_id":"ceb60d62-385e-4837-9c20-c0df3e73b9b6","system_id":"levelo_inurba_marseille","lat":43.28939,"lon":5.36657,"is_reserved":false,"is_disabled":false,"rental_uris":{"android":"levelo://app?vid=ceb60d62-385e-4837-9c20-c0df3e73b9b6","ios":"levelo://app?vid=ceb60d62-385e-4837-9c20-c0df3e73b9b6"},"vehicle_type_id":"4","last_reported":1728148105,"current_range_meters":8000,"station_id":"ce4bhap2rcd13ifvqek0","pricing_plan_id":"cebpf4jnsgd1na2vs0mg"},{"bike_id":"4cf14df4-2e9e-41fd-98de-f2afedd0d3f7","system_id":"levelo_inurba_marseille","lat":43.26212,"lon":5.37442,"is_reserved":false,"is_disabled":false,"rental_uris":{"android":"levelo://app?vid=4cf14df4-2e9e-41fd-98de-f2afedd0d3f7","ios":"levelo://app?vid=4cf14df4-2e9e-41fd-98de-f2afedd0d3f7"},"vehicle_type_id":"4","last_reported":1728148105,"current_range_meters":20000,"station_id":"ce4bhgp2rcd13ifvqfc0","pricing_plan_id":"cebpf4jnsgd1na2vs0mg"},{"bike_id":"2eb1180c-3c37-45a8-8c05-d2fd624d984f","system_id":"levelo_inurba_marseille","lat":43.33765,"lon":5.37435,"is_reserved":false,"is_disabled":false,"rental_uris":{"android":"levelo://app?vid=2eb1180c-3c37-45a8-8c05-d2fd624d984f","ios":"levelo://app?vid=2eb1180c-3c37-45a8-8c05-d2fd624d984f"},"vehicle_type_id":"4","last_reported":1728148105,"current_range_meters":35600,"station_id":"","pricing_plan_id":"cebpf4jnsgd1na2vs0mg"},{"bike_id":"e8363601-2a3a-412e-b762-1e9cd8ab575a","system_id":"levelo_inurba_marseille","lat":43.29808,"lon":5.38102,"is_reserved":false,"is_disabled":false,"rental_uris":{"android":"levelo://app?vid=e8363601-2a3a-412e-b762-1e9cd8ab575a","ios":"levelo://app?vid=e8363601-2a3a-412e-b762-1e9cd8ab575a"},"vehicle_type_id":"4","last_reported":1728148105,"current_range_meters":25600,"station_id":"ce4bgip2rcd13ifvqbb0","pricing_plan_id":"cebpf4jnsgd1na2vs0mg"},{"bike_id":"96c30429-dd19-4ab4-9116-5162a2f35f8e","system_id":"levelo_inurba_marseille","lat":43.29442,"lon":5.39746,"is_reserved":false,"is_disabled":false,"rental_uris":{"android":"levelo://app?vid=96c30429-dd19-4ab4-9116-5162a2f35f8e","ios":"levelo://app?vid=96c30429-dd19-4ab4-9116-5162a2f35f8e"},"vehicle_type_id":"4","last_reported":1728148105,"current_range_meters":24400,"station_id":"ce4bh3h2rcd13ifvqdo0","pricing_plan_id":"cebpf4jnsgd1na2vs0mg"},{"bike_id":"f893ef82-247f-4700-b8ff-dcc6c5117532","system_id":"levelo_inurba_marseille","lat":43.28902,"lon":5.42922,"is_reserved":false,"is_disabled":false,"rental_uris":{"android":"levelo://app?vid=f893ef82-247f-4700-b8ff-dcc6c5117532","ios":"levelo://app?vid=f893ef82-247f-4700-b8ff-dcc6c5117532"},"vehicle_type_id":"4","last_reported":1728148105,"current_range_meters":16800,"station_id":"","pricing_plan_id":"cebpf4jnsgd1na2vs0mg"},{"bike_id":"6cd803f8-9a6d-43b4-b24a-b31f2bb63250","system_id":"levelo_inurba_marseille","lat":43.320363,"lon":5.415695,"is_reserved":false,"is_disabled":false,"rental_uris":{"android":"levelo://app?vid=6cd803f8-9a6d-43b4-b24a-b31f2bb63250","ios":"levelo://app?vid=6cd803f8-9a6d-43b4-b24a-b31f2bb63250"},"vehicle_type_id":"4","last_reported":1728148105,"current_range_meters":14000,"station_id":"ce4bhq92rcd13ifvqhkg","pricing_plan_id":"cebpf4jnsgd1na2vs0mg"},{"bike_id":"ddbc873e-c87c-41e1-998b-2bbe6c7c968e","system_id":"levelo_inurba_marseille","lat":43.26213,"lon":5.37444,"is_reserved":false,"is_disabled":false,"rental_uris":{"android":"levelo://app?vid=ddbc873e-c87c-41e1-998b-2bbe6c7c968e","ios":"levelo://app?vid=ddbc873e-c87c-41e1-998b-2bbe6c7c968e"},"vehicle_type_id":"4","last_reported":1728148105,"current_range_meters":38800,"station_id":"ce4bhgp2rcd13ifvqfc0","pricing_plan_id":"cebpf4jnsgd1na2vs0mg"},{"bike_id":"045ee71b-00d0-4a60-a8fe-285c2fd72dc9","system_id":"levelo_inurba_marseille","lat":43.30573,"lon":5.3655,"is_reserved":false,"is_disabled":false,"rental_uris":{"android":"levelo://app?vid=045ee71b-00d0-4a60-a8fe-285c2fd72dc9","ios":"levelo://app?vid=045ee71b-00d0-4a60-a8fe-285c2fd72dc9"},"vehicle_type_id":"4","last_reported":1728148105,"current_range_meters":10800,"station_id":"ce4bgs12rcd13ifvqcag","pricing_plan_id":"cebpf4jnsgd1na2vs0mg"},{"bike_id":"846984a2-b212-4bbb-a13a-656e47b7f4d4","system_id":"levelo_inurba_marseille","lat":43.29118,"lon":5.36063,"is_reserved":false,"is_disabled":false,"rental_uris":{"android":"levelo://app?vid=846984a2-b212-4bbb-a13a-656e47b7f4d4","ios":"levelo://app?vid=846984a2-b212-4bbb-a13a-656e47b7f4d4"},"vehicle_type_id":"4","last_reported":1728148105,"current_range_meters":15200,"station_id":"","pricing_plan_id":"cebpf4jnsgd1na2vs0mg"},{"bike_id":"d23a4f03-6ec0-4ece-81ea-75a978d5b687","system_id":"levelo_inurba_marseille","lat":43.33757,"lon":5.37449,"is_reserved":false,"is_disabled":false,"rental_uris":{"android":"levelo://app?vid=d23a4f03-6ec0-4ece-81ea-75a978d5b687","ios":"levelo://app?vid=d23a4f03-6ec0-4ece-81ea-75a978d5b687"},"vehicle_type_id":"4","last_reported":1728148105,"current_range_meters":32400,"station_id":"","pricing_plan_id":"cebpf4jnsgd1na2vs0mg"},{"bike_id":"82d45b64-da30-431b-9b70-ba8a6a4efb6d","system_id":"levelo_inurba_marseille","lat":43.23192,"lon":5.35554,"is_reserved":false,"is_disabled":false,"rental_uris":{"android":"levelo://app?vid=82d45b64-da30-431b-9b70-ba8a6a4efb6d","ios":"levelo://app?vid=82d45b64-da30-431b-9b70-ba8a6a4efb6d"},"vehicle_type_id":"4","last_reported":1728148105,"current_range_meters":39200,"station_id":"ce4bhu92rcd13ifvqi70","pricing_plan_id":"cebpf4jnsgd1na2vs0mg"},{"bike_id":"06f9f310-10bc-462f-af6f-16c9efc38d57","system_id":"levelo_inurba_marseille","lat":43.24079,"lon":5.3775,"is_reserved":false,"is_disabled":false,"rental_uris":{"android":"levelo://app?vid=06f9f310-10bc-462f-af6f-16c9efc38d57","ios":"levelo://app?vid=06f9f310-10bc-462f-af6f-16c9efc38d57"},"vehicle_type_id":"4","last_reported":1728148105,"current_range_meters":16000,"station_id":"ce4bhnp2rcd13ifvqgvg","pricing_plan_id":"cebpf4jnsgd1na2vs0mg"},{"bike_id":"87f5ddc1-e0ec-4338-9f2e-7cd9a3e32ccb","system_id":"levelo_inurba_marseille","lat":43.25869,"lon":5.39901,"is_reserved":false,"is_disabled":false,"rental_uris":{"android":"levelo://app?vid=87f5ddc1-e0ec-4338-9f2e-7cd9a3e32ccb","ios":"levelo://app?vid=87f5ddc1-e0ec-4338-9f2e-7cd9a3e32ccb"},"vehicle_type_id":"4","last_reported":1728148105,"current_range_meters":19200,"station_id":"ce4bhl92rcd13ifvqghg","pricing_plan_id":"cebpf4jnsgd1na2vs0mg"},{"bike_id":"2fc5050f-b036-4255-a193-23eec2fec7cc","system_id":"levelo_inurba_marseille","lat":43.23061,"lon":5.35487,"is_reserved":false,"is_disabled":false,"rental_uris":{"android":"levelo://app?vid=2fc5050f-b036-4255-a193-23eec2fec7cc","ios":"levelo://app?vid=2fc5050f-b036-4255-a193-23eec2fec7cc"},"vehicle_type_id":"4","last_reported":1728148105,"current_range_meters":33200,"station_id":"cpo3342slgdg3j2ifvpg","pricing_plan_id":"cebpf4jnsgd1na2vs0mg"},{"bike_id":"ea689063-878e-4920-9027-f9ba73cbb66f","system_id":"levelo_inurba_marseille","lat":43.23195,"lon":5.35538,"is_reserved":false,"is_disabled":false,"rental_uris":{"android":"levelo://app?vid=ea689063-878e-4920-9027-f9ba73cbb66f","ios":"levelo://app?vid=ea689063-878e-4920-9027-f9ba73cbb66f"},"vehicle_type_id":"4","last_reported":1728148105,"current_range_meters":15200,"station_id":"ce4bhu92rcd13ifvqi70","pricing_plan_id":"cebpf4jnsgd1na2vs0mg"},{"bike_id":"90d63c3c-7227-4cd8-8b04-c61f67f74543","system_id":"levelo_inurba_marseille","lat":43.337444,"lon":5.374475,"is_reserved":false,"is_disabled":false,"rental_uris":{"android":"levelo://app?vid=90d63c3c-7227-4cd8-8b04-c61f67f74543","ios":"levelo://app?vid=90d63c3c-7227-4cd8-8b04-c61f67f74543"},"vehicle_type_id":"4","last_reported":1728148105,"current_range_meters":16800,"station_id":"","pricing_plan_id":"cebpf4jnsgd1na2vs0mg"},{"bike_id":"64a9d12f-8192-41c5-baa5-ece56655fa1a","system_id":"levelo_inurba_marseille","lat":43.29,"lon":5.35612,"is_reserved":false,"is_disabled":false,"rental_uris":{"android":"levelo://app?vid=64a9d12f-8192-41c5-baa5-ece56655fa1a","ios":"levelo://app?vid=64a9d12f-8192-41c5-baa5-ece56655fa1a"},"vehicle_type_id":"4","last_reported":1728148105,"current_range_meters":2800,"station_id":"ce4bhb92rcd13ifvqen0","pricing_plan_id":"cebpf4jnsgd1na2vs0mg"},{"bike_id":"f33f2512-afae-4b93-8700-08ab643818b1","system_id":"levelo_inurba_marseille","lat":43.24647,"lon":5.38892,"is_reserved":false,"is_disabled":false,"rental_uris":{"android":"levelo://app?vid=f33f2512-afae-4b93-8700-08ab643818b1","ios":"levelo://app?vid=f33f2512-afae-4b93-8700-08ab643818b1"},"vehicle_type_id":"4","last_reported":1728148105,"current_range_meters":8000,"station_id":"ce4bhg12rcd13ifvqf60","pricing_plan_id":"cebpf4jnsgd1na2vs0mg"},{"bike_id":"7c81cb38-6c3c-472e-867b-8a70a482e6cd","system_id":"levelo_inurba_marseille","lat":43.28039,"lon":5.36944,"is_reserved":false,"is_disabled":false,"rental_uris":{"android":"levelo://app?vid=7c81cb38-6c3c-472e-867b-8a70a482e6cd","ios":"levelo://app?vid=7c81cb38-6c3c-472e-867b-8a70a482e6cd"},"vehicle_type_id":"4","last_reported":1728148105,"current_range_meters":10800,"station_id":"ce4bha12rcd13ifvqef0","pricing_plan_id":"cebpf4jnsgd1na2vs0mg"},{"bike_id":"4882c05b-7971-48f7-83a0-0043a0e0563b","system_id":"levelo_inurba_marseille","lat":43.28667,"lon":5.38675,"is_reserved":false,"is_disabled":false,"rental_uris":{"android":"levelo://app?vid=4882c05b-7971-48f7-83a0-0043a0e0563b","ios":"levelo://app?vid=4882c05b-7971-48f7-83a0-0043a0e0563b"},"vehicle_type_id":"4","last_reported":1728148105,"current_range_meters":2800,"station_id":"ce4bh492rcd13ifvqdug","pricing_plan_id":"cebpf4jnsgd1na2vs0mg"},{"bike_id":"20a6bf52-7967-4d0f-a972-c576ef6f35c2","system_id":"levelo_inurba_marseille","lat":43.26029,"lon":5.37547,"is_reserved":false,"is_disabled":false,"rental_uris":{"android":"levelo://app?vid=20a6bf52-7967-4d0f-a972-c576ef6f35c2","ios":"levelo://app?vid=20a6bf52-7967-4d0f-a972-c576ef6f35c2"},"vehicle_type_id":"4","last_reported":1728148105,"current_range_meters":37600,"station_id":"ce4bhgh2rcd13ifvqfa0","pricing_plan_id":"cebpf4jnsgd1na2vs0mg"},{"bike_id":"019985ce-6ba5-4647-9fa7-c0ccafd827a9","system_id":"levelo_inurba_marseille","lat":43.302917,"lon":5.392211,"is_reserved":false,"is_disabled":false,"rental_uris":{"android":"levelo://app?vid=019985ce-6ba5-4647-9fa7-c0ccafd827a9","ios":"levelo://app?vid=019985ce-6ba5-4647-9fa7-c0ccafd827a9"},"vehicle_type_id":"4","last_reported":1728148105,"current_range_meters":36800,"station_id":"ce4bgn92rcd13ifvqbvg","pricing_plan_id":"cebpf4jnsgd1na2vs0mg"},{"bike_id":"47be3b66-a576-4aef-93ad-73fc500a64a0","system_id":"levelo_inurba_marseille","lat":43.29038,"lon":5.35913,"is_reserved":false,"is_disabled":false,"rental_uris":{"android":"levelo://app?vid=47be3b66-a576-4aef-93ad-73fc500a64a0","ios":"levelo://app?vid=47be3b66-a576-4aef-93ad-73fc500a64a0"},"vehicle_type_id":"4","last_reported":1728148105,"current_range_meters":12400,"station_id":"ce4bha92rcd13ifvqeg0","pricing_plan_id":"cebpf4jnsgd1na2vs0mg"},{"bike_id":"199c18c7-77fd-44f3-95d9-8d7b04ccab44","system_id":"levelo_inurba_marseille","lat":43.33757,"lon":5.37447,"is_reserved":false,"is_disabled":false,"rental_uris":{"android":"levelo://app?vid=199c18c7-77fd-44f3-95d9-8d7b04ccab44","ios":"levelo://app?vid=199c18c7-77fd-44f3-95d9-8d7b04ccab44"},"vehicle_type_id":"4","last_reported":1728148105,"current_range_meters":37600,"station_id":"","pricing_plan_id":"cebpf4jnsgd1na2vs0mg"},{"bike_id":"795e63e4-605d-4bf5-bf15-1d62276fce93","system_id":"levelo_inurba_marseille","lat":43.24804,"lon":5.37458,"is_reserved":false,"is_disabled":false,"rental_uris":{"android":"levelo://app?vid=795e63e4-605d-4bf5-bf15-1d62276fce93","ios":"levelo://app?vid=795e63e4-605d-4bf5-bf15-1d62276fce93"},"vehicle_type_id":"4","last_reported":1728148105,"current_range_meters":26000,"station_id":"ce4bhgh2rcd13ifvqfb0","pricing_plan_id":"cebpf4jnsgd1na2vs0mg"},{"bike_id":"faa94dcb-7f76-4d39-973c-eed1c645a828","system_id":"levelo_inurba_marseille","lat":43.32473,"lon":5.36582,"is_reserved":false,"is_disabled":false,"rental_uris":{"android":"levelo://app?vid=faa94dcb-7f76-4d39-973c-eed1c645a828","ios":"levelo://app?vid=faa94dcb-7f76-4d39-973c-eed1c645a828"},"vehicle_type_id":"4","last_reported":1728148105,"current_range_meters":9200,"station_id":"ce4bhs12rcd13ifvqhvg","pricing_plan_id":"cebpf4jnsgd1na2vs0mg"},{"bike_id":"f07f9dd3-f719-42a8-a70b-3514bb26016c","system_id":"levelo_inurba_marseille","lat":43.31702,"lon":5.37746,"is_reserved":false,"is_disabled":false,"rental_uris":{"android":"levelo://app?vid=f07f9dd3-f719-42a8-a70b-3514bb26016c","ios":"levelo://app?vid=f07f9dd3-f719-42a8-a70b-3514bb26016c"},"vehicle_type_id":"4","last_reported":1728148105,"current_range_meters":32000,"station_id":"ce4bgth2rcd13ifvqch0","pricing_plan_id":"cebpf4jnsgd1na2vs0mg"},{"bike_id":"0e8d76a5-19b9-48b2-9c61-8cb80be9e0ce","system_id":"levelo_inurba_marseille","lat":43.3093,"lon":5.40146,"is_reserved":false,"is_disabled":false,"rental_uris":{"android":"levelo://app?vid=0e8d76a5-19b9-48b2-9c61-8cb80be9e0ce","ios":"levelo://app?vid=0e8d76a5-19b9-48b2-9c61-8cb80be9e0ce"},"vehicle_type_id":"4","last_reported":1728148105,"current_range_meters":38800,"station_id":"ce4bgvp2rcd13ifvqct0","pricing_plan_id":"cebpf4jnsgd1na2vs0mg"},{"bike_id":"240d53ef-b79d-4e21-ac08-9b5e13b9bec3","system_id":"levelo_inurba_marseille","lat":43.23179,"lon":5.39985,"is_reserved":false,"is_disabled":false,"rental_uris":{"android":"levelo://app?vid=240d53ef-b79d-4e21-ac08-9b5e13b9bec3","ios":"levelo://app?vid=240d53ef-b79d-4e21-ac08-9b5e13b9bec3"},"vehicle_type_id":"4","last_reported":1728148105,"current_range_meters":25200,"station_id":"ce4bhn12rcd13ifvqgqg","pricing_plan_id":"cebpf4jnsgd1na2vs0mg"},{"bike_id":"061f52d2-1386-4c35-a342-13874ce9fff5","system_id":"levelo_inurba_marseille","lat":43.30643,"lon":5.40096,"is_reserved":false,"is_disabled":false,"rental_uris":{"android":"levelo://app?vid=061f52d2-1386-4c35-a342-13874ce9fff5","ios":"levelo://app?vid=061f52d2-1386-4c35-a342-13874ce9fff5"},"vehicle_type_id":"4","last_reported":1728148105,"current_range_meters":17200,"station_id":"ce4bh112rcd13ifvqda0","pricing_plan_id":"cebpf4jnsgd1na2vs0mg"},{"bike_id":"2b79aa02-a7c5-4599-8d32-80e1711bae54","system_id":"levelo_inurba_marseille","lat":43.26555,"lon":5.37289,"is_reserved":false,"is_disabled":false,"rental_uris":{"android":"levelo://app?vid=2b79aa02-a7c5-4599-8d32-80e1711bae54","ios":"levelo://app?vid=2b79aa02-a7c5-4599-8d32-80e1711bae54"},"vehicle_type_id":"4","last_reported":1728148105,"current_range_meters":36800,"station_id":"ce4bhg12rcd13ifvqf70","pricing_plan_id":"cebpf4jnsgd1na2vs0mg"},{"bike_id":"d713615d-dacd-4fcb-9fda-e73e32bbdf61","system_id":"levelo_inurba_marseille","lat":43.33754,"lon":5.3744,"is_reserved":false,"is_disabled":false,"rental_uris":{"android":"levelo://app?vid=d713615d-dacd-4fcb-9fda-e73e32bbdf61","ios":"levelo://app?vid=d713615d-dacd-4fcb-9fda-e73e32bbdf61"},"vehicle_type_id":"4","last_reported":1728148105,"current_range_meters":35600,"station_id":"","pricing_plan_id":"cebpf4jnsgd1na2vs0mg"},{"bike_id":"15f3be37-c70c-4477-8a3c-69249a0bc26d","system_id":"levelo_inurba_marseille","lat":43.297795,"lon":5.371016,"is_reserved":false,"is_disabled":false,"rental_uris":{"android":"levelo://app?vid=15f3be37-c70c-4477-8a3c-69249a0bc26d","ios":"levelo://app?vid=15f3be37-c70c-4477-8a3c-69249a0bc26d"},"vehicle_type_id":"4","last_reported":1728148105,"current_range_meters":13600,"station_id":"ce4bgop2rcd13ifvqc1g","pricing_plan_id":"cebpf4jnsgd1na2vs0mg"},{"bike_id":"5d174f5e-3994-4089-a916-f3a88bd061a7","system_id":"levelo_inurba_marseille","lat":43.29918,"lon":5.37466,"is_reserved":false,"is_disabled":false,"rental_uris":{"android":"levelo://app?vid=5d174f5e-3994-4089-a916-f3a88bd061a7","ios":"levelo://app?vid=5d174f5e-3994-4089-a916-f3a88bd061a7"},"vehicle_type_id":"4","last_reported":1728148105,"current_range_meters":32800,"station_id":"ce4bgjh2rcd13ifvqbg0","pricing_plan_id":"cebpf4jnsgd1na2vs0mg"},{"bike_id":"30087aed-014a-410c-b8b7-a6300355c37d","system_id":"levelo_inurba_marseille","lat":43.298767,"lon":5.38907,"is_reserved":false,"is_disabled":false,"rental_uris":{"android":"levelo://app?vid=30087aed-014a-410c-b8b7-a6300355c37d","ios":"levelo://app?vid=30087aed-014a-410c-b8b7-a6300355c37d"},"vehicle_type_id":"4","last_reported":1728148105,"current_range_meters":6000,"station_id":"ce4bh392rcd13ifvqdl0","pricing_plan_id":"cebpf4jnsgd1na2vs0mg"},{"bike_id":"81a1dfa8-7fad-4d7a-b1eb-1c5a93f70207","system_id":"levelo_inurba_marseille","lat":43.32384,"lon":5.38914,"is_reserved":false,"is_disabled":false,"rental_uris":{"android":"levelo://app?vid=81a1dfa8-7fad-4d7a-b1eb-1c5a93f70207","ios":"levelo://app?vid=81a1dfa8-7fad-4d7a-b1eb-1c5a93f70207"},"vehicle_type_id":"4","last_reported":1728148105,"current_range_meters":33200,"station_id":"ce4bhqp2rcd13ifvqhog","pricing_plan_id":"cebpf4jnsgd1na2vs0mg"},{"bike_id":"e2b49154-80b1-4963-81ce-462e529ba5ce","system_id":"levelo_inurba_marseille","lat":43.25166,"lon":5.37822,"is_reserved":false,"is_disabled":false,"rental_uris":{"android":"levelo://app?vid=e2b49154-80b1-4963-81ce-462e529ba5ce","ios":"levelo://app?vid=e2b49154-80b1-4963-81ce-462e529ba5ce"},"vehicle_type_id":"4","last_reported":1728148105,"current_range_meters":14400,"station_id":"","pricing_plan_id":"cebpf4jnsgd1na2vs0mg"},{"bike_id":"0c19897c-a534-431f-a819-c7305219f4c9","system_id":"levelo_inurba_marseille","lat":43.31356,"lon":5.36711,"is_reserved":false,"is_disabled":false,"rental_uris":{"android":"levelo://app?vid=0c19897c-a534-431f-a819-c7305219f4c9","ios":"levelo://app?vid=0c19897c-a534-431f-a819-c7305219f4c9"},"vehicle_type_id":"4","last_reported":1728148105,"current_range_meters":32400,"station_id":"ce4bgr92rcd13ifvqc6g","pricing_plan_id":"cebpf4jnsgd1na2vs0mg"},{"bike_id":"d0de0b7d-6a62-4f00-858d-f3fac4ecf929","system_id":"levelo_inurba_marseille","lat":43.305328,"lon":5.384209,"is_reserved":false,"is_disabled":false,"rental_uris":{"android":"levelo://app?vid=d0de0b7d-6a62-4f00-858d-f3fac4ecf929","ios":"levelo://app?vid=d0de0b7d-6a62-4f00-858d-f3fac4ecf929"},"vehicle_type_id":"4","last_reported":1728148105,"current_range_meters":27600,"station_id":"ce4bgg92rcd13ifvqb30","pricing_plan_id":"cebpf4jnsgd1na2vs0mg"},{"bike_id":"cf806379-21cd-45d3-b6ec-060a98f8334d","system_id":"levelo_inurba_marseille","lat":43.23068,"lon":5.35491,"is_reserved":false,"is_disabled":false,"rental_uris":{"android":"levelo://app?vid=cf806379-21cd-45d3-b6ec-060a98f8334d","ios":"levelo://app?vid=cf806379-21cd-45d3-b6ec-060a98f8334d"},"vehicle_type_id":"4","last_reported":1728148105,"current_range_meters":20000,"station_id":"cpo3342slgdg3j2ifvpg","pricing_plan_id":"cebpf4jnsgd1na2vs0mg"},{"bike_id":"e38c710e-bf08-4750-b953-823d7d7a3ce6","system_id":"levelo_inurba_marseille","lat":43.28698,"lon":5.37385,"is_reserved":false,"is_disabled":false,"rental_uris":{"android":"levelo://app?vid=e38c710e-bf08-4750-b953-823d7d7a3ce6","ios":"levelo://app?vid=e38c710e-bf08-4750-b953-823d7d7a3ce6"},"vehicle_type_id":"4","last_reported":1728148105,"current_range_meters":14800,"station_id":"ce4bh3p2rcd13ifvqdq0","pricing_plan_id":"cebpf4jnsgd1na2vs0mg"},{"bike_id":"f2d097ae-30d3-4204-a966-e3ea08853967","system_id":"levelo_inurba_marseille","lat":43.33748,"lon":5.37448,"is_reserved":false,"is_disabled":false,"rental_uris":{"android":"levelo://app?vid=f2d097ae-30d3-4204-a966-e3ea08853967","ios":"levelo://app?vid=f2d097ae-30d3-4204-a966-e3ea08853967"},"vehicle_type_id":"4","last_reported":1728148105,"current_range_meters":34000,"station_id":"","pricing_plan_id":"cebpf4jnsgd1na2vs0mg"},{"bike_id":"65730025-6705-4d70-9f06-0f12f0bc298a","system_id":"levelo_inurba_marseille","lat":43.31362,"lon":5.3672,"is_reserved":false,"is_disabled":false,"rental_uris":{"android":"levelo://app?vid=65730025-6705-4d70-9f06-0f12f0bc298a","ios":"levelo://app?vid=65730025-6705-4d70-9f06-0f12f0bc298a"},"vehicle_type_id":"4","last_reported":1728148105,"current_range_meters":36000,"station_id":"ce4bgr92rcd13ifvqc6g","pricing_plan_id":"cebpf4jnsgd1na2vs0mg"},{"bike_id":"3d1ad42b-92b2-49c2-95f3-bfb59e6949d0","system_id":"levelo_inurba_marseille","lat":43.29963,"lon":5.38501,"is_reserved":false,"is_disabled":false,"rental_uris":{"android":"levelo://app?vid=3d1ad42b-92b2-49c2-95f3-bfb59e6949d0","ios":"levelo://app?vid=3d1ad42b-92b2-49c2-95f3-bfb59e6949d0"},"vehicle_type_id":"4","last_reported":1728148105,"current_range_meters":36400,"station_id":"ce4bgj92rcd13ifvqbd0","pricing_plan_id":"cebpf4jnsgd1na2vs0mg"},{"bike_id":"7dbc3f81-827a-4330-8d25-50b8fa587524","system_id":"levelo_inurba_marseille","lat":43.30138,"lon":5.38781,"is_reserved":false,"is_disabled":false,"rental_uris":{"android":"levelo://app?vid=7dbc3f81-827a-4330-8d25-50b8fa587524","ios":"levelo://app?vid=7dbc3f81-827a-4330-8d25-50b8fa587524"},"vehicle_type_id":"4","last_reported":1728148105,"current_range_meters":27200,"station_id":"ce4bghh2rcd13ifvqb60","pricing_plan_id":"cebpf4jnsgd1na2vs0mg"},{"bike_id":"27f842ea-8397-4762-9bc6-e416263eeffe","system_id":"levelo_inurba_marseille","lat":43.2926,"lon":5.38454,"is_reserved":false,"is_disabled":false,"rental_uris":{"android":"levelo://app?vid=27f842ea-8397-4762-9bc6-e416263eeffe","ios":"levelo://app?vid=27f842ea-8397-4762-9bc6-e416263eeffe"},"vehicle_type_id":"4","last_reported":1728148105,"current_range_meters":12800,"station_id":"ce4bh692rcd13ifvqea0","pricing_plan_id":"cebpf4jnsgd1na2vs0mg"},{"bike_id":"5cca0725-0be3-4479-a269-ed6e0d624abf","system_id":"levelo_inurba_marseille","lat":43.28945,"lon":5.3664,"is_reserved":false,"is_disabled":false,"rental_uris":{"android":"levelo://app?vid=5cca0725-0be3-4479-a269-ed6e0d624abf","ios":"levelo://app?vid=5cca0725-0be3-4479-a269-ed6e0d624abf"},"vehicle_type_id":"4","last_reported":1728148105,"current_range_meters":20400,"station_id":"ce4bhap2rcd13ifvqek0","pricing_plan_id":"cebpf4jnsgd1na2vs0mg"},{"bike_id":"a0c66670-67af-4f9b-ac1a-be048a7eb929","system_id":"levelo_inurba_marseille","lat":43.26058,"lon":5.39394,"is_reserved":false,"is_disabled":false,"rental_uris":{"android":"levelo://app?vid=a0c66670-67af-4f9b-ac1a-be048a7eb929","ios":"levelo://app?vid=a0c66670-67af-4f9b-ac1a-be048a7eb929"},"vehicle_type_id":"4","last_reported":1728148105,"current_range_meters":39200,"station_id":"ce4bhh92rcd13ifvqfj0","pricing_plan_id":"cebpf4jnsgd1na2vs0mg"},{"bike_id":"5a116246-a805-4253-b446-435ed8fd9e67","system_id":"levelo_inurba_marseille","lat":43.33745,"lon":5.3746,"is_reserved":false,"is_disabled":false,"rental_uris":{"android":"levelo://app?vid=5a116246-a805-4253-b446-435ed8fd9e67","ios":"levelo://app?vid=5a116246-a805-4253-b446-435ed8fd9e67"},"vehicle_type_id":"4","last_reported":1728148105,"current_range_meters":37600,"station_id":"","pricing_plan_id":"cebpf4jnsgd1na2vs0mg"},{"bike_id":"750000fe-c5b5-48df-b608-5bef58199a42","system_id":"levelo_inurba_marseille","lat":43.28037,"lon":5.36946,"is_reserved":false,"is_disabled":false,"rental_uris":{"android":"levelo://app?vid=750000fe-c5b5-48df-b608-5bef58199a42","ios":"levelo://app?vid=750000fe-c5b5-48df-b608-5bef58199a42"},"vehicle_type_id":"4","last_reported":1728148105,"current_range_meters":38800,"station_id":"ce4bha12rcd13ifvqef0","pricing_plan_id":"cebpf4jnsgd1na2vs0mg"},{"bike_id":"9b541f3f-91bf-46d1-b40a-4f0ae8dd4635","system_id":"levelo_inurba_marseille","lat":43.32538,"lon":5.41446,"is_reserved":false,"is_disabled":false,"rental_uris":{"android":"levelo://app?vid=9b541f3f-91bf-46d1-b40a-4f0ae8dd4635","ios":"levelo://app?vid=9b541f3f-91bf-46d1-b40a-4f0ae8dd4635"},"vehicle_type_id":"4","last_reported":1728148105,"current_range_meters":39200,"station_id":"ce4bhq12rcd13ifvqhhg","pricing_plan_id":"cebpf4jnsgd1na2vs0mg"},{"bike_id":"7c0005fe-f008-4920-99af-6a6f185260ca","system_id":"levelo_inurba_marseille","lat":43.24267,"lon":5.3726,"is_reserved":false,"is_disabled":false,"rental_uris":{"android":"levelo://app?vid=7c0005fe-f008-4920-99af-6a6f185260ca","ios":"levelo://app?vid=7c0005fe-f008-4920-99af-6a6f185260ca"},"vehicle_type_id":"4","last_reported":1728148105,"current_range_meters":4800,"station_id":"ce4bhlh2rcd13ifvqgig","pricing_plan_id":"cebpf4jnsgd1na2vs0mg"},{"bike_id":"1757a047-5b55-4a6b-9a30-d493e5d4b6b8","system_id":"levelo_inurba_marseille","lat":43.25081,"lon":5.39515,"is_reserved":false,"is_disabled":false,"rental_uris":{"android":"levelo://app?vid=1757a047-5b55-4a6b-9a30-d493e5d4b6b8","ios":"levelo://app?vid=1757a047-5b55-4a6b-9a30-d493e5d4b6b8"},"vehicle_type_id":"4","last_reported":1728148105,"current_range_meters":27600,"station_id":"ce4bhm12rcd13ifvqgkg","pricing_plan_id":"cebpf4jnsgd1na2vs0mg"},{"bike_id":"f86f949b-3673-4e1c-9b0d-9ef547a91cf2","system_id":"levelo_inurba_marseille","lat":43.29017,"lon":5.38136,"is_reserved":false,"is_disabled":false,"rental_uris":{"android":"levelo://app?vid=f86f949b-3673-4e1c-9b0d-9ef547a91cf2","ios":"levelo://app?vid=f86f949b-3673-4e1c-9b0d-9ef547a91cf2"},"vehicle_type_id":"4","last_reported":1728148105,"current_range_meters":26800,"station_id":"ce4bh4p2rcd13ifvqe1g","pricing_plan_id":"cebpf4jnsgd1na2vs0mg"},{"bike_id":"e6a279df-12a2-4b07-8344-074c11cb16e9","system_id":"levelo_inurba_marseille","lat":43.2465,"lon":5.38896,"is_reserved":false,"is_disabled":false,"rental_uris":{"android":"levelo://app?vid=e6a279df-12a2-4b07-8344-074c11cb16e9","ios":"levelo://app?vid=e6a279df-12a2-4b07-8344-074c11cb16e9"},"vehicle_type_id":"4","last_reported":1728148105,"current_range_meters":30400,"station_id":"ce4bhg12rcd13ifvqf60","pricing_plan_id":"cebpf4jnsgd1na2vs0mg"},{"bike_id":"af986020-d927-4e99-94de-a06822abfda2","system_id":"levelo_inurba_marseille","lat":43.3199,"lon":5.38157,"is_reserved":false,"is_disabled":false,"rental_uris":{"android":"levelo://app?vid=af986020-d927-4e99-94de-a06822abfda2","ios":"levelo://app?vid=af986020-d927-4e99-94de-a06822abfda2"},"vehicle_type_id":"4","last_reported":1728148105,"current_range_meters":6400,"station_id":"ce4bhr12rcd13ifvqhpg","pricing_plan_id":"cebpf4jnsgd1na2vs0mg"},{"bike_id":"6087a0e7-07e0-409b-9cd9-ffeae257c3b2","system_id":"levelo_inurba_marseille","lat":43.29233,"lon":5.37217,"is_reserved":false,"is_disabled":false,"rental_uris":{"android":"levelo://app?vid=6087a0e7-07e0-409b-9cd9-ffeae257c3b2","ios":"levelo://app?vid=6087a0e7-07e0-409b-9cd9-ffeae257c3b2"},"vehicle_type_id":"4","last_reported":1728148105,"current_range_meters":19200,"station_id":"","pricing_plan_id":"cebpf4jnsgd1na2vs0mg"},{"bike_id":"3df9459c-0dc6-44eb-b10b-9bc950ab6fa7","system_id":"levelo_inurba_marseille","lat":43.28355,"lon":5.38117,"is_reserved":false,"is_disabled":false,"rental_uris":{"android":"levelo://app?vid=3df9459c-0dc6-44eb-b10b-9bc950ab6fa7","ios":"levelo://app?vid=3df9459c-0dc6-44eb-b10b-9bc950ab6fa7"},"vehicle_type_id":"4","last_reported":1728148105,"current_range_meters":30800,"station_id":"ce4bh412rcd13ifvqdr0","pricing_plan_id":"cebpf4jnsgd1na2vs0mg"},