{"last_updated":1738339812,"ttl":60,"version":"2.2","data":{"bikes":[{"bike_id":"99c8e731-f913-430f-a2bc-32d57a5fab53","system_id":"levelo_inurba_marseille","lat":43.28473,"lon":5.38419,"is_reserved":false,"is_disabled":true,"rental_uris":{"android":"levelo://app?vid=99c8e731-f913-430f-a2bc-32d57a5fab53","ios":"levelo://app?vid=99c8e731-f913-430f-a2bc-32d57a5fab53"},"vehicle_type_id":"4","last_reported":1738339812,"current_range_meters":26800,"station_id":"ce4bh512rcd13ifvqe3g","pricing_plan_id":"cebpf4jnsgd1na2vs0mg"},{"bike_id":"988a19a0-a835-408f-8847-3187e4752e18","system_id":"levelo_inurba_marseille","lat":43.29532,"lon":5.39395,"is_reserved":false,"is_disabled":false,"rental_uris":{"android":"levelo://app?vid=988a19a0-a835-408f-8847-3187e4752e18","ios":"levelo://app?vid=988a19a0-a835-408f-8847-3187e4752e18"},"vehicle_type_id":"4","last_reported":1738339812,"current_range_meters":30800,"station_id":"ce4bh292rcd13ifvqdf0","pricing_plan_id":"cebpf4jnsgd1na2vs0mg"},{"bike_id":"9ddcbbf4-a411-4ab3-b0fe-303403a8515c","system_id":"levelo_inurba_marseille","lat":43.25719,"lon":5.4105,"is_reserved":false,"is_disabled":false,"rental_uris":{"android":"levelo://app?vid=9ddcbbf4-a411-4ab3-b0fe-303403a8515c","ios":"levelo://app?vid=9ddcbbf4-a411-4ab3-b0fe-303403a8515c"},"vehicle_type_id":"4","last_reported":1738339812,"current_range_meters":38800,"station_id":"ce4bhkp2rcd13ifvqgd0","pricing_plan_id":"cebpf4jnsgd1na2vs0mg"},{"bike_id":"11c6cd56-82c1-4aa8-9050-0a5f6805a818","system_id":"levelo_inurba_marseille","lat":43.29308,"lon":5.3747,"is_reserved":false,"is_disabled":false,"rental_uris":{"android":"levelo://app?vid=11c6cd56-82c1-4aa8-9050-0a5f6805a818","ios":"levelo://app?vid=11c6cd56-82c1-4aa8-9050-0a5f6805a818"},"vehicle_type_id":"4","last_reported":1738339812,"current_range_meters":38000,"station_id":"ce4bgi12rcd13ifvqb70","pricing_plan_id":"cebpf4jnsgd1na2vs0mg"},{"bike_id":"b09cdcf8-d03c-4b24-b253-3208673e4893","system_id":"levelo_inurba_marseille","lat":43.28153,"lon":5.42651,"is_reserved":false,"is_disabled":false,"rental_uris":{"android":"levelo://app?vid=b09cdcf8-d03c-4b24-b253-3208673e4893","ios":"levelo://app?vid=b09cdcf8-d03c-4b24-b253-3208673e4893"},"vehicle_type_id":"4","last_reported":1738339812,"current_range_meters":18000,"station_id":"ce4bhnh2rcd13ifvqgug","pricing_plan_id":"cebpf4jnsgd1na2vs0mg"},{"bike_id":"b132b05c-d630-4dbe-844b-1d89638307c0","system_id":"levelo_inurba_marseille","lat":43.29534,"lon":5.38547,"is_reserved":false,"is_disabled":false,"rental_uris":{"android":"levelo://app?vid=b132b05c-d630-4dbe-844b-1d89638307c0","ios":"levelo://app?vid=b132b05c-d630-4dbe-844b-1d89638307c0"},"vehicle_type_id":"4","last_reported":1738339812,"current_range_meters":16400,"station_id":"ce4bgih2rcd13ifvqba0","pricing_plan_id":"cebpf4jnsgd1na2vs0mg"},{"bike_id":"a29f2ed6-789c-4de7-baa7-a46b6c8fb832","system_id":"levelo_inurba_marseille","lat":43.30144,"lon":5.38086,"is_reserved":false,"is_disabled":false,"rental_uris":{"android":"levelo://app?vid=a29f2ed6-789c-4de7-baa7-a46b6c8fb832","ios":"levelo://app?vid=a29f2ed6-789c-4de7-baa7-a46b6c8fb832"},"vehicle_type_id":"4","last_reported":1738339812,"current_range_meters":10000,"station_id":"ce4bgjp2rcd13ifvqbh0","pricing_plan_id":"cebpf4jnsgd1na2vs0mg"},{"bike_id":"e3bd597c-c7e5-4110-a93b-4281c14b2f12","system_id":"levelo_inurba_marseille","lat":43.26568,"lon":5.39027,"is_reserved":false,"is_disabled":false,"rental_uris":{"android":"levelo://app?vid=e3bd597c-c7e5-4110-a93b-4281c14b2f12","ios":"levelo://app?vid=e3bd597c-c7e5-4110-a93b-4281c14b2f12"},"vehicle_type_id":"4","last_reported":1738339812,"current_range_meters":24000,"station_id":"ce4bhe12rcd13ifvqf30","pricing_plan_id":"cebpf4jnsgd1na2vs0mg"},{"bike_id":"9589ffb9-c7bb-4b69-9093-3f10a1b7ad66","system_id":"levelo_inurba_marseille","lat":43.32045,"lon":5.41571,"is_reserved":false,"is_disabled":false,"rental_uris":{"android":"levelo://app?vid=9589ffb9-c7bb-4b69-9093-3f10a1b7ad66","ios":"levelo://app?vid=9589ffb9-c7bb-4b69-9093-3f10a1b7ad66"},"vehicle_type_id":"4","last_reported":1738339812,"current_range_meters":24800,"station_id":"ce4bhq92rcd13ifvqhkg","pricing_plan_id":"cebpf4jnsgd1na2vs0mg"},{"bike_id":"fb2359d4-b332-4ddc-b4ca-36110511a449","system_id":"levelo_inurba_marseille","lat":43.30945,"lon":5.390325,"is_reserved":false,"is_disabled":false,"rental_uris":{"android":"levelo://app?vid=fb2359d4-b332-4ddc-b4ca-36110511a449","ios":"levelo://app?vid=fb2359d4-b332-4ddc-b4ca-36110511a449"},"vehicle_type_id":"4","last_reported":1738339812,"current_range_meters":36000,"station_id":"ce4bgup2rcd13ifvqco0","pricing_plan_id":"cebpf4jnsgd1na2vs0mg"},{"bike_id":"e9559856-b97a-49f4-8741-09cd10b492ee","system_id":"levelo_inurba_marseille","lat":43.28417,"lon":5.3499,"is_reserved":false,"is_disabled":false,"rental_uris":{"android":"levelo://app?vid=e9559856-b97a-49f4-8741-09cd10b492ee","ios":"levelo://app?vid=e9559856-b97a-49f4-8741-09cd10b492ee"},"vehicle_type_id":"4","last_reported":1738339812,"current_range_meters":24800,"station_id":"ce4bhbh2rcd13ifvqepg","pricing_plan_id":"cebpf4jnsgd1na2vs0mg"},{"bike_id":"8126c25c-c3a2-4cdd-a2e4-d380d215e724","system_id":"levelo_inurba_marseille","lat":43.268059,"lon":5.40265,"is_reserved":false,"is_disabled":false,"rental_uris":{"android":"levelo://app?vid=8126c25c-c3a2-4cdd-a2e4-d380d215e724","ios":"levelo://app?vid=8126c25c-c3a2-4cdd-a2e4-d380d215e724"},"vehicle_type_id":"4","last_reported":1738339812,"current_range_meters":38000,"station_id":"ce501612rcd8frsf0b60","pricing_plan_id":"cebpf4jnsgd1na2vs0mg"},{"bike_id":"0d366395-356d-4993-8063-b4c8bcc3de67","system_id":"levelo_inurba_marseille","lat":43.28945,"lon":5.36391,"is_reserved":false,"is_disabled":false,"rental_uris":{"android":"levelo://app?vid=0d366395-356d-4993-8063-b4c8bcc3de67","ios":"levelo://app?vid=0d366395-356d-4993-8063-b4c8bcc3de67"},"vehicle_type_id":"4","last_reported":1738339812,"current_range_meters":19600,"station_id":"ce4bhb12rcd13ifvqel0","pricing_plan_id":"cebpf4jnsgd1na2vs0mg"},{"bike_id":"534c086f-4419-4511-a4ca-a912a0401085","system_id":"levelo_inurba_marseille","lat":43.25868,"lon":5.39898,"is_reserved":false,"is_disabled":true,"rental_uris":{"android":"levelo://app?vid=534c086f-4419-4511-a4ca-a912a0401085","ios":"levelo://app?vid=534c086f-4419-4511-a4ca-a912a0401085"},"vehicle_type_id":"4","last_reported":1738339812,"current_range_meters":0,"station_id":"ce4bhl92rcd13ifvqghg","pricing_plan_id":"cebpf4jnsgd1na2vs0mg"},{"bike_id":"6de811c6-50e6-4e2b-8b21-f20c18788d32","system_id":"levelo_inurba_marseille","lat":43.32043,"lon":5.41549,"is_reserved":false,"is_disabled":false,"rental_uris":{"android":"levelo://app?vid=6de811c6-50e6-4e2b-8b21-f20c18788d32","ios":"levelo://app?vid=6de811c6-50e6-4e2b-8b21-f20c18788d32"},"vehicle_type_id":"4","last_reported":1738339812,"current_range_meters":36400,"station_id":"ce4bhq92rcd13ifvqhkg","pricing_plan_id":"cebpf4jnsgd1na2vs0mg"},{"bike_id":"1fbf3f20-0930-4b85-8900-561217e5a0eb","system_id":"levelo_inurba_marseille","lat":43.30432,"lon":5.41262,"is_reserved":false,"is_disabled":false,"rental_uris":{"android":"levelo://app?vid=1fbf3f20-0930-4b85-8900-561217e5a0eb","ios":"levelo://app?vid=1fbf3f20-0930-4b85-8900-561217e5a0eb"},"vehicle_type_id":"4","last_reported":1738339812,"current_range_meters":27600,"station_id":"ce4bhop2rcd13ifvqh8g","pricing_plan_id":"cebpf4jnsgd1na2vs0mg"},{"bike_id":"0ed8a6c6-eadb-4bd0-a58f-0b8be240ba0c","system_id":"levelo_inurba_marseille","lat":43.27813,"lon":5.407095,"is_reserved":false,"is_disabled":false,"rental_uris":{"android":"levelo://app?vid=0ed8a6c6-eadb-4bd0-a58f-0b8be240ba0c","ios":"levelo://app?vid=0ed8a6c6-eadb-4bd0-a58f-0b8be240ba0c"},"vehicle_type_id":"4","last_reported":1738339812,"current_range_meters":26000,"station_id":"ce4bhnh2rcd13ifvqgtg","pricing_plan_id":"cebpf4jnsgd1na2vs0mg"},{"bike_id":"ee082be5-29f6-4e91-8343-b7b0c9fcdff1","system_id":"levelo_inurba_marseille","lat":43.25083,"lon":5.39515,"is_reserved":false,"is_disabled":false,"rental_uris":{"android":"levelo://app?vid=ee082be5-29f6-4e91-8343-b7b0c9fcdff1","ios":"levelo://app?vid=ee082be5-29f6-4e91-8343-b7b0c9fcdff1"},"vehicle_type_id":"4","last_reported":1738339812,"current_range_meters":32800,"station_id":"ce4bhm12rcd13ifvqgkg","pricing_plan_id":"cebpf4jnsgd1na2vs0mg"},{"bike_id":"28bd14cb-2025-4f1c-960d-ea30bb604979","system_id":"levelo_inurba_marseille","lat":43.30154,"lon":5.38099,"is_reserved":false,"is_disabled":false,"rental_uris":{"android":"levelo://app?vid=28bd14cb-2025-4f1c-960d-ea30bb604979","ios":"levelo://app?vid=28bd14cb-2025-4f1c-960d-ea30bb604979"},"vehicle_type_id":"4","last_reported":1738339812,"current_range_meters":28000,"station_id":"ce4bgjp2rcd13ifvqbh0","pricing_plan_id":"cebpf4jnsgd1na2vs0mg"},{"bike_id":"23f78061-2e6e-4c05-812e-55ea5a69a776","system_id":"levelo_inurba_marseille","lat":43.29271,"lon":5.40902,"is_reserved":false,"is_disabled":false,"rental_uris":{"android":"levelo://app?vid=23f78061-2e6e-4c05-812e-55ea5a69a776","ios":"levelo://app?vid=23f78061-2e6e-4c05-812e-55ea5a69a776"},"vehicle_type_id":"4","last_reported":1738339812,"current_range_meters":38800,"station_id":"ce4bh192rcd13ifvqdc0","pricing_plan_id":"cebpf4jnsgd1na2vs0mg"},{"bike_id":"e99c90aa-e079-42e2-a963-1534829ba9c7","system_id":"levelo_inurba_marseille","lat":43.26194,"lon":5.37458,"is_reserved":false,"is_disabled":false,"rental_uris":{"android":"levelo://app?vid=e99c90aa-e079-42e2-a963-1534829ba9c7","ios":"levelo://app?vid=e99c90aa-e079-42e2-a963-1534829ba9c7"},"vehicle_type_id":"4","last_reported":1738339812,"current_range_meters":30800,"station_id":"ce4bhgp2rcd13ifvqfc0","pricing_plan_id":"cebpf4jnsgd1na2vs0mg"},{"bike_id":"217de6f9-0d4a-40eb-b60e-143c6d70feb4","system_id":"levelo_inurba_marseille","lat":43.26496,"lon":5.39539,"is_reserved":false,"is_disabled":false,"rental_uris":{"android":"levelo://app?vid=217de6f9-0d4a-40eb-b60e-143c6d70feb4","ios":"levelo://app?vid=217de6f9-0d4a-40eb-b60e-143c6d70feb4"},"vehicle_type_id":"4","last_reported":1738339812,"current_range_meters":37600,"station_id":"ce4bhi12rcd13ifvqfq0","pricing_plan_id":"cebpf4jnsgd1na2vs0mg"},{"bike_id":"472815ce-dd78-4e4c-82e8-cea31da48d22","system_id":"levelo_inurba_marseille","lat":43.33732,"lon":5.39171,"is_reserved":false,"is_disabled":false,"rental_uris":{"android":"levelo://app?vid=472815ce-dd78-4e4c-82e8-cea31da48d22","ios":"levelo://app?vid=472815ce-dd78-4e4c-82e8-cea31da48d22"},"vehicle_type_id":"4","last_reported":1738339812,"current_range_meters":38800,"station_id":"ce4bhr92rcd13ifvqhsg","pricing_plan_id":"cebpf4jnsgd1na2vs0mg"},{"bike_id":"cc47836a-b908-432f-8e0e-2f793407f141","system_id":"levelo_inurba_marseille","lat":43.2293,"lon":5.3538,"is_reserved":false,"is_disabled":false,"rental_uris":{"android":"levelo://app?vid=cc47836a-b908-432f-8e0e-2f793407f141","ios":"levelo://app?vid=cc47836a-b908-432f-8e0e-2f793407f141"},"vehicle_type_id":"4","last_reported":1738339812,"current_range_meters":9600,"station_id":"cpo3532slgdg3j2ikp40","pricing_plan_id":"cebpf4jnsgd1na2vs0mg"},{"bike_id":"dc88a78b-618f-4f83-8a69-83b165a245fb","system_id":"levelo_inurba_marseille","lat":43.27565,"lon":5.38417,"is_reserved":false,"is_disabled":false,"rental_uris":{"android":"levelo://app?vid=dc88a78b-618f-4f83-8a69-83b165a245fb","ios":"levelo://app?vid=dc88a78b-618f-4f83-8a69-83b165a245fb"},"vehicle_type_id":"4","last_reported":1738339812,"current_range_meters":29600,"station_id":"ce4bhh92rcd13ifvqfi0","pricing_plan_id":"cebpf4jnsgd1na2vs0mg"},{"bike_id":"f80287fc-a2f4-4c37-8f2b-cadf84efecb2","system_id":"levelo_inurba_marseille","lat":43.29543,"lon":5.42274,"is_reserved":false,"is_disabled":false,"rental_uris":{"android":"levelo://app?vid=f80287fc-a2f4-4c37-8f2b-cadf84efecb2","ios":"levelo://app?vid=f80287fc-a2f4-4c37-8f2b-cadf84efecb2"},"vehicle_type_id":"4","last_reported":1738339812,"current_range_meters":38800,"station_id":"ce4bhph2rcd13ifvqhdg","pricing_plan_id":"cebpf4jnsgd1na2vs0mg"},{"bike_id":"b538052b-7807-4981-ae5b-b919ca321553","system_id":"levelo_inurba_marseille","lat":43.28073,"lon":5.39663,"is_reserved":false,"is_disabled":false,"rental_uris":{"android":"levelo://app?vid=b538052b-7807-4981-ae5b-b919ca321553","ios":"levelo://app?vid=b538052b-7807-4981-ae5b-b919ca321553"},"vehicle_type_id":"4","last_reported":1738339812,"current_range_meters":30800,"station_id":"ce4bho12rcd13ifvqh2g","pricing_plan_id":"cebpf4jnsgd1na2vs0mg"},{"bike_id":"c748f5db-26ad-44e4-a2b6-f4f0efc94e29","system_id":"levelo_inurba_marseille","lat":43.30148,"lon":5.37422,"is_reserved":false,"is_disabled":false,"rental_uris":{"android":"levelo://app?vid=c748f5db-26ad-44e4-a2b6-f4f0efc94e29","ios":"levelo://app?vid=c748f5db-26ad-44e4-a2b6-f4f0efc94e29"},"vehicle_type_id":"4","last_reported":1738339812,"current_range_meters":27200,"station_id":"ce4bgs92rcd13ifvqcc0","pricing_plan_id":"cebpf4jnsgd1na2vs0mg"},{"bike_id":"7fbc607b-e12b-47bd-a53f-1c18ac62adfd","system_id":"levelo_inurba_marseille","lat":43.2783,"lon":5.40698,"is_reserved":false,"is_disabled":false,"rental_uris":{"android":"levelo://app?vid=7fbc607b-e12b-47bd-a53f-1c18ac62adfd","ios":"levelo://app?vid=7fbc607b-e12b-47bd-a53f-1c18ac62adfd"},"vehicle_type_id":"4","last_reported":1738339812,"current_range_meters":32800,"station_id":"ce4bhnh2rcd13ifvqgtg","pricing_plan_id":"cebpf4jnsgd1na2vs0mg"},{"bike_id":"735cf356-6ca7-4c83-bf25-d301ccde8042","system_id":"levelo_inurba_marseille","lat":43.27182,"lon":5.40978,"is_reserved":false,"is_disabled":false,"rental_uris":{"android":"levelo://app?vid=735cf356-6ca7-4c83-bf25-d301ccde8042","ios":"levelo://app?vid=735cf356-6ca7-4c83-bf25-d301ccde8042"},"vehicle_type_id":"4","last_reported":1738339812,"current_range_meters":25600,"station_id":"ce4bhl12rcd13ifvqgf0","pricing_plan_id":"cebpf4jnsgd1na2vs0mg"},{"bike_id":"04ebdb01-8d84-455a-8026-d32a9e3c42a1","system_id":"levelo_inurba_marseille","lat":43.29628,"lon":5.40603,"is_reserved":false,"is_disabled":false,"rental_uris":{"android":"levelo://app?vid=04ebdb01-8d84-455a-8026-d32a9e3c42a1","ios":"levelo://app?vid=04ebdb01-8d84-455a-8026-d32a9e3c42a1"},"vehicle_type_id":"4","last_reported":1738339812,"current_range_meters":28400,"station_id":"ce4bh0h2rcd13ifvqd60","pricing_plan_id":"cebpf4jnsgd1na2vs0mg"},{"bike_id":"db7f3b10-3249-4ef1-b2d2-417c75340e93","system_id":"levelo_inurba_marseille","lat":43.26815,"lon":5.40224,"is_reserved":false,"is_disabled":false,"rental_uris":{"android":"levelo://app?vid=db7f3b10-3249-4ef1-b2d2-417c75340e93","ios":"levelo://app?vid=db7f3b10-3249-4ef1-b2d2-417c75340e93"},"vehicle_type_id":"4","last_reported":1738339812,"current_range_meters":37600,"station_id":"ce501612rcd8frsf0b60","pricing_plan_id":"cebpf4jnsgd1na2vs0mg"},{"bike_id":"606053f9-3da2-4594-b4df-8e24b5fa812c","system_id":"levelo_inurba_marseille","lat":43.26947,"lon":5.40261,"is_reserved":false,"is_disabled":false,"rental_uris":{"android":"levelo://app?vid=606053f9-3da2-4594-b4df-8e24b5fa812c","ios":"levelo://app?vid=606053f9-3da2-4594-b4df-8e24b5fa812c"},"vehicle_type_id":"4","last_reported":1738339812,"current_range_meters":37600,"station_id":"cjm6bp8fraef2m0cb0m0","pricing_plan_id":"cebpf4jnsgd1na2vs0mg"},{"bike_id":"8838e785-ddde-4529-b2e2-2393a68c07bc","system_id":"levelo_inurba_marseille","lat":43.31486,"lon":5.37304,"is_reserved":false,"is_disabled":true,"rental_uris":{"android":"levelo://app?vid=8838e785-ddde-4529-b2e2-2393a68c07bc","ios":"levelo://app?vid=8838e785-ddde-4529-b2e2-2393a68c07bc"},"vehicle_type_id":"4","last_reported":1738339812,"current_range_meters":0,"station_id":"ce4bgt12rcd13ifvqcd0","pricing_plan_id":"cebpf4jnsgd1na2vs0mg"},{"bike_id":"0b0615a4-2ced-4b55-b9bc-ede4d343349e","system_id":"levelo_inurba_marseille","lat":43.24398,"lon":5.37063,"is_reserved":false,"is_disabled":false,"rental_uris":{"android":"levelo://app?vid=0b0615a4-2ced-4b55-b9bc-ede4d343349e","ios":"levelo://app?vid=0b0615a4-2ced-4b55-b9bc-ede4d343349e"},"vehicle_type_id":"4","last_reported":1738339812,"current_range_meters":18800,"station_id":"ce4bhhh2rcd13ifvqfk0","pricing_plan_id":"cebpf4jnsgd1na2vs0mg"},{"bike_id":"5cd5a23a-ab00-4fbc-8a6c-45981dcdea3e","system_id":"levelo_inurba_marseille","lat":43.23964,"lon":5.36635,"is_reserved":false,"is_disabled":false,"rental_uris":{"android":"levelo://app?vid=5cd5a23a-ab00-4fbc-8a6c-45981dcdea3e","ios":"levelo://app?vid=5cd5a23a-ab00-4fbc-8a6c-45981dcdea3e"},"vehicle_type_id":"4","last_reported":1738339812,"current_range_meters":9200,"station_id":"ce4bhi12rcd13ifvqfp0","pricing_plan_id":"cebpf4jnsgd1na2vs0mg"},{"bike_id":"db14cd8a-5ba9-45f6-b197-f717b13b5230","system_id":"levelo_inurba_marseille","lat":43.2986,"lon":5.36251,"is_reserved":false,"is_disabled":false,"rental_uris":{"android":"levelo://app?vid=db14cd8a-5ba9-45f6-b197-f717b13b5230","ios":"levelo://app?vid=db14cd8a-5ba9-45f6-b197-f717b13b5230"},"vehicle_type_id":"4","last_reported":1738339812,"current_range_meters":39200,"station_id":"ce4bgpp2rcd13ifvqc3g","pricing_plan_id":"cebpf4jnsgd1na2vs0mg"},{"bike_id":"808232f1-e991-4dd8-8765-6f4f5aba4517","system_id":"levelo_inurba_marseille","lat":43.33687,"lon":5.4087,"is_reserved":false,"is_disabled":true,"rental_uris":{"android":"levelo://app?vid=808232f1-e991-4dd8-8765-6f4f5aba4517","ios":"levelo://app?vid=808232f1-e991-4dd8-8765-6f4f5aba4517"},"vehicle_type_id":"4","last_reported":1738339812,"current_range_meters":0,"station_id":"ce4bhqh2rcd13ifvqhmg","pricing_plan_id":"cebpf4jnsgd1na2vs0mg"},{"bike_id":"0f5acdd1-b69b-4f8c-ab18-c14c778751b0","system_id":"levelo_inurba_marseille","lat":43.28702,"lon":5.3998,"is_reserved":false,"is_disabled":true,"rental_uris":{"android":"levelo://app?vid=0f5acdd1-b69b-4f8c-ab18-c14c778751b0","ios":"levelo://app?vid=0f5acdd1-b69b-4f8c-ab18-c14c778751b0"},"vehicle_type_id":"4","last_reported":1738339812,"current_range_meters":800,"station_id":"ce4bho92rcd13ifvqh3g","pricing_plan_id":"cebpf4jnsgd1na2vs0mg"},{"bike_id":"4f9f672f-8d17-4a83-9b3c-c5c017fff7ba","system_id":"levelo_inurba_marseille","lat":43.24665,"lon":5.3813,"is_reserved":false,"is_disabled":false,"rental_uris":{"android":"levelo://app?vid=4f9f672f-8d17-4a83-9b3c-c5c017fff7ba","ios":"levelo://app?vid=4f9f672f-8d17-4a83-9b3c-c5c017fff7ba"},"vehicle_type_id":"4","last_reported":1738339812,"current_range_meters":38800,"station_id":"ce4bhih2rcd13ifvqfr0","pricing_plan_id":"cebpf4jnsgd1na2vs0mg"},{"bike_id":"9f7cbc3c-6e0b-4442-8c70-64c0b2a1452e","system_id":"levelo_inurba_marseille","lat":43.2307,"lon":5.35488,"is_reserved":false,"is_disabled":false,"rental_uris":{"android":"levelo://app?vid=9f7cbc3c-6e0b-4442-8c70-64c0b2a1452e","ios":"levelo://app?vid=9f7cbc3c-6e0b-4442-8c70-64c0b2a1452e"},"vehicle_type_id":"4","last_reported":1738339812,"current_range_meters":38800,"station_id":"cpo3342slgdg3j2ifvpg","pricing_plan_id":"cebpf4jnsgd1na2vs0mg"},{"bike_id":"c8a3a0ed-dff2-4f3c-87dc-2e6b47b1ad28","system_id":"levelo_inurba_marseille","lat":43.337444,"lon":5.374475,"is_reserved":false,"is_disabled":true,"rental_uris":{"android":"levelo://app?vid=c8a3a0ed-dff2-4f3c-87dc-2e6b47b1ad28","ios":"levelo://app?vid=c8a3a0ed-dff2-4f3c-87dc-2e6b47b1ad28"},"vehicle_type_id":"4","last_reported":1738339812,"current_range_meters":0,"station_id":"","pricing_plan_id":"cebpf4jnsgd1na2vs0mg"},{"bike_id":"20d13492-56d3-4c8a-9cd8-d74200f79a48","system_id":"levelo_inurba_marseille","lat":43.2827,"lon":5.35063,"is_reserved":false,"is_disabled":false,"rental_uris":{"android":"levelo://app?vid=20d13492-56d3-4c8a-9cd8-d74200f79a48","ios":"levelo://app?vid=20d13492-56d3-4c8a-9cd8-d74200f79a48"},"vehicle_type_id":"4","last_reported":1738339812,"current_range_meters":12400,"station_id":"ce4bhbp2rcd13ifvqerg","pricing_plan_id":"cebpf4jnsgd1na2vs0mg"},{"bike_id":"0ca64129-63ca-480d-a228-e4b0575b143c","system_id":"levelo_inurba_marseille","lat":43.28703,"lon":5.3739,"is_reserved":false,"is_disabled":false,"rental_uris":{"android":"levelo://app?vid=0ca64129-63ca-480d-a228-e4b0575b143c","ios":"levelo://app?vid=0ca64129-63ca-480d-a228-e4b0575b143c"},"vehicle_type_id":"4","last_reported":1738339812,"current_range_meters":28000,"station_id":"ce4bh3p2rcd13ifvqdq0","pricing_plan_id":"cebpf4jnsgd1na2vs0mg"},{"bike_id":"730557a1-6463-447d-ae6e-4f062687878b","system_id":"levelo_inurba_marseille","lat":43.27204,"lon":5.391944,"is_reserved":false,"is_disabled":false,"rental_uris":{"android":"levelo://app?vid=730557a1-6463-447d-ae6e-4f062687878b","ios":"levelo://app?vid=730557a1-6463-447d-ae6e-4f062687878b"},"vehicle_type_id":"4","last_reported":1738339812,"current_range_meters":37600,"station_id":"ce4bhhp2rcd13ifvqfm0","pricing_plan_id":"cebpf4jnsgd1na2vs0mg"},{"bike_id":"7247902a-635d-4f06-9cf7-f11e089c2d38","system_id":"levelo_inurba_marseille","lat":43.26953,"lon":5.4024,"is_reserved":false,"is_disabled":false,"rental_uris":{"android":"levelo://app?vid=7247902a-635d-4f06-9cf7-f11e089c2d38","ios":"levelo://app?vid=7247902a-635d-4f06-9cf7-f11e089c2d38"},"vehicle_type_id":"4","last_reported":1738339812,"current_range_meters":37600,"station_id":"cjm6bp8fraef2m0cb0m0","pricing_plan_id":"cebpf4jnsgd1na2vs0mg"},{"bike_id":"b9dfdd12-ed8d-4873-9fc8-0a1849f2020b","system_id":"levelo_inurba_marseille","lat":43.26805,"lon":5.40259,"is_reserved":false,"is_disabled":false,"rental_uris":{"android":"levelo://app?vid=b9dfdd12-ed8d-4873-9fc8-0a1849f2020b","ios":"levelo://app?vid=b9dfdd12-ed8d-4873-9fc8-0a1849f2020b"},"vehicle_type_id":"4","last_reported":1738339812,"current_range_meters":38000,"station_id":"ce501612rcd8frsf0b60","pricing_plan_id":"cebpf4jnsgd1na2vs0mg"},{"bike_id":"9ffb53f2-75cf-4efb-91e5-62d275a6f182","system_id":"levelo_inurba_marseille","lat":43.29094,"lon":5.38145,"is_reserved":false,"is_disabled":false,"rental_uris":{"android":"levelo://app?vid=9ffb53f2-75cf-4efb-91e5-62d275a6f182","ios":"levelo://app?vid=9ffb53f2-75cf-4efb-91e5-62d275a6f182"},"vehicle_type_id":"4","last_reported":1738339812,"current_range_meters":35600,"station_id":"ce4bh512rcd13ifvqe2g","pricing_plan_id":"cebpf4jnsgd1na2vs0mg"},{"bike_id":"32802d31-82e5-49aa-928e-45336ddb5e58","system_id":"levelo_inurba_marseille","lat":43.25019,"lon":5.38934,"is_reserved":false,"is_disabled":false,"rental_uris":{"android":"levelo://app?vid=32802d31-82e5-49aa-928e-45336ddb5e58","ios":"levelo://app?vid=32802d31-82e5-49aa-928e-45336ddb5e58"},"vehicle_type_id":"4","last_reported":1738339812,"current_range_meters":38800,"station_id":"ce4bhgp2rcd13ifvqfd0","pricing_plan_id":"cebpf4jnsgd1na2vs0mg"},{"bike_id":"d06240a3-8895-42e8-9212-5c068d44e9d2","system_id":"levelo_inurba_marseille","lat":43.28599,"lon":5.35119,"is_reserved":false,"is_disabled":false,"rental_uris":{"android":"levelo://app?vid=d06240a3-8895-42e8-9212-5c068d44e9d2","ios":"levelo://app?vid=d06240a3-8895-42e8-9212-5c068d44e9d2"},"vehicle_type_id":"4","last_reported":1738339812,"current_range_meters":26000,"station_id":"ce4bhch2rcd13ifvqeug","pricing_plan_id":"cebpf4jnsgd1na2vs0mg"},{"bike_id":"a61ed06e-f050-4de5-be8b-09d8eeaca742","system_id":"levelo_inurba_marseille","lat":43.292673,"lon":5.384483,"is_reserved":false,"is_disabled":true,"rental_uris":{"android":"levelo://app?vid=a61ed06e-f050-4de5-be8b-09d8eeaca742","ios":"levelo://app?vid=a61ed06e-f050-4de5-be8b-09d8eeaca742"},"vehicle_type_id":"4","last_reported":1738339812,"current_range_meters":1200,"station_id":"ce4bh692rcd13ifvqea0","pricing_plan_id":"cebpf4jnsgd1na2vs0mg"},{"bike_id":"a7e1bb12-c60b-445a-9547-4b41c03d5f68","system_id":"levelo_inurba_marseille","lat":43.2817,"lon":5.42643,"is_reserved":false,"is_disabled":true,"rental_uris":{"android":"levelo://app?vid=a7e1bb12-c60b-445a-9547-4b41c03d5f68","ios":"levelo://app?vid=a7e1bb12-c60b-445a-9547-4b41c03d5f68"},"vehicle_type_id":"4","last_reported":1738339812,"current_range_meters":0,"station_id":"ce4bhnh2rcd13ifvqgug","pricing_plan_id":"cebpf4jnsgd1na2vs0mg"},{"bike_id":"a36de8bd-2e3e-4fb2-8780-295adcb078f0","system_id":"levelo_inurba_marseille","lat":43.26565,"lon":5.3729,"is_reserved":false,"is_disabled":false,"rental_uris":{"android":"levelo://app?vid=a36de8bd-2e3e-4fb2-8780-295adcb078f0","ios":"levelo://app?vid=a36de8bd-2e3e-4fb2-8780-295adcb078f0"},"vehicle_type_id":"4","last_reported":1738339812,"current_range_meters":32400,"station_id":"ce4bhg12rcd13ifvqf70","pricing_plan_id":"cebpf4jnsgd1na2vs0mg"},{"bike_id":"9838cc78-2b53-49d3-ae13-82df62c4fd64","system_id":"levelo_inurba_marseille","lat":43.28412,"lon":5.40934,"is_reserved":false,"is_disabled":true,"rental_uris":{"android":"levelo://app?vid=9838cc78-2b53-49d3-ae13-82df62c4fd64","ios":"levelo://app?vid=9838cc78-2b53-49d3-ae13-82df62c4fd64"},"vehicle_type_id":"4","last_reported":1738339812,"current_range_meters":0,"station_id":"","pricing_plan_id":"cebpf4jnsgd1na2vs0mg"},{"bike_id":"89b42613-6540-4f9b-be12-b035b7ac50e4","system_id":"levelo_inurba_marseille","lat":43.31328,"lon":5.3971,"is_reserved":false,"is_disabled":false,"rental_uris":{"android":"levelo://app?vid=89b42613-6540-4f9b-be12-b035b7ac50e4","ios":"levelo://app?vid=89b42613-6540-4f9b-be12-b035b7ac50e4"},"vehicle_type_id":"4","last_reported":1738339812,"current_range_meters":32000,"station_id":"ce4bgvp2rcd13ifvqcu0","pricing_plan_id":"cebpf4jnsgd1na2vs0mg"},{"bike_id":"81445527-cc14-438c-bdd9-537856230b3a","system_id":"levelo_inurba_marseille","lat":43.29902,"lon":5.39728,"is_reserved":false,"is_disabled":false,"rental_uris":{"android":"levelo://app?vid=81445527-cc14-438c-bdd9-537856230b3a","ios":"levelo://app?vid=81445527-cc14-438c-bdd9-537856230b3a"},"vehicle_type_id":"4","last_reported":1738339812,"current_range_meters":39200,"station_id":"ce4bh0h2rcd13ifvqd50","pricing_plan_id":"cebpf4jnsgd1na2vs0mg"},{"bike_id":"a5646cab-9a7a-46d4-9871-a302b81e6e2b","system_id":"levelo_inurba_marseille","lat":43.29912,"lon":5.39742,"is_reserved":false,"is_disabled":false,"rental_uris":{"android":"levelo://app?vid=a5646cab-9a7a-46d4-9871-a302b81e6e2b","ios":"levelo://app?vid=a5646cab-9a7a-46d4-9871-a302b81e6e2b"},"vehicle_type_id":"4","last_reported":1738339812,"current_range_meters":39200,"station_id":"ce4bh0h2rcd13ifvqd50","pricing_plan_id":"cebpf4jnsgd1na2vs0mg"},{"bike_id":"78b43ac5-e91a-459f-a654-a1d5375a0672","system_id":"levelo_inurba_marseille","lat":43.29899,"lon":5.43682,"is_reserved":false,"is_disabled":false,"rental_uris":{"android":"levelo://app?vid=78b43ac5-e91a-459f-a654-a1d5375a0672","ios":"levelo://app?vid=78b43ac5-e91a-459f-a654-a1d5375a0672"},"vehicle_type_id":"4","last_reported":1738339812,"current_range_meters":12400,"station_id":"ce4bhpp2rcd13ifvqhfg","pricing_plan_id":"cebpf4jnsgd1na2vs0mg"},{"bike_id":"1cc5e25c-3291-404f-9e35-a9ddbf257bea","system_id":"levelo_inurba_marseille","lat":43.29259,"lon":5.40918,"is_reserved":false,"is_disabled":false,"rental_uris":{"android":"levelo://app?vid=1cc5e25c-3291-404f-9e35-a9ddbf257bea","ios":"levelo://app?vid=1cc5e25c-3291-404f-9e35-a9ddbf257bea"},"vehicle_type_id":"4","last_reported":1738339812,"current_range_meters":20400,"station_id":"ce4bh192rcd13ifvqdc0","pricing_plan_id":"cebpf4jnsgd1na2vs0mg"},{"bike_id":"1ccb747b-bf87-4c56-ba8b-4a9d36cd0dd4","system_id":"levelo_inurba_marseille","lat":43.29559,"lon":5.42278,"is_reserved":false,"is_disabled":false,"rental_uris":{"android":"levelo://app?vid=1ccb747b-bf87-4c56-ba8b-4a9d36cd0dd4","ios":"levelo://app?vid=1ccb747b-bf87-4c56-ba8b-4a9d36cd0dd4"},"vehicle_type_id":"4","last_reported":1738339812,"current_range_meters":38800,"station_id":"ce4bhph2rcd13ifvqhdg","pricing_plan_id":"cebpf4jnsgd1na2vs0mg"},{"bike_id":"4bbfab15-7f28-4fb2-9ec3-f938420ec585","system_id":"levelo_inurba_marseille","lat":43.23186,"lon":5.39987,"is_reserved":false,"is_disabled":false,"rental_uris":{"android":"levelo://app?vid=4bbfab15-7f28-4fb2-9ec3-f938420ec585","ios":"levelo://app?vid=4bbfab15-7f28-4fb2-9ec3-f938420ec585"},"vehicle_type_id":"4","last_reported":1738339812,"current_range_meters":12800,"station_id":"ce4bhn12rcd13ifvqgqg","pricing_plan_id":"cebpf4jnsgd1na2vs0mg"},{"bike_id":"3d3683d0-6fa2-4625-8b79-882bbb185c30","system_id":"levelo_inurba_marseille","lat":43.32307,"lon":5.38261,"is_reserved":false,"is_disabled":false,"rental_uris":{"android":"levelo://app?vid=3d3683d0-6fa2-4625-8b79-882bbb185c30","ios":"levelo://app?vid=3d3683d0-6fa2-4625-8b79-882bbb185c30"},"vehicle_type_id":"4","last_reported":1738339812,"current_range_meters":27600,"station_id":"ce4bhr12rcd13ifvqhqg","pricing_plan_id":"cebpf4jnsgd1na2vs0mg"},{"bike_id":"fb86636a-6af8-4ddb-9576-b46abf27dc85","system_id":"levelo_inurba_marseille","lat":43.28268,"lon":5.35084,"is_reserved":false,"is_disabled":false,"rental_uris":{"android":"levelo://app?vid=fb86636a-6af8-4ddb-9576-b46abf27dc85","ios":"levelo://app?vid=fb86636a-6af8-4ddb-9576-b46abf27dc85"},"vehicle_type_id":"4","last_reported":1738339812,"current_range_meters":24000,"station_id":"ce4bhbp2rcd13ifvqerg","pricing_plan_id":"cebpf4jnsgd1na2vs0mg"},{"bike_id":"e28ef4b1-156f-4c62-898f-9a0754569c89","system_id":"levelo_inurba_marseille","lat":43.301614,"lon":5.380868,"is_reserved":false,"is_disabled":false,"rental_uris":{"android":"levelo://app?vid=e28ef4b1-156f-4c62-898f-9a0754569c89","ios":"levelo://app?vid=e28ef4b1-156f-4c62-898f-9a0754569c89"},"vehicle_type_id":"4","last_reported":1738339812,"current_range_meters":32000,"station_id":"ce4bgjp2rcd13ifvqbh0","pricing_plan_id":"cebpf4jnsgd1na2vs0mg"},{"bike_id":"976a519e-e041-4be0-a8ce-cf32f3f91c5d","system_id":"levelo_inurba_marseille","lat":43.30544,"lon":5.36695,"is_reserved":false,"is_disabled":false,"rental_uris":{"android":"levelo://app?vid=976a519e-e041-4be0-a8ce-cf32f3f91c5d","ios":"levelo://app?vid=976a519e-e041-4be0-a8ce-cf32f3f91c5d"},"vehicle_type_id":"4","last_reported":1738339812,"current_range_meters":38400,"station_id":"ce4bgrp2rcd13ifvqc9g","pricing_plan_id":"cebpf4jnsgd1na2vs0mg"},{"bike_id":"fd22cf8a-3d1b-4063-bac1-6f71f21e2052","system_id":"levelo_inurba_marseille","lat":43.30147,"lon":5.3808,"is_reserved":false,"is_disabled":false,"rental_uris":{"android":"levelo://app?vid=fd22cf8a-3d1b-4063-bac1-6f71f21e2052","ios":"levelo://app?vid=fd22cf8a-3d1b-4063-bac1-6f71f21e2052"},"vehicle_type_id":"4","last_reported":1738339812,"current_range_meters":11600,"station_id":"ce4bgjp2rcd13ifvqbh0","pricing_plan_id":"cebpf4jnsgd1na2vs0mg"},{"bike_id":"e2c49145-d80d-4c68-8184-02b30e52c755","system_id":"levelo_inurba_marseille","lat":43.307983,"lon":5.435324,"is_reserved":false,"is_disabled":false,"rental_uris":{"android":"levelo://app?vid=e2c49145-d80d-4c68-8184-02b30e52c755","ios":"levelo://app?vid=e2c49145-d80d-4c68-8184-02b30e52c755"},"vehicle_type_id":"4","last_reported":1738339812,"current_range_meters":25200,"station_id":"ce4bhph2rcd13ifvqheg","pricing_plan_id":"cebpf4jnsgd1na2vs0mg"},{"bike_id":"3ce5a499-04c7-4119-b329-aa2eb1d800cb","system_id":"levelo_inurba_marseille","lat":43.30605,"lon":5.37219,"is_reserved":false,"is_disabled":false,"rental_uris":{"android":"levelo://app?vid=3ce5a499-04c7-4119-b329-aa2eb1d800cb","ios":"levelo://app?vid=3ce5a499-04c7-4119-b329-aa2eb1d800cb"},"vehicle_type_id":"4","last_reported":1738339812,"current_range_meters":20000,"station_id":"ce4bgqh2rcd13ifvqc4g","pricing_plan_id":"cebpf4jnsgd1na2vs0mg"},{"bike_id":"d979d8d2-ec65-47af-9229-e4270aab279a","system_id":"levelo_inurba_marseille","lat":43.23059,"lon":5.35501,"is_reserved":false,"is_disabled":false,"rental_uris":{"android":"levelo://app?vid=d979d8d2-ec65-47af-9229-e4270aab279a","ios":"levelo://app?vid=d979d8d2-ec65-47af-9229-e4270aab279a"},"vehicle_type_id":"4","last_reported":1738339812,"current_range_meters":8800,"station_id":"cpo3342slgdg3j2ifvpg","pricing_plan_id":"cebpf4jnsgd1na2vs0mg"},{"bike_id":"f10d9b40-8520-41ee-b039-cd6e7d066065","system_id":"levelo_inurba_marseille","lat":43.262229,"lon":5.374557,"is_reserved":false,"is_disabled":false,"rental_uris":{"android":"levelo://app?vid=f10d9b40-8520-41ee-b039-cd6e7d066065","ios":"levelo://app?vid=f10d9b40-8520-41ee-b039-cd6e7d066065"},"vehicle_type_id":"4","last_reported":1738339812,"current_range_meters":32800,"station_id":"ce4bhgp2rcd13ifvqfc0","pricing_plan_id":"cebpf4jnsgd1na2vs0mg"},{"bike_id":"98b06fed-dcae-4f3c-956b-a4a1d8c818e9","system_id":"levelo_inurba_marseille","lat":43.29062,"lon":5.35915,"is_reserved":false,"is_disabled":false,"rental_uris":{"android":"levelo://app?vid=98b06fed-dcae-4f3c-956b-a4a1d8c818e9","ios":"levelo://app?vid=98b06fed-dcae-4f3c-956b-a4a1d8c818e9"},"vehicle_type_id":"4","last_reported":1738339812,"current_range_meters":28400,"station_id":"ce4bha92rcd13ifvqeg0","pricing_plan_id":"cebpf4jnsgd1na2vs0mg"},{"bike_id":"7d6260ec-6d8c-4d5b-8950-1a493871014c","system_id":"levelo_inurba_marseille","lat":43.29896,"lon":5.43674,"is_reserved":false,"is_disabled":false,"rental_uris":{"android":"levelo://app?vid=7d6260ec-6d8c-4d5b-8950-1a493871014c","ios":"levelo://app?vid=7d6260ec-6d8c-4d5b-8950-1a493871014c"},"vehicle_type_id":"4","last_reported":1738339812,"current_range_meters":29600,"station_id":"ce4bhpp2rcd13ifvqhfg","pricing_plan_id":"cebpf4jnsgd1na2vs0mg"},{"bike_id":"4288a232-ae1a-4a0e-b7e1-97ede851d38b","system_id":"levelo_inurba_marseille","lat":43.26944,"lon":5.40247,"is_reserved":false,"is_disabled":false,"rental_uris":{"android":"levelo://app?vid=4288a232-ae1a-4a0e-b7e1-97ede851d38b","ios":"levelo://app?vid=4288a232-ae1a-4a0e-b7e1-97ede851d38b"},"vehicle_type_id":"4","last_reported":1738339812,"current_range_meters":27600,"station_id":"cjm6bp8fraef2m0cb0m0","pricing_plan_id":"cebpf4jnsgd1na2vs0mg"},{"bike_id":"f99e91c4-2330-4795-bfe7-3495ca9ba92c","system_id":"levelo_inurba_marseille","lat":43.28937,"lon":5.36627,"is_reserved":false,"is_disabled":true,"rental_uris":{"android":"levelo://app?vid=f99e91c4-2330-4795-bfe7-3495ca9ba92c","ios":"levelo://app?vid=f99e91c4-2330-4795-bfe7-3495ca9ba92c"},"vehicle_type_id":"4","last_reported":1738339812,"current_range_meters":36000,"station_id":"ce4bhap2rcd13ifvqek0","pricing_plan_id":"cebpf4jnsgd1na2vs0mg"},{"bike_id":"396d2bf0-6b5f-403b-bacf-9deaab552e51","system_id":"levelo_inurba_marseille","lat":43.23963,"lon":5.366312,"is_reserved":false,"is_disabled":false,"rental_uris":{"android":"levelo://app?vid=396d2bf0-6b5f-403b-bacf-9deaab552e51","ios":"levelo://app?vid=396d2bf0-6b5f-403b-bacf-9deaab552e51"},"vehicle_type_id":"4","last_reported":1738339812,"current_range_meters":12400,"station_id":"ce4bhi12rcd13ifvqfp0","pricing_plan_id":"cebpf4jnsgd1na2vs0mg"},{"bike_id":"d8b1c3f9-ff6e-4179-8423-4ba0d2a2af0e","system_id":"levelo_inurba_marseille","lat":43.33724,"lon":5.39179,"is_reserved":false,"is_disabled":false,"rental_uris":{"android":"levelo://app?vid=d8b1c3f9-ff6e-4179-8423-4ba0d2a2af0e","ios":"levelo://app?vid=d8b1c3f9-ff6e-4179-8423-4ba0d2a2af0e"},"vehicle_type_id":"4","last_reported":1738339812,"current_range_meters":38800,"station_id":"ce4bhr92rcd13ifvqhsg","pricing_plan_id":"cebpf4jnsgd1na2vs0mg"},{"bike_id":"acc2caf7-ee60-4ef9-96fe-3f7bbad788b6","system_id":"levelo_inurba_marseille","lat":43.23181,"lon":5.39991,"is_reserved":false,"is_disabled":false,"rental_uris":{"android":"levelo://app?vid=acc2caf7-ee60-4ef9-96fe-3f7bbad788b6","ios":"levelo://app?vid=acc2caf7-ee60-4ef9-96fe-3f7bbad788b6"},"vehicle_type_id":"4","last_reported":1738339812,"current_range_meters":30800,"station_id":"ce4bhn12rcd13ifvqgqg","pricing_plan_id":"cebpf4jnsgd1na2vs0mg"},{"bike_id":"37a316fb-b3fd-47c4-b337-ae3ed2613770","system_id":"levelo_inurba_marseille","lat":43.25862,"lon":5.39912,"is_reserved":false,"is_disabled":false,"rental_uris":{"android":"levelo://app?vid=37a316fb-b3fd-47c4-b337-ae3ed2613770","ios":"levelo://app?vid=37a316fb-b3fd-47c4-b337-ae3ed2613770"},"vehicle_type_id":"4","last_reported":1738339812,"current_range_meters":38800,"station_id":"ce4bhl92rcd13ifvqghg","pricing_plan_id":"cebpf4jnsgd1na2vs0mg"},{"bike_id":"f086b070-9af2-4a12-baa6-4f5148d2f614","system_id":"levelo_inurba_marseille","lat":43.27803,"lon":5.40729,"is_reserved":false,"is_disabled":false,"rental_uris":{"android":"levelo://app?vid=f086b070-9af2-4a12-baa6-4f5148d2f614","ios":"levelo://app?vid=f086b070-9af2-4a12-baa6-4f5148d2f614"},"vehicle_type_id":"4","last_reported":1738339812,"current_range_meters":19200,"station_id":"ce4bhnh2rcd13ifvqgtg","pricing_plan_id":"cebpf4jnsgd1na2vs0mg"},{"bike_id":"f1531728-b8ea-45f6-b10e-94dd52db4db3","system_id":"levelo_inurba_marseille","lat":43.31313,"lon":5.39705,"is_reserved":false,"is_disabled":false,"rental_uris":{"android":"levelo://app?vid=f1531728-b8ea-45f6-b10e-94dd52db4db3","ios":"levelo://app?vid=f1531728-b8ea-45f6-b10e-94dd52db4db3"},"vehicle_type_id":"4","last_reported":1738339812,"current_range_meters":38800,"station_id":"ce4bgvp2rcd13ifvqcu0","pricing_plan_id":"cebpf4jnsgd1na2vs0mg"},{"bike_id":"97720b80-9b73-412f-b364-307a0f334978","system_id":"levelo_inurba_marseille","lat":43.2685,"lon":5.39457,"is_reserved":false,"is_disabled":false,"rental_uris":{"android":"levelo://app?vid=97720b80-9b73-412f-b364-307a0f334978","ios":"levelo://app?vid=97720b80-9b73-412f-b364-307a0f334978"},"vehicle_type_id":"4","last_reported":1738339812,"current_range_meters":17600,"station_id":"","pricing_plan_id":"cebpf4jnsgd1na2vs0mg"},{"bike_id":"fe62d850-1039-44bc-8978-312a707acb18","system_id":"levelo_inurba_marseille","lat":43.27051,"lon":5.40263,"is_reserved":false,"is_disabled":false,"rental_uris":{"android":"levelo://app?vid=fe62d850-1039-44bc-8978-312a707acb18","ios":"levelo://app?vid=fe62d850-1039-44bc-8978-312a707acb18"},"vehicle_type_id":"4","last_reported":1738339812,"current_range_meters":2800,"station_id":"ce4bhk92rcd13ifvqgc0","pricing_plan_id":"cebpf4jnsgd1na2vs0mg"},{"bike_id":"fa007fe0-3dc1-405c-9d10-9879e2200643","system_id":"levelo_inurba_marseille","lat":43.32329,"lon":5.4062,"is_reserved":false,"is_disabled":false,"rental_uris":{"android":"levelo://app?vid=fa007fe0-3dc1-405c-9d10-9879e2200643","ios":"levelo://app?vid=fa007fe0-3dc1-405c-9d10-9879e2200643"},"vehicle_type_id":"4","last_reported":1738339812,"current_range_meters":24000,"station_id":"ce4bhq92rcd13ifvqhjg","pricing_plan_id":"cebpf4jnsgd1na2vs0mg"},{"bike_id":"e88eb1f3-8ae0-45d5-b478-7fa0e88e8228","system_id":"levelo_inurba_marseille","lat":43.32286,"lon":5.38265,"is_reserved":false,"is_disabled":false,"rental_uris":{"android":"levelo://app?vid=e88eb1f3-8ae0-45d5-b478-7fa0e88e8228","ios":"levelo://app?vid=e88eb1f3-8ae0-45d5-b478-7fa0e88e8228"},"vehicle_type_id":"4","last_reported":1738339812,"current_range_meters":37600,"station_id":"ce4bhr12rcd13ifvqhqg","pricing_plan_id":"cebpf4jnsgd1na2vs0mg"},{"bike_id":"54a1e974-3f63-4d4c-b749-699f33ba0e6e","system_id":"levelo_inurba_marseille","lat":43.24649,"lon":5.3889,"is_reserved":false,"is_disabled":false,"rental_uris":{"android":"levelo://app?vid=54a1e974-3f63-4d4c-b749-699f33ba0e6e","ios":"levelo://app?vid=54a1e974-3f63-4d4c-b749-699f33ba0e6e"},"vehicle_type_id":"4","last_reported":1738339812,"current_range_meters":24800,"station_id":"ce4bhg12rcd13ifvqf60","pricing_plan_id":"cebpf4jnsgd1na2vs0mg"},{"bike_id":"fe11ec81-8e43-46aa-9848-81a5bac57eb7","system_id":"levelo_inurba_marseille","lat":43.31069,"lon":5.38381,"is_reserved":false,"is_disabled":false,"rental_uris":{"android":"levelo://app?vid=fe11ec81-8e43-46aa-9848-81a5bac57eb7","ios":"levelo://app?vid=fe11ec81-8e43-46aa-9848-81a5bac57eb7"},"vehicle_type_id":"4","last_reported":1738339812,"current_range_meters":10800,"station_id":"ce4bgv92rcd13ifvqcr0","pricing_plan_id":"cebpf4jnsgd1na2vs0mg"},{"bike_id":"d74fc9cb-e6aa-4aa7-8c89-6c60a1765375","system_id":"levelo_inurba_marseille","lat":43.31883,"lon":5.40737,"is_reserved":false,"is_disabled":false,"rental_uris":{"android":"levelo://app?vid=d74fc9cb-e6aa-4aa7-8c89-6c60a1765375","ios":"levelo://app?vid=d74fc9cb-e6aa-4aa7-8c89-6c60a1765375"},"vehicle_type_id":"4","last_reported":1738339812,"current_range_meters":18000,"station_id":"ce4bhq12rcd13ifvqhig","pricing_plan_id":"cebpf4jnsgd1na2vs0mg"},{"bike_id":"c69d8d2c-4eec-4892-a6bc-4cd0964c6945","system_id":"levelo_inurba_marseille","lat":43.29265,"lon":5.38454,"is_reserved":false,"is_disabled":false,"rental_uris":{"android":"levelo://app?vid=c69d8d2c-4eec-4892-a6bc-4cd0964c6945","ios":"levelo://app?vid=c69d8d2c-4eec-4892-a6bc-4cd0964c6945"},"vehicle_type_id":"4","last_reported":1738339812,"current_range_meters":36800,"station_id":"ce4bh692rcd13ifvqea0","pricing_plan_id":"cebpf4jnsgd1na2vs0mg"},{"bike_id":"bbafe016-f512-4493-b775-8ae7a37ec95b","system_id":"levelo_inurba_marseille","lat":43.32361,"lon":5.3889,"is_reserved":false,"is_disabled":false,"rental_uris":{"android":"levelo://app?vid=bbafe016-f512-4493-b775-8ae7a37ec95b","ios":"levelo://app?vid=bbafe016-f512-4493-b775-8ae7a37ec95b"},"vehicle_type_id":"4","last_reported":1738339812,"current_range_meters":13600,"station_id":"ce4bhqp2rcd13ifvqhog","pricing_plan_id":"cebpf4jnsgd1na2vs0mg"},{"bike_id":"0b13a75e-73fd-43f9-b985-cb7a75c57a04","system_id":"levelo_inurba_marseille","lat":43.27373,"lon":5.36245,"is_reserved":false,"is_disabled":false,"rental_uris":{"android":"levelo://app?vid=0b13a75e-73fd-43f9-b985-cb7a75c57a04","ios":"levelo://app?vid=0b13a75e-73fd-43f9-b985-cb7a75c57a04"},"vehicle_type_id":"4","last_reported":1738339812,"current_range_meters":10800,"station_id":"ce4bhbh2rcd13ifvqeo0","pricing_plan_id":"cebpf4jnsgd1na2vs0mg"},{"bike_id":"df992793-2c1e-4a77-bff3-45b59f606f19","system_id":"levelo_inurba_marseille","lat":43.30893,"lon":5.37208,"is_reserved":false,"is_disabled":true,"rental_uris":{"android":"levelo://app?vid=df992793-2c1e-4a77-bff3-45b59f606f19","ios":"levelo://app?vid=df992793-2c1e-4a77-bff3-45b59f606f19"},"vehicle_type_id":"4","last_reported":1738339812,"current_range_meters":36400,"station_id":"ce4bguh2rcd13ifvqckg","pricing_plan_id":"cebpf4jnsgd1na2vs0mg"},{"bike_id":"e76772ad-4d7b-4743-aa72-133535f3d9df","system_id":"levelo_inurba_marseille","lat":43.296239,"lon":5.377045,"is_reserved":false,"is_disabled":true,"rental_uris":{"android":"levelo://app?vid=e76772ad-4d7b-4743-aa72-133535f3d9df","ios":"levelo://app?vid=e76772ad-4d7b-4743-aa72-133535f3d9df"},"vehicle_type_id":"4","last_reported":1738339812,"current_range_meters":0,"station_id":"","pricing_plan_id":"cebpf4jnsgd1na2vs0mg"},{"bike_id":"3c315338-7f51-4257-a310-30f90cfbf079","system_id":"levelo_inurba_marseille","lat":43.28654,"lon":5.36348,"is_reserved":false,"is_disabled":false,"rental_uris":{"android":"levelo://app?vid=3c315338-7f51-4257-a310-30f90cfbf079","ios":"levelo://app?vid=3c315338-7f51-4257-a310-30f90cfbf079"},"vehicle_type_id":"4","last_reported":1738339812,"current_range_meters":19200,"station_id":"ce4bhah2rcd13ifvqej0","pricing_plan_id":"cebpf4jnsgd1na2vs0mg"},{"bike_id":"ab2c796a-c23b-4a3a-9534-777b873d6a05","system_id":"levelo_inurba_marseille","lat":43.2417,"lon":5.36397,"is_reserved":false,"is_disabled":false,"rental_uris":{"android":"levelo://app?vid=ab2c796a-c23b-4a3a-9534-777b873d6a05","ios":"levelo://app?vid=ab2c796a-c23b-4a3a-9534-777b873d6a05"},"vehicle_type_id":"4","last_reported":1738339812,"current_range_meters":36400,"station_id":"cpo36qri1sfpv3e86is0","pricing_plan_id":"cebpf4jnsgd1na2vs0mg"},{"bike_id":"0e650bc1-89cb-4640-9012-626846857fe5","system_id":"levelo_inurba_marseille","lat":43.284467,"lon":5.391673,"is_reserved":false,"is_disabled":false,"rental_uris":{"android":"levelo://app?vid=0e650bc1-89cb-4640-9012-626846857fe5","ios":"levelo://app?vid=0e650bc1-89cb-4640-9012-626846857fe5"},"vehicle_type_id":"4","last_reported":1738339812,"current_range_meters":22400,"station_id":"ce4bhoh2rcd13ifvqh5g","pricing_plan_id":"cebpf4jnsgd1na2vs0mg"},{"bike_id":"58feef8f-17b5-470d-8151-c7a13f0dbe24","system_id":"levelo_inurba_marseille","lat":43.28389,"lon":5.37568,"is_reserved":false,"is_disabled":true,"rental_uris":{"android":"levelo://app?vid=58feef8f-17b5-470d-8151-c7a13f0dbe24","ios":"levelo://app?vid=58feef8f-17b5-470d-8151-c7a13f0dbe24"},"vehicle_type_id":"4","last_reported":1738339812,"current_range_meters":400,"station_id":"ce4bh412rcd13ifvqds0","pricing_plan_id":"cebpf4jnsgd1na2vs0mg"},{"bike_id":"49800fb5-e95c-44ab-bf51-47b5d4d15f9b","system_id":"levelo_inurba_marseille","lat":43.25865,"lon":5.39899,"is_reserved":false,"is_disabled":false,"rental_uris":{"android":"levelo://app?vid=49800fb5-e95c-44ab-bf51-47b5d4d15f9b","ios":"levelo://app?vid=49800fb5-e95c-44ab-bf51-47b5d4d15f9b"},"vehicle_type_id":"4","last_reported":1738339812,"current_range_meters":38800,"station_id":"ce4bhl92rcd13ifvqghg","pricing_plan_id":"cebpf4jnsgd1na2vs0mg"},{"bike_id":"741fa3df-6d9f-4762-b86f-7dd35276ddab","system_id":"levelo_inurba_marseille","lat":43.26791,"lon":5.39411,"is_reserved":false,"is_disabled":false,"rental_uris":{"android":"levelo://app?vid=741fa3df-6d9f-4762-b86f-7dd35276ddab","ios":"levelo://app?vid=741fa3df-6d9f-4762-b86f-7dd35276ddab"},"vehicle_type_id":"4","last_reported":1738339812,"current_range_meters":38800,"station_id":"ce4bhh12rcd13ifvqfg0","pricing_plan_id":"cebpf4jnsgd1na2vs0mg"},{"bike_id":"4dfc16c2-f8bb-4634-bd24-72225fb1f4cf","system_id":"levelo_inurba_marseille","lat":43.2867,"lon":5.38655,"is_reserved":false,"is_disabled":false,"rental_uris":{"android":"levelo://app?vid=4dfc16c2-f8bb-4634-bd24-72225fb1f4cf","ios":"levelo://app?vid=4dfc16c2-f8bb-4634-bd24-72225fb1f4cf"},"vehicle_type_id":"4","last_reported":1738339812,"current_range_meters":6400,"station_id":"ce4bh492rcd13ifvqdug","pricing_plan_id":"cebpf4jnsgd1na2vs0mg"},{"bike_id":"3756559a-a7d3-4a43-beb0-74f82626ccce","system_id":"levelo_inurba_marseille","lat":43.23963,"lon":5.36629,"is_reserved":false,"is_disabled":false,"rental_uris":{"android":"levelo://app?vid=3756559a-a7d3-4a43-beb0-74f82626ccce","ios":"levelo://app?vid=3756559a-a7d3-4a43-beb0-74f82626ccce"},"vehicle_type_id":"4","last_reported":1738339812,"current_range_meters":30000,"station_id":"ce4bhi12rcd13ifvqfp0","pricing_plan_id":"cebpf4jnsgd1na2vs0mg"},{"bike_id":"4453e33c-51ab-42cc-b275-60a2c345fb5c","system_id":"levelo_inurba_marseille","lat":43.29014,"lon":5.35608,"is_reserved":false,"is_disabled":false,"rental_uris":{"android":"levelo://app?vid=4453e33c-51ab-42cc-b275-60a2c345fb5c","ios":"levelo://app?vid=4453e33c-51ab-42cc-b275-60a2c345fb5c"},"vehicle_type_id":"4","last_reported":1738339812,"current_range_meters":28800,"station_id":"ce4bhb92rcd13ifvqen0","pricing_plan_id":"cebpf4jnsgd1na2vs0mg"},{"bike_id":"fc2dee61-6a5e-41ce-a75c-e2029dcb39bc","system_id":"levelo_inurba_marseille","lat":43.26562,"lon":5.37297,"is_reserved":false,"is_disabled":false,"rental_uris":{"android":"levelo://app?vid=fc2dee61-6a5e-41ce-a75c-e2029dcb39bc","ios":"levelo://app?vid=fc2dee61-6a5e-41ce-a75c-e2029dcb39bc"},"vehicle_type_id":"4","last_reported":1738339812,"current_range_meters":12800,"station_id":"ce4bhg12rcd13ifvqf70","pricing_plan_id":"cebpf4jnsgd1na2vs0mg"},{"bike_id":"866e1aac-afb3-42bc-97ef-69d419e0b0e0","system_id":"levelo_inurba_marseille","lat":43.30531,"lon":5.36559,"is_reserved":false,"is_disabled":false,"rental_uris":{"android":"levelo://app?vid=866e1aac-afb3-42bc-97ef-69d419e0b0e0","ios":"levelo://app?vid=866e1aac-afb3-42bc-97ef-69d419e0b0e0"},"vehicle_type_id":"4","last_reported":1738339812,"current_range_meters":28800,"station_id":"ce4bgs12rcd13ifvqcag","pricing_plan_id":"cebpf4jnsgd1na2vs0mg"},{"bike_id":"7644290b-c6fb-48ac-97b2-a3ce090ddff4","system_id":"levelo_inurba_marseille","lat":43.30135,"lon":5.38781,"is_reserved":false,"is_disabled":false,"rental_uris":{"android":"levelo://app?vid=7644290b-c6fb-48ac-97b2-a3ce090ddff4","ios":"levelo://app?vid=7644290b-c6fb-48ac-97b2-a3ce090ddff4"},"vehicle_type_id":"4","last_reported":1738339812,"current_range_meters":39200,"station_id":"ce4bghh2rcd13ifvqb60","pricing_plan_id":"cebpf4jnsgd1na2vs0mg"},{"bike_id":"57199a44-9510-40cb-9a5b-1645d64348c6","system_id":"levelo_inurba_marseille","lat":43.27435,"lon":5.39395,"is_reserved":false,"is_disabled":false,"rental_uris":{"android":"levelo://app?vid=57199a44-9510-40cb-9a5b-1645d64348c6","ios":"levelo://app?vid=57199a44-9510-40cb-9a5b-1645d64348c6"},"vehicle_type_id":"4","last_reported":1738339812,"current_range_meters":38400,"station_id":"ce4bhdp2rcd13ifvqf20","pricing_plan_id":"cebpf4jnsgd1na2vs0mg"},{"bike_id":"f5192a48-f127-416f-ac25-5dcd6cb43014","system_id":"levelo_inurba_marseille","lat":43.31076,"lon":5.42433,"is_reserved":false,"is_disabled":true,"rental_uris":{"android":"levelo://app?vid=f5192a48-f127-416f-ac25-5dcd6cb43014","ios":"levelo://app?vid=f5192a48-f127-416f-ac25-5dcd6cb43014"},"vehicle_type_id":"4","last_reported":1738339812,"current_range_meters":0,"station_id":"ce4bhp92rcd13ifvqhag","pricing_plan_id":"cebpf4jnsgd1na2vs0mg"},{"bike_id":"e8e1f7c6-d773-4c38-bfcc-4a6d773355ce","system_id":"levelo_inurba_marseille","lat":43.22932,"lon":5.35377,"is_reserved":false,"is_disabled":false,"rental_uris":{"android":"levelo://app?vid=e8e1f7c6-d773-4c38-bfcc-4a6d773355ce","ios":"levelo://app?vid=e8e1f7c6-d773-4c38-bfcc-4a6d773355ce"},"vehicle_type_id":"4","last_reported":1738339812,"current_range_meters":38800,"station_id":"cpo3532slgdg3j2ikp40","pricing_plan_id":"cebpf4jnsgd1na2vs0mg"},{"bike_id":"277f3e13-4f20-46c5-9c67-ed25dd2e31be","system_id":"levelo_inurba_marseille","lat":43.24176,"lon":5.39736,"is_reserved":false,"is_disabled":false,"rental_uris":{"android":"levelo://app?vid=277f3e13-4f20-46c5-9c67-ed25dd2e31be","ios":"levelo://app?vid=277f3e13-4f20-46c5-9c67-ed25dd2e31be"},"vehicle_type_id":"4","last_reported":1738339812,"current_range_meters":22000,"station_id":"ce4bhn12rcd13ifvqgpg","pricing_plan_id":"cebpf4jnsgd1na2vs0mg"},{"bike_id":"def6e6f0-bdd3-44b5-9cf5-47d29620e1f0","system_id":"levelo_inurba_marseille","lat":43.32361,"lon":5.36753,"is_reserved":false,"is_disabled":false,"rental_uris":{"android":"levelo://app?vid=def6e6f0-bdd3-44b5-9cf5-47d29620e1f0","ios":"levelo://app?vid=def6e6f0-bdd3-44b5-9cf5-47d29620e1f0"},"vehicle_type_id":"4","last_reported":1738339812,"current_range_meters":18800,"station_id":"ce4bhsh2rcd13ifvqi2g","pricing_plan_id":"cebpf4jnsgd1na2vs0mg"},{"bike_id":"e3d8a223-fb6b-449d-8e45-ad3295748cda","system_id":"levelo_inurba_marseille","lat":43.29597,"lon":5.3811,"is_reserved":false,"is_disabled":false,"rental_uris":{"android":"levelo://app?vid=e3d8a223-fb6b-449d-8e45-ad3295748cda","ios":"levelo://app?vid=e3d8a223-fb6b-449d-8e45-ad3295748cda"},"vehicle_type_id":"4","last_reported":1738339812,"current_range_meters":33600,"station_id":"ce4bgl12rcd13ifvqbo0","pricing_plan_id":"cebpf4jnsgd1na2vs0mg"},{"bike_id":"1418c10b-0d93-4099-a009-ef96a73f1926","system_id":"levelo_inurba_marseille","lat":43.29528,"lon":5.39399,"is_reserved":false,"is_disabled":false,"rental_uris":{"android":"levelo://app?vid=1418c10b-0d93-4099-a009-ef96a73f1926","ios":"levelo://app?vid=1418c10b-0d93-4099-a009-ef96a73f1926"},"vehicle_type_id":"4","last_reported":1738339812,"current_range_meters":9600,"station_id":"ce4bh292rcd13ifvqdf0","pricing_plan_id":"cebpf4jnsgd1na2vs0mg"},{"bike_id":"446cfbd8-380d-483d-82ba-61ff47e31d05","system_id":"levelo_inurba_marseille","lat":43.29251,"lon":5.38439,"is_reserved":false,"is_disabled":true,"rental_uris":{"android":"levelo://app?vid=446cfbd8-380d-483d-82ba-61ff47e31d05","ios":"levelo://app?vid=446cfbd8-380d-483d-82ba-61ff47e31d05"},"vehicle_type_id":"4","last_reported":1738339812,"current_range_meters":4000,"station_id":"ce4bh692rcd13ifvqea0","pricing_plan_id":"cebpf4jnsgd1na2vs0mg"},{"bike_id":"15a4cde9-9176-4b0a-baea-7f4f797bb1d5","system_id":"levelo_inurba_marseille","lat":43.30188,"lon":5.36602,"is_reserved":false,"is_disabled":false,"rental_uris":{"android":"levelo://app?vid=15a4cde9-9176-4b0a-baea-7f4f797bb1d5","ios":"levelo://app?vid=15a4cde9-9176-4b0a-baea-7f4f797bb1d5"},"vehicle_type_id":"4","last_reported":1738339812,"current_range_meters":38800,"station_id":"ce4bgrh2rcd13ifvqc8g","pricing_plan_id":"cebpf4jnsgd1na2vs0mg"},{"bike_id":"f2cfa0c5-de0c-484e-a54b-706424e4ff34","system_id":"levelo_inurba_marseille","lat":43.29889,"lon":5.38901,"is_reserved":false,"is_disabled":false,"rental_uris":{"android":"levelo://app?vid=f2cfa0c5-de0c-484e-a54b-706424e4ff34","ios":"levelo://app?vid=f2cfa0c5-de0c-484e-a54b-706424e4ff34"},"vehicle_type_id":"4","last_reported":1738339812,"current_range_meters":29600,"station_id":"ce4bghh2rcd13ifvqb60","pricing_plan_id":"cebpf4jnsgd1na2vs0mg"},{"bike_id":"60335d1b-4a92-46bd-8eca-dffb02768c78","system_id":"levelo_inurba_marseille","lat":43.2501,"lon":5.38949,"is_reserved":false,"is_disabled":false,"rental_uris":{"android":"levelo://app?vid=60335d1b-4a92-46bd-8eca-dffb02768c78","ios":"levelo://app?vid=60335d1b-4a92-46bd-8eca-dffb02768c78"},"vehicle_type_id":"4","last_reported":1738339812,"current_range_meters":14800,"station_id":"ce4bhgp2rcd13ifvqfd0","pricing_plan_id":"cebpf4jnsgd1na2vs0mg"},{"bike_id":"60911234-26e8-4f42-acbb-88b4c360ca2e","system_id":"levelo_inurba_marseille","lat":43.25003,"lon":5.38934,"is_reserved":false,"is_disabled":false,"rental_uris":{"android":"levelo://app?vid=60911234-26e8-4f42-acbb-88b4c360ca2e","ios":"levelo://app?vid=60911234-26e8-4f42-acbb-88b4c360ca2e"},"vehicle_type_id":"4","last_reported":1738339812,"current_range_meters":30400,"station_id":"ce4bhgp2rcd13ifvqfd0","pricing_plan_id":"cebpf4jnsgd1na2vs0mg"},{"bike_id":"fc52d5c5-af7e-4db6-8f28-25fd6b488d53","system_id":"levelo_inurba_marseille","lat":43.30876,"lon":5.3966,"is_reserved":false,"is_disabled":false,"rental_uris":{"android":"levelo://app?vid=fc52d5c5-af7e-4db6-8f28-25fd6b488d53","ios":"levelo://app?vid=fc52d5c5-af7e-4db6-8f28-25fd6b488d53"},"vehicle_type_id":"4","last_reported":1738339812,"current_range_meters":38000,"station_id":"ce4bh012rcd13ifvqcv0","pricing_plan_id":"cebpf4jnsgd1na2vs0mg"},{"bike_id":"070218cf-5f55-4a87-b307-d0bbb1caf6f4","system_id":"levelo_inurba_marseille","lat":43.23205,"lon":5.39971,"is_reserved":false,"is_disabled":false,"rental_uris":{"android":"levelo://app?vid=070218cf-5f55-4a87-b307-d0bbb1caf6f4","ios":"levelo://app?vid=070218cf-5f55-4a87-b307-d0bbb1caf6f4"},"vehicle_type_id":"4","last_reported":1738339812,"current_range_meters":38800,"station_id":"ce4bhn12rcd13ifvqgqg","pricing_plan_id":"cebpf4jnsgd1na2vs0mg"},{"bike_id":"64fc9e9d-6e6f-4250-92a8-30790235e421","system_id":"levelo_inurba_marseille","lat":43.28482,"lon":5.38566,"is_reserved":false,"is_disabled":false,"rental_uris":{"android":"levelo://app?vid=64fc9e9d-6e6f-4250-92a8-30790235e421","ios":"levelo://app?vid=64fc9e9d-6e6f-4250-92a8-30790235e421"},"vehicle_type_id":"4","last_reported":1738339812,"current_range_meters":37600,"station_id":"ce4bh8p2rcd13ifvqeb0","pricing_plan_id":"cebpf4jnsgd1na2vs0mg"},{"bike_id":"352bc1a0-f5e6-4186-8109-1c3d6dcc4786","system_id":"levelo_inurba_marseille","lat":43.28456,"lon":5.35877,"is_reserved":false,"is_disabled":false,"rental_uris":{"android":"levelo://app?vid=352bc1a0-f5e6-4186-8109-1c3d6dcc4786","ios":"levelo://app?vid=352bc1a0-f5e6-4186-8109-1c3d6dcc4786"},"vehicle_type_id":"4","last_reported":1738339812,"current_range_meters":32800,"station_id":"ce4bhah2rcd13ifvqei0","pricing_plan_id":"cebpf4jnsgd1na2vs0mg"},{"bike_id":"71f34f72-d3b7-46a5-9bd4-1fe057b3152f","system_id":"levelo_inurba_marseille","lat":43.22932,"lon":5.35381,"is_reserved":false,"is_disabled":false,"rental_uris":{"android":"levelo://app?vid=71f34f72-d3b7-46a5-9bd4-1fe057b3152f","ios":"levelo://app?vid=71f34f72-d3b7-46a5-9bd4-1fe057b3152f"},"vehicle_type_id":"4","last_reported":1738339812,"current_range_meters":38800,"station_id":"cpo3532slgdg3j2ikp40","pricing_plan_id":"cebpf4jnsgd1na2vs0mg"},{"bike_id":"103622ac-eebf-47c1-b42e-1b88ce1dfbce","system_id":"levelo_inurba_marseille","lat":43.30514,"lon":5.36471,"is_reserved":false,"is_disabled":false,"rental_uris":{"android":"levelo://app?vid=103622ac-eebf-47c1-b42e-1b88ce1dfbce","ios":"levelo://app?vid=103622ac-eebf-47c1-b42e-1b88ce1dfbce"},"vehicle_type_id":"4","last_reported":1738339812,"current_range_meters":20800,"station_id":"","pricing_plan_id":"cebpf4jnsgd1na2vs0mg"},{"bike_id":"20029bdd-9f9c-4ff9-86e4-5ba6ed30f46a","system_id":"levelo_inurba_marseille","lat":43.23148,"lon":5.43705,"is_reserved":false,"is_disabled":true,"rental_uris":{"android":"levelo://app?vid=20029bdd-9f9c-4ff9-86e4-5ba6ed30f46a","ios":"levelo://app?vid=20029bdd-9f9c-4ff9-86e4-5ba6ed30f46a"},"vehicle_type_id":"4","last_reported":1738339812,"current_range_meters":0,"station_id":"ce4bhmp2rcd13ifvqgog","pricing_plan_id":"cebpf4jnsgd1na2vs0mg"},{"bike_id":"9a420f87-7d7e-4781-b326-9c09400ca210","system_id":"levelo_inurba_marseille","lat":43.26223,"lon":5.37446,"is_reserved":false,"is_disabled":false,"rental_uris":{"android":"levelo://app?vid=9a420f87-7d7e-4781-b326-9c09400ca210","ios":"levelo://app?vid=9a420f87-7d7e-4781-b326-9c09400ca210"},"vehicle_type_id":"4","last_reported":1738339812,"current_range_meters":38800,"station_id":"ce4bhgp2rcd13ifvqfc0","pricing_plan_id":"cebpf4jnsgd1na2vs0mg"},{"bike_id":"3d4b3e0a-4326-4344-bb72-09251a157a11","system_id":"levelo_inurba_marseille","lat":43.30558,"lon":5.36525,"is_reserved":false,"is_disabled":true,"rental_uris":{"android":"levelo://app?vid=3d4b3e0a-4326-4344-bb72-09251a157a11","ios":"levelo://app?vid=3d4b3e0a-4326-4344-bb72-09251a157a11"},"vehicle_type_id":"4","last_reported":1738339812,"current_range_meters":32400,"station_id":"ce4bgs12rcd13ifvqcag","pricing_plan_id":"cebpf4jnsgd1na2vs0mg"},{"bike_id":"c7b7d5dc-fcd4-4974-ac80-02e658adb2bb","system_id":"levelo_inurba_marseille","lat":43.30155,"lon":5.38072,"is_reserved":false,"is_disabled":false,"rental_uris":{"android":"levelo://app?vid=c7b7d5dc-fcd4-4974-ac80-02e658adb2bb","ios":"levelo://app?vid=c7b7d5dc-fcd4-4974-ac80-02e658adb2bb"},"vehicle_type_id":"4","last_reported":1738339812,"current_range_meters":38000,"station_id":"ce4bgjp2rcd13ifvqbh0","pricing_plan_id":"cebpf4jnsgd1na2vs0mg"},{"bike_id":"c116e3f6-7077-4f84-b653-a0878ae93f06","system_id":"levelo_inurba_marseille","lat":43.2558,"lon":5.38245,"is_reserved":false,"is_disabled":false,"rental_uris":{"android":"levelo://app?vid=c116e3f6-7077-4f84-b653-a0878ae93f06","ios":"levelo://app?vid=c116e3f6-7077-4f84-b653-a0878ae93f06"},"vehicle_type_id":"4","last_reported":1738339812,"current_range_meters":38800,"station_id":"ce4bhih2rcd13ifvqfs0","pricing_plan_id":"cebpf4jnsgd1na2vs0mg"},{"bike_id":"b7c67c9d-20bb-496a-a0df-618401506efd","system_id":"levelo_inurba_marseille","lat":43.30148,"lon":5.38087,"is_reserved":false,"is_disabled":false,"rental_uris":{"android":"levelo://app?vid=b7c67c9d-20bb-496a-a0df-618401506efd","ios":"levelo://app?vid=b7c67c9d-20bb-496a-a0df-618401506efd"},"vehicle_type_id":"4","last_reported":1738339812,"current_range_meters":38000,"station_id":"ce4bgjp2rcd13ifvqbh0","pricing_plan_id":"cebpf4jnsgd1na2vs0mg"},{"bike_id":"05865aae-e7aa-4436-809a-640be4d9286b","system_id":"levelo_inurba_marseille","lat":43.30162,"lon":5.38101,"is_reserved":false,"is_disabled":false,"rental_uris":{"android":"levelo://app?vid=05865aae-e7aa-4436-809a-640be4d9286b","ios":"levelo://app?vid=05865aae-e7aa-4436-809a-640be4d9286b"},"vehicle_type_id":"4","last_reported":1738339812,"current_range_meters":26800,"station_id":"ce4bgjp2rcd13ifvqbh0","pricing_plan_id":"cebpf4jnsgd1na2vs0mg"},{"bike_id":"491407c5-a175-44f0-86fc-0f4ccadf82e3","system_id":"levelo_inurba_marseille","lat":43.337444,"lon":5.374475,"is_reserved":false,"is_disabled":true,"rental_uris":{"android":"levelo://app?vid=491407c5-a175-44f0-86fc-0f4ccadf82e3","ios":"levelo://app?vid=491407c5-a175-44f0-86fc-0f4ccadf82e3"},"vehicle_type_id":"4","last_reported":1738339812,"current_range_meters":0,"station_id":"","pricing_plan_id":"cebpf4jnsgd1na2vs0mg"},{"bike_id":"ce7e4316-25a0-41be-9671-330b181493fd","system_id":"levelo_inurba_marseille","lat":43.268,"lon":5.40256,"is_reserved":false,"is_disabled":false,"rental_uris":{"android":"levelo://app?vid=ce7e4316-25a0-41be-9671-330b181493fd","ios":"levelo://app?vid=ce7e4316-25a0-41be-9671-330b181493fd"},"vehicle_type_id":"4","last_reported":1738339812,"current_range_meters":34800,"station_id":"ce501612rcd8frsf0b60","pricing_plan_id":"cebpf4jnsgd1na2vs0mg"},{"bike_id":"49737083-263a-4bef-9d2a-2982a8447fae","system_id":"levelo_inurba_marseille","lat":43.29875,"lon":5.39738,"is_reserved":false,"is_disabled":false,"rental_uris":{"android":"levelo://app?vid=49737083-263a-4bef-9d2a-2982a8447fae","ios":"levelo://app?vid=49737083-263a-4bef-9d2a-2982a8447fae"},"vehicle_type_id":"4","last_reported":1738339812,"current_range_meters":34800,"station_id":"ce4bh0h2rcd13ifvqd50","pricing_plan_id":"cebpf4jnsgd1na2vs0mg"},{"bike_id":"ef8b433b-6122-44e5-8f32-80c237f54525","system_id":"levelo_inurba_marseille","lat":43.29582,"lon":5.36744,"is_reserved":false,"is_disabled":false,"rental_uris":{"android":"levelo://app?vid=ef8b433b-6122-44e5-8f32-80c237f54525","ios":"levelo://app?vid=ef8b433b-6122-44e5-8f32-80c237f54525"},"vehicle_type_id":"4","last_reported":1738339812,"current_range_meters":38800,"station_id":"ce4bgph2rcd13ifvqc2g","pricing_plan_id":"cebpf4jnsgd1na2vs0mg"},{"bike_id":"95aee25f-5c57-4ea4-ae9b-fd75ffb2acea","system_id":"levelo_inurba_marseille","lat":43.23189,"lon":5.39986,"is_reserved":false,"is_disabled":false,"rental_uris":{"android":"levelo://app?vid=95aee25f-5c57-4ea4-ae9b-fd75ffb2acea","ios":"levelo://app?vid=95aee25f-5c57-4ea4-ae9b-fd75ffb2acea"},"vehicle_type_id":"4","last_reported":1738339812,"current_range_meters":28400,"station_id":"ce4bhn12rcd13ifvqgqg","pricing_plan_id":"cebpf4jnsgd1na2vs0mg"},{"bike_id":"528fe304-774b-4f5e-99b0-3a6df52f7bd5","system_id":"levelo_inurba_marseille","lat":43.26946,"lon":5.402531,"is_reserved":false,"is_disabled":false,"rental_uris":{"android":"levelo://app?vid=528fe304-774b-4f5e-99b0-3a6df52f7bd5","ios":"levelo://app?vid=528fe304-774b-4f5e-99b0-3a6df52f7bd5"},"vehicle_type_id":"4","last_reported":1738339812,"current_range_meters":24800,"station_id":"cjm6bp8fraef2m0cb0m0","pricing_plan_id":"cebpf4jnsgd1na2vs0mg"},{"bike_id":"5e037956-cb4e-4964-9c91-aea263c0aa1a","system_id":"levelo_inurba_marseille","lat":43.30298,"lon":5.39205,"is_reserved":false,"is_disabled":false,"rental_uris":{"android":"levelo://app?vid=5e037956-cb4e-4964-9c91-aea263c0aa1a","ios":"levelo://app?vid=5e037956-cb4e-4964-9c91-aea263c0aa1a"},"vehicle_type_id":"4","last_reported":1738339812,"current_range_meters":24400,"station_id":"ce4bgkh2rcd13ifvqbk0","pricing_plan_id":"cebpf4jnsgd1na2vs0mg"},{"bike_id":"9bd862b5-41ed-415b-908f-0b3f930ba20f","system_id":"levelo_inurba_marseille","lat":43.28715,"lon":5.37391,"is_reserved":false,"is_disabled":false,"rental_uris":{"android":"levelo://app?vid=9bd862b5-41ed-415b-908f-0b3f930ba20f","ios":"levelo://app?vid=9bd862b5-41ed-415b-908f-0b3f930ba20f"},"vehicle_type_id":"4","last_reported":1738339812,"current_range_meters":27200,"station_id":"ce4bh3p2rcd13ifvqdq0","pricing_plan_id":"cebpf4jnsgd1na2vs0mg"},{"bike_id":"c29efa44-984d-4c76-ab5f-60fe4a87f1bb","system_id":"levelo_inurba_marseille","lat":43.26688,"lon":5.38286,"is_reserved":false,"is_disabled":false,"rental_uris":{"android":"levelo://app?vid=c29efa44-984d-4c76-ab5f-60fe4a87f1bb","ios":"levelo://app?vid=c29efa44-984d-4c76-ab5f-60fe4a87f1bb"},"vehicle_type_id":"4","last_reported":1738339812,"current_range_meters":38000,"station_id":"ce4bhg92rcd13ifvqf90","pricing_plan_id":"cebpf4jnsgd1na2vs0mg"},{"bike_id":"ac06a83e-0547-4a35-b3c1-1fa3e207bbc2","system_id":"levelo_inurba_marseille","lat":43.31715,"lon":5.37752,"is_reserved":false,"is_disabled":false,"rental_uris":{"android":"levelo://app?vid=ac06a83e-0547-4a35-b3c1-1fa3e207bbc2","ios":"levelo://app?vid=ac06a83e-0547-4a35-b3c1-1fa3e207bbc2"},"vehicle_type_id":"4","last_reported":1738339812,"current_range_meters":32400,"station_id":"ce4bgth2rcd13ifvqch0","pricing_plan_id":"cebpf4jnsgd1na2vs0mg"},{"bike_id":"8c88d0f3-c1b8-4caf-9314-42839cc9f24d","system_id":"levelo_inurba_marseille","lat":43.28734,"lon":5.37365,"is_reserved":false,"is_disabled":false,"rental_uris":{"android":"levelo://app?vid=8c88d0f3-c1b8-4caf-9314-42839cc9f24d","ios":"levelo://app?vid=8c88d0f3-c1b8-4caf-9314-42839cc9f24d"},"vehicle_type_id":"4","last_reported":1738339812,"current_range_meters":30400,"station_id":"ce4bh3p2rcd13ifvqdq0","pricing_plan_id":"cebpf4jnsgd1na2vs0mg"},{"bike_id":"9a374668-ecdb-4cd3-b5e8-6f8b11a6d23e","system_id":"levelo_inurba_marseille","lat":43.29299,"lon":5.3719,"is_reserved":false,"is_disabled":false,"rental_uris":{"android":"levelo://app?vid=9a374668-ecdb-4cd3-b5e8-6f8b11a6d23e","ios":"levelo://app?vid=9a374668-ecdb-4cd3-b5e8-6f8b11a6d23e"},"vehicle_type_id":"4","last_reported":1738339812,"current_range_meters":20000,"station_id":"ce4bgh92rcd13ifvqb40","pricing_plan_id":"cebpf4jnsgd1na2vs0mg"},{"bike_id":"f9844eb3-af1b-4322-b30f-cb0605eaacc0","system_id":"levelo_inurba_marseille","lat":43.31715,"lon":5.42405,"is_reserved":false,"is_disabled":false,"rental_uris":{"android":"levelo://app?vid=f9844eb3-af1b-4322-b30f-cb0605eaacc0","ios":"levelo://app?vid=f9844eb3-af1b-4322-b30f-cb0605eaacc0"},"vehicle_type_id":"4","last_reported":1738339812,"current_range_meters":2800,"station_id":"ce4bhp92rcd13ifvqhbg","pricing_plan_id":"cebpf4jnsgd1na2vs0mg"},{"bike_id":"6725a974-636a-4cad-bf4d-273395199ad4","system_id":"levelo_inurba_marseille","lat":43.33728,"lon":5.39186,"is_reserved":false,"is_disabled":false,"rental_uris":{"android":"levelo://app?vid=6725a974-636a-4cad-bf4d-273395199ad4","ios":"levelo://app?vid=6725a974-636a-4cad-bf4d-273395199ad4"},"vehicle_type_id":"4","last_reported":1738339812,"current_range_meters":22800,"station_id":"ce4bhr92rcd13ifvqhsg","pricing_plan_id":"cebpf4jnsgd1na2vs0mg"},{"bike_id":"e36db202-a0c5-4337-b881-dbba49b15e2b","system_id":"levelo_inurba_marseille","lat":43.23967,"lon":5.36629,"is_reserved":false,"is_disabled":false,"rental_uris":{"android":"levelo://app?vid=e36db202-a0c5-4337-b881-dbba49b15e2b","ios":"levelo://app?vid=e36db202-a0c5-4337-b881-dbba49b15e2b"},"vehicle_type_id":"4","last_reported":1738339812,"current_range_meters":19600,"station_id":"ce4bhi12rcd13ifvqfp0","pricing_plan_id":"cebpf4jnsgd1na2vs0mg"},{"bike_id":"bd8a828d-e634-4034-9cac-55889d5bbfa5","system_id":"levelo_inurba_marseille","lat":43.28153,"lon":5.42638,"is_reserved":false,"is_disabled":false,"rental_uris":{"android":"levelo://app?vid=bd8a828d-e634-4034-9cac-55889d5bbfa5","ios":"levelo://app?vid=bd8a828d-e634-4034-9cac-55889d5bbfa5"},"vehicle_type_id":"4","last_reported":1738339812,"current_range_meters":25600,"station_id":"ce4bhnh2rcd13ifvqgug","pricing_plan_id":"cebpf4jnsgd1na2vs0mg"},{"bike_id":"071b8fb3-7cad-45c0-b1f4-e857a8c2d066","system_id":"levelo_inurba_marseille","lat":43.29051,"lon":5.3592,"is_reserved":false,"is_disabled":false,"rental_uris":{"android":"levelo://app?vid=071b8fb3-7cad-45c0-b1f4-e857a8c2d066","ios":"levelo://app?vid=071b8fb3-7cad-45c0-b1f4-e857a8c2d066"},"vehicle_type_id":"4","last_reported":1738339812,"current_range_meters":34000,"station_id":"ce4bha92rcd13ifvqeg0","pricing_plan_id":"cebpf4jnsgd1na2vs0mg"},{"bike_id":"56869ed2-b4d6-4fdb-aff2-8c618baecdc1","system_id":"levelo_inurba_marseille","lat":43.31094,"lon":5.42421,"is_reserved":false,"is_disabled":false,"rental_uris":{"android":"levelo://app?vid=56869ed2-b4d6-4fdb-aff2-8c618baecdc1","ios":"levelo://app?vid=56869ed2-b4d6-4fdb-aff2-8c618baecdc1"},"vehicle_type_id":"4","last_reported":1738339812,"current_range_meters":39200,"station_id":"ce4bhp92rcd13ifvqhag","pricing_plan_id":"cebpf4jnsgd1na2vs0mg"},{"bike_id":"f9d35a32-65b2-4842-bd83-8cbe10324274","system_id":"levelo_inurba_marseille","lat":43.28627,"lon":5.35122,"is_reserved":false,"is_disabled":false,"rental_uris":{"android":"levelo://app?vid=f9d35a32-65b2-4842-bd83-8cbe10324274","ios":"levelo://app?vid=f9d35a32-65b2-4842-bd83-8cbe10324274"},"vehicle_type_id":"4","last_reported":1738339812,"current_range_meters":12000,"station_id":"ce4bhch2rcd13ifvqeug","pricing_plan_id":"cebpf4jnsgd1na2vs0mg"},{"bike_id":"e737d6b4-980a-4244-b0b6-85b0751595d1","system_id":"levelo_inurba_marseille","lat":43.32071,"lon":5.41544,"is_reserved":false,"is_disabled":false,"rental_uris":{"android":"levelo://app?vid=e737d6b4-980a-4244-b0b6-85b0751595d1","ios":"levelo://app?vid=e737d6b4-980a-4244-b0b6-85b0751595d1"},"vehicle_type_id":"4","last_reported":1738339812,"current_range_meters":38800,"station_id":"ce4bhq92rcd13ifvqhkg","pricing_plan_id":"cebpf4jnsgd1na2vs0mg"},{"bike_id":"70eb42f4-dc6b-417b-9299-d1696c0cd64d","system_id":"levelo_inurba_marseille","lat":43.26932,"lon":5.38923,"is_reserved":false,"is_disabled":false,"rental_uris":{"android":"levelo://app?vid=70eb42f4-dc6b-417b-9299-d1696c0cd64d","ios":"levelo://app?vid=70eb42f4-dc6b-417b-9299-d1696c0cd64d"},"vehicle_type_id":"4","last_reported":1738339812,"current_range_meters":19600,"station_id":"ce4bhhh2rcd13ifvqfl0","pricing_plan_id":"cebpf4jnsgd1na2vs0mg"},{"bike_id":"a3fd9e6e-91e5-45b3-b77b-85110842e142","system_id":"levelo_inurba_marseille","lat":43.29985,"lon":5.38514,"is_reserved":false,"is_disabled":false,"rental_uris":{"android":"levelo://app?vid=a3fd9e6e-91e5-45b3-b77b-85110842e142","ios":"levelo://app?vid=a3fd9e6e-91e5-45b3-b77b-85110842e142"},"vehicle_type_id":"4","last_reported":1738339812,"current_range_meters":38800,"station_id":"ce4bgj92rcd13ifvqbd0","pricing_plan_id":"cebpf4jnsgd1na2vs0mg"},{"bike_id":"8c8bc5ac-bf7d-48b5-a1c2-f8277905a400","system_id":"levelo_inurba_marseille","lat":43.29885,"lon":5.38895,"is_reserved":false,"is_disabled":true,"rental_uris":{"android":"levelo://app?vid=8c8bc5ac-bf7d-48b5-a1c2-f8277905a400","ios":"levelo://app?vid=8c8bc5ac-bf7d-48b5-a1c2-f8277905a400"},"vehicle_type_id":"4","last_reported":1738339812,"current_range_meters":0,"station_id":"ce4bh392rcd13ifvqdl0","pricing_plan_id":"cebpf4jnsgd1na2vs0mg"},{"bike_id":"5cbdbab0-67fc-4efc-a893-43bc49c7a99f","system_id":"levelo_inurba_marseille","lat":43.264979,"lon":5.395448,"is_reserved":false,"is_disabled":false,"rental_uris":{"android":"levelo://app?vid=5cbdbab0-67fc-4efc-a893-43bc49c7a99f","ios":"levelo://app?vid=5cbdbab0-67fc-4efc-a893-43bc49c7a99f"},"vehicle_type_id":"4","last_reported":1738339812,"current_range_meters":39200,"station_id":"ce4bhi12rcd13ifvqfq0","pricing_plan_id":"cebpf4jnsgd1na2vs0mg"},{"bike_id":"4623e5a5-cbf1-496e-9465-46c71c0ca4b0","system_id":"levelo_inurba_marseille","lat":43.23924,"lon":5.36651,"is_reserved":false,"is_disabled":false,"rental_uris":{"android":"levelo://app?vid=4623e5a5-cbf1-496e-9465-46c71c0ca4b0","ios":"levelo://app?vid=4623e5a5-cbf1-496e-9465-46c71c0ca4b0"},"vehicle_type_id":"4","last_reported":1738339812,"current_range_meters":38800,"station_id":"ce4bhi12rcd13ifvqfp0","pricing_plan_id":"cebpf4jnsgd1na2vs0mg"},{"bike_id":"46b43093-b875-4b52-a6ea-76dd9dc96ba1","system_id":"levelo_inurba_marseille","lat":43.3054,"lon":5.3655,"is_reserved":false,"is_disabled":true,"rental_uris":{"android":"levelo://app?vid=46b43093-b875-4b52-a6ea-76dd9dc96ba1","ios":"levelo://app?vid=46b43093-b875-4b52-a6ea-76dd9dc96ba1"},"vehicle_type_id":"4","last_reported":1738339812,"current_range_meters":3200,"station_id":"ce4bgs12rcd13ifvqcag","pricing_plan_id":"cebpf4jnsgd1na2vs0mg"},{"bike_id":"56d6b97f-30a2-4c2a-8be6-a12a9fc19507","system_id":"levelo_inurba_marseille","lat":43.31762,"lon":5.39007,"is_reserved":false,"is_disabled":false,"rental_uris":{"android":"levelo://app?vid=56d6b97f-30a2-4c2a-8be6-a12a9fc19507","ios":"levelo://app?vid=56d6b97f-30a2-4c2a-8be6-a12a9fc19507"},"vehicle_type_id":"4","last_reported":1738339812,"current_range_meters":12800,"station_id":"ce4bhqp2rcd13ifvqhng","pricing_plan_id":"cebpf4jnsgd1na2vs0mg"},{"bike_id":"d2a61873-58f7-4bc8-abeb-3ce8c1c55c8d","system_id":"levelo_inurba_marseille","lat":43.2719,"lon":5.40978,"is_reserved":false,"is_disabled":false,"rental_uris":{"android":"levelo://app?vid=d2a61873-58f7-4bc8-abeb-3ce8c1c55c8d","ios":"levelo://app?vid=d2a61873-58f7-4bc8-abeb-3ce8c1c55c8d"},"vehicle_type_id":"4","last_reported":1738339812,"current_range_meters":11600,"station_id":"ce4bhl12rcd13ifvqgf0","pricing_plan_id":"cebpf4jnsgd1na2vs0mg"},{"bike_id":"46a19d70-d899-4458-a8ed-81be1906a979","system_id":"levelo_inurba_marseille","lat":43.30588,"lon":5.39362,"is_reserved":false,"is_disabled":true,"rental_uris":{"android":"levelo://app?vid=46a19d70-d899-4458-a8ed-81be1906a979","ios":"levelo://app?vid=46a19d70-d899-4458-a8ed-81be1906a979"},"vehicle_type_id":"4","last_reported":1738339812,"current_range_meters":400,"station_id":"ce4bh0p2rcd13ifvqd80","pricing_plan_id":"cebpf4jnsgd1na2vs0mg"},{"bike_id":"b61407a7-d93a-47a9-ae07-fdf92f9b0164","system_id":"levelo_inurba_marseille","lat":43.27614,"lon":5.36118,"is_reserved":false,"is_disabled":false,"rental_uris":{"android":"levelo://app?vid=b61407a7-d93a-47a9-ae07-fdf92f9b0164","ios":"levelo://app?vid=b61407a7-d93a-47a9-ae07-fdf92f9b0164"},"vehicle_type_id":"4","last_reported":1738339812,"current_range_meters":38800,"station_id":"ce4bgj92rcd13ifvqbe0","pricing_plan_id":"cebpf4jnsgd1na2vs0mg"},{"bike_id":"7be2bb91-88ee-43f3-9d7b-3dd90f49de64","system_id":"levelo_inurba_marseille","lat":43.31513,"lon":5.38056,"is_reserved":false,"is_disabled":false,"rental_uris":{"android":"levelo://app?vid=7be2bb91-88ee-43f3-9d7b-3dd90f49de64","ios":"levelo://app?vid=7be2bb91-88ee-43f3-9d7b-3dd90f49de64"},"vehicle_type_id":"4","last_reported":1738339812,"current_range_meters":18800,"station_id":"ce4bhsp2rcd13ifvqi50","pricing_plan_id":"cebpf4jnsgd1na2vs0mg"},{"bike_id":"c47dd06e-0361-47d5-b2c6-c9b45c81f8b0","system_id":"levelo_inurba_marseille","lat":43.2693,"lon":5.4025,"is_reserved":false,"is_disabled":false,"rental_uris":{"android":"levelo://app?vid=c47dd06e-0361-47d5-b2c6-c9b45c81f8b0","ios":"levelo://app?vid=c47dd06e-0361-47d5-b2c6-c9b45c81f8b0"},"vehicle_type_id":"4","last_reported":1738339812,"current_range_meters":8400,"station_id":"cjm6bp8fraef2m0cb0m0","pricing_plan_id":"cebpf4jnsgd1na2vs0mg"},{"bike_id":"8382186f-0d25-40e6-beca-2632cc8590f2","system_id":"levelo_inurba_marseille","lat":43.29555,"lon":5.42295,"is_reserved":false,"is_disabled":false,"rental_uris":{"android":"levelo://app?vid=8382186f-0d25-40e6-beca-2632cc8590f2","ios":"levelo://app?vid=8382186f-0d25-40e6-beca-2632cc8590f2"},"vehicle_type_id":"4","last_reported":1738339812,"current_range_meters":38800,"station_id":"ce4bhph2rcd13ifvqhdg","pricing_plan_id":"cebpf4jnsgd1na2vs0mg"},{"bike_id":"96caf13d-4c9d-4188-87b8-598aebcea853","system_id":"levelo_inurba_marseille","lat":43.30529,"lon":5.36708,"is_reserved":false,"is_disabled":false,"rental_uris":{"android":"levelo://app?vid=96caf13d-4c9d-4188-87b8-598aebcea853","ios":"levelo://app?vid=96caf13d-4c9d-4188-87b8-598aebcea853"},"vehicle_type_id":"4","last_reported":1738339812,"current_range_meters":28800,"station_id":"ce4bgrp2rcd13ifvqc9g","pricing_plan_id":"cebpf4jnsgd1na2vs0mg"},{"bike_id":"0e958113-1e01-40ae-8dde-d335d4d6be36","system_id":"levelo_inurba_marseille","lat":43.29974,"lon":5.37184,"is_reserved":false,"is_disabled":false,"rental_uris":{"android":"levelo://app?vid=0e958113-1e01-40ae-8dde-d335d4d6be36","ios":"levelo://app?vid=0e958113-1e01-40ae-8dde-d335d4d6be36"},"vehicle_type_id":"4","last_reported":1738339812,"current_range_meters":38000,"station_id":"ce4bgr92rcd13ifvqc7g","pricing_plan_id":"cebpf4jnsgd1na2vs0mg"},{"bike_id":"5dde1a91-a19c-41e2-847b-743d7877c5bd","system_id":"levelo_inurba_marseille","lat":43.28461,"lon":5.35889,"is_reserved":false,"is_disabled":false,"rental_uris":{"android":"levelo://app?vid=5dde1a91-a19c-41e2-847b-743d7877c5bd","ios":"levelo://app?vid=5dde1a91-a19c-41e2-847b-743d7877c5bd"},"vehicle_type_id":"4","last_reported":1738339812,"current_range_meters":32800,"station_id":"ce4bhah2rcd13ifvqei0","pricing_plan_id":"cebpf4jnsgd1na2vs0mg"},{"bike_id":"90ea8d77-dfc6-4de5-9105-033ad31c070c","system_id":"levelo_inurba_marseille","lat":43.28102,"lon":5.37834,"is_reserved":false,"is_disabled":false,"rental_uris":{"android":"levelo://app?vid=90ea8d77-dfc6-4de5-9105-033ad31c070c","ios":"levelo://app?vid=90ea8d77-dfc6-4de5-9105-033ad31c070c"},"vehicle_type_id":"4","last_reported":1738339812,"current_range_meters":37600,"station_id":"ce4bha12rcd13ifvqee0","pricing_plan_id":"cebpf4jnsgd1na2vs0mg"},{"bike_id":"6217a83c-d3a3-42cf-aecd-64d72a8e982e","system_id":"levelo_inurba_marseille","lat":43.29166,"lon":5.37161,"is_reserved":false,"is_disabled":false,"rental_uris":{"android":"levelo://app?vid=6217a83c-d3a3-42cf-aecd-64d72a8e982e","ios":"levelo://app?vid=6217a83c-d3a3-42cf-aecd-64d72a8e982e"},"vehicle_type_id":"4","last_reported":1738339812,"current_range_meters":22000,"station_id":"ce4bha92rcd13ifvqeh0","pricing_plan_id":"cebpf4jnsgd1na2vs0mg"},{"bike_id":"d88d85be-410c-4f6b-bb47-500ea0120aea","system_id":"levelo_inurba_marseille","lat":43.29423,"lon":5.38626,"is_reserved":false,"is_disabled":false,"rental_uris":{"android":"levelo://app?vid=d88d85be-410c-4f6b-bb47-500ea0120aea","ios":"levelo://app?vid=d88d85be-410c-4f6b-bb47-500ea0120aea"},"vehicle_type_id":"4","last_reported":1738339812,"current_range_meters":39200,"station_id":"ce4bh2h2rcd13ifvqdh0","pricing_plan_id":"cebpf4jnsgd1na2vs0mg"},{"bike_id":"32d9a329-7366-4eb8-8d55-73b5c99c70c3","system_id":"levelo_inurba_marseille","lat":43.23197,"lon":5.35552,"is_reserved":false,"is_disabled":false,"rental_uris":{"android":"levelo://app?vid=32d9a329-7366-4eb8-8d55-73b5c99c70c3","ios":"levelo://app?vid=32d9a329-7366-4eb8-8d55-73b5c99c70c3"},"vehicle_type_id":"4","last_reported":1738339812,"current_range_meters":38800,"station_id":"ce4bhu92rcd13ifvqi70","pricing_plan_id":"cebpf4jnsgd1na2vs0mg"},{"bike_id":"3b041c66-54c3-4796-bed1-75270f84e0be","system_id":"levelo_inurba_marseille","lat":43.30535,"lon":5.36537,"is_reserved":false,"is_disabled":false,"rental_uris":{"android":"levelo://app?vid=3b041c66-54c3-4796-bed1-75270f84e0be","ios":"levelo://app?vid=3b041c66-54c3-4796-bed1-75270f84e0be"},"vehicle_type_id":"4","last_reported":1738339812,"current_range_meters":4400,"station_id":"ce4bgs12rcd13ifvqcag","pricing_plan_id":"cebpf4jnsgd1na2vs0mg"},{"bike_id":"8056f615-2ae8-41a5-a64d-35896471c39c","system_id":"levelo_inurba_marseille","lat":43.2923,"lon":5.36073,"is_reserved":false,"is_disabled":false,"rental_uris":{"android":"levelo://app?vid=8056f615-2ae8-41a5-a64d-35896471c39c","ios":"levelo://app?vid=8056f615-2ae8-41a5-a64d-35896471c39c"},"vehicle_type_id":"4","last_reported":1738339812,"current_range_meters":22800,"station_id":"ce4bhbh2rcd13ifvqeqg","pricing_plan_id":"cebpf4jnsgd1na2vs0mg"},{"bike_id":"0a2fd205-d616-4064-aa75-d4d529957d90","system_id":"levelo_inurba_marseille","lat":43.23029,"lon":5.35518,"is_reserved":false,"is_disabled":false,"rental_uris":{"android":"levelo://app?vid=0a2fd205-d616-4064-aa75-d4d529957d90","ios":"levelo://app?vid=0a2fd205-d616-4064-aa75-d4d529957d90"},"vehicle_type_id":"4","last_reported":1738339812,"current_range_meters":20000,"station_id":"cpo3342slgdg3j2ifvpg","pricing_plan_id":"cebpf4jnsgd1na2vs0mg"},{"bike_id":"61daeab0-2b5f-4b35-a623-931546a8f04a","system_id":"levelo_inurba_marseille","lat":43.29063,"lon":5.3593,"is_reserved":false,"is_disabled":false,"rental_uris":{"android":"levelo://app?vid=61daeab0-2b5f-4b35-a623-931546a8f04a","ios":"levelo://app?vid=61daeab0-2b5f-4b35-a623-931546a8f04a"},"vehicle_type_id":"4","last_reported":1738339812,"current_range_meters":36800,"station_id":"ce4bha92rcd13ifvqeg0","pricing_plan_id":"cebpf4jnsgd1na2vs0mg"},{"bike_id":"c9b5c1d7-b7e1-4dd4-95fe-9dfe99fa831f","system_id":"levelo_inurba_marseille","lat":43.293473,"lon":5.378284,"is_reserved":false,"is_disabled":false,"rental_uris":{"android":"levelo://app?vid=c9b5c1d7-b7e1-4dd4-95fe-9dfe99fa831f","ios":"levelo://app?vid=c9b5c1d7-b7e1-4dd4-95fe-9dfe99fa831f"},"vehicle_type_id":"4","last_reported":1738339812,"current_range_meters":9200,"station_id":"ce4bgjh2rcd13ifvqbf0","pricing_plan_id":"cebpf4jnsgd1na2vs0mg"},{"bike_id":"52aadcfb-9abf-4e74-acda-f22c741ce593","system_id":"levelo_inurba_marseille","lat":43.2861,"lon":5.37064,"is_reserved":false,"is_disabled":false,"rental_uris":{"android":"levelo://app?vid=52aadcfb-9abf-4e74-acda-f22c741ce593","ios":"levelo://app?vid=52aadcfb-9abf-4e74-acda-f22c741ce593"},"vehicle_type_id":"4","last_reported":1738339812,"current_range_meters":17600,"station_id":"ce4bht12rcd13ifvqi60","pricing_plan_id":"cebpf4jnsgd1na2vs0mg"},{"bike_id":"36e3a682-dd00-4474-89d9-bbaf36706a41","system_id":"levelo_inurba_marseille","lat":43.27994,"lon":5.40013,"is_reserved":false,"is_disabled":false,"rental_uris":{"android":"levelo://app?vid=36e3a682-dd00-4474-89d9-bbaf36706a41","ios":"levelo://app?vid=36e3a682-dd00-4474-89d9-bbaf36706a41"},"vehicle_type_id":"4","last_reported":1738339812,"current_range_meters":38800,"station_id":"ce4bho92rcd13ifvqh4g","pricing_plan_id":"cebpf4jnsgd1na2vs0mg"},{"bike_id":"ec090f6f-e6b5-4865-b929-1d76257370f9","system_id":"levelo_inurba_marseille","lat":43.3015,"lon":5.3876,"is_reserved":false,"is_disabled":false,"rental_uris":{"android":"levelo://app?vid=ec090f6f-e6b5-4865-b929-1d76257370f9","ios":"levelo://app?vid=ec090f6f-e6b5-4865-b929-1d76257370f9"},"vehicle_type_id":"4","last_reported":1738339812,"current_range_meters":30400,"station_id":"ce4bhoh2rcd13ifvqh6g","pricing_plan_id":"cebpf4jnsgd1na2vs0mg"},{"bike_id":"2dcea597-6175-45f7-be3e-2ee0705f08d3","system_id":"levelo_inurba_marseille","lat":43.2694,"lon":5.3893,"is_reserved":false,"is_disabled":false,"rental_uris":{"android":"levelo://app?vid=2dcea597-6175-45f7-be3e-2ee0705f08d3","ios":"levelo://app?vid=2dcea597-6175-45f7-be3e-2ee0705f08d3"},"vehicle_type_id":"4","last_reported":1738339812,"current_range_meters":38800,"station_id":"ce4bhhh2rcd13ifvqfl0","pricing_plan_id":"cebpf4jnsgd1na2vs0mg"},{"bike_id":"803e03d8-7d2e-4feb-ac46-774902d16dee","system_id":"levelo_inurba_marseille","lat":43.33759,"lon":5.37451,"is_reserved":false,"is_disabled":true,"rental_uris":{"android":"levelo://app?vid=803e03d8-7d2e-4feb-ac46-774902d16dee","ios":"levelo://app?vid=803e03d8-7d2e-4feb-ac46-774902d16dee"},"vehicle_type_id":"4","last_reported":1738339812,"current_range_meters":36800,"station_id":"","pricing_plan_id":"cebpf4jnsgd1na2vs0mg"},{"bike_id":"e01930f0-3329-4ff4-a2f7-baa59079302c","system_id":"levelo_inurba_marseille","lat":43.28096,"lon":5.37826,"is_reserved":false,"is_disabled":false,"rental_uris":{"android":"levelo://app?vid=e01930f0-3329-4ff4-a2f7-baa59079302c","ios":"levelo://app?vid=e01930f0-3329-4ff4-a2f7-baa59079302c"},"vehicle_type_id":"4","last_reported":1738339812,"current_range_meters":6000,"station_id":"ce4bha12rcd13ifvqee0","pricing_plan_id":"cebpf4jnsgd1na2vs0mg"},{"bike_id":"75481534-676a-424b-998f-d1f24878c5d9","system_id":"levelo_inurba_marseille","lat":43.2978,"lon":5.37095,"is_reserved":false,"is_disabled":false,"rental_uris":{"android":"levelo://app?vid=75481534-676a-424b-998f-d1f24878c5d9","ios":"levelo://app?vid=75481534-676a-424b-998f-d1f24878c5d9"},"vehicle_type_id":"4","last_reported":1738339812,"current_range_meters":8000,"station_id":"ce4bgop2rcd13ifvqc1g","pricing_plan_id":"cebpf4jnsgd1na2vs0mg"},{"bike_id":"65fe0418-918a-4c00-b6b6-69da8e180eb2","system_id":"levelo_inurba_marseille","lat":43.309265,"lon":5.401485,"is_reserved":false,"is_disabled":false,"rental_uris":{"android":"levelo://app?vid=65fe0418-918a-4c00-b6b6-69da8e180eb2","ios":"levelo://app?vid=65fe0418-918a-4c00-b6b6-69da8e180eb2"},"vehicle_type_id":"4","last_reported":1738339812,"current_range_meters":12400,"station_id":"ce4bgvp2rcd13ifvqct0","pricing_plan_id":"cebpf4jnsgd1na2vs0mg"},{"bike_id":"b5dc1944-bf33-4f8e-aef8-d4e0f7452898","system_id":"levelo_inurba_marseille","lat":43.2954,"lon":5.37509,"is_reserved":false,"is_disabled":false,"rental_uris":{"android":"levelo://app?vid=b5dc1944-bf33-4f8e-aef8-d4e0f7452898","ios":"levelo://app?vid=b5dc1944-bf33-4f8e-aef8-d4e0f7452898"},"vehicle_type_id":"4","last_reported":1738339812,"current_range_meters":38000,"station_id":"ce4bgkp2rcd13ifvqbmg","pricing_plan_id":"cebpf4jnsgd1na2vs0mg"},{"bike_id":"9665cd84-a08a-4882-b348-de415533e949","system_id":"levelo_inurba_marseille","lat":43.25867,"lon":5.39902,"is_reserved":false,"is_disabled":false,"rental_uris":{"android":"levelo://app?vid=9665cd84-a08a-4882-b348-de415533e949","ios":"levelo://app?vid=9665cd84-a08a-4882-b348-de415533e949"},"vehicle_type_id":"4","last_reported":1738339812,"current_range_meters":12800,"station_id":"ce4bhl92rcd13ifvqghg","pricing_plan_id":"cebpf4jnsgd1na2vs0mg"},{"bike_id":"f0014efe-59be-4c6a-b455-e28e23b4487f","system_id":"levelo_inurba_marseille","lat":43.27814,"lon":5.40714,"is_reserved":false,"is_disabled":false,"rental_uris":{"android":"levelo://app?vid=f0014efe-59be-4c6a-b455-e28e23b4487f","ios":"levelo://app?vid=f0014efe-59be-4c6a-b455-e28e23b4487f"},"vehicle_type_id":"4","last_reported":1738339812,"current_range_meters":29600,"station_id":"ce4bhnh2rcd13ifvqgtg","pricing_plan_id":"cebpf4jnsgd1na2vs0mg"},{"bike_id":"1f3960cd-eea7-4117-a4b8-926e34aacb5c","system_id":"levelo_inurba_marseille","lat":43.28591,"lon":5.37101,"is_reserved":false,"is_disabled":true,"rental_uris":{"android":"levelo://app?vid=1f3960cd-eea7-4117-a4b8-926e34aacb5c","ios":"levelo://app?vid=1f3960cd-eea7-4117-a4b8-926e34aacb5c"},"vehicle_type_id":"4","last_reported":1738339812,"current_range_meters":18800,"station_id":"ce4bht12rcd13ifvqi60","pricing_plan_id":"cebpf4jnsgd1na2vs0mg"},{"bike_id":"6337d338-3511-4993-ada0-12102998e834","system_id":"levelo_inurba_marseille","lat":43.23078,"lon":5.35487,"is_reserved":false,"is_disabled":false,"rental_uris":{"android":"levelo://app?vid=6337d338-3511-4993-ada0-12102998e834","ios":"levelo://app?vid=6337d338-3511-4993-ada0-12102998e834"},"vehicle_type_id":"4","last_reported":1738339812,"current_range_meters":14400,"station_id":"cpo3342slgdg3j2ifvpg","pricing_plan_id":"cebpf4jnsgd1na2vs0mg"},{"bike_id":"fe003c8d-49c9-48fb-b04d-8f90aac5a3e9","system_id":"levelo_inurba_marseille","lat":43.25006,"lon":5.38934,"is_reserved":false,"is_disabled":false,"rental_uris":{"android":"levelo://app?vid=fe003c8d-49c9-48fb-b04d-8f90aac5a3e9","ios":"levelo://app?vid=fe003c8d-49c9-48fb-b04d-8f90aac5a3e9"},"vehicle_type_id":"4","last_reported":1738339812,"current_range_meters":34000,"station_id":"ce4bhgp2rcd13ifvqfd0","pricing_plan_id":"cebpf4jnsgd1na2vs0mg"},{"bike_id":"b71d6ada-d4ab-4a21-bfa1-eb56ceccd0b8","system_id":"levelo_inurba_marseille","lat":43.2721,"lon":5.39138,"is_reserved":false,"is_disabled":false,"rental_uris":{"android":"levelo://app?vid=b71d6ada-d4ab-4a21-bfa1-eb56ceccd0b8","ios":"levelo://app?vid=b71d6ada-d4ab-4a21-bfa1-eb56ceccd0b8"},"vehicle_type_id":"4","last_reported":1738339812,"current_range_meters":38800,"station_id":"ce4bhhp2rcd13ifvqfm0","pricing_plan_id":"cebpf4jnsgd1na2vs0mg"},{"bike_id":"37766b3f-cbcb-444a-a1d7-e4f66144d5ac","system_id":"levelo_inurba_marseille","lat":43.3016,"lon":5.38086,"is_reserved":false,"is_disabled":false,"rental_uris":{"android":"levelo://app?vid=37766b3f-cbcb-444a-a1d7-e4f66144d5ac","ios":"levelo://app?vid=37766b3f-cbcb-444a-a1d7-e4f66144d5ac"},"vehicle_type_id":"4","last_reported":1738339812,"current_range_meters":38800,"station_id":"ce4bgjp2rcd13ifvqbh0","pricing_plan_id":"cebpf4jnsgd1na2vs0mg"},{"bike_id":"3e06e3df-52c1-4111-856b-f1a8184ab824","system_id":"levelo_inurba_marseille","lat":43.27825,"lon":5.407,"is_reserved":false,"is_disabled":false,"rental_uris":{"android":"levelo://app?vid=3e06e3df-52c1-4111-856b-f1a8184ab824","ios":"levelo://app?vid=3e06e3df-52c1-4111-856b-f1a8184ab824"},"vehicle_type_id":"4","last_reported":1738339812,"current_range_meters":27600,"station_id":"ce4bhnh2rcd13ifvqgtg","pricing_plan_id":"cebpf4jnsgd1na2vs0mg"},{"bike_id":"d994d4a0-0318-4f4e-9986-d94426f50c25","system_id":"levelo_inurba_marseille","lat":43.26238,"lon":5.37441,"is_reserved":false,"is_disabled":false,"rental_uris":{"android":"levelo://app?vid=d994d4a0-0318-4f4e-9986-d94426f50c25","ios":"levelo://app?vid=d994d4a0-0318-4f4e-9986-d94426f50c25"},"vehicle_type_id":"4","last_reported":1738339812,"current_range_meters":38800,"station_id":"ce4bhgp2rcd13ifvqfc0","pricing_plan_id":"cebpf4jnsgd1na2vs0mg"},{"bike_id":"99b8ed86-0bc0-4285-a2a2-428c7db3c442","system_id":"levelo_inurba_marseille","lat":43.30552,"lon":5.36514,"is_reserved":false,"is_disabled":false,"rental_uris":{"android":"levelo://app?vid=99b8ed86-0bc0-4285-a2a2-428c7db3c442","ios":"levelo://app?vid=99b8ed86-0bc0-4285-a2a2-428c7db3c442"},"vehicle_type_id":"4","last_reported":1738339812,"current_range_meters":38800,"station_id":"ce4bgs12rcd13ifvqcag","pricing_plan_id":"cebpf4jnsgd1na2vs0mg"},{"bike_id":"9900f1a4-6fec-4768-9689-365d0e3a621d","system_id":"levelo_inurba_marseille","lat":43.23196,"lon":5.39967,"is_reserved":false,"is_disabled":false,"rental_uris":{"android":"levelo://app?vid=9900f1a4-6fec-4768-9689-365d0e3a621d","ios":"levelo://app?vid=9900f1a4-6fec-4768-9689-365d0e3a621d"},"vehicle_type_id":"4","last_reported":1738339812,"current_range_meters":38800,"station_id":"ce4bhn12rcd13ifvqgqg","pricing_plan_id":"cebpf4jnsgd1na2vs0mg"},{"bike_id":"4537fc7e-9c3b-4c59-873f-fdf096c03778","system_id":"levelo_inurba_marseille","lat":43.28658,"lon":5.36372,"is_reserved":false,"is_disabled":false,"rental_uris":{"android":"levelo://app?vid=4537fc7e-9c3b-4c59-873f-fdf096c03778","ios":"levelo://app?vid=4537fc7e-9c3b-4c59-873f-fdf096c03778"},"vehicle_type_id":"4","last_reported":1738339812,"current_range_meters":39200,"station_id":"ce4bhah2rcd13ifvqej0","pricing_plan_id":"cebpf4jnsgd1na2vs0mg"},{"bike_id":"6630ca91-ca35-4e81-9c54-578b49e543d0","system_id":"levelo_inurba_marseille","lat":43.27797,"lon":5.40698,"is_reserved":false,"is_disabled":false,"rental_uris":{"android":"levelo://app?vid=6630ca91-ca35-4e81-9c54-578b49e543d0","ios":"levelo://app?vid=6630ca91-ca35-4e81-9c54-578b49e543d0"},"vehicle_type_id":"4","last_reported":1738339812,"current_range_meters":35200,"station_id":"ce4bhnh2rcd13ifvqgtg","pricing_plan_id":"cebpf4jnsgd1na2vs0mg"},{"bike_id":"315ef60e-87e8-47bb-840d-eaee0aa12c1c","system_id":"levelo_inurba_marseille","lat":43.24808,"lon":5.37459,"is_reserved":false,"is_disabled":false,"rental_uris":{"android":"levelo://app?vid=315ef60e-87e8-47bb-840d-eaee0aa12c1c","ios":"levelo://app?vid=315ef60e-87e8-47bb-840d-eaee0aa12c1c"},"vehicle_type_id":"4","last_reported":1738339812,"current_range_meters":30400,"station_id":"ce4bhgh2rcd13ifvqfb0","pricing_plan_id":"cebpf4jnsgd1na2vs0mg"},{"bike_id":"b1fd571c-e785-4fc7-9d16-3c2e86fe87de","system_id":"levelo_inurba_marseille","lat":43.27204,"lon":5.4097,"is_reserved":false,"is_disabled":true,"rental_uris":{"android":"levelo://app?vid=b1fd571c-e785-4fc7-9d16-3c2e86fe87de","ios":"levelo://app?vid=b1fd571c-e785-4fc7-9d16-3c2e86fe87de"},"vehicle_type_id":"4","last_reported":1738339812,"current_range_meters":400,"station_id":"ce4bhl12rcd13ifvqgf0","pricing_plan_id":"cebpf4jnsgd1na2vs0mg"},{"bike_id":"e6d6fcbb-39e0-4c3a-9515-64803fc4cc0a","system_id":"levelo_inurba_marseille","lat":43.33739,"lon":5.39172,"is_reserved":false,"is_disabled":false,"rental_uris":{"android":"levelo://app?vid=e6d6fcbb-39e0-4c3a-9515-64803fc4cc0a","ios":"levelo://app?vid=e6d6fcbb-39e0-4c3a-9515-64803fc4cc0a"},"vehicle_type_id":"4","last_reported":1738339812,"current_range_meters":18800,"station_id":"ce4bhr92rcd13ifvqhsg","pricing_plan_id":"cebpf4jnsgd1na2vs0mg"},{"bike_id":"6b396088-9541-42e8-9ba4-d9704d90d27a","system_id":"levelo_inurba_marseille","lat":43.30806,"lon":5.43487,"is_reserved":false,"is_disabled":false,"rental_uris":{"android":"levelo://app?vid=6b396088-9541-42e8-9ba4-d9704d90d27a","ios":"levelo://app?vid=6b396088-9541-42e8-9ba4-d9704d90d27a"},"vehicle_type_id":"4","last_reported":1738339812,"current_range_meters":11200,"station_id":"ce4bhph2rcd13ifvqheg","pricing_plan_id":"cebpf4jnsgd1na2vs0mg"},{"bike_id":"30290493-846e-4dfe-b1b6-dc57c1b062ce","system_id":"levelo_inurba_marseille","lat":43.26498,"lon":5.3954,"is_reserved":false,"is_disabled":false,"rental_uris":{"android":"levelo://app?vid=30290493-846e-4dfe-b1b6-dc57c1b062ce","ios":"levelo://app?vid=30290493-846e-4dfe-b1b6-dc57c1b062ce"},"vehicle_type_id":"4","last_reported":1738339812,"current_range_meters":23200,"station_id":"ce4bhi12rcd13ifvqfq0","pricing_plan_id":"cebpf4jnsgd1na2vs0mg"},{"bike_id":"9225cf0c-9ef1-47a2-bb9a-61338c5f659e","system_id":"levelo_inurba_marseille","lat":43.27205,"lon":5.39186,"is_reserved":false,"is_disabled":false,"rental_uris":{"android":"levelo://app?vid=9225cf0c-9ef1-47a2-bb9a-61338c5f659e","ios":"levelo://app?vid=9225cf0c-9ef1-47a2-bb9a-61338c5f659e"},"vehicle_type_id":"4","last_reported":1738339812,"current_range_meters":32000,"station_id":"ce4bhhp2rcd13ifvqfm0","pricing_plan_id":"cebpf4jnsgd1na2vs0mg"},{"bike_id":"5fcfbc84-f1eb-43d9-8fae-fa98f389a45b","system_id":"levelo_inurba_marseille","lat":43.28663,"lon":5.36355,"is_reserved":false,"is_disabled":false,"rental_uris":{"android":"levelo://app?vid=5fcfbc84-f1eb-43d9-8fae-fa98f389a45b","ios":"levelo://app?vid=5fcfbc84-f1eb-43d9-8fae-fa98f389a45b"},"vehicle_type_id":"4","last_reported":1738339812,"current_range_meters":4800,"station_id":"ce4bhah2rcd13ifvqej0","pricing_plan_id":"cebpf4jnsgd1na2vs0mg"},{"bike_id":"42b92c0c-b723-49fc-885d-3b0df52a528c","system_id":"levelo_inurba_marseille","lat":43.30354,"lon":5.41873,"is_reserved":false,"is_disabled":false,"rental_uris":{"android":"levelo://app?vid=42b92c0c-b723-49fc-885d-3b0df52a528c","ios":"levelo://app?vid=42b92c0c-b723-49fc-885d-3b0df52a528c"},"vehicle_type_id":"4","last_reported":1738339812,"current_range_meters":38000,"station_id":"ce4bhop2rcd13ifvqh7g","pricing_plan_id":"cebpf4jnsgd1na2vs0mg"},{"bike_id":"1a08a403-ffc9-4f5a-90fc-223ddf6eb7b7","system_id":"levelo_inurba_marseille","lat":43.30952,"lon":5.39038,"is_reserved":false,"is_disabled":false,"rental_uris":{"android":"levelo://app?vid=1a08a403-ffc9-4f5a-90fc-223ddf6eb7b7","ios":"levelo://app?vid=1a08a403-ffc9-4f5a-90fc-223ddf6eb7b7"},"vehicle_type_id":"4","last_reported":1738339812,"current_range_meters":25200,"station_id":"ce4bgup2rcd13ifvqco0","pricing_plan_id":"cebpf4jnsgd1na2vs0mg"},{"bike_id":"0ecf7e0c-ce25-4026-ad5c-1c79d76156b6","system_id":"levelo_inurba_marseille","lat":43.29531,"lon":5.39402,"is_reserved":false,"is_disabled":false,"rental_uris":{"android":"levelo://app?vid=0ecf7e0c-ce25-4026-ad5c-1c79d76156b6","ios":"levelo://app?vid=0ecf7e0c-ce25-4026-ad5c-1c79d76156b6"},"vehicle_type_id":"4","last_reported":1738339812,"current_range_meters":29600,"station_id":"ce4bh292rcd13ifvqdf0","pricing_plan_id":"cebpf4jnsgd1na2vs0mg"},{"bike_id":"fcf9a803-5dd5-498e-a7f9-4689318a606b","system_id":"levelo_inurba_marseille","lat":43.27816,"lon":5.40717,"is_reserved":false,"is_disabled":false,"rental_uris":{"android":"levelo://app?vid=fcf9a803-5dd5-498e-a7f9-4689318a606b","ios":"levelo://app?vid=fcf9a803-5dd5-498e-a7f9-4689318a606b"},"vehicle_type_id":"4","last_reported":1738339812,"current_range_meters":38800,"station_id":"ce4bhnh2rcd13ifvqgtg","pricing_plan_id":"cebpf4jnsgd1na2vs0mg"},{"bike_id":"5bb77195-6b37-404d-890a-16c6e68c5145","system_id":"levelo_inurba_marseille","lat":43.27808,"lon":5.40722,"is_reserved":false,"is_disabled":false,"rental_uris":{"android":"levelo://app?vid=5bb77195-6b37-404d-890a-16c6e68c5145","ios":"levelo://app?vid=5bb77195-6b37-404d-890a-16c6e68c5145"},"vehicle_type_id":"4","last_reported":1738339812,"current_range_meters":14000,"station_id":"ce4bhnh2rcd13ifvqgtg","pricing_plan_id":"cebpf4jnsgd1na2vs0mg"},{"bike_id":"0bf12a23-b2d0-4fb8-9ef0-81726886d3db","system_id":"levelo_inurba_marseille","lat":43.2783,"lon":5.39206,"is_reserved":false,"is_disabled":false,"rental_uris":{"android":"levelo://app?vid=0bf12a23-b2d0-4fb8-9ef0-81726886d3db","ios":"levelo://app?vid=0bf12a23-b2d0-4fb8-9ef0-81726886d3db"},"vehicle_type_id":"4","last_reported":1738339812,"current_range_meters":32000,"station_id":"ce4bhjp2rcd13ifvqga0","pricing_plan_id":"cebpf4jnsgd1na2vs0mg"},{"bike_id":"3ef11f7e-fe95-4364-a439-d6b1130d6aeb","system_id":"levelo_inurba_marseille","lat":43.290976,"lon":5.381112,"is_reserved":false,"is_disabled":false,"rental_uris":{"android":"levelo://app?vid=3ef11f7e-fe95-4364-a439-d6b1130d6aeb","ios":"levelo://app?vid=3ef11f7e-fe95-4364-a439-d6b1130d6aeb"},"vehicle_type_id":"4","last_reported":1738339812,"current_range_meters":5600,"station_id":"ce4bh512rcd13ifvqe2g","pricing_plan_id":"cebpf4jnsgd1na2vs0mg"},{"bike_id":"8c607d9e-5155-494c-8817-ffc30e5d0d6f","system_id":"levelo_inurba_marseille","lat":43.31541,"lon":5.38008,"is_reserved":false,"is_disabled":false,"rental_uris":{"android":"levelo://app?vid=8c607d9e-5155-494c-8817-ffc30e5d0d6f","ios":"levelo://app?vid=8c607d9e-5155-494c-8817-ffc30e5d0d6f"},"vehicle_type_id":"4","last_reported":1738339812,"current_range_meters":38800,"station_id":"ce4bhsp2rcd13ifvqi50","pricing_plan_id":"cebpf4jnsgd1na2vs0mg"},{"bike_id":"a06f98a0-2f53-4c18-91ec-9268005ee5e2","system_id":"levelo_inurba_marseille","lat":43.28948,"lon":5.36409,"is_reserved":false,"is_disabled":false,"rental_uris":{"android":"levelo://app?vid=a06f98a0-2f53-4c18-91ec-9268005ee5e2","ios":"levelo://app?vid=a06f98a0-2f53-4c18-91ec-9268005ee5e2"},"vehicle_type_id":"4","last_reported":1738339812,"current_range_meters":8400,"station_id":"ce4bhc92rcd13ifvqetg","pricing_plan_id":"cebpf4jnsgd1na2vs0mg"},{"bike_id":"fa77bb4c-2430-4410-b1db-71a862288c31","system_id":"levelo_inurba_marseille","lat":43.30187,"lon":5.36616,"is_reserved":false,"is_disabled":false,"rental_uris":{"android":"levelo://app?vid=fa77bb4c-2430-4410-b1db-71a862288c31","ios":"levelo://app?vid=fa77bb4c-2430-4410-b1db-71a862288c31"},"vehicle_type_id":"4","last_reported":1738339812,"current_range_meters":38800,"station_id":"ce4bgrh2rcd13ifvqc8g","pricing_plan_id":"cebpf4jnsgd1na2vs0mg"},{"bike_id":"fd055295-e272-4104-96dd-4545289ef125","system_id":"levelo_inurba_marseille","lat":43.28462,"lon":5.35888,"is_reserved":false,"is_disabled":false,"rental_uris":{"android":"levelo://app?vid=fd055295-e272-4104-96dd-4545289ef125","ios":"levelo://app?vid=fd055295-e272-4104-96dd-4545289ef125"},"vehicle_type_id":"4","last_reported":1738339812,"current_range_meters":12800,"station_id":"ce4bhah2rcd13ifvqei0","pricing_plan_id":"cebpf4jnsgd1na2vs0mg"},{"bike_id":"4008c5d4-accb-4981-8933-9e85f4cde128","system_id":"levelo_inurba_marseille","lat":43.23196,"lon":5.3555,"is_reserved":false,"is_disabled":false,"rental_uris":{"android":"levelo://app?vid=4008c5d4-accb-4981-8933-9e85f4cde128","ios":"levelo://app?vid=4008c5d4-accb-4981-8933-9e85f4cde128"},"vehicle_type_id":"4","last_reported":1738339812,"current_range_meters":32000,"station_id":"ce4bhu92rcd13ifvqi70","pricing_plan_id":"cebpf4jnsgd1na2vs0mg"},{"bike_id":"1a2e4908-a7ae-41b0-a676-3247db450a89","system_id":"levelo_inurba_marseille","lat":43.26932,"lon":5.38931,"is_reserved":false,"is_disabled":false,"rental_uris":{"android":"levelo://app?vid=1a2e4908-a7ae-41b0-a676-3247db450a89","ios":"levelo://app?vid=1a2e4908-a7ae-41b0-a676-3247db450a89"},"vehicle_type_id":"4","last_reported":1738339812,"current_range_meters":8800,"station_id":"ce4bhhh2rcd13ifvqfl0","pricing_plan_id":"cebpf4jnsgd1na2vs0mg"},{"bike_id":"4a46fbde-b7f3-433d-987a-280893d0beba","system_id":"levelo_inurba_marseille","lat":43.32358,"lon":5.38882,"is_reserved":false,"is_disabled":false,"rental_uris":{"android":"levelo://app?vid=4a46fbde-b7f3-433d-987a-280893d0beba","ios":"levelo://app?vid=4a46fbde-b7f3-433d-987a-280893d0beba"},"vehicle_type_id":"4","last_reported":1738339812,"current_range_meters":34000,"station_id":"ce4bhqp2rcd13ifvqhog","pricing_plan_id":"cebpf4jnsgd1na2vs0mg"},{"bike_id":"f075efe3-5038-4c1c-8d79-f75e956bd076","system_id":"levelo_inurba_marseille","lat":43.31762,"lon":5.39017,"is_reserved":false,"is_disabled":false,"rental_uris":{"android":"levelo://app?vid=f075efe3-5038-4c1c-8d79-f75e956bd076","ios":"levelo://app?vid=f075efe3-5038-4c1c-8d79-f75e956bd076"},"vehicle_type_id":"4","last_reported":1738339812,"current_range_meters":26000,"station_id":"ce4bhqp2rcd13ifvqhng","pricing_plan_id":"cebpf4jnsgd1na2vs0mg"},{"bike_id":"492ba2fa-4823-4754-9ed5-99e8c1131abb","system_id":"levelo_inurba_marseille","lat":43.22933,"lon":5.3537,"is_reserved":false,"is_disabled":false,"rental_uris":{"android":"levelo://app?vid=492ba2fa-4823-4754-9ed5-99e8c1131abb","ios":"levelo://app?vid=492ba2fa-4823-4754-9ed5-99e8c1131abb"},"vehicle_type_id":"4","last_reported":1738339812,"current_range_meters":18000,"station_id":"cpo3532slgdg3j2ikp40","pricing_plan_id":"cebpf4jnsgd1na2vs0mg"},