{"last_updated":1727939330,"ttl":60,"version":"2.2","data":{"bikes":[{"bike_id":"8bc0aa01-1d61-49ab-973d-784704f64634","system_id":"levelo_inurba_marseille","lat":43.30137,"lon":5.3656,"is_reserved":false,"is_disabled":false,"rental_uris":{"android":"levelo://app?vid=8bc0aa01-1d61-49ab-973d-784704f64634","ios":"levelo://app?vid=8bc0aa01-1d61-49ab-973d-784704f64634"},"vehicle_type_id":"4","last_reported":1727939330,"current_range_meters":8400,"station_id":"","pricing_plan_id":"cebpf4jnsgd1na2vs0mg"},{"bike_id":"f5b25e81-add5-418a-9c66-f3bc141b9afd","system_id":"levelo_inurba_marseille","lat":43.25941,"lon":5.409,"is_reserved":false,"is_disabled":false,"rental_uris":{"android":"levelo://app?vid=f5b25e81-add5-418a-9c66-f3bc141b9afd","ios":"levelo://app?vid=f5b25e81-add5-418a-9c66-f3bc141b9afd"},"vehicle_type_id":"4","last_reported":1727939330,"current_range_meters":17600,"station_id":"ce4bhm92rcd13ifvqglg","pricing_plan_id":"cebpf4jnsgd1na2vs0mg"},{"bike_id":"14e3148b-eb6c-41c6-981c-d398f4db85af","system_id":"levelo_inurba_marseille","lat":43.27488,"lon":5.42474,"is_reserved":false,"is_disabled":false,"rental_uris":{"android":"levelo://app?vid=14e3148b-eb6c-41c6-981c-d398f4db85af","ios":"levelo://app?vid=14e3148b-eb6c-41c6-981c-d398f4db85af"},"vehicle_type_id":"4","last_reported":1727939330,"current_range_meters":19600,"station_id":"ce4bhn92rcd13ifvqgrg","pricing_plan_id":"cebpf4jnsgd1na2vs0mg"},{"bike_id":"bf960b4b-9944-4777-88ed-2a8cd51cb17d","system_id":"levelo_inurba_marseille","lat":43.27976,"lon":5.41664,"is_reserved":false,"is_disabled":false,"rental_uris":{"android":"levelo://app?vid=bf960b4b-9944-4777-88ed-2a8cd51cb17d","ios":"levelo://app?vid=bf960b4b-9944-4777-88ed-2a8cd51cb17d"},"vehicle_type_id":"4","last_reported":1727939330,"current_range_meters":32800,"station_id":"ce4bho12rcd13ifvqh1g","pricing_plan_id":"cebpf4jnsgd1na2vs0mg"},{"bike_id":"bc374655-6eae-4ab6-bb05-dda63ed6e782","system_id":"levelo_inurba_marseille","lat":43.30539,"lon":5.3656,"is_reserved":false,"is_disabled":false,"rental_uris":{"android":"levelo://app?vid=bc374655-6eae-4ab6-bb05-dda63ed6e782","ios":"levelo://app?vid=bc374655-6eae-4ab6-bb05-dda63ed6e782"},"vehicle_type_id":"4","last_reported":1727939330,"current_range_meters":36400,"station_id":"ce4bgs12rcd13ifvqcag","pricing_plan_id":"cebpf4jnsgd1na2vs0mg"},{"bike_id":"b8d32f9e-42f8-4564-8290-6be3e340ccec","system_id":"levelo_inurba_marseille","lat":43.28043,"lon":5.36965,"is_reserved":false,"is_disabled":false,"rental_uris":{"android":"levelo://app?vid=b8d32f9e-42f8-4564-8290-6be3e340ccec","ios":"levelo://app?vid=b8d32f9e-42f8-4564-8290-6be3e340ccec"},"vehicle_type_id":"4","last_reported":1727939330,"current_range_meters":9200,"station_id":"ce4bha12rcd13ifvqef0","pricing_plan_id":"cebpf4jnsgd1na2vs0mg"},{"bike_id":"dfa316ed-31fe-4eb7-ae98-3312a562d760","system_id":"levelo_inurba_marseille","lat":43.2719,"lon":5.40992,"is_reserved":false,"is_disabled":false,"rental_uris":{"android":"levelo://app?vid=dfa316ed-31fe-4eb7-ae98-3312a562d760","ios":"levelo://app?vid=dfa316ed-31fe-4eb7-ae98-3312a562d760"},"vehicle_type_id":"4","last_reported":1727939330,"current_range_meters":36400,"station_id":"ce4bhl12rcd13ifvqgf0","pricing_plan_id":"cebpf4jnsgd1na2vs0mg"},{"bike_id":"df4ec099-b188-48ab-96c7-11a1ce7c7011","system_id":"levelo_inurba_marseille","lat":43.24653,"lon":5.38921,"is_reserved":false,"is_disabled":false,"rental_uris":{"android":"levelo://app?vid=df4ec099-b188-48ab-96c7-11a1ce7c7011","ios":"levelo://app?vid=df4ec099-b188-48ab-96c7-11a1ce7c7011"},"vehicle_type_id":"4","last_reported":1727939330,"current_range_meters":10000,"station_id":"ce4bhg12rcd13ifvqf60","pricing_plan_id":"cebpf4jnsgd1na2vs0mg"},{"bike_id":"91dd8c22-d1e9-4d71-ae55-5dd7e65d7d5a","system_id":"levelo_inurba_marseille","lat":43.23153,"lon":5.4371,"is_reserved":false,"is_disabled":false,"rental_uris":{"android":"levelo://app?vid=91dd8c22-d1e9-4d71-ae55-5dd7e65d7d5a","ios":"levelo://app?vid=91dd8c22-d1e9-4d71-ae55-5dd7e65d7d5a"},"vehicle_type_id":"4","last_reported":1727939330,"current_range_meters":21600,"station_id":"ce4bhmp2rcd13ifvqgog","pricing_plan_id":"cebpf4jnsgd1na2vs0mg"},{"bike_id":"ff89b7e6-8dbb-4502-ae6b-954b46feae02","system_id":"levelo_inurba_marseille","lat":43.25005,"lon":5.38917,"is_reserved":false,"is_disabled":false,"rental_uris":{"android":"levelo://app?vid=ff89b7e6-8dbb-4502-ae6b-954b46feae02","ios":"levelo://app?vid=ff89b7e6-8dbb-4502-ae6b-954b46feae02"},"vehicle_type_id":"4","last_reported":1727939330,"current_range_meters":38000,"station_id":"ce4bhgp2rcd13ifvqfd0","pricing_plan_id":"cebpf4jnsgd1na2vs0mg"},{"bike_id":"bc41810d-3fc6-4e9c-bcc1-3b1d7bce3ce2","system_id":"levelo_inurba_marseille","lat":43.23185,"lon":5.39982,"is_reserved":false,"is_disabled":false,"rental_uris":{"android":"levelo://app?vid=bc41810d-3fc6-4e9c-bcc1-3b1d7bce3ce2","ios":"levelo://app?vid=bc41810d-3fc6-4e9c-bcc1-3b1d7bce3ce2"},"vehicle_type_id":"4","last_reported":1727939330,"current_range_meters":25200,"station_id":"ce4bhn12rcd13ifvqgqg","pricing_plan_id":"cebpf4jnsgd1na2vs0mg"},{"bike_id":"12e2e50d-d55e-46b7-8047-7f89cbf5e243","system_id":"levelo_inurba_marseille","lat":43.304566,"lon":5.379046,"is_reserved":false,"is_disabled":false,"rental_uris":{"android":"levelo://app?vid=12e2e50d-d55e-46b7-8047-7f89cbf5e243","ios":"levelo://app?vid=12e2e50d-d55e-46b7-8047-7f89cbf5e243"},"vehicle_type_id":"4","last_reported":1727939330,"current_range_meters":24800,"station_id":"ce4bh312rcd13ifvqdk0","pricing_plan_id":"cebpf4jnsgd1na2vs0mg"},{"bike_id":"4b6721b8-1a28-4ce5-a9fa-1b893f7f0ac0","system_id":"levelo_inurba_marseille","lat":43.32487,"lon":5.36557,"is_reserved":false,"is_disabled":false,"rental_uris":{"android":"levelo://app?vid=4b6721b8-1a28-4ce5-a9fa-1b893f7f0ac0","ios":"levelo://app?vid=4b6721b8-1a28-4ce5-a9fa-1b893f7f0ac0"},"vehicle_type_id":"4","last_reported":1727939330,"current_range_meters":38800,"station_id":"ce4bhs12rcd13ifvqhvg","pricing_plan_id":"cebpf4jnsgd1na2vs0mg"},{"bike_id":"91243f2f-8984-44e5-a564-b9bfa02425fb","system_id":"levelo_inurba_marseille","lat":43.28517,"lon":5.37461,"is_reserved":false,"is_disabled":false,"rental_uris":{"android":"levelo://app?vid=91243f2f-8984-44e5-a564-b9bfa02425fb","ios":"levelo://app?vid=91243f2f-8984-44e5-a564-b9bfa02425fb"},"vehicle_type_id":"4","last_reported":1727939330,"current_range_meters":34000,"station_id":"ce4bgs92rcd13ifvqcc0","pricing_plan_id":"cebpf4jnsgd1na2vs0mg"},{"bike_id":"f0402554-d250-4a9b-bf9e-46e99b7d10ef","system_id":"levelo_inurba_marseille","lat":43.27489,"lon":5.42495,"is_reserved":false,"is_disabled":false,"rental_uris":{"android":"levelo://app?vid=f0402554-d250-4a9b-bf9e-46e99b7d10ef","ios":"levelo://app?vid=f0402554-d250-4a9b-bf9e-46e99b7d10ef"},"vehicle_type_id":"4","last_reported":1727939330,"current_range_meters":9600,"station_id":"ce4bhn92rcd13ifvqgrg","pricing_plan_id":"cebpf4jnsgd1na2vs0mg"},{"bike_id":"cd83069d-2fd2-446d-b833-e65fbf0c2ad5","system_id":"levelo_inurba_marseille","lat":43.24074,"lon":5.3776,"is_reserved":false,"is_disabled":false,"rental_uris":{"android":"levelo://app?vid=cd83069d-2fd2-446d-b833-e65fbf0c2ad5","ios":"levelo://app?vid=cd83069d-2fd2-446d-b833-e65fbf0c2ad5"},"vehicle_type_id":"4","last_reported":1727939330,"current_range_meters":24800,"station_id":"","pricing_plan_id":"cebpf4jnsgd1na2vs0mg"},{"bike_id":"7b10c162-c32d-43a0-a54c-16483566edac","system_id":"levelo_inurba_marseille","lat":43.31357,"lon":5.36701,"is_reserved":false,"is_disabled":false,"rental_uris":{"android":"levelo://app?vid=7b10c162-c32d-43a0-a54c-16483566edac","ios":"levelo://app?vid=7b10c162-c32d-43a0-a54c-16483566edac"},"vehicle_type_id":"4","last_reported":1727939330,"current_range_meters":20800,"station_id":"ce4bgr92rcd13ifvqc6g","pricing_plan_id":"cebpf4jnsgd1na2vs0mg"},{"bike_id":"d7a497e1-a0d0-4082-aaef-5f9e0ef9d2d9","system_id":"levelo_inurba_marseille","lat":43.30468,"lon":5.37908,"is_reserved":false,"is_disabled":false,"rental_uris":{"android":"levelo://app?vid=d7a497e1-a0d0-4082-aaef-5f9e0ef9d2d9","ios":"levelo://app?vid=d7a497e1-a0d0-4082-aaef-5f9e0ef9d2d9"},"vehicle_type_id":"4","last_reported":1727939330,"current_range_meters":25600,"station_id":"ce4bgup2rcd13ifvqcn0","pricing_plan_id":"cebpf4jnsgd1na2vs0mg"},{"bike_id":"58bdc306-5dae-4496-9cf1-abc7a1bd6a77","system_id":"levelo_inurba_marseille","lat":43.30897,"lon":5.37186,"is_reserved":false,"is_disabled":false,"rental_uris":{"android":"levelo://app?vid=58bdc306-5dae-4496-9cf1-abc7a1bd6a77","ios":"levelo://app?vid=58bdc306-5dae-4496-9cf1-abc7a1bd6a77"},"vehicle_type_id":"4","last_reported":1727939330,"current_range_meters":39200,"station_id":"ce4bguh2rcd13ifvqckg","pricing_plan_id":"cebpf4jnsgd1na2vs0mg"},{"bike_id":"0a9918d7-41e5-40b7-a2f3-9509ab8baede","system_id":"levelo_inurba_marseille","lat":43.283428,"lon":5.41272,"is_reserved":false,"is_disabled":false,"rental_uris":{"android":"levelo://app?vid=0a9918d7-41e5-40b7-a2f3-9509ab8baede","ios":"levelo://app?vid=0a9918d7-41e5-40b7-a2f3-9509ab8baede"},"vehicle_type_id":"4","last_reported":1727939330,"current_range_meters":19200,"station_id":"","pricing_plan_id":"cebpf4jnsgd1na2vs0mg"},{"bike_id":"16a714d4-56a8-49e7-92a3-debf531ddf74","system_id":"levelo_inurba_marseille","lat":43.24181,"lon":5.39732,"is_reserved":false,"is_disabled":false,"rental_uris":{"android":"levelo://app?vid=16a714d4-56a8-49e7-92a3-debf531ddf74","ios":"levelo://app?vid=16a714d4-56a8-49e7-92a3-debf531ddf74"},"vehicle_type_id":"4","last_reported":1727939330,"current_range_meters":26000,"station_id":"ce4bhn12rcd13ifvqgpg","pricing_plan_id":"cebpf4jnsgd1na2vs0mg"},{"bike_id":"e4639c2e-f7f3-406f-8558-5b25a5f06166","system_id":"levelo_inurba_marseille","lat":43.317719,"lon":5.405756,"is_reserved":false,"is_disabled":false,"rental_uris":{"android":"levelo://app?vid=e4639c2e-f7f3-406f-8558-5b25a5f06166","ios":"levelo://app?vid=e4639c2e-f7f3-406f-8558-5b25a5f06166"},"vehicle_type_id":"4","last_reported":1727939330,"current_range_meters":15200,"station_id":"ce4bhop2rcd13ifvqh8g","pricing_plan_id":"cebpf4jnsgd1na2vs0mg"},{"bike_id":"25454cee-75e1-4829-863e-96eae8fc3747","system_id":"levelo_inurba_marseille","lat":43.34146,"lon":5.40905,"is_reserved":false,"is_disabled":false,"rental_uris":{"android":"levelo://app?vid=25454cee-75e1-4829-863e-96eae8fc3747","ios":"levelo://app?vid=25454cee-75e1-4829-863e-96eae8fc3747"},"vehicle_type_id":"4","last_reported":1727939330,"current_range_meters":40000,"station_id":"ce4bhqh2rcd13ifvqhlg","pricing_plan_id":"cebpf4jnsgd1na2vs0mg"},{"bike_id":"3420bd34-edf4-4eb5-8c58-eee5e2170f9d","system_id":"levelo_inurba_marseille","lat":43.24075,"lon":5.37754,"is_reserved":false,"is_disabled":false,"rental_uris":{"android":"levelo://app?vid=3420bd34-edf4-4eb5-8c58-eee5e2170f9d","ios":"levelo://app?vid=3420bd34-edf4-4eb5-8c58-eee5e2170f9d"},"vehicle_type_id":"4","last_reported":1727939330,"current_range_meters":36800,"station_id":"ce4bhnp2rcd13ifvqgvg","pricing_plan_id":"cebpf4jnsgd1na2vs0mg"},{"bike_id":"4742c689-0d3e-45a9-b482-2c8459a45220","system_id":"levelo_inurba_marseille","lat":43.29218,"lon":5.36064,"is_reserved":false,"is_disabled":false,"rental_uris":{"android":"levelo://app?vid=4742c689-0d3e-45a9-b482-2c8459a45220","ios":"levelo://app?vid=4742c689-0d3e-45a9-b482-2c8459a45220"},"vehicle_type_id":"4","last_reported":1727939330,"current_range_meters":38800,"station_id":"ce4bhbh2rcd13ifvqeqg","pricing_plan_id":"cebpf4jnsgd1na2vs0mg"},{"bike_id":"f541f2a4-9417-478c-a0ba-e1a6898f49ec","system_id":"levelo_inurba_marseille","lat":43.32537,"lon":5.41446,"is_reserved":false,"is_disabled":false,"rental_uris":{"android":"levelo://app?vid=f541f2a4-9417-478c-a0ba-e1a6898f49ec","ios":"levelo://app?vid=f541f2a4-9417-478c-a0ba-e1a6898f49ec"},"vehicle_type_id":"4","last_reported":1727939330,"current_range_meters":38800,"station_id":"ce4bhq12rcd13ifvqhhg","pricing_plan_id":"cebpf4jnsgd1na2vs0mg"},{"bike_id":"6760e528-3164-421f-b876-b1703b9490db","system_id":"levelo_inurba_marseille","lat":43.26565,"lon":5.39007,"is_reserved":false,"is_disabled":false,"rental_uris":{"android":"levelo://app?vid=6760e528-3164-421f-b876-b1703b9490db","ios":"levelo://app?vid=6760e528-3164-421f-b876-b1703b9490db"},"vehicle_type_id":"4","last_reported":1727939330,"current_range_meters":10000,"station_id":"ce4bhe12rcd13ifvqf30","pricing_plan_id":"cebpf4jnsgd1na2vs0mg"},{"bike_id":"135704bf-446f-4b0d-9b80-2920f07a4513","system_id":"levelo_inurba_marseille","lat":43.28725,"lon":5.37956,"is_reserved":false,"is_disabled":false,"rental_uris":{"android":"levelo://app?vid=135704bf-446f-4b0d-9b80-2920f07a4513","ios":"levelo://app?vid=135704bf-446f-4b0d-9b80-2920f07a4513"},"vehicle_type_id":"4","last_reported":1727939330,"current_range_meters":4800,"station_id":"ce4bh9p2rcd13ifvqec0","pricing_plan_id":"cebpf4jnsgd1na2vs0mg"},{"bike_id":"add76ba5-8541-479d-987c-2674a769bf7a","system_id":"levelo_inurba_marseille","lat":43.27489,"lon":5.42462,"is_reserved":false,"is_disabled":false,"rental_uris":{"android":"levelo://app?vid=add76ba5-8541-479d-987c-2674a769bf7a","ios":"levelo://app?vid=add76ba5-8541-479d-987c-2674a769bf7a"},"vehicle_type_id":"4","last_reported":1727939330,"current_range_meters":24800,"station_id":"ce4bhn92rcd13ifvqgrg","pricing_plan_id":"cebpf4jnsgd1na2vs0mg"},{"bike_id":"f20ea9d5-5ffd-4e93-9254-3415e729f736","system_id":"levelo_inurba_marseille","lat":43.26567,"lon":5.39007,"is_reserved":false,"is_disabled":false,"rental_uris":{"android":"levelo://app?vid=f20ea9d5-5ffd-4e93-9254-3415e729f736","ios":"levelo://app?vid=f20ea9d5-5ffd-4e93-9254-3415e729f736"},"vehicle_type_id":"4","last_reported":1727939330,"current_range_meters":34800,"station_id":"ce4bhe12rcd13ifvqf30","pricing_plan_id":"cebpf4jnsgd1na2vs0mg"},{"bike_id":"78f485d1-bf5b-445b-a57f-ee387d423c2a","system_id":"levelo_inurba_marseille","lat":43.24651,"lon":5.38893,"is_reserved":false,"is_disabled":false,"rental_uris":{"android":"levelo://app?vid=78f485d1-bf5b-445b-a57f-ee387d423c2a","ios":"levelo://app?vid=78f485d1-bf5b-445b-a57f-ee387d423c2a"},"vehicle_type_id":"4","last_reported":1727939330,"current_range_meters":36800,"station_id":"ce4bhg12rcd13ifvqf60","pricing_plan_id":"cebpf4jnsgd1na2vs0mg"},{"bike_id":"549d4874-909b-44be-8178-ece1be5b4cde","system_id":"levelo_inurba_marseille","lat":43.31749,"lon":5.39016,"is_reserved":false,"is_disabled":false,"rental_uris":{"android":"levelo://app?vid=549d4874-909b-44be-8178-ece1be5b4cde","ios":"levelo://app?vid=549d4874-909b-44be-8178-ece1be5b4cde"},"vehicle_type_id":"4","last_reported":1727939330,"current_range_meters":24400,"station_id":"ce4bhqp2rcd13ifvqhng","pricing_plan_id":"cebpf4jnsgd1na2vs0mg"},{"bike_id":"bcd9fab7-8d81-400d-8ab8-106aef3a4c73","system_id":"levelo_inurba_marseille","lat":43.26571,"lon":5.38998,"is_reserved":false,"is_disabled":false,"rental_uris":{"android":"levelo://app?vid=bcd9fab7-8d81-400d-8ab8-106aef3a4c73","ios":"levelo://app?vid=bcd9fab7-8d81-400d-8ab8-106aef3a4c73"},"vehicle_type_id":"4","last_reported":1727939330,"current_range_meters":16000,"station_id":"ce4bhe12rcd13ifvqf30","pricing_plan_id":"cebpf4jnsgd1na2vs0mg"},{"bike_id":"d2de4833-f64b-4e2b-b66d-f887adb7aa73","system_id":"levelo_inurba_marseille","lat":43.3046,"lon":5.37894,"is_reserved":false,"is_disabled":false,"rental_uris":{"android":"levelo://app?vid=d2de4833-f64b-4e2b-b66d-f887adb7aa73","ios":"levelo://app?vid=d2de4833-f64b-4e2b-b66d-f887adb7aa73"},"vehicle_type_id":"4","last_reported":1727939330,"current_range_meters":20000,"station_id":"ce4bgup2rcd13ifvqcn0","pricing_plan_id":"cebpf4jnsgd1na2vs0mg"},{"bike_id":"10363190-036a-43b5-af3b-4bc18de61b4a","system_id":"levelo_inurba_marseille","lat":43.27487,"lon":5.42454,"is_reserved":false,"is_disabled":false,"rental_uris":{"android":"levelo://app?vid=10363190-036a-43b5-af3b-4bc18de61b4a","ios":"levelo://app?vid=10363190-036a-43b5-af3b-4bc18de61b4a"},"vehicle_type_id":"4","last_reported":1727939330,"current_range_meters":18000,"station_id":"ce4bhn92rcd13ifvqgrg","pricing_plan_id":"cebpf4jnsgd1na2vs0mg"},{"bike_id":"49d3e753-cd24-4ef3-8d08-09b0cc79ef94","system_id":"levelo_inurba_marseille","lat":43.26682,"lon":5.38269,"is_reserved":false,"is_disabled":false,"rental_uris":{"android":"levelo://app?vid=49d3e753-cd24-4ef3-8d08-09b0cc79ef94","ios":"levelo://app?vid=49d3e753-cd24-4ef3-8d08-09b0cc79ef94"},"vehicle_type_id":"4","last_reported":1727939330,"current_range_meters":19200,"station_id":"ce4bhg92rcd13ifvqf90","pricing_plan_id":"cebpf4jnsgd1na2vs0mg"},{"bike_id":"a5bc78e8-0ff4-4da0-acba-f17ca5d6e61c","system_id":"levelo_inurba_marseille","lat":43.28049,"lon":5.36948,"is_reserved":false,"is_disabled":false,"rental_uris":{"android":"levelo://app?vid=a5bc78e8-0ff4-4da0-acba-f17ca5d6e61c","ios":"levelo://app?vid=a5bc78e8-0ff4-4da0-acba-f17ca5d6e61c"},"vehicle_type_id":"4","last_reported":1727939330,"current_range_meters":38400,"station_id":"ce4bha12rcd13ifvqef0","pricing_plan_id":"cebpf4jnsgd1na2vs0mg"},{"bike_id":"52cbff26-46f2-4ff8-880e-528cf396d7a2","system_id":"levelo_inurba_marseille","lat":43.33611,"lon":5.4104,"is_reserved":false,"is_disabled":false,"rental_uris":{"android":"levelo://app?vid=52cbff26-46f2-4ff8-880e-528cf396d7a2","ios":"levelo://app?vid=52cbff26-46f2-4ff8-880e-528cf396d7a2"},"vehicle_type_id":"4","last_reported":1727939330,"current_range_meters":9600,"station_id":"ce4bhqh2rcd13ifvqhmg","pricing_plan_id":"cebpf4jnsgd1na2vs0mg"},{"bike_id":"d67ee348-8c78-4ee7-9bd9-e8c67f9e4746","system_id":"levelo_inurba_marseille","lat":43.29561,"lon":5.42291,"is_reserved":false,"is_disabled":false,"rental_uris":{"android":"levelo://app?vid=d67ee348-8c78-4ee7-9bd9-e8c67f9e4746","ios":"levelo://app?vid=d67ee348-8c78-4ee7-9bd9-e8c67f9e4746"},"vehicle_type_id":"4","last_reported":1727939330,"current_range_meters":39200,"station_id":"ce4bhph2rcd13ifvqhdg","pricing_plan_id":"cebpf4jnsgd1na2vs0mg"},{"bike_id":"0254b970-14d7-4dfc-8d38-0171ca9ae025","system_id":"levelo_inurba_marseille","lat":43.2678,"lon":5.38407,"is_reserved":false,"is_disabled":false,"rental_uris":{"android":"levelo://app?vid=0254b970-14d7-4dfc-8d38-0171ca9ae025","ios":"levelo://app?vid=0254b970-14d7-4dfc-8d38-0171ca9ae025"},"vehicle_type_id":"4","last_reported":1727939330,"current_range_meters":20800,"station_id":"ce4bhg92rcd13ifvqf90","pricing_plan_id":"cebpf4jnsgd1na2vs0mg"},{"bike_id":"f3ded537-2d94-4bf0-b696-14a43ed73f3a","system_id":"levelo_inurba_marseille","lat":43.31228,"lon":5.36859,"is_reserved":false,"is_disabled":false,"rental_uris":{"android":"levelo://app?vid=f3ded537-2d94-4bf0-b696-14a43ed73f3a","ios":"levelo://app?vid=f3ded537-2d94-4bf0-b696-14a43ed73f3a"},"vehicle_type_id":"4","last_reported":1727939330,"current_range_meters":29600,"station_id":"ce4bgl92rcd13ifvqbq0","pricing_plan_id":"cebpf4jnsgd1na2vs0mg"},{"bike_id":"5077e3da-46af-40a3-8277-cca140db96d3","system_id":"levelo_inurba_marseille","lat":43.33619,"lon":5.41047,"is_reserved":false,"is_disabled":false,"rental_uris":{"android":"levelo://app?vid=5077e3da-46af-40a3-8277-cca140db96d3","ios":"levelo://app?vid=5077e3da-46af-40a3-8277-cca140db96d3"},"vehicle_type_id":"4","last_reported":1727939330,"current_range_meters":24400,"station_id":"ce4bhqh2rcd13ifvqhmg","pricing_plan_id":"cebpf4jnsgd1na2vs0mg"},{"bike_id":"b3936005-fff7-46b5-9ec1-f114102e4429","system_id":"levelo_inurba_marseille","lat":43.246657,"lon":5.381623,"is_reserved":false,"is_disabled":false,"rental_uris":{"android":"levelo://app?vid=b3936005-fff7-46b5-9ec1-f114102e4429","ios":"levelo://app?vid=b3936005-fff7-46b5-9ec1-f114102e4429"},"vehicle_type_id":"4","last_reported":1727939330,"current_range_meters":22000,"station_id":"ce4bhih2rcd13ifvqfr0","pricing_plan_id":"cebpf4jnsgd1na2vs0mg"},{"bike_id":"1645ee36-730f-4cfa-a916-24d9a0d96657","system_id":"levelo_inurba_marseille","lat":43.26934,"lon":5.38898,"is_reserved":false,"is_disabled":false,"rental_uris":{"android":"levelo://app?vid=1645ee36-730f-4cfa-a916-24d9a0d96657","ios":"levelo://app?vid=1645ee36-730f-4cfa-a916-24d9a0d96657"},"vehicle_type_id":"4","last_reported":1727939330,"current_range_meters":9200,"station_id":"ce4bhhh2rcd13ifvqfl0","pricing_plan_id":"cebpf4jnsgd1na2vs0mg"},{"bike_id":"22094e14-fe04-4f6d-940c-3e57c3ad82a9","system_id":"levelo_inurba_marseille","lat":43.23154,"lon":5.43706,"is_reserved":false,"is_disabled":false,"rental_uris":{"android":"levelo://app?vid=22094e14-fe04-4f6d-940c-3e57c3ad82a9","ios":"levelo://app?vid=22094e14-fe04-4f6d-940c-3e57c3ad82a9"},"vehicle_type_id":"4","last_reported":1727939330,"current_range_meters":26800,"station_id":"ce4bhmp2rcd13ifvqgog","pricing_plan_id":"cebpf4jnsgd1na2vs0mg"},{"bike_id":"24d92f51-0476-4c2e-838c-c91673ebb0c9","system_id":"levelo_inurba_marseille","lat":43.28155,"lon":5.42641,"is_reserved":false,"is_disabled":false,"rental_uris":{"android":"levelo://app?vid=24d92f51-0476-4c2e-838c-c91673ebb0c9","ios":"levelo://app?vid=24d92f51-0476-4c2e-838c-c91673ebb0c9"},"vehicle_type_id":"4","last_reported":1727939330,"current_range_meters":37600,"station_id":"ce4bhnh2rcd13ifvqgug","pricing_plan_id":"cebpf4jnsgd1na2vs0mg"},{"bike_id":"5176a661-b550-48a5-a1f8-fa2cbf4ebbce","system_id":"levelo_inurba_marseille","lat":43.31353,"lon":5.38487,"is_reserved":false,"is_disabled":false,"rental_uris":{"android":"levelo://app?vid=5176a661-b550-48a5-a1f8-fa2cbf4ebbce","ios":"levelo://app?vid=5176a661-b550-48a5-a1f8-fa2cbf4ebbce"},"vehicle_type_id":"4","last_reported":1727939330,"current_range_meters":36800,"station_id":"ce4bgt92rcd13ifvqcf0","pricing_plan_id":"cebpf4jnsgd1na2vs0mg"},{"bike_id":"b7046bd9-0899-4f40-956c-57be7242e42a","system_id":"levelo_inurba_marseille","lat":43.29172,"lon":5.36916,"is_reserved":false,"is_disabled":false,"rental_uris":{"android":"levelo://app?vid=b7046bd9-0899-4f40-956c-57be7242e42a","ios":"levelo://app?vid=b7046bd9-0899-4f40-956c-57be7242e42a"},"vehicle_type_id":"4","last_reported":1727939330,"current_range_meters":32400,"station_id":"","pricing_plan_id":"cebpf4jnsgd1na2vs0mg"},{"bike_id":"0d38caac-4e1b-4bc6-8634-fba8549655ca","system_id":"levelo_inurba_marseille","lat":43.32114,"lon":5.36775,"is_reserved":false,"is_disabled":false,"rental_uris":{"android":"levelo://app?vid=0d38caac-4e1b-4bc6-8634-fba8549655ca","ios":"levelo://app?vid=0d38caac-4e1b-4bc6-8634-fba8549655ca"},"vehicle_type_id":"4","last_reported":1727939330,"current_range_meters":36800,"station_id":"ce4bhrh2rcd13ifvqhug","pricing_plan_id":"cebpf4jnsgd1na2vs0mg"},{"bike_id":"bbb27d72-0252-43c1-8bee-677ba4f1e987","system_id":"levelo_inurba_marseille","lat":43.2315,"lon":5.43715,"is_reserved":false,"is_disabled":false,"rental_uris":{"android":"levelo://app?vid=bbb27d72-0252-43c1-8bee-677ba4f1e987","ios":"levelo://app?vid=bbb27d72-0252-43c1-8bee-677ba4f1e987"},"vehicle_type_id":"4","last_reported":1727939330,"current_range_meters":7200,"station_id":"ce4bhmp2rcd13ifvqgog","pricing_plan_id":"cebpf4jnsgd1na2vs0mg"},{"bike_id":"4f012cc6-31d2-4caa-8f39-337ae9626f04","system_id":"levelo_inurba_marseille","lat":43.23153,"lon":5.4372,"is_reserved":false,"is_disabled":false,"rental_uris":{"android":"levelo://app?vid=4f012cc6-31d2-4caa-8f39-337ae9626f04","ios":"levelo://app?vid=4f012cc6-31d2-4caa-8f39-337ae9626f04"},"vehicle_type_id":"4","last_reported":1727939330,"current_range_meters":8800,"station_id":"ce4bhmp2rcd13ifvqgog","pricing_plan_id":"cebpf4jnsgd1na2vs0mg"},{"bike_id":"5193785c-263c-401d-a7b6-51f84a49819f","system_id":"levelo_inurba_marseille","lat":43.29561,"lon":5.42289,"is_reserved":false,"is_disabled":false,"rental_uris":{"android":"levelo://app?vid=5193785c-263c-401d-a7b6-51f84a49819f","ios":"levelo://app?vid=5193785c-263c-401d-a7b6-51f84a49819f"},"vehicle_type_id":"4","last_reported":1727939330,"current_range_meters":40000,"station_id":"ce4bhph2rcd13ifvqhdg","pricing_plan_id":"cebpf4jnsgd1na2vs0mg"},{"bike_id":"3c7ad232-3a27-488f-9a95-36ebb8728742","system_id":"levelo_inurba_marseille","lat":43.31114,"lon":5.37764,"is_reserved":false,"is_disabled":false,"rental_uris":{"android":"levelo://app?vid=3c7ad232-3a27-488f-9a95-36ebb8728742","ios":"levelo://app?vid=3c7ad232-3a27-488f-9a95-36ebb8728742"},"vehicle_type_id":"4","last_reported":1727939330,"current_range_meters":27600,"station_id":"ce4bgt92rcd13ifvqcg0","pricing_plan_id":"cebpf4jnsgd1na2vs0mg"},{"bike_id":"00509870-9879-4a7b-9570-947399eae874","system_id":"levelo_inurba_marseille","lat":43.30915,"lon":5.36851,"is_reserved":false,"is_disabled":false,"rental_uris":{"android":"levelo://app?vid=00509870-9879-4a7b-9570-947399eae874","ios":"levelo://app?vid=00509870-9879-4a7b-9570-947399eae874"},"vehicle_type_id":"4","last_reported":1727939330,"current_range_meters":24400,"station_id":"ce4bgn92rcd13ifvqbvg","pricing_plan_id":"cebpf4jnsgd1na2vs0mg"},{"bike_id":"8830b081-0f3a-480a-acb1-1031c95dffae","system_id":"levelo_inurba_marseille","lat":43.30215,"lon":5.39471,"is_reserved":false,"is_disabled":false,"rental_uris":{"android":"levelo://app?vid=8830b081-0f3a-480a-acb1-1031c95dffae","ios":"levelo://app?vid=8830b081-0f3a-480a-acb1-1031c95dffae"},"vehicle_type_id":"4","last_reported":1727939330,"current_range_meters":28000,"station_id":"ce4bh0p2rcd13ifvqd70","pricing_plan_id":"cebpf4jnsgd1na2vs0mg"},{"bike_id":"499cb64c-6fb8-4407-89d8-a118e3c5c28d","system_id":"levelo_inurba_marseille","lat":43.27989,"lon":5.4002,"is_reserved":false,"is_disabled":false,"rental_uris":{"android":"levelo://app?vid=499cb64c-6fb8-4407-89d8-a118e3c5c28d","ios":"levelo://app?vid=499cb64c-6fb8-4407-89d8-a118e3c5c28d"},"vehicle_type_id":"4","last_reported":1727939330,"current_range_meters":22000,"station_id":"ce4bho92rcd13ifvqh4g","pricing_plan_id":"cebpf4jnsgd1na2vs0mg"},{"bike_id":"73f66102-21cd-4be5-9fb3-258e3aabfc34","system_id":"levelo_inurba_marseille","lat":43.31224,"lon":5.36848,"is_reserved":false,"is_disabled":false,"rental_uris":{"android":"levelo://app?vid=73f66102-21cd-4be5-9fb3-258e3aabfc34","ios":"levelo://app?vid=73f66102-21cd-4be5-9fb3-258e3aabfc34"},"vehicle_type_id":"4","last_reported":1727939330,"current_range_meters":24800,"station_id":"ce4bgl92rcd13ifvqbq0","pricing_plan_id":"cebpf4jnsgd1na2vs0mg"},{"bike_id":"61d0f579-6f90-415d-bb85-e9564ceecbf4","system_id":"levelo_inurba_marseille","lat":43.24083,"lon":5.37751,"is_reserved":false,"is_disabled":false,"rental_uris":{"android":"levelo://app?vid=61d0f579-6f90-415d-bb85-e9564ceecbf4","ios":"levelo://app?vid=61d0f579-6f90-415d-bb85-e9564ceecbf4"},"vehicle_type_id":"4","last_reported":1727939330,"current_range_meters":24400,"station_id":"ce4bhnp2rcd13ifvqgvg","pricing_plan_id":"cebpf4jnsgd1na2vs0mg"},{"bike_id":"8f181795-3aeb-4156-971d-e32d9f5f03a5","system_id":"levelo_inurba_marseille","lat":43.28894,"lon":5.36075,"is_reserved":false,"is_disabled":false,"rental_uris":{"android":"levelo://app?vid=8f181795-3aeb-4156-971d-e32d9f5f03a5","ios":"levelo://app?vid=8f181795-3aeb-4156-971d-e32d9f5f03a5"},"vehicle_type_id":"4","last_reported":1727939330,"current_range_meters":28800,"station_id":"","pricing_plan_id":"cebpf4jnsgd1na2vs0mg"},{"bike_id":"b565ed59-b4f0-4c84-be4f-4e6aa93561ee","system_id":"levelo_inurba_marseille","lat":43.29039,"lon":5.37567,"is_reserved":false,"is_disabled":false,"rental_uris":{"android":"levelo://app?vid=b565ed59-b4f0-4c84-be4f-4e6aa93561ee","ios":"levelo://app?vid=b565ed59-b4f0-4c84-be4f-4e6aa93561ee"},"vehicle_type_id":"4","last_reported":1727939330,"current_range_meters":36400,"station_id":"ce4bh692rcd13ifvqe90","pricing_plan_id":"cebpf4jnsgd1na2vs0mg"},{"bike_id":"a8edbae9-085d-40e4-91c8-4030fc88999a","system_id":"levelo_inurba_marseille","lat":43.31353,"lon":5.36703,"is_reserved":false,"is_disabled":false,"rental_uris":{"android":"levelo://app?vid=a8edbae9-085d-40e4-91c8-4030fc88999a","ios":"levelo://app?vid=a8edbae9-085d-40e4-91c8-4030fc88999a"},"vehicle_type_id":"4","last_reported":1727939330,"current_range_meters":26000,"station_id":"ce4bgr92rcd13ifvqc6g","pricing_plan_id":"cebpf4jnsgd1na2vs0mg"},{"bike_id":"62e66788-9954-4f26-88ea-9a2e2a559b4b","system_id":"levelo_inurba_marseille","lat":43.30205,"lon":5.39469,"is_reserved":false,"is_disabled":false,"rental_uris":{"android":"levelo://app?vid=62e66788-9954-4f26-88ea-9a2e2a559b4b","ios":"levelo://app?vid=62e66788-9954-4f26-88ea-9a2e2a559b4b"},"vehicle_type_id":"4","last_reported":1727939330,"current_range_meters":26000,"station_id":"ce4bh0p2rcd13ifvqd70","pricing_plan_id":"cebpf4jnsgd1na2vs0mg"},{"bike_id":"7bfb5721-baf3-4893-bbf9-7c8112a113a1","system_id":"levelo_inurba_marseille","lat":43.27992,"lon":5.40009,"is_reserved":false,"is_disabled":false,"rental_uris":{"android":"levelo://app?vid=7bfb5721-baf3-4893-bbf9-7c8112a113a1","ios":"levelo://app?vid=7bfb5721-baf3-4893-bbf9-7c8112a113a1"},"vehicle_type_id":"4","last_reported":1727939330,"current_range_meters":35600,"station_id":"ce4bho92rcd13ifvqh4g","pricing_plan_id":"cebpf4jnsgd1na2vs0mg"},{"bike_id":"552bf509-b6e1-4ac9-9428-630f86708366","system_id":"levelo_inurba_marseille","lat":43.30907,"lon":5.36846,"is_reserved":false,"is_disabled":false,"rental_uris":{"android":"levelo://app?vid=552bf509-b6e1-4ac9-9428-630f86708366","ios":"levelo://app?vid=552bf509-b6e1-4ac9-9428-630f86708366"},"vehicle_type_id":"4","last_reported":1727939330,"current_range_meters":28000,"station_id":"ce4bgn92rcd13ifvqbvg","pricing_plan_id":"cebpf4jnsgd1na2vs0mg"},{"bike_id":"69fdf13e-e66d-48a5-9ff4-6d874fa48a59","system_id":"levelo_inurba_marseille","lat":43.32537,"lon":5.4146,"is_reserved":false,"is_disabled":false,"rental_uris":{"android":"levelo://app?vid=69fdf13e-e66d-48a5-9ff4-6d874fa48a59","ios":"levelo://app?vid=69fdf13e-e66d-48a5-9ff4-6d874fa48a59"},"vehicle_type_id":"4","last_reported":1727939330,"current_range_meters":40000,"station_id":"ce4bhq12rcd13ifvqhhg","pricing_plan_id":"cebpf4jnsgd1na2vs0mg"},{"bike_id":"9ef89a1b-9e73-4459-ab02-7a0e2e0fc63b","system_id":"levelo_inurba_marseille","lat":43.29161,"lon":5.39967,"is_reserved":false,"is_disabled":false,"rental_uris":{"android":"levelo://app?vid=9ef89a1b-9e73-4459-ab02-7a0e2e0fc63b","ios":"levelo://app?vid=9ef89a1b-9e73-4459-ab02-7a0e2e0fc63b"},"vehicle_type_id":"4","last_reported":1727939330,"current_range_meters":38800,"station_id":"","pricing_plan_id":"cebpf4jnsgd1na2vs0mg"},{"bike_id":"10851add-dd32-4503-925a-ff5346b9b953","system_id":"levelo_inurba_marseille","lat":43.289468,"lon":5.363926,"is_reserved":false,"is_disabled":false,"rental_uris":{"android":"levelo://app?vid=10851add-dd32-4503-925a-ff5346b9b953","ios":"levelo://app?vid=10851add-dd32-4503-925a-ff5346b9b953"},"vehicle_type_id":"4","last_reported":1727939330,"current_range_meters":23200,"station_id":"ce4bhc92rcd13ifvqetg","pricing_plan_id":"cebpf4jnsgd1na2vs0mg"},{"bike_id":"6723a072-3ad5-47da-99be-bd70037c1ad4","system_id":"levelo_inurba_marseille","lat":43.27496,"lon":5.42453,"is_reserved":false,"is_disabled":false,"rental_uris":{"android":"levelo://app?vid=6723a072-3ad5-47da-99be-bd70037c1ad4","ios":"levelo://app?vid=6723a072-3ad5-47da-99be-bd70037c1ad4"},"vehicle_type_id":"4","last_reported":1727939330,"current_range_meters":24400,"station_id":"ce4bhn92rcd13ifvqgrg","pricing_plan_id":"cebpf4jnsgd1na2vs0mg"},{"bike_id":"4b717922-31ca-4f4b-9255-e35f9c805aa1","system_id":"levelo_inurba_marseille","lat":43.30064,"lon":5.37072,"is_reserved":false,"is_disabled":false,"rental_uris":{"android":"levelo://app?vid=4b717922-31ca-4f4b-9255-e35f9c805aa1","ios":"levelo://app?vid=4b717922-31ca-4f4b-9255-e35f9c805aa1"},"vehicle_type_id":"4","last_reported":1727939330,"current_range_meters":32000,"station_id":"","pricing_plan_id":"cebpf4jnsgd1na2vs0mg"},{"bike_id":"3c98abdc-d787-4a22-bf72-59a990ee8d29","system_id":"levelo_inurba_marseille","lat":43.26955,"lon":5.3864,"is_reserved":false,"is_disabled":false,"rental_uris":{"android":"levelo://app?vid=3c98abdc-d787-4a22-bf72-59a990ee8d29","ios":"levelo://app?vid=3c98abdc-d787-4a22-bf72-59a990ee8d29"},"vehicle_type_id":"4","last_reported":1727939330,"current_range_meters":28000,"station_id":"ce4bhh92rcd13ifvqfh0","pricing_plan_id":"cebpf4jnsgd1na2vs0mg"},{"bike_id":"418a1e41-1e04-4f17-85ac-6c551299276f","system_id":"levelo_inurba_marseille","lat":43.33615,"lon":5.41038,"is_reserved":false,"is_disabled":false,"rental_uris":{"android":"levelo://app?vid=418a1e41-1e04-4f17-85ac-6c551299276f","ios":"levelo://app?vid=418a1e41-1e04-4f17-85ac-6c551299276f"},"vehicle_type_id":"4","last_reported":1727939330,"current_range_meters":36000,"station_id":"ce4bhqh2rcd13ifvqhmg","pricing_plan_id":"cebpf4jnsgd1na2vs0mg"},{"bike_id":"d8e3b8a2-e7e1-441c-8e29-fd0413f83165","system_id":"levelo_inurba_marseille","lat":43.25943,"lon":5.409,"is_reserved":false,"is_disabled":false,"rental_uris":{"android":"levelo://app?vid=d8e3b8a2-e7e1-441c-8e29-fd0413f83165","ios":"levelo://app?vid=d8e3b8a2-e7e1-441c-8e29-fd0413f83165"},"vehicle_type_id":"4","last_reported":1727939330,"current_range_meters":24400,"station_id":"ce4bhm92rcd13ifvqglg","pricing_plan_id":"cebpf4jnsgd1na2vs0mg"},{"bike_id":"fab07bf1-09c2-4882-a9c1-73b120270859","system_id":"levelo_inurba_marseille","lat":43.26553,"lon":5.39022,"is_reserved":false,"is_disabled":false,"rental_uris":{"android":"levelo://app?vid=fab07bf1-09c2-4882-a9c1-73b120270859","ios":"levelo://app?vid=fab07bf1-09c2-4882-a9c1-73b120270859"},"vehicle_type_id":"4","last_reported":1727939330,"current_range_meters":37600,"station_id":"ce4bhe12rcd13ifvqf30","pricing_plan_id":"cebpf4jnsgd1na2vs0mg"},{"bike_id":"cc95a3f4-696c-4680-851c-e5adb30c4522","system_id":"levelo_inurba_marseille","lat":43.30402,"lon":5.39327,"is_reserved":false,"is_disabled":false,"rental_uris":{"android":"levelo://app?vid=cc95a3f4-696c-4680-851c-e5adb30c4522","ios":"levelo://app?vid=cc95a3f4-696c-4680-851c-e5adb30c4522"},"vehicle_type_id":"4","last_reported":1727939330,"current_range_meters":8000,"station_id":"","pricing_plan_id":"cebpf4jnsgd1na2vs0mg"},{"bike_id":"a54e3e51-85f5-4793-8a43-870b0d62cedf","system_id":"levelo_inurba_marseille","lat":43.30211,"lon":5.39466,"is_reserved":false,"is_disabled":false,"rental_uris":{"android":"levelo://app?vid=a54e3e51-85f5-4793-8a43-870b0d62cedf","ios":"levelo://app?vid=a54e3e51-85f5-4793-8a43-870b0d62cedf"},"vehicle_type_id":"4","last_reported":1727939330,"current_range_meters":6000,"station_id":"ce4bh0p2rcd13ifvqd70","pricing_plan_id":"cebpf4jnsgd1na2vs0mg"},{"bike_id":"d422d47c-ac21-471d-8cdd-ba47a7b92a76","system_id":"levelo_inurba_marseille","lat":43.3094,"lon":5.39045,"is_reserved":false,"is_disabled":false,"rental_uris":{"android":"levelo://app?vid=d422d47c-ac21-471d-8cdd-ba47a7b92a76","ios":"levelo://app?vid=d422d47c-ac21-471d-8cdd-ba47a7b92a76"},"vehicle_type_id":"4","last_reported":1727939330,"current_range_meters":34000,"station_id":"ce4bgup2rcd13ifvqco0","pricing_plan_id":"cebpf4jnsgd1na2vs0mg"},{"bike_id":"a1498f4c-90b0-477b-897d-0a105940e599","system_id":"levelo_inurba_marseille","lat":43.30457,"lon":5.379,"is_reserved":false,"is_disabled":false,"rental_uris":{"android":"levelo://app?vid=a1498f4c-90b0-477b-897d-0a105940e599","ios":"levelo://app?vid=a1498f4c-90b0-477b-897d-0a105940e599"},"vehicle_type_id":"4","last_reported":1727939330,"current_range_meters":31200,"station_id":"ce4bgup2rcd13ifvqcn0","pricing_plan_id":"cebpf4jnsgd1na2vs0mg"},{"bike_id":"34035cb3-8ff9-4eb1-a981-e0964c96626b","system_id":"levelo_inurba_marseille","lat":43.2306,"lon":5.35492,"is_reserved":false,"is_disabled":false,"rental_uris":{"android":"levelo://app?vid=34035cb3-8ff9-4eb1-a981-e0964c96626b","ios":"levelo://app?vid=34035cb3-8ff9-4eb1-a981-e0964c96626b"},"vehicle_type_id":"4","last_reported":1727939330,"current_range_meters":35200,"station_id":"cpo3342slgdg3j2ifvpg","pricing_plan_id":"cebpf4jnsgd1na2vs0mg"},{"bike_id":"422a7c4b-04a2-4d7a-bb60-e21896c982e3","system_id":"levelo_inurba_marseille","lat":43.26683,"lon":5.38266,"is_reserved":false,"is_disabled":false,"rental_uris":{"android":"levelo://app?vid=422a7c4b-04a2-4d7a-bb60-e21896c982e3","ios":"levelo://app?vid=422a7c4b-04a2-4d7a-bb60-e21896c982e3"},"vehicle_type_id":"4","last_reported":1727939330,"current_range_meters":9200,"station_id":"ce4bhg92rcd13ifvqf90","pricing_plan_id":"cebpf4jnsgd1na2vs0mg"},{"bike_id":"a101ce5c-dbc1-4461-b5db-c8916bb46630","system_id":"levelo_inurba_marseille","lat":43.30149,"lon":5.3808,"is_reserved":false,"is_disabled":false,"rental_uris":{"android":"levelo://app?vid=a101ce5c-dbc1-4461-b5db-c8916bb46630","ios":"levelo://app?vid=a101ce5c-dbc1-4461-b5db-c8916bb46630"},"vehicle_type_id":"4","last_reported":1727939330,"current_range_meters":15200,"station_id":"ce4bgjp2rcd13ifvqbh0","pricing_plan_id":"cebpf4jnsgd1na2vs0mg"},{"bike_id":"5a0f938e-7252-4534-8bff-a4a5d62e0bce","system_id":"levelo_inurba_marseille","lat":43.32538,"lon":5.41436,"is_reserved":false,"is_disabled":false,"rental_uris":{"android":"levelo://app?vid=5a0f938e-7252-4534-8bff-a4a5d62e0bce","ios":"levelo://app?vid=5a0f938e-7252-4534-8bff-a4a5d62e0bce"},"vehicle_type_id":"4","last_reported":1727939330,"current_range_meters":34800,"station_id":"ce4bhq12rcd13ifvqhhg","pricing_plan_id":"cebpf4jnsgd1na2vs0mg"},{"bike_id":"0032931c-cfa8-4547-bc0c-84537375866f","system_id":"levelo_inurba_marseille","lat":43.30471,"lon":5.379,"is_reserved":false,"is_disabled":false,"rental_uris":{"android":"levelo://app?vid=0032931c-cfa8-4547-bc0c-84537375866f","ios":"levelo://app?vid=0032931c-cfa8-4547-bc0c-84537375866f"},"vehicle_type_id":"4","last_reported":1727939330,"current_range_meters":32000,"station_id":"ce4bgup2rcd13ifvqcn0","pricing_plan_id":"cebpf4jnsgd1na2vs0mg"},{"bike_id":"6e9b0c54-5763-4428-9926-90e1ad4eb660","system_id":"levelo_inurba_marseille","lat":43.31711,"lon":5.37758,"is_reserved":false,"is_disabled":false,"rental_uris":{"android":"levelo://app?vid=6e9b0c54-5763-4428-9926-90e1ad4eb660","ios":"levelo://app?vid=6e9b0c54-5763-4428-9926-90e1ad4eb660"},"vehicle_type_id":"4","last_reported":1727939330,"current_range_meters":36800,"station_id":"ce4bgth2rcd13ifvqch0","pricing_plan_id":"cebpf4jnsgd1na2vs0mg"},{"bike_id":"085a7bee-7e09-4679-b1fc-007be1b2df7f","system_id":"levelo_inurba_marseille","lat":43.31347,"lon":5.36735,"is_reserved":false,"is_disabled":false,"rental_uris":{"android":"levelo://app?vid=085a7bee-7e09-4679-b1fc-007be1b2df7f","ios":"levelo://app?vid=085a7bee-7e09-4679-b1fc-007be1b2df7f"},"vehicle_type_id":"4","last_reported":1727939330,"current_range_meters":27200,"station_id":"ce4bgr92rcd13ifvqc6g","pricing_plan_id":"cebpf4jnsgd1na2vs0mg"},{"bike_id":"9f554f53-c2f9-4a8b-bd13-efbf561e6f22","system_id":"levelo_inurba_marseille","lat":43.29572,"lon":5.39984,"is_reserved":false,"is_disabled":false,"rental_uris":{"android":"levelo://app?vid=9f554f53-c2f9-4a8b-bd13-efbf561e6f22","ios":"levelo://app?vid=9f554f53-c2f9-4a8b-bd13-efbf561e6f22"},"vehicle_type_id":"4","last_reported":1727939330,"current_range_meters":28400,"station_id":"ce4bh312rcd13ifvqdj0","pricing_plan_id":"cebpf4jnsgd1na2vs0mg"},{"bike_id":"6201aabd-5022-4fcc-b52b-a5b186696291","system_id":"levelo_inurba_marseille","lat":43.29253,"lon":5.40907,"is_reserved":false,"is_disabled":false,"rental_uris":{"android":"levelo://app?vid=6201aabd-5022-4fcc-b52b-a5b186696291","ios":"levelo://app?vid=6201aabd-5022-4fcc-b52b-a5b186696291"},"vehicle_type_id":"4","last_reported":1727939330,"current_range_meters":29600,"station_id":"ce4bh192rcd13ifvqdc0","pricing_plan_id":"cebpf4jnsgd1na2vs0mg"},{"bike_id":"729fed04-95d8-4e8c-8a25-565465677bb0","system_id":"levelo_inurba_marseille","lat":43.24171,"lon":5.3971,"is_reserved":false,"is_disabled":false,"rental_uris":{"android":"levelo://app?vid=729fed04-95d8-4e8c-8a25-565465677bb0","ios":"levelo://app?vid=729fed04-95d8-4e8c-8a25-565465677bb0"},"vehicle_type_id":"4","last_reported":1727939330,"current_range_meters":14400,"station_id":"ce4bhn12rcd13ifvqgpg","pricing_plan_id":"cebpf4jnsgd1na2vs0mg"},{"bike_id":"275fe295-10a9-487f-b2c5-2bcd778da366","system_id":"levelo_inurba_marseille","lat":43.3012,"lon":5.39895,"is_reserved":false,"is_disabled":false,"rental_uris":{"android":"levelo://app?vid=275fe295-10a9-487f-b2c5-2bcd778da366","ios":"levelo://app?vid=275fe295-10a9-487f-b2c5-2bcd778da366"},"vehicle_type_id":"4","last_reported":1727939330,"current_range_meters":16400,"station_id":"ce4bh0h2rcd13ifvqd40","pricing_plan_id":"cebpf4jnsgd1na2vs0mg"},{"bike_id":"99be9f83-4a9c-46cc-9a45-fda9573ca4b0","system_id":"levelo_inurba_marseille","lat":43.31352,"lon":5.36705,"is_reserved":false,"is_disabled":false,"rental_uris":{"android":"levelo://app?vid=99be9f83-4a9c-46cc-9a45-fda9573ca4b0","ios":"levelo://app?vid=99be9f83-4a9c-46cc-9a45-fda9573ca4b0"},"vehicle_type_id":"4","last_reported":1727939330,"current_range_meters":22000,"station_id":"ce4bgr92rcd13ifvqc6g","pricing_plan_id":"cebpf4jnsgd1na2vs0mg"},{"bike_id":"80e10b6b-b930-4216-a26e-cfd3b6068366","system_id":"levelo_inurba_marseille","lat":43.30552,"lon":5.36706,"is_reserved":false,"is_disabled":false,"rental_uris":{"android":"levelo://app?vid=80e10b6b-b930-4216-a26e-cfd3b6068366","ios":"levelo://app?vid=80e10b6b-b930-4216-a26e-cfd3b6068366"},"vehicle_type_id":"4","last_reported":1727939330,"current_range_meters":32000,"station_id":"ce4bgrp2rcd13ifvqc9g","pricing_plan_id":"cebpf4jnsgd1na2vs0mg"},{"bike_id":"a292cc6b-0b15-4b33-8f09-f41be692a4eb","system_id":"levelo_inurba_marseille","lat":43.24392,"lon":5.37058,"is_reserved":false,"is_disabled":false,"rental_uris":{"android":"levelo://app?vid=a292cc6b-0b15-4b33-8f09-f41be692a4eb","ios":"levelo://app?vid=a292cc6b-0b15-4b33-8f09-f41be692a4eb"},"vehicle_type_id":"4","last_reported":1727939330,"current_range_meters":38400,"station_id":"ce4bhhh2rcd13ifvqfk0","pricing_plan_id":"cebpf4jnsgd1na2vs0mg"},{"bike_id":"c8679ab1-cd72-42e5-b36f-50f88f373f48","system_id":"levelo_inurba_marseille","lat":43.337444,"lon":5.374475,"is_reserved":false,"is_disabled":false,"rental_uris":{"android":"levelo://app?vid=c8679ab1-cd72-42e5-b36f-50f88f373f48","ios":"levelo://app?vid=c8679ab1-cd72-42e5-b36f-50f88f373f48"},"vehicle_type_id":"4","last_reported":1727939330,"current_range_meters":38800,"station_id":"","pricing_plan_id":"cebpf4jnsgd1na2vs0mg"},{"bike_id":"3cf74a3f-8222-4d03-b2e6-c9d25d38cf35","system_id":"levelo_inurba_marseille","lat":43.25006,"lon":5.38922,"is_reserved":false,"is_disabled":false,"rental_uris":{"android":"levelo://app?vid=3cf74a3f-8222-4d03-b2e6-c9d25d38cf35","ios":"levelo://app?vid=3cf74a3f-8222-4d03-b2e6-c9d25d38cf35"},"vehicle_type_id":"4","last_reported":1727939330,"current_range_meters":38000,"station_id":"ce4bhgp2rcd13ifvqfd0","pricing_plan_id":"cebpf4jnsgd1na2vs0mg"},{"bike_id":"df35103d-0afb-4a29-bcb0-3d33b933f0f7","system_id":"levelo_inurba_marseille","lat":43.30558,"lon":5.36699,"is_reserved":false,"is_disabled":false,"rental_uris":{"android":"levelo://app?vid=df35103d-0afb-4a29-bcb0-3d33b933f0f7","ios":"levelo://app?vid=df35103d-0afb-4a29-bcb0-3d33b933f0f7"},"vehicle_type_id":"4","last_reported":1727939330,"current_range_meters":38000,"station_id":"ce4bgrp2rcd13ifvqc9g","pricing_plan_id":"cebpf4jnsgd1na2vs0mg"},{"bike_id":"275f11d2-3021-4eb0-ae5e-5515a094e8a0","system_id":"levelo_inurba_marseille","lat":43.23154,"lon":5.437,"is_reserved":false,"is_disabled":false,"rental_uris":{"android":"levelo://app?vid=275f11d2-3021-4eb0-ae5e-5515a094e8a0","ios":"levelo://app?vid=275f11d2-3021-4eb0-ae5e-5515a094e8a0"},"vehicle_type_id":"4","last_reported":1727939330,"current_range_meters":8800,"station_id":"ce4bhmp2rcd13ifvqgog","pricing_plan_id":"cebpf4jnsgd1na2vs0mg"},{"bike_id":"fc2906d0-db21-4fe8-851a-5aa5ec9b580a","system_id":"levelo_inurba_marseille","lat":43.33617,"lon":5.41035,"is_reserved":false,"is_disabled":false,"rental_uris":{"android":"levelo://app?vid=fc2906d0-db21-4fe8-851a-5aa5ec9b580a","ios":"levelo://app?vid=fc2906d0-db21-4fe8-851a-5aa5ec9b580a"},"vehicle_type_id":"4","last_reported":1727939330,"current_range_meters":23200,"station_id":"ce4bhqh2rcd13ifvqhmg","pricing_plan_id":"cebpf4jnsgd1na2vs0mg"},{"bike_id":"de302269-fdda-4ef3-9935-87f4834e17d5","system_id":"levelo_inurba_marseille","lat":43.25933,"lon":5.40908,"is_reserved":false,"is_disabled":false,"rental_uris":{"android":"levelo://app?vid=de302269-fdda-4ef3-9935-87f4834e17d5","ios":"levelo://app?vid=de302269-fdda-4ef3-9935-87f4834e17d5"},"vehicle_type_id":"4","last_reported":1727939330,"current_range_meters":10000,"station_id":"ce4bhm92rcd13ifvqglg","pricing_plan_id":"cebpf4jnsgd1na2vs0mg"},{"bike_id":"77df61a8-8626-44ba-8fa7-63202f29f4e9","system_id":"levelo_inurba_marseille","lat":43.30148,"lon":5.38071,"is_reserved":false,"is_disabled":false,"rental_uris":{"android":"levelo://app?vid=77df61a8-8626-44ba-8fa7-63202f29f4e9","ios":"levelo://app?vid=77df61a8-8626-44ba-8fa7-63202f29f4e9"},"vehicle_type_id":"4","last_reported":1727939330,"current_range_meters":32000,"station_id":"ce4bgjp2rcd13ifvqbh0","pricing_plan_id":"cebpf4jnsgd1na2vs0mg"},{"bike_id":"a9783270-69cc-4078-8451-5e480eaec233","system_id":"levelo_inurba_marseille","lat":43.29963,"lon":5.41323,"is_reserved":false,"is_disabled":false,"rental_uris":{"android":"levelo://app?vid=a9783270-69cc-4078-8451-5e480eaec233","ios":"levelo://app?vid=a9783270-69cc-4078-8451-5e480eaec233"},"vehicle_type_id":"4","last_reported":1727939330,"current_range_meters":37600,"station_id":"ce4bhp12rcd13ifvqh9g","pricing_plan_id":"cebpf4jnsgd1na2vs0mg"},{"bike_id":"fbca8f14-1f5c-4ab4-933a-7af7fc9b4c2b","system_id":"levelo_inurba_marseille","lat":43.28049,"lon":5.36949,"is_reserved":false,"is_disabled":false,"rental_uris":{"android":"levelo://app?vid=fbca8f14-1f5c-4ab4-933a-7af7fc9b4c2b","ios":"levelo://app?vid=fbca8f14-1f5c-4ab4-933a-7af7fc9b4c2b"},"vehicle_type_id":"4","last_reported":1727939330,"current_range_meters":24400,"station_id":"ce4bha12rcd13ifvqef0","pricing_plan_id":"cebpf4jnsgd1na2vs0mg"},{"bike_id":"20c82b0d-1419-44d9-9a42-2c8891d18cff","system_id":"levelo_inurba_marseille","lat":43.24078,"lon":5.37757,"is_reserved":false,"is_disabled":false,"rental_uris":{"android":"levelo://app?vid=20c82b0d-1419-44d9-9a42-2c8891d18cff","ios":"levelo://app?vid=20c82b0d-1419-44d9-9a42-2c8891d18cff"},"vehicle_type_id":"4","last_reported":1727939330,"current_range_meters":30400,"station_id":"ce4bhnp2rcd13ifvqgvg","pricing_plan_id":"cebpf4jnsgd1na2vs0mg"},{"bike_id":"bceeceef-28be-4631-befc-7ca2509a7015","system_id":"levelo_inurba_marseille","lat":43.28835,"lon":5.3585,"is_reserved":false,"is_disabled":false,"rental_uris":{"android":"levelo://app?vid=bceeceef-28be-4631-befc-7ca2509a7015","ios":"levelo://app?vid=bceeceef-28be-4631-befc-7ca2509a7015"},"vehicle_type_id":"4","last_reported":1727939330,"current_range_meters":24400,"station_id":"ce4bhb12rcd13ifvqem0","pricing_plan_id":"cebpf4jnsgd1na2vs0mg"},{"bike_id":"fde1a248-2072-4dff-9f45-162d1b347b92","system_id":"levelo_inurba_marseille","lat":43.33612,"lon":5.41037,"is_reserved":false,"is_disabled":false,"rental_uris":{"android":"levelo://app?vid=fde1a248-2072-4dff-9f45-162d1b347b92","ios":"levelo://app?vid=fde1a248-2072-4dff-9f45-162d1b347b92"},"vehicle_type_id":"4","last_reported":1727939330,"current_range_meters":26000,"station_id":"ce4bhqh2rcd13ifvqhmg","pricing_plan_id":"cebpf4jnsgd1na2vs0mg"},{"bike_id":"2b58fe52-cecf-4d77-847f-b40d2ae6cb7d","system_id":"levelo_inurba_marseille","lat":43.31343,"lon":5.36722,"is_reserved":false,"is_disabled":false,"rental_uris":{"android":"levelo://app?vid=2b58fe52-cecf-4d77-847f-b40d2ae6cb7d","ios":"levelo://app?vid=2b58fe52-cecf-4d77-847f-b40d2ae6cb7d"},"vehicle_type_id":"4","last_reported":1727939330,"current_range_meters":4800,"station_id":"ce4bgr92rcd13ifvqc6g","pricing_plan_id":"cebpf4jnsgd1na2vs0mg"},{"bike_id":"39cc26a4-d994-4539-b20a-7b7fe6afed38","system_id":"levelo_inurba_marseille","lat":43.26565,"lon":5.39007,"is_reserved":false,"is_disabled":false,"rental_uris":{"android":"levelo://app?vid=39cc26a4-d994-4539-b20a-7b7fe6afed38","ios":"levelo://app?vid=39cc26a4-d994-4539-b20a-7b7fe6afed38"},"vehicle_type_id":"4","last_reported":1727939330,"current_range_meters":30000,"station_id":"ce4bhe12rcd13ifvqf30","pricing_plan_id":"cebpf4jnsgd1na2vs0mg"},{"bike_id":"43f49d82-631b-4935-835c-5bba04851cb5","system_id":"levelo_inurba_marseille","lat":43.31533,"lon":5.38026,"is_reserved":false,"is_disabled":false,"rental_uris":{"android":"levelo://app?vid=43f49d82-631b-4935-835c-5bba04851cb5","ios":"levelo://app?vid=43f49d82-631b-4935-835c-5bba04851cb5"},"vehicle_type_id":"4","last_reported":1727939330,"current_range_meters":39200,"station_id":"ce4bhsp2rcd13ifvqi50","pricing_plan_id":"cebpf4jnsgd1na2vs0mg"},{"bike_id":"335c7a89-1d55-4ce1-b241-42587a78fd1b","system_id":"levelo_inurba_marseille","lat":43.25581,"lon":5.38236,"is_reserved":false,"is_disabled":false,"rental_uris":{"android":"levelo://app?vid=335c7a89-1d55-4ce1-b241-42587a78fd1b","ios":"levelo://app?vid=335c7a89-1d55-4ce1-b241-42587a78fd1b"},"vehicle_type_id":"4","last_reported":1727939330,"current_range_meters":38800,"station_id":"ce4bhih2rcd13ifvqfs0","pricing_plan_id":"cebpf4jnsgd1na2vs0mg"},{"bike_id":"5ad29995-1ffe-4243-a98f-0381343a4c41","system_id":"levelo_inurba_marseille","lat":43.3047,"lon":5.37896,"is_reserved":false,"is_disabled":false,"rental_uris":{"android":"levelo://app?vid=5ad29995-1ffe-4243-a98f-0381343a4c41","ios":"levelo://app?vid=5ad29995-1ffe-4243-a98f-0381343a4c41"},"vehicle_type_id":"4","last_reported":1727939330,"current_range_meters":40000,"station_id":"ce4bgup2rcd13ifvqcn0","pricing_plan_id":"cebpf4jnsgd1na2vs0mg"},{"bike_id":"2b7620fb-cc81-4cc3-be55-15e73ddb89d7","system_id":"levelo_inurba_marseille","lat":43.337444,"lon":5.374475,"is_reserved":false,"is_disabled":false,"rental_uris":{"android":"levelo://app?vid=2b7620fb-cc81-4cc3-be55-15e73ddb89d7","ios":"levelo://app?vid=2b7620fb-cc81-4cc3-be55-15e73ddb89d7"},"vehicle_type_id":"4","last_reported":1727939330,"current_range_meters":33200,"station_id":"","pricing_plan_id":"cebpf4jnsgd1na2vs0mg"},{"bike_id":"137d56b1-cdc7-4f99-ba23-c424b109461a","system_id":"levelo_inurba_marseille","lat":43.30148,"lon":5.37418,"is_reserved":false,"is_disabled":false,"rental_uris":{"android":"levelo://app?vid=137d56b1-cdc7-4f99-ba23-c424b109461a","ios":"levelo://app?vid=137d56b1-cdc7-4f99-ba23-c424b109461a"},"vehicle_type_id":"4","last_reported":1727939330,"current_range_meters":22800,"station_id":"ce4bgs92rcd13ifvqcc0","pricing_plan_id":"cebpf4jnsgd1na2vs0mg"},{"bike_id":"49c39e9d-9167-41a0-b90f-5fae51dd2b13","system_id":"levelo_inurba_marseille","lat":43.302484,"lon":5.400622,"is_reserved":false,"is_disabled":false,"rental_uris":{"android":"levelo://app?vid=49c39e9d-9167-41a0-b90f-5fae51dd2b13","ios":"levelo://app?vid=49c39e9d-9167-41a0-b90f-5fae51dd2b13"},"vehicle_type_id":"4","last_reported":1727939330,"current_range_meters":12400,"station_id":"ce4bgvh2rcd13ifvqcs0","pricing_plan_id":"cebpf4jnsgd1na2vs0mg"},{"bike_id":"7d1b0a18-26e3-4b52-8a52-5424e1b3a5de","system_id":"levelo_inurba_marseille","lat":43.27494,"lon":5.42454,"is_reserved":false,"is_disabled":false,"rental_uris":{"android":"levelo://app?vid=7d1b0a18-26e3-4b52-8a52-5424e1b3a5de","ios":"levelo://app?vid=7d1b0a18-26e3-4b52-8a52-5424e1b3a5de"},"vehicle_type_id":"4","last_reported":1727939330,"current_range_meters":27200,"station_id":"ce4bhn92rcd13ifvqgrg","pricing_plan_id":"cebpf4jnsgd1na2vs0mg"},{"bike_id":"b482df99-7ee8-4eea-8d8b-1d22667db679","system_id":"levelo_inurba_marseille","lat":43.2934,"lon":5.42839,"is_reserved":false,"is_disabled":false,"rental_uris":{"android":"levelo://app?vid=b482df99-7ee8-4eea-8d8b-1d22667db679","ios":"levelo://app?vid=b482df99-7ee8-4eea-8d8b-1d22667db679"},"vehicle_type_id":"4","last_reported":1727939330,"current_range_meters":17200,"station_id":"","pricing_plan_id":"cebpf4jnsgd1na2vs0mg"},{"bike_id":"244b6997-38fb-47f1-be1e-1227dcbf11cf","system_id":"levelo_inurba_marseille","lat":43.25577,"lon":5.38236,"is_reserved":false,"is_disabled":false,"rental_uris":{"android":"levelo://app?vid=244b6997-38fb-47f1-be1e-1227dcbf11cf","ios":"levelo://app?vid=244b6997-38fb-47f1-be1e-1227dcbf11cf"},"vehicle_type_id":"4","last_reported":1727939330,"current_range_meters":35200,"station_id":"ce4bhih2rcd13ifvqfs0","pricing_plan_id":"cebpf4jnsgd1na2vs0mg"},{"bike_id":"7a76f057-ca7f-4d2d-ad68-8acc72df703a","system_id":"levelo_inurba_marseille","lat":43.3046,"lon":5.37897,"is_reserved":false,"is_disabled":false,"rental_uris":{"android":"levelo://app?vid=7a76f057-ca7f-4d2d-ad68-8acc72df703a","ios":"levelo://app?vid=7a76f057-ca7f-4d2d-ad68-8acc72df703a"},"vehicle_type_id":"4","last_reported":1727939330,"current_range_meters":17600,"station_id":"ce4bgs92rcd13ifvqcc0","pricing_plan_id":"cebpf4jnsgd1na2vs0mg"},{"bike_id":"b5af711b-6987-49f5-b695-0254279b63f4","system_id":"levelo_inurba_marseille","lat":43.30297,"lon":5.369,"is_reserved":false,"is_disabled":false,"rental_uris":{"android":"levelo://app?vid=b5af711b-6987-49f5-b695-0254279b63f4","ios":"levelo://app?vid=b5af711b-6987-49f5-b695-0254279b63f4"},"vehicle_type_id":"4","last_reported":1727939330,"current_range_meters":36000,"station_id":"ce4bgqh2rcd13ifvqc5g","pricing_plan_id":"cebpf4jnsgd1na2vs0mg"},{"bike_id":"f55adf24-e0b5-43f9-8759-ba17c7a8b60b","system_id":"levelo_inurba_marseille","lat":43.3021,"lon":5.39451,"is_reserved":false,"is_disabled":false,"rental_uris":{"android":"levelo://app?vid=f55adf24-e0b5-43f9-8759-ba17c7a8b60b","ios":"levelo://app?vid=f55adf24-e0b5-43f9-8759-ba17c7a8b60b"},"vehicle_type_id":"4","last_reported":1727939330,"current_range_meters":33200,"station_id":"ce4bh0h2rcd13ifvqd40","pricing_plan_id":"cebpf4jnsgd1na2vs0mg"},{"bike_id":"0a5ce12f-aef2-4655-86eb-0e4f89c69da4","system_id":"levelo_inurba_marseille","lat":43.26207,"lon":5.37923,"is_reserved":false,"is_disabled":false,"rental_uris":{"android":"levelo://app?vid=0a5ce12f-aef2-4655-86eb-0e4f89c69da4","ios":"levelo://app?vid=0a5ce12f-aef2-4655-86eb-0e4f89c69da4"},"vehicle_type_id":"4","last_reported":1727939330,"current_range_meters":27600,"station_id":"ce4bhjp2rcd13ifvqg90","pricing_plan_id":"cebpf4jnsgd1na2vs0mg"},{"bike_id":"97f69b04-580a-47fc-86b4-124ed7d7731e","system_id":"levelo_inurba_marseille","lat":43.31354,"lon":5.36741,"is_reserved":false,"is_disabled":false,"rental_uris":{"android":"levelo://app?vid=97f69b04-580a-47fc-86b4-124ed7d7731e","ios":"levelo://app?vid=97f69b04-580a-47fc-86b4-124ed7d7731e"},"vehicle_type_id":"4","last_reported":1727939330,"current_range_meters":18000,"station_id":"ce4bgr92rcd13ifvqc6g","pricing_plan_id":"cebpf4jnsgd1na2vs0mg"},{"bike_id":"43215cd2-65e6-47b8-9f40-8388f8c8b262","system_id":"levelo_inurba_marseille","lat":43.25929,"lon":5.40917,"is_reserved":false,"is_disabled":false,"rental_uris":{"android":"levelo://app?vid=43215cd2-65e6-47b8-9f40-8388f8c8b262","ios":"levelo://app?vid=43215cd2-65e6-47b8-9f40-8388f8c8b262"},"vehicle_type_id":"4","last_reported":1727939330,"current_range_meters":25200,"station_id":"ce4bhm92rcd13ifvqglg","pricing_plan_id":"cebpf4jnsgd1na2vs0mg"},{"bike_id":"a2532f05-04b4-4eb7-b044-98be17565de2","system_id":"levelo_inurba_marseille","lat":43.322907,"lon":5.382677,"is_reserved":false,"is_disabled":false,"rental_uris":{"android":"levelo://app?vid=a2532f05-04b4-4eb7-b044-98be17565de2","ios":"levelo://app?vid=a2532f05-04b4-4eb7-b044-98be17565de2"},"vehicle_type_id":"4","last_reported":1727939330,"current_range_meters":28800,"station_id":"ce4bhr12rcd13ifvqhqg","pricing_plan_id":"cebpf4jnsgd1na2vs0mg"},{"bike_id":"53c6fe7a-c5f0-4c29-bdb6-08c6c7db5c71","system_id":"levelo_inurba_marseille","lat":43.32078,"lon":5.36761,"is_reserved":false,"is_disabled":false,"rental_uris":{"android":"levelo://app?vid=53c6fe7a-c5f0-4c29-bdb6-08c6c7db5c71","ios":"levelo://app?vid=53c6fe7a-c5f0-4c29-bdb6-08c6c7db5c71"},"vehicle_type_id":"4","last_reported":1727939330,"current_range_meters":10800,"station_id":"ce4bhrh2rcd13ifvqhug","pricing_plan_id":"cebpf4jnsgd1na2vs0mg"},{"bike_id":"c664703d-06a5-43d4-bc2f-364fcb34641d","system_id":"levelo_inurba_marseille","lat":43.309259,"lon":5.399707,"is_reserved":false,"is_disabled":false,"rental_uris":{"android":"levelo://app?vid=c664703d-06a5-43d4-bc2f-364fcb34641d","ios":"levelo://app?vid=c664703d-06a5-43d4-bc2f-364fcb34641d"},"vehicle_type_id":"4","last_reported":1727939330,"current_range_meters":36000,"station_id":"ce4bh012rcd13ifvqcv0","pricing_plan_id":"cebpf4jnsgd1na2vs0mg"},{"bike_id":"8cd4967a-5c3b-494d-8d94-4caf3da84f74","system_id":"levelo_inurba_marseille","lat":43.25942,"lon":5.40913,"is_reserved":false,"is_disabled":false,"rental_uris":{"android":"levelo://app?vid=8cd4967a-5c3b-494d-8d94-4caf3da84f74","ios":"levelo://app?vid=8cd4967a-5c3b-494d-8d94-4caf3da84f74"},"vehicle_type_id":"4","last_reported":1727939330,"current_range_meters":8400,"station_id":"ce4bhm92rcd13ifvqglg","pricing_plan_id":"cebpf4jnsgd1na2vs0mg"},{"bike_id":"3bfeb359-d5a3-4e82-a8c1-2660f47a3245","system_id":"levelo_inurba_marseille","lat":43.30147,"lon":5.37414,"is_reserved":false,"is_disabled":false,"rental_uris":{"android":"levelo://app?vid=3bfeb359-d5a3-4e82-a8c1-2660f47a3245","ios":"levelo://app?vid=3bfeb359-d5a3-4e82-a8c1-2660f47a3245"},"vehicle_type_id":"4","last_reported":1727939330,"current_range_meters":20800,"station_id":"ce4bgs92rcd13ifvqcc0","pricing_plan_id":"cebpf4jnsgd1na2vs0mg"},{"bike_id":"6ce60676-3f86-4aaa-a5df-572436c32ad4","system_id":"levelo_inurba_marseille","lat":43.23193,"lon":5.35543,"is_reserved":false,"is_disabled":false,"rental_uris":{"android":"levelo://app?vid=6ce60676-3f86-4aaa-a5df-572436c32ad4","ios":"levelo://app?vid=6ce60676-3f86-4aaa-a5df-572436c32ad4"},"vehicle_type_id":"4","last_reported":1727939330,"current_range_meters":21600,"station_id":"ce4bhu92rcd13ifvqi70","pricing_plan_id":"cebpf4jnsgd1na2vs0mg"},{"bike_id":"724c82f6-f55e-4847-abb7-c6fdc1c318d2","system_id":"levelo_inurba_marseille","lat":43.24079,"lon":5.37758,"is_reserved":false,"is_disabled":false,"rental_uris":{"android":"levelo://app?vid=724c82f6-f55e-4847-abb7-c6fdc1c318d2","ios":"levelo://app?vid=724c82f6-f55e-4847-abb7-c6fdc1c318d2"},"vehicle_type_id":"4","last_reported":1727939330,"current_range_meters":26800,"station_id":"ce4bhnp2rcd13ifvqgvg","pricing_plan_id":"cebpf4jnsgd1na2vs0mg"},{"bike_id":"f1a6c662-1f2f-43d3-bba4-20a506ee3ee3","system_id":"levelo_inurba_marseille","lat":43.30143,"lon":5.37414,"is_reserved":false,"is_disabled":false,"rental_uris":{"android":"levelo://app?vid=f1a6c662-1f2f-43d3-bba4-20a506ee3ee3","ios":"levelo://app?vid=f1a6c662-1f2f-43d3-bba4-20a506ee3ee3"},"vehicle_type_id":"4","last_reported":1727939330,"current_range_meters":32000,"station_id":"ce4bgs92rcd13ifvqcc0","pricing_plan_id":"cebpf4jnsgd1na2vs0mg"},{"bike_id":"3f0e2e11-4c6f-4a26-96d5-2d71011a1506","system_id":"levelo_inurba_marseille","lat":43.289703,"lon":5.378375,"is_reserved":false,"is_disabled":false,"rental_uris":{"android":"levelo://app?vid=3f0e2e11-4c6f-4a26-96d5-2d71011a1506","ios":"levelo://app?vid=3f0e2e11-4c6f-4a26-96d5-2d71011a1506"},"vehicle_type_id":"4","last_reported":1727939330,"current_range_meters":29600,"station_id":"ce4bh9p2rcd13ifvqed0","pricing_plan_id":"cebpf4jnsgd1na2vs0mg"},{"bike_id":"3698a977-a7b5-4b94-af60-6886ee2a328a","system_id":"levelo_inurba_marseille","lat":43.23153,"lon":5.43716,"is_reserved":false,"is_disabled":false,"rental_uris":{"android":"levelo://app?vid=3698a977-a7b5-4b94-af60-6886ee2a328a","ios":"levelo://app?vid=3698a977-a7b5-4b94-af60-6886ee2a328a"},"vehicle_type_id":"4","last_reported":1727939330,"current_range_meters":18000,"station_id":"ce4bhmp2rcd13ifvqgog","pricing_plan_id":"cebpf4jnsgd1na2vs0mg"},{"bike_id":"c44517f6-e519-4b9a-af41-7bba70751b24","system_id":"levelo_inurba_marseille","lat":43.24179,"lon":5.397323,"is_reserved":false,"is_disabled":false,"rental_uris":{"android":"levelo://app?vid=c44517f6-e519-4b9a-af41-7bba70751b24","ios":"levelo://app?vid=c44517f6-e519-4b9a-af41-7bba70751b24"},"vehicle_type_id":"4","last_reported":1727939330,"current_range_meters":28000,"station_id":"ce4bhn12rcd13ifvqgpg","pricing_plan_id":"cebpf4jnsgd1na2vs0mg"},{"bike_id":"80600f0c-a878-4525-a76d-5ab6ffa13ec6","system_id":"levelo_inurba_marseille","lat":43.32541,"lon":5.41436,"is_reserved":false,"is_disabled":false,"rental_uris":{"android":"levelo://app?vid=80600f0c-a878-4525-a76d-5ab6ffa13ec6","ios":"levelo://app?vid=80600f0c-a878-4525-a76d-5ab6ffa13ec6"},"vehicle_type_id":"4","last_reported":1727939330,"current_range_meters":30400,"station_id":"ce4bhq12rcd13ifvqhhg","pricing_plan_id":"cebpf4jnsgd1na2vs0mg"},{"bike_id":"18546fdf-b8ba-4aec-a245-1c584b1703fb","system_id":"levelo_inurba_marseille","lat":43.30156,"lon":5.38075,"is_reserved":false,"is_disabled":false,"rental_uris":{"android":"levelo://app?vid=18546fdf-b8ba-4aec-a245-1c584b1703fb","ios":"levelo://app?vid=18546fdf-b8ba-4aec-a245-1c584b1703fb"},"vehicle_type_id":"4","last_reported":1727939330,"current_range_meters":36400,"station_id":"ce4bgjp2rcd13ifvqbh0","pricing_plan_id":"cebpf4jnsgd1na2vs0mg"},{"bike_id":"1dc2281c-13e2-4912-83ce-c99fdc02def2","system_id":"levelo_inurba_marseille","lat":43.313545,"lon":5.3669,"is_reserved":false,"is_disabled":false,"rental_uris":{"android":"levelo://app?vid=1dc2281c-13e2-4912-83ce-c99fdc02def2","ios":"levelo://app?vid=1dc2281c-13e2-4912-83ce-c99fdc02def2"},"vehicle_type_id":"4","last_reported":1727939330,"current_range_meters":34000,"station_id":"ce4bgr92rcd13ifvqc6g","pricing_plan_id":"cebpf4jnsgd1na2vs0mg"},{"bike_id":"571a3f4e-f8b7-4c7d-b6b5-b61269bcc66c","system_id":"levelo_inurba_marseille","lat":43.3095,"lon":5.39064,"is_reserved":false,"is_disabled":false,"rental_uris":{"android":"levelo://app?vid=571a3f4e-f8b7-4c7d-b6b5-b61269bcc66c","ios":"levelo://app?vid=571a3f4e-f8b7-4c7d-b6b5-b61269bcc66c"},"vehicle_type_id":"4","last_reported":1727939330,"current_range_meters":32800,"station_id":"ce4bgup2rcd13ifvqco0","pricing_plan_id":"cebpf4jnsgd1na2vs0mg"},{"bike_id":"a366ae60-c356-45f1-80ad-d3b5f0206dc3","system_id":"levelo_inurba_marseille","lat":43.29261,"lon":5.40899,"is_reserved":false,"is_disabled":false,"rental_uris":{"android":"levelo://app?vid=a366ae60-c356-45f1-80ad-d3b5f0206dc3","ios":"levelo://app?vid=a366ae60-c356-45f1-80ad-d3b5f0206dc3"},"vehicle_type_id":"4","last_reported":1727939330,"current_range_meters":32400,"station_id":"ce4bh192rcd13ifvqdc0","pricing_plan_id":"cebpf4jnsgd1na2vs0mg"},{"bike_id":"5f1e40cf-35c2-4fc2-a638-29e122e97fea","system_id":"levelo_inurba_marseille","lat":43.24668,"lon":5.38156,"is_reserved":false,"is_disabled":false,"rental_uris":{"android":"levelo://app?vid=5f1e40cf-35c2-4fc2-a638-29e122e97fea","ios":"levelo://app?vid=5f1e40cf-35c2-4fc2-a638-29e122e97fea"},"vehicle_type_id":"4","last_reported":1727939330,"current_range_meters":18800,"station_id":"ce4bhih2rcd13ifvqfr0","pricing_plan_id":"cebpf4jnsgd1na2vs0mg"},{"bike_id":"030fea47-5794-4c8a-af64-ab9ee9875a45","system_id":"levelo_inurba_marseille","lat":43.25826,"lon":5.39438,"is_reserved":false,"is_disabled":false,"rental_uris":{"android":"levelo://app?vid=030fea47-5794-4c8a-af64-ab9ee9875a45","ios":"levelo://app?vid=030fea47-5794-4c8a-af64-ab9ee9875a45"},"vehicle_type_id":"4","last_reported":1727939330,"current_range_meters":3200,"station_id":"ce4bhip2rcd13ifvqft0","pricing_plan_id":"cebpf4jnsgd1na2vs0mg"},{"bike_id":"9e0f3fae-960a-459e-9544-640ffabb4848","system_id":"levelo_inurba_marseille","lat":43.31994,"lon":5.38167,"is_reserved":false,"is_disabled":false,"rental_uris":{"android":"levelo://app?vid=9e0f3fae-960a-459e-9544-640ffabb4848","ios":"levelo://app?vid=9e0f3fae-960a-459e-9544-640ffabb4848"},"vehicle_type_id":"4","last_reported":1727939330,"current_range_meters":36400,"station_id":"ce4bhr12rcd13ifvqhpg","pricing_plan_id":"cebpf4jnsgd1na2vs0mg"},{"bike_id":"1028f0bc-aaf7-4276-bcb8-623b3857005b","system_id":"levelo_inurba_marseille","lat":43.337444,"lon":5.374475,"is_reserved":false,"is_disabled":false,"rental_uris":{"android":"levelo://app?vid=1028f0bc-aaf7-4276-bcb8-623b3857005b","ios":"levelo://app?vid=1028f0bc-aaf7-4276-bcb8-623b3857005b"},"vehicle_type_id":"4","last_reported":1727939330,"current_range_meters":36800,"station_id":"ce4bha12rcd13ifvqee0","pricing_plan_id":"cebpf4jnsgd1na2vs0mg"},{"bike_id":"88db28e6-1187-40ef-84cb-b69c1c302720","system_id":"levelo_inurba_marseille","lat":43.2844,"lon":5.39208,"is_reserved":false,"is_disabled":false,"rental_uris":{"android":"levelo://app?vid=88db28e6-1187-40ef-84cb-b69c1c302720","ios":"levelo://app?vid=88db28e6-1187-40ef-84cb-b69c1c302720"},"vehicle_type_id":"4","last_reported":1727939330,"current_range_meters":4000,"station_id":"ce4bhoh2rcd13ifvqh5g","pricing_plan_id":"cebpf4jnsgd1na2vs0mg"},{"bike_id":"83e9614d-bf68-4840-8a98-917a1089994a","system_id":"levelo_inurba_marseille","lat":43.28735,"lon":5.37938,"is_reserved":false,"is_disabled":false,"rental_uris":{"android":"levelo://app?vid=83e9614d-bf68-4840-8a98-917a1089994a","ios":"levelo://app?vid=83e9614d-bf68-4840-8a98-917a1089994a"},"vehicle_type_id":"4","last_reported":1727939330,"current_range_meters":8800,"station_id":"ce4bh9p2rcd13ifvqec0","pricing_plan_id":"cebpf4jnsgd1na2vs0mg"},{"bike_id":"a015a2aa-512d-4c0c-9f2f-052af05497bc","system_id":"levelo_inurba_marseille","lat":43.28929,"lon":5.36625,"is_reserved":false,"is_disabled":false,"rental_uris":{"android":"levelo://app?vid=a015a2aa-512d-4c0c-9f2f-052af05497bc","ios":"levelo://app?vid=a015a2aa-512d-4c0c-9f2f-052af05497bc"},"vehicle_type_id":"4","last_reported":1727939330,"current_range_meters":9600,"station_id":"ce4bhap2rcd13ifvqek0","pricing_plan_id":"cebpf4jnsgd1na2vs0mg"},{"bike_id":"31fe5628-b4d4-4bfd-a453-b49b1f7a6dd3","system_id":"levelo_inurba_marseille","lat":43.30153,"lon":5.38077,"is_reserved":false,"is_disabled":false,"rental_uris":{"android":"levelo://app?vid=31fe5628-b4d4-4bfd-a453-b49b1f7a6dd3","ios":"levelo://app?vid=31fe5628-b4d4-4bfd-a453-b49b1f7a6dd3"},"vehicle_type_id":"4","last_reported":1727939330,"current_range_meters":19200,"station_id":"ce4bgjp2rcd13ifvqbh0","pricing_plan_id":"cebpf4jnsgd1na2vs0mg"},{"bike_id":"abfa74ce-ac56-4bd7-af8d-9fbafd2dc3d5","system_id":"levelo_inurba_marseille","lat":43.23964,"lon":5.36636,"is_reserved":false,"is_disabled":false,"rental_uris":{"android":"levelo://app?vid=abfa74ce-ac56-4bd7-af8d-9fbafd2dc3d5","ios":"levelo://app?vid=abfa74ce-ac56-4bd7-af8d-9fbafd2dc3d5"},"vehicle_type_id":"4","last_reported":1727939330,"current_range_meters":9600,"station_id":"ce4bhi12rcd13ifvqfp0","pricing_plan_id":"cebpf4jnsgd1na2vs0mg"},{"bike_id":"e1a289e3-9a3b-48ca-8adb-3428ce215cfc","system_id":"levelo_inurba_marseille","lat":43.26204,"lon":5.37927,"is_reserved":false,"is_disabled":false,"rental_uris":{"android":"levelo://app?vid=e1a289e3-9a3b-48ca-8adb-3428ce215cfc","ios":"levelo://app?vid=e1a289e3-9a3b-48ca-8adb-3428ce215cfc"},"vehicle_type_id":"4","last_reported":1727939330,"current_range_meters":37600,"station_id":"ce4bhjp2rcd13ifvqg90","pricing_plan_id":"cebpf4jnsgd1na2vs0mg"},{"bike_id":"1df334bf-3cad-41a3-ace7-9786f37bacb4","system_id":"levelo_inurba_marseille","lat":43.29792,"lon":5.37121,"is_reserved":false,"is_disabled":false,"rental_uris":{"android":"levelo://app?vid=1df334bf-3cad-41a3-ace7-9786f37bacb4","ios":"levelo://app?vid=1df334bf-3cad-41a3-ace7-9786f37bacb4"},"vehicle_type_id":"4","last_reported":1727939330,"current_range_meters":27600,"station_id":"ce4bgop2rcd13ifvqc1g","pricing_plan_id":"cebpf4jnsgd1na2vs0mg"},{"bike_id":"06c24f34-f5ea-4359-a18f-5c14f4f0cc03","system_id":"levelo_inurba_marseille","lat":43.2885,"lon":5.39321,"is_reserved":false,"is_disabled":false,"rental_uris":{"android":"levelo://app?vid=06c24f34-f5ea-4359-a18f-5c14f4f0cc03","ios":"levelo://app?vid=06c24f34-f5ea-4359-a18f-5c14f4f0cc03"},"vehicle_type_id":"4","last_reported":1727939330,"current_range_meters":27600,"station_id":"ce4bh2p2rcd13ifvqdi0","pricing_plan_id":"cebpf4jnsgd1na2vs0mg"},{"bike_id":"f9a001dd-dda8-4793-9023-c66ab8dc3b99","system_id":"levelo_inurba_marseille","lat":43.31711,"lon":5.37735,"is_reserved":false,"is_disabled":false,"rental_uris":{"android":"levelo://app?vid=f9a001dd-dda8-4793-9023-c66ab8dc3b99","ios":"levelo://app?vid=f9a001dd-dda8-4793-9023-c66ab8dc3b99"},"vehicle_type_id":"4","last_reported":1727939330,"current_range_meters":38800,"station_id":"ce4bgth2rcd13ifvqch0","pricing_plan_id":"cebpf4jnsgd1na2vs0mg"},{"bike_id":"9336a9c9-49d5-4d01-8f1e-bffb101ff270","system_id":"levelo_inurba_marseille","lat":43.25503,"lon":5.37649,"is_reserved":false,"is_disabled":false,"rental_uris":{"android":"levelo://app?vid=9336a9c9-49d5-4d01-8f1e-bffb101ff270","ios":"levelo://app?vid=9336a9c9-49d5-4d01-8f1e-bffb101ff270"},"vehicle_type_id":"4","last_reported":1727939330,"current_range_meters":30800,"station_id":"ce4bhh12rcd13ifvqff0","pricing_plan_id":"cebpf4jnsgd1na2vs0mg"},{"bike_id":"6c5a26eb-ee07-4d34-9b92-1ad63d0731a1","system_id":"levelo_inurba_marseille","lat":43.30274,"lon":5.37714,"is_reserved":false,"is_disabled":false,"rental_uris":{"android":"levelo://app?vid=6c5a26eb-ee07-4d34-9b92-1ad63d0731a1","ios":"levelo://app?vid=6c5a26eb-ee07-4d34-9b92-1ad63d0731a1"},"vehicle_type_id":"4","last_reported":1727939330,"current_range_meters":35600,"station_id":"ce4bguh2rcd13ifvqcj0","pricing_plan_id":"cebpf4jnsgd1na2vs0mg"},{"bike_id":"a181d370-b854-4df6-99f5-52bf31f579f3","system_id":"levelo_inurba_marseille","lat":43.29271,"lon":5.36852,"is_reserved":false,"is_disabled":false,"rental_uris":{"android":"levelo://app?vid=a181d370-b854-4df6-99f5-52bf31f579f3","ios":"levelo://app?vid=a181d370-b854-4df6-99f5-52bf31f579f3"},"vehicle_type_id":"4","last_reported":1727939330,"current_range_meters":38000,"station_id":"ce4bhbp2rcd13ifvqesg","pricing_plan_id":"cebpf4jnsgd1na2vs0mg"},{"bike_id":"9a348fa3-70dd-4956-955a-32531f0427a6","system_id":"levelo_inurba_marseille","lat":43.26563,"lon":5.3901,"is_reserved":false,"is_disabled":false,"rental_uris":{"android":"levelo://app?vid=9a348fa3-70dd-4956-955a-32531f0427a6","ios":"levelo://app?vid=9a348fa3-70dd-4956-955a-32531f0427a6"},"vehicle_type_id":"4","last_reported":1727939330,"current_range_meters":9600,"station_id":"ce4bhe12rcd13ifvqf30","pricing_plan_id":"cebpf4jnsgd1na2vs0mg"},{"bike_id":"27df8249-41f3-4add-9eaa-d179639b7650","system_id":"levelo_inurba_marseille","lat":43.29567,"lon":5.4228,"is_reserved":false,"is_disabled":false,"rental_uris":{"android":"levelo://app?vid=27df8249-41f3-4add-9eaa-d179639b7650","ios":"levelo://app?vid=27df8249-41f3-4add-9eaa-d179639b7650"},"vehicle_type_id":"4","last_reported":1727939330,"current_range_meters":39200,"station_id":"ce4bhph2rcd13ifvqhdg","pricing_plan_id":"cebpf4jnsgd1na2vs0mg"},{"bike_id":"c8e4ff73-620c-4248-92f7-758d5098242c","system_id":"levelo_inurba_marseille","lat":43.22928,"lon":5.35353,"is_reserved":false,"is_disabled":false,"rental_uris":{"android":"levelo://app?vid=c8e4ff73-620c-4248-92f7-758d5098242c","ios":"levelo://app?vid=c8e4ff73-620c-4248-92f7-758d5098242c"},"vehicle_type_id":"4","last_reported":1727939330,"current_range_meters":28400,"station_id":"cpo3532slgdg3j2ikp40","pricing_plan_id":"cebpf4jnsgd1na2vs0mg"},{"bike_id":"255f542d-63d1-4902-805c-4fb64989a562","system_id":"levelo_inurba_marseille","lat":43.29905,"lon":5.3815,"is_reserved":false,"is_disabled":false,"rental_uris":{"android":"levelo://app?vid=255f542d-63d1-4902-805c-4fb64989a562","ios":"levelo://app?vid=255f542d-63d1-4902-805c-4fb64989a562"},"vehicle_type_id":"4","last_reported":1727939330,"current_range_meters":38800,"station_id":"ce4bgj12rcd13ifvqbc0","pricing_plan_id":"cebpf4jnsgd1na2vs0mg"},{"bike_id":"5fd74767-be89-4d70-934d-0d640f37cdd6","system_id":"levelo_inurba_marseille","lat":43.23155,"lon":5.43711,"is_reserved":false,"is_disabled":false,"rental_uris":{"android":"levelo://app?vid=5fd74767-be89-4d70-934d-0d640f37cdd6","ios":"levelo://app?vid=5fd74767-be89-4d70-934d-0d640f37cdd6"},"vehicle_type_id":"4","last_reported":1727939330,"current_range_meters":18800,"station_id":"ce4bhmp2rcd13ifvqgog","pricing_plan_id":"cebpf4jnsgd1na2vs0mg"},{"bike_id":"7cb2765a-28eb-4267-aad1-8bc862f4be37","system_id":"levelo_inurba_marseille","lat":43.26679,"lon":5.38261,"is_reserved":false,"is_disabled":false,"rental_uris":{"android":"levelo://app?vid=7cb2765a-28eb-4267-aad1-8bc862f4be37","ios":"levelo://app?vid=7cb2765a-28eb-4267-aad1-8bc862f4be37"},"vehicle_type_id":"4","last_reported":1727939330,"current_range_meters":12800,"station_id":"ce4bhg92rcd13ifvqf90","pricing_plan_id":"cebpf4jnsgd1na2vs0mg"},{"bike_id":"d9db239b-fde2-4cf3-b873-e13b09aa0304","system_id":"levelo_inurba_marseille","lat":43.31361,"lon":5.36685,"is_reserved":false,"is_disabled":false,"rental_uris":{"android":"levelo://app?vid=d9db239b-fde2-4cf3-b873-e13b09aa0304","ios":"levelo://app?vid=d9db239b-fde2-4cf3-b873-e13b09aa0304"},"vehicle_type_id":"4","last_reported":1727939330,"current_range_meters":36400,"station_id":"ce4bgr92rcd13ifvqc6g","pricing_plan_id":"cebpf4jnsgd1na2vs0mg"},{"bike_id":"2828d600-cada-4286-b851-a226d9ca67d5","system_id":"levelo_inurba_marseille","lat":43.32543,"lon":5.41447,"is_reserved":false,"is_disabled":false,"rental_uris":{"android":"levelo://app?vid=2828d600-cada-4286-b851-a226d9ca67d5","ios":"levelo://app?vid=2828d600-cada-4286-b851-a226d9ca67d5"},"vehicle_type_id":"4","last_reported":1727939330,"current_range_meters":28000,"station_id":"ce4bhq12rcd13ifvqhhg","pricing_plan_id":"cebpf4jnsgd1na2vs0mg"},{"bike_id":"a2fa1170-547e-41c0-98f4-8e9574462491","system_id":"levelo_inurba_marseille","lat":43.2816,"lon":5.42643,"is_reserved":false,"is_disabled":false,"rental_uris":{"android":"levelo://app?vid=a2fa1170-547e-41c0-98f4-8e9574462491","ios":"levelo://app?vid=a2fa1170-547e-41c0-98f4-8e9574462491"},"vehicle_type_id":"4","last_reported":1727939330,"current_range_meters":29600,"station_id":"ce4bhnh2rcd13ifvqgug","pricing_plan_id":"cebpf4jnsgd1na2vs0mg"},{"bike_id":"28627aa6-17da-4497-9238-e6ca72a18fc7","system_id":"levelo_inurba_marseille","lat":43.29926,"lon":5.37466,"is_reserved":false,"is_disabled":false,"rental_uris":{"android":"levelo://app?vid=28627aa6-17da-4497-9238-e6ca72a18fc7","ios":"levelo://app?vid=28627aa6-17da-4497-9238-e6ca72a18fc7"},"vehicle_type_id":"4","last_reported":1727939330,"current_range_meters":38000,"station_id":"ce4bgjh2rcd13ifvqbg0","pricing_plan_id":"cebpf4jnsgd1na2vs0mg"},{"bike_id":"635ad047-e3fb-48ce-a122-984ad3b3630b","system_id":"levelo_inurba_marseille","lat":43.290483,"lon":5.399543,"is_reserved":false,"is_disabled":false,"rental_uris":{"android":"levelo://app?vid=635ad047-e3fb-48ce-a122-984ad3b3630b","ios":"levelo://app?vid=635ad047-e3fb-48ce-a122-984ad3b3630b"},"vehicle_type_id":"4","last_reported":1727939330,"current_range_meters":38400,"station_id":"ce4bh392rcd13ifvqdm0","pricing_plan_id":"cebpf4jnsgd1na2vs0mg"},{"bike_id":"11f82713-584b-4be0-b631-a50b1fdc6fb6","system_id":"levelo_inurba_marseille","lat":43.30914,"lon":5.36854,"is_reserved":false,"is_disabled":false,"rental_uris":{"android":"levelo://app?vid=11f82713-584b-4be0-b631-a50b1fdc6fb6","ios":"levelo://app?vid=11f82713-584b-4be0-b631-a50b1fdc6fb6"},"vehicle_type_id":"4","last_reported":1727939330,"current_range_meters":37600,"station_id":"ce4bgn92rcd13ifvqbvg","pricing_plan_id":"cebpf4jnsgd1na2vs0mg"},{"bike_id":"75b6d23c-8e6a-4f18-bb07-ff063c93e683","system_id":"levelo_inurba_marseille","lat":43.30909,"lon":5.36852,"is_reserved":false,"is_disabled":false,"rental_uris":{"android":"levelo://app?vid=75b6d23c-8e6a-4f18-bb07-ff063c93e683","ios":"levelo://app?vid=75b6d23c-8e6a-4f18-bb07-ff063c93e683"},"vehicle_type_id":"4","last_reported":1727939330,"current_range_meters":38800,"station_id":"ce4bgn92rcd13ifvqbvg","pricing_plan_id":"cebpf4jnsgd1na2vs0mg"},{"bike_id":"b09cd3b0-833b-42bf-b0fc-ee91e685c455","system_id":"levelo_inurba_marseille","lat":43.3047,"lon":5.37911,"is_reserved":false,"is_disabled":false,"rental_uris":{"android":"levelo://app?vid=b09cd3b0-833b-42bf-b0fc-ee91e685c455","ios":"levelo://app?vid=b09cd3b0-833b-42bf-b0fc-ee91e685c455"},"vehicle_type_id":"4","last_reported":1727939330,"current_range_meters":8400,"station_id":"ce4bgup2rcd13ifvqcn0","pricing_plan_id":"cebpf4jnsgd1na2vs0mg"},{"bike_id":"df0e0811-8ccd-4242-8883-3fbcbce2908e","system_id":"levelo_inurba_marseille","lat":43.30469,"lon":5.3791,"is_reserved":false,"is_disabled":false,"rental_uris":{"android":"levelo://app?vid=df0e0811-8ccd-4242-8883-3fbcbce2908e","ios":"levelo://app?vid=df0e0811-8ccd-4242-8883-3fbcbce2908e"},"vehicle_type_id":"4","last_reported":1727939330,"current_range_meters":13600,"station_id":"ce4bgup2rcd13ifvqcn0","pricing_plan_id":"cebpf4jnsgd1na2vs0mg"},{"bike_id":"7f8bee07-60d0-410a-897c-aa6d6b46d7b5","system_id":"levelo_inurba_marseille","lat":43.30287,"lon":5.37708,"is_reserved":false,"is_disabled":false,"rental_uris":{"android":"levelo://app?vid=7f8bee07-60d0-410a-897c-aa6d6b46d7b5","ios":"levelo://app?vid=7f8bee07-60d0-410a-897c-aa6d6b46d7b5"},"vehicle_type_id":"4","last_reported":1727939330,"current_range_meters":36000,"station_id":"ce4bguh2rcd13ifvqcj0","pricing_plan_id":"cebpf4jnsgd1na2vs0mg"},{"bike_id":"2a06ff31-dfc7-46cd-9a25-2c0687013b94","system_id":"levelo_inurba_marseille","lat":43.30471,"lon":5.37902,"is_reserved":false,"is_disabled":false,"rental_uris":{"android":"levelo://app?vid=2a06ff31-dfc7-46cd-9a25-2c0687013b94","ios":"levelo://app?vid=2a06ff31-dfc7-46cd-9a25-2c0687013b94"},"vehicle_type_id":"4","last_reported":1727939330,"current_range_meters":40000,"station_id":"ce4bgup2rcd13ifvqcn0","pricing_plan_id":"cebpf4jnsgd1na2vs0mg"},{"bike_id":"2b7b0848-4c2d-4d4e-ba86-9dcf7971875c","system_id":"levelo_inurba_marseille","lat":43.33758,"lon":5.37446,"is_reserved":false,"is_disabled":false,"rental_uris":{"android":"levelo://app?vid=2b7b0848-4c2d-4d4e-ba86-9dcf7971875c","ios":"levelo://app?vid=2b7b0848-4c2d-4d4e-ba86-9dcf7971875c"},"vehicle_type_id":"4","last_reported":1727939330,"current_range_meters":38800,"station_id":"","pricing_plan_id":"cebpf4jnsgd1na2vs0mg"},{"bike_id":"b6bf681e-ebb8-4c29-a568-b40a56d3b882","system_id":"levelo_inurba_marseille","lat":43.26062,"lon":5.39396,"is_reserved":false,"is_disabled":false,"rental_uris":{"android":"levelo://app?vid=b6bf681e-ebb8-4c29-a568-b40a56d3b882","ios":"levelo://app?vid=b6bf681e-ebb8-4c29-a568-b40a56d3b882"},"vehicle_type_id":"4","last_reported":1727939330,"current_range_meters":17200,"station_id":"ce4bhh92rcd13ifvqfj0","pricing_plan_id":"cebpf4jnsgd1na2vs0mg"},{"bike_id":"b4a3fa33-095e-4394-bb7c-ddc83eb83ed8","system_id":"levelo_inurba_marseille","lat":43.32478,"lon":5.36576,"is_reserved":false,"is_disabled":false,"rental_uris":{"android":"levelo://app?vid=b4a3fa33-095e-4394-bb7c-ddc83eb83ed8","ios":"levelo://app?vid=b4a3fa33-095e-4394-bb7c-ddc83eb83ed8"},"vehicle_type_id":"4","last_reported":1727939330,"current_range_meters":34800,"station_id":"ce4bhs12rcd13ifvqhvg","pricing_plan_id":"cebpf4jnsgd1na2vs0mg"},{"bike_id":"81eda3eb-33d3-4cc5-8db3-507a0008778d","system_id":"levelo_inurba_marseille","lat":43.31355,"lon":5.36699,"is_reserved":false,"is_disabled":false,"rental_uris":{"android":"levelo://app?vid=81eda3eb-33d3-4cc5-8db3-507a0008778d","ios":"levelo://app?vid=81eda3eb-33d3-4cc5-8db3-507a0008778d"},"vehicle_type_id":"4","last_reported":1727939330,"current_range_meters":22400,"station_id":"ce4bgr92rcd13ifvqc6g","pricing_plan_id":"cebpf4jnsgd1na2vs0mg"},{"bike_id":"588610fc-a324-4df8-9499-141a903cebd2","system_id":"levelo_inurba_marseille","lat":43.31724,"lon":5.4371,"is_reserved":false,"is_disabled":false,"rental_uris":{"android":"levelo://app?vid=588610fc-a324-4df8-9499-141a903cebd2","ios":"levelo://app?vid=588610fc-a324-4df8-9499-141a903cebd2"},"vehicle_type_id":"4","last_reported":1727939330,"current_range_meters":30400,"station_id":"ce4bhp92rcd13ifvqhcg","pricing_plan_id":"cebpf4jnsgd1na2vs0mg"},{"bike_id":"b868d0a8-f18c-40e0-8a49-27f27af68cda","system_id":"levelo_inurba_marseille","lat":43.30144,"lon":5.37415,"is_reserved":false,"is_disabled":false,"rental_uris":{"android":"levelo://app?vid=b868d0a8-f18c-40e0-8a49-27f27af68cda","ios":"levelo://app?vid=b868d0a8-f18c-40e0-8a49-27f27af68cda"},"vehicle_type_id":"4","last_reported":1727939330,"current_range_meters":31200,"station_id":"ce4bgs92rcd13ifvqcc0","pricing_plan_id":"cebpf4jnsgd1na2vs0mg"},{"bike_id":"23fcd5dc-52e3-40b6-b601-8da82c35b64a","system_id":"levelo_inurba_marseille","lat":43.23202,"lon":5.35547,"is_reserved":false,"is_disabled":false,"rental_uris":{"android":"levelo://app?vid=23fcd5dc-52e3-40b6-b601-8da82c35b64a","ios":"levelo://app?vid=23fcd5dc-52e3-40b6-b601-8da82c35b64a"},"vehicle_type_id":"4","last_reported":1727939330,"current_range_meters":38000,"station_id":"ce4bhu92rcd13ifvqi70","pricing_plan_id":"cebpf4jnsgd1na2vs0mg"},{"bike_id":"4e96f5e5-51ad-40c7-a3fb-c7bccd283bdd","system_id":"levelo_inurba_marseille","lat":43.24544,"lon":5.39527,"is_reserved":false,"is_disabled":false,"rental_uris":{"android":"levelo://app?vid=4e96f5e5-51ad-40c7-a3fb-c7bccd283bdd","ios":"levelo://app?vid=4e96f5e5-51ad-40c7-a3fb-c7bccd283bdd"},"vehicle_type_id":"4","last_reported":1727939330,"current_range_meters":38000,"station_id":"ce4bhlp2rcd13ifvqgjg","pricing_plan_id":"cebpf4jnsgd1na2vs0mg"},{"bike_id":"f4d1402d-e441-432d-a09a-a111f1847214","system_id":"levelo_inurba_marseille","lat":43.31215,"lon":5.36853,"is_reserved":false,"is_disabled":false,"rental_uris":{"android":"levelo://app?vid=f4d1402d-e441-432d-a09a-a111f1847214","ios":"levelo://app?vid=f4d1402d-e441-432d-a09a-a111f1847214"},"vehicle_type_id":"4","last_reported":1727939330,"current_range_meters":25200,"station_id":"ce4bgl92rcd13ifvqbq0","pricing_plan_id":"cebpf4jnsgd1na2vs0mg"},{"bike_id":"a57d2d5c-3901-4a22-bd1a-3fe35a6ae252","system_id":"levelo_inurba_marseille","lat":43.28688,"lon":5.38327,"is_reserved":false,"is_disabled":false,"rental_uris":{"android":"levelo://app?vid=a57d2d5c-3901-4a22-bd1a-3fe35a6ae252","ios":"levelo://app?vid=a57d2d5c-3901-4a22-bd1a-3fe35a6ae252"},"vehicle_type_id":"4","last_reported":1727939330,"current_range_meters":25200,"station_id":"","pricing_plan_id":"cebpf4jnsgd1na2vs0mg"},{"bike_id":"8f103368-d02f-4f29-80da-1d3a34d8ebeb","system_id":"levelo_inurba_marseille","lat":43.25825,"lon":5.39436,"is_reserved":false,"is_disabled":false,"rental_uris":{"android":"levelo://app?vid=8f103368-d02f-4f29-80da-1d3a34d8ebeb","ios":"levelo://app?vid=8f103368-d02f-4f29-80da-1d3a34d8ebeb"},"vehicle_type_id":"4","last_reported":1727939330,"current_range_meters":37600,"station_id":"ce4bhip2rcd13ifvqft0","pricing_plan_id":"cebpf4jnsgd1na2vs0mg"},{"bike_id":"7d3e0c4d-ca7c-4de4-b417-1505937c7044","system_id":"levelo_inurba_marseille","lat":43.24391,"lon":5.37052,"is_reserved":false,"is_disabled":false,"rental_uris":{"android":"levelo://app?vid=7d3e0c4d-ca7c-4de4-b417-1505937c7044","ios":"levelo://app?vid=7d3e0c4d-ca7c-4de4-b417-1505937c7044"},"vehicle_type_id":"4","last_reported":1727939330,"current_range_meters":24800,"station_id":"ce4bhhh2rcd13ifvqfk0","pricing_plan_id":"cebpf4jnsgd1na2vs0mg"},{"bike_id":"254aafcf-07c0-4812-a0fa-d2a4ea500ebf","system_id":"levelo_inurba_marseille","lat":43.24084,"lon":5.37754,"is_reserved":false,"is_disabled":false,"rental_uris":{"android":"levelo://app?vid=254aafcf-07c0-4812-a0fa-d2a4ea500ebf","ios":"levelo://app?vid=254aafcf-07c0-4812-a0fa-d2a4ea500ebf"},"vehicle_type_id":"4","last_reported":1727939330,"current_range_meters":3200,"station_id":"ce4bhnp2rcd13ifvqgvg","pricing_plan_id":"cebpf4jnsgd1na2vs0mg"},{"bike_id":"f67219a2-689f-4901-bbe3-a0740cbfef69","system_id":"levelo_inurba_marseille","lat":43.31341,"lon":5.36718,"is_reserved":false,"is_disabled":false,"rental_uris":{"android":"levelo://app?vid=f67219a2-689f-4901-bbe3-a0740cbfef69","ios":"levelo://app?vid=f67219a2-689f-4901-bbe3-a0740cbfef69"},"vehicle_type_id":"4","last_reported":1727939330,"current_range_meters":6800,"station_id":"ce4bgr92rcd13ifvqc6g","pricing_plan_id":"cebpf4jnsgd1na2vs0mg"},{"bike_id":"54a26c80-e5f5-46de-874f-e564532825b5","system_id":"levelo_inurba_marseille","lat":43.24073,"lon":5.37768,"is_reserved":false,"is_disabled":false,"rental_uris":{"android":"levelo://app?vid=54a26c80-e5f5-46de-874f-e564532825b5","ios":"levelo://app?vid=54a26c80-e5f5-46de-874f-e564532825b5"},"vehicle_type_id":"4","last_reported":1727939330,"current_range_meters":22800,"station_id":"ce4bhnp2rcd13ifvqgvg","pricing_plan_id":"cebpf4jnsgd1na2vs0mg"},{"bike_id":"afee6bf6-8074-4b9b-9ab2-ccdb5b4ae612","system_id":"levelo_inurba_marseille","lat":43.29039,"lon":5.37088,"is_reserved":false,"is_disabled":false,"rental_uris":{"android":"levelo://app?vid=afee6bf6-8074-4b9b-9ab2-ccdb5b4ae612","ios":"levelo://app?vid=afee6bf6-8074-4b9b-9ab2-ccdb5b4ae612"},"vehicle_type_id":"4","last_reported":1727939330,"current_range_meters":30800,"station_id":"ce4bhh92rcd13ifvqfh0","pricing_plan_id":"cebpf4jnsgd1na2vs0mg"},{"bike_id":"53c0cac3-947b-4cb1-a27f-49a1b43a7af3","system_id":"levelo_inurba_marseille","lat":43.3135,"lon":5.36699,"is_reserved":false,"is_disabled":false,"rental_uris":{"android":"levelo://app?vid=53c0cac3-947b-4cb1-a27f-49a1b43a7af3","ios":"levelo://app?vid=53c0cac3-947b-4cb1-a27f-49a1b43a7af3"},"vehicle_type_id":"4","last_reported":1727939330,"current_range_meters":6400,"station_id":"ce4bgr92rcd13ifvqc6g","pricing_plan_id":"cebpf4jnsgd1na2vs0mg"},{"bike_id":"e26accd1-82e8-43ef-8453-9ae6731bdb29","system_id":"levelo_inurba_marseille","lat":43.289398,"lon":5.396472,"is_reserved":false,"is_disabled":false,"rental_uris":{"android":"levelo://app?vid=e26accd1-82e8-43ef-8453-9ae6731bdb29","ios":"levelo://app?vid=e26accd1-82e8-43ef-8453-9ae6731bdb29"},"vehicle_type_id":"4","last_reported":1727939330,"current_range_meters":14800,"station_id":"ce4bhi12rcd13ifvqfq0","pricing_plan_id":"cebpf4jnsgd1na2vs0mg"},{"bike_id":"0200794a-de98-4010-a486-a2288ee10edd","system_id":"levelo_inurba_marseille","lat":43.31341,"lon":5.36732,"is_reserved":false,"is_disabled":false,"rental_uris":{"android":"levelo://app?vid=0200794a-de98-4010-a486-a2288ee10edd","ios":"levelo://app?vid=0200794a-de98-4010-a486-a2288ee10edd"},"vehicle_type_id":"4","last_reported":1727939330,"current_range_meters":36400,"station_id":"ce4bgr92rcd13ifvqc6g","pricing_plan_id":"cebpf4jnsgd1na2vs0mg"},{"bike_id":"d9513a24-3235-43a7-b9a5-1c5cfe37603f","system_id":"levelo_inurba_marseille","lat":43.23058,"lon":5.35495,"is_reserved":false,"is_disabled":false,"rental_uris":{"android":"levelo://app?vid=d9513a24-3235-43a7-b9a5-1c5cfe37603f","ios":"levelo://app?vid=d9513a24-3235-43a7-b9a5-1c5cfe37603f"},"vehicle_type_id":"4","last_reported":1727939330,"current_range_meters":30800,"station_id":"cpo3342slgdg3j2ifvpg","pricing_plan_id":"cebpf4jnsgd1na2vs0mg"},{"bike_id":"02cc76ac-ed2d-497a-9a56-dc68a634f169","system_id":"levelo_inurba_marseille","lat":43.301241,"lon":5.398621,"is_reserved":false,"is_disabled":false,"rental_uris":{"android":"levelo://app?vid=02cc76ac-ed2d-497a-9a56-dc68a634f169","ios":"levelo://app?vid=02cc76ac-ed2d-497a-9a56-dc68a634f169"},"vehicle_type_id":"4","last_reported":1727939330,"current_range_meters":14800,"station_id":"ce4bh0h2rcd13ifvqd40","pricing_plan_id":"cebpf4jnsgd1na2vs0mg"},{"bike_id":"f286867f-d26f-4f6a-8bdb-416a3f805843","system_id":"levelo_inurba_marseille","lat":43.30946,"lon":5.39031,"is_reserved":false,"is_disabled":false,"rental_uris":{"android":"levelo://app?vid=f286867f-d26f-4f6a-8bdb-416a3f805843","ios":"levelo://app?vid=f286867f-d26f-4f6a-8bdb-416a3f805843"},"vehicle_type_id":"4","last_reported":1727939330,"current_range_meters":35600,"station_id":"ce4bgup2rcd13ifvqco0","pricing_plan_id":"cebpf4jnsgd1na2vs0mg"},{"bike_id":"89f79560-9417-4d80-afea-9f3796d9baaf","system_id":"levelo_inurba_marseille","lat":43.337444,"lon":5.374475,"is_reserved":false,"is_disabled":false,"rental_uris":{"android":"levelo://app?vid=89f79560-9417-4d80-afea-9f3796d9baaf","ios":"levelo://app?vid=89f79560-9417-4d80-afea-9f3796d9baaf"},"vehicle_type_id":"4","last_reported":1727939330,"current_range_meters":11600,"station_id":"","pricing_plan_id":"cebpf4jnsgd1na2vs0mg"},{"bike_id":"5e147d97-456a-4032-8176-2ea2bc040cb8","system_id":"levelo_inurba_marseille","lat":43.30144,"lon":5.37419,"is_reserved":false,"is_disabled":false,"rental_uris":{"android":"levelo://app?vid=5e147d97-456a-4032-8176-2ea2bc040cb8","ios":"levelo://app?vid=5e147d97-456a-4032-8176-2ea2bc040cb8"},"vehicle_type_id":"4","last_reported":1727939330,"current_range_meters":9600,"station_id":"ce4bgs92rcd13ifvqcc0","pricing_plan_id":"cebpf4jnsgd1na2vs0mg"},{"bike_id":"7a6b4e75-1cb2-4959-8187-5691b78f74e7","system_id":"levelo_inurba_marseille","lat":43.32539,"lon":5.41452,"is_reserved":false,"is_disabled":false,"rental_uris":{"android":"levelo://app?vid=7a6b4e75-1cb2-4959-8187-5691b78f74e7","ios":"levelo://app?vid=7a6b4e75-1cb2-4959-8187-5691b78f74e7"},"vehicle_type_id":"4","last_reported":1727939330,"current_range_meters":40000,"station_id":"ce4bhq12rcd13ifvqhhg","pricing_plan_id":"cebpf4jnsgd1na2vs0mg"},{"bike_id":"6fd16a7b-4e9c-4e8a-94e7-e148c8011738","system_id":"levelo_inurba_marseille","lat":43.30463,"lon":5.37897,"is_reserved":false,"is_disabled":false,"rental_uris":{"android":"levelo://app?vid=6fd16a7b-4e9c-4e8a-94e7-e148c8011738","ios":"levelo://app?vid=6fd16a7b-4e9c-4e8a-94e7-e148c8011738"},"vehicle_type_id":"4","last_reported":1727939330,"current_range_meters":35600,"station_id":"ce4bgup2rcd13ifvqcn0","pricing_plan_id":"cebpf4jnsgd1na2vs0mg"},{"bike_id":"764c6c33-8c6d-4196-afca-b4f9d900a3fe","system_id":"levelo_inurba_marseille","lat":43.30145,"lon":5.37433,"is_reserved":false,"is_disabled":false,"rental_uris":{"android":"levelo://app?vid=764c6c33-8c6d-4196-afca-b4f9d900a3fe","ios":"levelo://app?vid=764c6c33-8c6d-4196-afca-b4f9d900a3fe"},"vehicle_type_id":"4","last_reported":1727939330,"current_range_meters":32000,"station_id":"ce4bgs92rcd13ifvqcc0","pricing_plan_id":"cebpf4jnsgd1na2vs0mg"},{"bike_id":"4cd4ba35-fcc6-4b78-ba23-2f7989c45f8d","system_id":"levelo_inurba_marseille","lat":43.31121,"lon":5.37765,"is_reserved":false,"is_disabled":false,"rental_uris":{"android":"levelo://app?vid=4cd4ba35-fcc6-4b78-ba23-2f7989c45f8d","ios":"levelo://app?vid=4cd4ba35-fcc6-4b78-ba23-2f7989c45f8d"},"vehicle_type_id":"4","last_reported":1727939330,"current_range_meters":28000,"station_id":"ce4bgt92rcd13ifvqcg0","pricing_plan_id":"cebpf4jnsgd1na2vs0mg"},{"bike_id":"0f0f5130-87c2-4f06-aa07-b0d0de3a37a9","system_id":"levelo_inurba_marseille","lat":43.30937,"lon":5.3902,"is_reserved":false,"is_disabled":false,"rental_uris":{"android":"levelo://app?vid=0f0f5130-87c2-4f06-aa07-b0d0de3a37a9","ios":"levelo://app?vid=0f0f5130-87c2-4f06-aa07-b0d0de3a37a9"},"vehicle_type_id":"4","last_reported":1727939330,"current_range_meters":38000,"station_id":"ce4bgup2rcd13ifvqco0","pricing_plan_id":"cebpf4jnsgd1na2vs0mg"},{"bike_id":"12b4d712-fa13-43aa-9de2-3af943224600","system_id":"levelo_inurba_marseille","lat":43.314349,"lon":5.369245,"is_reserved":false,"is_disabled":false,"rental_uris":{"android":"levelo://app?vid=12b4d712-fa13-43aa-9de2-3af943224600","ios":"levelo://app?vid=12b4d712-fa13-43aa-9de2-3af943224600"},"vehicle_type_id":"4","last_reported":1727939330,"current_range_meters":23200,"station_id":"ce4bhap2rcd13ifvqek0","pricing_plan_id":"cebpf4jnsgd1na2vs0mg"},{"bike_id":"85081e96-cdd3-4b8e-a2ef-b9bc382a96ac","system_id":"levelo_inurba_marseille","lat":43.24073,"lon":5.37764,"is_reserved":false,"is_disabled":false,"rental_uris":{"android":"levelo://app?vid=85081e96-cdd3-4b8e-a2ef-b9bc382a96ac","ios":"levelo://app?vid=85081e96-cdd3-4b8e-a2ef-b9bc382a96ac"},"vehicle_type_id":"4","last_reported":1727939330,"current_range_meters":38800,"station_id":"ce4bhnp2rcd13ifvqgvg","pricing_plan_id":"cebpf4jnsgd1na2vs0mg"},{"bike_id":"6969f528-4a62-42e3-84a6-9475bef01981","system_id":"levelo_inurba_marseille","lat":43.3361,"lon":5.41033,"is_reserved":false,"is_disabled":false,"rental_uris":{"android":"levelo://app?vid=6969f528-4a62-42e3-84a6-9475bef01981","ios":"levelo://app?vid=6969f528-4a62-42e3-84a6-9475bef01981"},"vehicle_type_id":"4","last_reported":1727939330,"current_range_meters":34800,"station_id":"ce4bhqh2rcd13ifvqhmg","pricing_plan_id":"cebpf4jnsgd1na2vs0mg"},{"bike_id":"6741ba96-9e91-40e3-ba99-8343f03dbbd1","system_id":"levelo_inurba_marseille","lat":43.24077,"lon":5.37759,"is_reserved":false,"is_disabled":false,"rental_uris":{"android":"levelo://app?vid=6741ba96-9e91-40e3-ba99-8343f03dbbd1","ios":"levelo://app?vid=6741ba96-9e91-40e3-ba99-8343f03dbbd1"},"vehicle_type_id":"4","last_reported":1727939330,"current_range_meters":26800,"station_id":"ce4bhnp2rcd13ifvqgvg","pricing_plan_id":"cebpf4jnsgd1na2vs0mg"},{"bike_id":"ee1d2e93-f77c-4fb0-9acb-4d0aaa1e6dbd","system_id":"levelo_inurba_marseille","lat":43.32537,"lon":5.41433,"is_reserved":false,"is_disabled":false,"rental_uris":{"android":"levelo://app?vid=ee1d2e93-f77c-4fb0-9acb-4d0aaa1e6dbd","ios":"levelo://app?vid=ee1d2e93-f77c-4fb0-9acb-4d0aaa1e6dbd"},"vehicle_type_id":"4","last_reported":1727939330,"current_range_meters":19600,"station_id":"ce4bhq12rcd13ifvqhhg","pricing_plan_id":"cebpf4jnsgd1na2vs0mg"},{"bike_id":"02aa4ca0-fdd5-460b-97aa-9f28ef483145","system_id":"levelo_inurba_marseille","lat":43.30476,"lon":5.379,"is_reserved":false,"is_disabled":false,"rental_uris":{"android":"levelo://app?vid=02aa4ca0-fdd5-460b-97aa-9f28ef483145","ios":"levelo://app?vid=02aa4ca0-fdd5-460b-97aa-9f28ef483145"},"vehicle_type_id":"4","last_reported":1727939330,"current_range_meters":29600,"station_id":"ce4bgup2rcd13ifvqcn0","pricing_plan_id":"cebpf4jnsgd1na2vs0mg"},{"bike_id":"04d8ea9f-d3c3-4482-bae3-fcfb0c99c7ad","system_id":"levelo_inurba_marseille","lat":43.26788,"lon":5.39412,"is_reserved":false,"is_disabled":false,"rental_uris":{"android":"levelo://app?vid=04d8ea9f-d3c3-4482-bae3-fcfb0c99c7ad","ios":"levelo://app?vid=04d8ea9f-d3c3-4482-bae3-fcfb0c99c7ad"},"vehicle_type_id":"4","last_reported":1727939330,"current_range_meters":34800,"station_id":"ce4bhh12rcd13ifvqfg0","pricing_plan_id":"cebpf4jnsgd1na2vs0mg"},{"bike_id":"88666a59-7086-412e-af21-1e37300d1e64","system_id":"levelo_inurba_marseille","lat":43.27412,"lon":5.39401,"is_reserved":false,"is_disabled":false,"rental_uris":{"android":"levelo://app?vid=88666a59-7086-412e-af21-1e37300d1e64","ios":"levelo://app?vid=88666a59-7086-412e-af21-1e37300d1e64"},"vehicle_type_id":"4","last_reported":1727939330,"current_range_meters":12400,"station_id":"ce4bhdp2rcd13ifvqf20","pricing_plan_id":"cebpf4jnsgd1na2vs0mg"},{"bike_id":"393257c4-c7fb-41ab-8bba-65af5f58c868","system_id":"levelo_inurba_marseille","lat":43.31362,"lon":5.36682,"is_reserved":false,"is_disabled":false,"rental_uris":{"android":"levelo://app?vid=393257c4-c7fb-41ab-8bba-65af5f58c868","ios":"levelo://app?vid=393257c4-c7fb-41ab-8bba-65af5f58c868"},"vehicle_type_id":"4","last_reported":1727939330,"current_range_meters":4400,"station_id":"ce4bgr92rcd13ifvqc6g","pricing_plan_id":"cebpf4jnsgd1na2vs0mg"},{"bike_id":"9c348aa1-b116-410d-b615-bfe38f502c4f","system_id":"levelo_inurba_marseille","lat":43.30543,"lon":5.36569,"is_reserved":false,"is_disabled":false,"rental_uris":{"android":"levelo://app?vid=9c348aa1-b116-410d-b615-bfe38f502c4f","ios":"levelo://app?vid=9c348aa1-b116-410d-b615-bfe38f502c4f"},"vehicle_type_id":"4","last_reported":1727939330,"current_range_meters":28800,"station_id":"ce4bgs12rcd13ifvqcag","pricing_plan_id":"cebpf4jnsgd1na2vs0mg"},{"bike_id":"ef775f47-e409-4d2c-941b-7d534e66e3f1","system_id":"levelo_inurba_marseille","lat":43.29035,"lon":5.37555,"is_reserved":false,"is_disabled":false,"rental_uris":{"android":"levelo://app?vid=ef775f47-e409-4d2c-941b-7d534e66e3f1","ios":"levelo://app?vid=ef775f47-e409-4d2c-941b-7d534e66e3f1"},"vehicle_type_id":"4","last_reported":1727939330,"current_range_meters":17200,"station_id":"ce4bh692rcd13ifvqe90","pricing_plan_id":"cebpf4jnsgd1na2vs0mg"},{"bike_id":"c1d1f422-6022-42cf-bed9-4b739baadbb0","system_id":"levelo_inurba_marseille","lat":43.288555,"lon":5.358727,"is_reserved":false,"is_disabled":false,"rental_uris":{"android":"levelo://app?vid=c1d1f422-6022-42cf-bed9-4b739baadbb0","ios":"levelo://app?vid=c1d1f422-6022-42cf-bed9-4b739baadbb0"},"vehicle_type_id":"4","last_reported":1727939330,"current_range_meters":38800,"station_id":"ce4bhb12rcd13ifvqem0","pricing_plan_id":"cebpf4jnsgd1na2vs0mg"},{"bike_id":"666c2559-58d1-43b8-aba0-779ffc8b14e7","system_id":"levelo_inurba_marseille","lat":43.29267,"lon":5.40127,"is_reserved":false,"is_disabled":false,"rental_uris":{"android":"levelo://app?vid=666c2559-58d1-43b8-aba0-779ffc8b14e7","ios":"levelo://app?vid=666c2559-58d1-43b8-aba0-779ffc8b14e7"},"vehicle_type_id":"4","last_reported":1727939330,"current_range_meters":20400,"station_id":"ce4bh312rcd13ifvqdk0","pricing_plan_id":"cebpf4jnsgd1na2vs0mg"},{"bike_id":"6f239231-5594-45aa-abc9-aa64c98a50b0","system_id":"levelo_inurba_marseille","lat":43.23962,"lon":5.36631,"is_reserved":false,"is_disabled":false,"rental_uris":{"android":"levelo://app?vid=6f239231-5594-45aa-abc9-aa64c98a50b0","ios":"levelo://app?vid=6f239231-5594-45aa-abc9-aa64c98a50b0"},"vehicle_type_id":"4","last_reported":1727939330,"current_range_meters":38000,"station_id":"ce4bhi12rcd13ifvqfp0","pricing_plan_id":"cebpf4jnsgd1na2vs0mg"},{"bike_id":"84d4bf10-2606-4ac3-9588-eff99fbe04e4","system_id":"levelo_inurba_marseille","lat":43.31524,"lon":5.38032,"is_reserved":false,"is_disabled":false,"rental_uris":{"android":"levelo://app?vid=84d4bf10-2606-4ac3-9588-eff99fbe04e4","ios":"levelo://app?vid=84d4bf10-2606-4ac3-9588-eff99fbe04e4"},"vehicle_type_id":"4","last_reported":1727939330,"current_range_meters":20800,"station_id":"ce4bhsp2rcd13ifvqi50","pricing_plan_id":"cebpf4jnsgd1na2vs0mg"},{"bike_id":"14c60460-836f-4ccc-a632-c8b1a3d5e848","system_id":"levelo_inurba_marseille","lat":43.28306,"lon":5.38573,"is_reserved":false,"is_disabled":false,"rental_uris":{"android":"levelo://app?vid=14c60460-836f-4ccc-a632-c8b1a3d5e848","ios":"levelo://app?vid=14c60460-836f-4ccc-a632-c8b1a3d5e848"},"vehicle_type_id":"4","last_reported":1727939330,"current_range_meters":32000,"station_id":"","pricing_plan_id":"cebpf4jnsgd1na2vs0mg"},{"bike_id":"4b10a9ba-cf18-441b-a8dc-8c0bcdc89826","system_id":"levelo_inurba_marseille","lat":43.2749,"lon":5.42473,"is_reserved":false,"is_disabled":false,"rental_uris":{"android":"levelo://app?vid=4b10a9ba-cf18-441b-a8dc-8c0bcdc89826","ios":"levelo://app?vid=4b10a9ba-cf18-441b-a8dc-8c0bcdc89826"},"vehicle_type_id":"4","last_reported":1727939330,"current_range_meters":30400,"station_id":"ce4bhn92rcd13ifvqgrg","pricing_plan_id":"cebpf4jnsgd1na2vs0mg"},{"bike_id":"d1256e77-7e57-4858-ad0e-d3b6fdd4c1ee","system_id":"levelo_inurba_marseille","lat":43.27997,"lon":5.41651,"is_reserved":false,"is_disabled":false,"rental_uris":{"android":"levelo://app?vid=d1256e77-7e57-4858-ad0e-d3b6fdd4c1ee","ios":"levelo://app?vid=d1256e77-7e57-4858-ad0e-d3b6fdd4c1ee"},"vehicle_type_id":"4","last_reported":1727939330,"current_range_meters":29600,"station_id":"ce4bho12rcd13ifvqh1g","pricing_plan_id":"cebpf4jnsgd1na2vs0mg"},{"bike_id":"337d0100-6129-4776-a7e4-1bd8548000e6","system_id":"levelo_inurba_marseille","lat":43.30944,"lon":5.39027,"is_reserved":false,"is_disabled":false,"rental_uris":{"android":"levelo://app?vid=337d0100-6129-4776-a7e4-1bd8548000e6","ios":"levelo://app?vid=337d0100-6129-4776-a7e4-1bd8548000e6"},"vehicle_type_id":"4","last_reported":1727939330,"current_range_meters":38400,"station_id":"ce4bgup2rcd13ifvqco0","pricing_plan_id":"cebpf4jnsgd1na2vs0mg"},{"bike_id":"05f06e64-81e9-4daf-93c2-8a745545415a","system_id":"levelo_inurba_marseille","lat":43.24073,"lon":5.37763,"is_reserved":false,"is_disabled":false,"rental_uris":{"android":"levelo://app?vid=05f06e64-81e9-4daf-93c2-8a745545415a","ios":"levelo://app?vid=05f06e64-81e9-4daf-93c2-8a745545415a"},"vehicle_type_id":"4","last_reported":1727939330,"current_range_meters":12400,"station_id":"ce4bhnp2rcd13ifvqgvg","pricing_plan_id":"cebpf4jnsgd1na2vs0mg"},{"bike_id":"0d1a8df2-17cd-49e7-a7e3-62ed7164adf2","system_id":"levelo_inurba_marseille","lat":43.33615,"lon":5.41033,"is_reserved":false,"is_disabled":false,"rental_uris":{"android":"levelo://app?vid=0d1a8df2-17cd-49e7-a7e3-62ed7164adf2","ios":"levelo://app?vid=0d1a8df2-17cd-49e7-a7e3-62ed7164adf2"},"vehicle_type_id":"4","last_reported":1727939330,"current_range_meters":8800,"station_id":"ce4bhqh2rcd13ifvqhmg","pricing_plan_id":"cebpf4jnsgd1na2vs0mg"},