{"last_updated":1728580154,"ttl":60,"version":"2.2","data":{"bikes":[{"bike_id":"fc61c697-0405-4d7e-bb40-cfe30b19f812","system_id":"levelo_inurba_marseille","lat":43.26552,"lon":5.37292,"is_reserved":false,"is_disabled":false,"rental_uris":{"android":"levelo://app?vid=fc61c697-0405-4d7e-bb40-cfe30b19f812","ios":"levelo://app?vid=fc61c697-0405-4d7e-bb40-cfe30b19f812"},"vehicle_type_id":"4","last_reported":1728580154,"current_range_meters":7200,"station_id":"ce4bhg12rcd13ifvqf70","pricing_plan_id":"cebpf4jnsgd1na2vs0mg"},{"bike_id":"53dbb271-27be-4e55-9cea-e9a94f8c8c00","system_id":"levelo_inurba_marseille","lat":43.31079,"lon":5.42432,"is_reserved":false,"is_disabled":false,"rental_uris":{"android":"levelo://app?vid=53dbb271-27be-4e55-9cea-e9a94f8c8c00","ios":"levelo://app?vid=53dbb271-27be-4e55-9cea-e9a94f8c8c00"},"vehicle_type_id":"4","last_reported":1728580154,"current_range_meters":33600,"station_id":"ce4bhp92rcd13ifvqhag","pricing_plan_id":"cebpf4jnsgd1na2vs0mg"},{"bike_id":"81131cdd-18c5-49db-bc8d-e00824e5f738","system_id":"levelo_inurba_marseille","lat":43.26716,"lon":5.3835,"is_reserved":false,"is_disabled":false,"rental_uris":{"android":"levelo://app?vid=81131cdd-18c5-49db-bc8d-e00824e5f738","ios":"levelo://app?vid=81131cdd-18c5-49db-bc8d-e00824e5f738"},"vehicle_type_id":"4","last_reported":1728580154,"current_range_meters":19200,"station_id":"ce4bhkp2rcd13ifvqgd0","pricing_plan_id":"cebpf4jnsgd1na2vs0mg"},{"bike_id":"b9b9373d-fab7-4edf-b323-20b440266970","system_id":"levelo_inurba_marseille","lat":43.30876,"lon":5.39653,"is_reserved":false,"is_disabled":false,"rental_uris":{"android":"levelo://app?vid=b9b9373d-fab7-4edf-b323-20b440266970","ios":"levelo://app?vid=b9b9373d-fab7-4edf-b323-20b440266970"},"vehicle_type_id":"4","last_reported":1728580154,"current_range_meters":6800,"station_id":"ce4bh012rcd13ifvqcv0","pricing_plan_id":"cebpf4jnsgd1na2vs0mg"},{"bike_id":"6cb2fd54-0aca-4f7d-aadb-bc057dc4fb59","system_id":"levelo_inurba_marseille","lat":43.23063,"lon":5.35492,"is_reserved":false,"is_disabled":false,"rental_uris":{"android":"levelo://app?vid=6cb2fd54-0aca-4f7d-aadb-bc057dc4fb59","ios":"levelo://app?vid=6cb2fd54-0aca-4f7d-aadb-bc057dc4fb59"},"vehicle_type_id":"4","last_reported":1728580154,"current_range_meters":32400,"station_id":"cpo3342slgdg3j2ifvpg","pricing_plan_id":"cebpf4jnsgd1na2vs0mg"},{"bike_id":"30c10d19-e37c-4bb5-9b6d-11fa2f8a369a","system_id":"levelo_inurba_marseille","lat":43.28152,"lon":5.42646,"is_reserved":false,"is_disabled":false,"rental_uris":{"android":"levelo://app?vid=30c10d19-e37c-4bb5-9b6d-11fa2f8a369a","ios":"levelo://app?vid=30c10d19-e37c-4bb5-9b6d-11fa2f8a369a"},"vehicle_type_id":"4","last_reported":1728580154,"current_range_meters":3200,"station_id":"ce4bhnh2rcd13ifvqgug","pricing_plan_id":"cebpf4jnsgd1na2vs0mg"},{"bike_id":"6f712c18-a6c2-4a33-b7d6-5e038f08a329","system_id":"levelo_inurba_marseille","lat":43.31109,"lon":5.3778,"is_reserved":false,"is_disabled":false,"rental_uris":{"android":"levelo://app?vid=6f712c18-a6c2-4a33-b7d6-5e038f08a329","ios":"levelo://app?vid=6f712c18-a6c2-4a33-b7d6-5e038f08a329"},"vehicle_type_id":"4","last_reported":1728580154,"current_range_meters":22000,"station_id":"ce4bgt92rcd13ifvqcg0","pricing_plan_id":"cebpf4jnsgd1na2vs0mg"},{"bike_id":"bd5868aa-89da-4716-92dd-e4d3f8d23c8a","system_id":"levelo_inurba_marseille","lat":43.28839,"lon":5.35848,"is_reserved":false,"is_disabled":false,"rental_uris":{"android":"levelo://app?vid=bd5868aa-89da-4716-92dd-e4d3f8d23c8a","ios":"levelo://app?vid=bd5868aa-89da-4716-92dd-e4d3f8d23c8a"},"vehicle_type_id":"4","last_reported":1728580154,"current_range_meters":33200,"station_id":"ce4bhb12rcd13ifvqem0","pricing_plan_id":"cebpf4jnsgd1na2vs0mg"},{"bike_id":"6fccb379-adca-4617-bbeb-442137e4c023","system_id":"levelo_inurba_marseille","lat":43.28463,"lon":5.35881,"is_reserved":false,"is_disabled":false,"rental_uris":{"android":"levelo://app?vid=6fccb379-adca-4617-bbeb-442137e4c023","ios":"levelo://app?vid=6fccb379-adca-4617-bbeb-442137e4c023"},"vehicle_type_id":"4","last_reported":1728580154,"current_range_meters":17600,"station_id":"ce4bhah2rcd13ifvqei0","pricing_plan_id":"cebpf4jnsgd1na2vs0mg"},{"bike_id":"18757d63-a25d-4e15-aa24-3c80743340f2","system_id":"levelo_inurba_marseille","lat":43.29261,"lon":5.38441,"is_reserved":false,"is_disabled":false,"rental_uris":{"android":"levelo://app?vid=18757d63-a25d-4e15-aa24-3c80743340f2","ios":"levelo://app?vid=18757d63-a25d-4e15-aa24-3c80743340f2"},"vehicle_type_id":"4","last_reported":1728580154,"current_range_meters":35200,"station_id":"ce4bh692rcd13ifvqea0","pricing_plan_id":"cebpf4jnsgd1na2vs0mg"},{"bike_id":"e872fc30-3c57-4a83-b46e-c9748d4c279a","system_id":"levelo_inurba_marseille","lat":43.33723,"lon":5.39185,"is_reserved":false,"is_disabled":false,"rental_uris":{"android":"levelo://app?vid=e872fc30-3c57-4a83-b46e-c9748d4c279a","ios":"levelo://app?vid=e872fc30-3c57-4a83-b46e-c9748d4c279a"},"vehicle_type_id":"4","last_reported":1728580154,"current_range_meters":24800,"station_id":"ce4bhr92rcd13ifvqhsg","pricing_plan_id":"cebpf4jnsgd1na2vs0mg"},{"bike_id":"5995432d-f34c-4748-94f6-4be3834fb9c5","system_id":"levelo_inurba_marseille","lat":43.28851,"lon":5.39302,"is_reserved":false,"is_disabled":false,"rental_uris":{"android":"levelo://app?vid=5995432d-f34c-4748-94f6-4be3834fb9c5","ios":"levelo://app?vid=5995432d-f34c-4748-94f6-4be3834fb9c5"},"vehicle_type_id":"4","last_reported":1728580154,"current_range_meters":3200,"station_id":"ce4bh2p2rcd13ifvqdi0","pricing_plan_id":"cebpf4jnsgd1na2vs0mg"},{"bike_id":"9457c8c0-c7d6-45cc-876b-34eed3ca9c67","system_id":"levelo_inurba_marseille","lat":43.33021,"lon":5.39044,"is_reserved":false,"is_disabled":false,"rental_uris":{"android":"levelo://app?vid=9457c8c0-c7d6-45cc-876b-34eed3ca9c67","ios":"levelo://app?vid=9457c8c0-c7d6-45cc-876b-34eed3ca9c67"},"vehicle_type_id":"4","last_reported":1728580154,"current_range_meters":14800,"station_id":"ce4bhr92rcd13ifvqhrg","pricing_plan_id":"cebpf4jnsgd1na2vs0mg"},{"bike_id":"9db4d985-7949-4b7f-b898-6a0ca7ba3693","system_id":"levelo_inurba_marseille","lat":43.33771,"lon":5.37447,"is_reserved":false,"is_disabled":false,"rental_uris":{"android":"levelo://app?vid=9db4d985-7949-4b7f-b898-6a0ca7ba3693","ios":"levelo://app?vid=9db4d985-7949-4b7f-b898-6a0ca7ba3693"},"vehicle_type_id":"4","last_reported":1728580154,"current_range_meters":34800,"station_id":"ce4rr2p2rcd13i802rgg","pricing_plan_id":"cebpf4jnsgd1na2vs0mg"},{"bike_id":"4ba16704-0d6a-4246-bf9f-289b31695a48","system_id":"levelo_inurba_marseille","lat":43.31356,"lon":5.3849,"is_reserved":false,"is_disabled":false,"rental_uris":{"android":"levelo://app?vid=4ba16704-0d6a-4246-bf9f-289b31695a48","ios":"levelo://app?vid=4ba16704-0d6a-4246-bf9f-289b31695a48"},"vehicle_type_id":"4","last_reported":1728580154,"current_range_meters":22400,"station_id":"ce4bgt92rcd13ifvqcf0","pricing_plan_id":"cebpf4jnsgd1na2vs0mg"},{"bike_id":"c2709d8c-182c-4c66-9678-32143d413767","system_id":"levelo_inurba_marseille","lat":43.22936,"lon":5.35378,"is_reserved":false,"is_disabled":false,"rental_uris":{"android":"levelo://app?vid=c2709d8c-182c-4c66-9678-32143d413767","ios":"levelo://app?vid=c2709d8c-182c-4c66-9678-32143d413767"},"vehicle_type_id":"4","last_reported":1728580154,"current_range_meters":36400,"station_id":"cpo3532slgdg3j2ikp40","pricing_plan_id":"cebpf4jnsgd1na2vs0mg"},{"bike_id":"fc40e323-c9f2-41cb-99dd-b01dca9b808a","system_id":"levelo_inurba_marseille","lat":43.29842,"lon":5.36282,"is_reserved":false,"is_disabled":false,"rental_uris":{"android":"levelo://app?vid=fc40e323-c9f2-41cb-99dd-b01dca9b808a","ios":"levelo://app?vid=fc40e323-c9f2-41cb-99dd-b01dca9b808a"},"vehicle_type_id":"4","last_reported":1728580154,"current_range_meters":39200,"station_id":"ce4bgpp2rcd13ifvqc3g","pricing_plan_id":"cebpf4jnsgd1na2vs0mg"},{"bike_id":"ef21499e-a9e2-4ff7-b158-755c10d16e7e","system_id":"levelo_inurba_marseille","lat":43.297371,"lon":5.381211,"is_reserved":false,"is_disabled":false,"rental_uris":{"android":"levelo://app?vid=ef21499e-a9e2-4ff7-b158-755c10d16e7e","ios":"levelo://app?vid=ef21499e-a9e2-4ff7-b158-755c10d16e7e"},"vehicle_type_id":"4","last_reported":1728580154,"current_range_meters":8000,"station_id":"ce4bgip2rcd13ifvqbb0","pricing_plan_id":"cebpf4jnsgd1na2vs0mg"},{"bike_id":"005ec9ca-8c67-4932-9999-c9c66d93c29b","system_id":"levelo_inurba_marseille","lat":43.26939,"lon":5.40253,"is_reserved":false,"is_disabled":false,"rental_uris":{"android":"levelo://app?vid=005ec9ca-8c67-4932-9999-c9c66d93c29b","ios":"levelo://app?vid=005ec9ca-8c67-4932-9999-c9c66d93c29b"},"vehicle_type_id":"4","last_reported":1728580154,"current_range_meters":20800,"station_id":"cjm6bp8fraef2m0cb0m0","pricing_plan_id":"cebpf4jnsgd1na2vs0mg"},{"bike_id":"e1c9aebb-9ed2-4213-9b8d-70780b0398b7","system_id":"levelo_inurba_marseille","lat":43.2979,"lon":5.393621,"is_reserved":false,"is_disabled":false,"rental_uris":{"android":"levelo://app?vid=e1c9aebb-9ed2-4213-9b8d-70780b0398b7","ios":"levelo://app?vid=e1c9aebb-9ed2-4213-9b8d-70780b0398b7"},"vehicle_type_id":"4","last_reported":1728580154,"current_range_meters":36800,"station_id":"chh1huq6cuj3fo74tm60","pricing_plan_id":"cebpf4jnsgd1na2vs0mg"},{"bike_id":"4d1417af-5828-4a71-9f17-d5349730b7c9","system_id":"levelo_inurba_marseille","lat":43.28033,"lon":5.36944,"is_reserved":false,"is_disabled":false,"rental_uris":{"android":"levelo://app?vid=4d1417af-5828-4a71-9f17-d5349730b7c9","ios":"levelo://app?vid=4d1417af-5828-4a71-9f17-d5349730b7c9"},"vehicle_type_id":"4","last_reported":1728580154,"current_range_meters":33200,"station_id":"ce4bha12rcd13ifvqef0","pricing_plan_id":"cebpf4jnsgd1na2vs0mg"},{"bike_id":"f92a9fb8-9f73-4cf9-bc9b-2bdf5b520248","system_id":"levelo_inurba_marseille","lat":43.32534,"lon":5.41449,"is_reserved":false,"is_disabled":false,"rental_uris":{"android":"levelo://app?vid=f92a9fb8-9f73-4cf9-bc9b-2bdf5b520248","ios":"levelo://app?vid=f92a9fb8-9f73-4cf9-bc9b-2bdf5b520248"},"vehicle_type_id":"4","last_reported":1728580154,"current_range_meters":38800,"station_id":"ce4bhq12rcd13ifvqhhg","pricing_plan_id":"cebpf4jnsgd1na2vs0mg"},{"bike_id":"18ef610d-ab24-4281-9df1-b1c93760f39a","system_id":"levelo_inurba_marseille","lat":43.33026,"lon":5.39028,"is_reserved":false,"is_disabled":false,"rental_uris":{"android":"levelo://app?vid=18ef610d-ab24-4281-9df1-b1c93760f39a","ios":"levelo://app?vid=18ef610d-ab24-4281-9df1-b1c93760f39a"},"vehicle_type_id":"4","last_reported":1728580154,"current_range_meters":38000,"station_id":"ce4bhr92rcd13ifvqhrg","pricing_plan_id":"cebpf4jnsgd1na2vs0mg"},{"bike_id":"d14fb6ac-cf1d-4084-9914-06c3be8e3af7","system_id":"levelo_inurba_marseille","lat":43.31114,"lon":5.37775,"is_reserved":false,"is_disabled":false,"rental_uris":{"android":"levelo://app?vid=d14fb6ac-cf1d-4084-9914-06c3be8e3af7","ios":"levelo://app?vid=d14fb6ac-cf1d-4084-9914-06c3be8e3af7"},"vehicle_type_id":"4","last_reported":1728580154,"current_range_meters":10000,"station_id":"ce4bgt92rcd13ifvqcg0","pricing_plan_id":"cebpf4jnsgd1na2vs0mg"},{"bike_id":"8c406301-ede8-41ee-9dd3-57fce2c0cb57","system_id":"levelo_inurba_marseille","lat":43.30415,"lon":5.4128,"is_reserved":false,"is_disabled":false,"rental_uris":{"android":"levelo://app?vid=8c406301-ede8-41ee-9dd3-57fce2c0cb57","ios":"levelo://app?vid=8c406301-ede8-41ee-9dd3-57fce2c0cb57"},"vehicle_type_id":"4","last_reported":1728580154,"current_range_meters":2800,"station_id":"ce4bhop2rcd13ifvqh8g","pricing_plan_id":"cebpf4jnsgd1na2vs0mg"},{"bike_id":"50aa4af7-94b4-48c9-959d-eeec3eaec001","system_id":"levelo_inurba_marseille","lat":43.2319,"lon":5.3555,"is_reserved":false,"is_disabled":false,"rental_uris":{"android":"levelo://app?vid=50aa4af7-94b4-48c9-959d-eeec3eaec001","ios":"levelo://app?vid=50aa4af7-94b4-48c9-959d-eeec3eaec001"},"vehicle_type_id":"4","last_reported":1728580154,"current_range_meters":7200,"station_id":"ce4bhu92rcd13ifvqi70","pricing_plan_id":"cebpf4jnsgd1na2vs0mg"},{"bike_id":"8c3bcaee-4f9d-45a7-a891-c1f199f8ec71","system_id":"levelo_inurba_marseille","lat":43.30259,"lon":5.40088,"is_reserved":false,"is_disabled":false,"rental_uris":{"android":"levelo://app?vid=8c3bcaee-4f9d-45a7-a891-c1f199f8ec71","ios":"levelo://app?vid=8c3bcaee-4f9d-45a7-a891-c1f199f8ec71"},"vehicle_type_id":"4","last_reported":1728580154,"current_range_meters":9600,"station_id":"ce4bgvh2rcd13ifvqcs0","pricing_plan_id":"cebpf4jnsgd1na2vs0mg"},{"bike_id":"255093a8-c98a-4773-851f-60ca2d6fabdf","system_id":"levelo_inurba_marseille","lat":43.32283,"lon":5.38265,"is_reserved":false,"is_disabled":false,"rental_uris":{"android":"levelo://app?vid=255093a8-c98a-4773-851f-60ca2d6fabdf","ios":"levelo://app?vid=255093a8-c98a-4773-851f-60ca2d6fabdf"},"vehicle_type_id":"4","last_reported":1728580154,"current_range_meters":35200,"station_id":"ce4bhr12rcd13ifvqhqg","pricing_plan_id":"cebpf4jnsgd1na2vs0mg"},{"bike_id":"445bb4a2-a915-4888-a3cf-5ab51280dceb","system_id":"levelo_inurba_marseille","lat":43.29531,"lon":5.38538,"is_reserved":false,"is_disabled":false,"rental_uris":{"android":"levelo://app?vid=445bb4a2-a915-4888-a3cf-5ab51280dceb","ios":"levelo://app?vid=445bb4a2-a915-4888-a3cf-5ab51280dceb"},"vehicle_type_id":"4","last_reported":1728580154,"current_range_meters":14000,"station_id":"ce4bgv12rcd13ifvqcp0","pricing_plan_id":"cebpf4jnsgd1na2vs0mg"},{"bike_id":"19be1911-50c5-45dc-909a-e03d5053d28d","system_id":"levelo_inurba_marseille","lat":43.28016,"lon":5.36966,"is_reserved":false,"is_disabled":false,"rental_uris":{"android":"levelo://app?vid=19be1911-50c5-45dc-909a-e03d5053d28d","ios":"levelo://app?vid=19be1911-50c5-45dc-909a-e03d5053d28d"},"vehicle_type_id":"4","last_reported":1728580154,"current_range_meters":16800,"station_id":"ce4bha12rcd13ifvqef0","pricing_plan_id":"cebpf4jnsgd1na2vs0mg"},{"bike_id":"28c913ba-8857-422b-8b6d-ea5110a695c3","system_id":"levelo_inurba_marseille","lat":43.29781,"lon":5.38115,"is_reserved":false,"is_disabled":false,"rental_uris":{"android":"levelo://app?vid=28c913ba-8857-422b-8b6d-ea5110a695c3","ios":"levelo://app?vid=28c913ba-8857-422b-8b6d-ea5110a695c3"},"vehicle_type_id":"4","last_reported":1728580154,"current_range_meters":9600,"station_id":"ce4bgip2rcd13ifvqbb0","pricing_plan_id":"cebpf4jnsgd1na2vs0mg"},{"bike_id":"f0c60a48-1740-4f09-b881-da343ced75d3","system_id":"levelo_inurba_marseille","lat":43.27939,"lon":5.41046,"is_reserved":false,"is_disabled":false,"rental_uris":{"android":"levelo://app?vid=f0c60a48-1740-4f09-b881-da343ced75d3","ios":"levelo://app?vid=f0c60a48-1740-4f09-b881-da343ced75d3"},"vehicle_type_id":"4","last_reported":1728580154,"current_range_meters":4400,"station_id":"ce4bhnp2rcd13ifvqh0g","pricing_plan_id":"cebpf4jnsgd1na2vs0mg"},{"bike_id":"ff68b789-7173-415f-860f-fb58c1b9d01d","system_id":"levelo_inurba_marseille","lat":43.22928,"lon":5.35376,"is_reserved":false,"is_disabled":false,"rental_uris":{"android":"levelo://app?vid=ff68b789-7173-415f-860f-fb58c1b9d01d","ios":"levelo://app?vid=ff68b789-7173-415f-860f-fb58c1b9d01d"},"vehicle_type_id":"4","last_reported":1728580154,"current_range_meters":36000,"station_id":"cpo3532slgdg3j2ikp40","pricing_plan_id":"cebpf4jnsgd1na2vs0mg"},{"bike_id":"8d38af59-6ea0-4306-bf3b-1097015f7b84","system_id":"levelo_inurba_marseille","lat":43.31479,"lon":5.3731,"is_reserved":false,"is_disabled":false,"rental_uris":{"android":"levelo://app?vid=8d38af59-6ea0-4306-bf3b-1097015f7b84","ios":"levelo://app?vid=8d38af59-6ea0-4306-bf3b-1097015f7b84"},"vehicle_type_id":"4","last_reported":1728580154,"current_range_meters":38800,"station_id":"ce4bgt12rcd13ifvqcd0","pricing_plan_id":"cebpf4jnsgd1na2vs0mg"},{"bike_id":"924a9ed1-ca4e-44c4-a003-5955b143b28c","system_id":"levelo_inurba_marseille","lat":43.23193,"lon":5.35543,"is_reserved":false,"is_disabled":false,"rental_uris":{"android":"levelo://app?vid=924a9ed1-ca4e-44c4-a003-5955b143b28c","ios":"levelo://app?vid=924a9ed1-ca4e-44c4-a003-5955b143b28c"},"vehicle_type_id":"4","last_reported":1728580154,"current_range_meters":9200,"station_id":"ce4bhu92rcd13ifvqi70","pricing_plan_id":"cebpf4jnsgd1na2vs0mg"},{"bike_id":"8cb421df-9f7a-438c-9230-8d4d953b4887","system_id":"levelo_inurba_marseille","lat":43.303406,"lon":5.40541,"is_reserved":false,"is_disabled":false,"rental_uris":{"android":"levelo://app?vid=8cb421df-9f7a-438c-9230-8d4d953b4887","ios":"levelo://app?vid=8cb421df-9f7a-438c-9230-8d4d953b4887"},"vehicle_type_id":"4","last_reported":1728580154,"current_range_meters":2800,"station_id":"ce4bh012rcd13ifvqd10","pricing_plan_id":"cebpf4jnsgd1na2vs0mg"},{"bike_id":"fc34a4c2-5dda-43dc-8c76-0302a62a6427","system_id":"levelo_inurba_marseille","lat":43.23191,"lon":5.35558,"is_reserved":false,"is_disabled":false,"rental_uris":{"android":"levelo://app?vid=fc34a4c2-5dda-43dc-8c76-0302a62a6427","ios":"levelo://app?vid=fc34a4c2-5dda-43dc-8c76-0302a62a6427"},"vehicle_type_id":"4","last_reported":1728580154,"current_range_meters":35600,"station_id":"ce4bhu92rcd13ifvqi70","pricing_plan_id":"cebpf4jnsgd1na2vs0mg"},{"bike_id":"b43e010f-69ea-40f6-9796-119442586a51","system_id":"levelo_inurba_marseille","lat":43.31334,"lon":5.39702,"is_reserved":false,"is_disabled":false,"rental_uris":{"android":"levelo://app?vid=b43e010f-69ea-40f6-9796-119442586a51","ios":"levelo://app?vid=b43e010f-69ea-40f6-9796-119442586a51"},"vehicle_type_id":"4","last_reported":1728580154,"current_range_meters":8800,"station_id":"ce4bgvp2rcd13ifvqcu0","pricing_plan_id":"cebpf4jnsgd1na2vs0mg"},{"bike_id":"08df44e3-3270-46c4-8381-a4fcfe9e57fa","system_id":"levelo_inurba_marseille","lat":43.28463,"lon":5.35882,"is_reserved":false,"is_disabled":false,"rental_uris":{"android":"levelo://app?vid=08df44e3-3270-46c4-8381-a4fcfe9e57fa","ios":"levelo://app?vid=08df44e3-3270-46c4-8381-a4fcfe9e57fa"},"vehicle_type_id":"4","last_reported":1728580154,"current_range_meters":4000,"station_id":"ce4bhah2rcd13ifvqei0","pricing_plan_id":"cebpf4jnsgd1na2vs0mg"},{"bike_id":"5faec50c-c0c9-4e2f-a886-fe6ece134940","system_id":"levelo_inurba_marseille","lat":43.31081,"lon":5.42434,"is_reserved":false,"is_disabled":false,"rental_uris":{"android":"levelo://app?vid=5faec50c-c0c9-4e2f-a886-fe6ece134940","ios":"levelo://app?vid=5faec50c-c0c9-4e2f-a886-fe6ece134940"},"vehicle_type_id":"4","last_reported":1728580154,"current_range_meters":23200,"station_id":"ce4bhp92rcd13ifvqhag","pricing_plan_id":"cebpf4jnsgd1na2vs0mg"},{"bike_id":"b88acc46-208f-442f-82c2-468418a3d08f","system_id":"levelo_inurba_marseille","lat":43.33714,"lon":5.39187,"is_reserved":false,"is_disabled":false,"rental_uris":{"android":"levelo://app?vid=b88acc46-208f-442f-82c2-468418a3d08f","ios":"levelo://app?vid=b88acc46-208f-442f-82c2-468418a3d08f"},"vehicle_type_id":"4","last_reported":1728580154,"current_range_meters":36800,"station_id":"ce4bhr92rcd13ifvqhsg","pricing_plan_id":"cebpf4jnsgd1na2vs0mg"},{"bike_id":"eebb49f0-4579-4d9f-8cfb-42e73af49cac","system_id":"levelo_inurba_marseille","lat":43.29891,"lon":5.43663,"is_reserved":false,"is_disabled":false,"rental_uris":{"android":"levelo://app?vid=eebb49f0-4579-4d9f-8cfb-42e73af49cac","ios":"levelo://app?vid=eebb49f0-4579-4d9f-8cfb-42e73af49cac"},"vehicle_type_id":"4","last_reported":1728580154,"current_range_meters":14000,"station_id":"ce4bhpp2rcd13ifvqhfg","pricing_plan_id":"cebpf4jnsgd1na2vs0mg"},{"bike_id":"6061b722-73a3-4f39-ad9b-cfef3a1e2840","system_id":"levelo_inurba_marseille","lat":43.26492,"lon":5.39543,"is_reserved":false,"is_disabled":false,"rental_uris":{"android":"levelo://app?vid=6061b722-73a3-4f39-ad9b-cfef3a1e2840","ios":"levelo://app?vid=6061b722-73a3-4f39-ad9b-cfef3a1e2840"},"vehicle_type_id":"4","last_reported":1728580154,"current_range_meters":4400,"station_id":"ce4bhi12rcd13ifvqfq0","pricing_plan_id":"cebpf4jnsgd1na2vs0mg"},{"bike_id":"9a3ef8f3-8740-4e39-9c24-cf98b0108ac8","system_id":"levelo_inurba_marseille","lat":43.27615,"lon":5.361059,"is_reserved":false,"is_disabled":false,"rental_uris":{"android":"levelo://app?vid=9a3ef8f3-8740-4e39-9c24-cf98b0108ac8","ios":"levelo://app?vid=9a3ef8f3-8740-4e39-9c24-cf98b0108ac8"},"vehicle_type_id":"4","last_reported":1728580154,"current_range_meters":19200,"station_id":"ce4bgj92rcd13ifvqbe0","pricing_plan_id":"cebpf4jnsgd1na2vs0mg"},{"bike_id":"ddd9093b-c665-4103-a1cf-5e89c024b161","system_id":"levelo_inurba_marseille","lat":43.30354,"lon":5.38606,"is_reserved":false,"is_disabled":false,"rental_uris":{"android":"levelo://app?vid=ddd9093b-c665-4103-a1cf-5e89c024b161","ios":"levelo://app?vid=ddd9093b-c665-4103-a1cf-5e89c024b161"},"vehicle_type_id":"4","last_reported":1728580154,"current_range_meters":12400,"station_id":"","pricing_plan_id":"cebpf4jnsgd1na2vs0mg"},{"bike_id":"2c320775-be5e-496e-a5b8-68d2e183dc03","system_id":"levelo_inurba_marseille","lat":43.26551,"lon":5.37297,"is_reserved":false,"is_disabled":false,"rental_uris":{"android":"levelo://app?vid=2c320775-be5e-496e-a5b8-68d2e183dc03","ios":"levelo://app?vid=2c320775-be5e-496e-a5b8-68d2e183dc03"},"vehicle_type_id":"4","last_reported":1728580154,"current_range_meters":24800,"station_id":"ce4bhg12rcd13ifvqf70","pricing_plan_id":"cebpf4jnsgd1na2vs0mg"},{"bike_id":"290560d9-ed61-4abc-94f7-a415aaa62a5c","system_id":"levelo_inurba_marseille","lat":43.24541,"lon":5.39528,"is_reserved":false,"is_disabled":false,"rental_uris":{"android":"levelo://app?vid=290560d9-ed61-4abc-94f7-a415aaa62a5c","ios":"levelo://app?vid=290560d9-ed61-4abc-94f7-a415aaa62a5c"},"vehicle_type_id":"4","last_reported":1728580154,"current_range_meters":22400,"station_id":"ce4bhlp2rcd13ifvqgjg","pricing_plan_id":"cebpf4jnsgd1na2vs0mg"},{"bike_id":"f90ca49f-87e5-4ffa-83bf-89fbe4726d17","system_id":"levelo_inurba_marseille","lat":43.23192,"lon":5.35553,"is_reserved":false,"is_disabled":false,"rental_uris":{"android":"levelo://app?vid=f90ca49f-87e5-4ffa-83bf-89fbe4726d17","ios":"levelo://app?vid=f90ca49f-87e5-4ffa-83bf-89fbe4726d17"},"vehicle_type_id":"4","last_reported":1728580154,"current_range_meters":34800,"station_id":"ce4bhu92rcd13ifvqi70","pricing_plan_id":"cebpf4jnsgd1na2vs0mg"},{"bike_id":"1c4760ce-01d5-46e3-b78a-e6935cf377d4","system_id":"levelo_inurba_marseille","lat":43.24389,"lon":5.37056,"is_reserved":false,"is_disabled":false,"rental_uris":{"android":"levelo://app?vid=1c4760ce-01d5-46e3-b78a-e6935cf377d4","ios":"levelo://app?vid=1c4760ce-01d5-46e3-b78a-e6935cf377d4"},"vehicle_type_id":"4","last_reported":1728580154,"current_range_meters":38800,"station_id":"ce4bhhh2rcd13ifvqfk0","pricing_plan_id":"cebpf4jnsgd1na2vs0mg"},{"bike_id":"30530f3d-eabb-44a1-b82b-6d2cf9ec1b6c","system_id":"levelo_inurba_marseille","lat":43.28074,"lon":5.39662,"is_reserved":false,"is_disabled":false,"rental_uris":{"android":"levelo://app?vid=30530f3d-eabb-44a1-b82b-6d2cf9ec1b6c","ios":"levelo://app?vid=30530f3d-eabb-44a1-b82b-6d2cf9ec1b6c"},"vehicle_type_id":"4","last_reported":1728580154,"current_range_meters":36400,"station_id":"ce4bho12rcd13ifvqh2g","pricing_plan_id":"cebpf4jnsgd1na2vs0mg"},{"bike_id":"dcad68c7-e572-459a-bb9a-9345a82ba949","system_id":"levelo_inurba_marseille","lat":43.28566,"lon":5.39495,"is_reserved":false,"is_disabled":false,"rental_uris":{"android":"levelo://app?vid=dcad68c7-e572-459a-bb9a-9345a82ba949","ios":"levelo://app?vid=dcad68c7-e572-459a-bb9a-9345a82ba949"},"vehicle_type_id":"4","last_reported":1728580154,"current_range_meters":32400,"station_id":"ce4bh292rcd13ifvqdg0","pricing_plan_id":"cebpf4jnsgd1na2vs0mg"},{"bike_id":"8dd42b0b-099e-4c6c-8f6e-53449fb5fd07","system_id":"levelo_inurba_marseille","lat":43.300293,"lon":5.397039,"is_reserved":false,"is_disabled":false,"rental_uris":{"android":"levelo://app?vid=8dd42b0b-099e-4c6c-8f6e-53449fb5fd07","ios":"levelo://app?vid=8dd42b0b-099e-4c6c-8f6e-53449fb5fd07"},"vehicle_type_id":"4","last_reported":1728580154,"current_range_meters":9600,"station_id":"ce4bhbh2rcd13ifvqepg","pricing_plan_id":"cebpf4jnsgd1na2vs0mg"},{"bike_id":"484a4c63-4ef1-4433-b27a-9a9ca5ad2f9a","system_id":"levelo_inurba_marseille","lat":43.22929,"lon":5.35377,"is_reserved":false,"is_disabled":false,"rental_uris":{"android":"levelo://app?vid=484a4c63-4ef1-4433-b27a-9a9ca5ad2f9a","ios":"levelo://app?vid=484a4c63-4ef1-4433-b27a-9a9ca5ad2f9a"},"vehicle_type_id":"4","last_reported":1728580154,"current_range_meters":21600,"station_id":"cpo3532slgdg3j2ikp40","pricing_plan_id":"cebpf4jnsgd1na2vs0mg"},{"bike_id":"4b5bcc74-124e-44b7-99d3-15db8d16b660","system_id":"levelo_inurba_marseille","lat":43.30198,"lon":5.36629,"is_reserved":false,"is_disabled":false,"rental_uris":{"android":"levelo://app?vid=4b5bcc74-124e-44b7-99d3-15db8d16b660","ios":"levelo://app?vid=4b5bcc74-124e-44b7-99d3-15db8d16b660"},"vehicle_type_id":"4","last_reported":1728580154,"current_range_meters":26800,"station_id":"ce4bgrh2rcd13ifvqc8g","pricing_plan_id":"cebpf4jnsgd1na2vs0mg"},{"bike_id":"0919807f-07b8-4cba-bcb7-100ff5c5479f","system_id":"levelo_inurba_marseille","lat":43.23054,"lon":5.35498,"is_reserved":false,"is_disabled":false,"rental_uris":{"android":"levelo://app?vid=0919807f-07b8-4cba-bcb7-100ff5c5479f","ios":"levelo://app?vid=0919807f-07b8-4cba-bcb7-100ff5c5479f"},"vehicle_type_id":"4","last_reported":1728580154,"current_range_meters":3200,"station_id":"cpo3342slgdg3j2ifvpg","pricing_plan_id":"cebpf4jnsgd1na2vs0mg"},{"bike_id":"a8f8f41f-a014-4b6a-a6b5-97b610735aef","system_id":"levelo_inurba_marseille","lat":43.31991,"lon":5.38168,"is_reserved":false,"is_disabled":false,"rental_uris":{"android":"levelo://app?vid=a8f8f41f-a014-4b6a-a6b5-97b610735aef","ios":"levelo://app?vid=a8f8f41f-a014-4b6a-a6b5-97b610735aef"},"vehicle_type_id":"4","last_reported":1728580154,"current_range_meters":18000,"station_id":"ce4bhr12rcd13ifvqhpg","pricing_plan_id":"cebpf4jnsgd1na2vs0mg"},{"bike_id":"b3e9416b-3c96-4d10-978b-bd0136109af7","system_id":"levelo_inurba_marseille","lat":43.30793,"lon":5.43536,"is_reserved":false,"is_disabled":false,"rental_uris":{"android":"levelo://app?vid=b3e9416b-3c96-4d10-978b-bd0136109af7","ios":"levelo://app?vid=b3e9416b-3c96-4d10-978b-bd0136109af7"},"vehicle_type_id":"4","last_reported":1728580154,"current_range_meters":14000,"station_id":"ce4bhph2rcd13ifvqheg","pricing_plan_id":"cebpf4jnsgd1na2vs0mg"},{"bike_id":"6621e1af-9ca0-463c-a3ad-f651030b0dd3","system_id":"levelo_inurba_marseille","lat":43.23193,"lon":5.35549,"is_reserved":false,"is_disabled":false,"rental_uris":{"android":"levelo://app?vid=6621e1af-9ca0-463c-a3ad-f651030b0dd3","ios":"levelo://app?vid=6621e1af-9ca0-463c-a3ad-f651030b0dd3"},"vehicle_type_id":"4","last_reported":1728580154,"current_range_meters":35600,"station_id":"ce4bhu92rcd13ifvqi70","pricing_plan_id":"cebpf4jnsgd1na2vs0mg"},{"bike_id":"d063aba7-60e3-408c-94df-598a1573af0f","system_id":"levelo_inurba_marseille","lat":43.28938,"lon":5.36395,"is_reserved":false,"is_disabled":false,"rental_uris":{"android":"levelo://app?vid=d063aba7-60e3-408c-94df-598a1573af0f","ios":"levelo://app?vid=d063aba7-60e3-408c-94df-598a1573af0f"},"vehicle_type_id":"4","last_reported":1728580154,"current_range_meters":6800,"station_id":"ce4bhc92rcd13ifvqetg","pricing_plan_id":"cebpf4jnsgd1na2vs0mg"},{"bike_id":"065af716-b1a7-43c7-beae-559e7e8f9d70","system_id":"levelo_inurba_marseille","lat":43.3107,"lon":5.3835,"is_reserved":false,"is_disabled":false,"rental_uris":{"android":"levelo://app?vid=065af716-b1a7-43c7-beae-559e7e8f9d70","ios":"levelo://app?vid=065af716-b1a7-43c7-beae-559e7e8f9d70"},"vehicle_type_id":"4","last_reported":1728580154,"current_range_meters":36800,"station_id":"ce4bgv92rcd13ifvqcr0","pricing_plan_id":"cebpf4jnsgd1na2vs0mg"},{"bike_id":"3372ba1c-93af-4ac9-8ffa-34868b7baae2","system_id":"levelo_inurba_marseille","lat":43.31755,"lon":5.39021,"is_reserved":false,"is_disabled":false,"rental_uris":{"android":"levelo://app?vid=3372ba1c-93af-4ac9-8ffa-34868b7baae2","ios":"levelo://app?vid=3372ba1c-93af-4ac9-8ffa-34868b7baae2"},"vehicle_type_id":"4","last_reported":1728580154,"current_range_meters":16800,"station_id":"ce4bhqp2rcd13ifvqhng","pricing_plan_id":"cebpf4jnsgd1na2vs0mg"},{"bike_id":"d536ef4b-b253-4bee-9285-eb782f8f6cab","system_id":"levelo_inurba_marseille","lat":43.32589,"lon":5.40558,"is_reserved":false,"is_disabled":false,"rental_uris":{"android":"levelo://app?vid=d536ef4b-b253-4bee-9285-eb782f8f6cab","ios":"levelo://app?vid=d536ef4b-b253-4bee-9285-eb782f8f6cab"},"vehicle_type_id":"4","last_reported":1728580154,"current_range_meters":30400,"station_id":"","pricing_plan_id":"cebpf4jnsgd1na2vs0mg"},{"bike_id":"b7cd8e8a-36be-4cb4-9371-5d63f7900b84","system_id":"levelo_inurba_marseille","lat":43.32289,"lon":5.38273,"is_reserved":false,"is_disabled":false,"rental_uris":{"android":"levelo://app?vid=b7cd8e8a-36be-4cb4-9371-5d63f7900b84","ios":"levelo://app?vid=b7cd8e8a-36be-4cb4-9371-5d63f7900b84"},"vehicle_type_id":"4","last_reported":1728580154,"current_range_meters":23200,"station_id":"ce4bhr12rcd13ifvqhqg","pricing_plan_id":"cebpf4jnsgd1na2vs0mg"},{"bike_id":"2065ff1f-e764-4024-8361-5110ef170818","system_id":"levelo_inurba_marseille","lat":43.27566,"lon":5.38423,"is_reserved":false,"is_disabled":false,"rental_uris":{"android":"levelo://app?vid=2065ff1f-e764-4024-8361-5110ef170818","ios":"levelo://app?vid=2065ff1f-e764-4024-8361-5110ef170818"},"vehicle_type_id":"4","last_reported":1728580154,"current_range_meters":23200,"station_id":"ce4bhh92rcd13ifvqfi0","pricing_plan_id":"cebpf4jnsgd1na2vs0mg"},{"bike_id":"49eca3fe-7f39-4315-af63-a0e136592e9d","system_id":"levelo_inurba_marseille","lat":43.32365,"lon":5.38881,"is_reserved":false,"is_disabled":false,"rental_uris":{"android":"levelo://app?vid=49eca3fe-7f39-4315-af63-a0e136592e9d","ios":"levelo://app?vid=49eca3fe-7f39-4315-af63-a0e136592e9d"},"vehicle_type_id":"4","last_reported":1728580154,"current_range_meters":2000,"station_id":"ce4bhqp2rcd13ifvqhog","pricing_plan_id":"cebpf4jnsgd1na2vs0mg"},{"bike_id":"2236c04d-64e2-4ad7-be8d-09422eb42704","system_id":"levelo_inurba_marseille","lat":43.25572,"lon":5.38241,"is_reserved":false,"is_disabled":false,"rental_uris":{"android":"levelo://app?vid=2236c04d-64e2-4ad7-be8d-09422eb42704","ios":"levelo://app?vid=2236c04d-64e2-4ad7-be8d-09422eb42704"},"vehicle_type_id":"4","last_reported":1728580154,"current_range_meters":3600,"station_id":"ce4bhih2rcd13ifvqfs0","pricing_plan_id":"cebpf4jnsgd1na2vs0mg"},{"bike_id":"a5ad74cb-eee9-4310-bbdc-afedc93b2bd5","system_id":"levelo_inurba_marseille","lat":43.23961,"lon":5.36627,"is_reserved":false,"is_disabled":false,"rental_uris":{"android":"levelo://app?vid=a5ad74cb-eee9-4310-bbdc-afedc93b2bd5","ios":"levelo://app?vid=a5ad74cb-eee9-4310-bbdc-afedc93b2bd5"},"vehicle_type_id":"4","last_reported":1728580154,"current_range_meters":35600,"station_id":"ce4bhi12rcd13ifvqfp0","pricing_plan_id":"cebpf4jnsgd1na2vs0mg"},{"bike_id":"dc8923d7-b4b8-49f9-b694-41046828bb73","system_id":"levelo_inurba_marseille","lat":43.29227,"lon":5.3607,"is_reserved":false,"is_disabled":false,"rental_uris":{"android":"levelo://app?vid=dc8923d7-b4b8-49f9-b694-41046828bb73","ios":"levelo://app?vid=dc8923d7-b4b8-49f9-b694-41046828bb73"},"vehicle_type_id":"4","last_reported":1728580154,"current_range_meters":33600,"station_id":"ce4bhbh2rcd13ifvqeqg","pricing_plan_id":"cebpf4jnsgd1na2vs0mg"},{"bike_id":"cb52a2de-d3fc-4174-aff0-87224d9cb3b5","system_id":"levelo_inurba_marseille","lat":43.31218,"lon":5.36862,"is_reserved":false,"is_disabled":false,"rental_uris":{"android":"levelo://app?vid=cb52a2de-d3fc-4174-aff0-87224d9cb3b5","ios":"levelo://app?vid=cb52a2de-d3fc-4174-aff0-87224d9cb3b5"},"vehicle_type_id":"4","last_reported":1728580154,"current_range_meters":24000,"station_id":"ce4bgl92rcd13ifvqbq0","pricing_plan_id":"cebpf4jnsgd1na2vs0mg"},{"bike_id":"1d0c1677-0550-4316-b757-dab8c90e2832","system_id":"levelo_inurba_marseille","lat":43.31707,"lon":5.37746,"is_reserved":false,"is_disabled":false,"rental_uris":{"android":"levelo://app?vid=1d0c1677-0550-4316-b757-dab8c90e2832","ios":"levelo://app?vid=1d0c1677-0550-4316-b757-dab8c90e2832"},"vehicle_type_id":"4","last_reported":1728580154,"current_range_meters":24400,"station_id":"ce4bgth2rcd13ifvqch0","pricing_plan_id":"cebpf4jnsgd1na2vs0mg"},{"bike_id":"91e3be0f-e79d-4e2e-89ba-4fd94d89b75d","system_id":"levelo_inurba_marseille","lat":43.27178,"lon":5.41003,"is_reserved":false,"is_disabled":false,"rental_uris":{"android":"levelo://app?vid=91e3be0f-e79d-4e2e-89ba-4fd94d89b75d","ios":"levelo://app?vid=91e3be0f-e79d-4e2e-89ba-4fd94d89b75d"},"vehicle_type_id":"4","last_reported":1728580154,"current_range_meters":16000,"station_id":"ce4bhl12rcd13ifvqgf0","pricing_plan_id":"cebpf4jnsgd1na2vs0mg"},{"bike_id":"8665fe75-7b1c-4b25-955b-a02aa16eff4b","system_id":"levelo_inurba_marseille","lat":43.28791,"lon":5.3636,"is_reserved":false,"is_disabled":false,"rental_uris":{"android":"levelo://app?vid=8665fe75-7b1c-4b25-955b-a02aa16eff4b","ios":"levelo://app?vid=8665fe75-7b1c-4b25-955b-a02aa16eff4b"},"vehicle_type_id":"4","last_reported":1728580154,"current_range_meters":16400,"station_id":"","pricing_plan_id":"cebpf4jnsgd1na2vs0mg"},{"bike_id":"4587c7d1-e216-4690-8215-080af0170237","system_id":"levelo_inurba_marseille","lat":43.31478,"lon":5.37309,"is_reserved":false,"is_disabled":false,"rental_uris":{"android":"levelo://app?vid=4587c7d1-e216-4690-8215-080af0170237","ios":"levelo://app?vid=4587c7d1-e216-4690-8215-080af0170237"},"vehicle_type_id":"4","last_reported":1728580154,"current_range_meters":38800,"station_id":"ce4bgt12rcd13ifvqcd0","pricing_plan_id":"cebpf4jnsgd1na2vs0mg"},{"bike_id":"37f3f6b6-21b0-4ec8-93c1-6870b7fbef6b","system_id":"levelo_inurba_marseille","lat":43.28615,"lon":5.35108,"is_reserved":false,"is_disabled":false,"rental_uris":{"android":"levelo://app?vid=37f3f6b6-21b0-4ec8-93c1-6870b7fbef6b","ios":"levelo://app?vid=37f3f6b6-21b0-4ec8-93c1-6870b7fbef6b"},"vehicle_type_id":"4","last_reported":1728580154,"current_range_meters":13600,"station_id":"ce4bhch2rcd13ifvqeug","pricing_plan_id":"cebpf4jnsgd1na2vs0mg"},{"bike_id":"5e74aa9a-5824-4573-98c2-a304dd58eb4f","system_id":"levelo_inurba_marseille","lat":43.2925,"lon":5.40914,"is_reserved":false,"is_disabled":false,"rental_uris":{"android":"levelo://app?vid=5e74aa9a-5824-4573-98c2-a304dd58eb4f","ios":"levelo://app?vid=5e74aa9a-5824-4573-98c2-a304dd58eb4f"},"vehicle_type_id":"4","last_reported":1728580154,"current_range_meters":19600,"station_id":"ce4bh192rcd13ifvqdc0","pricing_plan_id":"cebpf4jnsgd1na2vs0mg"},{"bike_id":"74b51eaa-19c3-42d8-b347-cdd0662439e4","system_id":"levelo_inurba_marseille","lat":43.31326,"lon":5.39702,"is_reserved":false,"is_disabled":false,"rental_uris":{"android":"levelo://app?vid=74b51eaa-19c3-42d8-b347-cdd0662439e4","ios":"levelo://app?vid=74b51eaa-19c3-42d8-b347-cdd0662439e4"},"vehicle_type_id":"4","last_reported":1728580154,"current_range_meters":38800,"station_id":"ce4bgvp2rcd13ifvqcu0","pricing_plan_id":"cebpf4jnsgd1na2vs0mg"},{"bike_id":"07361f92-e52a-45a4-8dfd-1a945d3a83f4","system_id":"levelo_inurba_marseille","lat":43.29265,"lon":5.38433,"is_reserved":false,"is_disabled":false,"rental_uris":{"android":"levelo://app?vid=07361f92-e52a-45a4-8dfd-1a945d3a83f4","ios":"levelo://app?vid=07361f92-e52a-45a4-8dfd-1a945d3a83f4"},"vehicle_type_id":"4","last_reported":1728580154,"current_range_meters":36400,"station_id":"ce4bh692rcd13ifvqea0","pricing_plan_id":"cebpf4jnsgd1na2vs0mg"},{"bike_id":"373a48bc-cfe9-4d7d-894e-d667be905335","system_id":"levelo_inurba_marseille","lat":43.3171,"lon":5.43706,"is_reserved":false,"is_disabled":false,"rental_uris":{"android":"levelo://app?vid=373a48bc-cfe9-4d7d-894e-d667be905335","ios":"levelo://app?vid=373a48bc-cfe9-4d7d-894e-d667be905335"},"vehicle_type_id":"4","last_reported":1728580154,"current_range_meters":24400,"station_id":"ce4bhp92rcd13ifvqhcg","pricing_plan_id":"cebpf4jnsgd1na2vs0mg"},{"bike_id":"5188f748-f933-433c-8928-35f64a2ccf04","system_id":"levelo_inurba_marseille","lat":43.29537,"lon":5.38546,"is_reserved":false,"is_disabled":false,"rental_uris":{"android":"levelo://app?vid=5188f748-f933-433c-8928-35f64a2ccf04","ios":"levelo://app?vid=5188f748-f933-433c-8928-35f64a2ccf04"},"vehicle_type_id":"4","last_reported":1728580154,"current_range_meters":14000,"station_id":"ce4bgih2rcd13ifvqba0","pricing_plan_id":"cebpf4jnsgd1na2vs0mg"},{"bike_id":"d9d6a4f2-2d73-46c9-9d83-edd31f037d21","system_id":"levelo_inurba_marseille","lat":43.270508,"lon":5.402601,"is_reserved":false,"is_disabled":false,"rental_uris":{"android":"levelo://app?vid=d9d6a4f2-2d73-46c9-9d83-edd31f037d21","ios":"levelo://app?vid=d9d6a4f2-2d73-46c9-9d83-edd31f037d21"},"vehicle_type_id":"4","last_reported":1728580154,"current_range_meters":11200,"station_id":"ce4bhk92rcd13ifvqgc0","pricing_plan_id":"cebpf4jnsgd1na2vs0mg"},{"bike_id":"0e4b38bf-cb4c-4f26-8f59-f43c9a8e7943","system_id":"levelo_inurba_marseille","lat":43.30681,"lon":5.39297,"is_reserved":false,"is_disabled":false,"rental_uris":{"android":"levelo://app?vid=0e4b38bf-cb4c-4f26-8f59-f43c9a8e7943","ios":"levelo://app?vid=0e4b38bf-cb4c-4f26-8f59-f43c9a8e7943"},"vehicle_type_id":"4","last_reported":1728580154,"current_range_meters":5600,"station_id":"ce4bgv12rcd13ifvqcp0","pricing_plan_id":"cebpf4jnsgd1na2vs0mg"},{"bike_id":"094f7408-a3a3-426f-a9c6-bc5fb3000c21","system_id":"levelo_inurba_marseille","lat":43.2953,"lon":5.38534,"is_reserved":false,"is_disabled":false,"rental_uris":{"android":"levelo://app?vid=094f7408-a3a3-426f-a9c6-bc5fb3000c21","ios":"levelo://app?vid=094f7408-a3a3-426f-a9c6-bc5fb3000c21"},"vehicle_type_id":"4","last_reported":1728580154,"current_range_meters":30800,"station_id":"ce4bgih2rcd13ifvqba0","pricing_plan_id":"cebpf4jnsgd1na2vs0mg"},{"bike_id":"aa75c41c-1391-4d5a-b0ad-fb29c317877d","system_id":"levelo_inurba_marseille","lat":43.2307,"lon":5.35496,"is_reserved":false,"is_disabled":false,"rental_uris":{"android":"levelo://app?vid=aa75c41c-1391-4d5a-b0ad-fb29c317877d","ios":"levelo://app?vid=aa75c41c-1391-4d5a-b0ad-fb29c317877d"},"vehicle_type_id":"4","last_reported":1728580154,"current_range_meters":10800,"station_id":"cpo3342slgdg3j2ifvpg","pricing_plan_id":"cebpf4jnsgd1na2vs0mg"},{"bike_id":"076f7dca-d021-4410-b5f0-c975911492db","system_id":"levelo_inurba_marseille","lat":43.33023,"lon":5.39039,"is_reserved":false,"is_disabled":false,"rental_uris":{"android":"levelo://app?vid=076f7dca-d021-4410-b5f0-c975911492db","ios":"levelo://app?vid=076f7dca-d021-4410-b5f0-c975911492db"},"vehicle_type_id":"4","last_reported":1728580154,"current_range_meters":22400,"station_id":"ce4bhr92rcd13ifvqhrg","pricing_plan_id":"cebpf4jnsgd1na2vs0mg"},{"bike_id":"b1009450-6152-462c-a724-90df51eeb6db","system_id":"levelo_inurba_marseille","lat":43.32382,"lon":5.38917,"is_reserved":false,"is_disabled":false,"rental_uris":{"android":"levelo://app?vid=b1009450-6152-462c-a724-90df51eeb6db","ios":"levelo://app?vid=b1009450-6152-462c-a724-90df51eeb6db"},"vehicle_type_id":"4","last_reported":1728580154,"current_range_meters":9200,"station_id":"ce4bhqp2rcd13ifvqhog","pricing_plan_id":"cebpf4jnsgd1na2vs0mg"},{"bike_id":"5862babe-5ddc-47e4-b7e2-2193f44a1ee4","system_id":"levelo_inurba_marseille","lat":43.280304,"lon":5.369494,"is_reserved":false,"is_disabled":false,"rental_uris":{"android":"levelo://app?vid=5862babe-5ddc-47e4-b7e2-2193f44a1ee4","ios":"levelo://app?vid=5862babe-5ddc-47e4-b7e2-2193f44a1ee4"},"vehicle_type_id":"4","last_reported":1728580154,"current_range_meters":34800,"station_id":"ce4bha12rcd13ifvqef0","pricing_plan_id":"cebpf4jnsgd1na2vs0mg"},{"bike_id":"97405ebf-db3c-4b9d-a050-ac48308262b6","system_id":"levelo_inurba_marseille","lat":43.27894,"lon":5.3799,"is_reserved":false,"is_disabled":false,"rental_uris":{"android":"levelo://app?vid=97405ebf-db3c-4b9d-a050-ac48308262b6","ios":"levelo://app?vid=97405ebf-db3c-4b9d-a050-ac48308262b6"},"vehicle_type_id":"4","last_reported":1728580154,"current_range_meters":38000,"station_id":"ce4bhf92rcd13ifvqf50","pricing_plan_id":"cebpf4jnsgd1na2vs0mg"},{"bike_id":"d6bdaab0-ea7b-4ec0-bd37-9088b0fac133","system_id":"levelo_inurba_marseille","lat":43.28997,"lon":5.42835,"is_reserved":false,"is_disabled":false,"rental_uris":{"android":"levelo://app?vid=d6bdaab0-ea7b-4ec0-bd37-9088b0fac133","ios":"levelo://app?vid=d6bdaab0-ea7b-4ec0-bd37-9088b0fac133"},"vehicle_type_id":"4","last_reported":1728580154,"current_range_meters":25600,"station_id":"","pricing_plan_id":"cebpf4jnsgd1na2vs0mg"},{"bike_id":"f6d749d9-98a7-46cb-a16f-9a9bda5178bb","system_id":"levelo_inurba_marseille","lat":43.26029,"lon":5.37548,"is_reserved":false,"is_disabled":false,"rental_uris":{"android":"levelo://app?vid=f6d749d9-98a7-46cb-a16f-9a9bda5178bb","ios":"levelo://app?vid=f6d749d9-98a7-46cb-a16f-9a9bda5178bb"},"vehicle_type_id":"4","last_reported":1728580154,"current_range_meters":11600,"station_id":"ce4bhgh2rcd13ifvqfa0","pricing_plan_id":"cebpf4jnsgd1na2vs0mg"},{"bike_id":"7e9118c7-ac91-4dfd-a123-fd0171c1170c","system_id":"levelo_inurba_marseille","lat":43.32526,"lon":5.36871,"is_reserved":false,"is_disabled":false,"rental_uris":{"android":"levelo://app?vid=7e9118c7-ac91-4dfd-a123-fd0171c1170c","ios":"levelo://app?vid=7e9118c7-ac91-4dfd-a123-fd0171c1170c"},"vehicle_type_id":"4","last_reported":1728580154,"current_range_meters":8000,"station_id":"","pricing_plan_id":"cebpf4jnsgd1na2vs0mg"},{"bike_id":"ee5019e6-bd03-4056-b6a6-8ac35934abf9","system_id":"levelo_inurba_marseille","lat":43.28717,"lon":5.37943,"is_reserved":false,"is_disabled":false,"rental_uris":{"android":"levelo://app?vid=ee5019e6-bd03-4056-b6a6-8ac35934abf9","ios":"levelo://app?vid=ee5019e6-bd03-4056-b6a6-8ac35934abf9"},"vehicle_type_id":"4","last_reported":1728580154,"current_range_meters":14000,"station_id":"ce4bh9p2rcd13ifvqec0","pricing_plan_id":"cebpf4jnsgd1na2vs0mg"},{"bike_id":"e4d69715-31b8-43a3-9208-69b751e15fcd","system_id":"levelo_inurba_marseille","lat":43.32365,"lon":5.3889,"is_reserved":false,"is_disabled":false,"rental_uris":{"android":"levelo://app?vid=e4d69715-31b8-43a3-9208-69b751e15fcd","ios":"levelo://app?vid=e4d69715-31b8-43a3-9208-69b751e15fcd"},"vehicle_type_id":"4","last_reported":1728580154,"current_range_meters":32400,"station_id":"ce4bhqp2rcd13ifvqhog","pricing_plan_id":"cebpf4jnsgd1na2vs0mg"},{"bike_id":"5211300e-8cc7-4ce3-90b9-f9f7a4a80867","system_id":"levelo_inurba_marseille","lat":43.2396,"lon":5.36637,"is_reserved":false,"is_disabled":false,"rental_uris":{"android":"levelo://app?vid=5211300e-8cc7-4ce3-90b9-f9f7a4a80867","ios":"levelo://app?vid=5211300e-8cc7-4ce3-90b9-f9f7a4a80867"},"vehicle_type_id":"4","last_reported":1728580154,"current_range_meters":19200,"station_id":"ce4bhi12rcd13ifvqfp0","pricing_plan_id":"cebpf4jnsgd1na2vs0mg"},{"bike_id":"06d2fa3d-2a55-4dd7-90f7-c958ae9dafa1","system_id":"levelo_inurba_marseille","lat":43.30098,"lon":5.39087,"is_reserved":false,"is_disabled":false,"rental_uris":{"android":"levelo://app?vid=06d2fa3d-2a55-4dd7-90f7-c958ae9dafa1","ios":"levelo://app?vid=06d2fa3d-2a55-4dd7-90f7-c958ae9dafa1"},"vehicle_type_id":"4","last_reported":1728580154,"current_range_meters":19600,"station_id":"ce4bh192rcd13ifvqdb0","pricing_plan_id":"cebpf4jnsgd1na2vs0mg"},{"bike_id":"6977ce2b-3748-4854-b374-ea377c8f8a37","system_id":"levelo_inurba_marseille","lat":43.324846,"lon":5.36559,"is_reserved":false,"is_disabled":false,"rental_uris":{"android":"levelo://app?vid=6977ce2b-3748-4854-b374-ea377c8f8a37","ios":"levelo://app?vid=6977ce2b-3748-4854-b374-ea377c8f8a37"},"vehicle_type_id":"4","last_reported":1728580154,"current_range_meters":7200,"station_id":"ce4bhs12rcd13ifvqhvg","pricing_plan_id":"cebpf4jnsgd1na2vs0mg"},{"bike_id":"b3c5eab7-f50b-4fb8-ba0f-81f34bbfb9a3","system_id":"levelo_inurba_marseille","lat":43.29057,"lon":5.35583,"is_reserved":false,"is_disabled":false,"rental_uris":{"android":"levelo://app?vid=b3c5eab7-f50b-4fb8-ba0f-81f34bbfb9a3","ios":"levelo://app?vid=b3c5eab7-f50b-4fb8-ba0f-81f34bbfb9a3"},"vehicle_type_id":"4","last_reported":1728580154,"current_range_meters":26000,"station_id":"","pricing_plan_id":"cebpf4jnsgd1na2vs0mg"},{"bike_id":"3ae18fed-f345-4ef0-8ed2-3540202f3e73","system_id":"levelo_inurba_marseille","lat":43.33743,"lon":5.37451,"is_reserved":false,"is_disabled":false,"rental_uris":{"android":"levelo://app?vid=3ae18fed-f345-4ef0-8ed2-3540202f3e73","ios":"levelo://app?vid=3ae18fed-f345-4ef0-8ed2-3540202f3e73"},"vehicle_type_id":"4","last_reported":1728580154,"current_range_meters":32000,"station_id":"","pricing_plan_id":"cebpf4jnsgd1na2vs0mg"},{"bike_id":"e0f6e71a-7ca2-4194-8245-64d6c6e6aad8","system_id":"levelo_inurba_marseille","lat":43.30796,"lon":5.43529,"is_reserved":false,"is_disabled":false,"rental_uris":{"android":"levelo://app?vid=e0f6e71a-7ca2-4194-8245-64d6c6e6aad8","ios":"levelo://app?vid=e0f6e71a-7ca2-4194-8245-64d6c6e6aad8"},"vehicle_type_id":"4","last_reported":1728580154,"current_range_meters":33200,"station_id":"ce4bhph2rcd13ifvqheg","pricing_plan_id":"cebpf4jnsgd1na2vs0mg"},{"bike_id":"25bceaf4-d997-4124-b35f-044782445973","system_id":"levelo_inurba_marseille","lat":43.31709,"lon":5.4371,"is_reserved":false,"is_disabled":false,"rental_uris":{"android":"levelo://app?vid=25bceaf4-d997-4124-b35f-044782445973","ios":"levelo://app?vid=25bceaf4-d997-4124-b35f-044782445973"},"vehicle_type_id":"4","last_reported":1728580154,"current_range_meters":24400,"station_id":"ce4bhp92rcd13ifvqhcg","pricing_plan_id":"cebpf4jnsgd1na2vs0mg"},{"bike_id":"dce900be-afef-4c8f-8290-00bcf98512bb","system_id":"levelo_inurba_marseille","lat":43.292847,"lon":5.401355,"is_reserved":false,"is_disabled":false,"rental_uris":{"android":"levelo://app?vid=dce900be-afef-4c8f-8290-00bcf98512bb","ios":"levelo://app?vid=dce900be-afef-4c8f-8290-00bcf98512bb"},"vehicle_type_id":"4","last_reported":1728580154,"current_range_meters":23200,"station_id":"ce4bhph2rcd13ifvqhdg","pricing_plan_id":"cebpf4jnsgd1na2vs0mg"},{"bike_id":"72eecb27-b432-4793-adf6-633ad57fe1c1","system_id":"levelo_inurba_marseille","lat":43.31872,"lon":5.40763,"is_reserved":false,"is_disabled":false,"rental_uris":{"android":"levelo://app?vid=72eecb27-b432-4793-adf6-633ad57fe1c1","ios":"levelo://app?vid=72eecb27-b432-4793-adf6-633ad57fe1c1"},"vehicle_type_id":"4","last_reported":1728580154,"current_range_meters":38000,"station_id":"ce4bhq12rcd13ifvqhig","pricing_plan_id":"cebpf4jnsgd1na2vs0mg"},{"bike_id":"d3515cc2-9931-4d17-a2b9-231072d9e4d2","system_id":"levelo_inurba_marseille","lat":43.23193,"lon":5.35557,"is_reserved":false,"is_disabled":false,"rental_uris":{"android":"levelo://app?vid=d3515cc2-9931-4d17-a2b9-231072d9e4d2","ios":"levelo://app?vid=d3515cc2-9931-4d17-a2b9-231072d9e4d2"},"vehicle_type_id":"4","last_reported":1728580154,"current_range_meters":25200,"station_id":"ce4bhu92rcd13ifvqi70","pricing_plan_id":"cebpf4jnsgd1na2vs0mg"},{"bike_id":"3eb19325-22a4-425e-a8ef-87280c633e2f","system_id":"levelo_inurba_marseille","lat":43.33018,"lon":5.3904,"is_reserved":false,"is_disabled":false,"rental_uris":{"android":"levelo://app?vid=3eb19325-22a4-425e-a8ef-87280c633e2f","ios":"levelo://app?vid=3eb19325-22a4-425e-a8ef-87280c633e2f"},"vehicle_type_id":"4","last_reported":1728580154,"current_range_meters":8000,"station_id":"ce4bhr92rcd13ifvqhrg","pricing_plan_id":"cebpf4jnsgd1na2vs0mg"},{"bike_id":"a0fb88cf-e15f-423a-a54b-b8a7e300f138","system_id":"levelo_inurba_marseille","lat":43.31075,"lon":5.38352,"is_reserved":false,"is_disabled":false,"rental_uris":{"android":"levelo://app?vid=a0fb88cf-e15f-423a-a54b-b8a7e300f138","ios":"levelo://app?vid=a0fb88cf-e15f-423a-a54b-b8a7e300f138"},"vehicle_type_id":"4","last_reported":1728580154,"current_range_meters":12400,"station_id":"ce4bgv92rcd13ifvqcr0","pricing_plan_id":"cebpf4jnsgd1na2vs0mg"},{"bike_id":"e58b0c12-ff01-4486-a438-3d5f8a1110ce","system_id":"levelo_inurba_marseille","lat":43.29266,"lon":5.3843,"is_reserved":false,"is_disabled":false,"rental_uris":{"android":"levelo://app?vid=e58b0c12-ff01-4486-a438-3d5f8a1110ce","ios":"levelo://app?vid=e58b0c12-ff01-4486-a438-3d5f8a1110ce"},"vehicle_type_id":"4","last_reported":1728580154,"current_range_meters":12000,"station_id":"ce4bh692rcd13ifvqea0","pricing_plan_id":"cebpf4jnsgd1na2vs0mg"},{"bike_id":"0838f665-e326-48b3-9da7-6eca95c671ef","system_id":"levelo_inurba_marseille","lat":43.29275,"lon":5.36843,"is_reserved":false,"is_disabled":false,"rental_uris":{"android":"levelo://app?vid=0838f665-e326-48b3-9da7-6eca95c671ef","ios":"levelo://app?vid=0838f665-e326-48b3-9da7-6eca95c671ef"},"vehicle_type_id":"4","last_reported":1728580154,"current_range_meters":11600,"station_id":"ce4bhbp2rcd13ifvqesg","pricing_plan_id":"cebpf4jnsgd1na2vs0mg"},{"bike_id":"b3530da8-faa4-437c-93ad-457b013e3eec","system_id":"levelo_inurba_marseille","lat":43.26553,"lon":5.39034,"is_reserved":false,"is_disabled":false,"rental_uris":{"android":"levelo://app?vid=b3530da8-faa4-437c-93ad-457b013e3eec","ios":"levelo://app?vid=b3530da8-faa4-437c-93ad-457b013e3eec"},"vehicle_type_id":"4","last_reported":1728580154,"current_range_meters":2000,"station_id":"ce4bhe12rcd13ifvqf30","pricing_plan_id":"cebpf4jnsgd1na2vs0mg"},{"bike_id":"b5760089-83eb-4448-9a6f-091a22054789","system_id":"levelo_inurba_marseille","lat":43.27374,"lon":5.36261,"is_reserved":false,"is_disabled":false,"rental_uris":{"android":"levelo://app?vid=b5760089-83eb-4448-9a6f-091a22054789","ios":"levelo://app?vid=b5760089-83eb-4448-9a6f-091a22054789"},"vehicle_type_id":"4","last_reported":1728580154,"current_range_meters":18800,"station_id":"ce4bhbh2rcd13ifvqeo0","pricing_plan_id":"cebpf4jnsgd1na2vs0mg"},{"bike_id":"73b6fcb8-2729-4ba7-a08d-40afd48a7bc0","system_id":"levelo_inurba_marseille","lat":43.28083,"lon":5.38698,"is_reserved":false,"is_disabled":false,"rental_uris":{"android":"levelo://app?vid=73b6fcb8-2729-4ba7-a08d-40afd48a7bc0","ios":"levelo://app?vid=73b6fcb8-2729-4ba7-a08d-40afd48a7bc0"},"vehicle_type_id":"4","last_reported":1728580154,"current_range_meters":24400,"station_id":"ce4bgi12rcd13ifvqb70","pricing_plan_id":"cebpf4jnsgd1na2vs0mg"},{"bike_id":"d033b6fd-10bd-4117-9db6-be416162cac5","system_id":"levelo_inurba_marseille","lat":43.23963,"lon":5.36642,"is_reserved":false,"is_disabled":false,"rental_uris":{"android":"levelo://app?vid=d033b6fd-10bd-4117-9db6-be416162cac5","ios":"levelo://app?vid=d033b6fd-10bd-4117-9db6-be416162cac5"},"vehicle_type_id":"4","last_reported":1728580154,"current_range_meters":38800,"station_id":"ce4bhi12rcd13ifvqfp0","pricing_plan_id":"cebpf4jnsgd1na2vs0mg"},{"bike_id":"e5a46af2-42d8-4adc-a981-b8c84a6a72b4","system_id":"levelo_inurba_marseille","lat":43.27921,"lon":5.39577,"is_reserved":false,"is_disabled":false,"rental_uris":{"android":"levelo://app?vid=e5a46af2-42d8-4adc-a981-b8c84a6a72b4","ios":"levelo://app?vid=e5a46af2-42d8-4adc-a981-b8c84a6a72b4"},"vehicle_type_id":"4","last_reported":1728580154,"current_range_meters":22000,"station_id":"ce4bhf92rcd13ifvqf40","pricing_plan_id":"cebpf4jnsgd1na2vs0mg"},{"bike_id":"be8377c0-755f-46a1-bb40-4b1e73091216","system_id":"levelo_inurba_marseille","lat":43.28516,"lon":5.39594,"is_reserved":false,"is_disabled":false,"rental_uris":{"android":"levelo://app?vid=be8377c0-755f-46a1-bb40-4b1e73091216","ios":"levelo://app?vid=be8377c0-755f-46a1-bb40-4b1e73091216"},"vehicle_type_id":"4","last_reported":1728580154,"current_range_meters":14000,"station_id":"ce4bh292rcd13ifvqdg0","pricing_plan_id":"cebpf4jnsgd1na2vs0mg"},{"bike_id":"79705559-d0ef-4f22-a273-d9ab0aad9c4f","system_id":"levelo_inurba_marseille","lat":43.31751,"lon":5.3903,"is_reserved":false,"is_disabled":false,"rental_uris":{"android":"levelo://app?vid=79705559-d0ef-4f22-a273-d9ab0aad9c4f","ios":"levelo://app?vid=79705559-d0ef-4f22-a273-d9ab0aad9c4f"},"vehicle_type_id":"4","last_reported":1728580154,"current_range_meters":10000,"station_id":"ce4bhqp2rcd13ifvqhng","pricing_plan_id":"cebpf4jnsgd1na2vs0mg"},{"bike_id":"4a3be654-8ab7-4157-aed4-8afa1d8571b5","system_id":"levelo_inurba_marseille","lat":43.32338,"lon":5.40625,"is_reserved":false,"is_disabled":false,"rental_uris":{"android":"levelo://app?vid=4a3be654-8ab7-4157-aed4-8afa1d8571b5","ios":"levelo://app?vid=4a3be654-8ab7-4157-aed4-8afa1d8571b5"},"vehicle_type_id":"4","last_reported":1728580154,"current_range_meters":22800,"station_id":"ce4bhq92rcd13ifvqhjg","pricing_plan_id":"cebpf4jnsgd1na2vs0mg"},{"bike_id":"2be8f0e1-8181-45c3-a6af-6b82326e83a8","system_id":"levelo_inurba_marseille","lat":43.295258,"lon":5.385375,"is_reserved":false,"is_disabled":false,"rental_uris":{"android":"levelo://app?vid=2be8f0e1-8181-45c3-a6af-6b82326e83a8","ios":"levelo://app?vid=2be8f0e1-8181-45c3-a6af-6b82326e83a8"},"vehicle_type_id":"4","last_reported":1728580154,"current_range_meters":38800,"station_id":"ce4bgih2rcd13ifvqba0","pricing_plan_id":"cebpf4jnsgd1na2vs0mg"},{"bike_id":"90566049-4d52-436b-958a-c32a9644687e","system_id":"levelo_inurba_marseille","lat":43.33025,"lon":5.39035,"is_reserved":false,"is_disabled":false,"rental_uris":{"android":"levelo://app?vid=90566049-4d52-436b-958a-c32a9644687e","ios":"levelo://app?vid=90566049-4d52-436b-958a-c32a9644687e"},"vehicle_type_id":"4","last_reported":1728580154,"current_range_meters":31200,"station_id":"ce4bhr92rcd13ifvqhrg","pricing_plan_id":"cebpf4jnsgd1na2vs0mg"},{"bike_id":"daa275ea-ac44-47b4-ac61-333e5afbc9ef","system_id":"levelo_inurba_marseille","lat":43.31716,"lon":5.42405,"is_reserved":false,"is_disabled":false,"rental_uris":{"android":"levelo://app?vid=daa275ea-ac44-47b4-ac61-333e5afbc9ef","ios":"levelo://app?vid=daa275ea-ac44-47b4-ac61-333e5afbc9ef"},"vehicle_type_id":"4","last_reported":1728580154,"current_range_meters":34800,"station_id":"ce4bhp92rcd13ifvqhbg","pricing_plan_id":"cebpf4jnsgd1na2vs0mg"},{"bike_id":"0aba2484-e5b6-4dff-a1ea-38998fd41df8","system_id":"levelo_inurba_marseille","lat":43.26678,"lon":5.38268,"is_reserved":false,"is_disabled":false,"rental_uris":{"android":"levelo://app?vid=0aba2484-e5b6-4dff-a1ea-38998fd41df8","ios":"levelo://app?vid=0aba2484-e5b6-4dff-a1ea-38998fd41df8"},"vehicle_type_id":"4","last_reported":1728580154,"current_range_meters":38400,"station_id":"ce4bhg92rcd13ifvqf90","pricing_plan_id":"cebpf4jnsgd1na2vs0mg"},{"bike_id":"9cf3db70-1431-4372-b452-2d0770d0c15d","system_id":"levelo_inurba_marseille","lat":43.23194,"lon":5.35553,"is_reserved":false,"is_disabled":false,"rental_uris":{"android":"levelo://app?vid=9cf3db70-1431-4372-b452-2d0770d0c15d","ios":"levelo://app?vid=9cf3db70-1431-4372-b452-2d0770d0c15d"},"vehicle_type_id":"4","last_reported":1728580154,"current_range_meters":36000,"station_id":"ce4bhu92rcd13ifvqi70","pricing_plan_id":"cebpf4jnsgd1na2vs0mg"},{"bike_id":"cdf123f8-4ca4-481a-8d7d-70350d7f56f5","system_id":"levelo_inurba_marseille","lat":43.31727,"lon":5.424,"is_reserved":false,"is_disabled":false,"rental_uris":{"android":"levelo://app?vid=cdf123f8-4ca4-481a-8d7d-70350d7f56f5","ios":"levelo://app?vid=cdf123f8-4ca4-481a-8d7d-70350d7f56f5"},"vehicle_type_id":"4","last_reported":1728580154,"current_range_meters":24000,"station_id":"ce4bhp92rcd13ifvqhbg","pricing_plan_id":"cebpf4jnsgd1na2vs0mg"},{"bike_id":"3c25dded-f8d5-4193-a336-9fad641c4aac","system_id":"levelo_inurba_marseille","lat":43.33766,"lon":5.37447,"is_reserved":false,"is_disabled":false,"rental_uris":{"android":"levelo://app?vid=3c25dded-f8d5-4193-a336-9fad641c4aac","ios":"levelo://app?vid=3c25dded-f8d5-4193-a336-9fad641c4aac"},"vehicle_type_id":"4","last_reported":1728580154,"current_range_meters":16000,"station_id":"","pricing_plan_id":"cebpf4jnsgd1na2vs0mg"},{"bike_id":"7507bac6-05d6-420b-a254-fdfd178bc26b","system_id":"levelo_inurba_marseille","lat":43.29268,"lon":5.3843,"is_reserved":false,"is_disabled":false,"rental_uris":{"android":"levelo://app?vid=7507bac6-05d6-420b-a254-fdfd178bc26b","ios":"levelo://app?vid=7507bac6-05d6-420b-a254-fdfd178bc26b"},"vehicle_type_id":"4","last_reported":1728580154,"current_range_meters":16800,"station_id":"ce4bh692rcd13ifvqea0","pricing_plan_id":"cebpf4jnsgd1na2vs0mg"},{"bike_id":"20badb68-1fb4-4338-bb12-7fad35d2e0b6","system_id":"levelo_inurba_marseille","lat":43.28997,"lon":5.42834,"is_reserved":false,"is_disabled":false,"rental_uris":{"android":"levelo://app?vid=20badb68-1fb4-4338-bb12-7fad35d2e0b6","ios":"levelo://app?vid=20badb68-1fb4-4338-bb12-7fad35d2e0b6"},"vehicle_type_id":"4","last_reported":1728580154,"current_range_meters":24000,"station_id":"","pricing_plan_id":"cebpf4jnsgd1na2vs0mg"},{"bike_id":"9a93359a-b00d-4a4d-b8a5-01d59ce666f3","system_id":"levelo_inurba_marseille","lat":43.28854,"lon":5.35858,"is_reserved":false,"is_disabled":false,"rental_uris":{"android":"levelo://app?vid=9a93359a-b00d-4a4d-b8a5-01d59ce666f3","ios":"levelo://app?vid=9a93359a-b00d-4a4d-b8a5-01d59ce666f3"},"vehicle_type_id":"4","last_reported":1728580154,"current_range_meters":8000,"station_id":"ce4bhb12rcd13ifvqem0","pricing_plan_id":"cebpf4jnsgd1na2vs0mg"},{"bike_id":"7975faaf-f260-41c7-87cd-147b9a3b3ebf","system_id":"levelo_inurba_marseille","lat":43.23057,"lon":5.3549,"is_reserved":false,"is_disabled":false,"rental_uris":{"android":"levelo://app?vid=7975faaf-f260-41c7-87cd-147b9a3b3ebf","ios":"levelo://app?vid=7975faaf-f260-41c7-87cd-147b9a3b3ebf"},"vehicle_type_id":"4","last_reported":1728580154,"current_range_meters":19600,"station_id":"cpo3342slgdg3j2ifvpg","pricing_plan_id":"cebpf4jnsgd1na2vs0mg"},{"bike_id":"a3ebfb13-1f95-4f7c-adb4-8a08b86f19ff","system_id":"levelo_inurba_marseille","lat":43.24169,"lon":5.36403,"is_reserved":false,"is_disabled":false,"rental_uris":{"android":"levelo://app?vid=a3ebfb13-1f95-4f7c-adb4-8a08b86f19ff","ios":"levelo://app?vid=a3ebfb13-1f95-4f7c-adb4-8a08b86f19ff"},"vehicle_type_id":"4","last_reported":1728580154,"current_range_meters":38800,"station_id":"cpo36qri1sfpv3e86is0","pricing_plan_id":"cebpf4jnsgd1na2vs0mg"},{"bike_id":"703d5faf-e8f5-42e8-a15c-36acb1ae64d2","system_id":"levelo_inurba_marseille","lat":43.22932,"lon":5.35382,"is_reserved":false,"is_disabled":false,"rental_uris":{"android":"levelo://app?vid=703d5faf-e8f5-42e8-a15c-36acb1ae64d2","ios":"levelo://app?vid=703d5faf-e8f5-42e8-a15c-36acb1ae64d2"},"vehicle_type_id":"4","last_reported":1728580154,"current_range_meters":8400,"station_id":"cpo3532slgdg3j2ikp40","pricing_plan_id":"cebpf4jnsgd1na2vs0mg"},{"bike_id":"4b65e5e5-d568-4114-bfd6-70b281240118","system_id":"levelo_inurba_marseille","lat":43.31718,"lon":5.42405,"is_reserved":false,"is_disabled":false,"rental_uris":{"android":"levelo://app?vid=4b65e5e5-d568-4114-bfd6-70b281240118","ios":"levelo://app?vid=4b65e5e5-d568-4114-bfd6-70b281240118"},"vehicle_type_id":"4","last_reported":1728580154,"current_range_meters":20400,"station_id":"ce4bhp92rcd13ifvqhbg","pricing_plan_id":"cebpf4jnsgd1na2vs0mg"},{"bike_id":"5a9c0ce8-4c08-454c-adfd-e8b571e62d12","system_id":"levelo_inurba_marseille","lat":43.31753,"lon":5.39022,"is_reserved":false,"is_disabled":false,"rental_uris":{"android":"levelo://app?vid=5a9c0ce8-4c08-454c-adfd-e8b571e62d12","ios":"levelo://app?vid=5a9c0ce8-4c08-454c-adfd-e8b571e62d12"},"vehicle_type_id":"4","last_reported":1728580154,"current_range_meters":2800,"station_id":"ce4bhqp2rcd13ifvqhng","pricing_plan_id":"cebpf4jnsgd1na2vs0mg"},{"bike_id":"ccd70481-619d-43d7-8910-17af57c6e5fb","system_id":"levelo_inurba_marseille","lat":43.28344,"lon":5.399,"is_reserved":false,"is_disabled":false,"rental_uris":{"android":"levelo://app?vid=ccd70481-619d-43d7-8910-17af57c6e5fb","ios":"levelo://app?vid=ccd70481-619d-43d7-8910-17af57c6e5fb"},"vehicle_type_id":"4","last_reported":1728580154,"current_range_meters":15200,"station_id":"ce4bhjp2rcd13ifvqga0","pricing_plan_id":"cebpf4jnsgd1na2vs0mg"},{"bike_id":"23a059cc-637e-41ac-b002-c7d45048a6e8","system_id":"levelo_inurba_marseille","lat":43.280298,"lon":5.36979,"is_reserved":false,"is_disabled":false,"rental_uris":{"android":"levelo://app?vid=23a059cc-637e-41ac-b002-c7d45048a6e8","ios":"levelo://app?vid=23a059cc-637e-41ac-b002-c7d45048a6e8"},"vehicle_type_id":"4","last_reported":1728580154,"current_range_meters":25600,"station_id":"ce4bha12rcd13ifvqef0","pricing_plan_id":"cebpf4jnsgd1na2vs0mg"},{"bike_id":"775ae617-1807-4bf7-8bb7-67fb6d08bb81","system_id":"levelo_inurba_marseille","lat":43.30414,"lon":5.41295,"is_reserved":false,"is_disabled":false,"rental_uris":{"android":"levelo://app?vid=775ae617-1807-4bf7-8bb7-67fb6d08bb81","ios":"levelo://app?vid=775ae617-1807-4bf7-8bb7-67fb6d08bb81"},"vehicle_type_id":"4","last_reported":1728580154,"current_range_meters":39200,"station_id":"ce4bhop2rcd13ifvqh8g","pricing_plan_id":"cebpf4jnsgd1na2vs0mg"},{"bike_id":"e7b49636-cefa-450a-ba52-4d5362cb1c52","system_id":"levelo_inurba_marseille","lat":43.23193,"lon":5.3555,"is_reserved":false,"is_disabled":false,"rental_uris":{"android":"levelo://app?vid=e7b49636-cefa-450a-ba52-4d5362cb1c52","ios":"levelo://app?vid=e7b49636-cefa-450a-ba52-4d5362cb1c52"},"vehicle_type_id":"4","last_reported":1728580154,"current_range_meters":27600,"station_id":"ce4bhu92rcd13ifvqi70","pricing_plan_id":"cebpf4jnsgd1na2vs0mg"},{"bike_id":"b0b732bd-ebcb-42a6-9774-3a276fbb8e1e","system_id":"levelo_inurba_marseille","lat":43.28617,"lon":5.35108,"is_reserved":false,"is_disabled":false,"rental_uris":{"android":"levelo://app?vid=b0b732bd-ebcb-42a6-9774-3a276fbb8e1e","ios":"levelo://app?vid=b0b732bd-ebcb-42a6-9774-3a276fbb8e1e"},"vehicle_type_id":"4","last_reported":1728580154,"current_range_meters":9600,"station_id":"ce4bhch2rcd13ifvqeug","pricing_plan_id":"cebpf4jnsgd1na2vs0mg"},{"bike_id":"e21ac499-a81d-4ae6-a118-9b1c6e013b6c","system_id":"levelo_inurba_marseille","lat":43.27069,"lon":5.42282,"is_reserved":false,"is_disabled":false,"rental_uris":{"android":"levelo://app?vid=e21ac499-a81d-4ae6-a118-9b1c6e013b6c","ios":"levelo://app?vid=e21ac499-a81d-4ae6-a118-9b1c6e013b6c"},"vehicle_type_id":"4","last_reported":1728580154,"current_range_meters":32400,"station_id":"ce4bhk92rcd13ifvqgb0","pricing_plan_id":"cebpf4jnsgd1na2vs0mg"},{"bike_id":"02f13cec-cd9a-4b04-b79b-de961c9ba0fd","system_id":"levelo_inurba_marseille","lat":43.29314,"lon":5.37185,"is_reserved":false,"is_disabled":false,"rental_uris":{"android":"levelo://app?vid=02f13cec-cd9a-4b04-b79b-de961c9ba0fd","ios":"levelo://app?vid=02f13cec-cd9a-4b04-b79b-de961c9ba0fd"},"vehicle_type_id":"4","last_reported":1728580154,"current_range_meters":9600,"station_id":"ce4bgh92rcd13ifvqb40","pricing_plan_id":"cebpf4jnsgd1na2vs0mg"},{"bike_id":"4a11903d-8399-4ca5-879a-7c55fe57baa6","system_id":"levelo_inurba_marseille","lat":43.27993,"lon":5.41664,"is_reserved":false,"is_disabled":false,"rental_uris":{"android":"levelo://app?vid=4a11903d-8399-4ca5-879a-7c55fe57baa6","ios":"levelo://app?vid=4a11903d-8399-4ca5-879a-7c55fe57baa6"},"vehicle_type_id":"4","last_reported":1728580154,"current_range_meters":11600,"station_id":"ce4bho12rcd13ifvqh1g","pricing_plan_id":"cebpf4jnsgd1na2vs0mg"},{"bike_id":"f9ba85a3-1c52-491a-a859-3ce246d8c5d1","system_id":"levelo_inurba_marseille","lat":43.2512,"lon":5.40316,"is_reserved":false,"is_disabled":false,"rental_uris":{"android":"levelo://app?vid=f9ba85a3-1c52-491a-a859-3ce246d8c5d1","ios":"levelo://app?vid=f9ba85a3-1c52-491a-a859-3ce246d8c5d1"},"vehicle_type_id":"4","last_reported":1728580154,"current_range_meters":16000,"station_id":"ce4bhlh2rcd13ifvqgig","pricing_plan_id":"cebpf4jnsgd1na2vs0mg"},{"bike_id":"e61f17ef-366b-40c3-ba0a-983a845dd67f","system_id":"levelo_inurba_marseille","lat":43.2929,"lon":5.40619,"is_reserved":false,"is_disabled":false,"rental_uris":{"android":"levelo://app?vid=e61f17ef-366b-40c3-ba0a-983a845dd67f","ios":"levelo://app?vid=e61f17ef-366b-40c3-ba0a-983a845dd67f"},"vehicle_type_id":"4","last_reported":1728580154,"current_range_meters":8000,"station_id":"","pricing_plan_id":"cebpf4jnsgd1na2vs0mg"},{"bike_id":"b040bbad-3d4d-4b28-9bf4-fda71a977bb9","system_id":"levelo_inurba_marseille","lat":43.2558,"lon":5.38219,"is_reserved":false,"is_disabled":false,"rental_uris":{"android":"levelo://app?vid=b040bbad-3d4d-4b28-9bf4-fda71a977bb9","ios":"levelo://app?vid=b040bbad-3d4d-4b28-9bf4-fda71a977bb9"},"vehicle_type_id":"4","last_reported":1728580154,"current_range_meters":8400,"station_id":"ce4bhih2rcd13ifvqfs0","pricing_plan_id":"cebpf4jnsgd1na2vs0mg"},{"bike_id":"84d2b386-1e02-4fab-a890-1fba514de40f","system_id":"levelo_inurba_marseille","lat":43.29031,"lon":5.35912,"is_reserved":false,"is_disabled":false,"rental_uris":{"android":"levelo://app?vid=84d2b386-1e02-4fab-a890-1fba514de40f","ios":"levelo://app?vid=84d2b386-1e02-4fab-a890-1fba514de40f"},"vehicle_type_id":"4","last_reported":1728580154,"current_range_meters":17200,"station_id":"ce4bha92rcd13ifvqeg0","pricing_plan_id":"cebpf4jnsgd1na2vs0mg"},{"bike_id":"245fbd72-a8ea-4a50-b396-f3860863893b","system_id":"levelo_inurba_marseille","lat":43.23189,"lon":5.35559,"is_reserved":false,"is_disabled":false,"rental_uris":{"android":"levelo://app?vid=245fbd72-a8ea-4a50-b396-f3860863893b","ios":"levelo://app?vid=245fbd72-a8ea-4a50-b396-f3860863893b"},"vehicle_type_id":"4","last_reported":1728580154,"current_range_meters":36400,"station_id":"ce4bhu92rcd13ifvqi70","pricing_plan_id":"cebpf4jnsgd1na2vs0mg"},{"bike_id":"9b511091-c37a-4489-8730-365a48fa1ae5","system_id":"levelo_inurba_marseille","lat":43.32335,"lon":5.40625,"is_reserved":false,"is_disabled":false,"rental_uris":{"android":"levelo://app?vid=9b511091-c37a-4489-8730-365a48fa1ae5","ios":"levelo://app?vid=9b511091-c37a-4489-8730-365a48fa1ae5"},"vehicle_type_id":"4","last_reported":1728580154,"current_range_meters":8800,"station_id":"ce4bhq92rcd13ifvqhjg","pricing_plan_id":"cebpf4jnsgd1na2vs0mg"},{"bike_id":"ccfee38a-c7c7-42d8-b074-2e0e04d16399","system_id":"levelo_inurba_marseille","lat":43.26676,"lon":5.38268,"is_reserved":false,"is_disabled":false,"rental_uris":{"android":"levelo://app?vid=ccfee38a-c7c7-42d8-b074-2e0e04d16399","ios":"levelo://app?vid=ccfee38a-c7c7-42d8-b074-2e0e04d16399"},"vehicle_type_id":"4","last_reported":1728580154,"current_range_meters":9600,"station_id":"ce4bhg92rcd13ifvqf90","pricing_plan_id":"cebpf4jnsgd1na2vs0mg"},{"bike_id":"e9fa4ba3-b355-4cc4-bbf5-e0d36bcd9d5d","system_id":"levelo_inurba_marseille","lat":43.28946,"lon":5.36403,"is_reserved":false,"is_disabled":false,"rental_uris":{"android":"levelo://app?vid=e9fa4ba3-b355-4cc4-bbf5-e0d36bcd9d5d","ios":"levelo://app?vid=e9fa4ba3-b355-4cc4-bbf5-e0d36bcd9d5d"},"vehicle_type_id":"4","last_reported":1728580154,"current_range_meters":14800,"station_id":"ce4bhc92rcd13ifvqetg","pricing_plan_id":"cebpf4jnsgd1na2vs0mg"},{"bike_id":"6461cf45-08a8-4e34-a193-568beb7de18d","system_id":"levelo_inurba_marseille","lat":43.26062,"lon":5.39395,"is_reserved":false,"is_disabled":false,"rental_uris":{"android":"levelo://app?vid=6461cf45-08a8-4e34-a193-568beb7de18d","ios":"levelo://app?vid=6461cf45-08a8-4e34-a193-568beb7de18d"},"vehicle_type_id":"4","last_reported":1728580154,"current_range_meters":27200,"station_id":"ce4bhh92rcd13ifvqfj0","pricing_plan_id":"cebpf4jnsgd1na2vs0mg"},{"bike_id":"d0af47d5-71a2-4e6e-a4f7-a2d225b8e53a","system_id":"levelo_inurba_marseille","lat":43.23055,"lon":5.35493,"is_reserved":false,"is_disabled":false,"rental_uris":{"android":"levelo://app?vid=d0af47d5-71a2-4e6e-a4f7-a2d225b8e53a","ios":"levelo://app?vid=d0af47d5-71a2-4e6e-a4f7-a2d225b8e53a"},"vehicle_type_id":"4","last_reported":1728580154,"current_range_meters":20400,"station_id":"cpo3342slgdg3j2ifvpg","pricing_plan_id":"cebpf4jnsgd1na2vs0mg"},{"bike_id":"a6e98197-7aad-459b-bdbc-a4532a901d83","system_id":"levelo_inurba_marseille","lat":43.27613,"lon":5.36105,"is_reserved":false,"is_disabled":false,"rental_uris":{"android":"levelo://app?vid=a6e98197-7aad-459b-bdbc-a4532a901d83","ios":"levelo://app?vid=a6e98197-7aad-459b-bdbc-a4532a901d83"},"vehicle_type_id":"4","last_reported":1728580154,"current_range_meters":5600,"station_id":"ce4bgj92rcd13ifvqbe0","pricing_plan_id":"cebpf4jnsgd1na2vs0mg"},{"bike_id":"d560e107-768b-474d-93a5-834a1e408d16","system_id":"levelo_inurba_marseille","lat":43.31506,"lon":5.37283,"is_reserved":false,"is_disabled":false,"rental_uris":{"android":"levelo://app?vid=d560e107-768b-474d-93a5-834a1e408d16","ios":"levelo://app?vid=d560e107-768b-474d-93a5-834a1e408d16"},"vehicle_type_id":"4","last_reported":1728580154,"current_range_meters":38800,"station_id":"ce4bgt12rcd13ifvqcd0","pricing_plan_id":"cebpf4jnsgd1na2vs0mg"},{"bike_id":"48f39196-5c24-4556-853d-83e067845d93","system_id":"levelo_inurba_marseille","lat":43.2813,"lon":5.3775,"is_reserved":false,"is_disabled":false,"rental_uris":{"android":"levelo://app?vid=48f39196-5c24-4556-853d-83e067845d93","ios":"levelo://app?vid=48f39196-5c24-4556-853d-83e067845d93"},"vehicle_type_id":"4","last_reported":1728580154,"current_range_meters":30400,"station_id":"ce4bgj92rcd13ifvqbe0","pricing_plan_id":"cebpf4jnsgd1na2vs0mg"},{"bike_id":"37d387eb-2a79-4857-8da3-e1b7d2a05e6b","system_id":"levelo_inurba_marseille","lat":43.3237,"lon":5.38882,"is_reserved":false,"is_disabled":false,"rental_uris":{"android":"levelo://app?vid=37d387eb-2a79-4857-8da3-e1b7d2a05e6b","ios":"levelo://app?vid=37d387eb-2a79-4857-8da3-e1b7d2a05e6b"},"vehicle_type_id":"4","last_reported":1728580154,"current_range_meters":33200,"station_id":"ce4bhqp2rcd13ifvqhog","pricing_plan_id":"cebpf4jnsgd1na2vs0mg"},{"bike_id":"c937cf02-0dc7-4253-b303-f10956f0f218","system_id":"levelo_inurba_marseille","lat":43.27611,"lon":5.36116,"is_reserved":false,"is_disabled":false,"rental_uris":{"android":"levelo://app?vid=c937cf02-0dc7-4253-b303-f10956f0f218","ios":"levelo://app?vid=c937cf02-0dc7-4253-b303-f10956f0f218"},"vehicle_type_id":"4","last_reported":1728580154,"current_range_meters":8400,"station_id":"ce4bgj92rcd13ifvqbe0","pricing_plan_id":"cebpf4jnsgd1na2vs0mg"},{"bike_id":"a98a87f7-40fb-453a-8912-cc8df6395139","system_id":"levelo_inurba_marseille","lat":43.29781,"lon":5.3934,"is_reserved":false,"is_disabled":false,"rental_uris":{"android":"levelo://app?vid=a98a87f7-40fb-453a-8912-cc8df6395139","ios":"levelo://app?vid=a98a87f7-40fb-453a-8912-cc8df6395139"},"vehicle_type_id":"4","last_reported":1728580154,"current_range_meters":10800,"station_id":"chh1huq6cuj3fo74tm60","pricing_plan_id":"cebpf4jnsgd1na2vs0mg"},{"bike_id":"e31f62f2-5bb2-4c6b-aeb0-f6a8c3f77d09","system_id":"levelo_inurba_marseille","lat":43.2942,"lon":5.38619,"is_reserved":false,"is_disabled":false,"rental_uris":{"android":"levelo://app?vid=e31f62f2-5bb2-4c6b-aeb0-f6a8c3f77d09","ios":"levelo://app?vid=e31f62f2-5bb2-4c6b-aeb0-f6a8c3f77d09"},"vehicle_type_id":"4","last_reported":1728580154,"current_range_meters":30400,"station_id":"ce4bh2h2rcd13ifvqdh0","pricing_plan_id":"cebpf4jnsgd1na2vs0mg"},{"bike_id":"0a8c1ca8-c1d7-4260-af92-a968e06a814b","system_id":"levelo_inurba_marseille","lat":43.25501,"lon":5.37652,"is_reserved":false,"is_disabled":false,"rental_uris":{"android":"levelo://app?vid=0a8c1ca8-c1d7-4260-af92-a968e06a814b","ios":"levelo://app?vid=0a8c1ca8-c1d7-4260-af92-a968e06a814b"},"vehicle_type_id":"4","last_reported":1728580154,"current_range_meters":21600,"station_id":"ce4bhjp2rcd13ifvqga0","pricing_plan_id":"cebpf4jnsgd1na2vs0mg"},{"bike_id":"5d8156d1-3aa4-46d4-9b21-ecbce5eebedd","system_id":"levelo_inurba_marseille","lat":43.33716,"lon":5.39189,"is_reserved":false,"is_disabled":false,"rental_uris":{"android":"levelo://app?vid=5d8156d1-3aa4-46d4-9b21-ecbce5eebedd","ios":"levelo://app?vid=5d8156d1-3aa4-46d4-9b21-ecbce5eebedd"},"vehicle_type_id":"4","last_reported":1728580154,"current_range_meters":18000,"station_id":"ce4bhr92rcd13ifvqhsg","pricing_plan_id":"cebpf4jnsgd1na2vs0mg"},{"bike_id":"cd3d2bdb-c683-4f48-a472-6131ba097822","system_id":"levelo_inurba_marseille","lat":43.30187,"lon":5.36616,"is_reserved":false,"is_disabled":false,"rental_uris":{"android":"levelo://app?vid=cd3d2bdb-c683-4f48-a472-6131ba097822","ios":"levelo://app?vid=cd3d2bdb-c683-4f48-a472-6131ba097822"},"vehicle_type_id":"4","last_reported":1728580154,"current_range_meters":4000,"station_id":"ce4bgrh2rcd13ifvqc8g","pricing_plan_id":"cebpf4jnsgd1na2vs0mg"},{"bike_id":"9119bfed-6fe0-44c1-92af-8f9f407caeeb","system_id":"levelo_inurba_marseille","lat":43.22933,"lon":5.3538,"is_reserved":false,"is_disabled":false,"rental_uris":{"android":"levelo://app?vid=9119bfed-6fe0-44c1-92af-8f9f407caeeb","ios":"levelo://app?vid=9119bfed-6fe0-44c1-92af-8f9f407caeeb"},"vehicle_type_id":"4","last_reported":1728580154,"current_range_meters":36800,"station_id":"cpo3532slgdg3j2ikp40","pricing_plan_id":"cebpf4jnsgd1na2vs0mg"},{"bike_id":"8b990012-cccb-4370-a1a8-2d10fc098d71","system_id":"levelo_inurba_marseille","lat":43.301237,"lon":5.398549,"is_reserved":false,"is_disabled":false,"rental_uris":{"android":"levelo://app?vid=8b990012-cccb-4370-a1a8-2d10fc098d71","ios":"levelo://app?vid=8b990012-cccb-4370-a1a8-2d10fc098d71"},"vehicle_type_id":"4","last_reported":1728580154,"current_range_meters":33600,"station_id":"ce4bh0h2rcd13ifvqd40","pricing_plan_id":"cebpf4jnsgd1na2vs0mg"},{"bike_id":"508c2580-b400-4bea-87f0-7fab570766b6","system_id":"levelo_inurba_marseille","lat":43.32339,"lon":5.38509,"is_reserved":false,"is_disabled":false,"rental_uris":{"android":"levelo://app?vid=508c2580-b400-4bea-87f0-7fab570766b6","ios":"levelo://app?vid=508c2580-b400-4bea-87f0-7fab570766b6"},"vehicle_type_id":"4","last_reported":1728580154,"current_range_meters":3200,"station_id":"","pricing_plan_id":"cebpf4jnsgd1na2vs0mg"},{"bike_id":"912b54db-26f6-4bfa-8b64-5101a9c5571d","system_id":"levelo_inurba_marseille","lat":43.30178,"lon":5.36624,"is_reserved":false,"is_disabled":false,"rental_uris":{"android":"levelo://app?vid=912b54db-26f6-4bfa-8b64-5101a9c5571d","ios":"levelo://app?vid=912b54db-26f6-4bfa-8b64-5101a9c5571d"},"vehicle_type_id":"4","last_reported":1728580154,"current_range_meters":26000,"station_id":"ce4bgrh2rcd13ifvqc8g","pricing_plan_id":"cebpf4jnsgd1na2vs0mg"},{"bike_id":"19fe1959-c93b-42fe-a582-87651ad6b59b","system_id":"levelo_inurba_marseille","lat":43.24663,"lon":5.38171,"is_reserved":false,"is_disabled":false,"rental_uris":{"android":"levelo://app?vid=19fe1959-c93b-42fe-a582-87651ad6b59b","ios":"levelo://app?vid=19fe1959-c93b-42fe-a582-87651ad6b59b"},"vehicle_type_id":"4","last_reported":1728580154,"current_range_meters":8400,"station_id":"ce4bhih2rcd13ifvqfr0","pricing_plan_id":"cebpf4jnsgd1na2vs0mg"},{"bike_id":"e564e53c-0f0a-4e93-a8ae-146dae6d4163","system_id":"levelo_inurba_marseille","lat":43.23065,"lon":5.35492,"is_reserved":false,"is_disabled":false,"rental_uris":{"android":"levelo://app?vid=e564e53c-0f0a-4e93-a8ae-146dae6d4163","ios":"levelo://app?vid=e564e53c-0f0a-4e93-a8ae-146dae6d4163"},"vehicle_type_id":"4","last_reported":1728580154,"current_range_meters":12000,"station_id":"cpo3342slgdg3j2ifvpg","pricing_plan_id":"cebpf4jnsgd1na2vs0mg"},{"bike_id":"92ff2731-e09b-4b0b-b482-128fd8076b9a","system_id":"levelo_inurba_marseille","lat":43.31328,"lon":5.39695,"is_reserved":false,"is_disabled":false,"rental_uris":{"android":"levelo://app?vid=92ff2731-e09b-4b0b-b482-128fd8076b9a","ios":"levelo://app?vid=92ff2731-e09b-4b0b-b482-128fd8076b9a"},"vehicle_type_id":"4","last_reported":1728580154,"current_range_meters":8400,"station_id":"ce4bgvp2rcd13ifvqcu0","pricing_plan_id":"cebpf4jnsgd1na2vs0mg"},{"bike_id":"fe0915aa-a640-4c13-81b2-6a0acd0c7b3d","system_id":"levelo_inurba_marseille","lat":43.29278,"lon":5.38435,"is_reserved":false,"is_disabled":false,"rental_uris":{"android":"levelo://app?vid=fe0915aa-a640-4c13-81b2-6a0acd0c7b3d","ios":"levelo://app?vid=fe0915aa-a640-4c13-81b2-6a0acd0c7b3d"},"vehicle_type_id":"4","last_reported":1728580154,"current_range_meters":32800,"station_id":"ce4bh692rcd13ifvqea0","pricing_plan_id":"cebpf4jnsgd1na2vs0mg"},{"bike_id":"698dc8ec-e09f-4c71-8a54-c6ae60931b70","system_id":"levelo_inurba_marseille","lat":43.28856,"lon":5.35842,"is_reserved":false,"is_disabled":false,"rental_uris":{"android":"levelo://app?vid=698dc8ec-e09f-4c71-8a54-c6ae60931b70","ios":"levelo://app?vid=698dc8ec-e09f-4c71-8a54-c6ae60931b70"},"vehicle_type_id":"4","last_reported":1728580154,"current_range_meters":28800,"station_id":"ce4bhb12rcd13ifvqem0","pricing_plan_id":"cebpf4jnsgd1na2vs0mg"},{"bike_id":"2591b683-e264-4f9d-9aa5-ae14ac3b5de1","system_id":"levelo_inurba_marseille","lat":43.23053,"lon":5.35501,"is_reserved":false,"is_disabled":false,"rental_uris":{"android":"levelo://app?vid=2591b683-e264-4f9d-9aa5-ae14ac3b5de1","ios":"levelo://app?vid=2591b683-e264-4f9d-9aa5-ae14ac3b5de1"},"vehicle_type_id":"4","last_reported":1728580154,"current_range_meters":36000,"station_id":"cpo3342slgdg3j2ifvpg","pricing_plan_id":"cebpf4jnsgd1na2vs0mg"},{"bike_id":"acb9628e-3036-4a24-ab28-2ce0e754e1d9","system_id":"levelo_inurba_marseille","lat":43.31165,"lon":5.38727,"is_reserved":false,"is_disabled":false,"rental_uris":{"android":"levelo://app?vid=acb9628e-3036-4a24-ab28-2ce0e754e1d9","ios":"levelo://app?vid=acb9628e-3036-4a24-ab28-2ce0e754e1d9"},"vehicle_type_id":"4","last_reported":1728580154,"current_range_meters":26800,"station_id":"ce4bgv12rcd13ifvqcp0","pricing_plan_id":"cebpf4jnsgd1na2vs0mg"},{"bike_id":"6631039b-78e3-42ae-b3f5-987abeda35e5","system_id":"levelo_inurba_marseille","lat":43.30458,"lon":5.40184,"is_reserved":false,"is_disabled":false,"rental_uris":{"android":"levelo://app?vid=6631039b-78e3-42ae-b3f5-987abeda35e5","ios":"levelo://app?vid=6631039b-78e3-42ae-b3f5-987abeda35e5"},"vehicle_type_id":"4","last_reported":1728580154,"current_range_meters":13600,"station_id":"","pricing_plan_id":"cebpf4jnsgd1na2vs0mg"},{"bike_id":"1bd81304-3a64-495f-96bf-11b9971077c8","system_id":"levelo_inurba_marseille","lat":43.29513,"lon":5.39411,"is_reserved":false,"is_disabled":false,"rental_uris":{"android":"levelo://app?vid=1bd81304-3a64-495f-96bf-11b9971077c8","ios":"levelo://app?vid=1bd81304-3a64-495f-96bf-11b9971077c8"},"vehicle_type_id":"4","last_reported":1728580154,"current_range_meters":30400,"station_id":"ce4bh292rcd13ifvqdf0","pricing_plan_id":"cebpf4jnsgd1na2vs0mg"},{"bike_id":"b07c6bfb-e001-4be5-9acd-195fb72503ce","system_id":"levelo_inurba_marseille","lat":43.29367,"lon":5.37856,"is_reserved":false,"is_disabled":false,"rental_uris":{"android":"levelo://app?vid=b07c6bfb-e001-4be5-9acd-195fb72503ce","ios":"levelo://app?vid=b07c6bfb-e001-4be5-9acd-195fb72503ce"},"vehicle_type_id":"4","last_reported":1728580154,"current_range_meters":5600,"station_id":"ce4bgjh2rcd13ifvqbf0","pricing_plan_id":"cebpf4jnsgd1na2vs0mg"},{"bike_id":"a7fec1de-550d-4caa-80eb-5af526a9239f","system_id":"levelo_inurba_marseille","lat":43.29534,"lon":5.39028,"is_reserved":false,"is_disabled":false,"rental_uris":{"android":"levelo://app?vid=a7fec1de-550d-4caa-80eb-5af526a9239f","ios":"levelo://app?vid=a7fec1de-550d-4caa-80eb-5af526a9239f"},"vehicle_type_id":"4","last_reported":1728580154,"current_range_meters":18000,"station_id":"ce4bh3p2rcd13ifvqdp0","pricing_plan_id":"cebpf4jnsgd1na2vs0mg"},{"bike_id":"1b36ea81-7633-498e-bb5f-20f5bad244dc","system_id":"levelo_inurba_marseille","lat":43.29921,"lon":5.37456,"is_reserved":false,"is_disabled":false,"rental_uris":{"android":"levelo://app?vid=1b36ea81-7633-498e-bb5f-20f5bad244dc","ios":"levelo://app?vid=1b36ea81-7633-498e-bb5f-20f5bad244dc"},"vehicle_type_id":"4","last_reported":1728580154,"current_range_meters":2800,"station_id":"ce4bgjh2rcd13ifvqbg0","pricing_plan_id":"cebpf4jnsgd1na2vs0mg"},{"bike_id":"bdee3219-57c1-49d1-a2d1-d02ddf7e4ac9","system_id":"levelo_inurba_marseille","lat":43.23058,"lon":5.35495,"is_reserved":false,"is_disabled":false,"rental_uris":{"android":"levelo://app?vid=bdee3219-57c1-49d1-a2d1-d02ddf7e4ac9","ios":"levelo://app?vid=bdee3219-57c1-49d1-a2d1-d02ddf7e4ac9"},"vehicle_type_id":"4","last_reported":1728580154,"current_range_meters":24000,"station_id":"cpo3342slgdg3j2ifvpg","pricing_plan_id":"cebpf4jnsgd1na2vs0mg"},{"bike_id":"79904acf-8a8a-42fa-acd4-2e69b6b0d5df","system_id":"levelo_inurba_marseille","lat":43.30935,"lon":5.40147,"is_reserved":false,"is_disabled":false,"rental_uris":{"android":"levelo://app?vid=79904acf-8a8a-42fa-acd4-2e69b6b0d5df","ios":"levelo://app?vid=79904acf-8a8a-42fa-acd4-2e69b6b0d5df"},"vehicle_type_id":"4","last_reported":1728580154,"current_range_meters":17600,"station_id":"ce4bgvp2rcd13ifvqct0","pricing_plan_id":"cebpf4jnsgd1na2vs0mg"},{"bike_id":"c782ba38-3e94-48bf-942c-64a4e22d46ee","system_id":"levelo_inurba_marseille","lat":43.305298,"lon":5.365579,"is_reserved":false,"is_disabled":false,"rental_uris":{"android":"levelo://app?vid=c782ba38-3e94-48bf-942c-64a4e22d46ee","ios":"levelo://app?vid=c782ba38-3e94-48bf-942c-64a4e22d46ee"},"vehicle_type_id":"4","last_reported":1728580154,"current_range_meters":2000,"station_id":"ce4bgs12rcd13ifvqcag","pricing_plan_id":"cebpf4jnsgd1na2vs0mg"},{"bike_id":"a562589d-ef23-4da1-8f06-8dd5c89e7ebf","system_id":"levelo_inurba_marseille","lat":43.302842,"lon":5.368567,"is_reserved":false,"is_disabled":false,"rental_uris":{"android":"levelo://app?vid=a562589d-ef23-4da1-8f06-8dd5c89e7ebf","ios":"levelo://app?vid=a562589d-ef23-4da1-8f06-8dd5c89e7ebf"},"vehicle_type_id":"4","last_reported":1728580154,"current_range_meters":14400,"station_id":"ce4bgqh2rcd13ifvqc5g","pricing_plan_id":"cebpf4jnsgd1na2vs0mg"},{"bike_id":"49fdd7dc-190f-4f3c-bd8a-8d2346aa9164","system_id":"levelo_inurba_marseille","lat":43.26801,"lon":5.40266,"is_reserved":false,"is_disabled":false,"rental_uris":{"android":"levelo://app?vid=49fdd7dc-190f-4f3c-bd8a-8d2346aa9164","ios":"levelo://app?vid=49fdd7dc-190f-4f3c-bd8a-8d2346aa9164"},"vehicle_type_id":"4","last_reported":1728580154,"current_range_meters":5600,"station_id":"ce501612rcd8frsf0b60","pricing_plan_id":"cebpf4jnsgd1na2vs0mg"},{"bike_id":"04424ced-cef1-4da1-905f-898ad275f10e","system_id":"levelo_inurba_marseille","lat":43.25083,"lon":5.39521,"is_reserved":false,"is_disabled":false,"rental_uris":{"android":"levelo://app?vid=04424ced-cef1-4da1-905f-898ad275f10e","ios":"levelo://app?vid=04424ced-cef1-4da1-905f-898ad275f10e"},"vehicle_type_id":"4","last_reported":1728580154,"current_range_meters":14800,"station_id":"ce4bhm12rcd13ifvqgkg","pricing_plan_id":"cebpf4jnsgd1na2vs0mg"},{"bike_id":"12bcb5d5-c12f-489c-b056-256836c0aab3","system_id":"levelo_inurba_marseille","lat":43.27615,"lon":5.36104,"is_reserved":false,"is_disabled":false,"rental_uris":{"android":"levelo://app?vid=12bcb5d5-c12f-489c-b056-256836c0aab3","ios":"levelo://app?vid=12bcb5d5-c12f-489c-b056-256836c0aab3"},"vehicle_type_id":"4","last_reported":1728580154,"current_range_meters":12400,"station_id":"ce4bgj92rcd13ifvqbe0","pricing_plan_id":"cebpf4jnsgd1na2vs0mg"},{"bike_id":"b253e9bb-939e-4de7-8773-e74c6f8d595f","system_id":"levelo_inurba_marseille","lat":43.27614,"lon":5.3611,"is_reserved":false,"is_disabled":false,"rental_uris":{"android":"levelo://app?vid=b253e9bb-939e-4de7-8773-e74c6f8d595f","ios":"levelo://app?vid=b253e9bb-939e-4de7-8773-e74c6f8d595f"},"vehicle_type_id":"4","last_reported":1728580154,"current_range_meters":31200,"station_id":"ce4bgj92rcd13ifvqbe0","pricing_plan_id":"cebpf4jnsgd1na2vs0mg"},{"bike_id":"ef5db45c-8e8b-4616-9639-0fb3b10230fa","system_id":"levelo_inurba_marseille","lat":43.27171,"lon":5.40992,"is_reserved":false,"is_disabled":false,"rental_uris":{"android":"levelo://app?vid=ef5db45c-8e8b-4616-9639-0fb3b10230fa","ios":"levelo://app?vid=ef5db45c-8e8b-4616-9639-0fb3b10230fa"},"vehicle_type_id":"4","last_reported":1728580154,"current_range_meters":6000,"station_id":"ce4bhl12rcd13ifvqgf0","pricing_plan_id":"cebpf4jnsgd1na2vs0mg"},{"bike_id":"898090e8-57d0-4e07-949f-6e3b0f117ce1","system_id":"levelo_inurba_marseille","lat":43.31084,"lon":5.42431,"is_reserved":false,"is_disabled":false,"rental_uris":{"android":"levelo://app?vid=898090e8-57d0-4e07-949f-6e3b0f117ce1","ios":"levelo://app?vid=898090e8-57d0-4e07-949f-6e3b0f117ce1"},"vehicle_type_id":"4","last_reported":1728580154,"current_range_meters":33200,"station_id":"ce4bhp92rcd13ifvqhag","pricing_plan_id":"cebpf4jnsgd1na2vs0mg"},{"bike_id":"7f1a9a69-42d8-4138-99e2-20e613bc161c","system_id":"levelo_inurba_marseille","lat":43.29304,"lon":5.37172,"is_reserved":false,"is_disabled":false,"rental_uris":{"android":"levelo://app?vid=7f1a9a69-42d8-4138-99e2-20e613bc161c","ios":"levelo://app?vid=7f1a9a69-42d8-4138-99e2-20e613bc161c"},"vehicle_type_id":"4","last_reported":1728580154,"current_range_meters":11600,"station_id":"ce4bgh92rcd13ifvqb40","pricing_plan_id":"cebpf4jnsgd1na2vs0mg"},{"bike_id":"ff370754-0e1a-42a8-aad5-62ea4d51412b","system_id":"levelo_inurba_marseille","lat":43.3175,"lon":5.39025,"is_reserved":false,"is_disabled":false,"rental_uris":{"android":"levelo://app?vid=ff370754-0e1a-42a8-aad5-62ea4d51412b","ios":"levelo://app?vid=ff370754-0e1a-42a8-aad5-62ea4d51412b"},"vehicle_type_id":"4","last_reported":1728580154,"current_range_meters":28000,"station_id":"ce4bhqp2rcd13ifvqhng","pricing_plan_id":"cebpf4jnsgd1na2vs0mg"},{"bike_id":"60aa31d1-2cfd-47bf-86ba-85d833f6f955","system_id":"levelo_inurba_marseille","lat":43.27066,"lon":5.42284,"is_reserved":false,"is_disabled":false,"rental_uris":{"android":"levelo://app?vid=60aa31d1-2cfd-47bf-86ba-85d833f6f955","ios":"levelo://app?vid=60aa31d1-2cfd-47bf-86ba-85d833f6f955"},"vehicle_type_id":"4","last_reported":1728580154,"current_range_meters":14800,"station_id":"ce4bhk92rcd13ifvqgb0","pricing_plan_id":"cebpf4jnsgd1na2vs0mg"},{"bike_id":"07d95d33-42ae-4ff6-b02a-40424f7059b9","system_id":"levelo_inurba_marseille","lat":43.33723,"lon":5.3919,"is_reserved":false,"is_disabled":false,"rental_uris":{"android":"levelo://app?vid=07d95d33-42ae-4ff6-b02a-40424f7059b9","ios":"levelo://app?vid=07d95d33-42ae-4ff6-b02a-40424f7059b9"},"vehicle_type_id":"4","last_reported":1728580154,"current_range_meters":12800,"station_id":"ce4bhr92rcd13ifvqhsg","pricing_plan_id":"cebpf4jnsgd1na2vs0mg"},{"bike_id":"d7b53285-c0ea-479b-95ed-f08633646462","system_id":"levelo_inurba_marseille","lat":43.2803,"lon":5.36948,"is_reserved":false,"is_disabled":false,"rental_uris":{"android":"levelo://app?vid=d7b53285-c0ea-479b-95ed-f08633646462","ios":"levelo://app?vid=d7b53285-c0ea-479b-95ed-f08633646462"},"vehicle_type_id":"4","last_reported":1728580154,"current_range_meters":38400,"station_id":"ce4bha12rcd13ifvqef0","pricing_plan_id":"cebpf4jnsgd1na2vs0mg"},{"bike_id":"a6393f25-3f35-402e-aab6-a6d42b3dcb39","system_id":"levelo_inurba_marseille","lat":43.2319,"lon":5.35555,"is_reserved":false,"is_disabled":false,"rental_uris":{"android":"levelo://app?vid=a6393f25-3f35-402e-aab6-a6d42b3dcb39","ios":"levelo://app?vid=a6393f25-3f35-402e-aab6-a6d42b3dcb39"},"vehicle_type_id":"4","last_reported":1728580154,"current_range_meters":28800,"station_id":"ce4bhu92rcd13ifvqi70","pricing_plan_id":"cebpf4jnsgd1na2vs0mg"},{"bike_id":"87b6ee71-7da9-475d-8cd6-af8fadcd92d9","system_id":"levelo_inurba_marseille","lat":43.26496,"lon":5.39542,"is_reserved":false,"is_disabled":false,"rental_uris":{"android":"levelo://app?vid=87b6ee71-7da9-475d-8cd6-af8fadcd92d9","ios":"levelo://app?vid=87b6ee71-7da9-475d-8cd6-af8fadcd92d9"},"vehicle_type_id":"4","last_reported":1728580154,"current_range_meters":8000,"station_id":"ce4bhi12rcd13ifvqfq0","pricing_plan_id":"cebpf4jnsgd1na2vs0mg"},{"bike_id":"4d6b940d-bf94-4fb4-9974-eaf4232019b6","system_id":"levelo_inurba_marseille","lat":43.2781,"lon":5.40718,"is_reserved":false,"is_disabled":false,"rental_uris":{"android":"levelo://app?vid=4d6b940d-bf94-4fb4-9974-eaf4232019b6","ios":"levelo://app?vid=4d6b940d-bf94-4fb4-9974-eaf4232019b6"},"vehicle_type_id":"4","last_reported":1728580154,"current_range_meters":24400,"station_id":"ce4bhnh2rcd13ifvqgtg","pricing_plan_id":"cebpf4jnsgd1na2vs0mg"},{"bike_id":"d406104d-1741-4c53-a6e6-af8a123aa3c2","system_id":"levelo_inurba_marseille","lat":43.27999,"lon":5.40009,"is_reserved":false,"is_disabled":false,"rental_uris":{"android":"levelo://app?vid=d406104d-1741-4c53-a6e6-af8a123aa3c2","ios":"levelo://app?vid=d406104d-1741-4c53-a6e6-af8a123aa3c2"},"vehicle_type_id":"4","last_reported":1728580154,"current_range_meters":24800,"station_id":"ce4bho92rcd13ifvqh4g","pricing_plan_id":"cebpf4jnsgd1na2vs0mg"},{"bike_id":"3873fc19-1de0-4059-91e5-d58b9a687116","system_id":"levelo_inurba_marseille","lat":43.29224,"lon":5.3607,"is_reserved":false,"is_disabled":false,"rental_uris":{"android":"levelo://app?vid=3873fc19-1de0-4059-91e5-d58b9a687116","ios":"levelo://app?vid=3873fc19-1de0-4059-91e5-d58b9a687116"},"vehicle_type_id":"4","last_reported":1728580154,"current_range_meters":12400,"station_id":"ce4bhbh2rcd13ifvqeqg","pricing_plan_id":"cebpf4jnsgd1na2vs0mg"},{"bike_id":"f2aed75c-b571-4a98-80aa-d52b9dc28daf","system_id":"levelo_inurba_marseille","lat":43.23059,"lon":5.3549,"is_reserved":false,"is_disabled":false,"rental_uris":{"android":"levelo://app?vid=f2aed75c-b571-4a98-80aa-d52b9dc28daf","ios":"levelo://app?vid=f2aed75c-b571-4a98-80aa-d52b9dc28daf"},"vehicle_type_id":"4","last_reported":1728580154,"current_range_meters":27600,"station_id":"cpo3342slgdg3j2ifvpg","pricing_plan_id":"cebpf4jnsgd1na2vs0mg"},{"bike_id":"21248abb-8156-4272-9a8a-9416745b8250","system_id":"levelo_inurba_marseille","lat":43.30417,"lon":5.41288,"is_reserved":false,"is_disabled":false,"rental_uris":{"android":"levelo://app?vid=21248abb-8156-4272-9a8a-9416745b8250","ios":"levelo://app?vid=21248abb-8156-4272-9a8a-9416745b8250"},"vehicle_type_id":"4","last_reported":1728580154,"current_range_meters":26000,"station_id":"ce4bhop2rcd13ifvqh8g","pricing_plan_id":"cebpf4jnsgd1na2vs0mg"},{"bike_id":"f7cfdbf1-68fe-4df9-84ac-19e9e5c14631","system_id":"levelo_inurba_marseille","lat":43.23181,"lon":5.39984,"is_reserved":false,"is_disabled":false,"rental_uris":{"android":"levelo://app?vid=f7cfdbf1-68fe-4df9-84ac-19e9e5c14631","ios":"levelo://app?vid=f7cfdbf1-68fe-4df9-84ac-19e9e5c14631"},"vehicle_type_id":"4","last_reported":1728580154,"current_range_meters":22400,"station_id":"ce4bhn12rcd13ifvqgqg","pricing_plan_id":"cebpf4jnsgd1na2vs0mg"},{"bike_id":"25ec8185-324c-443d-b251-88f1f68be339","system_id":"levelo_inurba_marseille","lat":43.27498,"lon":5.42446,"is_reserved":false,"is_disabled":false,"rental_uris":{"android":"levelo://app?vid=25ec8185-324c-443d-b251-88f1f68be339","ios":"levelo://app?vid=25ec8185-324c-443d-b251-88f1f68be339"},"vehicle_type_id":"4","last_reported":1728580154,"current_range_meters":14400,"station_id":"ce4bhn92rcd13ifvqgrg","pricing_plan_id":"cebpf4jnsgd1na2vs0mg"},{"bike_id":"87028750-433d-4b53-8a2f-6e9378336727","system_id":"levelo_inurba_marseille","lat":43.32366,"lon":5.38881,"is_reserved":false,"is_disabled":false,"rental_uris":{"android":"levelo://app?vid=87028750-433d-4b53-8a2f-6e9378336727","ios":"levelo://app?vid=87028750-433d-4b53-8a2f-6e9378336727"},"vehicle_type_id":"4","last_reported":1728580154,"current_range_meters":8400,"station_id":"ce4bhqp2rcd13ifvqhog","pricing_plan_id":"cebpf4jnsgd1na2vs0mg"},{"bike_id":"57a7260e-253e-4799-93f0-473964000a02","system_id":"levelo_inurba_marseille","lat":43.24381,"lon":5.37057,"is_reserved":false,"is_disabled":false,"rental_uris":{"android":"levelo://app?vid=57a7260e-253e-4799-93f0-473964000a02","ios":"levelo://app?vid=57a7260e-253e-4799-93f0-473964000a02"},"vehicle_type_id":"4","last_reported":1728580154,"current_range_meters":38000,"station_id":"ce4bhhh2rcd13ifvqfk0","pricing_plan_id":"cebpf4jnsgd1na2vs0mg"},{"bike_id":"9a83ca1e-32b8-4f82-bc4f-313abdce749c","system_id":"levelo_inurba_marseille","lat":43.29416,"lon":5.38629,"is_reserved":false,"is_disabled":false,"rental_uris":{"android":"levelo://app?vid=9a83ca1e-32b8-4f82-bc4f-313abdce749c","ios":"levelo://app?vid=9a83ca1e-32b8-4f82-bc4f-313abdce749c"},"vehicle_type_id":"4","last_reported":1728580154,"current_range_meters":24800,"station_id":"ce4bh2h2rcd13ifvqdh0","pricing_plan_id":"cebpf4jnsgd1na2vs0mg"},{"bike_id":"b273501f-c160-462a-89c1-bd9ae6d14084","system_id":"levelo_inurba_marseille","lat":43.300915,"lon":5.390883,"is_reserved":false,"is_disabled":false,"rental_uris":{"android":"levelo://app?vid=b273501f-c160-462a-89c1-bd9ae6d14084","ios":"levelo://app?vid=b273501f-c160-462a-89c1-bd9ae6d14084"},"vehicle_type_id":"4","last_reported":1728580154,"current_range_meters":12000,"station_id":"ce4bh192rcd13ifvqdb0","pricing_plan_id":"cebpf4jnsgd1na2vs0mg"},{"bike_id":"246a6f87-01e0-4f2c-9acd-c3034105cb73","system_id":"levelo_inurba_marseille","lat":43.25094,"lon":5.39517,"is_reserved":false,"is_disabled":false,"rental_uris":{"android":"levelo://app?vid=246a6f87-01e0-4f2c-9acd-c3034105cb73","ios":"levelo://app?vid=246a6f87-01e0-4f2c-9acd-c3034105cb73"},"vehicle_type_id":"4","last_reported":1728580154,"current_range_meters":32000,"station_id":"ce4bhm12rcd13ifvqgkg","pricing_plan_id":"cebpf4jnsgd1na2vs0mg"},{"bike_id":"10caf173-53b5-4e5b-bdc6-c382f4d64426","system_id":"levelo_inurba_marseille","lat":43.27614,"lon":5.36124,"is_reserved":false,"is_disabled":false,"rental_uris":{"android":"levelo://app?vid=10caf173-53b5-4e5b-bdc6-c382f4d64426","ios":"levelo://app?vid=10caf173-53b5-4e5b-bdc6-c382f4d64426"},"vehicle_type_id":"4","last_reported":1728580154,"current_range_meters":17600,"station_id":"ce4bgj92rcd13ifvqbe0","pricing_plan_id":"cebpf4jnsgd1na2vs0mg"},{"bike_id":"766c2104-6b0d-47d7-a750-4085c903d3cc","system_id":"levelo_inurba_marseille","lat":43.31166,"lon":5.38719,"is_reserved":false,"is_disabled":false,"rental_uris":{"android":"levelo://app?vid=766c2104-6b0d-47d7-a750-4085c903d3cc","ios":"levelo://app?vid=766c2104-6b0d-47d7-a750-4085c903d3cc"},"vehicle_type_id":"4","last_reported":1728580154,"current_range_meters":18800,"station_id":"ce4bgv12rcd13ifvqcp0","pricing_plan_id":"cebpf4jnsgd1na2vs0mg"},{"bike_id":"5751890b-4197-4d5a-9a3b-66cc76cbb35e","system_id":"levelo_inurba_marseille","lat":43.2835,"lon":5.38109,"is_reserved":false,"is_disabled":false,"rental_uris":{"android":"levelo://app?vid=5751890b-4197-4d5a-9a3b-66cc76cbb35e","ios":"levelo://app?vid=5751890b-4197-4d5a-9a3b-66cc76cbb35e"},"vehicle_type_id":"4","last_reported":1728580154,"current_range_meters":4000,"station_id":"ce4bh412rcd13ifvqdr0","pricing_plan_id":"cebpf4jnsgd1na2vs0mg"},{"bike_id":"ae4236c3-24c3-4c1d-ab4a-5a600bfc2d3f","system_id":"levelo_inurba_marseille","lat":43.23195,"lon":5.35547,"is_reserved":false,"is_disabled":false,"rental_uris":{"android":"levelo://app?vid=ae4236c3-24c3-4c1d-ab4a-5a600bfc2d3f","ios":"levelo://app?vid=ae4236c3-24c3-4c1d-ab4a-5a600bfc2d3f"},"vehicle_type_id":"4","last_reported":1728580154,"current_range_meters":12400,"station_id":"ce4bhu92rcd13ifvqi70","pricing_plan_id":"cebpf4jnsgd1na2vs0mg"},{"bike_id":"c00810ec-e6d3-4f37-950d-8688845b36a9","system_id":"levelo_inurba_marseille","lat":43.29967,"lon":5.38486,"is_reserved":false,"is_disabled":false,"rental_uris":{"android":"levelo://app?vid=c00810ec-e6d3-4f37-950d-8688845b36a9","ios":"levelo://app?vid=c00810ec-e6d3-4f37-950d-8688845b36a9"},"vehicle_type_id":"4","last_reported":1728580154,"current_range_meters":35200,"station_id":"ce4bgj92rcd13ifvqbd0","pricing_plan_id":"cebpf4jnsgd1na2vs0mg"},{"bike_id":"c2bb676e-4bf5-4e60-b775-b1c00ba293a1","system_id":"levelo_inurba_marseille","lat":43.31217,"lon":5.36863,"is_reserved":false,"is_disabled":false,"rental_uris":{"android":"levelo://app?vid=c2bb676e-4bf5-4e60-b775-b1c00ba293a1","ios":"levelo://app?vid=c2bb676e-4bf5-4e60-b775-b1c00ba293a1"},"vehicle_type_id":"4","last_reported":1728580154,"current_range_meters":21600,"station_id":"ce4bgl92rcd13ifvqbq0","pricing_plan_id":"cebpf4jnsgd1na2vs0mg"},{"bike_id":"b7cb2edb-1fe2-445a-a073-f5132866bef0","system_id":"levelo_inurba_marseille","lat":43.32365,"lon":5.3889,"is_reserved":false,"is_disabled":false,"rental_uris":{"android":"levelo://app?vid=b7cb2edb-1fe2-445a-a073-f5132866bef0","ios":"levelo://app?vid=b7cb2edb-1fe2-445a-a073-f5132866bef0"},"vehicle_type_id":"4","last_reported":1728580154,"current_range_meters":32800,"station_id":"ce4bhqp2rcd13ifvqhog","pricing_plan_id":"cebpf4jnsgd1na2vs0mg"},{"bike_id":"488b25b2-717e-4648-a0bb-0b8d66caade9","system_id":"levelo_inurba_marseille","lat":43.28697,"lon":5.37382,"is_reserved":false,"is_disabled":false,"rental_uris":{"android":"levelo://app?vid=488b25b2-717e-4648-a0bb-0b8d66caade9","ios":"levelo://app?vid=488b25b2-717e-4648-a0bb-0b8d66caade9"},"vehicle_type_id":"4","last_reported":1728580154,"current_range_meters":24800,"station_id":"ce4bh3p2rcd13ifvqdq0","pricing_plan_id":"cebpf4jnsgd1na2vs0mg"},{"bike_id":"4552120b-8793-452b-b29f-0630ece5334f","system_id":"levelo_inurba_marseille","lat":43.30165,"lon":5.40048,"is_reserved":false,"is_disabled":false,"rental_uris":{"android":"levelo://app?vid=4552120b-8793-452b-b29f-0630ece5334f","ios":"levelo://app?vid=4552120b-8793-452b-b29f-0630ece5334f"},"vehicle_type_id":"4","last_reported":1728580154,"current_range_meters":8000,"station_id":"","pricing_plan_id":"cebpf4jnsgd1na2vs0mg"},{"bike_id":"5758513c-b61a-47c2-b67b-4204afd8586e","system_id":"levelo_inurba_marseille","lat":43.29304,"lon":5.37177,"is_reserved":false,"is_disabled":false,"rental_uris":{"android":"levelo://app?vid=5758513c-b61a-47c2-b67b-4204afd8586e","ios":"levelo://app?vid=5758513c-b61a-47c2-b67b-4204afd8586e"},"vehicle_type_id":"4","last_reported":1728580154,"current_range_meters":8000,"station_id":"ce4bgh92rcd13ifvqb40","pricing_plan_id":"cebpf4jnsgd1na2vs0mg"},{"bike_id":"cab18f49-b19c-4c22-b1a0-bb79880de0cc","system_id":"levelo_inurba_marseille","lat":43.295808,"lon":5.375101,"is_reserved":false,"is_disabled":false,"rental_uris":{"android":"levelo://app?vid=cab18f49-b19c-4c22-b1a0-bb79880de0cc","ios":"levelo://app?vid=cab18f49-b19c-4c22-b1a0-bb79880de0cc"},"vehicle_type_id":"4","last_reported":1728580154,"current_range_meters":16400,"station_id":"ce4bgh92rcd13ifvqb50","pricing_plan_id":"cebpf4jnsgd1na2vs0mg"},{"bike_id":"a77d40a5-1ec2-45b1-a012-ed9c5234a490","system_id":"levelo_inurba_marseille","lat":43.30636,"lon":5.40097,"is_reserved":false,"is_disabled":false,"rental_uris":{"android":"levelo://app?vid=a77d40a5-1ec2-45b1-a012-ed9c5234a490","ios":"levelo://app?vid=a77d40a5-1ec2-45b1-a012-ed9c5234a490"},"vehicle_type_id":"4","last_reported":1728580154,"current_range_meters":12400,"station_id":"ce4bh112rcd13ifvqda0","pricing_plan_id":"cebpf4jnsgd1na2vs0mg"},{"bike_id":"3b41d82c-0c00-4254-bf6a-a1ed89271d73","system_id":"levelo_inurba_marseille","lat":43.31755,"lon":5.39019,"is_reserved":false,"is_disabled":false,"rental_uris":{"android":"levelo://app?vid=3b41d82c-0c00-4254-bf6a-a1ed89271d73","ios":"levelo://app?vid=3b41d82c-0c00-4254-bf6a-a1ed89271d73"},"vehicle_type_id":"4","last_reported":1728580154,"current_range_meters":12800,"station_id":"ce4bhqp2rcd13ifvqhng","pricing_plan_id":"cebpf4jnsgd1na2vs0mg"},{"bike_id":"efa6c51e-3ec5-4744-b876-e79964c1814e","system_id":"levelo_inurba_marseille","lat":43.23197,"lon":5.35549,"is_reserved":false,"is_disabled":false,"rental_uris":{"android":"levelo://app?vid=efa6c51e-3ec5-4744-b876-e79964c1814e","ios":"levelo://app?vid=efa6c51e-3ec5-4744-b876-e79964c1814e"},"vehicle_type_id":"4","last_reported":1728580154,"current_range_meters":32800,"station_id":"ce4bhu92rcd13ifvqi70","pricing_plan_id":"cebpf4jnsgd1na2vs0mg"},{"bike_id":"5d78dbd1-28b9-41de-bd90-7b846f5101a0","system_id":"levelo_inurba_marseille","lat":43.33025,"lon":5.39048,"is_reserved":false,"is_disabled":false,"rental_uris":{"android":"levelo://app?vid=5d78dbd1-28b9-41de-bd90-7b846f5101a0","ios":"levelo://app?vid=5d78dbd1-28b9-41de-bd90-7b846f5101a0"},"vehicle_type_id":"4","last_reported":1728580154,"current_range_meters":24800,"station_id":"ce4bhr92rcd13ifvqhrg","pricing_plan_id":"cebpf4jnsgd1na2vs0mg"},{"bike_id":"892ad486-d1cb-4487-b689-00df478f3b97","system_id":"levelo_inurba_marseille","lat":43.29035,"lon":5.37559,"is_reserved":false,"is_disabled":false,"rental_uris":{"android":"levelo://app?vid=892ad486-d1cb-4487-b689-00df478f3b97","ios":"levelo://app?vid=892ad486-d1cb-4487-b689-00df478f3b97"},"vehicle_type_id":"4","last_reported":1728580154,"current_range_meters":37600,"station_id":"ce4bh692rcd13ifvqe90","pricing_plan_id":"cebpf4jnsgd1na2vs0mg"},{"bike_id":"1036a18f-f8d4-4e8b-9932-b75402fa714c","system_id":"levelo_inurba_marseille","lat":43.32288,"lon":5.38266,"is_reserved":false,"is_disabled":false,"rental_uris":{"android":"levelo://app?vid=1036a18f-f8d4-4e8b-9932-b75402fa714c","ios":"levelo://app?vid=1036a18f-f8d4-4e8b-9932-b75402fa714c"},"vehicle_type_id":"4","last_reported":1728580154,"current_range_meters":5600,"station_id":"ce4bhr12rcd13ifvqhqg","pricing_plan_id":"cebpf4jnsgd1na2vs0mg"},