{"last_updated":1723227059,"ttl":30,"version":"2.2","data":{"bikes":[{"bike_id":"03092f8b-42a7-4cd6-a312-555cdd093710","system_id":"levelo_inurba_marseille","lat":43.309076,"lon":5.368465,"is_reserved":false,"is_disabled":false,"rental_uris":{"android":"levelo://app?vid=03092f8b-42a7-4cd6-a312-555cdd093710","ios":"levelo://app?vid=03092f8b-42a7-4cd6-a312-555cdd093710"},"vehicle_type_id":"4","last_reported":1723227059,"current_range_meters":4800,"station_id":"ce4bgn92rcd13ifvqbvg","pricing_plan_id":"cebpf4jnsgd1na2vs0mg"},{"bike_id":"dceb7393-da0f-449c-abe1-ce72972c64b4","system_id":"levelo_inurba_marseille","lat":43.315686,"lon":5.372364,"is_reserved":false,"is_disabled":false,"rental_uris":{"android":"levelo://app?vid=dceb7393-da0f-449c-abe1-ce72972c64b4","ios":"levelo://app?vid=dceb7393-da0f-449c-abe1-ce72972c64b4"},"vehicle_type_id":"4","last_reported":1723227059,"current_range_meters":14800,"station_id":"","pricing_plan_id":"cebpf4jnsgd1na2vs0mg"},{"bike_id":"62a50421-5109-4ed6-ada0-ad807841b65d","system_id":"levelo_inurba_marseille","lat":43.305706,"lon":5.365654,"is_reserved":false,"is_disabled":false,"rental_uris":{"android":"levelo://app?vid=62a50421-5109-4ed6-ada0-ad807841b65d","ios":"levelo://app?vid=62a50421-5109-4ed6-ada0-ad807841b65d"},"vehicle_type_id":"4","last_reported":1723227059,"current_range_meters":0,"station_id":"ce4bgs12rcd13ifvqcag","pricing_plan_id":"cebpf4jnsgd1na2vs0mg"},{"bike_id":"170b6a13-92c5-4a48-8203-55e62276a551","system_id":"levelo_inurba_marseille","lat":43.3112,"lon":5.3776,"is_reserved":false,"is_disabled":false,"rental_uris":{"android":"levelo://app?vid=170b6a13-92c5-4a48-8203-55e62276a551","ios":"levelo://app?vid=170b6a13-92c5-4a48-8203-55e62276a551"},"vehicle_type_id":"4","last_reported":1723227059,"current_range_meters":6800,"station_id":"ce4bgt92rcd13ifvqcg0","pricing_plan_id":"cebpf4jnsgd1na2vs0mg"},{"bike_id":"ae333153-9d1f-4be8-ad0a-ca0c0e4e5e29","system_id":"levelo_inurba_marseille","lat":43.311125,"lon":5.377624,"is_reserved":false,"is_disabled":false,"rental_uris":{"android":"levelo://app?vid=ae333153-9d1f-4be8-ad0a-ca0c0e4e5e29","ios":"levelo://app?vid=ae333153-9d1f-4be8-ad0a-ca0c0e4e5e29"},"vehicle_type_id":"4","last_reported":1723227059,"current_range_meters":3600,"station_id":"ce4bgt92rcd13ifvqcg0","pricing_plan_id":"cebpf4jnsgd1na2vs0mg"},{"bike_id":"7f315160-1d64-4bc7-9783-954928d90999","system_id":"levelo_inurba_marseille","lat":43.31522,"lon":5.38026,"is_reserved":false,"is_disabled":false,"rental_uris":{"android":"levelo://app?vid=7f315160-1d64-4bc7-9783-954928d90999","ios":"levelo://app?vid=7f315160-1d64-4bc7-9783-954928d90999"},"vehicle_type_id":"4","last_reported":1723227059,"current_range_meters":16400,"station_id":"","pricing_plan_id":"cebpf4jnsgd1na2vs0mg"},{"bike_id":"3b9a2c21-d7e6-40c5-85d9-633e7243c824","system_id":"levelo_inurba_marseille","lat":43.315289,"lon":5.380349,"is_reserved":false,"is_disabled":false,"rental_uris":{"android":"levelo://app?vid=3b9a2c21-d7e6-40c5-85d9-633e7243c824","ios":"levelo://app?vid=3b9a2c21-d7e6-40c5-85d9-633e7243c824"},"vehicle_type_id":"4","last_reported":1723227059,"current_range_meters":16800,"station_id":"ce4bhsp2rcd13ifvqi50","pricing_plan_id":"cebpf4jnsgd1na2vs0mg"},{"bike_id":"09dd09d7-2641-48cc-babf-bff6f9018875","system_id":"levelo_inurba_marseille","lat":43.3078,"lon":5.3796,"is_reserved":false,"is_disabled":false,"rental_uris":{"android":"levelo://app?vid=09dd09d7-2641-48cc-babf-bff6f9018875","ios":"levelo://app?vid=09dd09d7-2641-48cc-babf-bff6f9018875"},"vehicle_type_id":"4","last_reported":1723227059,"current_range_meters":0,"station_id":"","pricing_plan_id":"cebpf4jnsgd1na2vs0mg"},{"bike_id":"192bc778-be1f-402d-b1df-16d7172e5519","system_id":"levelo_inurba_marseille","lat":43.31359,"lon":5.38283,"is_reserved":false,"is_disabled":false,"rental_uris":{"android":"levelo://app?vid=192bc778-be1f-402d-b1df-16d7172e5519","ios":"levelo://app?vid=192bc778-be1f-402d-b1df-16d7172e5519"},"vehicle_type_id":"4","last_reported":1723227059,"current_range_meters":4400,"station_id":"","pricing_plan_id":"cebpf4jnsgd1na2vs0mg"},{"bike_id":"ecb5d65b-96d2-4a27-bada-c16349eaca44","system_id":"levelo_inurba_marseille","lat":43.324771,"lon":5.36557,"is_reserved":false,"is_disabled":false,"rental_uris":{"android":"levelo://app?vid=ecb5d65b-96d2-4a27-bada-c16349eaca44","ios":"levelo://app?vid=ecb5d65b-96d2-4a27-bada-c16349eaca44"},"vehicle_type_id":"4","last_reported":1723227059,"current_range_meters":20800,"station_id":"ce4bhs12rcd13ifvqhvg","pricing_plan_id":"cebpf4jnsgd1na2vs0mg"},{"bike_id":"9f0a2de4-f063-4d17-9db4-493b177723e8","system_id":"levelo_inurba_marseille","lat":43.32481,"lon":5.36574,"is_reserved":false,"is_disabled":false,"rental_uris":{"android":"levelo://app?vid=9f0a2de4-f063-4d17-9db4-493b177723e8","ios":"levelo://app?vid=9f0a2de4-f063-4d17-9db4-493b177723e8"},"vehicle_type_id":"4","last_reported":1723227059,"current_range_meters":11200,"station_id":"ce4bhs12rcd13ifvqhvg","pricing_plan_id":"cebpf4jnsgd1na2vs0mg"},{"bike_id":"0c317e7c-e1dc-46cb-a1d8-77a8a3416bd0","system_id":"levelo_inurba_marseille","lat":43.310804,"lon":5.38359,"is_reserved":false,"is_disabled":false,"rental_uris":{"android":"levelo://app?vid=0c317e7c-e1dc-46cb-a1d8-77a8a3416bd0","ios":"levelo://app?vid=0c317e7c-e1dc-46cb-a1d8-77a8a3416bd0"},"vehicle_type_id":"4","last_reported":1723227059,"current_range_meters":4800,"station_id":"ce4bgv92rcd13ifvqcr0","pricing_plan_id":"cebpf4jnsgd1na2vs0mg"},{"bike_id":"83fbbb6b-3a8c-417a-8c19-c65171c32133","system_id":"levelo_inurba_marseille","lat":43.310804,"lon":5.38359,"is_reserved":false,"is_disabled":false,"rental_uris":{"android":"levelo://app?vid=83fbbb6b-3a8c-417a-8c19-c65171c32133","ios":"levelo://app?vid=83fbbb6b-3a8c-417a-8c19-c65171c32133"},"vehicle_type_id":"4","last_reported":1723227059,"current_range_meters":0,"station_id":"ce4bgv92rcd13ifvqcr0","pricing_plan_id":"cebpf4jnsgd1na2vs0mg"},{"bike_id":"4764cba4-0d66-467d-8f55-d44f1d182a4f","system_id":"levelo_inurba_marseille","lat":43.310804,"lon":5.38359,"is_reserved":false,"is_disabled":false,"rental_uris":{"android":"levelo://app?vid=4764cba4-0d66-467d-8f55-d44f1d182a4f","ios":"levelo://app?vid=4764cba4-0d66-467d-8f55-d44f1d182a4f"},"vehicle_type_id":"4","last_reported":1723227059,"current_range_meters":0,"station_id":"ce4bgv92rcd13ifvqcr0","pricing_plan_id":"cebpf4jnsgd1na2vs0mg"},{"bike_id":"a3ead3dd-f7a5-4742-9e1a-b92a723511ae","system_id":"levelo_inurba_marseille","lat":43.31995,"lon":5.38144,"is_reserved":false,"is_disabled":false,"rental_uris":{"android":"levelo://app?vid=a3ead3dd-f7a5-4742-9e1a-b92a723511ae","ios":"levelo://app?vid=a3ead3dd-f7a5-4742-9e1a-b92a723511ae"},"vehicle_type_id":"4","last_reported":1723227059,"current_range_meters":23200,"station_id":"ce4bhr12rcd13ifvqhpg","pricing_plan_id":"cebpf4jnsgd1na2vs0mg"},{"bike_id":"c03c1bdc-ce77-42c0-86ff-214c83e89b22","system_id":"levelo_inurba_marseille","lat":43.313571,"lon":5.384829,"is_reserved":false,"is_disabled":false,"rental_uris":{"android":"levelo://app?vid=c03c1bdc-ce77-42c0-86ff-214c83e89b22","ios":"levelo://app?vid=c03c1bdc-ce77-42c0-86ff-214c83e89b22"},"vehicle_type_id":"4","last_reported":1723227059,"current_range_meters":30800,"station_id":"ce4bgt92rcd13ifvqcf0","pricing_plan_id":"cebpf4jnsgd1na2vs0mg"},{"bike_id":"07572109-b13e-4868-9dc1-95e269dff50d","system_id":"levelo_inurba_marseille","lat":43.313571,"lon":5.384829,"is_reserved":false,"is_disabled":false,"rental_uris":{"android":"levelo://app?vid=07572109-b13e-4868-9dc1-95e269dff50d","ios":"levelo://app?vid=07572109-b13e-4868-9dc1-95e269dff50d"},"vehicle_type_id":"4","last_reported":1723227059,"current_range_meters":0,"station_id":"ce4bgt92rcd13ifvqcf0","pricing_plan_id":"cebpf4jnsgd1na2vs0mg"},{"bike_id":"af7244ea-aab5-4d88-b56e-f36581a6e8a4","system_id":"levelo_inurba_marseille","lat":43.313571,"lon":5.384829,"is_reserved":false,"is_disabled":false,"rental_uris":{"android":"levelo://app?vid=af7244ea-aab5-4d88-b56e-f36581a6e8a4","ios":"levelo://app?vid=af7244ea-aab5-4d88-b56e-f36581a6e8a4"},"vehicle_type_id":"4","last_reported":1723227059,"current_range_meters":800,"station_id":"ce4bgt92rcd13ifvqcf0","pricing_plan_id":"cebpf4jnsgd1na2vs0mg"},{"bike_id":"b378ad64-dbf8-4b95-b8be-0199076ea551","system_id":"levelo_inurba_marseille","lat":43.313571,"lon":5.384829,"is_reserved":false,"is_disabled":false,"rental_uris":{"android":"levelo://app?vid=b378ad64-dbf8-4b95-b8be-0199076ea551","ios":"levelo://app?vid=b378ad64-dbf8-4b95-b8be-0199076ea551"},"vehicle_type_id":"4","last_reported":1723227059,"current_range_meters":1200,"station_id":"ce4bgt92rcd13ifvqcf0","pricing_plan_id":"cebpf4jnsgd1na2vs0mg"},{"bike_id":"a9ec5a65-018a-45b1-91b8-a34f441b29dc","system_id":"levelo_inurba_marseille","lat":43.313571,"lon":5.384829,"is_reserved":false,"is_disabled":false,"rental_uris":{"android":"levelo://app?vid=a9ec5a65-018a-45b1-91b8-a34f441b29dc","ios":"levelo://app?vid=a9ec5a65-018a-45b1-91b8-a34f441b29dc"},"vehicle_type_id":"4","last_reported":1723227059,"current_range_meters":22800,"station_id":"ce4bgt92rcd13ifvqcf0","pricing_plan_id":"cebpf4jnsgd1na2vs0mg"},{"bike_id":"6e3c4f74-a986-44fc-851b-87d39451fe44","system_id":"levelo_inurba_marseille","lat":43.313571,"lon":5.384829,"is_reserved":false,"is_disabled":false,"rental_uris":{"android":"levelo://app?vid=6e3c4f74-a986-44fc-851b-87d39451fe44","ios":"levelo://app?vid=6e3c4f74-a986-44fc-851b-87d39451fe44"},"vehicle_type_id":"4","last_reported":1723227059,"current_range_meters":17600,"station_id":"ce4bgt92rcd13ifvqcf0","pricing_plan_id":"cebpf4jnsgd1na2vs0mg"},{"bike_id":"07a46a38-d598-4265-8b72-436c243b034b","system_id":"levelo_inurba_marseille","lat":43.313571,"lon":5.384829,"is_reserved":false,"is_disabled":false,"rental_uris":{"android":"levelo://app?vid=07a46a38-d598-4265-8b72-436c243b034b","ios":"levelo://app?vid=07a46a38-d598-4265-8b72-436c243b034b"},"vehicle_type_id":"4","last_reported":1723227059,"current_range_meters":0,"station_id":"ce4bgt92rcd13ifvqcf0","pricing_plan_id":"cebpf4jnsgd1na2vs0mg"},{"bike_id":"6346901d-2e78-445f-a84f-ecffcf09db72","system_id":"levelo_inurba_marseille","lat":43.313571,"lon":5.384829,"is_reserved":false,"is_disabled":false,"rental_uris":{"android":"levelo://app?vid=6346901d-2e78-445f-a84f-ecffcf09db72","ios":"levelo://app?vid=6346901d-2e78-445f-a84f-ecffcf09db72"},"vehicle_type_id":"4","last_reported":1723227059,"current_range_meters":21600,"station_id":"ce4bgt92rcd13ifvqcf0","pricing_plan_id":"cebpf4jnsgd1na2vs0mg"},{"bike_id":"997e15e2-9ff3-480a-bc66-b31ca5cac624","system_id":"levelo_inurba_marseille","lat":43.299724,"lon":5.371829,"is_reserved":false,"is_disabled":false,"rental_uris":{"android":"levelo://app?vid=997e15e2-9ff3-480a-bc66-b31ca5cac624","ios":"levelo://app?vid=997e15e2-9ff3-480a-bc66-b31ca5cac624"},"vehicle_type_id":"4","last_reported":1723227059,"current_range_meters":6400,"station_id":"ce4bgr92rcd13ifvqc7g","pricing_plan_id":"cebpf4jnsgd1na2vs0mg"},{"bike_id":"6fa174a3-5714-492f-a57e-946cef8ac75e","system_id":"levelo_inurba_marseille","lat":43.299222,"lon":5.365554,"is_reserved":false,"is_disabled":false,"rental_uris":{"android":"levelo://app?vid=6fa174a3-5714-492f-a57e-946cef8ac75e","ios":"levelo://app?vid=6fa174a3-5714-492f-a57e-946cef8ac75e"},"vehicle_type_id":"4","last_reported":1723227059,"current_range_meters":4800,"station_id":"ce4bgm92rcd13ifvqbr0","pricing_plan_id":"cebpf4jnsgd1na2vs0mg"},{"bike_id":"3bf09cf5-2939-43a6-8a1f-419aa717197c","system_id":"levelo_inurba_marseille","lat":43.305364,"lon":5.384119,"is_reserved":false,"is_disabled":false,"rental_uris":{"android":"levelo://app?vid=3bf09cf5-2939-43a6-8a1f-419aa717197c","ios":"levelo://app?vid=3bf09cf5-2939-43a6-8a1f-419aa717197c"},"vehicle_type_id":"4","last_reported":1723227059,"current_range_meters":17200,"station_id":"ce4bgg92rcd13ifvqb30","pricing_plan_id":"cebpf4jnsgd1na2vs0mg"},{"bike_id":"4c81c379-11c6-4e3e-a972-0816735e5580","system_id":"levelo_inurba_marseille","lat":43.305364,"lon":5.384119,"is_reserved":false,"is_disabled":false,"rental_uris":{"android":"levelo://app?vid=4c81c379-11c6-4e3e-a972-0816735e5580","ios":"levelo://app?vid=4c81c379-11c6-4e3e-a972-0816735e5580"},"vehicle_type_id":"4","last_reported":1723227059,"current_range_meters":13600,"station_id":"ce4bgg92rcd13ifvqb30","pricing_plan_id":"cebpf4jnsgd1na2vs0mg"},{"bike_id":"cc118686-2555-4b1f-b4c6-6581d758f106","system_id":"levelo_inurba_marseille","lat":43.29847,"lon":5.36312,"is_reserved":false,"is_disabled":false,"rental_uris":{"android":"levelo://app?vid=cc118686-2555-4b1f-b4c6-6581d758f106","ios":"levelo://app?vid=cc118686-2555-4b1f-b4c6-6581d758f106"},"vehicle_type_id":"4","last_reported":1723227059,"current_range_meters":23200,"station_id":"ce4bgpp2rcd13ifvqc3g","pricing_plan_id":"cebpf4jnsgd1na2vs0mg"},{"bike_id":"69b04794-0609-49e8-95f0-131beacb8745","system_id":"levelo_inurba_marseille","lat":43.311722,"lon":5.387247,"is_reserved":false,"is_disabled":false,"rental_uris":{"android":"levelo://app?vid=69b04794-0609-49e8-95f0-131beacb8745","ios":"levelo://app?vid=69b04794-0609-49e8-95f0-131beacb8745"},"vehicle_type_id":"4","last_reported":1723227059,"current_range_meters":12400,"station_id":"ce4bgv12rcd13ifvqcp0","pricing_plan_id":"cebpf4jnsgd1na2vs0mg"},{"bike_id":"763c03de-1714-4072-a393-3a20b0f51665","system_id":"levelo_inurba_marseille","lat":43.29911,"lon":5.37476,"is_reserved":false,"is_disabled":false,"rental_uris":{"android":"levelo://app?vid=763c03de-1714-4072-a393-3a20b0f51665","ios":"levelo://app?vid=763c03de-1714-4072-a393-3a20b0f51665"},"vehicle_type_id":"4","last_reported":1723227059,"current_range_meters":0,"station_id":"ce4bgjh2rcd13ifvqbg0","pricing_plan_id":"cebpf4jnsgd1na2vs0mg"},{"bike_id":"02cca565-9ac6-4993-8268-40037430fa1e","system_id":"levelo_inurba_marseille","lat":43.299243,"lon":5.37481,"is_reserved":false,"is_disabled":false,"rental_uris":{"android":"levelo://app?vid=02cca565-9ac6-4993-8268-40037430fa1e","ios":"levelo://app?vid=02cca565-9ac6-4993-8268-40037430fa1e"},"vehicle_type_id":"4","last_reported":1723227059,"current_range_meters":23200,"station_id":"ce4bgjh2rcd13ifvqbg0","pricing_plan_id":"cebpf4jnsgd1na2vs0mg"},{"bike_id":"3057b30f-e9d7-4746-8bdd-2936453473df","system_id":"levelo_inurba_marseille","lat":43.31163,"lon":5.3872,"is_reserved":false,"is_disabled":false,"rental_uris":{"android":"levelo://app?vid=3057b30f-e9d7-4746-8bdd-2936453473df","ios":"levelo://app?vid=3057b30f-e9d7-4746-8bdd-2936453473df"},"vehicle_type_id":"4","last_reported":1723227059,"current_range_meters":0,"station_id":"ce4bgv12rcd13ifvqcp0","pricing_plan_id":"cebpf4jnsgd1na2vs0mg"},{"bike_id":"21a26211-3dde-4560-b124-ce7f7bfe5a3d","system_id":"levelo_inurba_marseille","lat":43.297774,"lon":5.370875,"is_reserved":false,"is_disabled":false,"rental_uris":{"android":"levelo://app?vid=21a26211-3dde-4560-b124-ce7f7bfe5a3d","ios":"levelo://app?vid=21a26211-3dde-4560-b124-ce7f7bfe5a3d"},"vehicle_type_id":"4","last_reported":1723227059,"current_range_meters":18800,"station_id":"ce4bgop2rcd13ifvqc1g","pricing_plan_id":"cebpf4jnsgd1na2vs0mg"},{"bike_id":"153a2961-888a-4020-a87f-bf84ec96f776","system_id":"levelo_inurba_marseille","lat":43.322872,"lon":5.382756,"is_reserved":false,"is_disabled":false,"rental_uris":{"android":"levelo://app?vid=153a2961-888a-4020-a87f-bf84ec96f776","ios":"levelo://app?vid=153a2961-888a-4020-a87f-bf84ec96f776"},"vehicle_type_id":"4","last_reported":1723227059,"current_range_meters":0,"station_id":"ce4bhr12rcd13ifvqhqg","pricing_plan_id":"cebpf4jnsgd1na2vs0mg"},{"bike_id":"216240ef-238f-48ba-bd26-5d1c9cf540df","system_id":"levelo_inurba_marseille","lat":43.31456,"lon":5.38784,"is_reserved":false,"is_disabled":false,"rental_uris":{"android":"levelo://app?vid=216240ef-238f-48ba-bd26-5d1c9cf540df","ios":"levelo://app?vid=216240ef-238f-48ba-bd26-5d1c9cf540df"},"vehicle_type_id":"4","last_reported":1723227059,"current_range_meters":3600,"station_id":"","pricing_plan_id":"cebpf4jnsgd1na2vs0mg"},{"bike_id":"80ea242c-3de9-4688-b8e3-a2a419f69dbd","system_id":"levelo_inurba_marseille","lat":43.297163,"lon":5.365866,"is_reserved":false,"is_disabled":false,"rental_uris":{"android":"levelo://app?vid=80ea242c-3de9-4688-b8e3-a2a419f69dbd","ios":"levelo://app?vid=80ea242c-3de9-4688-b8e3-a2a419f69dbd"},"vehicle_type_id":"4","last_reported":1723227059,"current_range_meters":9600,"station_id":"ce4bgn12rcd13ifvqbt0","pricing_plan_id":"cebpf4jnsgd1na2vs0mg"},{"bike_id":"faf6aee9-6ae4-4829-9940-587a1cf80010","system_id":"levelo_inurba_marseille","lat":43.297163,"lon":5.365866,"is_reserved":false,"is_disabled":false,"rental_uris":{"android":"levelo://app?vid=faf6aee9-6ae4-4829-9940-587a1cf80010","ios":"levelo://app?vid=faf6aee9-6ae4-4829-9940-587a1cf80010"},"vehicle_type_id":"4","last_reported":1723227059,"current_range_meters":1600,"station_id":"ce4bgn12rcd13ifvqbt0","pricing_plan_id":"cebpf4jnsgd1na2vs0mg"},{"bike_id":"cdafa527-e40b-4cb9-9a31-bf948c26d6bd","system_id":"levelo_inurba_marseille","lat":43.2971,"lon":5.36608,"is_reserved":false,"is_disabled":false,"rental_uris":{"android":"levelo://app?vid=cdafa527-e40b-4cb9-9a31-bf948c26d6bd","ios":"levelo://app?vid=cdafa527-e40b-4cb9-9a31-bf948c26d6bd"},"vehicle_type_id":"4","last_reported":1723227059,"current_range_meters":0,"station_id":"ce4bgn12rcd13ifvqbt0","pricing_plan_id":"cebpf4jnsgd1na2vs0mg"},{"bike_id":"50ab5eca-bbdc-457e-be66-dbec8e8010f0","system_id":"levelo_inurba_marseille","lat":43.297163,"lon":5.365866,"is_reserved":false,"is_disabled":false,"rental_uris":{"android":"levelo://app?vid=50ab5eca-bbdc-457e-be66-dbec8e8010f0","ios":"levelo://app?vid=50ab5eca-bbdc-457e-be66-dbec8e8010f0"},"vehicle_type_id":"4","last_reported":1723227059,"current_range_meters":4800,"station_id":"ce4bgn12rcd13ifvqbt0","pricing_plan_id":"cebpf4jnsgd1na2vs0mg"},{"bike_id":"fdb54b35-ff8f-43a2-b566-c43f96afd14c","system_id":"levelo_inurba_marseille","lat":43.29706,"lon":5.36617,"is_reserved":false,"is_disabled":false,"rental_uris":{"android":"levelo://app?vid=fdb54b35-ff8f-43a2-b566-c43f96afd14c","ios":"levelo://app?vid=fdb54b35-ff8f-43a2-b566-c43f96afd14c"},"vehicle_type_id":"4","last_reported":1723227059,"current_range_meters":2800,"station_id":"ce4bgn12rcd13ifvqbt0","pricing_plan_id":"cebpf4jnsgd1na2vs0mg"},{"bike_id":"28ce5291-4aa7-41ca-ab5d-9134bf9ce3ab","system_id":"levelo_inurba_marseille","lat":43.297163,"lon":5.365866,"is_reserved":false,"is_disabled":false,"rental_uris":{"android":"levelo://app?vid=28ce5291-4aa7-41ca-ab5d-9134bf9ce3ab","ios":"levelo://app?vid=28ce5291-4aa7-41ca-ab5d-9134bf9ce3ab"},"vehicle_type_id":"4","last_reported":1723227059,"current_range_meters":22400,"station_id":"ce4bgn12rcd13ifvqbt0","pricing_plan_id":"cebpf4jnsgd1na2vs0mg"},{"bike_id":"11012dc1-8e81-4085-bdc8-15a9f90b6a47","system_id":"levelo_inurba_marseille","lat":43.297163,"lon":5.365866,"is_reserved":false,"is_disabled":false,"rental_uris":{"android":"levelo://app?vid=11012dc1-8e81-4085-bdc8-15a9f90b6a47","ios":"levelo://app?vid=11012dc1-8e81-4085-bdc8-15a9f90b6a47"},"vehicle_type_id":"4","last_reported":1723227059,"current_range_meters":4400,"station_id":"ce4bgn12rcd13ifvqbt0","pricing_plan_id":"cebpf4jnsgd1na2vs0mg"},{"bike_id":"764521a3-8f2e-4faa-94b8-42c4a198c83b","system_id":"levelo_inurba_marseille","lat":43.2968,"lon":5.37291,"is_reserved":false,"is_disabled":false,"rental_uris":{"android":"levelo://app?vid=764521a3-8f2e-4faa-94b8-42c4a198c83b","ios":"levelo://app?vid=764521a3-8f2e-4faa-94b8-42c4a198c83b"},"vehicle_type_id":"4","last_reported":1723227059,"current_range_meters":4800,"station_id":"ce4bgk12rcd13ifvqbj0","pricing_plan_id":"cebpf4jnsgd1na2vs0mg"},{"bike_id":"54f50745-c6eb-4d3a-9362-b9327c9f1bd4","system_id":"levelo_inurba_marseille","lat":43.296131,"lon":5.370791,"is_reserved":false,"is_disabled":false,"rental_uris":{"android":"levelo://app?vid=54f50745-c6eb-4d3a-9362-b9327c9f1bd4","ios":"levelo://app?vid=54f50745-c6eb-4d3a-9362-b9327c9f1bd4"},"vehicle_type_id":"4","last_reported":1723227059,"current_range_meters":7200,"station_id":"ce4bgnh2rcd13ifvqc0g","pricing_plan_id":"cebpf4jnsgd1na2vs0mg"},{"bike_id":"84e9a433-16f7-414c-b205-37505c501ae4","system_id":"levelo_inurba_marseille","lat":43.29573,"lon":5.367355,"is_reserved":false,"is_disabled":false,"rental_uris":{"android":"levelo://app?vid=84e9a433-16f7-414c-b205-37505c501ae4","ios":"levelo://app?vid=84e9a433-16f7-414c-b205-37505c501ae4"},"vehicle_type_id":"4","last_reported":1723227059,"current_range_meters":9600,"station_id":"ce4bgph2rcd13ifvqc2g","pricing_plan_id":"cebpf4jnsgd1na2vs0mg"},{"bike_id":"5e00abed-fc7a-4b74-b0cf-9db485ba82a0","system_id":"levelo_inurba_marseille","lat":43.299028,"lon":5.381509,"is_reserved":false,"is_disabled":false,"rental_uris":{"android":"levelo://app?vid=5e00abed-fc7a-4b74-b0cf-9db485ba82a0","ios":"levelo://app?vid=5e00abed-fc7a-4b74-b0cf-9db485ba82a0"},"vehicle_type_id":"4","last_reported":1723227059,"current_range_meters":22000,"station_id":"ce4bgj12rcd13ifvqbc0","pricing_plan_id":"cebpf4jnsgd1na2vs0mg"},{"bike_id":"c39b3bec-c34a-4d3e-9bba-19f06fe0cc35","system_id":"levelo_inurba_marseille","lat":43.299028,"lon":5.381509,"is_reserved":false,"is_disabled":false,"rental_uris":{"android":"levelo://app?vid=c39b3bec-c34a-4d3e-9bba-19f06fe0cc35","ios":"levelo://app?vid=c39b3bec-c34a-4d3e-9bba-19f06fe0cc35"},"vehicle_type_id":"4","last_reported":1723227059,"current_range_meters":0,"station_id":"ce4bgj12rcd13ifvqbc0","pricing_plan_id":"cebpf4jnsgd1na2vs0mg"},{"bike_id":"f826df34-ec19-4f47-90e0-7e3cbdd67efa","system_id":"levelo_inurba_marseille","lat":43.29907,"lon":5.38134,"is_reserved":false,"is_disabled":false,"rental_uris":{"android":"levelo://app?vid=f826df34-ec19-4f47-90e0-7e3cbdd67efa","ios":"levelo://app?vid=f826df34-ec19-4f47-90e0-7e3cbdd67efa"},"vehicle_type_id":"4","last_reported":1723227059,"current_range_meters":0,"station_id":"ce4bgj12rcd13ifvqbc0","pricing_plan_id":"cebpf4jnsgd1na2vs0mg"},{"bike_id":"63d2c164-be8d-47a5-a0f1-e7d708d58b32","system_id":"levelo_inurba_marseille","lat":43.3095,"lon":5.39023,"is_reserved":false,"is_disabled":false,"rental_uris":{"android":"levelo://app?vid=63d2c164-be8d-47a5-a0f1-e7d708d58b32","ios":"levelo://app?vid=63d2c164-be8d-47a5-a0f1-e7d708d58b32"},"vehicle_type_id":"4","last_reported":1723227059,"current_range_meters":29200,"station_id":"ce4bgup2rcd13ifvqco0","pricing_plan_id":"cebpf4jnsgd1na2vs0mg"},{"bike_id":"cceef251-04de-48ac-93a8-30590922cb68","system_id":"levelo_inurba_marseille","lat":43.309589,"lon":5.390258,"is_reserved":false,"is_disabled":false,"rental_uris":{"android":"levelo://app?vid=cceef251-04de-48ac-93a8-30590922cb68","ios":"levelo://app?vid=cceef251-04de-48ac-93a8-30590922cb68"},"vehicle_type_id":"4","last_reported":1723227059,"current_range_meters":31200,"station_id":"ce4bgup2rcd13ifvqco0","pricing_plan_id":"cebpf4jnsgd1na2vs0mg"},{"bike_id":"1429ed85-bd67-4ed6-935e-e88e00e8fd03","system_id":"levelo_inurba_marseille","lat":43.309589,"lon":5.390258,"is_reserved":false,"is_disabled":false,"rental_uris":{"android":"levelo://app?vid=1429ed85-bd67-4ed6-935e-e88e00e8fd03","ios":"levelo://app?vid=1429ed85-bd67-4ed6-935e-e88e00e8fd03"},"vehicle_type_id":"4","last_reported":1723227059,"current_range_meters":21600,"station_id":"ce4bgup2rcd13ifvqco0","pricing_plan_id":"cebpf4jnsgd1na2vs0mg"},{"bike_id":"a05da720-9c36-4953-a982-09685a3ec689","system_id":"levelo_inurba_marseille","lat":43.309589,"lon":5.390258,"is_reserved":false,"is_disabled":false,"rental_uris":{"android":"levelo://app?vid=a05da720-9c36-4953-a982-09685a3ec689","ios":"levelo://app?vid=a05da720-9c36-4953-a982-09685a3ec689"},"vehicle_type_id":"4","last_reported":1723227059,"current_range_meters":6400,"station_id":"ce4bgup2rcd13ifvqco0","pricing_plan_id":"cebpf4jnsgd1na2vs0mg"},{"bike_id":"577aea62-1b97-41ab-9732-85970a4a71dd","system_id":"levelo_inurba_marseille","lat":43.309589,"lon":5.390258,"is_reserved":false,"is_disabled":false,"rental_uris":{"android":"levelo://app?vid=577aea62-1b97-41ab-9732-85970a4a71dd","ios":"levelo://app?vid=577aea62-1b97-41ab-9732-85970a4a71dd"},"vehicle_type_id":"4","last_reported":1723227059,"current_range_meters":26400,"station_id":"ce4bgup2rcd13ifvqco0","pricing_plan_id":"cebpf4jnsgd1na2vs0mg"},{"bike_id":"c6a9890c-0636-4312-bfb9-fe332f513c74","system_id":"levelo_inurba_marseille","lat":43.309589,"lon":5.390258,"is_reserved":false,"is_disabled":false,"rental_uris":{"android":"levelo://app?vid=c6a9890c-0636-4312-bfb9-fe332f513c74","ios":"levelo://app?vid=c6a9890c-0636-4312-bfb9-fe332f513c74"},"vehicle_type_id":"4","last_reported":1723227059,"current_range_meters":29200,"station_id":"ce4bgup2rcd13ifvqco0","pricing_plan_id":"cebpf4jnsgd1na2vs0mg"},{"bike_id":"e68754cd-20d2-4b8c-8889-92f302ac364f","system_id":"levelo_inurba_marseille","lat":43.30953,"lon":5.39031,"is_reserved":false,"is_disabled":false,"rental_uris":{"android":"levelo://app?vid=e68754cd-20d2-4b8c-8889-92f302ac364f","ios":"levelo://app?vid=e68754cd-20d2-4b8c-8889-92f302ac364f"},"vehicle_type_id":"4","last_reported":1723227059,"current_range_meters":21600,"station_id":"ce4bgup2rcd13ifvqco0","pricing_plan_id":"cebpf4jnsgd1na2vs0mg"},{"bike_id":"d677c143-bef4-42d2-84cd-625cf833c316","system_id":"levelo_inurba_marseille","lat":43.309589,"lon":5.390258,"is_reserved":false,"is_disabled":false,"rental_uris":{"android":"levelo://app?vid=d677c143-bef4-42d2-84cd-625cf833c316","ios":"levelo://app?vid=d677c143-bef4-42d2-84cd-625cf833c316"},"vehicle_type_id":"4","last_reported":1723227059,"current_range_meters":2000,"station_id":"ce4bgup2rcd13ifvqco0","pricing_plan_id":"cebpf4jnsgd1na2vs0mg"},{"bike_id":"f086619d-6123-4646-be35-29d0dbf25a68","system_id":"levelo_inurba_marseille","lat":43.3095,"lon":5.39031,"is_reserved":false,"is_disabled":false,"rental_uris":{"android":"levelo://app?vid=f086619d-6123-4646-be35-29d0dbf25a68","ios":"levelo://app?vid=f086619d-6123-4646-be35-29d0dbf25a68"},"vehicle_type_id":"4","last_reported":1723227059,"current_range_meters":0,"station_id":"ce4bgup2rcd13ifvqco0","pricing_plan_id":"cebpf4jnsgd1na2vs0mg"},{"bike_id":"bc1fee8f-e298-41cc-ab14-d19e249a4294","system_id":"levelo_inurba_marseille","lat":43.30948,"lon":5.39032,"is_reserved":false,"is_disabled":false,"rental_uris":{"android":"levelo://app?vid=bc1fee8f-e298-41cc-ab14-d19e249a4294","ios":"levelo://app?vid=bc1fee8f-e298-41cc-ab14-d19e249a4294"},"vehicle_type_id":"4","last_reported":1723227059,"current_range_meters":0,"station_id":"ce4bgup2rcd13ifvqco0","pricing_plan_id":"cebpf4jnsgd1na2vs0mg"},{"bike_id":"66fa0fa7-0b2e-4f47-90a5-1a0b4f5efd49","system_id":"levelo_inurba_marseille","lat":43.3095,"lon":5.39033,"is_reserved":false,"is_disabled":false,"rental_uris":{"android":"levelo://app?vid=66fa0fa7-0b2e-4f47-90a5-1a0b4f5efd49","ios":"levelo://app?vid=66fa0fa7-0b2e-4f47-90a5-1a0b4f5efd49"},"vehicle_type_id":"4","last_reported":1723227059,"current_range_meters":4800,"station_id":"ce4bgup2rcd13ifvqco0","pricing_plan_id":"cebpf4jnsgd1na2vs0mg"},{"bike_id":"76fcb8a9-9470-4ef5-99be-f27842753d16","system_id":"levelo_inurba_marseille","lat":43.309589,"lon":5.390258,"is_reserved":false,"is_disabled":false,"rental_uris":{"android":"levelo://app?vid=76fcb8a9-9470-4ef5-99be-f27842753d16","ios":"levelo://app?vid=76fcb8a9-9470-4ef5-99be-f27842753d16"},"vehicle_type_id":"4","last_reported":1723227059,"current_range_meters":18800,"station_id":"ce4bgup2rcd13ifvqco0","pricing_plan_id":"cebpf4jnsgd1na2vs0mg"},{"bike_id":"f19198d1-50b5-44b5-b6c6-8b0cdd4352bf","system_id":"levelo_inurba_marseille","lat":43.3095,"lon":5.390433,"is_reserved":false,"is_disabled":false,"rental_uris":{"android":"levelo://app?vid=f19198d1-50b5-44b5-b6c6-8b0cdd4352bf","ios":"levelo://app?vid=f19198d1-50b5-44b5-b6c6-8b0cdd4352bf"},"vehicle_type_id":"4","last_reported":1723227059,"current_range_meters":0,"station_id":"ce4bgup2rcd13ifvqco0","pricing_plan_id":"cebpf4jnsgd1na2vs0mg"},{"bike_id":"53e7fe89-fd91-401a-8d71-3d9fd7fc78f6","system_id":"levelo_inurba_marseille","lat":43.31766,"lon":5.3902,"is_reserved":false,"is_disabled":false,"rental_uris":{"android":"levelo://app?vid=53e7fe89-fd91-401a-8d71-3d9fd7fc78f6","ios":"levelo://app?vid=53e7fe89-fd91-401a-8d71-3d9fd7fc78f6"},"vehicle_type_id":"4","last_reported":1723227059,"current_range_meters":12400,"station_id":"ce4bhqp2rcd13ifvqhng","pricing_plan_id":"cebpf4jnsgd1na2vs0mg"},{"bike_id":"af9c9798-427d-4e64-9828-0a856282654e","system_id":"levelo_inurba_marseille","lat":43.298037,"lon":5.381066,"is_reserved":false,"is_disabled":false,"rental_uris":{"android":"levelo://app?vid=af9c9798-427d-4e64-9828-0a856282654e","ios":"levelo://app?vid=af9c9798-427d-4e64-9828-0a856282654e"},"vehicle_type_id":"4","last_reported":1723227059,"current_range_meters":1200,"station_id":"ce4bgip2rcd13ifvqbb0","pricing_plan_id":"cebpf4jnsgd1na2vs0mg"},{"bike_id":"e0cfd054-f5a0-4cd5-9bc2-7971e33b3c63","system_id":"levelo_inurba_marseille","lat":43.298037,"lon":5.381066,"is_reserved":false,"is_disabled":false,"rental_uris":{"android":"levelo://app?vid=e0cfd054-f5a0-4cd5-9bc2-7971e33b3c63","ios":"levelo://app?vid=e0cfd054-f5a0-4cd5-9bc2-7971e33b3c63"},"vehicle_type_id":"4","last_reported":1723227059,"current_range_meters":10000,"station_id":"ce4bgip2rcd13ifvqbb0","pricing_plan_id":"cebpf4jnsgd1na2vs0mg"},{"bike_id":"cbf50f8e-6eda-44ce-a556-b33e985ef0e6","system_id":"levelo_inurba_marseille","lat":43.29907,"lon":5.38289,"is_reserved":false,"is_disabled":false,"rental_uris":{"android":"levelo://app?vid=cbf50f8e-6eda-44ce-a556-b33e985ef0e6","ios":"levelo://app?vid=cbf50f8e-6eda-44ce-a556-b33e985ef0e6"},"vehicle_type_id":"4","last_reported":1723227059,"current_range_meters":22400,"station_id":"","pricing_plan_id":"cebpf4jnsgd1na2vs0mg"},{"bike_id":"e10ec831-ddb6-413a-bb8d-2aa441ff8811","system_id":"levelo_inurba_marseille","lat":43.29576,"lon":5.37514,"is_reserved":false,"is_disabled":false,"rental_uris":{"android":"levelo://app?vid=e10ec831-ddb6-413a-bb8d-2aa441ff8811","ios":"levelo://app?vid=e10ec831-ddb6-413a-bb8d-2aa441ff8811"},"vehicle_type_id":"4","last_reported":1723227059,"current_range_meters":28800,"station_id":"ce4bgh92rcd13ifvqb50","pricing_plan_id":"cebpf4jnsgd1na2vs0mg"},{"bike_id":"c2f20c7f-903a-4374-8bf8-e57f643c8813","system_id":"levelo_inurba_marseille","lat":43.295748,"lon":5.37522,"is_reserved":false,"is_disabled":false,"rental_uris":{"android":"levelo://app?vid=c2f20c7f-903a-4374-8bf8-e57f643c8813","ios":"levelo://app?vid=c2f20c7f-903a-4374-8bf8-e57f643c8813"},"vehicle_type_id":"4","last_reported":1723227059,"current_range_meters":16400,"station_id":"ce4bgh92rcd13ifvqb50","pricing_plan_id":"cebpf4jnsgd1na2vs0mg"},{"bike_id":"cdf3734d-f99b-454f-a792-63126b52f676","system_id":"levelo_inurba_marseille","lat":43.295748,"lon":5.37522,"is_reserved":false,"is_disabled":false,"rental_uris":{"android":"levelo://app?vid=cdf3734d-f99b-454f-a792-63126b52f676","ios":"levelo://app?vid=cdf3734d-f99b-454f-a792-63126b52f676"},"vehicle_type_id":"4","last_reported":1723227059,"current_range_meters":15200,"station_id":"ce4bgh92rcd13ifvqb50","pricing_plan_id":"cebpf4jnsgd1na2vs0mg"},{"bike_id":"aa5b9fc6-f4b4-4589-beb7-b27415a7a029","system_id":"levelo_inurba_marseille","lat":43.304278,"lon":5.388868,"is_reserved":false,"is_disabled":false,"rental_uris":{"android":"levelo://app?vid=aa5b9fc6-f4b4-4589-beb7-b27415a7a029","ios":"levelo://app?vid=aa5b9fc6-f4b4-4589-beb7-b27415a7a029"},"vehicle_type_id":"4","last_reported":1723227059,"current_range_meters":6800,"station_id":"ce4bgk12rcd13ifvqbi0","pricing_plan_id":"cebpf4jnsgd1na2vs0mg"},{"bike_id":"e3cf005e-81e8-451f-9974-fa3a751ac141","system_id":"levelo_inurba_marseille","lat":43.295279,"lon":5.375048,"is_reserved":false,"is_disabled":false,"rental_uris":{"android":"levelo://app?vid=e3cf005e-81e8-451f-9974-fa3a751ac141","ios":"levelo://app?vid=e3cf005e-81e8-451f-9974-fa3a751ac141"},"vehicle_type_id":"4","last_reported":1723227059,"current_range_meters":5600,"station_id":"ce4bgkp2rcd13ifvqbmg","pricing_plan_id":"cebpf4jnsgd1na2vs0mg"},{"bike_id":"bba906c2-90c5-4cf0-a9f1-d865369d046e","system_id":"levelo_inurba_marseille","lat":43.309589,"lon":5.390258,"is_reserved":false,"is_disabled":false,"rental_uris":{"android":"levelo://app?vid=bba906c2-90c5-4cf0-a9f1-d865369d046e","ios":"levelo://app?vid=bba906c2-90c5-4cf0-a9f1-d865369d046e"},"vehicle_type_id":"4","last_reported":1723227059,"current_range_meters":3200,"station_id":"ce4bgup2rcd13ifvqco0","pricing_plan_id":"cebpf4jnsgd1na2vs0mg"},{"bike_id":"347a79f4-c121-4e18-bb8e-b7efa8ce12c3","system_id":"levelo_inurba_marseille","lat":43.301396,"lon":5.387812,"is_reserved":false,"is_disabled":false,"rental_uris":{"android":"levelo://app?vid=347a79f4-c121-4e18-bb8e-b7efa8ce12c3","ios":"levelo://app?vid=347a79f4-c121-4e18-bb8e-b7efa8ce12c3"},"vehicle_type_id":"4","last_reported":1723227059,"current_range_meters":28000,"station_id":"ce4bghh2rcd13ifvqb60","pricing_plan_id":"cebpf4jnsgd1na2vs0mg"},{"bike_id":"90f2022a-51a2-4557-865c-9c94fd120149","system_id":"levelo_inurba_marseille","lat":43.301396,"lon":5.387812,"is_reserved":false,"is_disabled":false,"rental_uris":{"android":"levelo://app?vid=90f2022a-51a2-4557-865c-9c94fd120149","ios":"levelo://app?vid=90f2022a-51a2-4557-865c-9c94fd120149"},"vehicle_type_id":"4","last_reported":1723227059,"current_range_meters":9200,"station_id":"ce4bghh2rcd13ifvqb60","pricing_plan_id":"cebpf4jnsgd1na2vs0mg"},{"bike_id":"a1b8a6ba-b808-40df-9b20-a07863e3b228","system_id":"levelo_inurba_marseille","lat":43.32367,"lon":5.388836,"is_reserved":false,"is_disabled":false,"rental_uris":{"android":"levelo://app?vid=a1b8a6ba-b808-40df-9b20-a07863e3b228","ios":"levelo://app?vid=a1b8a6ba-b808-40df-9b20-a07863e3b228"},"vehicle_type_id":"4","last_reported":1723227059,"current_range_meters":400,"station_id":"ce4bhqp2rcd13ifvqhog","pricing_plan_id":"cebpf4jnsgd1na2vs0mg"},{"bike_id":"c42c5c0b-eaa8-4b94-a6a1-0c1b56372cba","system_id":"levelo_inurba_marseille","lat":43.30085,"lon":5.390856,"is_reserved":false,"is_disabled":false,"rental_uris":{"android":"levelo://app?vid=c42c5c0b-eaa8-4b94-a6a1-0c1b56372cba","ios":"levelo://app?vid=c42c5c0b-eaa8-4b94-a6a1-0c1b56372cba"},"vehicle_type_id":"4","last_reported":1723227059,"current_range_meters":2000,"station_id":"ce4bh192rcd13ifvqdb0","pricing_plan_id":"cebpf4jnsgd1na2vs0mg"},{"bike_id":"16a4f122-09fc-4b38-ad9d-41005cb0fa59","system_id":"levelo_inurba_marseille","lat":43.29602,"lon":5.381084,"is_reserved":false,"is_disabled":false,"rental_uris":{"android":"levelo://app?vid=16a4f122-09fc-4b38-ad9d-41005cb0fa59","ios":"levelo://app?vid=16a4f122-09fc-4b38-ad9d-41005cb0fa59"},"vehicle_type_id":"4","last_reported":1723227059,"current_range_meters":4000,"station_id":"ce4bgl12rcd13ifvqbo0","pricing_plan_id":"cebpf4jnsgd1na2vs0mg"},{"bike_id":"8e07813b-69c5-418f-9be0-e81a8136bae5","system_id":"levelo_inurba_marseille","lat":43.29602,"lon":5.381084,"is_reserved":false,"is_disabled":false,"rental_uris":{"android":"levelo://app?vid=8e07813b-69c5-418f-9be0-e81a8136bae5","ios":"levelo://app?vid=8e07813b-69c5-418f-9be0-e81a8136bae5"},"vehicle_type_id":"4","last_reported":1723227059,"current_range_meters":0,"station_id":"ce4bgl12rcd13ifvqbo0","pricing_plan_id":"cebpf4jnsgd1na2vs0mg"},{"bike_id":"9b1080aa-21cc-441b-be35-633b1d4e619d","system_id":"levelo_inurba_marseille","lat":43.29272,"lon":5.36835,"is_reserved":false,"is_disabled":false,"rental_uris":{"android":"levelo://app?vid=9b1080aa-21cc-441b-be35-633b1d4e619d","ios":"levelo://app?vid=9b1080aa-21cc-441b-be35-633b1d4e619d"},"vehicle_type_id":"4","last_reported":1723227059,"current_range_meters":4000,"station_id":"ce4bhbp2rcd13ifvqesg","pricing_plan_id":"cebpf4jnsgd1na2vs0mg"},{"bike_id":"cb28aa7e-30ac-40d3-bf82-fc1920504953","system_id":"levelo_inurba_marseille","lat":43.292749,"lon":5.368398,"is_reserved":false,"is_disabled":false,"rental_uris":{"android":"levelo://app?vid=cb28aa7e-30ac-40d3-bf82-fc1920504953","ios":"levelo://app?vid=cb28aa7e-30ac-40d3-bf82-fc1920504953"},"vehicle_type_id":"4","last_reported":1723227059,"current_range_meters":0,"station_id":"ce4bhbp2rcd13ifvqesg","pricing_plan_id":"cebpf4jnsgd1na2vs0mg"},{"bike_id":"7dce543d-8a0b-4084-9fe7-cf046f786569","system_id":"levelo_inurba_marseille","lat":43.293009,"lon":5.374584,"is_reserved":false,"is_disabled":false,"rental_uris":{"android":"levelo://app?vid=7dce543d-8a0b-4084-9fe7-cf046f786569","ios":"levelo://app?vid=7dce543d-8a0b-4084-9fe7-cf046f786569"},"vehicle_type_id":"4","last_reported":1723227059,"current_range_meters":29200,"station_id":"ce4bgi12rcd13ifvqb70","pricing_plan_id":"cebpf4jnsgd1na2vs0mg"},{"bike_id":"ba510d84-dec1-454d-8c17-085b19abf770","system_id":"levelo_inurba_marseille","lat":43.293009,"lon":5.374584,"is_reserved":false,"is_disabled":false,"rental_uris":{"android":"levelo://app?vid=ba510d84-dec1-454d-8c17-085b19abf770","ios":"levelo://app?vid=ba510d84-dec1-454d-8c17-085b19abf770"},"vehicle_type_id":"4","last_reported":1723227059,"current_range_meters":16400,"station_id":"ce4bgi12rcd13ifvqb70","pricing_plan_id":"cebpf4jnsgd1na2vs0mg"},{"bike_id":"27b3ede3-bac7-40e5-844f-3b7f3bd08570","system_id":"levelo_inurba_marseille","lat":43.293009,"lon":5.374584,"is_reserved":false,"is_disabled":false,"rental_uris":{"android":"levelo://app?vid=27b3ede3-bac7-40e5-844f-3b7f3bd08570","ios":"levelo://app?vid=27b3ede3-bac7-40e5-844f-3b7f3bd08570"},"vehicle_type_id":"4","last_reported":1723227059,"current_range_meters":800,"station_id":"ce4bgi12rcd13ifvqb70","pricing_plan_id":"cebpf4jnsgd1na2vs0mg"},{"bike_id":"79f38d0c-e410-4760-941e-96a5c11958a4","system_id":"levelo_inurba_marseille","lat":43.31144,"lon":5.39518,"is_reserved":false,"is_disabled":false,"rental_uris":{"android":"levelo://app?vid=79f38d0c-e410-4760-941e-96a5c11958a4","ios":"levelo://app?vid=79f38d0c-e410-4760-941e-96a5c11958a4"},"vehicle_type_id":"4","last_reported":1723227059,"current_range_meters":15600,"station_id":"","pricing_plan_id":"cebpf4jnsgd1na2vs0mg"},{"bike_id":"8d37495d-9961-45f8-ba67-ee81725ae3ae","system_id":"levelo_inurba_marseille","lat":43.29228,"lon":5.36363,"is_reserved":false,"is_disabled":false,"rental_uris":{"android":"levelo://app?vid=8d37495d-9961-45f8-ba67-ee81725ae3ae","ios":"levelo://app?vid=8d37495d-9961-45f8-ba67-ee81725ae3ae"},"vehicle_type_id":"4","last_reported":1723227059,"current_range_meters":12000,"station_id":"","pricing_plan_id":"cebpf4jnsgd1na2vs0mg"},{"bike_id":"88fa5354-accb-4657-a429-366f24026454","system_id":"levelo_inurba_marseille","lat":43.303002,"lon":5.392142,"is_reserved":false,"is_disabled":false,"rental_uris":{"android":"levelo://app?vid=88fa5354-accb-4657-a429-366f24026454","ios":"levelo://app?vid=88fa5354-accb-4657-a429-366f24026454"},"vehicle_type_id":"4","last_reported":1723227059,"current_range_meters":0,"station_id":"ce4bgkh2rcd13ifvqbk0","pricing_plan_id":"cebpf4jnsgd1na2vs0mg"},{"bike_id":"babf7227-20a8-4d40-bafa-20f645b46d38","system_id":"levelo_inurba_marseille","lat":43.303002,"lon":5.392142,"is_reserved":false,"is_disabled":false,"rental_uris":{"android":"levelo://app?vid=babf7227-20a8-4d40-bafa-20f645b46d38","ios":"levelo://app?vid=babf7227-20a8-4d40-bafa-20f645b46d38"},"vehicle_type_id":"4","last_reported":1723227059,"current_range_meters":27200,"station_id":"ce4bgkh2rcd13ifvqbk0","pricing_plan_id":"cebpf4jnsgd1na2vs0mg"},{"bike_id":"5f8f57f9-6642-40cc-b15d-1f153ace26fd","system_id":"levelo_inurba_marseille","lat":43.302992,"lon":5.392136,"is_reserved":false,"is_disabled":false,"rental_uris":{"android":"levelo://app?vid=5f8f57f9-6642-40cc-b15d-1f153ace26fd","ios":"levelo://app?vid=5f8f57f9-6642-40cc-b15d-1f153ace26fd"},"vehicle_type_id":"4","last_reported":1723227059,"current_range_meters":0,"station_id":"ce4bgkh2rcd13ifvqbk0","pricing_plan_id":"cebpf4jnsgd1na2vs0mg"},{"bike_id":"c1896a3a-c9eb-4a19-8197-2c5e383820c0","system_id":"levelo_inurba_marseille","lat":43.2936,"lon":5.37835,"is_reserved":false,"is_disabled":false,"rental_uris":{"android":"levelo://app?vid=c1896a3a-c9eb-4a19-8197-2c5e383820c0","ios":"levelo://app?vid=c1896a3a-c9eb-4a19-8197-2c5e383820c0"},"vehicle_type_id":"4","last_reported":1723227059,"current_range_meters":0,"station_id":"ce4bgjh2rcd13ifvqbf0","pricing_plan_id":"cebpf4jnsgd1na2vs0mg"},{"bike_id":"ffd265da-71a0-4efe-ad41-0a92b74640f3","system_id":"levelo_inurba_marseille","lat":43.292311,"lon":5.360731,"is_reserved":false,"is_disabled":false,"rental_uris":{"android":"levelo://app?vid=ffd265da-71a0-4efe-ad41-0a92b74640f3","ios":"levelo://app?vid=ffd265da-71a0-4efe-ad41-0a92b74640f3"},"vehicle_type_id":"4","last_reported":1723227059,"current_range_meters":0,"station_id":"ce4bhbh2rcd13ifvqeqg","pricing_plan_id":"cebpf4jnsgd1na2vs0mg"},{"bike_id":"beecbe2c-ad89-4d6e-b70e-07bac6d3e8eb","system_id":"levelo_inurba_marseille","lat":43.292311,"lon":5.360731,"is_reserved":false,"is_disabled":false,"rental_uris":{"android":"levelo://app?vid=beecbe2c-ad89-4d6e-b70e-07bac6d3e8eb","ios":"levelo://app?vid=beecbe2c-ad89-4d6e-b70e-07bac6d3e8eb"},"vehicle_type_id":"4","last_reported":1723227059,"current_range_meters":2400,"station_id":"ce4bhbh2rcd13ifvqeqg","pricing_plan_id":"cebpf4jnsgd1na2vs0mg"},{"bike_id":"f62e4c75-c062-4229-88c2-0a464d433019","system_id":"levelo_inurba_marseille","lat":43.292311,"lon":5.360731,"is_reserved":false,"is_disabled":false,"rental_uris":{"android":"levelo://app?vid=f62e4c75-c062-4229-88c2-0a464d433019","ios":"levelo://app?vid=f62e4c75-c062-4229-88c2-0a464d433019"},"vehicle_type_id":"4","last_reported":1723227059,"current_range_meters":14800,"station_id":"ce4bhbh2rcd13ifvqeqg","pricing_plan_id":"cebpf4jnsgd1na2vs0mg"},{"bike_id":"02c7f1cc-0245-4c0c-95cf-bd5e5d70b091","system_id":"levelo_inurba_marseille","lat":43.29227,"lon":5.36061,"is_reserved":false,"is_disabled":false,"rental_uris":{"android":"levelo://app?vid=02c7f1cc-0245-4c0c-95cf-bd5e5d70b091","ios":"levelo://app?vid=02c7f1cc-0245-4c0c-95cf-bd5e5d70b091"},"vehicle_type_id":"4","last_reported":1723227059,"current_range_meters":0,"station_id":"ce4bhbh2rcd13ifvqeqg","pricing_plan_id":"cebpf4jnsgd1na2vs0mg"},{"bike_id":"3f72e915-fed6-44bf-b36f-badcb445eb19","system_id":"levelo_inurba_marseille","lat":43.29226,"lon":5.36067,"is_reserved":false,"is_disabled":false,"rental_uris":{"android":"levelo://app?vid=3f72e915-fed6-44bf-b36f-badcb445eb19","ios":"levelo://app?vid=3f72e915-fed6-44bf-b36f-badcb445eb19"},"vehicle_type_id":"4","last_reported":1723227059,"current_range_meters":0,"station_id":"ce4bhbh2rcd13ifvqeqg","pricing_plan_id":"cebpf4jnsgd1na2vs0mg"},{"bike_id":"ccf2026d-60e8-448f-8a65-33a7b7ddcb2f","system_id":"levelo_inurba_marseille","lat":43.29221,"lon":5.36059,"is_reserved":false,"is_disabled":false,"rental_uris":{"android":"levelo://app?vid=ccf2026d-60e8-448f-8a65-33a7b7ddcb2f","ios":"levelo://app?vid=ccf2026d-60e8-448f-8a65-33a7b7ddcb2f"},"vehicle_type_id":"4","last_reported":1723227059,"current_range_meters":12800,"station_id":"ce4bhbh2rcd13ifvqeqg","pricing_plan_id":"cebpf4jnsgd1na2vs0mg"},{"bike_id":"3cbf3b15-e346-4a90-a3ac-51660c54ffe2","system_id":"levelo_inurba_marseille","lat":43.292311,"lon":5.360731,"is_reserved":false,"is_disabled":false,"rental_uris":{"android":"levelo://app?vid=3cbf3b15-e346-4a90-a3ac-51660c54ffe2","ios":"levelo://app?vid=3cbf3b15-e346-4a90-a3ac-51660c54ffe2"},"vehicle_type_id":"4","last_reported":1723227059,"current_range_meters":31200,"station_id":"ce4bhbh2rcd13ifvqeqg","pricing_plan_id":"cebpf4jnsgd1na2vs0mg"},{"bike_id":"dab4815d-eec6-4b12-b421-ffe247787eec","system_id":"levelo_inurba_marseille","lat":43.292311,"lon":5.360731,"is_reserved":false,"is_disabled":false,"rental_uris":{"android":"levelo://app?vid=dab4815d-eec6-4b12-b421-ffe247787eec","ios":"levelo://app?vid=dab4815d-eec6-4b12-b421-ffe247787eec"},"vehicle_type_id":"4","last_reported":1723227059,"current_range_meters":31600,"station_id":"ce4bhbh2rcd13ifvqeqg","pricing_plan_id":"cebpf4jnsgd1na2vs0mg"},{"bike_id":"e5fd50e9-79b7-42e1-be48-48ba2d104222","system_id":"levelo_inurba_marseille","lat":43.298764,"lon":5.388973,"is_reserved":false,"is_disabled":false,"rental_uris":{"android":"levelo://app?vid=e5fd50e9-79b7-42e1-be48-48ba2d104222","ios":"levelo://app?vid=e5fd50e9-79b7-42e1-be48-48ba2d104222"},"vehicle_type_id":"4","last_reported":1723227059,"current_range_meters":400,"station_id":"ce4bh392rcd13ifvqdl0","pricing_plan_id":"cebpf4jnsgd1na2vs0mg"},{"bike_id":"6265ffa0-972f-472f-8597-4dcfca6ff723","system_id":"levelo_inurba_marseille","lat":43.291675,"lon":5.371583,"is_reserved":false,"is_disabled":false,"rental_uris":{"android":"levelo://app?vid=6265ffa0-972f-472f-8597-4dcfca6ff723","ios":"levelo://app?vid=6265ffa0-972f-472f-8597-4dcfca6ff723"},"vehicle_type_id":"4","last_reported":1723227059,"current_range_meters":9600,"station_id":"ce4bha92rcd13ifvqeh0","pricing_plan_id":"cebpf4jnsgd1na2vs0mg"},{"bike_id":"6dfde8fd-f3b3-4138-ad36-e24fd4c1ad19","system_id":"levelo_inurba_marseille","lat":43.291675,"lon":5.371583,"is_reserved":false,"is_disabled":false,"rental_uris":{"android":"levelo://app?vid=6dfde8fd-f3b3-4138-ad36-e24fd4c1ad19","ios":"levelo://app?vid=6dfde8fd-f3b3-4138-ad36-e24fd4c1ad19"},"vehicle_type_id":"4","last_reported":1723227059,"current_range_meters":3600,"station_id":"ce4bha92rcd13ifvqeh0","pricing_plan_id":"cebpf4jnsgd1na2vs0mg"},{"bike_id":"e2a5751c-aa82-4090-9004-2f305cc59dee","system_id":"levelo_inurba_marseille","lat":43.291675,"lon":5.371583,"is_reserved":false,"is_disabled":false,"rental_uris":{"android":"levelo://app?vid=e2a5751c-aa82-4090-9004-2f305cc59dee","ios":"levelo://app?vid=e2a5751c-aa82-4090-9004-2f305cc59dee"},"vehicle_type_id":"4","last_reported":1723227059,"current_range_meters":19600,"station_id":"ce4bha92rcd13ifvqeh0","pricing_plan_id":"cebpf4jnsgd1na2vs0mg"},{"bike_id":"8669c215-f64f-4991-918a-38e605b47e3d","system_id":"levelo_inurba_marseille","lat":43.292915,"lon":5.355547,"is_reserved":false,"is_disabled":false,"rental_uris":{"android":"levelo://app?vid=8669c215-f64f-4991-918a-38e605b47e3d","ios":"levelo://app?vid=8669c215-f64f-4991-918a-38e605b47e3d"},"vehicle_type_id":"4","last_reported":1723227059,"current_range_meters":12000,"station_id":"","pricing_plan_id":"cebpf4jnsgd1na2vs0mg"},{"bike_id":"f5a94976-405a-4e61-a22a-292125375e4f","system_id":"levelo_inurba_marseille","lat":43.291994,"lon":5.357886,"is_reserved":false,"is_disabled":false,"rental_uris":{"android":"levelo://app?vid=f5a94976-405a-4e61-a22a-292125375e4f","ios":"levelo://app?vid=f5a94976-405a-4e61-a22a-292125375e4f"},"vehicle_type_id":"4","last_reported":1723227059,"current_range_meters":2800,"station_id":"ce4bhb12rcd13ifvqel0","pricing_plan_id":"cebpf4jnsgd1na2vs0mg"},{"bike_id":"a0313de3-c3e0-4374-9312-4552e9d31c09","system_id":"levelo_inurba_marseille","lat":43.292005,"lon":5.357875,"is_reserved":false,"is_disabled":false,"rental_uris":{"android":"levelo://app?vid=a0313de3-c3e0-4374-9312-4552e9d31c09","ios":"levelo://app?vid=a0313de3-c3e0-4374-9312-4552e9d31c09"},"vehicle_type_id":"4","last_reported":1723227059,"current_range_meters":29600,"station_id":"ce4bhb12rcd13ifvqel0","pricing_plan_id":"cebpf4jnsgd1na2vs0mg"},{"bike_id":"7365a55a-dfc5-418c-b788-7c8aad057112","system_id":"levelo_inurba_marseille","lat":43.313291,"lon":5.396838,"is_reserved":false,"is_disabled":false,"rental_uris":{"android":"levelo://app?vid=7365a55a-dfc5-418c-b788-7c8aad057112","ios":"levelo://app?vid=7365a55a-dfc5-418c-b788-7c8aad057112"},"vehicle_type_id":"4","last_reported":1723227059,"current_range_meters":4000,"station_id":"ce4bgvp2rcd13ifvqcu0","pricing_plan_id":"cebpf4jnsgd1na2vs0mg"},{"bike_id":"4e956296-7cd4-47f8-be3c-b561479e97a7","system_id":"levelo_inurba_marseille","lat":43.29195,"lon":5.3579,"is_reserved":false,"is_disabled":false,"rental_uris":{"android":"levelo://app?vid=4e956296-7cd4-47f8-be3c-b561479e97a7","ios":"levelo://app?vid=4e956296-7cd4-47f8-be3c-b561479e97a7"},"vehicle_type_id":"4","last_reported":1723227059,"current_range_meters":0,"station_id":"ce4bhb12rcd13ifvqel0","pricing_plan_id":"cebpf4jnsgd1na2vs0mg"},{"bike_id":"9d4b68a5-c93f-4844-a235-5ff4a055b660","system_id":"levelo_inurba_marseille","lat":43.292385,"lon":5.37767,"is_reserved":false,"is_disabled":false,"rental_uris":{"android":"levelo://app?vid=9d4b68a5-c93f-4844-a235-5ff4a055b660","ios":"levelo://app?vid=9d4b68a5-c93f-4844-a235-5ff4a055b660"},"vehicle_type_id":"4","last_reported":1723227059,"current_range_meters":14800,"station_id":"","pricing_plan_id":"cebpf4jnsgd1na2vs0mg"},{"bike_id":"c12a2e63-5662-4ed0-a69c-a9b21d5d3acf","system_id":"levelo_inurba_marseille","lat":43.309047,"lon":5.396551,"is_reserved":false,"is_disabled":false,"rental_uris":{"android":"levelo://app?vid=c12a2e63-5662-4ed0-a69c-a9b21d5d3acf","ios":"levelo://app?vid=c12a2e63-5662-4ed0-a69c-a9b21d5d3acf"},"vehicle_type_id":"4","last_reported":1723227059,"current_range_meters":27200,"station_id":"ce4bh012rcd13ifvqcv0","pricing_plan_id":"cebpf4jnsgd1na2vs0mg"},{"bike_id":"0049a91a-dce3-49b2-8e29-aa161265809d","system_id":"levelo_inurba_marseille","lat":43.309038,"lon":5.396546,"is_reserved":false,"is_disabled":false,"rental_uris":{"android":"levelo://app?vid=0049a91a-dce3-49b2-8e29-aa161265809d","ios":"levelo://app?vid=0049a91a-dce3-49b2-8e29-aa161265809d"},"vehicle_type_id":"4","last_reported":1723227059,"current_range_meters":3600,"station_id":"ce4bh012rcd13ifvqcv0","pricing_plan_id":"cebpf4jnsgd1na2vs0mg"},{"bike_id":"570ce565-571f-4029-87c5-f202f1adc109","system_id":"levelo_inurba_marseille","lat":43.309047,"lon":5.396551,"is_reserved":false,"is_disabled":false,"rental_uris":{"android":"levelo://app?vid=570ce565-571f-4029-87c5-f202f1adc109","ios":"levelo://app?vid=570ce565-571f-4029-87c5-f202f1adc109"},"vehicle_type_id":"4","last_reported":1723227059,"current_range_meters":17200,"station_id":"ce4bh012rcd13ifvqcv0","pricing_plan_id":"cebpf4jnsgd1na2vs0mg"},{"bike_id":"78296aee-4fdf-4f68-9947-d1f4e040bc2d","system_id":"levelo_inurba_marseille","lat":43.30152,"lon":5.39288,"is_reserved":false,"is_disabled":false,"rental_uris":{"android":"levelo://app?vid=78296aee-4fdf-4f68-9947-d1f4e040bc2d","ios":"levelo://app?vid=78296aee-4fdf-4f68-9947-d1f4e040bc2d"},"vehicle_type_id":"4","last_reported":1723227059,"current_range_meters":27600,"station_id":"","pricing_plan_id":"cebpf4jnsgd1na2vs0mg"},{"bike_id":"d62b5922-994c-47be-8950-22aa15a1970d","system_id":"levelo_inurba_marseille","lat":43.29529,"lon":5.385581,"is_reserved":false,"is_disabled":false,"rental_uris":{"android":"levelo://app?vid=d62b5922-994c-47be-8950-22aa15a1970d","ios":"levelo://app?vid=d62b5922-994c-47be-8950-22aa15a1970d"},"vehicle_type_id":"4","last_reported":1723227059,"current_range_meters":0,"station_id":"ce4bgih2rcd13ifvqba0","pricing_plan_id":"cebpf4jnsgd1na2vs0mg"},{"bike_id":"541b9c31-2cc7-4da4-b87b-e0ab05027082","system_id":"levelo_inurba_marseille","lat":43.29529,"lon":5.385581,"is_reserved":false,"is_disabled":false,"rental_uris":{"android":"levelo://app?vid=541b9c31-2cc7-4da4-b87b-e0ab05027082","ios":"levelo://app?vid=541b9c31-2cc7-4da4-b87b-e0ab05027082"},"vehicle_type_id":"4","last_reported":1723227059,"current_range_meters":0,"station_id":"ce4bgih2rcd13ifvqba0","pricing_plan_id":"cebpf4jnsgd1na2vs0mg"},{"bike_id":"02d16870-8180-477f-9518-3e4a96e35844","system_id":"levelo_inurba_marseille","lat":43.322872,"lon":5.382756,"is_reserved":false,"is_disabled":false,"rental_uris":{"android":"levelo://app?vid=02d16870-8180-477f-9518-3e4a96e35844","ios":"levelo://app?vid=02d16870-8180-477f-9518-3e4a96e35844"},"vehicle_type_id":"4","last_reported":1723227059,"current_range_meters":14400,"station_id":"ce4bhr12rcd13ifvqhqg","pricing_plan_id":"cebpf4jnsgd1na2vs0mg"},{"bike_id":"19de8623-26f9-421f-8036-eb6194c481e1","system_id":"levelo_inurba_marseille","lat":43.29529,"lon":5.385581,"is_reserved":false,"is_disabled":false,"rental_uris":{"android":"levelo://app?vid=19de8623-26f9-421f-8036-eb6194c481e1","ios":"levelo://app?vid=19de8623-26f9-421f-8036-eb6194c481e1"},"vehicle_type_id":"4","last_reported":1723227059,"current_range_meters":16800,"station_id":"ce4bgih2rcd13ifvqba0","pricing_plan_id":"cebpf4jnsgd1na2vs0mg"},{"bike_id":"c4c02c58-6d55-4755-9327-bf33b3b0bc1a","system_id":"levelo_inurba_marseille","lat":43.33334,"lon":5.37979,"is_reserved":false,"is_disabled":false,"rental_uris":{"android":"levelo://app?vid=c4c02c58-6d55-4755-9327-bf33b3b0bc1a","ios":"levelo://app?vid=c4c02c58-6d55-4755-9327-bf33b3b0bc1a"},"vehicle_type_id":"4","last_reported":1723227059,"current_range_meters":23600,"station_id":"","pricing_plan_id":"cebpf4jnsgd1na2vs0mg"},{"bike_id":"e3b9dc00-849a-41e0-b141-6c796451b35f","system_id":"levelo_inurba_marseille","lat":43.290624,"lon":5.359245,"is_reserved":false,"is_disabled":false,"rental_uris":{"android":"levelo://app?vid=e3b9dc00-849a-41e0-b141-6c796451b35f","ios":"levelo://app?vid=e3b9dc00-849a-41e0-b141-6c796451b35f"},"vehicle_type_id":"4","last_reported":1723227059,"current_range_meters":12400,"station_id":"ce4bha92rcd13ifvqeg0","pricing_plan_id":"cebpf4jnsgd1na2vs0mg"},{"bike_id":"c0c788b9-75bd-4ac1-97b5-ae15a18521b5","system_id":"levelo_inurba_marseille","lat":43.289184,"lon":5.366408,"is_reserved":false,"is_disabled":false,"rental_uris":{"android":"levelo://app?vid=c0c788b9-75bd-4ac1-97b5-ae15a18521b5","ios":"levelo://app?vid=c0c788b9-75bd-4ac1-97b5-ae15a18521b5"},"vehicle_type_id":"4","last_reported":1723227059,"current_range_meters":800,"station_id":"ce4bhap2rcd13ifvqek0","pricing_plan_id":"cebpf4jnsgd1na2vs0mg"},{"bike_id":"8b25ca5c-36bf-414d-ba9a-cfa8afb70d36","system_id":"levelo_inurba_marseille","lat":43.294153,"lon":5.386305,"is_reserved":false,"is_disabled":false,"rental_uris":{"android":"levelo://app?vid=8b25ca5c-36bf-414d-ba9a-cfa8afb70d36","ios":"levelo://app?vid=8b25ca5c-36bf-414d-ba9a-cfa8afb70d36"},"vehicle_type_id":"4","last_reported":1723227059,"current_range_meters":10400,"station_id":"ce4bh2h2rcd13ifvqdh0","pricing_plan_id":"cebpf4jnsgd1na2vs0mg"},{"bike_id":"9813f5ab-e8b4-419c-8ba6-6d577631777a","system_id":"levelo_inurba_marseille","lat":43.290337,"lon":5.375683,"is_reserved":false,"is_disabled":false,"rental_uris":{"android":"levelo://app?vid=9813f5ab-e8b4-419c-8ba6-6d577631777a","ios":"levelo://app?vid=9813f5ab-e8b4-419c-8ba6-6d577631777a"},"vehicle_type_id":"4","last_reported":1723227059,"current_range_meters":800,"station_id":"ce4bh692rcd13ifvqe90","pricing_plan_id":"cebpf4jnsgd1na2vs0mg"},{"bike_id":"febaf361-9b3f-4b52-b9cd-65795916e735","system_id":"levelo_inurba_marseille","lat":43.28937,"lon":5.3664,"is_reserved":false,"is_disabled":false,"rental_uris":{"android":"levelo://app?vid=febaf361-9b3f-4b52-b9cd-65795916e735","ios":"levelo://app?vid=febaf361-9b3f-4b52-b9cd-65795916e735"},"vehicle_type_id":"4","last_reported":1723227059,"current_range_meters":28000,"station_id":"ce4bhap2rcd13ifvqek0","pricing_plan_id":"cebpf4jnsgd1na2vs0mg"},{"bike_id":"2cf15309-304c-467d-827a-a663bc7cf85e","system_id":"levelo_inurba_marseille","lat":43.289184,"lon":5.366408,"is_reserved":false,"is_disabled":false,"rental_uris":{"android":"levelo://app?vid=2cf15309-304c-467d-827a-a663bc7cf85e","ios":"levelo://app?vid=2cf15309-304c-467d-827a-a663bc7cf85e"},"vehicle_type_id":"4","last_reported":1723227059,"current_range_meters":22800,"station_id":"ce4bhap2rcd13ifvqek0","pricing_plan_id":"cebpf4jnsgd1na2vs0mg"},{"bike_id":"4702482d-3d05-4875-9c62-92db182199a6","system_id":"levelo_inurba_marseille","lat":43.28933,"lon":5.36638,"is_reserved":false,"is_disabled":false,"rental_uris":{"android":"levelo://app?vid=4702482d-3d05-4875-9c62-92db182199a6","ios":"levelo://app?vid=4702482d-3d05-4875-9c62-92db182199a6"},"vehicle_type_id":"4","last_reported":1723227059,"current_range_meters":24000,"station_id":"ce4bhap2rcd13ifvqek0","pricing_plan_id":"cebpf4jnsgd1na2vs0mg"},{"bike_id":"a263ad67-a286-4f9a-990c-ef75d07734b9","system_id":"levelo_inurba_marseille","lat":43.289184,"lon":5.366408,"is_reserved":false,"is_disabled":false,"rental_uris":{"android":"levelo://app?vid=a263ad67-a286-4f9a-990c-ef75d07734b9","ios":"levelo://app?vid=a263ad67-a286-4f9a-990c-ef75d07734b9"},"vehicle_type_id":"4","last_reported":1723227059,"current_range_meters":31600,"station_id":"ce4bhap2rcd13ifvqek0","pricing_plan_id":"cebpf4jnsgd1na2vs0mg"},{"bike_id":"25846d1c-9e8a-4344-9313-6fbc3b3b8958","system_id":"levelo_inurba_marseille","lat":43.289184,"lon":5.366408,"is_reserved":false,"is_disabled":false,"rental_uris":{"android":"levelo://app?vid=25846d1c-9e8a-4344-9313-6fbc3b3b8958","ios":"levelo://app?vid=25846d1c-9e8a-4344-9313-6fbc3b3b8958"},"vehicle_type_id":"4","last_reported":1723227059,"current_range_meters":17600,"station_id":"ce4bhap2rcd13ifvqek0","pricing_plan_id":"cebpf4jnsgd1na2vs0mg"},{"bike_id":"94047f62-9b58-41cb-9eba-54b7a773408f","system_id":"levelo_inurba_marseille","lat":43.292644,"lon":5.384257,"is_reserved":false,"is_disabled":false,"rental_uris":{"android":"levelo://app?vid=94047f62-9b58-41cb-9eba-54b7a773408f","ios":"levelo://app?vid=94047f62-9b58-41cb-9eba-54b7a773408f"},"vehicle_type_id":"4","last_reported":1723227059,"current_range_meters":27200,"station_id":"ce4bh692rcd13ifvqea0","pricing_plan_id":"cebpf4jnsgd1na2vs0mg"},{"bike_id":"38ddc316-753d-47f9-92f5-fdc66f021907","system_id":"levelo_inurba_marseille","lat":43.30437,"lon":5.39747,"is_reserved":false,"is_disabled":false,"rental_uris":{"android":"levelo://app?vid=38ddc316-753d-47f9-92f5-fdc66f021907","ios":"levelo://app?vid=38ddc316-753d-47f9-92f5-fdc66f021907"},"vehicle_type_id":"4","last_reported":1723227059,"current_range_meters":0,"station_id":"ce4bh092rcd13ifvqd20","pricing_plan_id":"cebpf4jnsgd1na2vs0mg"},{"bike_id":"cd3fdb9b-3ec4-47be-90e3-6597e92f449e","system_id":"levelo_inurba_marseille","lat":43.30428,"lon":5.39743,"is_reserved":false,"is_disabled":false,"rental_uris":{"android":"levelo://app?vid=cd3fdb9b-3ec4-47be-90e3-6597e92f449e","ios":"levelo://app?vid=cd3fdb9b-3ec4-47be-90e3-6597e92f449e"},"vehicle_type_id":"4","last_reported":1723227059,"current_range_meters":0,"station_id":"ce4bh092rcd13ifvqd20","pricing_plan_id":"cebpf4jnsgd1na2vs0mg"},{"bike_id":"a7a12a12-9989-4a0b-9cc7-0115b89c972c","system_id":"levelo_inurba_marseille","lat":43.292642,"lon":5.384254,"is_reserved":false,"is_disabled":false,"rental_uris":{"android":"levelo://app?vid=a7a12a12-9989-4a0b-9cc7-0115b89c972c","ios":"levelo://app?vid=a7a12a12-9989-4a0b-9cc7-0115b89c972c"},"vehicle_type_id":"4","last_reported":1723227059,"current_range_meters":4000,"station_id":"ce4bh692rcd13ifvqea0","pricing_plan_id":"cebpf4jnsgd1na2vs0mg"},{"bike_id":"00d8f305-121f-4365-987a-5beb6d671a93","system_id":"levelo_inurba_marseille","lat":43.292642,"lon":5.384254,"is_reserved":false,"is_disabled":false,"rental_uris":{"android":"levelo://app?vid=00d8f305-121f-4365-987a-5beb6d671a93","ios":"levelo://app?vid=00d8f305-121f-4365-987a-5beb6d671a93"},"vehicle_type_id":"4","last_reported":1723227059,"current_range_meters":0,"station_id":"ce4bh692rcd13ifvqea0","pricing_plan_id":"cebpf4jnsgd1na2vs0mg"},{"bike_id":"9dd7398e-e058-4998-bc4a-f60d0c438bd5","system_id":"levelo_inurba_marseille","lat":43.304274,"lon":5.397513,"is_reserved":false,"is_disabled":false,"rental_uris":{"android":"levelo://app?vid=9dd7398e-e058-4998-bc4a-f60d0c438bd5","ios":"levelo://app?vid=9dd7398e-e058-4998-bc4a-f60d0c438bd5"},"vehicle_type_id":"4","last_reported":1723227059,"current_range_meters":17200,"station_id":"ce4bh092rcd13ifvqd20","pricing_plan_id":"cebpf4jnsgd1na2vs0mg"},{"bike_id":"f3963df3-87e5-4ea3-b861-536375209fc4","system_id":"levelo_inurba_marseille","lat":43.304274,"lon":5.397513,"is_reserved":false,"is_disabled":false,"rental_uris":{"android":"levelo://app?vid=f3963df3-87e5-4ea3-b861-536375209fc4","ios":"levelo://app?vid=f3963df3-87e5-4ea3-b861-536375209fc4"},"vehicle_type_id":"4","last_reported":1723227059,"current_range_meters":400,"station_id":"ce4bh092rcd13ifvqd20","pricing_plan_id":"cebpf4jnsgd1na2vs0mg"},{"bike_id":"035c1fc9-67d3-4d23-b526-c0b342f0d81a","system_id":"levelo_inurba_marseille","lat":43.304296,"lon":5.397513,"is_reserved":false,"is_disabled":false,"rental_uris":{"android":"levelo://app?vid=035c1fc9-67d3-4d23-b526-c0b342f0d81a","ios":"levelo://app?vid=035c1fc9-67d3-4d23-b526-c0b342f0d81a"},"vehicle_type_id":"4","last_reported":1723227059,"current_range_meters":0,"station_id":"ce4bh092rcd13ifvqd20","pricing_plan_id":"cebpf4jnsgd1na2vs0mg"},{"bike_id":"024090ad-d980-47bb-9cdf-28b87c66a112","system_id":"levelo_inurba_marseille","lat":43.290995,"lon":5.381361,"is_reserved":false,"is_disabled":false,"rental_uris":{"android":"levelo://app?vid=024090ad-d980-47bb-9cdf-28b87c66a112","ios":"levelo://app?vid=024090ad-d980-47bb-9cdf-28b87c66a112"},"vehicle_type_id":"4","last_reported":1723227059,"current_range_meters":8800,"station_id":"ce4bh512rcd13ifvqe2g","pricing_plan_id":"cebpf4jnsgd1na2vs0mg"},{"bike_id":"59291e78-9e40-47f6-92d3-0084b749fa60","system_id":"levelo_inurba_marseille","lat":43.290995,"lon":5.381361,"is_reserved":false,"is_disabled":false,"rental_uris":{"android":"levelo://app?vid=59291e78-9e40-47f6-92d3-0084b749fa60","ios":"levelo://app?vid=59291e78-9e40-47f6-92d3-0084b749fa60"},"vehicle_type_id":"4","last_reported":1723227059,"current_range_meters":8800,"station_id":"ce4bh512rcd13ifvqe2g","pricing_plan_id":"cebpf4jnsgd1na2vs0mg"},{"bike_id":"b9f79713-5b5e-4f2f-a18e-b671e23378fb","system_id":"levelo_inurba_marseille","lat":43.290995,"lon":5.381361,"is_reserved":false,"is_disabled":false,"rental_uris":{"android":"levelo://app?vid=b9f79713-5b5e-4f2f-a18e-b671e23378fb","ios":"levelo://app?vid=b9f79713-5b5e-4f2f-a18e-b671e23378fb"},"vehicle_type_id":"4","last_reported":1723227059,"current_range_meters":0,"station_id":"ce4bh512rcd13ifvqe2g","pricing_plan_id":"cebpf4jnsgd1na2vs0mg"},{"bike_id":"46c1fa04-1ace-40bf-b85d-3e2120613670","system_id":"levelo_inurba_marseille","lat":43.297807,"lon":5.393533,"is_reserved":false,"is_disabled":false,"rental_uris":{"android":"levelo://app?vid=46c1fa04-1ace-40bf-b85d-3e2120613670","ios":"levelo://app?vid=46c1fa04-1ace-40bf-b85d-3e2120613670"},"vehicle_type_id":"4","last_reported":1723227059,"current_range_meters":20000,"station_id":"chh1huq6cuj3fo74tm60","pricing_plan_id":"cebpf4jnsgd1na2vs0mg"},{"bike_id":"626805f4-e6da-4b79-abfc-ebf842c665e0","system_id":"levelo_inurba_marseille","lat":43.297807,"lon":5.393533,"is_reserved":false,"is_disabled":false,"rental_uris":{"android":"levelo://app?vid=626805f4-e6da-4b79-abfc-ebf842c665e0","ios":"levelo://app?vid=626805f4-e6da-4b79-abfc-ebf842c665e0"},"vehicle_type_id":"4","last_reported":1723227059,"current_range_meters":3600,"station_id":"chh1huq6cuj3fo74tm60","pricing_plan_id":"cebpf4jnsgd1na2vs0mg"},{"bike_id":"f7be96d0-1e81-4673-8750-9c757babd00f","system_id":"levelo_inurba_marseille","lat":43.310775,"lon":5.400892,"is_reserved":false,"is_disabled":false,"rental_uris":{"android":"levelo://app?vid=f7be96d0-1e81-4673-8750-9c757babd00f","ios":"levelo://app?vid=f7be96d0-1e81-4673-8750-9c757babd00f"},"vehicle_type_id":"4","last_reported":1723227059,"current_range_meters":28000,"station_id":"","pricing_plan_id":"cebpf4jnsgd1na2vs0mg"},{"bike_id":"61d0fee6-7557-41a4-a0f2-d5cce1b169e8","system_id":"levelo_inurba_marseille","lat":43.28856,"lon":5.358371,"is_reserved":false,"is_disabled":false,"rental_uris":{"android":"levelo://app?vid=61d0fee6-7557-41a4-a0f2-d5cce1b169e8","ios":"levelo://app?vid=61d0fee6-7557-41a4-a0f2-d5cce1b169e8"},"vehicle_type_id":"4","last_reported":1723227059,"current_range_meters":28400,"station_id":"ce4bhb12rcd13ifvqem0","pricing_plan_id":"cebpf4jnsgd1na2vs0mg"},{"bike_id":"b3aaab11-38fa-4351-8f47-29852bdec2b8","system_id":"levelo_inurba_marseille","lat":43.308228,"lon":5.400962,"is_reserved":false,"is_disabled":false,"rental_uris":{"android":"levelo://app?vid=b3aaab11-38fa-4351-8f47-29852bdec2b8","ios":"levelo://app?vid=b3aaab11-38fa-4351-8f47-29852bdec2b8"},"vehicle_type_id":"4","last_reported":1723227059,"current_range_meters":0,"station_id":"","pricing_plan_id":"cebpf4jnsgd1na2vs0mg"},{"bike_id":"edaf87d6-2a02-430b-8ef4-d2668b7e140d","system_id":"levelo_inurba_marseille","lat":43.312609,"lon":5.401662,"is_reserved":false,"is_disabled":false,"rental_uris":{"android":"levelo://app?vid=edaf87d6-2a02-430b-8ef4-d2668b7e140d","ios":"levelo://app?vid=edaf87d6-2a02-430b-8ef4-d2668b7e140d"},"vehicle_type_id":"4","last_reported":1723227059,"current_range_meters":29600,"station_id":"ce4bh092rcd13ifvqd30","pricing_plan_id":"cebpf4jnsgd1na2vs0mg"},{"bike_id":"b82d858a-91a0-49bf-a6fc-8ae898ab18fa","system_id":"levelo_inurba_marseille","lat":43.312609,"lon":5.401662,"is_reserved":false,"is_disabled":false,"rental_uris":{"android":"levelo://app?vid=b82d858a-91a0-49bf-a6fc-8ae898ab18fa","ios":"levelo://app?vid=b82d858a-91a0-49bf-a6fc-8ae898ab18fa"},"vehicle_type_id":"4","last_reported":1723227059,"current_range_meters":31200,"station_id":"ce4bh092rcd13ifvqd30","pricing_plan_id":"cebpf4jnsgd1na2vs0mg"},{"bike_id":"0117df17-0625-4f4f-8a72-3d9e7f6a1d77","system_id":"levelo_inurba_marseille","lat":43.309371,"lon":5.401449,"is_reserved":false,"is_disabled":false,"rental_uris":{"android":"levelo://app?vid=0117df17-0625-4f4f-8a72-3d9e7f6a1d77","ios":"levelo://app?vid=0117df17-0625-4f4f-8a72-3d9e7f6a1d77"},"vehicle_type_id":"4","last_reported":1723227059,"current_range_meters":400,"station_id":"ce4bgvp2rcd13ifvqct0","pricing_plan_id":"cebpf4jnsgd1na2vs0mg"},{"bike_id":"9c55f09b-d93e-4a6b-a3a1-5b99c61d4b92","system_id":"levelo_inurba_marseille","lat":43.309371,"lon":5.401449,"is_reserved":false,"is_disabled":false,"rental_uris":{"android":"levelo://app?vid=9c55f09b-d93e-4a6b-a3a1-5b99c61d4b92","ios":"levelo://app?vid=9c55f09b-d93e-4a6b-a3a1-5b99c61d4b92"},"vehicle_type_id":"4","last_reported":1723227059,"current_range_meters":29600,"station_id":"ce4bgvp2rcd13ifvqct0","pricing_plan_id":"cebpf4jnsgd1na2vs0mg"},{"bike_id":"ac75d8e5-5139-4e43-a64e-51e7994c2517","system_id":"levelo_inurba_marseille","lat":43.337444,"lon":5.374475,"is_reserved":false,"is_disabled":false,"rental_uris":{"android":"levelo://app?vid=ac75d8e5-5139-4e43-a64e-51e7994c2517","ios":"levelo://app?vid=ac75d8e5-5139-4e43-a64e-51e7994c2517"},"vehicle_type_id":"3","last_reported":1723227059,"current_range_meters":24800,"station_id":"","pricing_plan_id":"cebpf4jnsgd1na2vs0mg"},{"bike_id":"3b18b95c-5f95-47e1-b095-aaf7d5a71dfd","system_id":"levelo_inurba_marseille","lat":43.309371,"lon":5.401449,"is_reserved":false,"is_disabled":false,"rental_uris":{"android":"levelo://app?vid=3b18b95c-5f95-47e1-b095-aaf7d5a71dfd","ios":"levelo://app?vid=3b18b95c-5f95-47e1-b095-aaf7d5a71dfd"},"vehicle_type_id":"4","last_reported":1723227059,"current_range_meters":8000,"station_id":"ce4bgvp2rcd13ifvqct0","pricing_plan_id":"cebpf4jnsgd1na2vs0mg"},{"bike_id":"dbfd219a-84de-418a-950d-44947ad9285d","system_id":"levelo_inurba_marseille","lat":43.309371,"lon":5.401449,"is_reserved":false,"is_disabled":false,"rental_uris":{"android":"levelo://app?vid=dbfd219a-84de-418a-950d-44947ad9285d","ios":"levelo://app?vid=dbfd219a-84de-418a-950d-44947ad9285d"},"vehicle_type_id":"4","last_reported":1723227059,"current_range_meters":25200,"station_id":"ce4bgvp2rcd13ifvqct0","pricing_plan_id":"cebpf4jnsgd1na2vs0mg"},{"bike_id":"1596ed5a-2748-4147-884b-51e994b2b8ca","system_id":"levelo_inurba_marseille","lat":43.337482,"lon":5.374568,"is_reserved":false,"is_disabled":false,"rental_uris":{"android":"levelo://app?vid=1596ed5a-2748-4147-884b-51e994b2b8ca","ios":"levelo://app?vid=1596ed5a-2748-4147-884b-51e994b2b8ca"},"vehicle_type_id":"4","last_reported":1723227059,"current_range_meters":19600,"station_id":"","pricing_plan_id":"cebpf4jnsgd1na2vs0mg"},{"bike_id":"6137b86e-8de9-4c4f-94ef-bfa372175031","system_id":"levelo_inurba_marseille","lat":43.337513,"lon":5.37454,"is_reserved":false,"is_disabled":false,"rental_uris":{"android":"levelo://app?vid=6137b86e-8de9-4c4f-94ef-bfa372175031","ios":"levelo://app?vid=6137b86e-8de9-4c4f-94ef-bfa372175031"},"vehicle_type_id":"4","last_reported":1723227059,"current_range_meters":18800,"station_id":"","pricing_plan_id":"cebpf4jnsgd1na2vs0mg"},{"bike_id":"f2c39657-f64b-4c05-b0b3-af94dc52094d","system_id":"levelo_inurba_marseille","lat":43.337545,"lon":5.374484,"is_reserved":false,"is_disabled":false,"rental_uris":{"android":"levelo://app?vid=f2c39657-f64b-4c05-b0b3-af94dc52094d","ios":"levelo://app?vid=f2c39657-f64b-4c05-b0b3-af94dc52094d"},"vehicle_type_id":"4","last_reported":1723227059,"current_range_meters":3600,"station_id":"","pricing_plan_id":"cebpf4jnsgd1na2vs0mg"},{"bike_id":"c24ccdf3-8374-4625-a41a-8280c7fc42b0","system_id":"levelo_inurba_marseille","lat":43.337554,"lon":5.374452,"is_reserved":false,"is_disabled":false,"rental_uris":{"android":"levelo://app?vid=c24ccdf3-8374-4625-a41a-8280c7fc42b0","ios":"levelo://app?vid=c24ccdf3-8374-4625-a41a-8280c7fc42b0"},"vehicle_type_id":"4","last_reported":1723227059,"current_range_meters":28400,"station_id":"","pricing_plan_id":"cebpf4jnsgd1na2vs0mg"},{"bike_id":"95e665ed-afbb-4ece-97e4-ecc3d1a7e7e9","system_id":"levelo_inurba_marseille","lat":43.33764,"lon":5.37438,"is_reserved":false,"is_disabled":false,"rental_uris":{"android":"levelo://app?vid=95e665ed-afbb-4ece-97e4-ecc3d1a7e7e9","ios":"levelo://app?vid=95e665ed-afbb-4ece-97e4-ecc3d1a7e7e9"},"vehicle_type_id":"4","last_reported":1723227059,"current_range_meters":30400,"station_id":"","pricing_plan_id":"cebpf4jnsgd1na2vs0mg"},{"bike_id":"9c370677-6c6f-4d23-8cf0-7d8de4f71f2a","system_id":"levelo_inurba_marseille","lat":43.337673,"lon":5.374343,"is_reserved":false,"is_disabled":false,"rental_uris":{"android":"levelo://app?vid=9c370677-6c6f-4d23-8cf0-7d8de4f71f2a","ios":"levelo://app?vid=9c370677-6c6f-4d23-8cf0-7d8de4f71f2a"},"vehicle_type_id":"4","last_reported":1723227059,"current_range_meters":22400,"station_id":"","pricing_plan_id":"cebpf4jnsgd1na2vs0mg"},{"bike_id":"475ed14f-5d86-4ce1-9e44-9d4d1bef7035","system_id":"levelo_inurba_marseille","lat":43.33771,"lon":5.37479,"is_reserved":false,"is_disabled":false,"rental_uris":{"android":"levelo://app?vid=475ed14f-5d86-4ce1-9e44-9d4d1bef7035","ios":"levelo://app?vid=475ed14f-5d86-4ce1-9e44-9d4d1bef7035"},"vehicle_type_id":"4","last_reported":1723227059,"current_range_meters":27200,"station_id":"","pricing_plan_id":"cebpf4jnsgd1na2vs0mg"},{"bike_id":"c907c6ee-a25b-4c4d-998d-08e1dde9d32a","system_id":"levelo_inurba_marseille","lat":43.30136,"lon":5.39871,"is_reserved":false,"is_disabled":false,"rental_uris":{"android":"levelo://app?vid=c907c6ee-a25b-4c4d-998d-08e1dde9d32a","ios":"levelo://app?vid=c907c6ee-a25b-4c4d-998d-08e1dde9d32a"},"vehicle_type_id":"4","last_reported":1723227059,"current_range_meters":0,"station_id":"ce4bh0h2rcd13ifvqd40","pricing_plan_id":"cebpf4jnsgd1na2vs0mg"},{"bike_id":"d685b03c-795e-417b-af0c-567ad42f20cb","system_id":"levelo_inurba_marseille","lat":43.287793,"lon":5.357218,"is_reserved":false,"is_disabled":false,"rental_uris":{"android":"levelo://app?vid=d685b03c-795e-417b-af0c-567ad42f20cb","ios":"levelo://app?vid=d685b03c-795e-417b-af0c-567ad42f20cb"},"vehicle_type_id":"4","last_reported":1723227059,"current_range_meters":11600,"station_id":"","pricing_plan_id":"cebpf4jnsgd1na2vs0mg"},{"bike_id":"950b7df7-9acb-48bd-b709-b33526a64e31","system_id":"levelo_inurba_marseille","lat":43.28667,"lon":5.36345,"is_reserved":false,"is_disabled":false,"rental_uris":{"android":"levelo://app?vid=950b7df7-9acb-48bd-b709-b33526a64e31","ios":"levelo://app?vid=950b7df7-9acb-48bd-b709-b33526a64e31"},"vehicle_type_id":"4","last_reported":1723227059,"current_range_meters":22000,"station_id":"","pricing_plan_id":"cebpf4jnsgd1na2vs0mg"},{"bike_id":"ee9db5f5-111d-41a1-a9cd-e2e0a7336666","system_id":"levelo_inurba_marseille","lat":43.28704,"lon":5.37395,"is_reserved":false,"is_disabled":false,"rental_uris":{"android":"levelo://app?vid=ee9db5f5-111d-41a1-a9cd-e2e0a7336666","ios":"levelo://app?vid=ee9db5f5-111d-41a1-a9cd-e2e0a7336666"},"vehicle_type_id":"4","last_reported":1723227059,"current_range_meters":0,"station_id":"ce4bh3p2rcd13ifvqdq0","pricing_plan_id":"cebpf4jnsgd1na2vs0mg"},{"bike_id":"7b08f4d0-10c4-414f-b27b-6f9ff2df43ae","system_id":"levelo_inurba_marseille","lat":43.286961,"lon":5.373785,"is_reserved":false,"is_disabled":false,"rental_uris":{"android":"levelo://app?vid=7b08f4d0-10c4-414f-b27b-6f9ff2df43ae","ios":"levelo://app?vid=7b08f4d0-10c4-414f-b27b-6f9ff2df43ae"},"vehicle_type_id":"4","last_reported":1723227059,"current_range_meters":16400,"station_id":"ce4bh3p2rcd13ifvqdq0","pricing_plan_id":"cebpf4jnsgd1na2vs0mg"},{"bike_id":"491d9422-4e4b-4b9e-a83d-43a9081642f0","system_id":"levelo_inurba_marseille","lat":43.286961,"lon":5.373785,"is_reserved":false,"is_disabled":false,"rental_uris":{"android":"levelo://app?vid=491d9422-4e4b-4b9e-a83d-43a9081642f0","ios":"levelo://app?vid=491d9422-4e4b-4b9e-a83d-43a9081642f0"},"vehicle_type_id":"4","last_reported":1723227059,"current_range_meters":15200,"station_id":"ce4bh3p2rcd13ifvqdq0","pricing_plan_id":"cebpf4jnsgd1na2vs0mg"},{"bike_id":"dc5fdc55-41ba-43a9-8160-38b31b3da8bf","system_id":"levelo_inurba_marseille","lat":43.286591,"lon":5.363346,"is_reserved":false,"is_disabled":false,"rental_uris":{"android":"levelo://app?vid=dc5fdc55-41ba-43a9-8160-38b31b3da8bf","ios":"levelo://app?vid=dc5fdc55-41ba-43a9-8160-38b31b3da8bf"},"vehicle_type_id":"4","last_reported":1723227059,"current_range_meters":800,"station_id":"ce4bhah2rcd13ifvqej0","pricing_plan_id":"cebpf4jnsgd1na2vs0mg"},{"bike_id":"c57425d0-2830-4753-839e-a68a31245428","system_id":"levelo_inurba_marseille","lat":43.286591,"lon":5.363346,"is_reserved":false,"is_disabled":false,"rental_uris":{"android":"levelo://app?vid=c57425d0-2830-4753-839e-a68a31245428","ios":"levelo://app?vid=c57425d0-2830-4753-839e-a68a31245428"},"vehicle_type_id":"4","last_reported":1723227059,"current_range_meters":0,"station_id":"ce4bhah2rcd13ifvqej0","pricing_plan_id":"cebpf4jnsgd1na2vs0mg"},{"bike_id":"fc116126-7748-478b-a5c6-1e758bd8ba5e","system_id":"levelo_inurba_marseille","lat":43.29021,"lon":5.38626,"is_reserved":false,"is_disabled":false,"rental_uris":{"android":"levelo://app?vid=fc116126-7748-478b-a5c6-1e758bd8ba5e","ios":"levelo://app?vid=fc116126-7748-478b-a5c6-1e758bd8ba5e"},"vehicle_type_id":"4","last_reported":1723227059,"current_range_meters":0,"station_id":"ce4bh4p2rcd13ifvqe0g","pricing_plan_id":"cebpf4jnsgd1na2vs0mg"},{"bike_id":"7b1d5912-2821-4f71-86d8-1a2ea3afa3c6","system_id":"levelo_inurba_marseille","lat":43.302759,"lon":5.400793,"is_reserved":false,"is_disabled":false,"rental_uris":{"android":"levelo://app?vid=7b1d5912-2821-4f71-86d8-1a2ea3afa3c6","ios":"levelo://app?vid=7b1d5912-2821-4f71-86d8-1a2ea3afa3c6"},"vehicle_type_id":"4","last_reported":1723227059,"current_range_meters":0,"station_id":"ce4bgvh2rcd13ifvqcs0","pricing_plan_id":"cebpf4jnsgd1na2vs0mg"},{"bike_id":"1d24c794-d641-49fc-b34b-f62e65267e7a","system_id":"levelo_inurba_marseille","lat":43.302759,"lon":5.400793,"is_reserved":false,"is_disabled":false,"rental_uris":{"android":"levelo://app?vid=1d24c794-d641-49fc-b34b-f62e65267e7a","ios":"levelo://app?vid=1d24c794-d641-49fc-b34b-f62e65267e7a"},"vehicle_type_id":"4","last_reported":1723227059,"current_range_meters":800,"station_id":"ce4bgvh2rcd13ifvqcs0","pricing_plan_id":"cebpf4jnsgd1na2vs0mg"},{"bike_id":"97c7daef-e8e5-4de4-b5c2-aea7fa09fcf3","system_id":"levelo_inurba_marseille","lat":43.286039,"lon":5.370679,"is_reserved":false,"is_disabled":false,"rental_uris":{"android":"levelo://app?vid=97c7daef-e8e5-4de4-b5c2-aea7fa09fcf3","ios":"levelo://app?vid=97c7daef-e8e5-4de4-b5c2-aea7fa09fcf3"},"vehicle_type_id":"4","last_reported":1723227059,"current_range_meters":1200,"station_id":"ce4bht12rcd13ifvqi60","pricing_plan_id":"cebpf4jnsgd1na2vs0mg"},{"bike_id":"31af76ec-b9b8-4187-a64b-383a8ae30b9d","system_id":"levelo_inurba_marseille","lat":43.286039,"lon":5.370679,"is_reserved":false,"is_disabled":false,"rental_uris":{"android":"levelo://app?vid=31af76ec-b9b8-4187-a64b-383a8ae30b9d","ios":"levelo://app?vid=31af76ec-b9b8-4187-a64b-383a8ae30b9d"},"vehicle_type_id":"4","last_reported":1723227059,"current_range_meters":30400,"station_id":"ce4bht12rcd13ifvqi60","pricing_plan_id":"cebpf4jnsgd1na2vs0mg"},{"bike_id":"08916798-795b-4721-b7ba-bf36b5883456","system_id":"levelo_inurba_marseille","lat":43.286039,"lon":5.370681,"is_reserved":false,"is_disabled":false,"rental_uris":{"android":"levelo://app?vid=08916798-795b-4721-b7ba-bf36b5883456","ios":"levelo://app?vid=08916798-795b-4721-b7ba-bf36b5883456"},"vehicle_type_id":"4","last_reported":1723227059,"current_range_meters":6400,"station_id":"ce4bht12rcd13ifvqi60","pricing_plan_id":"cebpf4jnsgd1na2vs0mg"},{"bike_id":"6f4ee892-6088-48db-b6b7-9ca8e650738d","system_id":"levelo_inurba_marseille","lat":43.286039,"lon":5.370681,"is_reserved":false,"is_disabled":false,"rental_uris":{"android":"levelo://app?vid=6f4ee892-6088-48db-b6b7-9ca8e650738d","ios":"levelo://app?vid=6f4ee892-6088-48db-b6b7-9ca8e650738d"},"vehicle_type_id":"4","last_reported":1723227059,"current_range_meters":15200,"station_id":"ce4bht12rcd13ifvqi60","pricing_plan_id":"cebpf4jnsgd1na2vs0mg"},{"bike_id":"967f5dca-8aa8-4ac7-9223-d7f496eb6c1f","system_id":"levelo_inurba_marseille","lat":43.286039,"lon":5.370681,"is_reserved":false,"is_disabled":false,"rental_uris":{"android":"levelo://app?vid=967f5dca-8aa8-4ac7-9223-d7f496eb6c1f","ios":"levelo://app?vid=967f5dca-8aa8-4ac7-9223-d7f496eb6c1f"},"vehicle_type_id":"4","last_reported":1723227059,"current_range_meters":0,"station_id":"ce4bht12rcd13ifvqi60","pricing_plan_id":"cebpf4jnsgd1na2vs0mg"},{"bike_id":"f585ff29-66a8-4796-9558-0e51bd1b9323","system_id":"levelo_inurba_marseille","lat":43.28723,"lon":5.37936,"is_reserved":false,"is_disabled":false,"rental_uris":{"android":"levelo://app?vid=f585ff29-66a8-4796-9558-0e51bd1b9323","ios":"levelo://app?vid=f585ff29-66a8-4796-9558-0e51bd1b9323"},"vehicle_type_id":"4","last_reported":1723227059,"current_range_meters":0,"station_id":"ce4bh9p2rcd13ifvqec0","pricing_plan_id":"cebpf4jnsgd1na2vs0mg"},{"bike_id":"3e59f682-43c4-4bdc-9bec-0f64a75decd2","system_id":"levelo_inurba_marseille","lat":43.287184,"lon":5.37937,"is_reserved":false,"is_disabled":false,"rental_uris":{"android":"levelo://app?vid=3e59f682-43c4-4bdc-9bec-0f64a75decd2","ios":"levelo://app?vid=3e59f682-43c4-4bdc-9bec-0f64a75decd2"},"vehicle_type_id":"4","last_reported":1723227059,"current_range_meters":0,"station_id":"ce4bh9p2rcd13ifvqec0","pricing_plan_id":"cebpf4jnsgd1na2vs0mg"},{"bike_id":"a9ca5ee6-3c17-4148-b9c7-5a3f03637bba","system_id":"levelo_inurba_marseille","lat":43.28721,"lon":5.35198,"is_reserved":false,"is_disabled":false,"rental_uris":{"android":"levelo://app?vid=a9ca5ee6-3c17-4148-b9c7-5a3f03637bba","ios":"levelo://app?vid=a9ca5ee6-3c17-4148-b9c7-5a3f03637bba"},"vehicle_type_id":"4","last_reported":1723227059,"current_range_meters":0,"station_id":"","pricing_plan_id":"cebpf4jnsgd1na2vs0mg"},{"bike_id":"152e1a17-2195-4e09-b7b8-b0e1482d0291","system_id":"levelo_inurba_marseille","lat":43.316828,"lon":5.404723,"is_reserved":false,"is_disabled":false,"rental_uris":{"android":"levelo://app?vid=152e1a17-2195-4e09-b7b8-b0e1482d0291","ios":"levelo://app?vid=152e1a17-2195-4e09-b7b8-b0e1482d0291"},"vehicle_type_id":"4","last_reported":1723227059,"current_range_meters":10800,"station_id":"ce4bh012rcd13ifvqd00","pricing_plan_id":"cebpf4jnsgd1na2vs0mg"},{"bike_id":"8a4f494f-a255-41c4-a6db-a77a20d0e947","system_id":"levelo_inurba_marseille","lat":43.29198,"lon":5.39323,"is_reserved":false,"is_disabled":false,"rental_uris":{"android":"levelo://app?vid=8a4f494f-a255-41c4-a6db-a77a20d0e947","ios":"levelo://app?vid=8a4f494f-a255-41c4-a6db-a77a20d0e947"},"vehicle_type_id":"4","last_reported":1723227059,"current_range_meters":0,"station_id":"ce4bh192rcd13ifvqdd0","pricing_plan_id":"cebpf4jnsgd1na2vs0mg"},{"bike_id":"59f3bff0-82a2-4370-94dd-897fbe4b7180","system_id":"levelo_inurba_marseille","lat":43.291971,"lon":5.39328,"is_reserved":false,"is_disabled":false,"rental_uris":{"android":"levelo://app?vid=59f3bff0-82a2-4370-94dd-897fbe4b7180","ios":"levelo://app?vid=59f3bff0-82a2-4370-94dd-897fbe4b7180"},"vehicle_type_id":"4","last_reported":1723227059,"current_range_meters":0,"station_id":"ce4bh192rcd13ifvqdd0","pricing_plan_id":"cebpf4jnsgd1na2vs0mg"},{"bike_id":"950ddbe2-eeac-43f7-a56a-50508bacdc51","system_id":"levelo_inurba_marseille","lat":43.28458,"lon":5.358902,"is_reserved":false,"is_disabled":false,"rental_uris":{"android":"levelo://app?vid=950ddbe2-eeac-43f7-a56a-50508bacdc51","ios":"levelo://app?vid=950ddbe2-eeac-43f7-a56a-50508bacdc51"},"vehicle_type_id":"4","last_reported":1723227059,"current_range_meters":29200,"station_id":"ce4bhah2rcd13ifvqei0","pricing_plan_id":"cebpf4jnsgd1na2vs0mg"},{"bike_id":"00187494-28a0-49c6-87d2-589f3bf3e393","system_id":"levelo_inurba_marseille","lat":43.294314,"lon":5.397498,"is_reserved":false,"is_disabled":false,"rental_uris":{"android":"levelo://app?vid=00187494-28a0-49c6-87d2-589f3bf3e393","ios":"levelo://app?vid=00187494-28a0-49c6-87d2-589f3bf3e393"},"vehicle_type_id":"4","last_reported":1723227059,"current_range_meters":0,"station_id":"ce4bh3h2rcd13ifvqdo0","pricing_plan_id":"cebpf4jnsgd1na2vs0mg"},{"bike_id":"412bab9c-0e72-4ad9-9a44-5e58f4ce0705","system_id":"levelo_inurba_marseille","lat":43.28614,"lon":5.35101,"is_reserved":false,"is_disabled":false,"rental_uris":{"android":"levelo://app?vid=412bab9c-0e72-4ad9-9a44-5e58f4ce0705","ios":"levelo://app?vid=412bab9c-0e72-4ad9-9a44-5e58f4ce0705"},"vehicle_type_id":"4","last_reported":1723227059,"current_range_meters":0,"station_id":"ce4bhch2rcd13ifvqeug","pricing_plan_id":"cebpf4jnsgd1na2vs0mg"},{"bike_id":"24582506-dc77-448e-b1e6-c5e74d28da36","system_id":"levelo_inurba_marseille","lat":43.28612,"lon":5.35103,"is_reserved":false,"is_disabled":false,"rental_uris":{"android":"levelo://app?vid=24582506-dc77-448e-b1e6-c5e74d28da36","ios":"levelo://app?vid=24582506-dc77-448e-b1e6-c5e74d28da36"},"vehicle_type_id":"4","last_reported":1723227059,"current_range_meters":0,"station_id":"ce4bhch2rcd13ifvqeug","pricing_plan_id":"cebpf4jnsgd1na2vs0mg"},{"bike_id":"5ee43693-2dd9-4312-accf-c919e8fe9786","system_id":"levelo_inurba_marseille","lat":43.28609,"lon":5.35098,"is_reserved":false,"is_disabled":false,"rental_uris":{"android":"levelo://app?vid=5ee43693-2dd9-4312-accf-c919e8fe9786","ios":"levelo://app?vid=5ee43693-2dd9-4312-accf-c919e8fe9786"},"vehicle_type_id":"4","last_reported":1723227059,"current_range_meters":31200,"station_id":"ce4bhch2rcd13ifvqeug","pricing_plan_id":"cebpf4jnsgd1na2vs0mg"},{"bike_id":"bae26861-5d5a-44e6-a88f-90057f8ecdaf","system_id":"levelo_inurba_marseille","lat":43.284117,"lon":5.375097,"is_reserved":false,"is_disabled":false,"rental_uris":{"android":"levelo://app?vid=bae26861-5d5a-44e6-a88f-90057f8ecdaf","ios":"levelo://app?vid=bae26861-5d5a-44e6-a88f-90057f8ecdaf"},"vehicle_type_id":"4","last_reported":1723227059,"current_range_meters":0,"station_id":"ce4bh412rcd13ifvqds0","pricing_plan_id":"cebpf4jnsgd1na2vs0mg"},{"bike_id":"7df7872f-d91c-4379-8d89-cee11f4b9091","system_id":"levelo_inurba_marseille","lat":43.283998,"lon":5.375062,"is_reserved":false,"is_disabled":false,"rental_uris":{"android":"levelo://app?vid=7df7872f-d91c-4379-8d89-cee11f4b9091","ios":"levelo://app?vid=7df7872f-d91c-4379-8d89-cee11f4b9091"},"vehicle_type_id":"4","last_reported":1723227059,"current_range_meters":0,"station_id":"ce4bh412rcd13ifvqds0","pricing_plan_id":"cebpf4jnsgd1na2vs0mg"},{"bike_id":"bc65e6c2-20b6-42da-a185-ff38d0534c67","system_id":"levelo_inurba_marseille","lat":43.283998,"lon":5.375062,"is_reserved":false,"is_disabled":false,"rental_uris":{"android":"levelo://app?vid=bc65e6c2-20b6-42da-a185-ff38d0534c67","ios":"levelo://app?vid=bc65e6c2-20b6-42da-a185-ff38d0534c67"},"vehicle_type_id":"4","last_reported":1723227059,"current_range_meters":0,"station_id":"ce4bh412rcd13ifvqds0","pricing_plan_id":"cebpf4jnsgd1na2vs0mg"},{"bike_id":"5a24a712-1252-43b2-970e-8e0c12c4c0a2","system_id":"levelo_inurba_marseille","lat":43.286595,"lon":5.386795,"is_reserved":false,"is_disabled":false,"rental_uris":{"android":"levelo://app?vid=5a24a712-1252-43b2-970e-8e0c12c4c0a2","ios":"levelo://app?vid=5a24a712-1252-43b2-970e-8e0c12c4c0a2"},"vehicle_type_id":"4","last_reported":1723227059,"current_range_meters":0,"station_id":"ce4bh492rcd13ifvqdug","pricing_plan_id":"cebpf4jnsgd1na2vs0mg"},{"bike_id":"bea2bfab-1850-4796-9243-ce9ffc4ae155","system_id":"levelo_inurba_marseille","lat":43.286595,"lon":5.386795,"is_reserved":false,"is_disabled":false,"rental_uris":{"android":"levelo://app?vid=bea2bfab-1850-4796-9243-ce9ffc4ae155","ios":"levelo://app?vid=bea2bfab-1850-4796-9243-ce9ffc4ae155"},"vehicle_type_id":"4","last_reported":1723227059,"current_range_meters":1200,"station_id":"ce4bh492rcd13ifvqdug","pricing_plan_id":"cebpf4jnsgd1na2vs0mg"},{"bike_id":"847b0fde-aeb3-49dd-acf9-d7ec2bda044a","system_id":"levelo_inurba_marseille","lat":43.286595,"lon":5.386795,"is_reserved":false,"is_disabled":false,"rental_uris":{"android":"levelo://app?vid=847b0fde-aeb3-49dd-acf9-d7ec2bda044a","ios":"levelo://app?vid=847b0fde-aeb3-49dd-acf9-d7ec2bda044a"},"vehicle_type_id":"4","last_reported":1723227059,"current_range_meters":10800,"station_id":"ce4bh492rcd13ifvqdug","pricing_plan_id":"cebpf4jnsgd1na2vs0mg"},{"bike_id":"8aacc45b-6b7c-4af3-bce3-35d5bd60ea3b","system_id":"levelo_inurba_marseille","lat":43.286595,"lon":5.386795,"is_reserved":false,"is_disabled":false,"rental_uris":{"android":"levelo://app?vid=8aacc45b-6b7c-4af3-bce3-35d5bd60ea3b","ios":"levelo://app?vid=8aacc45b-6b7c-4af3-bce3-35d5bd60ea3b"},"vehicle_type_id":"4","last_reported":1723227059,"current_range_meters":19200,"station_id":"ce4bh492rcd13ifvqdug","pricing_plan_id":"cebpf4jnsgd1na2vs0mg"},{"bike_id":"511fb0f8-8e47-4434-9abf-733705f5c068","system_id":"levelo_inurba_marseille","lat":43.28805,"lon":5.39143,"is_reserved":false,"is_disabled":false,"rental_uris":{"android":"levelo://app?vid=511fb0f8-8e47-4434-9abf-733705f5c068","ios":"levelo://app?vid=511fb0f8-8e47-4434-9abf-733705f5c068"},"vehicle_type_id":"4","last_reported":1723227059,"current_range_meters":22000,"station_id":"","pricing_plan_id":"cebpf4jnsgd1na2vs0mg"},{"bike_id":"f13909ea-d163-4bc7-96c8-865ce911aef4","system_id":"levelo_inurba_marseille","lat":43.323464,"lon":5.406297,"is_reserved":false,"is_disabled":false,"rental_uris":{"android":"levelo://app?vid=f13909ea-d163-4bc7-96c8-865ce911aef4","ios":"levelo://app?vid=f13909ea-d163-4bc7-96c8-865ce911aef4"},"vehicle_type_id":"4","last_reported":1723227059,"current_range_meters":26800,"station_id":"ce4bhq92rcd13ifvqhjg","pricing_plan_id":"cebpf4jnsgd1na2vs0mg"},{"bike_id":"e5fa527e-2097-4c19-9038-281b5cb5d37a","system_id":"levelo_inurba_marseille","lat":43.283494,"lon":5.380945,"is_reserved":false,"is_disabled":false,"rental_uris":{"android":"levelo://app?vid=e5fa527e-2097-4c19-9038-281b5cb5d37a","ios":"levelo://app?vid=e5fa527e-2097-4c19-9038-281b5cb5d37a"},"vehicle_type_id":"4","last_reported":1723227059,"current_range_meters":21600,"station_id":"ce4bh412rcd13ifvqdr0","pricing_plan_id":"cebpf4jnsgd1na2vs0mg"},{"bike_id":"aa92e226-752e-4727-8391-f5adf403d743","system_id":"levelo_inurba_marseille","lat":43.28484,"lon":5.38558,"is_reserved":false,"is_disabled":false,"rental_uris":{"android":"levelo://app?vid=aa92e226-752e-4727-8391-f5adf403d743","ios":"levelo://app?vid=aa92e226-752e-4727-8391-f5adf403d743"},"vehicle_type_id":"4","last_reported":1723227059,"current_range_meters":0,"station_id":"","pricing_plan_id":"cebpf4jnsgd1na2vs0mg"},{"bike_id":"2bc00687-aaf3-4eb3-bfcb-d7a807977990","system_id":"levelo_inurba_marseille","lat":43.284776,"lon":5.385603,"is_reserved":false,"is_disabled":false,"rental_uris":{"android":"levelo://app?vid=2bc00687-aaf3-4eb3-bfcb-d7a807977990","ios":"levelo://app?vid=2bc00687-aaf3-4eb3-bfcb-d7a807977990"},"vehicle_type_id":"4","last_reported":1723227059,"current_range_meters":2800,"station_id":"ce4bh8p2rcd13ifvqeb0","pricing_plan_id":"cebpf4jnsgd1na2vs0mg"},{"bike_id":"801e114e-ce6e-4db3-b64a-5831a96395ec","system_id":"levelo_inurba_marseille","lat":43.28418,"lon":5.34974,"is_reserved":false,"is_disabled":false,"rental_uris":{"android":"levelo://app?vid=801e114e-ce6e-4db3-b64a-5831a96395ec","ios":"levelo://app?vid=801e114e-ce6e-4db3-b64a-5831a96395ec"},"vehicle_type_id":"4","last_reported":1723227059,"current_range_meters":6000,"station_id":"","pricing_plan_id":"cebpf4jnsgd1na2vs0mg"},{"bike_id":"8b00c56d-77a5-4f59-8db2-46492ebf15d2","system_id":"levelo_inurba_marseille","lat":43.28418,"lon":5.34973,"is_reserved":false,"is_disabled":false,"rental_uris":{"android":"levelo://app?vid=8b00c56d-77a5-4f59-8db2-46492ebf15d2","ios":"levelo://app?vid=8b00c56d-77a5-4f59-8db2-46492ebf15d2"},"vehicle_type_id":"4","last_reported":1723227059,"current_range_meters":18000,"station_id":"","pricing_plan_id":"cebpf4jnsgd1na2vs0mg"},{"bike_id":"6a1d7ce2-238b-408f-8843-faccb3014414","system_id":"levelo_inurba_marseille","lat":43.28418,"lon":5.34971,"is_reserved":false,"is_disabled":false,"rental_uris":{"android":"levelo://app?vid=6a1d7ce2-238b-408f-8843-faccb3014414","ios":"levelo://app?vid=6a1d7ce2-238b-408f-8843-faccb3014414"},"vehicle_type_id":"4","last_reported":1723227059,"current_range_meters":0,"station_id":"ce4bhbh2rcd13ifvqepg","pricing_plan_id":"cebpf4jnsgd1na2vs0mg"},{"bike_id":"4edc0453-6120-4e93-b56d-064b3a72c7de","system_id":"levelo_inurba_marseille","lat":43.289363,"lon":5.396322,"is_reserved":false,"is_disabled":false,"rental_uris":{"android":"levelo://app?vid=4edc0453-6120-4e93-b56d-064b3a72c7de","ios":"levelo://app?vid=4edc0453-6120-4e93-b56d-064b3a72c7de"},"vehicle_type_id":"4","last_reported":1723227059,"current_range_meters":0,"station_id":"ce4bh3h2rcd13ifvqdn0","pricing_plan_id":"cebpf4jnsgd1na2vs0mg"},{"bike_id":"d5b542e4-8945-4a19-a499-c32763061ff9","system_id":"levelo_inurba_marseille","lat":43.33456,"lon":5.39793,"is_reserved":false,"is_disabled":false,"rental_uris":{"android":"levelo://app?vid=d5b542e4-8945-4a19-a499-c32763061ff9","ios":"levelo://app?vid=d5b542e4-8945-4a19-a499-c32763061ff9"},"vehicle_type_id":"4","last_reported":1723227059,"current_range_meters":0,"station_id":"","pricing_plan_id":"cebpf4jnsgd1na2vs0mg"},{"bike_id":"c344157c-1c52-44a5-ad1e-3ac49c40db56","system_id":"levelo_inurba_marseille","lat":43.292724,"lon":5.401131,"is_reserved":false,"is_disabled":false,"rental_uris":{"android":"levelo://app?vid=c344157c-1c52-44a5-ad1e-3ac49c40db56","ios":"levelo://app?vid=c344157c-1c52-44a5-ad1e-3ac49c40db56"},"vehicle_type_id":"4","last_reported":1723227059,"current_range_meters":0,"station_id":"ce4bh312rcd13ifvqdk0","pricing_plan_id":"cebpf4jnsgd1na2vs0mg"},{"bike_id":"274037fa-9ea9-4478-a370-454e9bd18d45","system_id":"levelo_inurba_marseille","lat":43.309916,"lon":5.41062,"is_reserved":false,"is_disabled":false,"rental_uris":{"android":"levelo://app?vid=274037fa-9ea9-4478-a370-454e9bd18d45","ios":"levelo://app?vid=274037fa-9ea9-4478-a370-454e9bd18d45"},"vehicle_type_id":"4","last_reported":1723227059,"current_range_meters":400,"station_id":"","pricing_plan_id":"cebpf4jnsgd1na2vs0mg"},{"bike_id":"7e0df23d-36f5-47cf-8712-19eea19fed3d","system_id":"levelo_inurba_marseille","lat":43.292724,"lon":5.401131,"is_reserved":false,"is_disabled":false,"rental_uris":{"android":"levelo://app?vid=7e0df23d-36f5-47cf-8712-19eea19fed3d","ios":"levelo://app?vid=7e0df23d-36f5-47cf-8712-19eea19fed3d"},"vehicle_type_id":"4","last_reported":1723227059,"current_range_meters":0,"station_id":"ce4bh312rcd13ifvqdk0","pricing_plan_id":"cebpf4jnsgd1na2vs0mg"},{"bike_id":"e4fe9049-8e09-41e0-9c2a-36f642b81bc7","system_id":"levelo_inurba_marseille","lat":43.28274,"lon":5.35065,"is_reserved":false,"is_disabled":false,"rental_uris":{"android":"levelo://app?vid=e4fe9049-8e09-41e0-9c2a-36f642b81bc7","ios":"levelo://app?vid=e4fe9049-8e09-41e0-9c2a-36f642b81bc7"},"vehicle_type_id":"4","last_reported":1723227059,"current_range_meters":0,"station_id":"ce4bhbp2rcd13ifvqerg","pricing_plan_id":"cebpf4jnsgd1na2vs0mg"},{"bike_id":"ce3cfe8a-eccd-4253-9ad9-ac7fd94f0825","system_id":"levelo_inurba_marseille","lat":43.28272,"lon":5.35067,"is_reserved":false,"is_disabled":false,"rental_uris":{"android":"levelo://app?vid=ce3cfe8a-eccd-4253-9ad9-ac7fd94f0825","ios":"levelo://app?vid=ce3cfe8a-eccd-4253-9ad9-ac7fd94f0825"},"vehicle_type_id":"4","last_reported":1723227059,"current_range_meters":0,"station_id":"ce4bhbp2rcd13ifvqerg","pricing_plan_id":"cebpf4jnsgd1na2vs0mg"},{"bike_id":"2fe795f8-79ff-42fb-a109-9af726dacb26","system_id":"levelo_inurba_marseille","lat":43.28274,"lon":5.35055,"is_reserved":false,"is_disabled":false,"rental_uris":{"android":"levelo://app?vid=2fe795f8-79ff-42fb-a109-9af726dacb26","ios":"levelo://app?vid=2fe795f8-79ff-42fb-a109-9af726dacb26"},"vehicle_type_id":"4","last_reported":1723227059,"current_range_meters":0,"station_id":"ce4bhbp2rcd13ifvqerg","pricing_plan_id":"cebpf4jnsgd1na2vs0mg"},{"bike_id":"9b47bbc2-c2dc-4ed3-8e80-951d4d368d59","system_id":"levelo_inurba_marseille","lat":43.29042,"lon":5.39959,"is_reserved":false,"is_disabled":false,"rental_uris":{"android":"levelo://app?vid=9b47bbc2-c2dc-4ed3-8e80-951d4d368d59","ios":"levelo://app?vid=9b47bbc2-c2dc-4ed3-8e80-951d4d368d59"},"vehicle_type_id":"4","last_reported":1723227059,"current_range_meters":0,"station_id":"ce4bh392rcd13ifvqdm0","pricing_plan_id":"cebpf4jnsgd1na2vs0mg"},{"bike_id":"f6fdbfe6-994f-4306-9386-5febdcc9ab26","system_id":"levelo_inurba_marseille","lat":43.290412,"lon":5.399633,"is_reserved":false,"is_disabled":false,"rental_uris":{"android":"levelo://app?vid=f6fdbfe6-994f-4306-9386-5febdcc9ab26","ios":"levelo://app?vid=f6fdbfe6-994f-4306-9386-5febdcc9ab26"},"vehicle_type_id":"4","last_reported":1723227059,"current_range_meters":0,"station_id":"ce4bh392rcd13ifvqdm0","pricing_plan_id":"cebpf4jnsgd1na2vs0mg"},{"bike_id":"46734034-e52c-4a6e-97f7-fa16fe507127","system_id":"levelo_inurba_marseille","lat":43.29041,"lon":5.399634,"is_reserved":false,"is_disabled":false,"rental_uris":{"android":"levelo://app?vid=46734034-e52c-4a6e-97f7-fa16fe507127","ios":"levelo://app?vid=46734034-e52c-4a6e-97f7-fa16fe507127"},"vehicle_type_id":"4","last_reported":1723227059,"current_range_meters":21600,"station_id":"ce4bh392rcd13ifvqdm0","pricing_plan_id":"cebpf4jnsgd1na2vs0mg"},{"bike_id":"c0d78e03-14d3-4f4e-85b0-76d8481bf18d","system_id":"levelo_inurba_marseille","lat":43.284462,"lon":5.392121,"is_reserved":false,"is_disabled":false,"rental_uris":{"android":"levelo://app?vid=c0d78e03-14d3-4f4e-85b0-76d8481bf18d","ios":"levelo://app?vid=c0d78e03-14d3-4f4e-85b0-76d8481bf18d"},"vehicle_type_id":"4","last_reported":1723227059,"current_range_meters":20400,"station_id":"ce4bhoh2rcd13ifvqh5g","pricing_plan_id":"cebpf4jnsgd1na2vs0mg"},{"bike_id":"89c38c19-3acb-4c0c-94e7-ceb1206d2323","system_id":"levelo_inurba_marseille","lat":43.326605,"lon":5.409903,"is_reserved":false,"is_disabled":false,"rental_uris":{"android":"levelo://app?vid=89c38c19-3acb-4c0c-94e7-ceb1206d2323","ios":"levelo://app?vid=89c38c19-3acb-4c0c-94e7-ceb1206d2323"},"vehicle_type_id":"4","last_reported":1723227059,"current_range_meters":12000,"station_id":"ce4bhpp2rcd13ifvqhgg","pricing_plan_id":"cebpf4jnsgd1na2vs0mg"},{"bike_id":"bd334b16-983b-43c8-940e-6c0653bc5f5c","system_id":"levelo_inurba_marseille","lat":43.32657,"lon":5.40994,"is_reserved":false,"is_disabled":false,"rental_uris":{"android":"levelo://app?vid=bd334b16-983b-43c8-940e-6c0653bc5f5c","ios":"levelo://app?vid=bd334b16-983b-43c8-940e-6c0653bc5f5c"},"vehicle_type_id":"4","last_reported":1723227059,"current_range_meters":4400,"station_id":"","pricing_plan_id":"cebpf4jnsgd1na2vs0mg"},{"bike_id":"589d3e6b-85ee-43ef-b014-8e4ebfb5878f","system_id":"levelo_inurba_marseille","lat":43.304188,"lon":5.412904,"is_reserved":false,"is_disabled":false,"rental_uris":{"android":"levelo://app?vid=589d3e6b-85ee-43ef-b014-8e4ebfb5878f","ios":"levelo://app?vid=589d3e6b-85ee-43ef-b014-8e4ebfb5878f"},"vehicle_type_id":"4","last_reported":1723227059,"current_range_meters":0,"station_id":"ce4bhop2rcd13ifvqh8g","pricing_plan_id":"cebpf4jnsgd1na2vs0mg"},{"bike_id":"8379091b-8237-4e88-8f18-4b74cbb880a4","system_id":"levelo_inurba_marseille","lat":43.279087,"lon":5.380114,"is_reserved":false,"is_disabled":false,"rental_uris":{"android":"levelo://app?vid=8379091b-8237-4e88-8f18-4b74cbb880a4","ios":"levelo://app?vid=8379091b-8237-4e88-8f18-4b74cbb880a4"},"vehicle_type_id":"4","last_reported":1723227059,"current_range_meters":26400,"station_id":"ce4bhf92rcd13ifvqf50","pricing_plan_id":"cebpf4jnsgd1na2vs0mg"},{"bike_id":"e8c162b9-a03c-45eb-870a-296ffa56dffc","system_id":"levelo_inurba_marseille","lat":43.279087,"lon":5.380114,"is_reserved":false,"is_disabled":false,"rental_uris":{"android":"levelo://app?vid=e8c162b9-a03c-45eb-870a-296ffa56dffc","ios":"levelo://app?vid=e8c162b9-a03c-45eb-870a-296ffa56dffc"},"vehicle_type_id":"4","last_reported":1723227059,"current_range_meters":9200,"station_id":"ce4bhf92rcd13ifvqf50","pricing_plan_id":"cebpf4jnsgd1na2vs0mg"},{"bike_id":"7ff5c607-8a27-4047-b2d9-3e059b9a43cb","system_id":"levelo_inurba_marseille","lat":43.279087,"lon":5.380114,"is_reserved":false,"is_disabled":false,"rental_uris":{"android":"levelo://app?vid=7ff5c607-8a27-4047-b2d9-3e059b9a43cb","ios":"levelo://app?vid=7ff5c607-8a27-4047-b2d9-3e059b9a43cb"},"vehicle_type_id":"4","last_reported":1723227059,"current_range_meters":20800,"station_id":"ce4bhf92rcd13ifvqf50","pricing_plan_id":"cebpf4jnsgd1na2vs0mg"},{"bike_id":"087eb0e6-b5d7-436e-873e-a44068b5eb4e","system_id":"levelo_inurba_marseille","lat":43.320045,"lon":5.415046,"is_reserved":false,"is_disabled":false,"rental_uris":{"android":"levelo://app?vid=087eb0e6-b5d7-436e-873e-a44068b5eb4e","ios":"levelo://app?vid=087eb0e6-b5d7-436e-873e-a44068b5eb4e"},"vehicle_type_id":"4","last_reported":1723227059,"current_range_meters":0,"station_id":"ce4bhq92rcd13ifvqhkg","pricing_plan_id":"cebpf4jnsgd1na2vs0mg"},{"bike_id":"b174f651-490b-4eeb-8080-e074db75ec46","system_id":"levelo_inurba_marseille","lat":43.292571,"lon":5.409107,"is_reserved":false,"is_disabled":false,"rental_uris":{"android":"levelo://app?vid=b174f651-490b-4eeb-8080-e074db75ec46","ios":"levelo://app?vid=b174f651-490b-4eeb-8080-e074db75ec46"},"vehicle_type_id":"4","last_reported":1723227059,"current_range_meters":6800,"station_id":"ce4bh192rcd13ifvqdc0","pricing_plan_id":"cebpf4jnsgd1na2vs0mg"},{"bike_id":"5dded9a6-2b69-489b-98fa-bd32c93d046d","system_id":"levelo_inurba_marseille","lat":43.292569,"lon":5.409107,"is_reserved":false,"is_disabled":false,"rental_uris":{"android":"levelo://app?vid=5dded9a6-2b69-489b-98fa-bd32c93d046d","ios":"levelo://app?vid=5dded9a6-2b69-489b-98fa-bd32c93d046d"},"vehicle_type_id":"4","last_reported":1723227059,"current_range_meters":25600,"station_id":"ce4bh192rcd13ifvqdc0","pricing_plan_id":"cebpf4jnsgd1na2vs0mg"},{"bike_id":"82a37f6f-f24c-4d3f-9cd4-c523a56b6833","system_id":"levelo_inurba_marseille","lat":43.27618,"lon":5.361009,"is_reserved":false,"is_disabled":false,"rental_uris":{"android":"levelo://app?vid=82a37f6f-f24c-4d3f-9cd4-c523a56b6833","ios":"levelo://app?vid=82a37f6f-f24c-4d3f-9cd4-c523a56b6833"},"vehicle_type_id":"4","last_reported":1723227059,"current_range_meters":10400,"station_id":"ce4bgj92rcd13ifvqbe0","pricing_plan_id":"cebpf4jnsgd1na2vs0mg"},{"bike_id":"31cb0c28-30a6-4470-ae3c-8fe1b0da94b1","system_id":"levelo_inurba_marseille","lat":43.27618,"lon":5.361009,"is_reserved":false,"is_disabled":false,"rental_uris":{"android":"levelo://app?vid=31cb0c28-30a6-4470-ae3c-8fe1b0da94b1","ios":"levelo://app?vid=31cb0c28-30a6-4470-ae3c-8fe1b0da94b1"},"vehicle_type_id":"4","last_reported":1723227059,"current_range_meters":16800,"station_id":"ce4bgj92rcd13ifvqbe0","pricing_plan_id":"cebpf4jnsgd1na2vs0mg"},{"bike_id":"b5cf683a-5072-4ed7-9285-488864d559e0","system_id":"levelo_inurba_marseille","lat":43.27617,"lon":5.36104,"is_reserved":false,"is_disabled":false,"rental_uris":{"android":"levelo://app?vid=b5cf683a-5072-4ed7-9285-488864d559e0","ios":"levelo://app?vid=b5cf683a-5072-4ed7-9285-488864d559e0"},"vehicle_type_id":"4","last_reported":1723227059,"current_range_meters":24800,"station_id":"ce4bgj92rcd13ifvqbe0","pricing_plan_id":"cebpf4jnsgd1na2vs0mg"},