{"last_updated":1768752766,"ttl":60,"version":"2.2","data":{"bikes":[{"bike_id":"bb07dfed-85dc-4af8-8fd2-5ea8c9b12b59","system_id":"levelo_inurba_marseille","lat":43.25581,"lon":5.3822,"is_reserved":false,"is_disabled":false,"rental_uris":{"android":"levelo://app?vid=bb07dfed-85dc-4af8-8fd2-5ea8c9b12b59","ios":"levelo://app?vid=bb07dfed-85dc-4af8-8fd2-5ea8c9b12b59"},"vehicle_type_id":"4","last_reported":1768752767,"current_range_meters":2800,"station_id":"ce4bhih2rcd13ifvqfs0","pricing_plan_id":"cebpf4jnsgd1na2vs0mg"},{"bike_id":"05996cfc-f58e-420d-830f-19a8f82aa66f","system_id":"levelo_inurba_marseille","lat":43.28005,"lon":5.39998,"is_reserved":false,"is_disabled":false,"rental_uris":{"android":"levelo://app?vid=05996cfc-f58e-420d-830f-19a8f82aa66f","ios":"levelo://app?vid=05996cfc-f58e-420d-830f-19a8f82aa66f"},"vehicle_type_id":"4","last_reported":1768752767,"current_range_meters":2800,"station_id":"ce4bho92rcd13ifvqh4g","pricing_plan_id":"cebpf4jnsgd1na2vs0mg"},{"bike_id":"2675671c-3881-46f8-8b37-e9cc96a4dbb9","system_id":"levelo_inurba_marseille","lat":43.29812,"lon":5.37595,"is_reserved":false,"is_disabled":false,"rental_uris":{"android":"levelo://app?vid=2675671c-3881-46f8-8b37-e9cc96a4dbb9","ios":"levelo://app?vid=2675671c-3881-46f8-8b37-e9cc96a4dbb9"},"vehicle_type_id":"4","last_reported":1768752767,"current_range_meters":2800,"station_id":"","pricing_plan_id":"cebpf4jnsgd1na2vs0mg"},{"bike_id":"49ecf593-a1c9-4420-b6f0-bea038ba7420","system_id":"levelo_inurba_marseille","lat":43.31285,"lon":5.37914,"is_reserved":false,"is_disabled":false,"rental_uris":{"android":"levelo://app?vid=49ecf593-a1c9-4420-b6f0-bea038ba7420","ios":"levelo://app?vid=49ecf593-a1c9-4420-b6f0-bea038ba7420"},"vehicle_type_id":"4","last_reported":1768752767,"current_range_meters":2800,"station_id":"","pricing_plan_id":"cebpf4jnsgd1na2vs0mg"},{"bike_id":"7176f1ca-8b5e-490b-a2c6-30442fad6105","system_id":"levelo_inurba_marseille","lat":43.285395,"lon":5.440955,"is_reserved":false,"is_disabled":false,"rental_uris":{"android":"levelo://app?vid=7176f1ca-8b5e-490b-a2c6-30442fad6105","ios":"levelo://app?vid=7176f1ca-8b5e-490b-a2c6-30442fad6105"},"vehicle_type_id":"4","last_reported":1768752767,"current_range_meters":2800,"station_id":"st_d3j3df2ikq2c7380ej80","pricing_plan_id":"cebpf4jnsgd1na2vs0mg"},{"bike_id":"ffb66be1-6cd4-4851-af5e-e142b1e896c4","system_id":"levelo_inurba_marseille","lat":43.30751,"lon":5.42461,"is_reserved":false,"is_disabled":false,"rental_uris":{"android":"levelo://app?vid=ffb66be1-6cd4-4851-af5e-e142b1e896c4","ios":"levelo://app?vid=ffb66be1-6cd4-4851-af5e-e142b1e896c4"},"vehicle_type_id":"4","last_reported":1768752767,"current_range_meters":2800,"station_id":"st_cvj6ca6bvosntc0bfgr0","pricing_plan_id":"cebpf4jnsgd1na2vs0mg"},{"bike_id":"037cf33c-a236-44c8-aae6-7ce38a055e1e","system_id":"levelo_inurba_marseille","lat":43.3055,"lon":5.36535,"is_reserved":false,"is_disabled":false,"rental_uris":{"android":"levelo://app?vid=037cf33c-a236-44c8-aae6-7ce38a055e1e","ios":"levelo://app?vid=037cf33c-a236-44c8-aae6-7ce38a055e1e"},"vehicle_type_id":"4","last_reported":1768752767,"current_range_meters":2800,"station_id":"ce4bgs12rcd13ifvqcag","pricing_plan_id":"cebpf4jnsgd1na2vs0mg"},{"bike_id":"f27d777b-6544-4f21-a823-e930164ef3bc","system_id":"levelo_inurba_marseille","lat":43.30928,"lon":5.40148,"is_reserved":false,"is_disabled":false,"rental_uris":{"android":"levelo://app?vid=f27d777b-6544-4f21-a823-e930164ef3bc","ios":"levelo://app?vid=f27d777b-6544-4f21-a823-e930164ef3bc"},"vehicle_type_id":"4","last_reported":1768752767,"current_range_meters":2800,"station_id":"ce4bgvp2rcd13ifvqct0","pricing_plan_id":"cebpf4jnsgd1na2vs0mg"},{"bike_id":"9c9c9947-ec67-4e43-8e1c-43a37c7fa50d","system_id":"levelo_inurba_marseille","lat":43.291642,"lon":5.371538,"is_reserved":false,"is_disabled":false,"rental_uris":{"android":"levelo://app?vid=9c9c9947-ec67-4e43-8e1c-43a37c7fa50d","ios":"levelo://app?vid=9c9c9947-ec67-4e43-8e1c-43a37c7fa50d"},"vehicle_type_id":"4","last_reported":1768752767,"current_range_meters":3200,"station_id":"ce4bha92rcd13ifvqeh0","pricing_plan_id":"cebpf4jnsgd1na2vs0mg"},{"bike_id":"dfa72997-bdba-48f4-a1d1-63ff5130518c","system_id":"levelo_inurba_marseille","lat":43.32353,"lon":5.36754,"is_reserved":false,"is_disabled":false,"rental_uris":{"android":"levelo://app?vid=dfa72997-bdba-48f4-a1d1-63ff5130518c","ios":"levelo://app?vid=dfa72997-bdba-48f4-a1d1-63ff5130518c"},"vehicle_type_id":"4","last_reported":1768752767,"current_range_meters":3200,"station_id":"ce4bhsh2rcd13ifvqi2g","pricing_plan_id":"cebpf4jnsgd1na2vs0mg"},{"bike_id":"0105de79-43a8-4de9-af65-6d3d110a6400","system_id":"levelo_inurba_marseille","lat":43.24178,"lon":5.397349,"is_reserved":false,"is_disabled":false,"rental_uris":{"android":"levelo://app?vid=0105de79-43a8-4de9-af65-6d3d110a6400","ios":"levelo://app?vid=0105de79-43a8-4de9-af65-6d3d110a6400"},"vehicle_type_id":"4","last_reported":1768752767,"current_range_meters":3200,"station_id":"ce4bhn12rcd13ifvqgpg","pricing_plan_id":"cebpf4jnsgd1na2vs0mg"},{"bike_id":"ab96d693-0de6-43f1-85b1-d62380e9052b","system_id":"levelo_inurba_marseille","lat":43.27996,"lon":5.3999,"is_reserved":false,"is_disabled":false,"rental_uris":{"android":"levelo://app?vid=ab96d693-0de6-43f1-85b1-d62380e9052b","ios":"levelo://app?vid=ab96d693-0de6-43f1-85b1-d62380e9052b"},"vehicle_type_id":"4","last_reported":1768752767,"current_range_meters":3200,"station_id":"ce4bho92rcd13ifvqh4g","pricing_plan_id":"cebpf4jnsgd1na2vs0mg"},{"bike_id":"937d90e0-a5db-43d2-9364-92db8adcffb4","system_id":"levelo_inurba_marseille","lat":43.253335,"lon":5.42178,"is_reserved":false,"is_disabled":false,"rental_uris":{"android":"levelo://app?vid=937d90e0-a5db-43d2-9364-92db8adcffb4","ios":"levelo://app?vid=937d90e0-a5db-43d2-9364-92db8adcffb4"},"vehicle_type_id":"4","last_reported":1768752767,"current_range_meters":3200,"station_id":"st_d2m65c5bi1j21697t3ng","pricing_plan_id":"cebpf4jnsgd1na2vs0mg"},{"bike_id":"f0a83361-5351-404b-ab85-c3162bb75598","system_id":"levelo_inurba_marseille","lat":43.23194,"lon":5.35547,"is_reserved":false,"is_disabled":false,"rental_uris":{"android":"levelo://app?vid=f0a83361-5351-404b-ab85-c3162bb75598","ios":"levelo://app?vid=f0a83361-5351-404b-ab85-c3162bb75598"},"vehicle_type_id":"4","last_reported":1768752767,"current_range_meters":3200,"station_id":"ce4bhu92rcd13ifvqi70","pricing_plan_id":"cebpf4jnsgd1na2vs0mg"},{"bike_id":"d3f1b0a6-185c-4fa2-9ef4-12f8e80b3e6a","system_id":"levelo_inurba_marseille","lat":43.29005,"lon":5.35608,"is_reserved":false,"is_disabled":false,"rental_uris":{"android":"levelo://app?vid=d3f1b0a6-185c-4fa2-9ef4-12f8e80b3e6a","ios":"levelo://app?vid=d3f1b0a6-185c-4fa2-9ef4-12f8e80b3e6a"},"vehicle_type_id":"4","last_reported":1768752767,"current_range_meters":3200,"station_id":"ce4bhb92rcd13ifvqen0","pricing_plan_id":"cebpf4jnsgd1na2vs0mg"},{"bike_id":"25425e15-43fe-4c3e-ae39-849597531f73","system_id":"levelo_inurba_marseille","lat":43.295616,"lon":5.406576,"is_reserved":false,"is_disabled":false,"rental_uris":{"android":"levelo://app?vid=25425e15-43fe-4c3e-ae39-849597531f73","ios":"levelo://app?vid=25425e15-43fe-4c3e-ae39-849597531f73"},"vehicle_type_id":"4","last_reported":1768752767,"current_range_meters":3200,"station_id":"","pricing_plan_id":"cebpf4jnsgd1na2vs0mg"},{"bike_id":"87350e61-368a-4de9-a080-78764da5bd65","system_id":"levelo_inurba_marseille","lat":43.28476,"lon":5.48406,"is_reserved":false,"is_disabled":false,"rental_uris":{"android":"levelo://app?vid=87350e61-368a-4de9-a080-78764da5bd65","ios":"levelo://app?vid=87350e61-368a-4de9-a080-78764da5bd65"},"vehicle_type_id":"4","last_reported":1768752767,"current_range_meters":3200,"station_id":"","pricing_plan_id":"cebpf4jnsgd1na2vs0mg"},{"bike_id":"2e59ab37-51b4-434c-9efd-dbfcceedd362","system_id":"levelo_inurba_marseille","lat":43.32356,"lon":5.36735,"is_reserved":false,"is_disabled":false,"rental_uris":{"android":"levelo://app?vid=2e59ab37-51b4-434c-9efd-dbfcceedd362","ios":"levelo://app?vid=2e59ab37-51b4-434c-9efd-dbfcceedd362"},"vehicle_type_id":"4","last_reported":1768752767,"current_range_meters":3600,"station_id":"ce4bhsh2rcd13ifvqi2g","pricing_plan_id":"cebpf4jnsgd1na2vs0mg"},{"bike_id":"df2c3b78-16a5-4f93-9cf1-cc4e6cc92ceb","system_id":"levelo_inurba_marseille","lat":43.30396,"lon":5.42454,"is_reserved":false,"is_disabled":false,"rental_uris":{"android":"levelo://app?vid=df2c3b78-16a5-4f93-9cf1-cc4e6cc92ceb","ios":"levelo://app?vid=df2c3b78-16a5-4f93-9cf1-cc4e6cc92ceb"},"vehicle_type_id":"4","last_reported":1768752767,"current_range_meters":3600,"station_id":"ce4bghh2rcd13ifvqb60","pricing_plan_id":"cebpf4jnsgd1na2vs0mg"},{"bike_id":"36210777-fc61-46fb-9fff-dbb7888395c3","system_id":"levelo_inurba_marseille","lat":43.29707,"lon":5.38197,"is_reserved":false,"is_disabled":false,"rental_uris":{"android":"levelo://app?vid=36210777-fc61-46fb-9fff-dbb7888395c3","ios":"levelo://app?vid=36210777-fc61-46fb-9fff-dbb7888395c3"},"vehicle_type_id":"4","last_reported":1768752767,"current_range_meters":3600,"station_id":"","pricing_plan_id":"cebpf4jnsgd1na2vs0mg"},{"bike_id":"b16551d6-c03d-4300-a615-40ecd7491f25","system_id":"levelo_inurba_marseille","lat":43.29191,"lon":5.39327,"is_reserved":false,"is_disabled":false,"rental_uris":{"android":"levelo://app?vid=b16551d6-c03d-4300-a615-40ecd7491f25","ios":"levelo://app?vid=b16551d6-c03d-4300-a615-40ecd7491f25"},"vehicle_type_id":"4","last_reported":1768752767,"current_range_meters":3600,"station_id":"ce4bh192rcd13ifvqdd0","pricing_plan_id":"cebpf4jnsgd1na2vs0mg"},{"bike_id":"de890674-a00b-4313-ae9c-0f8495e4953e","system_id":"levelo_inurba_marseille","lat":43.282755,"lon":5.350588,"is_reserved":false,"is_disabled":false,"rental_uris":{"android":"levelo://app?vid=de890674-a00b-4313-ae9c-0f8495e4953e","ios":"levelo://app?vid=de890674-a00b-4313-ae9c-0f8495e4953e"},"vehicle_type_id":"4","last_reported":1768752767,"current_range_meters":3600,"station_id":"ce4bhbp2rcd13ifvqerg","pricing_plan_id":"cebpf4jnsgd1na2vs0mg"},{"bike_id":"791cb4d0-546f-4f96-b131-34cd64d89ad7","system_id":"levelo_inurba_marseille","lat":43.28147,"lon":5.42647,"is_reserved":false,"is_disabled":false,"rental_uris":{"android":"levelo://app?vid=791cb4d0-546f-4f96-b131-34cd64d89ad7","ios":"levelo://app?vid=791cb4d0-546f-4f96-b131-34cd64d89ad7"},"vehicle_type_id":"4","last_reported":1768752767,"current_range_meters":3600,"station_id":"ce4bhnh2rcd13ifvqgug","pricing_plan_id":"cebpf4jnsgd1na2vs0mg"},{"bike_id":"d16700cb-ba4c-4823-80e9-8e58db3e2e5c","system_id":"levelo_inurba_marseille","lat":43.25916,"lon":5.40877,"is_reserved":false,"is_disabled":false,"rental_uris":{"android":"levelo://app?vid=d16700cb-ba4c-4823-80e9-8e58db3e2e5c","ios":"levelo://app?vid=d16700cb-ba4c-4823-80e9-8e58db3e2e5c"},"vehicle_type_id":"4","last_reported":1768752767,"current_range_meters":3600,"station_id":"ce4bhm92rcd13ifvqglg","pricing_plan_id":"cebpf4jnsgd1na2vs0mg"},{"bike_id":"7e56f2aa-c907-404a-a5a6-866d9725ac4e","system_id":"levelo_inurba_marseille","lat":43.264987,"lon":5.395402,"is_reserved":false,"is_disabled":false,"rental_uris":{"android":"levelo://app?vid=7e56f2aa-c907-404a-a5a6-866d9725ac4e","ios":"levelo://app?vid=7e56f2aa-c907-404a-a5a6-866d9725ac4e"},"vehicle_type_id":"4","last_reported":1768752767,"current_range_meters":3600,"station_id":"ce4bhi12rcd13ifvqfq0","pricing_plan_id":"cebpf4jnsgd1na2vs0mg"},{"bike_id":"ff2d3e5a-0e52-4f3a-ad99-d57d4a209ef1","system_id":"levelo_inurba_marseille","lat":43.30158,"lon":5.37285,"is_reserved":false,"is_disabled":false,"rental_uris":{"android":"levelo://app?vid=ff2d3e5a-0e52-4f3a-ad99-d57d4a209ef1","ios":"levelo://app?vid=ff2d3e5a-0e52-4f3a-ad99-d57d4a209ef1"},"vehicle_type_id":"4","last_reported":1768752767,"current_range_meters":4000,"station_id":"","pricing_plan_id":"cebpf4jnsgd1na2vs0mg"},{"bike_id":"878dde24-bede-4e19-ae02-67a59c493306","system_id":"levelo_inurba_marseille","lat":43.27948,"lon":5.41056,"is_reserved":false,"is_disabled":false,"rental_uris":{"android":"levelo://app?vid=878dde24-bede-4e19-ae02-67a59c493306","ios":"levelo://app?vid=878dde24-bede-4e19-ae02-67a59c493306"},"vehicle_type_id":"4","last_reported":1768752767,"current_range_meters":4000,"station_id":"ce4bhnp2rcd13ifvqh0g","pricing_plan_id":"cebpf4jnsgd1na2vs0mg"},{"bike_id":"34c66c70-d3e2-4b84-b84c-2f238c05e82f","system_id":"levelo_inurba_marseille","lat":43.32366,"lon":5.36766,"is_reserved":false,"is_disabled":false,"rental_uris":{"android":"levelo://app?vid=34c66c70-d3e2-4b84-b84c-2f238c05e82f","ios":"levelo://app?vid=34c66c70-d3e2-4b84-b84c-2f238c05e82f"},"vehicle_type_id":"4","last_reported":1768752767,"current_range_meters":4000,"station_id":"ce4bhsh2rcd13ifvqi2g","pricing_plan_id":"cebpf4jnsgd1na2vs0mg"},{"bike_id":"632c49af-b0f7-4ef5-8faa-80577c4d9e02","system_id":"levelo_inurba_marseille","lat":43.3107,"lon":5.38347,"is_reserved":false,"is_disabled":false,"rental_uris":{"android":"levelo://app?vid=632c49af-b0f7-4ef5-8faa-80577c4d9e02","ios":"levelo://app?vid=632c49af-b0f7-4ef5-8faa-80577c4d9e02"},"vehicle_type_id":"4","last_reported":1768752767,"current_range_meters":4000,"station_id":"ce4bgv92rcd13ifvqcr0","pricing_plan_id":"cebpf4jnsgd1na2vs0mg"},{"bike_id":"dc2a51a7-64f4-4158-b84a-2791d926c053","system_id":"levelo_inurba_marseille","lat":43.31302,"lon":5.38185,"is_reserved":false,"is_disabled":false,"rental_uris":{"android":"levelo://app?vid=dc2a51a7-64f4-4158-b84a-2791d926c053","ios":"levelo://app?vid=dc2a51a7-64f4-4158-b84a-2791d926c053"},"vehicle_type_id":"4","last_reported":1768752767,"current_range_meters":4000,"station_id":"","pricing_plan_id":"cebpf4jnsgd1na2vs0mg"},{"bike_id":"5eb4d97a-3a56-43b3-adbb-1da9dfa73857","system_id":"levelo_inurba_marseille","lat":43.30527,"lon":5.36545,"is_reserved":false,"is_disabled":false,"rental_uris":{"android":"levelo://app?vid=5eb4d97a-3a56-43b3-adbb-1da9dfa73857","ios":"levelo://app?vid=5eb4d97a-3a56-43b3-adbb-1da9dfa73857"},"vehicle_type_id":"4","last_reported":1768752767,"current_range_meters":4000,"station_id":"ce4bgs12rcd13ifvqcag","pricing_plan_id":"cebpf4jnsgd1na2vs0mg"},{"bike_id":"35ed9f95-ee53-4e7e-b39f-2610df83e85b","system_id":"levelo_inurba_marseille","lat":43.295731,"lon":5.375221,"is_reserved":false,"is_disabled":false,"rental_uris":{"android":"levelo://app?vid=35ed9f95-ee53-4e7e-b39f-2610df83e85b","ios":"levelo://app?vid=35ed9f95-ee53-4e7e-b39f-2610df83e85b"},"vehicle_type_id":"4","last_reported":1768752767,"current_range_meters":4400,"station_id":"ce4bgh92rcd13ifvqb50","pricing_plan_id":"cebpf4jnsgd1na2vs0mg"},{"bike_id":"9f9ee95b-a709-468f-875a-8cf12fad1678","system_id":"levelo_inurba_marseille","lat":43.301517,"lon":5.374147,"is_reserved":false,"is_disabled":false,"rental_uris":{"android":"levelo://app?vid=9f9ee95b-a709-468f-875a-8cf12fad1678","ios":"levelo://app?vid=9f9ee95b-a709-468f-875a-8cf12fad1678"},"vehicle_type_id":"4","last_reported":1768752767,"current_range_meters":4400,"station_id":"","pricing_plan_id":"cebpf4jnsgd1na2vs0mg"},{"bike_id":"c15ab4b3-5485-40df-891c-d3d2746a9add","system_id":"levelo_inurba_marseille","lat":43.3012,"lon":5.43104,"is_reserved":false,"is_disabled":false,"rental_uris":{"android":"levelo://app?vid=c15ab4b3-5485-40df-891c-d3d2746a9add","ios":"levelo://app?vid=c15ab4b3-5485-40df-891c-d3d2746a9add"},"vehicle_type_id":"4","last_reported":1768752767,"current_range_meters":4400,"station_id":"st_d3js3co5814s73ftftug","pricing_plan_id":"cebpf4jnsgd1na2vs0mg"},{"bike_id":"9e22bfa9-2a50-4ed5-b9b2-cd25f6476383","system_id":"levelo_inurba_marseille","lat":43.23193,"lon":5.39975,"is_reserved":false,"is_disabled":false,"rental_uris":{"android":"levelo://app?vid=9e22bfa9-2a50-4ed5-b9b2-cd25f6476383","ios":"levelo://app?vid=9e22bfa9-2a50-4ed5-b9b2-cd25f6476383"},"vehicle_type_id":"4","last_reported":1768752767,"current_range_meters":4400,"station_id":"ce4bhn12rcd13ifvqgqg","pricing_plan_id":"cebpf4jnsgd1na2vs0mg"},{"bike_id":"f70b651b-4e1b-4baa-b657-5a6863dc4e28","system_id":"levelo_inurba_marseille","lat":43.309717,"lon":5.382653,"is_reserved":false,"is_disabled":false,"rental_uris":{"android":"levelo://app?vid=f70b651b-4e1b-4baa-b657-5a6863dc4e28","ios":"levelo://app?vid=f70b651b-4e1b-4baa-b657-5a6863dc4e28"},"vehicle_type_id":"4","last_reported":1768752767,"current_range_meters":4400,"station_id":"ce4bhh92rcd13ifvqfj0","pricing_plan_id":"cebpf4jnsgd1na2vs0mg"},{"bike_id":"87b5357d-414b-416f-80a1-83f8ec40c16e","system_id":"levelo_inurba_marseille","lat":43.30809,"lon":5.38137,"is_reserved":false,"is_disabled":false,"rental_uris":{"android":"levelo://app?vid=87b5357d-414b-416f-80a1-83f8ec40c16e","ios":"levelo://app?vid=87b5357d-414b-416f-80a1-83f8ec40c16e"},"vehicle_type_id":"4","last_reported":1768752767,"current_range_meters":4800,"station_id":"ce4bgt12rcd13ifvqce0","pricing_plan_id":"cebpf4jnsgd1na2vs0mg"},{"bike_id":"3320b44f-28ee-4e99-ab1b-4906eed292fe","system_id":"levelo_inurba_marseille","lat":43.31489,"lon":5.37291,"is_reserved":false,"is_disabled":false,"rental_uris":{"android":"levelo://app?vid=3320b44f-28ee-4e99-ab1b-4906eed292fe","ios":"levelo://app?vid=3320b44f-28ee-4e99-ab1b-4906eed292fe"},"vehicle_type_id":"4","last_reported":1768752767,"current_range_meters":4800,"station_id":"ce4bgt12rcd13ifvqcd0","pricing_plan_id":"cebpf4jnsgd1na2vs0mg"},{"bike_id":"1c7752d6-3957-41a3-b756-451c1e115cff","system_id":"levelo_inurba_marseille","lat":43.26572,"lon":5.39052,"is_reserved":false,"is_disabled":false,"rental_uris":{"android":"levelo://app?vid=1c7752d6-3957-41a3-b756-451c1e115cff","ios":"levelo://app?vid=1c7752d6-3957-41a3-b756-451c1e115cff"},"vehicle_type_id":"4","last_reported":1768752767,"current_range_meters":4800,"station_id":"ce4bhe12rcd13ifvqf30","pricing_plan_id":"cebpf4jnsgd1na2vs0mg"},{"bike_id":"463320f5-e892-41ba-802c-8be01b12e869","system_id":"levelo_inurba_marseille","lat":43.2292,"lon":5.35373,"is_reserved":false,"is_disabled":false,"rental_uris":{"android":"levelo://app?vid=463320f5-e892-41ba-802c-8be01b12e869","ios":"levelo://app?vid=463320f5-e892-41ba-802c-8be01b12e869"},"vehicle_type_id":"4","last_reported":1768752767,"current_range_meters":4800,"station_id":"cpo3532slgdg3j2ikp40","pricing_plan_id":"cebpf4jnsgd1na2vs0mg"},{"bike_id":"0cdf86fa-1d6f-4140-aa62-b930ff22d688","system_id":"levelo_inurba_marseille","lat":43.25332,"lon":5.42182,"is_reserved":false,"is_disabled":false,"rental_uris":{"android":"levelo://app?vid=0cdf86fa-1d6f-4140-aa62-b930ff22d688","ios":"levelo://app?vid=0cdf86fa-1d6f-4140-aa62-b930ff22d688"},"vehicle_type_id":"4","last_reported":1768752767,"current_range_meters":5600,"station_id":"","pricing_plan_id":"cebpf4jnsgd1na2vs0mg"},{"bike_id":"1ec247ef-5ae2-4481-a8f1-83d49de262d8","system_id":"levelo_inurba_marseille","lat":43.255809,"lon":5.38246,"is_reserved":false,"is_disabled":false,"rental_uris":{"android":"levelo://app?vid=1ec247ef-5ae2-4481-a8f1-83d49de262d8","ios":"levelo://app?vid=1ec247ef-5ae2-4481-a8f1-83d49de262d8"},"vehicle_type_id":"4","last_reported":1768752767,"current_range_meters":5600,"station_id":"ce4bhih2rcd13ifvqfs0","pricing_plan_id":"cebpf4jnsgd1na2vs0mg"},{"bike_id":"cc831529-a3ec-44a4-875d-b9e77fba64bd","system_id":"levelo_inurba_marseille","lat":43.25508,"lon":5.37655,"is_reserved":false,"is_disabled":false,"rental_uris":{"android":"levelo://app?vid=cc831529-a3ec-44a4-875d-b9e77fba64bd","ios":"levelo://app?vid=cc831529-a3ec-44a4-875d-b9e77fba64bd"},"vehicle_type_id":"4","last_reported":1768752767,"current_range_meters":5600,"station_id":"ce4bhh12rcd13ifvqff0","pricing_plan_id":"cebpf4jnsgd1na2vs0mg"},{"bike_id":"cccdb1be-5776-4650-8d82-01bf129afac7","system_id":"levelo_inurba_marseille","lat":43.29221,"lon":5.39314,"is_reserved":false,"is_disabled":true,"rental_uris":{"android":"levelo://app?vid=cccdb1be-5776-4650-8d82-01bf129afac7","ios":"levelo://app?vid=cccdb1be-5776-4650-8d82-01bf129afac7"},"vehicle_type_id":"4","last_reported":1768752767,"current_range_meters":5600,"station_id":"ce4bh192rcd13ifvqdd0","pricing_plan_id":"cebpf4jnsgd1na2vs0mg"},{"bike_id":"923a293c-cb5e-4620-acad-ddc8186290d8","system_id":"levelo_inurba_marseille","lat":43.24656,"lon":5.3889,"is_reserved":false,"is_disabled":false,"rental_uris":{"android":"levelo://app?vid=923a293c-cb5e-4620-acad-ddc8186290d8","ios":"levelo://app?vid=923a293c-cb5e-4620-acad-ddc8186290d8"},"vehicle_type_id":"4","last_reported":1768752767,"current_range_meters":5600,"station_id":"ce4bhg12rcd13ifvqf60","pricing_plan_id":"cebpf4jnsgd1na2vs0mg"},{"bike_id":"e7214ada-a28a-4f98-a0df-b615cdc95b49","system_id":"levelo_inurba_marseille","lat":43.24701,"lon":5.38118,"is_reserved":false,"is_disabled":false,"rental_uris":{"android":"levelo://app?vid=e7214ada-a28a-4f98-a0df-b615cdc95b49","ios":"levelo://app?vid=e7214ada-a28a-4f98-a0df-b615cdc95b49"},"vehicle_type_id":"4","last_reported":1768752767,"current_range_meters":5600,"station_id":"","pricing_plan_id":"cebpf4jnsgd1na2vs0mg"},{"bike_id":"3de79ba5-6bdb-408d-95bd-3f4b9c83991c","system_id":"levelo_inurba_marseille","lat":43.29509,"lon":5.37883,"is_reserved":false,"is_disabled":false,"rental_uris":{"android":"levelo://app?vid=3de79ba5-6bdb-408d-95bd-3f4b9c83991c","ios":"levelo://app?vid=3de79ba5-6bdb-408d-95bd-3f4b9c83991c"},"vehicle_type_id":"4","last_reported":1768752767,"current_range_meters":5600,"station_id":"","pricing_plan_id":"cebpf4jnsgd1na2vs0mg"},{"bike_id":"eb48bc79-cbe6-44af-afdc-ba18cfafe423","system_id":"levelo_inurba_marseille","lat":43.27811,"lon":5.40707,"is_reserved":false,"is_disabled":false,"rental_uris":{"android":"levelo://app?vid=eb48bc79-cbe6-44af-afdc-ba18cfafe423","ios":"levelo://app?vid=eb48bc79-cbe6-44af-afdc-ba18cfafe423"},"vehicle_type_id":"4","last_reported":1768752767,"current_range_meters":5600,"station_id":"ce4bhnh2rcd13ifvqgtg","pricing_plan_id":"cebpf4jnsgd1na2vs0mg"},{"bike_id":"ddef4d4f-5883-4484-bc03-0df24418699a","system_id":"levelo_inurba_marseille","lat":43.21747,"lon":5.34603,"is_reserved":false,"is_disabled":false,"rental_uris":{"android":"levelo://app?vid=ddef4d4f-5883-4484-bc03-0df24418699a","ios":"levelo://app?vid=ddef4d4f-5883-4484-bc03-0df24418699a"},"vehicle_type_id":"4","last_reported":1768752767,"current_range_meters":5600,"station_id":"st_cvj6r9ubvosntc0bgbag","pricing_plan_id":"cebpf4jnsgd1na2vs0mg"},{"bike_id":"772223ce-24bf-4e7e-9860-3e6b11fe1be5","system_id":"levelo_inurba_marseille","lat":43.24947,"lon":5.40487,"is_reserved":false,"is_disabled":false,"rental_uris":{"android":"levelo://app?vid=772223ce-24bf-4e7e-9860-3e6b11fe1be5","ios":"levelo://app?vid=772223ce-24bf-4e7e-9860-3e6b11fe1be5"},"vehicle_type_id":"4","last_reported":1768752767,"current_range_meters":5600,"station_id":"st_d2ngiaodas8pm72gd1h0","pricing_plan_id":"cebpf4jnsgd1na2vs0mg"},{"bike_id":"1261f0f4-3c5c-4cb5-803c-04f5532f3e7d","system_id":"levelo_inurba_marseille","lat":43.24789,"lon":5.37468,"is_reserved":false,"is_disabled":false,"rental_uris":{"android":"levelo://app?vid=1261f0f4-3c5c-4cb5-803c-04f5532f3e7d","ios":"levelo://app?vid=1261f0f4-3c5c-4cb5-803c-04f5532f3e7d"},"vehicle_type_id":"4","last_reported":1768752767,"current_range_meters":5600,"station_id":"ce4bhgh2rcd13ifvqfb0","pricing_plan_id":"cebpf4jnsgd1na2vs0mg"},{"bike_id":"3edcb619-e140-4ca7-af08-f551c6a288f3","system_id":"levelo_inurba_marseille","lat":43.28479,"lon":5.48384,"is_reserved":false,"is_disabled":false,"rental_uris":{"android":"levelo://app?vid=3edcb619-e140-4ca7-af08-f551c6a288f3","ios":"levelo://app?vid=3edcb619-e140-4ca7-af08-f551c6a288f3"},"vehicle_type_id":"4","last_reported":1768752767,"current_range_meters":6000,"station_id":"","pricing_plan_id":"cebpf4jnsgd1na2vs0mg"},{"bike_id":"6116392c-6b86-47a5-bcc7-c95cae236d34","system_id":"levelo_inurba_marseille","lat":43.27811,"lon":5.40704,"is_reserved":false,"is_disabled":false,"rental_uris":{"android":"levelo://app?vid=6116392c-6b86-47a5-bcc7-c95cae236d34","ios":"levelo://app?vid=6116392c-6b86-47a5-bcc7-c95cae236d34"},"vehicle_type_id":"4","last_reported":1768752767,"current_range_meters":6000,"station_id":"ce4bhnh2rcd13ifvqgtg","pricing_plan_id":"cebpf4jnsgd1na2vs0mg"},{"bike_id":"6c301bf0-7eab-460b-832f-b35b9d28584f","system_id":"levelo_inurba_marseille","lat":43.2718,"lon":5.40989,"is_reserved":false,"is_disabled":false,"rental_uris":{"android":"levelo://app?vid=6c301bf0-7eab-460b-832f-b35b9d28584f","ios":"levelo://app?vid=6c301bf0-7eab-460b-832f-b35b9d28584f"},"vehicle_type_id":"4","last_reported":1768752767,"current_range_meters":6000,"station_id":"ce4bhl12rcd13ifvqgf0","pricing_plan_id":"cebpf4jnsgd1na2vs0mg"},{"bike_id":"5e957bb0-b205-462f-b5e5-df60c0ace1a5","system_id":"levelo_inurba_marseille","lat":43.2378,"lon":5.36634,"is_reserved":false,"is_disabled":false,"rental_uris":{"android":"levelo://app?vid=5e957bb0-b205-462f-b5e5-df60c0ace1a5","ios":"levelo://app?vid=5e957bb0-b205-462f-b5e5-df60c0ace1a5"},"vehicle_type_id":"4","last_reported":1768752767,"current_range_meters":6000,"station_id":"st_d3nk18o9ro0c73en2l3g","pricing_plan_id":"cebpf4jnsgd1na2vs0mg"},{"bike_id":"bf443dfe-f19a-49ca-ab0a-ace202cd3776","system_id":"levelo_inurba_marseille","lat":43.301384,"lon":5.374265,"is_reserved":false,"is_disabled":false,"rental_uris":{"android":"levelo://app?vid=bf443dfe-f19a-49ca-ab0a-ace202cd3776","ios":"levelo://app?vid=bf443dfe-f19a-49ca-ab0a-ace202cd3776"},"vehicle_type_id":"4","last_reported":1768752767,"current_range_meters":6000,"station_id":"ce4bgs92rcd13ifvqcc0","pricing_plan_id":"cebpf4jnsgd1na2vs0mg"},{"bike_id":"894a0977-5656-4a03-aa3f-1587f7cf7530","system_id":"levelo_inurba_marseille","lat":43.32539,"lon":5.41117,"is_reserved":false,"is_disabled":false,"rental_uris":{"android":"levelo://app?vid=894a0977-5656-4a03-aa3f-1587f7cf7530","ios":"levelo://app?vid=894a0977-5656-4a03-aa3f-1587f7cf7530"},"vehicle_type_id":"4","last_reported":1768752767,"current_range_meters":6000,"station_id":"","pricing_plan_id":"cebpf4jnsgd1na2vs0mg"},{"bike_id":"bd6b7033-d838-49d2-9f9e-c7224fde7095","system_id":"levelo_inurba_marseille","lat":43.24676,"lon":5.38154,"is_reserved":false,"is_disabled":false,"rental_uris":{"android":"levelo://app?vid=bd6b7033-d838-49d2-9f9e-c7224fde7095","ios":"levelo://app?vid=bd6b7033-d838-49d2-9f9e-c7224fde7095"},"vehicle_type_id":"4","last_reported":1768752767,"current_range_meters":6000,"station_id":"ce4bhih2rcd13ifvqfr0","pricing_plan_id":"cebpf4jnsgd1na2vs0mg"},{"bike_id":"168fb7c0-bb3d-4dc2-b81c-95a7d644950b","system_id":"levelo_inurba_marseille","lat":43.28107,"lon":5.42665,"is_reserved":false,"is_disabled":false,"rental_uris":{"android":"levelo://app?vid=168fb7c0-bb3d-4dc2-b81c-95a7d644950b","ios":"levelo://app?vid=168fb7c0-bb3d-4dc2-b81c-95a7d644950b"},"vehicle_type_id":"4","last_reported":1768752767,"current_range_meters":6000,"station_id":"","pricing_plan_id":"cebpf4jnsgd1na2vs0mg"},{"bike_id":"bb74209e-c6a8-44ea-96c7-046161e5ebb1","system_id":"levelo_inurba_marseille","lat":43.22926,"lon":5.35373,"is_reserved":false,"is_disabled":false,"rental_uris":{"android":"levelo://app?vid=bb74209e-c6a8-44ea-96c7-046161e5ebb1","ios":"levelo://app?vid=bb74209e-c6a8-44ea-96c7-046161e5ebb1"},"vehicle_type_id":"4","last_reported":1768752767,"current_range_meters":6000,"station_id":"cpo3532slgdg3j2ikp40","pricing_plan_id":"cebpf4jnsgd1na2vs0mg"},{"bike_id":"5cfb22d8-732a-4759-a5ba-219d16350f07","system_id":"levelo_inurba_marseille","lat":43.27566,"lon":5.38425,"is_reserved":false,"is_disabled":false,"rental_uris":{"android":"levelo://app?vid=5cfb22d8-732a-4759-a5ba-219d16350f07","ios":"levelo://app?vid=5cfb22d8-732a-4759-a5ba-219d16350f07"},"vehicle_type_id":"4","last_reported":1768752767,"current_range_meters":6000,"station_id":"ce4bhh92rcd13ifvqfi0","pricing_plan_id":"cebpf4jnsgd1na2vs0mg"},{"bike_id":"d6618e16-298b-459f-8763-b9bd216e1a8c","system_id":"levelo_inurba_marseille","lat":43.29005,"lon":5.35588,"is_reserved":false,"is_disabled":false,"rental_uris":{"android":"levelo://app?vid=d6618e16-298b-459f-8763-b9bd216e1a8c","ios":"levelo://app?vid=d6618e16-298b-459f-8763-b9bd216e1a8c"},"vehicle_type_id":"4","last_reported":1768752767,"current_range_meters":6400,"station_id":"ce4bhb92rcd13ifvqen0","pricing_plan_id":"cebpf4jnsgd1na2vs0mg"},{"bike_id":"ae4ce485-63e9-411c-bcbd-fd77a291df13","system_id":"levelo_inurba_marseille","lat":43.31532,"lon":5.37192,"is_reserved":false,"is_disabled":false,"rental_uris":{"android":"levelo://app?vid=ae4ce485-63e9-411c-bcbd-fd77a291df13","ios":"levelo://app?vid=ae4ce485-63e9-411c-bcbd-fd77a291df13"},"vehicle_type_id":"4","last_reported":1768752767,"current_range_meters":6400,"station_id":"ce4bgt12rcd13ifvqcd0","pricing_plan_id":"cebpf4jnsgd1na2vs0mg"},{"bike_id":"45bb7221-e7aa-41a9-b651-ce7642ffb4d6","system_id":"levelo_inurba_marseille","lat":43.27814,"lon":5.4071,"is_reserved":false,"is_disabled":false,"rental_uris":{"android":"levelo://app?vid=45bb7221-e7aa-41a9-b651-ce7642ffb4d6","ios":"levelo://app?vid=45bb7221-e7aa-41a9-b651-ce7642ffb4d6"},"vehicle_type_id":"4","last_reported":1768752767,"current_range_meters":6400,"station_id":"ce4bhnh2rcd13ifvqgtg","pricing_plan_id":"cebpf4jnsgd1na2vs0mg"},{"bike_id":"d311ffc7-6d26-41ec-96e5-fc35ec52cdc7","system_id":"levelo_inurba_marseille","lat":43.32372,"lon":5.36707,"is_reserved":false,"is_disabled":false,"rental_uris":{"android":"levelo://app?vid=d311ffc7-6d26-41ec-96e5-fc35ec52cdc7","ios":"levelo://app?vid=d311ffc7-6d26-41ec-96e5-fc35ec52cdc7"},"vehicle_type_id":"4","last_reported":1768752767,"current_range_meters":6400,"station_id":"","pricing_plan_id":"cebpf4jnsgd1na2vs0mg"},{"bike_id":"132d2f49-bf2d-4fdc-8224-9766c2457bfd","system_id":"levelo_inurba_marseille","lat":43.26067,"lon":5.394,"is_reserved":false,"is_disabled":false,"rental_uris":{"android":"levelo://app?vid=132d2f49-bf2d-4fdc-8224-9766c2457bfd","ios":"levelo://app?vid=132d2f49-bf2d-4fdc-8224-9766c2457bfd"},"vehicle_type_id":"4","last_reported":1768752767,"current_range_meters":6400,"station_id":"ce4bhh92rcd13ifvqfj0","pricing_plan_id":"cebpf4jnsgd1na2vs0mg"},{"bike_id":"b28a97c3-16e4-4be8-8147-34db1e170408","system_id":"levelo_inurba_marseille","lat":43.28149,"lon":5.42645,"is_reserved":false,"is_disabled":false,"rental_uris":{"android":"levelo://app?vid=b28a97c3-16e4-4be8-8147-34db1e170408","ios":"levelo://app?vid=b28a97c3-16e4-4be8-8147-34db1e170408"},"vehicle_type_id":"4","last_reported":1768752767,"current_range_meters":6400,"station_id":"ce4bhnh2rcd13ifvqgug","pricing_plan_id":"cebpf4jnsgd1na2vs0mg"},{"bike_id":"7eded3b1-4745-4b4d-b80d-d88da3addd51","system_id":"levelo_inurba_marseille","lat":43.276147,"lon":5.361053,"is_reserved":false,"is_disabled":false,"rental_uris":{"android":"levelo://app?vid=7eded3b1-4745-4b4d-b80d-d88da3addd51","ios":"levelo://app?vid=7eded3b1-4745-4b4d-b80d-d88da3addd51"},"vehicle_type_id":"4","last_reported":1768752767,"current_range_meters":6400,"station_id":"ce4bgj92rcd13ifvqbe0","pricing_plan_id":"cebpf4jnsgd1na2vs0mg"},{"bike_id":"9a96c7ff-aee0-42fe-87ea-dad07da0d7ef","system_id":"levelo_inurba_marseille","lat":43.26531,"lon":5.39532,"is_reserved":false,"is_disabled":false,"rental_uris":{"android":"levelo://app?vid=9a96c7ff-aee0-42fe-87ea-dad07da0d7ef","ios":"levelo://app?vid=9a96c7ff-aee0-42fe-87ea-dad07da0d7ef"},"vehicle_type_id":"4","last_reported":1768752767,"current_range_meters":6400,"station_id":"ce4bhi12rcd13ifvqfq0","pricing_plan_id":"cebpf4jnsgd1na2vs0mg"},{"bike_id":"d75d6a8b-66aa-4deb-820e-ef260a5410b0","system_id":"levelo_inurba_marseille","lat":43.23198,"lon":5.3999,"is_reserved":false,"is_disabled":false,"rental_uris":{"android":"levelo://app?vid=d75d6a8b-66aa-4deb-820e-ef260a5410b0","ios":"levelo://app?vid=d75d6a8b-66aa-4deb-820e-ef260a5410b0"},"vehicle_type_id":"4","last_reported":1768752767,"current_range_meters":6400,"station_id":"ce4bhn12rcd13ifvqgqg","pricing_plan_id":"cebpf4jnsgd1na2vs0mg"},{"bike_id":"bcb6fd23-eb51-4278-a994-eb47185edae8","system_id":"levelo_inurba_marseille","lat":43.29615,"lon":5.37835,"is_reserved":false,"is_disabled":false,"rental_uris":{"android":"levelo://app?vid=bcb6fd23-eb51-4278-a994-eb47185edae8","ios":"levelo://app?vid=bcb6fd23-eb51-4278-a994-eb47185edae8"},"vehicle_type_id":"4","last_reported":1768752767,"current_range_meters":6400,"station_id":"","pricing_plan_id":"cebpf4jnsgd1na2vs0mg"},{"bike_id":"8de8b54d-ad44-4bfe-b86e-f06e0a2ec0cd","system_id":"levelo_inurba_marseille","lat":43.315847,"lon":5.379226,"is_reserved":false,"is_disabled":false,"rental_uris":{"android":"levelo://app?vid=8de8b54d-ad44-4bfe-b86e-f06e0a2ec0cd","ios":"levelo://app?vid=8de8b54d-ad44-4bfe-b86e-f06e0a2ec0cd"},"vehicle_type_id":"4","last_reported":1768752767,"current_range_meters":6400,"station_id":"","pricing_plan_id":"cebpf4jnsgd1na2vs0mg"},{"bike_id":"4160c95a-911c-47a2-8c82-0f403b2f4a3a","system_id":"levelo_inurba_marseille","lat":43.28419,"lon":5.349764,"is_reserved":false,"is_disabled":false,"rental_uris":{"android":"levelo://app?vid=4160c95a-911c-47a2-8c82-0f403b2f4a3a","ios":"levelo://app?vid=4160c95a-911c-47a2-8c82-0f403b2f4a3a"},"vehicle_type_id":"4","last_reported":1768752767,"current_range_meters":6400,"station_id":"ce4bhbh2rcd13ifvqepg","pricing_plan_id":"cebpf4jnsgd1na2vs0mg"},{"bike_id":"86a72b00-2bcd-490d-9cb1-515e8f72de07","system_id":"levelo_inurba_marseille","lat":43.25342,"lon":5.42161,"is_reserved":false,"is_disabled":false,"rental_uris":{"android":"levelo://app?vid=86a72b00-2bcd-490d-9cb1-515e8f72de07","ios":"levelo://app?vid=86a72b00-2bcd-490d-9cb1-515e8f72de07"},"vehicle_type_id":"4","last_reported":1768752767,"current_range_meters":6400,"station_id":"st_d2m65c5bi1j21697t3ng","pricing_plan_id":"cebpf4jnsgd1na2vs0mg"},{"bike_id":"12ad5361-c9b8-499f-b1d9-13623206709c","system_id":"levelo_inurba_marseille","lat":43.27828,"lon":5.40693,"is_reserved":false,"is_disabled":false,"rental_uris":{"android":"levelo://app?vid=12ad5361-c9b8-499f-b1d9-13623206709c","ios":"levelo://app?vid=12ad5361-c9b8-499f-b1d9-13623206709c"},"vehicle_type_id":"4","last_reported":1768752767,"current_range_meters":6400,"station_id":"ce4bhnh2rcd13ifvqgtg","pricing_plan_id":"cebpf4jnsgd1na2vs0mg"},{"bike_id":"d0b29b07-5102-4e6f-97b9-23723e4c0614","system_id":"levelo_inurba_marseille","lat":43.28483,"lon":5.48387,"is_reserved":false,"is_disabled":false,"rental_uris":{"android":"levelo://app?vid=d0b29b07-5102-4e6f-97b9-23723e4c0614","ios":"levelo://app?vid=d0b29b07-5102-4e6f-97b9-23723e4c0614"},"vehicle_type_id":"4","last_reported":1768752767,"current_range_meters":6400,"station_id":"","pricing_plan_id":"cebpf4jnsgd1na2vs0mg"},{"bike_id":"a6e94928-efe0-4c15-98c9-b2084c766bd8","system_id":"levelo_inurba_marseille","lat":43.27375,"lon":5.36246,"is_reserved":false,"is_disabled":false,"rental_uris":{"android":"levelo://app?vid=a6e94928-efe0-4c15-98c9-b2084c766bd8","ios":"levelo://app?vid=a6e94928-efe0-4c15-98c9-b2084c766bd8"},"vehicle_type_id":"4","last_reported":1768752767,"current_range_meters":6400,"station_id":"ce4bhbh2rcd13ifvqeo0","pricing_plan_id":"cebpf4jnsgd1na2vs0mg"},{"bike_id":"562feb0e-e7fa-4040-9a58-524311c899ba","system_id":"levelo_inurba_marseille","lat":43.2919,"lon":5.35818,"is_reserved":false,"is_disabled":true,"rental_uris":{"android":"levelo://app?vid=562feb0e-e7fa-4040-9a58-524311c899ba","ios":"levelo://app?vid=562feb0e-e7fa-4040-9a58-524311c899ba"},"vehicle_type_id":"4","last_reported":1768752767,"current_range_meters":6800,"station_id":"ce4bhb12rcd13ifvqel0","pricing_plan_id":"cebpf4jnsgd1na2vs0mg"},{"bike_id":"73c7a783-2390-4143-8418-3e834504ca8a","system_id":"levelo_inurba_marseille","lat":43.29042,"lon":5.3995,"is_reserved":false,"is_disabled":false,"rental_uris":{"android":"levelo://app?vid=73c7a783-2390-4143-8418-3e834504ca8a","ios":"levelo://app?vid=73c7a783-2390-4143-8418-3e834504ca8a"},"vehicle_type_id":"4","last_reported":1768752767,"current_range_meters":6800,"station_id":"ce4bh392rcd13ifvqdm0","pricing_plan_id":"cebpf4jnsgd1na2vs0mg"},{"bike_id":"767eff67-48e3-4244-b425-866fa6739ce0","system_id":"levelo_inurba_marseille","lat":43.23193,"lon":5.39984,"is_reserved":false,"is_disabled":false,"rental_uris":{"android":"levelo://app?vid=767eff67-48e3-4244-b425-866fa6739ce0","ios":"levelo://app?vid=767eff67-48e3-4244-b425-866fa6739ce0"},"vehicle_type_id":"4","last_reported":1768752767,"current_range_meters":6800,"station_id":"ce4bhn12rcd13ifvqgqg","pricing_plan_id":"cebpf4jnsgd1na2vs0mg"},{"bike_id":"e6872936-d756-4b20-b25b-25e2aeef4bd8","system_id":"levelo_inurba_marseille","lat":43.23178,"lon":5.35545,"is_reserved":false,"is_disabled":false,"rental_uris":{"android":"levelo://app?vid=e6872936-d756-4b20-b25b-25e2aeef4bd8","ios":"levelo://app?vid=e6872936-d756-4b20-b25b-25e2aeef4bd8"},"vehicle_type_id":"4","last_reported":1768752767,"current_range_meters":6800,"station_id":"ce4bhu92rcd13ifvqi70","pricing_plan_id":"cebpf4jnsgd1na2vs0mg"},{"bike_id":"07bb76d4-422a-4c87-90ad-e08ace96a760","system_id":"levelo_inurba_marseille","lat":43.24411,"lon":5.40076,"is_reserved":false,"is_disabled":false,"rental_uris":{"android":"levelo://app?vid=07bb76d4-422a-4c87-90ad-e08ace96a760","ios":"levelo://app?vid=07bb76d4-422a-4c87-90ad-e08ace96a760"},"vehicle_type_id":"4","last_reported":1768752767,"current_range_meters":6800,"station_id":"","pricing_plan_id":"cebpf4jnsgd1na2vs0mg"},{"bike_id":"4471b153-47fa-489c-846a-d53b16f561e8","system_id":"levelo_inurba_marseille","lat":43.261837,"lon":5.374364,"is_reserved":false,"is_disabled":false,"rental_uris":{"android":"levelo://app?vid=4471b153-47fa-489c-846a-d53b16f561e8","ios":"levelo://app?vid=4471b153-47fa-489c-846a-d53b16f561e8"},"vehicle_type_id":"4","last_reported":1768752767,"current_range_meters":6800,"station_id":"ce4bhgp2rcd13ifvqfc0","pricing_plan_id":"cebpf4jnsgd1na2vs0mg"},{"bike_id":"724da048-f937-4446-a0b2-3f881c76c59a","system_id":"levelo_inurba_marseille","lat":43.28151,"lon":5.42635,"is_reserved":false,"is_disabled":false,"rental_uris":{"android":"levelo://app?vid=724da048-f937-4446-a0b2-3f881c76c59a","ios":"levelo://app?vid=724da048-f937-4446-a0b2-3f881c76c59a"},"vehicle_type_id":"4","last_reported":1768752767,"current_range_meters":6800,"station_id":"ce4bhnh2rcd13ifvqgug","pricing_plan_id":"cebpf4jnsgd1na2vs0mg"},{"bike_id":"624b55bb-4d49-4da2-97ee-cc0f0e7da638","system_id":"levelo_inurba_marseille","lat":43.2509,"lon":5.39519,"is_reserved":false,"is_disabled":false,"rental_uris":{"android":"levelo://app?vid=624b55bb-4d49-4da2-97ee-cc0f0e7da638","ios":"levelo://app?vid=624b55bb-4d49-4da2-97ee-cc0f0e7da638"},"vehicle_type_id":"4","last_reported":1768752767,"current_range_meters":6800,"station_id":"ce4bhm12rcd13ifvqgkg","pricing_plan_id":"cebpf4jnsgd1na2vs0mg"},{"bike_id":"6f14ae8d-8959-4661-a35e-ffbf6c793c91","system_id":"levelo_inurba_marseille","lat":43.24396,"lon":5.37072,"is_reserved":false,"is_disabled":false,"rental_uris":{"android":"levelo://app?vid=6f14ae8d-8959-4661-a35e-ffbf6c793c91","ios":"levelo://app?vid=6f14ae8d-8959-4661-a35e-ffbf6c793c91"},"vehicle_type_id":"4","last_reported":1768752767,"current_range_meters":6800,"station_id":"ce4bhhh2rcd13ifvqfk0","pricing_plan_id":"cebpf4jnsgd1na2vs0mg"},{"bike_id":"f105a622-1eec-4225-9e46-e84e6e6b6073","system_id":"levelo_inurba_marseille","lat":43.24814,"lon":5.37464,"is_reserved":false,"is_disabled":false,"rental_uris":{"android":"levelo://app?vid=f105a622-1eec-4225-9e46-e84e6e6b6073","ios":"levelo://app?vid=f105a622-1eec-4225-9e46-e84e6e6b6073"},"vehicle_type_id":"4","last_reported":1768752767,"current_range_meters":6800,"station_id":"ce4bhgh2rcd13ifvqfb0","pricing_plan_id":"cebpf4jnsgd1na2vs0mg"},{"bike_id":"848b23ea-2c41-462c-8a29-ee9c18139e8c","system_id":"levelo_inurba_marseille","lat":43.31225,"lon":5.3687,"is_reserved":false,"is_disabled":false,"rental_uris":{"android":"levelo://app?vid=848b23ea-2c41-462c-8a29-ee9c18139e8c","ios":"levelo://app?vid=848b23ea-2c41-462c-8a29-ee9c18139e8c"},"vehicle_type_id":"4","last_reported":1768752767,"current_range_meters":6800,"station_id":"ce4bgl92rcd13ifvqbq0","pricing_plan_id":"cebpf4jnsgd1na2vs0mg"},{"bike_id":"0097fcec-3ef8-4a54-a633-d601d851c5c2","system_id":"levelo_inurba_marseille","lat":43.24947,"lon":5.40495,"is_reserved":false,"is_disabled":false,"rental_uris":{"android":"levelo://app?vid=0097fcec-3ef8-4a54-a633-d601d851c5c2","ios":"levelo://app?vid=0097fcec-3ef8-4a54-a633-d601d851c5c2"},"vehicle_type_id":"4","last_reported":1768752767,"current_range_meters":6800,"station_id":"st_d2ngiaodas8pm72gd1h0","pricing_plan_id":"cebpf4jnsgd1na2vs0mg"},{"bike_id":"4524d095-6fd1-404d-ba9c-5bec365b4323","system_id":"levelo_inurba_marseille","lat":43.28866,"lon":5.42523,"is_reserved":false,"is_disabled":false,"rental_uris":{"android":"levelo://app?vid=4524d095-6fd1-404d-ba9c-5bec365b4323","ios":"levelo://app?vid=4524d095-6fd1-404d-ba9c-5bec365b4323"},"vehicle_type_id":"4","last_reported":1768752767,"current_range_meters":6800,"station_id":"st_d3b462108ojc7389ooeg","pricing_plan_id":"cebpf4jnsgd1na2vs0mg"},{"bike_id":"c55653aa-3b40-49b8-ab2e-4981db381d01","system_id":"levelo_inurba_marseille","lat":43.27988,"lon":5.41655,"is_reserved":false,"is_disabled":false,"rental_uris":{"android":"levelo://app?vid=c55653aa-3b40-49b8-ab2e-4981db381d01","ios":"levelo://app?vid=c55653aa-3b40-49b8-ab2e-4981db381d01"},"vehicle_type_id":"4","last_reported":1768752767,"current_range_meters":7200,"station_id":"ce4bho12rcd13ifvqh1g","pricing_plan_id":"cebpf4jnsgd1na2vs0mg"},{"bike_id":"fa3ec250-8049-4347-9aea-b029fedbb66f","system_id":"levelo_inurba_marseille","lat":43.24176,"lon":5.39728,"is_reserved":false,"is_disabled":false,"rental_uris":{"android":"levelo://app?vid=fa3ec250-8049-4347-9aea-b029fedbb66f","ios":"levelo://app?vid=fa3ec250-8049-4347-9aea-b029fedbb66f"},"vehicle_type_id":"4","last_reported":1768752767,"current_range_meters":7200,"station_id":"ce4bhn12rcd13ifvqgpg","pricing_plan_id":"cebpf4jnsgd1na2vs0mg"},{"bike_id":"dbc877d2-bb66-497d-aaff-573258149302","system_id":"levelo_inurba_marseille","lat":43.30528,"lon":5.36552,"is_reserved":false,"is_disabled":false,"rental_uris":{"android":"levelo://app?vid=dbc877d2-bb66-497d-aaff-573258149302","ios":"levelo://app?vid=dbc877d2-bb66-497d-aaff-573258149302"},"vehicle_type_id":"4","last_reported":1768752767,"current_range_meters":7200,"station_id":"ce4bgs12rcd13ifvqcag","pricing_plan_id":"cebpf4jnsgd1na2vs0mg"},{"bike_id":"6e51ce3f-e666-454c-9b3c-d528f5b8f635","system_id":"levelo_inurba_marseille","lat":43.27995,"lon":5.40011,"is_reserved":false,"is_disabled":false,"rental_uris":{"android":"levelo://app?vid=6e51ce3f-e666-454c-9b3c-d528f5b8f635","ios":"levelo://app?vid=6e51ce3f-e666-454c-9b3c-d528f5b8f635"},"vehicle_type_id":"4","last_reported":1768752767,"current_range_meters":7200,"station_id":"ce4bho92rcd13ifvqh4g","pricing_plan_id":"cebpf4jnsgd1na2vs0mg"},{"bike_id":"15783ada-2900-4389-8e59-9733596d6397","system_id":"levelo_inurba_marseille","lat":43.2846,"lon":5.35882,"is_reserved":false,"is_disabled":false,"rental_uris":{"android":"levelo://app?vid=15783ada-2900-4389-8e59-9733596d6397","ios":"levelo://app?vid=15783ada-2900-4389-8e59-9733596d6397"},"vehicle_type_id":"4","last_reported":1768752767,"current_range_meters":7200,"station_id":"ce4bhah2rcd13ifvqei0","pricing_plan_id":"cebpf4jnsgd1na2vs0mg"},{"bike_id":"53e3bdc2-3350-4597-b889-679f95ce65f7","system_id":"levelo_inurba_marseille","lat":43.284725,"lon":5.384184,"is_reserved":false,"is_disabled":false,"rental_uris":{"android":"levelo://app?vid=53e3bdc2-3350-4597-b889-679f95ce65f7","ios":"levelo://app?vid=53e3bdc2-3350-4597-b889-679f95ce65f7"},"vehicle_type_id":"4","last_reported":1768752767,"current_range_meters":7200,"station_id":"","pricing_plan_id":"cebpf4jnsgd1na2vs0mg"},{"bike_id":"ff839314-dbe7-407b-b40a-0a369c1d2176","system_id":"levelo_inurba_marseille","lat":43.29243,"lon":5.38456,"is_reserved":false,"is_disabled":false,"rental_uris":{"android":"levelo://app?vid=ff839314-dbe7-407b-b40a-0a369c1d2176","ios":"levelo://app?vid=ff839314-dbe7-407b-b40a-0a369c1d2176"},"vehicle_type_id":"4","last_reported":1768752767,"current_range_meters":7200,"station_id":"ce4bh692rcd13ifvqea0","pricing_plan_id":"cebpf4jnsgd1na2vs0mg"},{"bike_id":"24160edd-d39f-4289-876a-e9144f93a2c6","system_id":"levelo_inurba_marseille","lat":43.32369,"lon":5.36768,"is_reserved":false,"is_disabled":false,"rental_uris":{"android":"levelo://app?vid=24160edd-d39f-4289-876a-e9144f93a2c6","ios":"levelo://app?vid=24160edd-d39f-4289-876a-e9144f93a2c6"},"vehicle_type_id":"4","last_reported":1768752767,"current_range_meters":7200,"station_id":"ce4bhsh2rcd13ifvqi2g","pricing_plan_id":"cebpf4jnsgd1na2vs0mg"},{"bike_id":"f9650e24-8048-44b3-9275-13d881c210a3","system_id":"levelo_inurba_marseille","lat":43.30298,"lon":5.37713,"is_reserved":false,"is_disabled":false,"rental_uris":{"android":"levelo://app?vid=f9650e24-8048-44b3-9275-13d881c210a3","ios":"levelo://app?vid=f9650e24-8048-44b3-9275-13d881c210a3"},"vehicle_type_id":"4","last_reported":1768752767,"current_range_meters":7200,"station_id":"ce4bguh2rcd13ifvqcj0","pricing_plan_id":"cebpf4jnsgd1na2vs0mg"},{"bike_id":"02bf7a4c-8844-41f4-9ad9-8ab41f7538c4","system_id":"levelo_inurba_marseille","lat":43.30948,"lon":5.39059,"is_reserved":false,"is_disabled":true,"rental_uris":{"android":"levelo://app?vid=02bf7a4c-8844-41f4-9ad9-8ab41f7538c4","ios":"levelo://app?vid=02bf7a4c-8844-41f4-9ad9-8ab41f7538c4"},"vehicle_type_id":"4","last_reported":1768752767,"current_range_meters":7200,"station_id":"ce4bgup2rcd13ifvqco0","pricing_plan_id":"cebpf4jnsgd1na2vs0mg"},{"bike_id":"c6b7d41c-17d5-4d4d-98f7-04f5d62108df","system_id":"levelo_inurba_marseille","lat":43.225563,"lon":5.416261,"is_reserved":false,"is_disabled":true,"rental_uris":{"android":"levelo://app?vid=c6b7d41c-17d5-4d4d-98f7-04f5d62108df","ios":"levelo://app?vid=c6b7d41c-17d5-4d4d-98f7-04f5d62108df"},"vehicle_type_id":"4","last_reported":1768752767,"current_range_meters":7200,"station_id":"st_d2o4gvlbi1j2169b742g","pricing_plan_id":"cebpf4jnsgd1na2vs0mg"},{"bike_id":"a2efae25-f783-455e-bace-657703451b46","system_id":"levelo_inurba_marseille","lat":43.29526,"lon":5.39051,"is_reserved":false,"is_disabled":false,"rental_uris":{"android":"levelo://app?vid=a2efae25-f783-455e-bace-657703451b46","ios":"levelo://app?vid=a2efae25-f783-455e-bace-657703451b46"},"vehicle_type_id":"4","last_reported":1768752767,"current_range_meters":7200,"station_id":"ce4bh3p2rcd13ifvqdp0","pricing_plan_id":"cebpf4jnsgd1na2vs0mg"},{"bike_id":"2b38c1fe-7b40-40b3-a3f9-5013de1a9ac2","system_id":"levelo_inurba_marseille","lat":43.26212,"lon":5.37438,"is_reserved":false,"is_disabled":false,"rental_uris":{"android":"levelo://app?vid=2b38c1fe-7b40-40b3-a3f9-5013de1a9ac2","ios":"levelo://app?vid=2b38c1fe-7b40-40b3-a3f9-5013de1a9ac2"},"vehicle_type_id":"4","last_reported":1768752767,"current_range_meters":8000,"station_id":"ce4bhgp2rcd13ifvqfc0","pricing_plan_id":"cebpf4jnsgd1na2vs0mg"},{"bike_id":"aa648442-ea0f-4284-b119-78b9aeb4ca5c","system_id":"levelo_inurba_marseille","lat":43.30539,"lon":5.36703,"is_reserved":false,"is_disabled":false,"rental_uris":{"android":"levelo://app?vid=aa648442-ea0f-4284-b119-78b9aeb4ca5c","ios":"levelo://app?vid=aa648442-ea0f-4284-b119-78b9aeb4ca5c"},"vehicle_type_id":"4","last_reported":1768752767,"current_range_meters":8000,"station_id":"ce4bgrp2rcd13ifvqc9g","pricing_plan_id":"cebpf4jnsgd1na2vs0mg"},{"bike_id":"2e4ee5e8-6d91-467b-8480-688c2671b88d","system_id":"levelo_inurba_marseille","lat":43.278146,"lon":5.407169,"is_reserved":false,"is_disabled":false,"rental_uris":{"android":"levelo://app?vid=2e4ee5e8-6d91-467b-8480-688c2671b88d","ios":"levelo://app?vid=2e4ee5e8-6d91-467b-8480-688c2671b88d"},"vehicle_type_id":"4","last_reported":1768752767,"current_range_meters":8000,"station_id":"ce4bhnh2rcd13ifvqgtg","pricing_plan_id":"cebpf4jnsgd1na2vs0mg"},{"bike_id":"fc9127b5-b04d-4546-89a2-b4658b1ee63d","system_id":"levelo_inurba_marseille","lat":43.297955,"lon":5.403892,"is_reserved":false,"is_disabled":false,"rental_uris":{"android":"levelo://app?vid=fc9127b5-b04d-4546-89a2-b4658b1ee63d","ios":"levelo://app?vid=fc9127b5-b04d-4546-89a2-b4658b1ee63d"},"vehicle_type_id":"4","last_reported":1768752767,"current_range_meters":8000,"station_id":"ce4bh112rcd13ifvqd90","pricing_plan_id":"cebpf4jnsgd1na2vs0mg"},{"bike_id":"02ab98c5-1cd1-4d33-a034-5f5e1f65b38a","system_id":"levelo_inurba_marseille","lat":43.28491,"lon":5.48391,"is_reserved":false,"is_disabled":false,"rental_uris":{"android":"levelo://app?vid=02ab98c5-1cd1-4d33-a034-5f5e1f65b38a","ios":"levelo://app?vid=02ab98c5-1cd1-4d33-a034-5f5e1f65b38a"},"vehicle_type_id":"4","last_reported":1768752767,"current_range_meters":8000,"station_id":"","pricing_plan_id":"cebpf4jnsgd1na2vs0mg"},{"bike_id":"ab74dafd-bdde-4806-9312-7ac8c28f3c12","system_id":"levelo_inurba_marseille","lat":43.28877,"lon":5.42526,"is_reserved":false,"is_disabled":false,"rental_uris":{"android":"levelo://app?vid=ab74dafd-bdde-4806-9312-7ac8c28f3c12","ios":"levelo://app?vid=ab74dafd-bdde-4806-9312-7ac8c28f3c12"},"vehicle_type_id":"4","last_reported":1768752767,"current_range_meters":8000,"station_id":"st_d3b462108ojc7389ooeg","pricing_plan_id":"cebpf4jnsgd1na2vs0mg"},{"bike_id":"da3c4aca-37e7-4c63-a18e-04f09b3ed01f","system_id":"levelo_inurba_marseille","lat":43.27957,"lon":5.41029,"is_reserved":false,"is_disabled":false,"rental_uris":{"android":"levelo://app?vid=da3c4aca-37e7-4c63-a18e-04f09b3ed01f","ios":"levelo://app?vid=da3c4aca-37e7-4c63-a18e-04f09b3ed01f"},"vehicle_type_id":"4","last_reported":1768752767,"current_range_meters":8000,"station_id":"","pricing_plan_id":"cebpf4jnsgd1na2vs0mg"},{"bike_id":"4a28a0a5-92a3-4f41-871e-f75bf8fb68f3","system_id":"levelo_inurba_marseille","lat":43.30418,"lon":5.40982,"is_reserved":false,"is_disabled":false,"rental_uris":{"android":"levelo://app?vid=4a28a0a5-92a3-4f41-871e-f75bf8fb68f3","ios":"levelo://app?vid=4a28a0a5-92a3-4f41-871e-f75bf8fb68f3"},"vehicle_type_id":"4","last_reported":1768752767,"current_range_meters":8000,"station_id":"","pricing_plan_id":"cebpf4jnsgd1na2vs0mg"},{"bike_id":"a45dd6a0-af1d-4f5e-806f-5585f139de9a","system_id":"levelo_inurba_marseille","lat":43.28873,"lon":5.42519,"is_reserved":false,"is_disabled":false,"rental_uris":{"android":"levelo://app?vid=a45dd6a0-af1d-4f5e-806f-5585f139de9a","ios":"levelo://app?vid=a45dd6a0-af1d-4f5e-806f-5585f139de9a"},"vehicle_type_id":"4","last_reported":1768752767,"current_range_meters":8000,"station_id":"st_d3b462108ojc7389ooeg","pricing_plan_id":"cebpf4jnsgd1na2vs0mg"},{"bike_id":"e4673345-b12b-41a6-851b-d8e241ebb64e","system_id":"levelo_inurba_marseille","lat":43.24951,"lon":5.40481,"is_reserved":false,"is_disabled":false,"rental_uris":{"android":"levelo://app?vid=e4673345-b12b-41a6-851b-d8e241ebb64e","ios":"levelo://app?vid=e4673345-b12b-41a6-851b-d8e241ebb64e"},"vehicle_type_id":"4","last_reported":1768752767,"current_range_meters":8000,"station_id":"st_d2ngiaodas8pm72gd1h0","pricing_plan_id":"cebpf4jnsgd1na2vs0mg"},{"bike_id":"0757d9d6-814f-412f-a878-2062f14d1240","system_id":"levelo_inurba_marseille","lat":43.28002,"lon":5.4001,"is_reserved":false,"is_disabled":false,"rental_uris":{"android":"levelo://app?vid=0757d9d6-814f-412f-a878-2062f14d1240","ios":"levelo://app?vid=0757d9d6-814f-412f-a878-2062f14d1240"},"vehicle_type_id":"4","last_reported":1768752767,"current_range_meters":8000,"station_id":"ce4bho92rcd13ifvqh4g","pricing_plan_id":"cebpf4jnsgd1na2vs0mg"},{"bike_id":"d61d55f2-38b3-47bf-8db3-dd8829f32d8f","system_id":"levelo_inurba_marseille","lat":43.28527,"lon":5.44091,"is_reserved":false,"is_disabled":false,"rental_uris":{"android":"levelo://app?vid=d61d55f2-38b3-47bf-8db3-dd8829f32d8f","ios":"levelo://app?vid=d61d55f2-38b3-47bf-8db3-dd8829f32d8f"},"vehicle_type_id":"4","last_reported":1768752767,"current_range_meters":8000,"station_id":"st_d3j3df2ikq2c7380ej80","pricing_plan_id":"cebpf4jnsgd1na2vs0mg"},{"bike_id":"07bfd20b-f57f-4def-b2f0-1e693474cbde","system_id":"levelo_inurba_marseille","lat":43.25487,"lon":5.37664,"is_reserved":false,"is_disabled":false,"rental_uris":{"android":"levelo://app?vid=07bfd20b-f57f-4def-b2f0-1e693474cbde","ios":"levelo://app?vid=07bfd20b-f57f-4def-b2f0-1e693474cbde"},"vehicle_type_id":"4","last_reported":1768752767,"current_range_meters":8400,"station_id":"ce4bhh12rcd13ifvqff0","pricing_plan_id":"cebpf4jnsgd1na2vs0mg"},{"bike_id":"d135c9ef-044b-4d56-8af4-7795f4e97dae","system_id":"levelo_inurba_marseille","lat":43.309548,"lon":5.390444,"is_reserved":false,"is_disabled":false,"rental_uris":{"android":"levelo://app?vid=d135c9ef-044b-4d56-8af4-7795f4e97dae","ios":"levelo://app?vid=d135c9ef-044b-4d56-8af4-7795f4e97dae"},"vehicle_type_id":"4","last_reported":1768752767,"current_range_meters":8400,"station_id":"ce4bgup2rcd13ifvqco0","pricing_plan_id":"cebpf4jnsgd1na2vs0mg"},{"bike_id":"5914d024-165b-481f-8e69-f72eb8a78e37","system_id":"levelo_inurba_marseille","lat":43.31212,"lon":5.36881,"is_reserved":false,"is_disabled":false,"rental_uris":{"android":"levelo://app?vid=5914d024-165b-481f-8e69-f72eb8a78e37","ios":"levelo://app?vid=5914d024-165b-481f-8e69-f72eb8a78e37"},"vehicle_type_id":"4","last_reported":1768752767,"current_range_meters":8400,"station_id":"ce4bgl92rcd13ifvqbq0","pricing_plan_id":"cebpf4jnsgd1na2vs0mg"},{"bike_id":"ca310899-3b5f-4d76-8134-99befad3e112","system_id":"levelo_inurba_marseille","lat":43.23198,"lon":5.35554,"is_reserved":false,"is_disabled":false,"rental_uris":{"android":"levelo://app?vid=ca310899-3b5f-4d76-8134-99befad3e112","ios":"levelo://app?vid=ca310899-3b5f-4d76-8134-99befad3e112"},"vehicle_type_id":"4","last_reported":1768752767,"current_range_meters":8400,"station_id":"ce4bhu92rcd13ifvqi70","pricing_plan_id":"cebpf4jnsgd1na2vs0mg"},{"bike_id":"5037036f-188b-4c9c-9f7e-772a64c012d7","system_id":"levelo_inurba_marseille","lat":43.24181,"lon":5.39732,"is_reserved":false,"is_disabled":false,"rental_uris":{"android":"levelo://app?vid=5037036f-188b-4c9c-9f7e-772a64c012d7","ios":"levelo://app?vid=5037036f-188b-4c9c-9f7e-772a64c012d7"},"vehicle_type_id":"4","last_reported":1768752767,"current_range_meters":8400,"station_id":"ce4bhn12rcd13ifvqgpg","pricing_plan_id":"cebpf4jnsgd1na2vs0mg"},{"bike_id":"825dbe6a-05ff-42c5-b686-988034ec5c97","system_id":"levelo_inurba_marseille","lat":43.27948,"lon":5.41056,"is_reserved":false,"is_disabled":true,"rental_uris":{"android":"levelo://app?vid=825dbe6a-05ff-42c5-b686-988034ec5c97","ios":"levelo://app?vid=825dbe6a-05ff-42c5-b686-988034ec5c97"},"vehicle_type_id":"4","last_reported":1768752767,"current_range_meters":8400,"station_id":"ce4bhnp2rcd13ifvqh0g","pricing_plan_id":"cebpf4jnsgd1na2vs0mg"},{"bike_id":"405bacf0-7d07-4ec7-aad7-72e1c5147c0f","system_id":"levelo_inurba_marseille","lat":43.30141,"lon":5.37405,"is_reserved":false,"is_disabled":false,"rental_uris":{"android":"levelo://app?vid=405bacf0-7d07-4ec7-aad7-72e1c5147c0f","ios":"levelo://app?vid=405bacf0-7d07-4ec7-aad7-72e1c5147c0f"},"vehicle_type_id":"4","last_reported":1768752767,"current_range_meters":8400,"station_id":"ce4bgs92rcd13ifvqcc0","pricing_plan_id":"cebpf4jnsgd1na2vs0mg"},{"bike_id":"87f35a5d-485c-42c0-a0d6-d17c180ada41","system_id":"levelo_inurba_marseille","lat":43.24167,"lon":5.36393,"is_reserved":false,"is_disabled":false,"rental_uris":{"android":"levelo://app?vid=87f35a5d-485c-42c0-a0d6-d17c180ada41","ios":"levelo://app?vid=87f35a5d-485c-42c0-a0d6-d17c180ada41"},"vehicle_type_id":"4","last_reported":1768752767,"current_range_meters":8400,"station_id":"cpo36qri1sfpv3e86is0","pricing_plan_id":"cebpf4jnsgd1na2vs0mg"},{"bike_id":"3e1b0ae8-bc2e-47bc-9eec-b1e55fd276e4","system_id":"levelo_inurba_marseille","lat":43.28486,"lon":5.48393,"is_reserved":false,"is_disabled":false,"rental_uris":{"android":"levelo://app?vid=3e1b0ae8-bc2e-47bc-9eec-b1e55fd276e4","ios":"levelo://app?vid=3e1b0ae8-bc2e-47bc-9eec-b1e55fd276e4"},"vehicle_type_id":"4","last_reported":1768752767,"current_range_meters":8400,"station_id":"st_d3svhcjqgbts73a3dn0g","pricing_plan_id":"cebpf4jnsgd1na2vs0mg"},{"bike_id":"52d76d5a-c8fd-4dbd-b507-0ab60f5b55ae","system_id":"levelo_inurba_marseille","lat":43.25534,"lon":5.43224,"is_reserved":false,"is_disabled":false,"rental_uris":{"android":"levelo://app?vid=52d76d5a-c8fd-4dbd-b507-0ab60f5b55ae","ios":"levelo://app?vid=52d76d5a-c8fd-4dbd-b507-0ab60f5b55ae"},"vehicle_type_id":"4","last_reported":1768752767,"current_range_meters":8400,"station_id":"","pricing_plan_id":"cebpf4jnsgd1na2vs0mg"},{"bike_id":"997bd131-bc4b-4ed3-be50-234bd23db618","system_id":"levelo_inurba_marseille","lat":43.23787,"lon":5.36629,"is_reserved":false,"is_disabled":false,"rental_uris":{"android":"levelo://app?vid=997bd131-bc4b-4ed3-be50-234bd23db618","ios":"levelo://app?vid=997bd131-bc4b-4ed3-be50-234bd23db618"},"vehicle_type_id":"4","last_reported":1768752767,"current_range_meters":8400,"station_id":"st_d3nk18o9ro0c73en2l3g","pricing_plan_id":"cebpf4jnsgd1na2vs0mg"},{"bike_id":"5b3a3490-01e7-4ee6-bf0d-adbd75e4371e","system_id":"levelo_inurba_marseille","lat":43.30947,"lon":5.39039,"is_reserved":false,"is_disabled":false,"rental_uris":{"android":"levelo://app?vid=5b3a3490-01e7-4ee6-bf0d-adbd75e4371e","ios":"levelo://app?vid=5b3a3490-01e7-4ee6-bf0d-adbd75e4371e"},"vehicle_type_id":"4","last_reported":1768752767,"current_range_meters":8400,"station_id":"ce4bgup2rcd13ifvqco0","pricing_plan_id":"cebpf4jnsgd1na2vs0mg"},{"bike_id":"ec84f853-3c1e-432f-84f1-c7932f803205","system_id":"levelo_inurba_marseille","lat":43.2447,"lon":5.42527,"is_reserved":false,"is_disabled":false,"rental_uris":{"android":"levelo://app?vid=ec84f853-3c1e-432f-84f1-c7932f803205","ios":"levelo://app?vid=ec84f853-3c1e-432f-84f1-c7932f803205"},"vehicle_type_id":"4","last_reported":1768752767,"current_range_meters":8400,"station_id":"st_d4a3vfp97mjs738cd8kg","pricing_plan_id":"cebpf4jnsgd1na2vs0mg"},{"bike_id":"db062d50-2ff0-4eed-93be-03c6c2282e4f","system_id":"levelo_inurba_marseille","lat":43.29536,"lon":5.42262,"is_reserved":false,"is_disabled":false,"rental_uris":{"android":"levelo://app?vid=db062d50-2ff0-4eed-93be-03c6c2282e4f","ios":"levelo://app?vid=db062d50-2ff0-4eed-93be-03c6c2282e4f"},"vehicle_type_id":"4","last_reported":1768752767,"current_range_meters":8400,"station_id":"ce4bhph2rcd13ifvqhdg","pricing_plan_id":"cebpf4jnsgd1na2vs0mg"},{"bike_id":"80dd23a5-0dde-4636-a849-634c5c6760f9","system_id":"levelo_inurba_marseille","lat":43.24076,"lon":5.37754,"is_reserved":false,"is_disabled":false,"rental_uris":{"android":"levelo://app?vid=80dd23a5-0dde-4636-a849-634c5c6760f9","ios":"levelo://app?vid=80dd23a5-0dde-4636-a849-634c5c6760f9"},"vehicle_type_id":"4","last_reported":1768752767,"current_range_meters":8400,"station_id":"ce4bhnp2rcd13ifvqgvg","pricing_plan_id":"cebpf4jnsgd1na2vs0mg"},{"bike_id":"7007b3fe-b69a-4760-8ecb-3b3439d1132e","system_id":"levelo_inurba_marseille","lat":43.26594,"lon":5.39058,"is_reserved":false,"is_disabled":false,"rental_uris":{"android":"levelo://app?vid=7007b3fe-b69a-4760-8ecb-3b3439d1132e","ios":"levelo://app?vid=7007b3fe-b69a-4760-8ecb-3b3439d1132e"},"vehicle_type_id":"4","last_reported":1768752767,"current_range_meters":8400,"station_id":"ce4bhe12rcd13ifvqf30","pricing_plan_id":"cebpf4jnsgd1na2vs0mg"},{"bike_id":"ffbe9b93-d297-498d-b2a3-07ab4ea9a5fd","system_id":"levelo_inurba_marseille","lat":43.31196,"lon":5.38724,"is_reserved":false,"is_disabled":false,"rental_uris":{"android":"levelo://app?vid=ffbe9b93-d297-498d-b2a3-07ab4ea9a5fd","ios":"levelo://app?vid=ffbe9b93-d297-498d-b2a3-07ab4ea9a5fd"},"vehicle_type_id":"4","last_reported":1768752767,"current_range_meters":8400,"station_id":"ce4bgv12rcd13ifvqcp0","pricing_plan_id":"cebpf4jnsgd1na2vs0mg"},{"bike_id":"f6adf0c1-f5b5-44a2-95f0-fade2e340101","system_id":"levelo_inurba_marseille","lat":43.27811,"lon":5.40707,"is_reserved":false,"is_disabled":false,"rental_uris":{"android":"levelo://app?vid=f6adf0c1-f5b5-44a2-95f0-fade2e340101","ios":"levelo://app?vid=f6adf0c1-f5b5-44a2-95f0-fade2e340101"},"vehicle_type_id":"4","last_reported":1768752767,"current_range_meters":8400,"station_id":"ce4bhnh2rcd13ifvqgtg","pricing_plan_id":"cebpf4jnsgd1na2vs0mg"},{"bike_id":"fdaffa99-0f84-4230-8947-ab7e8618f38e","system_id":"levelo_inurba_marseille","lat":43.29259,"lon":5.38422,"is_reserved":false,"is_disabled":true,"rental_uris":{"android":"levelo://app?vid=fdaffa99-0f84-4230-8947-ab7e8618f38e","ios":"levelo://app?vid=fdaffa99-0f84-4230-8947-ab7e8618f38e"},"vehicle_type_id":"4","last_reported":1768752767,"current_range_meters":8400,"station_id":"ce4bh692rcd13ifvqea0","pricing_plan_id":"cebpf4jnsgd1na2vs0mg"},{"bike_id":"e9c8cf4b-ef98-456b-84d3-fe8ebdb0e3d4","system_id":"levelo_inurba_marseille","lat":43.313587,"lon":5.385028,"is_reserved":false,"is_disabled":false,"rental_uris":{"android":"levelo://app?vid=e9c8cf4b-ef98-456b-84d3-fe8ebdb0e3d4","ios":"levelo://app?vid=e9c8cf4b-ef98-456b-84d3-fe8ebdb0e3d4"},"vehicle_type_id":"4","last_reported":1768752767,"current_range_meters":8800,"station_id":"ce4bgt92rcd13ifvqcf0","pricing_plan_id":"cebpf4jnsgd1na2vs0mg"},{"bike_id":"e67e42fe-b68e-4d43-9d57-582dc6eaf5d9","system_id":"levelo_inurba_marseille","lat":43.255802,"lon":5.382274,"is_reserved":false,"is_disabled":false,"rental_uris":{"android":"levelo://app?vid=e67e42fe-b68e-4d43-9d57-582dc6eaf5d9","ios":"levelo://app?vid=e67e42fe-b68e-4d43-9d57-582dc6eaf5d9"},"vehicle_type_id":"4","last_reported":1768752767,"current_range_meters":8800,"station_id":"ce4bhih2rcd13ifvqfs0","pricing_plan_id":"cebpf4jnsgd1na2vs0mg"},{"bike_id":"9ea71dd4-557a-49eb-872d-de0717506d64","system_id":"levelo_inurba_marseille","lat":43.23202,"lon":5.3555,"is_reserved":false,"is_disabled":false,"rental_uris":{"android":"levelo://app?vid=9ea71dd4-557a-49eb-872d-de0717506d64","ios":"levelo://app?vid=9ea71dd4-557a-49eb-872d-de0717506d64"},"vehicle_type_id":"4","last_reported":1768752767,"current_range_meters":8800,"station_id":"ce4bhu92rcd13ifvqi70","pricing_plan_id":"cebpf4jnsgd1na2vs0mg"},{"bike_id":"5cccdad3-57e0-40c4-bb97-5effe42d761a","system_id":"levelo_inurba_marseille","lat":43.24817,"lon":5.37441,"is_reserved":false,"is_disabled":false,"rental_uris":{"android":"levelo://app?vid=5cccdad3-57e0-40c4-bb97-5effe42d761a","ios":"levelo://app?vid=5cccdad3-57e0-40c4-bb97-5effe42d761a"},"vehicle_type_id":"4","last_reported":1768752767,"current_range_meters":8800,"station_id":"ce4bhgh2rcd13ifvqfb0","pricing_plan_id":"cebpf4jnsgd1na2vs0mg"},{"bike_id":"99eb7f6e-7d47-4fe7-a5ad-44af0b5818fb","system_id":"levelo_inurba_marseille","lat":43.24089,"lon":5.397,"is_reserved":false,"is_disabled":false,"rental_uris":{"android":"levelo://app?vid=99eb7f6e-7d47-4fe7-a5ad-44af0b5818fb","ios":"levelo://app?vid=99eb7f6e-7d47-4fe7-a5ad-44af0b5818fb"},"vehicle_type_id":"4","last_reported":1768752767,"current_range_meters":8800,"station_id":"","pricing_plan_id":"cebpf4jnsgd1na2vs0mg"},{"bike_id":"1d845d40-bee8-4284-affc-9030247b1e56","system_id":"levelo_inurba_marseille","lat":43.229467,"lon":5.353733,"is_reserved":false,"is_disabled":false,"rental_uris":{"android":"levelo://app?vid=1d845d40-bee8-4284-affc-9030247b1e56","ios":"levelo://app?vid=1d845d40-bee8-4284-affc-9030247b1e56"},"vehicle_type_id":"4","last_reported":1768752767,"current_range_meters":8800,"station_id":"cpo3532slgdg3j2ikp40","pricing_plan_id":"cebpf4jnsgd1na2vs0mg"},{"bike_id":"d6ab83d9-f0e3-4bdf-a1c4-652a184696f5","system_id":"levelo_inurba_marseille","lat":43.22934,"lon":5.35393,"is_reserved":false,"is_disabled":false,"rental_uris":{"android":"levelo://app?vid=d6ab83d9-f0e3-4bdf-a1c4-652a184696f5","ios":"levelo://app?vid=d6ab83d9-f0e3-4bdf-a1c4-652a184696f5"},"vehicle_type_id":"4","last_reported":1768752767,"current_range_meters":8800,"station_id":"cpo3532slgdg3j2ikp40","pricing_plan_id":"cebpf4jnsgd1na2vs0mg"},{"bike_id":"e1dbb5d5-64ef-4db3-9062-eed03f16eadc","system_id":"levelo_inurba_marseille","lat":43.27993,"lon":5.41662,"is_reserved":false,"is_disabled":false,"rental_uris":{"android":"levelo://app?vid=e1dbb5d5-64ef-4db3-9062-eed03f16eadc","ios":"levelo://app?vid=e1dbb5d5-64ef-4db3-9062-eed03f16eadc"},"vehicle_type_id":"4","last_reported":1768752767,"current_range_meters":8800,"station_id":"ce4bho12rcd13ifvqh1g","pricing_plan_id":"cebpf4jnsgd1na2vs0mg"},{"bike_id":"a54d5df4-8e04-455c-aff5-6470c2bee2e4","system_id":"levelo_inurba_marseille","lat":43.27987,"lon":5.38484,"is_reserved":false,"is_disabled":false,"rental_uris":{"android":"levelo://app?vid=a54d5df4-8e04-455c-aff5-6470c2bee2e4","ios":"levelo://app?vid=a54d5df4-8e04-455c-aff5-6470c2bee2e4"},"vehicle_type_id":"4","last_reported":1768752767,"current_range_meters":9200,"station_id":"","pricing_plan_id":"cebpf4jnsgd1na2vs0mg"},{"bike_id":"e3ab7fbc-a543-4ce6-8bfb-a545434b1568","system_id":"levelo_inurba_marseille","lat":43.28862,"lon":5.42535,"is_reserved":false,"is_disabled":false,"rental_uris":{"android":"levelo://app?vid=e3ab7fbc-a543-4ce6-8bfb-a545434b1568","ios":"levelo://app?vid=e3ab7fbc-a543-4ce6-8bfb-a545434b1568"},"vehicle_type_id":"4","last_reported":1768752767,"current_range_meters":9200,"station_id":"st_d3b462108ojc7389ooeg","pricing_plan_id":"cebpf4jnsgd1na2vs0mg"},{"bike_id":"bc5446ee-938b-4f89-b75e-21ffe1627550","system_id":"levelo_inurba_marseille","lat":43.27326,"lon":5.3906,"is_reserved":false,"is_disabled":false,"rental_uris":{"android":"levelo://app?vid=bc5446ee-938b-4f89-b75e-21ffe1627550","ios":"levelo://app?vid=bc5446ee-938b-4f89-b75e-21ffe1627550"},"vehicle_type_id":"4","last_reported":1768752767,"current_range_meters":9200,"station_id":"ce4bhgp2rcd13ifvqfe0","pricing_plan_id":"cebpf4jnsgd1na2vs0mg"},{"bike_id":"eacc92f4-9f5a-4634-b7ee-66e8ca464cb9","system_id":"levelo_inurba_marseille","lat":43.309,"lon":5.36873,"is_reserved":false,"is_disabled":false,"rental_uris":{"android":"levelo://app?vid=eacc92f4-9f5a-4634-b7ee-66e8ca464cb9","ios":"levelo://app?vid=eacc92f4-9f5a-4634-b7ee-66e8ca464cb9"},"vehicle_type_id":"4","last_reported":1768752767,"current_range_meters":9200,"station_id":"ce4bgn92rcd13ifvqbvg","pricing_plan_id":"cebpf4jnsgd1na2vs0mg"},{"bike_id":"09105b5f-3c1b-4262-b05c-2ed28916e5be","system_id":"levelo_inurba_marseille","lat":43.25341,"lon":5.42174,"is_reserved":false,"is_disabled":false,"rental_uris":{"android":"levelo://app?vid=09105b5f-3c1b-4262-b05c-2ed28916e5be","ios":"levelo://app?vid=09105b5f-3c1b-4262-b05c-2ed28916e5be"},"vehicle_type_id":"4","last_reported":1768752767,"current_range_meters":9200,"station_id":"st_d2m65c5bi1j21697t3ng","pricing_plan_id":"cebpf4jnsgd1na2vs0mg"},{"bike_id":"ec1861e3-cf5e-47e7-9bee-92fe639b30f4","system_id":"levelo_inurba_marseille","lat":43.24531,"lon":5.39528,"is_reserved":false,"is_disabled":false,"rental_uris":{"android":"levelo://app?vid=ec1861e3-cf5e-47e7-9bee-92fe639b30f4","ios":"levelo://app?vid=ec1861e3-cf5e-47e7-9bee-92fe639b30f4"},"vehicle_type_id":"4","last_reported":1768752767,"current_range_meters":9200,"station_id":"ce4bhlp2rcd13ifvqgjg","pricing_plan_id":"cebpf4jnsgd1na2vs0mg"},{"bike_id":"ba07251e-69c5-4418-ace3-7cd844e33077","system_id":"levelo_inurba_marseille","lat":43.27816,"lon":5.40696,"is_reserved":false,"is_disabled":false,"rental_uris":{"android":"levelo://app?vid=ba07251e-69c5-4418-ace3-7cd844e33077","ios":"levelo://app?vid=ba07251e-69c5-4418-ace3-7cd844e33077"},"vehicle_type_id":"4","last_reported":1768752767,"current_range_meters":9200,"station_id":"ce4bhnh2rcd13ifvqgtg","pricing_plan_id":"cebpf4jnsgd1na2vs0mg"},{"bike_id":"02eb0611-384b-4478-9574-2b3192dd64c6","system_id":"levelo_inurba_marseille","lat":43.27998,"lon":5.41665,"is_reserved":false,"is_disabled":false,"rental_uris":{"android":"levelo://app?vid=02eb0611-384b-4478-9574-2b3192dd64c6","ios":"levelo://app?vid=02eb0611-384b-4478-9574-2b3192dd64c6"},"vehicle_type_id":"4","last_reported":1768752767,"current_range_meters":9200,"station_id":"ce4bho12rcd13ifvqh1g","pricing_plan_id":"cebpf4jnsgd1na2vs0mg"},{"bike_id":"e0b3d136-4efd-4410-be5e-53b3cc12c4c3","system_id":"levelo_inurba_marseille","lat":43.26061,"lon":5.38638,"is_reserved":false,"is_disabled":false,"rental_uris":{"android":"levelo://app?vid=e0b3d136-4efd-4410-be5e-53b3cc12c4c3","ios":"levelo://app?vid=e0b3d136-4efd-4410-be5e-53b3cc12c4c3"},"vehicle_type_id":"4","last_reported":1768752767,"current_range_meters":9200,"station_id":"","pricing_plan_id":"cebpf4jnsgd1na2vs0mg"},{"bike_id":"d6a5286c-a8f1-4c48-bd44-cb6cde170fbe","system_id":"levelo_inurba_marseille","lat":43.301,"lon":5.3908,"is_reserved":false,"is_disabled":true,"rental_uris":{"android":"levelo://app?vid=d6a5286c-a8f1-4c48-bd44-cb6cde170fbe","ios":"levelo://app?vid=d6a5286c-a8f1-4c48-bd44-cb6cde170fbe"},"vehicle_type_id":"4","last_reported":1768752767,"current_range_meters":9200,"station_id":"ce4bh192rcd13ifvqdb0","pricing_plan_id":"cebpf4jnsgd1na2vs0mg"},{"bike_id":"76bd8662-78d2-416e-bd1f-dbf6b13bf763","system_id":"levelo_inurba_marseille","lat":43.269423,"lon":5.402492,"is_reserved":false,"is_disabled":false,"rental_uris":{"android":"levelo://app?vid=76bd8662-78d2-416e-bd1f-dbf6b13bf763","ios":"levelo://app?vid=76bd8662-78d2-416e-bd1f-dbf6b13bf763"},"vehicle_type_id":"4","last_reported":1768752767,"current_range_meters":9200,"station_id":"cjm6bp8fraef2m0cb0m0","pricing_plan_id":"cebpf4jnsgd1na2vs0mg"},{"bike_id":"2692c150-a0c0-40f2-90c3-6786678aa239","system_id":"levelo_inurba_marseille","lat":43.31087,"lon":5.42429,"is_reserved":false,"is_disabled":false,"rental_uris":{"android":"levelo://app?vid=2692c150-a0c0-40f2-90c3-6786678aa239","ios":"levelo://app?vid=2692c150-a0c0-40f2-90c3-6786678aa239"},"vehicle_type_id":"4","last_reported":1768752767,"current_range_meters":9200,"station_id":"ce4bhp92rcd13ifvqhag","pricing_plan_id":"cebpf4jnsgd1na2vs0mg"},{"bike_id":"502976bc-a9bf-446d-890f-6b192d487131","system_id":"levelo_inurba_marseille","lat":43.26565,"lon":5.3902,"is_reserved":false,"is_disabled":false,"rental_uris":{"android":"levelo://app?vid=502976bc-a9bf-446d-890f-6b192d487131","ios":"levelo://app?vid=502976bc-a9bf-446d-890f-6b192d487131"},"vehicle_type_id":"4","last_reported":1768752767,"current_range_meters":9200,"station_id":"ce4bhe12rcd13ifvqf30","pricing_plan_id":"cebpf4jnsgd1na2vs0mg"},{"bike_id":"0fd21be0-2047-4c19-93b0-3d78a043614b","system_id":"levelo_inurba_marseille","lat":43.23789,"lon":5.36629,"is_reserved":false,"is_disabled":false,"rental_uris":{"android":"levelo://app?vid=0fd21be0-2047-4c19-93b0-3d78a043614b","ios":"levelo://app?vid=0fd21be0-2047-4c19-93b0-3d78a043614b"},"vehicle_type_id":"4","last_reported":1768752767,"current_range_meters":9200,"station_id":"st_d3nk18o9ro0c73en2l3g","pricing_plan_id":"cebpf4jnsgd1na2vs0mg"},{"bike_id":"f6dee482-e963-4223-be46-6a1a82c523df","system_id":"levelo_inurba_marseille","lat":43.241699,"lon":5.397121,"is_reserved":false,"is_disabled":false,"rental_uris":{"android":"levelo://app?vid=f6dee482-e963-4223-be46-6a1a82c523df","ios":"levelo://app?vid=f6dee482-e963-4223-be46-6a1a82c523df"},"vehicle_type_id":"4","last_reported":1768752767,"current_range_meters":9200,"station_id":"ce4bhn12rcd13ifvqgpg","pricing_plan_id":"cebpf4jnsgd1na2vs0mg"},{"bike_id":"9e956125-d135-4c5b-a672-b787c5ecd852","system_id":"levelo_inurba_marseille","lat":43.24169,"lon":5.39715,"is_reserved":false,"is_disabled":false,"rental_uris":{"android":"levelo://app?vid=9e956125-d135-4c5b-a672-b787c5ecd852","ios":"levelo://app?vid=9e956125-d135-4c5b-a672-b787c5ecd852"},"vehicle_type_id":"4","last_reported":1768752767,"current_range_meters":9200,"station_id":"ce4bhn12rcd13ifvqgpg","pricing_plan_id":"cebpf4jnsgd1na2vs0mg"},{"bike_id":"84d602b3-8943-4780-bcf1-164d29a27b66","system_id":"levelo_inurba_marseille","lat":43.28492,"lon":5.48398,"is_reserved":false,"is_disabled":false,"rental_uris":{"android":"levelo://app?vid=84d602b3-8943-4780-bcf1-164d29a27b66","ios":"levelo://app?vid=84d602b3-8943-4780-bcf1-164d29a27b66"},"vehicle_type_id":"4","last_reported":1768752767,"current_range_meters":9200,"station_id":"","pricing_plan_id":"cebpf4jnsgd1na2vs0mg"},{"bike_id":"80b40564-d8ca-4fba-94c7-74b7e6e95b0e","system_id":"levelo_inurba_marseille","lat":43.30544,"lon":5.36552,"is_reserved":false,"is_disabled":false,"rental_uris":{"android":"levelo://app?vid=80b40564-d8ca-4fba-94c7-74b7e6e95b0e","ios":"levelo://app?vid=80b40564-d8ca-4fba-94c7-74b7e6e95b0e"},"vehicle_type_id":"4","last_reported":1768752767,"current_range_meters":9200,"station_id":"ce4bgs12rcd13ifvqcag","pricing_plan_id":"cebpf4jnsgd1na2vs0mg"},{"bike_id":"ef88c352-189d-4372-beb9-7002182fbb2b","system_id":"levelo_inurba_marseille","lat":43.27999,"lon":5.39989,"is_reserved":false,"is_disabled":false,"rental_uris":{"android":"levelo://app?vid=ef88c352-189d-4372-beb9-7002182fbb2b","ios":"levelo://app?vid=ef88c352-189d-4372-beb9-7002182fbb2b"},"vehicle_type_id":"4","last_reported":1768752767,"current_range_meters":9200,"station_id":"ce4bho92rcd13ifvqh4g","pricing_plan_id":"cebpf4jnsgd1na2vs0mg"},{"bike_id":"e9587772-08c4-4548-8fe0-9e5439f5a44e","system_id":"levelo_inurba_marseille","lat":43.26587,"lon":5.39033,"is_reserved":false,"is_disabled":false,"rental_uris":{"android":"levelo://app?vid=e9587772-08c4-4548-8fe0-9e5439f5a44e","ios":"levelo://app?vid=e9587772-08c4-4548-8fe0-9e5439f5a44e"},"vehicle_type_id":"4","last_reported":1768752767,"current_range_meters":9200,"station_id":"ce4bhe12rcd13ifvqf30","pricing_plan_id":"cebpf4jnsgd1na2vs0mg"},{"bike_id":"1532d42e-38ab-4af0-9974-bda480cde4fa","system_id":"levelo_inurba_marseille","lat":43.27056,"lon":5.38312,"is_reserved":false,"is_disabled":false,"rental_uris":{"android":"levelo://app?vid=1532d42e-38ab-4af0-9974-bda480cde4fa","ios":"levelo://app?vid=1532d42e-38ab-4af0-9974-bda480cde4fa"},"vehicle_type_id":"4","last_reported":1768752767,"current_range_meters":9200,"station_id":"st_d3n2fo6cfp8s73cte1j0","pricing_plan_id":"cebpf4jnsgd1na2vs0mg"},{"bike_id":"c169b96a-f205-4703-b55c-8ccb3458c212","system_id":"levelo_inurba_marseille","lat":43.31699,"lon":5.40468,"is_reserved":false,"is_disabled":false,"rental_uris":{"android":"levelo://app?vid=c169b96a-f205-4703-b55c-8ccb3458c212","ios":"levelo://app?vid=c169b96a-f205-4703-b55c-8ccb3458c212"},"vehicle_type_id":"4","last_reported":1768752767,"current_range_meters":9200,"station_id":"ce4bh012rcd13ifvqd00","pricing_plan_id":"cebpf4jnsgd1na2vs0mg"},{"bike_id":"03256455-2cf8-4003-8cb2-14438e50ba23","system_id":"levelo_inurba_marseille","lat":43.30727,"lon":5.42461,"is_reserved":false,"is_disabled":false,"rental_uris":{"android":"levelo://app?vid=03256455-2cf8-4003-8cb2-14438e50ba23","ios":"levelo://app?vid=03256455-2cf8-4003-8cb2-14438e50ba23"},"vehicle_type_id":"4","last_reported":1768752767,"current_range_meters":9200,"station_id":"st_cvj6ca6bvosntc0bfgr0","pricing_plan_id":"cebpf4jnsgd1na2vs0mg"},{"bike_id":"3019b242-daef-4adc-9001-a765b1be88a4","system_id":"levelo_inurba_marseille","lat":43.2853,"lon":5.44096,"is_reserved":false,"is_disabled":false,"rental_uris":{"android":"levelo://app?vid=3019b242-daef-4adc-9001-a765b1be88a4","ios":"levelo://app?vid=3019b242-daef-4adc-9001-a765b1be88a4"},"vehicle_type_id":"4","last_reported":1768752767,"current_range_meters":9200,"station_id":"st_d3j3df2ikq2c7380ej80","pricing_plan_id":"cebpf4jnsgd1na2vs0mg"},{"bike_id":"544bcdbb-4ade-4e28-8d58-bd0ce6c900eb","system_id":"levelo_inurba_marseille","lat":43.2532,"lon":5.42152,"is_reserved":false,"is_disabled":false,"rental_uris":{"android":"levelo://app?vid=544bcdbb-4ade-4e28-8d58-bd0ce6c900eb","ios":"levelo://app?vid=544bcdbb-4ade-4e28-8d58-bd0ce6c900eb"},"vehicle_type_id":"4","last_reported":1768752767,"current_range_meters":9200,"station_id":"st_d2m65c5bi1j21697t3ng","pricing_plan_id":"cebpf4jnsgd1na2vs0mg"},{"bike_id":"1de5486a-37ca-4307-837d-e3c8b734ea31","system_id":"levelo_inurba_marseille","lat":43.29273,"lon":5.36847,"is_reserved":false,"is_disabled":false,"rental_uris":{"android":"levelo://app?vid=1de5486a-37ca-4307-837d-e3c8b734ea31","ios":"levelo://app?vid=1de5486a-37ca-4307-837d-e3c8b734ea31"},"vehicle_type_id":"4","last_reported":1768752767,"current_range_meters":9200,"station_id":"ce4bhbp2rcd13ifvqesg","pricing_plan_id":"cebpf4jnsgd1na2vs0mg"},{"bike_id":"a9cdf974-4322-4744-b774-7480af4d3eeb","system_id":"levelo_inurba_marseille","lat":43.27996,"lon":5.41674,"is_reserved":false,"is_disabled":false,"rental_uris":{"android":"levelo://app?vid=a9cdf974-4322-4744-b774-7480af4d3eeb","ios":"levelo://app?vid=a9cdf974-4322-4744-b774-7480af4d3eeb"},"vehicle_type_id":"4","last_reported":1768752767,"current_range_meters":9600,"station_id":"ce4bho12rcd13ifvqh1g","pricing_plan_id":"cebpf4jnsgd1na2vs0mg"},{"bike_id":"016900bc-5ac6-4330-ab84-4d755560128b","system_id":"levelo_inurba_marseille","lat":43.27961,"lon":5.39935,"is_reserved":false,"is_disabled":false,"rental_uris":{"android":"levelo://app?vid=016900bc-5ac6-4330-ab84-4d755560128b","ios":"levelo://app?vid=016900bc-5ac6-4330-ab84-4d755560128b"},"vehicle_type_id":"4","last_reported":1768752767,"current_range_meters":9600,"station_id":"","pricing_plan_id":"cebpf4jnsgd1na2vs0mg"},{"bike_id":"456fa838-bde1-41a1-bacb-725c5d31c7ed","system_id":"levelo_inurba_marseille","lat":43.2738,"lon":5.36252,"is_reserved":false,"is_disabled":false,"rental_uris":{"android":"levelo://app?vid=456fa838-bde1-41a1-bacb-725c5d31c7ed","ios":"levelo://app?vid=456fa838-bde1-41a1-bacb-725c5d31c7ed"},"vehicle_type_id":"4","last_reported":1768752767,"current_range_meters":9600,"station_id":"ce4bhbh2rcd13ifvqeo0","pricing_plan_id":"cebpf4jnsgd1na2vs0mg"},{"bike_id":"1606f888-b4dc-4200-b20c-005f9a7c7417","system_id":"levelo_inurba_marseille","lat":43.22923,"lon":5.35358,"is_reserved":false,"is_disabled":false,"rental_uris":{"android":"levelo://app?vid=1606f888-b4dc-4200-b20c-005f9a7c7417","ios":"levelo://app?vid=1606f888-b4dc-4200-b20c-005f9a7c7417"},"vehicle_type_id":"4","last_reported":1768752767,"current_range_meters":9600,"station_id":"cpo3532slgdg3j2ikp40","pricing_plan_id":"cebpf4jnsgd1na2vs0mg"},{"bike_id":"a701194d-0cc5-497a-93ea-f1faca1626fe","system_id":"levelo_inurba_marseille","lat":43.26582,"lon":5.4032,"is_reserved":false,"is_disabled":false,"rental_uris":{"android":"levelo://app?vid=a701194d-0cc5-497a-93ea-f1faca1626fe","ios":"levelo://app?vid=a701194d-0cc5-497a-93ea-f1faca1626fe"},"vehicle_type_id":"4","last_reported":1768752767,"current_range_meters":9600,"station_id":"ce4bhmp2rcd13ifvqgng","pricing_plan_id":"cebpf4jnsgd1na2vs0mg"},{"bike_id":"f760a7b1-29a2-400f-be88-26a576d0ed33","system_id":"levelo_inurba_marseille","lat":43.2256,"lon":5.41629,"is_reserved":false,"is_disabled":false,"rental_uris":{"android":"levelo://app?vid=f760a7b1-29a2-400f-be88-26a576d0ed33","ios":"levelo://app?vid=f760a7b1-29a2-400f-be88-26a576d0ed33"},"vehicle_type_id":"4","last_reported":1768752767,"current_range_meters":9600,"station_id":"st_d2o4gvlbi1j2169b742g","pricing_plan_id":"cebpf4jnsgd1na2vs0mg"},{"bike_id":"da5ec0dc-b428-4d22-9b7d-d9f0923ad17e","system_id":"levelo_inurba_marseille","lat":43.29642,"lon":5.37156,"is_reserved":false,"is_disabled":true,"rental_uris":{"android":"levelo://app?vid=da5ec0dc-b428-4d22-9b7d-d9f0923ad17e","ios":"levelo://app?vid=da5ec0dc-b428-4d22-9b7d-d9f0923ad17e"},"vehicle_type_id":"4","last_reported":1768752767,"current_range_meters":9600,"station_id":"ce4bgnh2rcd13ifvqc0g","pricing_plan_id":"cebpf4jnsgd1na2vs0mg"},{"bike_id":"f105bb30-5feb-43b7-adae-39f585dd1cca","system_id":"levelo_inurba_marseille","lat":43.28617,"lon":5.351,"is_reserved":false,"is_disabled":true,"rental_uris":{"android":"levelo://app?vid=f105bb30-5feb-43b7-adae-39f585dd1cca","ios":"levelo://app?vid=f105bb30-5feb-43b7-adae-39f585dd1cca"},"vehicle_type_id":"4","last_reported":1768752767,"current_range_meters":9600,"station_id":"ce4bhch2rcd13ifvqeug","pricing_plan_id":"cebpf4jnsgd1na2vs0mg"},{"bike_id":"40ec9b3e-8a68-4f21-9a1a-c3df8cc32599","system_id":"levelo_inurba_marseille","lat":43.24059,"lon":5.37741,"is_reserved":false,"is_disabled":false,"rental_uris":{"android":"levelo://app?vid=40ec9b3e-8a68-4f21-9a1a-c3df8cc32599","ios":"levelo://app?vid=40ec9b3e-8a68-4f21-9a1a-c3df8cc32599"},"vehicle_type_id":"4","last_reported":1768752767,"current_range_meters":9600,"station_id":"ce4bhnp2rcd13ifvqgvg","pricing_plan_id":"cebpf4jnsgd1na2vs0mg"},{"bike_id":"44d80ca6-dac0-4000-97a2-ac8fa224bc0e","system_id":"levelo_inurba_marseille","lat":43.28768,"lon":5.37145,"is_reserved":false,"is_disabled":false,"rental_uris":{"android":"levelo://app?vid=44d80ca6-dac0-4000-97a2-ac8fa224bc0e","ios":"levelo://app?vid=44d80ca6-dac0-4000-97a2-ac8fa224bc0e"},"vehicle_type_id":"4","last_reported":1768752767,"current_range_meters":9600,"station_id":"","pricing_plan_id":"cebpf4jnsgd1na2vs0mg"},{"bike_id":"2090a1bd-4d02-4c60-92de-1961961aca62","system_id":"levelo_inurba_marseille","lat":43.28676,"lon":5.38683,"is_reserved":false,"is_disabled":true,"rental_uris":{"android":"levelo://app?vid=2090a1bd-4d02-4c60-92de-1961961aca62","ios":"levelo://app?vid=2090a1bd-4d02-4c60-92de-1961961aca62"},"vehicle_type_id":"4","last_reported":1768752767,"current_range_meters":9600,"station_id":"ce4bh492rcd13ifvqdug","pricing_plan_id":"cebpf4jnsgd1na2vs0mg"},{"bike_id":"f06669ab-77f4-488c-a2ad-c2fd226e68ba","system_id":"levelo_inurba_marseille","lat":43.262031,"lon":5.379323,"is_reserved":false,"is_disabled":false,"rental_uris":{"android":"levelo://app?vid=f06669ab-77f4-488c-a2ad-c2fd226e68ba","ios":"levelo://app?vid=f06669ab-77f4-488c-a2ad-c2fd226e68ba"},"vehicle_type_id":"4","last_reported":1768752767,"current_range_meters":9600,"station_id":"ce4bhjp2rcd13ifvqg90","pricing_plan_id":"cebpf4jnsgd1na2vs0mg"},{"bike_id":"188c635f-31eb-4e45-b29f-e748801ba7a3","system_id":"levelo_inurba_marseille","lat":43.28484,"lon":5.48394,"is_reserved":false,"is_disabled":false,"rental_uris":{"android":"levelo://app?vid=188c635f-31eb-4e45-b29f-e748801ba7a3","ios":"levelo://app?vid=188c635f-31eb-4e45-b29f-e748801ba7a3"},"vehicle_type_id":"4","last_reported":1768752767,"current_range_meters":9600,"station_id":"st_d3svhcjqgbts73a3dn0g","pricing_plan_id":"cebpf4jnsgd1na2vs0mg"},{"bike_id":"5afa5650-149a-4887-85f3-43541770eedd","system_id":"levelo_inurba_marseille","lat":43.30806,"lon":5.38151,"is_reserved":false,"is_disabled":false,"rental_uris":{"android":"levelo://app?vid=5afa5650-149a-4887-85f3-43541770eedd","ios":"levelo://app?vid=5afa5650-149a-4887-85f3-43541770eedd"},"vehicle_type_id":"4","last_reported":1768752767,"current_range_meters":9600,"station_id":"ce4bgt12rcd13ifvqce0","pricing_plan_id":"cebpf4jnsgd1na2vs0mg"},{"bike_id":"d3b8517c-8fa3-4f75-bcbd-3a36294bc5e7","system_id":"levelo_inurba_marseille","lat":43.26348,"lon":5.40101,"is_reserved":false,"is_disabled":false,"rental_uris":{"android":"levelo://app?vid=d3b8517c-8fa3-4f75-bcbd-3a36294bc5e7","ios":"levelo://app?vid=d3b8517c-8fa3-4f75-bcbd-3a36294bc5e7"},"vehicle_type_id":"4","last_reported":1768752767,"current_range_meters":9600,"station_id":"","pricing_plan_id":"cebpf4jnsgd1na2vs0mg"},{"bike_id":"e5ab658e-81fe-444d-a6bf-1d45924ca7dc","system_id":"levelo_inurba_marseille","lat":43.29514,"lon":5.39418,"is_reserved":false,"is_disabled":false,"rental_uris":{"android":"levelo://app?vid=e5ab658e-81fe-444d-a6bf-1d45924ca7dc","ios":"levelo://app?vid=e5ab658e-81fe-444d-a6bf-1d45924ca7dc"},"vehicle_type_id":"4","last_reported":1768752767,"current_range_meters":9600,"station_id":"ce4bh292rcd13ifvqdf0","pricing_plan_id":"cebpf4jnsgd1na2vs0mg"},{"bike_id":"017ac6ba-5de6-4940-8209-8a79986e4549","system_id":"levelo_inurba_marseille","lat":43.29263,"lon":5.38446,"is_reserved":false,"is_disabled":true,"rental_uris":{"android":"levelo://app?vid=017ac6ba-5de6-4940-8209-8a79986e4549","ios":"levelo://app?vid=017ac6ba-5de6-4940-8209-8a79986e4549"},"vehicle_type_id":"4","last_reported":1768752767,"current_range_meters":10000,"station_id":"ce4bh692rcd13ifvqea0","pricing_plan_id":"cebpf4jnsgd1na2vs0mg"},{"bike_id":"cc2e8713-1733-4ff4-b476-ecb46b9d7a1b","system_id":"levelo_inurba_marseille","lat":43.2799,"lon":5.41667,"is_reserved":false,"is_disabled":false,"rental_uris":{"android":"levelo://app?vid=cc2e8713-1733-4ff4-b476-ecb46b9d7a1b","ios":"levelo://app?vid=cc2e8713-1733-4ff4-b476-ecb46b9d7a1b"},"vehicle_type_id":"4","last_reported":1768752767,"current_range_meters":10000,"station_id":"ce4bho12rcd13ifvqh1g","pricing_plan_id":"cebpf4jnsgd1na2vs0mg"},{"bike_id":"0975f492-1758-4813-958c-364296bfbee6","system_id":"levelo_inurba_marseille","lat":43.26069,"lon":5.39399,"is_reserved":false,"is_disabled":false,"rental_uris":{"android":"levelo://app?vid=0975f492-1758-4813-958c-364296bfbee6","ios":"levelo://app?vid=0975f492-1758-4813-958c-364296bfbee6"},"vehicle_type_id":"4","last_reported":1768752767,"current_range_meters":10000,"station_id":"ce4bhh92rcd13ifvqfj0","pricing_plan_id":"cebpf4jnsgd1na2vs0mg"},{"bike_id":"4f97a444-7786-42f3-aaa7-d1ce3d04369c","system_id":"levelo_inurba_marseille","lat":43.29275,"lon":5.36848,"is_reserved":false,"is_disabled":false,"rental_uris":{"android":"levelo://app?vid=4f97a444-7786-42f3-aaa7-d1ce3d04369c","ios":"levelo://app?vid=4f97a444-7786-42f3-aaa7-d1ce3d04369c"},"vehicle_type_id":"4","last_reported":1768752767,"current_range_meters":10000,"station_id":"ce4bhbp2rcd13ifvqesg","pricing_plan_id":"cebpf4jnsgd1na2vs0mg"},{"bike_id":"afa4a834-dd76-412c-abdc-b712bd680a88","system_id":"levelo_inurba_marseille","lat":43.24956,"lon":5.40486,"is_reserved":false,"is_disabled":false,"rental_uris":{"android":"levelo://app?vid=afa4a834-dd76-412c-abdc-b712bd680a88","ios":"levelo://app?vid=afa4a834-dd76-412c-abdc-b712bd680a88"},"vehicle_type_id":"4","last_reported":1768752767,"current_range_meters":10000,"station_id":"st_d2ngiaodas8pm72gd1h0","pricing_plan_id":"cebpf4jnsgd1na2vs0mg"},{"bike_id":"41ce994c-db49-4f1d-bc6f-e42d35e1564c","system_id":"levelo_inurba_marseille","lat":43.27729,"lon":5.38851,"is_reserved":false,"is_disabled":false,"rental_uris":{"android":"levelo://app?vid=41ce994c-db49-4f1d-bc6f-e42d35e1564c","ios":"levelo://app?vid=41ce994c-db49-4f1d-bc6f-e42d35e1564c"},"vehicle_type_id":"4","last_reported":1768752767,"current_range_meters":10000,"station_id":"","pricing_plan_id":"cebpf4jnsgd1na2vs0mg"},{"bike_id":"a793b43a-2f1a-44e5-b8fd-5c578f863f85","system_id":"levelo_inurba_marseille","lat":43.31751,"lon":5.390163,"is_reserved":false,"is_disabled":false,"rental_uris":{"android":"levelo://app?vid=a793b43a-2f1a-44e5-b8fd-5c578f863f85","ios":"levelo://app?vid=a793b43a-2f1a-44e5-b8fd-5c578f863f85"},"vehicle_type_id":"4","last_reported":1768752767,"current_range_meters":10000,"station_id":"ce4bhqp2rcd13ifvqhng","pricing_plan_id":"cebpf4jnsgd1na2vs0mg"},{"bike_id":"6cf01478-fde2-46e6-bdc7-d20cd609786f","system_id":"levelo_inurba_marseille","lat":43.28485,"lon":5.38536,"is_reserved":false,"is_disabled":false,"rental_uris":{"android":"levelo://app?vid=6cf01478-fde2-46e6-bdc7-d20cd609786f","ios":"levelo://app?vid=6cf01478-fde2-46e6-bdc7-d20cd609786f"},"vehicle_type_id":"4","last_reported":1768752767,"current_range_meters":10000,"station_id":"ce4bh8p2rcd13ifvqeb0","pricing_plan_id":"cebpf4jnsgd1na2vs0mg"},{"bike_id":"f70a59b4-29fe-4c71-a82c-c9b428830b98","system_id":"levelo_inurba_marseille","lat":43.24061,"lon":5.37774,"is_reserved":false,"is_disabled":false,"rental_uris":{"android":"levelo://app?vid=f70a59b4-29fe-4c71-a82c-c9b428830b98","ios":"levelo://app?vid=f70a59b4-29fe-4c71-a82c-c9b428830b98"},"vehicle_type_id":"4","last_reported":1768752767,"current_range_meters":10000,"station_id":"ce4bhnp2rcd13ifvqgvg","pricing_plan_id":"cebpf4jnsgd1na2vs0mg"},{"bike_id":"86c3f0b8-2cd4-4a60-9cca-42812eafe40e","system_id":"levelo_inurba_marseille","lat":43.28154,"lon":5.426313,"is_reserved":false,"is_disabled":false,"rental_uris":{"android":"levelo://app?vid=86c3f0b8-2cd4-4a60-9cca-42812eafe40e","ios":"levelo://app?vid=86c3f0b8-2cd4-4a60-9cca-42812eafe40e"},"vehicle_type_id":"4","last_reported":1768752767,"current_range_meters":10000,"station_id":"ce4bhnh2rcd13ifvqgug","pricing_plan_id":"cebpf4jnsgd1na2vs0mg"},{"bike_id":"7dbbcfab-8796-4f78-b67c-fb95c692bb9a","system_id":"levelo_inurba_marseille","lat":43.25148,"lon":5.4005,"is_reserved":false,"is_disabled":false,"rental_uris":{"android":"levelo://app?vid=7dbbcfab-8796-4f78-b67c-fb95c692bb9a","ios":"levelo://app?vid=7dbbcfab-8796-4f78-b67c-fb95c692bb9a"},"vehicle_type_id":"4","last_reported":1768752767,"current_range_meters":10000,"station_id":"","pricing_plan_id":"cebpf4jnsgd1na2vs0mg"},{"bike_id":"1b5fab59-5483-404f-9adb-d7947b2f0edb","system_id":"levelo_inurba_marseille","lat":43.29445,"lon":5.39751,"is_reserved":false,"is_disabled":false,"rental_uris":{"android":"levelo://app?vid=1b5fab59-5483-404f-9adb-d7947b2f0edb","ios":"levelo://app?vid=1b5fab59-5483-404f-9adb-d7947b2f0edb"},"vehicle_type_id":"4","last_reported":1768752767,"current_range_meters":10000,"station_id":"ce4bh3h2rcd13ifvqdo0","pricing_plan_id":"cebpf4jnsgd1na2vs0mg"},{"bike_id":"c3633228-22c1-48b6-a73d-2db8665cea58","system_id":"levelo_inurba_marseille","lat":43.278153,"lon":5.407127,"is_reserved":false,"is_disabled":false,"rental_uris":{"android":"levelo://app?vid=c3633228-22c1-48b6-a73d-2db8665cea58","ios":"levelo://app?vid=c3633228-22c1-48b6-a73d-2db8665cea58"},"vehicle_type_id":"4","last_reported":1768752767,"current_range_meters":10000,"station_id":"ce4bhnh2rcd13ifvqgtg","pricing_plan_id":"cebpf4jnsgd1na2vs0mg"},{"bike_id":"1bae9140-ff17-4e53-90ce-59eb9d8c1a5d","system_id":"levelo_inurba_marseille","lat":43.27988,"lon":5.41644,"is_reserved":false,"is_disabled":false,"rental_uris":{"android":"levelo://app?vid=1bae9140-ff17-4e53-90ce-59eb9d8c1a5d","ios":"levelo://app?vid=1bae9140-ff17-4e53-90ce-59eb9d8c1a5d"},"vehicle_type_id":"4","last_reported":1768752767,"current_range_meters":10000,"station_id":"ce4bho12rcd13ifvqh1g","pricing_plan_id":"cebpf4jnsgd1na2vs0mg"},{"bike_id":"abf30d9a-8f0c-4626-8dc8-b0faa0cf4d72","system_id":"levelo_inurba_marseille","lat":43.2495,"lon":5.40484,"is_reserved":false,"is_disabled":false,"rental_uris":{"android":"levelo://app?vid=abf30d9a-8f0c-4626-8dc8-b0faa0cf4d72","ios":"levelo://app?vid=abf30d9a-8f0c-4626-8dc8-b0faa0cf4d72"},"vehicle_type_id":"4","last_reported":1768752767,"current_range_meters":10000,"station_id":"st_d2ngiaodas8pm72gd1h0","pricing_plan_id":"cebpf4jnsgd1na2vs0mg"},{"bike_id":"335a8731-875e-404c-9011-f15c2acf8de6","system_id":"levelo_inurba_marseille","lat":43.26211,"lon":5.41546,"is_reserved":false,"is_disabled":false,"rental_uris":{"android":"levelo://app?vid=335a8731-875e-404c-9011-f15c2acf8de6","ios":"levelo://app?vid=335a8731-875e-404c-9011-f15c2acf8de6"},"vehicle_type_id":"4","last_reported":1768752767,"current_range_meters":10000,"station_id":"","pricing_plan_id":"cebpf4jnsgd1na2vs0mg"},{"bike_id":"1837b76f-55b2-4942-aef4-b0d299ab4019","system_id":"levelo_inurba_marseille","lat":43.25219,"lon":5.38034,"is_reserved":false,"is_disabled":false,"rental_uris":{"android":"levelo://app?vid=1837b76f-55b2-4942-aef4-b0d299ab4019","ios":"levelo://app?vid=1837b76f-55b2-4942-aef4-b0d299ab4019"},"vehicle_type_id":"4","last_reported":1768752767,"current_range_meters":10000,"station_id":"","pricing_plan_id":"cebpf4jnsgd1na2vs0mg"},{"bike_id":"c17fb97b-ae07-4c98-a543-c0e22027b693","system_id":"levelo_inurba_marseille","lat":43.24397,"lon":5.37026,"is_reserved":false,"is_disabled":false,"rental_uris":{"android":"levelo://app?vid=c17fb97b-ae07-4c98-a543-c0e22027b693","ios":"levelo://app?vid=c17fb97b-ae07-4c98-a543-c0e22027b693"},"vehicle_type_id":"4","last_reported":1768752767,"current_range_meters":10000,"station_id":"ce4bhhh2rcd13ifvqfk0","pricing_plan_id":"cebpf4jnsgd1na2vs0mg"},{"bike_id":"13c7565e-579a-4d8c-8e4a-79f4880e8378","system_id":"levelo_inurba_marseille","lat":43.2535,"lon":5.37999,"is_reserved":false,"is_disabled":false,"rental_uris":{"android":"levelo://app?vid=13c7565e-579a-4d8c-8e4a-79f4880e8378","ios":"levelo://app?vid=13c7565e-579a-4d8c-8e4a-79f4880e8378"},"vehicle_type_id":"4","last_reported":1768752767,"current_range_meters":10000,"station_id":"","pricing_plan_id":"cebpf4jnsgd1na2vs0mg"},{"bike_id":"d3636923-d529-4805-a8bd-d6d3ddc3aec2","system_id":"levelo_inurba_marseille","lat":43.2903,"lon":5.39962,"is_reserved":false,"is_disabled":true,"rental_uris":{"android":"levelo://app?vid=d3636923-d529-4805-a8bd-d6d3ddc3aec2","ios":"levelo://app?vid=d3636923-d529-4805-a8bd-d6d3ddc3aec2"},"vehicle_type_id":"4","last_reported":1768752767,"current_range_meters":10000,"station_id":"ce4bh392rcd13ifvqdm0","pricing_plan_id":"cebpf4jnsgd1na2vs0mg"},{"bike_id":"bbe519d1-7d24-4dfc-8eea-7f3e8bf5a4b8","system_id":"levelo_inurba_marseille","lat":43.24181,"lon":5.39721,"is_reserved":false,"is_disabled":false,"rental_uris":{"android":"levelo://app?vid=bbe519d1-7d24-4dfc-8eea-7f3e8bf5a4b8","ios":"levelo://app?vid=bbe519d1-7d24-4dfc-8eea-7f3e8bf5a4b8"},"vehicle_type_id":"4","last_reported":1768752767,"current_range_meters":10000,"station_id":"ce4bhn12rcd13ifvqgpg","pricing_plan_id":"cebpf4jnsgd1na2vs0mg"},{"bike_id":"5c17b88d-8827-4f96-b5ec-2c1841b5b322","system_id":"levelo_inurba_marseille","lat":43.31694,"lon":5.40445,"is_reserved":false,"is_disabled":false,"rental_uris":{"android":"levelo://app?vid=5c17b88d-8827-4f96-b5ec-2c1841b5b322","ios":"levelo://app?vid=5c17b88d-8827-4f96-b5ec-2c1841b5b322"},"vehicle_type_id":"4","last_reported":1768752767,"current_range_meters":10800,"station_id":"ce4bh012rcd13ifvqd00","pricing_plan_id":"cebpf4jnsgd1na2vs0mg"},{"bike_id":"19bff589-1033-493b-b972-4fa3ed49becb","system_id":"levelo_inurba_marseille","lat":43.31129,"lon":5.37749,"is_reserved":false,"is_disabled":true,"rental_uris":{"android":"levelo://app?vid=19bff589-1033-493b-b972-4fa3ed49becb","ios":"levelo://app?vid=19bff589-1033-493b-b972-4fa3ed49becb"},"vehicle_type_id":"4","last_reported":1768752767,"current_range_meters":10800,"station_id":"ce4bgt92rcd13ifvqcg0","pricing_plan_id":"cebpf4jnsgd1na2vs0mg"},{"bike_id":"337abbe0-ba5b-44e6-af71-9c73424e5a2f","system_id":"levelo_inurba_marseille","lat":43.29842,"lon":5.36262,"is_reserved":false,"is_disabled":false,"rental_uris":{"android":"levelo://app?vid=337abbe0-ba5b-44e6-af71-9c73424e5a2f","ios":"levelo://app?vid=337abbe0-ba5b-44e6-af71-9c73424e5a2f"},"vehicle_type_id":"4","last_reported":1768752767,"current_range_meters":10800,"station_id":"ce4bgpp2rcd13ifvqc3g","pricing_plan_id":"cebpf4jnsgd1na2vs0mg"},{"bike_id":"bf773f7f-903a-4e10-810c-ba1d68598ace","system_id":"levelo_inurba_marseille","lat":43.30539,"lon":5.3841,"is_reserved":false,"is_disabled":false,"rental_uris":{"android":"levelo://app?vid=bf773f7f-903a-4e10-810c-ba1d68598ace","ios":"levelo://app?vid=bf773f7f-903a-4e10-810c-ba1d68598ace"},"vehicle_type_id":"4","last_reported":1768752767,"current_range_meters":10800,"station_id":"ce4bgg92rcd13ifvqb30","pricing_plan_id":"cebpf4jnsgd1na2vs0mg"},{"bike_id":"aae6e2e2-d291-4d9b-87af-20d5e796f9c6","system_id":"levelo_inurba_marseille","lat":43.306012,"lon":5.372123,"is_reserved":false,"is_disabled":false,"rental_uris":{"android":"levelo://app?vid=aae6e2e2-d291-4d9b-87af-20d5e796f9c6","ios":"levelo://app?vid=aae6e2e2-d291-4d9b-87af-20d5e796f9c6"},"vehicle_type_id":"4","last_reported":1768752767,"current_range_meters":10800,"station_id":"ce4bgqh2rcd13ifvqc4g","pricing_plan_id":"cebpf4jnsgd1na2vs0mg"},{"bike_id":"0cf1f2c5-376b-41dc-bc01-878c31e518a5","system_id":"levelo_inurba_marseille","lat":43.28145,"lon":5.42652,"is_reserved":false,"is_disabled":false,"rental_uris":{"android":"levelo://app?vid=0cf1f2c5-376b-41dc-bc01-878c31e518a5","ios":"levelo://app?vid=0cf1f2c5-376b-41dc-bc01-878c31e518a5"},"vehicle_type_id":"4","last_reported":1768752767,"current_range_meters":10800,"station_id":"ce4bhnh2rcd13ifvqgug","pricing_plan_id":"cebpf4jnsgd1na2vs0mg"},{"bike_id":"5e7df9d7-418f-4368-a954-d50fe151d8de","system_id":"levelo_inurba_marseille","lat":43.22931,"lon":5.35368,"is_reserved":false,"is_disabled":false,"rental_uris":{"android":"levelo://app?vid=5e7df9d7-418f-4368-a954-d50fe151d8de","ios":"levelo://app?vid=5e7df9d7-418f-4368-a954-d50fe151d8de"},"vehicle_type_id":"4","last_reported":1768752767,"current_range_meters":10800,"station_id":"cpo3532slgdg3j2ikp40","pricing_plan_id":"cebpf4jnsgd1na2vs0mg"},{"bike_id":"6735a20a-0321-423c-a55a-4ecf97e291d0","system_id":"levelo_inurba_marseille","lat":43.22925,"lon":5.35383,"is_reserved":false,"is_disabled":false,"rental_uris":{"android":"levelo://app?vid=6735a20a-0321-423c-a55a-4ecf97e291d0","ios":"levelo://app?vid=6735a20a-0321-423c-a55a-4ecf97e291d0"},"vehicle_type_id":"4","last_reported":1768752767,"current_range_meters":10800,"station_id":"cpo3532slgdg3j2ikp40","pricing_plan_id":"cebpf4jnsgd1na2vs0mg"},{"bike_id":"536f7c96-4167-4be5-8a94-92113cb642f7","system_id":"levelo_inurba_marseille","lat":43.22569,"lon":5.41636,"is_reserved":false,"is_disabled":false,"rental_uris":{"android":"levelo://app?vid=536f7c96-4167-4be5-8a94-92113cb642f7","ios":"levelo://app?vid=536f7c96-4167-4be5-8a94-92113cb642f7"},"vehicle_type_id":"4","last_reported":1768752767,"current_range_meters":10800,"station_id":"st_d2o4gvlbi1j2169b742g","pricing_plan_id":"cebpf4jnsgd1na2vs0mg"},{"bike_id":"72f49e0b-5e79-48a0-9ce5-cdc609d35644","system_id":"levelo_inurba_marseille","lat":43.30461,"lon":5.37906,"is_reserved":false,"is_disabled":false,"rental_uris":{"android":"levelo://app?vid=72f49e0b-5e79-48a0-9ce5-cdc609d35644","ios":"levelo://app?vid=72f49e0b-5e79-48a0-9ce5-cdc609d35644"},"vehicle_type_id":"4","last_reported":1768752767,"current_range_meters":10800,"station_id":"ce4bgup2rcd13ifvqcn0","pricing_plan_id":"cebpf4jnsgd1na2vs0mg"},{"bike_id":"643a0bb3-7f00-438c-b64a-14f811a7652b","system_id":"levelo_inurba_marseille","lat":43.29714,"lon":5.37788,"is_reserved":false,"is_disabled":false,"rental_uris":{"android":"levelo://app?vid=643a0bb3-7f00-438c-b64a-14f811a7652b","ios":"levelo://app?vid=643a0bb3-7f00-438c-b64a-14f811a7652b"},"vehicle_type_id":"4","last_reported":1768752767,"current_range_meters":10800,"station_id":"","pricing_plan_id":"cebpf4jnsgd1na2vs0mg"},{"bike_id":"962264de-8ba8-48d0-be2e-1b820b57c859","system_id":"levelo_inurba_marseille","lat":43.29532,"lon":5.39393,"is_reserved":false,"is_disabled":false,"rental_uris":{"android":"levelo://app?vid=962264de-8ba8-48d0-be2e-1b820b57c859","ios":"levelo://app?vid=962264de-8ba8-48d0-be2e-1b820b57c859"},"vehicle_type_id":"4","last_reported":1768752767,"current_range_meters":10800,"station_id":"ce4bh292rcd13ifvqdf0","pricing_plan_id":"cebpf4jnsgd1na2vs0mg"},{"bike_id":"742bfead-b0bb-40c8-90c7-691fddf85e10","system_id":"levelo_inurba_marseille","lat":43.283463,"lon":5.381038,"is_reserved":false,"is_disabled":false,"rental_uris":{"android":"levelo://app?vid=742bfead-b0bb-40c8-90c7-691fddf85e10","ios":"levelo://app?vid=742bfead-b0bb-40c8-90c7-691fddf85e10"},"vehicle_type_id":"4","last_reported":1768752767,"current_range_meters":10800,"station_id":"ce4bhg92rcd13ifvqf90","pricing_plan_id":"cebpf4jnsgd1na2vs0mg"},{"bike_id":"c5db7ad0-3b21-4d0f-bf57-74ba050038f7","system_id":"levelo_inurba_marseille","lat":43.27058,"lon":5.38296,"is_reserved":false,"is_disabled":false,"rental_uris":{"android":"levelo://app?vid=c5db7ad0-3b21-4d0f-bf57-74ba050038f7","ios":"levelo://app?vid=c5db7ad0-3b21-4d0f-bf57-74ba050038f7"},"vehicle_type_id":"4","last_reported":1768752767,"current_range_meters":10800,"station_id":"st_d3n2fo6cfp8s73cte1j0","pricing_plan_id":"cebpf4jnsgd1na2vs0mg"},{"bike_id":"7890d8a9-a5ee-4c6a-9a9c-ecbe6e802b3b","system_id":"levelo_inurba_marseille","lat":43.279914,"lon":5.400276,"is_reserved":false,"is_disabled":false,"rental_uris":{"android":"levelo://app?vid=7890d8a9-a5ee-4c6a-9a9c-ecbe6e802b3b","ios":"levelo://app?vid=7890d8a9-a5ee-4c6a-9a9c-ecbe6e802b3b"},"vehicle_type_id":"4","last_reported":1768752767,"current_range_meters":11200,"station_id":"ce4bho92rcd13ifvqh4g","pricing_plan_id":"cebpf4jnsgd1na2vs0mg"},{"bike_id":"7900f530-7dd3-464b-b498-7c103f7ac312","system_id":"levelo_inurba_marseille","lat":43.2984,"lon":5.3627,"is_reserved":false,"is_disabled":false,"rental_uris":{"android":"levelo://app?vid=7900f530-7dd3-464b-b498-7c103f7ac312","ios":"levelo://app?vid=7900f530-7dd3-464b-b498-7c103f7ac312"},"vehicle_type_id":"4","last_reported":1768752767,"current_range_meters":11200,"station_id":"ce4bgpp2rcd13ifvqc3g","pricing_plan_id":"cebpf4jnsgd1na2vs0mg"},