{"last_updated":1700752018,"ttl":30,"version":"2.2","data":{"bikes":[{"bike_id":"1b4f0ad4-3c00-4fb8-869a-855be304d4e3","system_id":"levelo_inurba_marseille","lat":43.313391,"lon":5.36706,"is_reserved":false,"is_disabled":false,"rental_uris":{"android":"levelo://app?vid=1b4f0ad4-3c00-4fb8-869a-855be304d4e3","ios":"levelo://app?vid=1b4f0ad4-3c00-4fb8-869a-855be304d4e3"},"vehicle_type_id":"4","last_reported":1700752018,"current_range_meters":31200,"station_id":"ce4bgr92rcd13ifvqc6g","pricing_plan_id":"free"},{"bike_id":"6aed539e-fbb3-4e95-acdc-66cfa59c1fba","system_id":"levelo_inurba_marseille","lat":43.313391,"lon":5.36706,"is_reserved":false,"is_disabled":false,"rental_uris":{"android":"levelo://app?vid=6aed539e-fbb3-4e95-acdc-66cfa59c1fba","ios":"levelo://app?vid=6aed539e-fbb3-4e95-acdc-66cfa59c1fba"},"vehicle_type_id":"4","last_reported":1700752018,"current_range_meters":23600,"station_id":"ce4bgr92rcd13ifvqc6g","pricing_plan_id":"free"},{"bike_id":"74bd4cbe-c558-46c0-bd30-c944aadabae6","system_id":"levelo_inurba_marseille","lat":43.313501,"lon":5.367096,"is_reserved":false,"is_disabled":false,"rental_uris":{"android":"levelo://app?vid=74bd4cbe-c558-46c0-bd30-c944aadabae6","ios":"levelo://app?vid=74bd4cbe-c558-46c0-bd30-c944aadabae6"},"vehicle_type_id":"4","last_reported":1700752018,"current_range_meters":20800,"station_id":"ce4bgr92rcd13ifvqc6g","pricing_plan_id":"free"},{"bike_id":"a272bb25-d8ef-4771-bed1-43feefbee660","system_id":"levelo_inurba_marseille","lat":43.313562,"lon":5.36707,"is_reserved":false,"is_disabled":false,"rental_uris":{"android":"levelo://app?vid=a272bb25-d8ef-4771-bed1-43feefbee660","ios":"levelo://app?vid=a272bb25-d8ef-4771-bed1-43feefbee660"},"vehicle_type_id":"4","last_reported":1700752018,"current_range_meters":21200,"station_id":"ce4bgr92rcd13ifvqc6g","pricing_plan_id":"free"},{"bike_id":"1768f595-fab9-431e-a005-e0909aaa484b","system_id":"levelo_inurba_marseille","lat":43.313569,"lon":5.36709,"is_reserved":false,"is_disabled":false,"rental_uris":{"android":"levelo://app?vid=1768f595-fab9-431e-a005-e0909aaa484b","ios":"levelo://app?vid=1768f595-fab9-431e-a005-e0909aaa484b"},"vehicle_type_id":"4","last_reported":1700752018,"current_range_meters":31200,"station_id":"ce4bgr92rcd13ifvqc6g","pricing_plan_id":"free"},{"bike_id":"aa3ae5eb-9179-4636-a2fb-b54647cc9fc7","system_id":"levelo_inurba_marseille","lat":43.3136,"lon":5.367043,"is_reserved":false,"is_disabled":false,"rental_uris":{"android":"levelo://app?vid=aa3ae5eb-9179-4636-a2fb-b54647cc9fc7","ios":"levelo://app?vid=aa3ae5eb-9179-4636-a2fb-b54647cc9fc7"},"vehicle_type_id":"4","last_reported":1700752018,"current_range_meters":12800,"station_id":"ce4bgr92rcd13ifvqc6g","pricing_plan_id":"free"},{"bike_id":"ae9507c3-66a7-442c-bde5-723ffc6996f5","system_id":"levelo_inurba_marseille","lat":43.313693,"lon":5.366883,"is_reserved":false,"is_disabled":false,"rental_uris":{"android":"levelo://app?vid=ae9507c3-66a7-442c-bde5-723ffc6996f5","ios":"levelo://app?vid=ae9507c3-66a7-442c-bde5-723ffc6996f5"},"vehicle_type_id":"4","last_reported":1700752018,"current_range_meters":31200,"station_id":"ce4bgr92rcd13ifvqc6g","pricing_plan_id":"free"},{"bike_id":"b81ebcb8-2c2b-4f3e-872a-78611829dfd6","system_id":"levelo_inurba_marseille","lat":43.312239,"lon":5.368562,"is_reserved":false,"is_disabled":false,"rental_uris":{"android":"levelo://app?vid=b81ebcb8-2c2b-4f3e-872a-78611829dfd6","ios":"levelo://app?vid=b81ebcb8-2c2b-4f3e-872a-78611829dfd6"},"vehicle_type_id":"4","last_reported":1700752018,"current_range_meters":16400,"station_id":"ce4bgl92rcd13ifvqbq0","pricing_plan_id":"free"},{"bike_id":"48994f03-5aca-46b6-848d-4ccaf29a0f77","system_id":"levelo_inurba_marseille","lat":43.312239,"lon":5.368562,"is_reserved":false,"is_disabled":false,"rental_uris":{"android":"levelo://app?vid=48994f03-5aca-46b6-848d-4ccaf29a0f77","ios":"levelo://app?vid=48994f03-5aca-46b6-848d-4ccaf29a0f77"},"vehicle_type_id":"4","last_reported":1700752018,"current_range_meters":4000,"station_id":"ce4bgl92rcd13ifvqbq0","pricing_plan_id":"free"},{"bike_id":"1cb1026f-8196-4c9f-9816-7772cb450f87","system_id":"levelo_inurba_marseille","lat":43.312239,"lon":5.368562,"is_reserved":false,"is_disabled":false,"rental_uris":{"android":"levelo://app?vid=1cb1026f-8196-4c9f-9816-7772cb450f87","ios":"levelo://app?vid=1cb1026f-8196-4c9f-9816-7772cb450f87"},"vehicle_type_id":"4","last_reported":1700752018,"current_range_meters":16000,"station_id":"ce4bgl92rcd13ifvqbq0","pricing_plan_id":"free"},{"bike_id":"11e4c34e-2094-4cc9-b500-97e6e514daa3","system_id":"levelo_inurba_marseille","lat":43.31159,"lon":5.36883,"is_reserved":false,"is_disabled":false,"rental_uris":{"android":"levelo://app?vid=11e4c34e-2094-4cc9-b500-97e6e514daa3","ios":"levelo://app?vid=11e4c34e-2094-4cc9-b500-97e6e514daa3"},"vehicle_type_id":"4","last_reported":1700752018,"current_range_meters":0,"station_id":"","pricing_plan_id":"free"},{"bike_id":"b6d5dd7a-14bd-4d50-a955-6dc1c463210d","system_id":"levelo_inurba_marseille","lat":43.314811,"lon":5.373104,"is_reserved":false,"is_disabled":false,"rental_uris":{"android":"levelo://app?vid=b6d5dd7a-14bd-4d50-a955-6dc1c463210d","ios":"levelo://app?vid=b6d5dd7a-14bd-4d50-a955-6dc1c463210d"},"vehicle_type_id":"4","last_reported":1700752018,"current_range_meters":22800,"station_id":"ce4bgt12rcd13ifvqcd0","pricing_plan_id":"free"},{"bike_id":"cdc7b517-39fc-4e4e-9a00-1ddfcce4a287","system_id":"levelo_inurba_marseille","lat":43.305368,"lon":5.367343,"is_reserved":false,"is_disabled":false,"rental_uris":{"android":"levelo://app?vid=cdc7b517-39fc-4e4e-9a00-1ddfcce4a287","ios":"levelo://app?vid=cdc7b517-39fc-4e4e-9a00-1ddfcce4a287"},"vehicle_type_id":"4","last_reported":1700752018,"current_range_meters":24800,"station_id":"ce4bgrp2rcd13ifvqc9g","pricing_plan_id":"free"},{"bike_id":"4fd1c94b-729a-4004-be2b-eab3d7804138","system_id":"levelo_inurba_marseille","lat":43.30535,"lon":5.36699,"is_reserved":false,"is_disabled":false,"rental_uris":{"android":"levelo://app?vid=4fd1c94b-729a-4004-be2b-eab3d7804138","ios":"levelo://app?vid=4fd1c94b-729a-4004-be2b-eab3d7804138"},"vehicle_type_id":"4","last_reported":1700752018,"current_range_meters":28000,"station_id":"ce4bgrp2rcd13ifvqc9g","pricing_plan_id":"free"},{"bike_id":"9cc80cd0-787d-4466-8ee5-8710454ae233","system_id":"levelo_inurba_marseille","lat":43.30535,"lon":5.36716,"is_reserved":false,"is_disabled":false,"rental_uris":{"android":"levelo://app?vid=9cc80cd0-787d-4466-8ee5-8710454ae233","ios":"levelo://app?vid=9cc80cd0-787d-4466-8ee5-8710454ae233"},"vehicle_type_id":"4","last_reported":1700752018,"current_range_meters":2800,"station_id":"ce4bgrp2rcd13ifvqc9g","pricing_plan_id":"free"},{"bike_id":"6bc19f89-f163-4c1b-a297-9e9f7f041b7b","system_id":"levelo_inurba_marseille","lat":43.3053,"lon":5.36706,"is_reserved":false,"is_disabled":false,"rental_uris":{"android":"levelo://app?vid=6bc19f89-f163-4c1b-a297-9e9f7f041b7b","ios":"levelo://app?vid=6bc19f89-f163-4c1b-a297-9e9f7f041b7b"},"vehicle_type_id":"4","last_reported":1700752018,"current_range_meters":8800,"station_id":"ce4bgrp2rcd13ifvqc9g","pricing_plan_id":"free"},{"bike_id":"acf2e61c-da7a-4535-afce-6dae5cd5d176","system_id":"levelo_inurba_marseille","lat":43.30812,"lon":5.37664,"is_reserved":false,"is_disabled":false,"rental_uris":{"android":"levelo://app?vid=acf2e61c-da7a-4535-afce-6dae5cd5d176","ios":"levelo://app?vid=acf2e61c-da7a-4535-afce-6dae5cd5d176"},"vehicle_type_id":"4","last_reported":1700752018,"current_range_meters":7600,"station_id":"ce4bgv92rcd13ifvqcq0","pricing_plan_id":"free"},{"bike_id":"cb831096-b78a-4b81-9642-df22882295e9","system_id":"levelo_inurba_marseille","lat":43.308217,"lon":5.37678,"is_reserved":false,"is_disabled":false,"rental_uris":{"android":"levelo://app?vid=cb831096-b78a-4b81-9642-df22882295e9","ios":"levelo://app?vid=cb831096-b78a-4b81-9642-df22882295e9"},"vehicle_type_id":"4","last_reported":1700752018,"current_range_meters":20400,"station_id":"ce4bgv92rcd13ifvqcq0","pricing_plan_id":"free"},{"bike_id":"cb5c1eaa-ce51-45eb-a215-81f4df53c481","system_id":"levelo_inurba_marseille","lat":43.317075,"lon":5.377367,"is_reserved":false,"is_disabled":false,"rental_uris":{"android":"levelo://app?vid=cb5c1eaa-ce51-45eb-a215-81f4df53c481","ios":"levelo://app?vid=cb5c1eaa-ce51-45eb-a215-81f4df53c481"},"vehicle_type_id":"4","last_reported":1700752018,"current_range_meters":16800,"station_id":"ce4bgth2rcd13ifvqch0","pricing_plan_id":"free"},{"bike_id":"7bceb209-851e-409e-85dd-2e8b96e605c7","system_id":"levelo_inurba_marseille","lat":43.317075,"lon":5.377367,"is_reserved":false,"is_disabled":false,"rental_uris":{"android":"levelo://app?vid=7bceb209-851e-409e-85dd-2e8b96e605c7","ios":"levelo://app?vid=7bceb209-851e-409e-85dd-2e8b96e605c7"},"vehicle_type_id":"4","last_reported":1700752018,"current_range_meters":20400,"station_id":"ce4bgth2rcd13ifvqch0","pricing_plan_id":"free"},{"bike_id":"6688d18a-76b3-4d1f-a5d7-ff5674d61b67","system_id":"levelo_inurba_marseille","lat":43.303195,"lon":5.366405,"is_reserved":false,"is_disabled":false,"rental_uris":{"android":"levelo://app?vid=6688d18a-76b3-4d1f-a5d7-ff5674d61b67","ios":"levelo://app?vid=6688d18a-76b3-4d1f-a5d7-ff5674d61b67"},"vehicle_type_id":"4","last_reported":1700752018,"current_range_meters":0,"station_id":"","pricing_plan_id":"free"},{"bike_id":"fd7969ee-1c50-453a-82d9-5b9d45c88b3e","system_id":"levelo_inurba_marseille","lat":43.30304,"lon":5.368987,"is_reserved":false,"is_disabled":false,"rental_uris":{"android":"levelo://app?vid=fd7969ee-1c50-453a-82d9-5b9d45c88b3e","ios":"levelo://app?vid=fd7969ee-1c50-453a-82d9-5b9d45c88b3e"},"vehicle_type_id":"4","last_reported":1700752018,"current_range_meters":9600,"station_id":"ce4bgqh2rcd13ifvqc5g","pricing_plan_id":"free"},{"bike_id":"0327687b-f51e-4077-bf49-2ec73a6de092","system_id":"levelo_inurba_marseille","lat":43.322266,"lon":5.375605,"is_reserved":false,"is_disabled":false,"rental_uris":{"android":"levelo://app?vid=0327687b-f51e-4077-bf49-2ec73a6de092","ios":"levelo://app?vid=0327687b-f51e-4077-bf49-2ec73a6de092"},"vehicle_type_id":"4","last_reported":1700752018,"current_range_meters":11600,"station_id":"","pricing_plan_id":"free"},{"bike_id":"7813911e-4750-41c5-b8ce-e76481e3bc6e","system_id":"levelo_inurba_marseille","lat":43.30807,"lon":5.3815,"is_reserved":false,"is_disabled":false,"rental_uris":{"android":"levelo://app?vid=7813911e-4750-41c5-b8ce-e76481e3bc6e","ios":"levelo://app?vid=7813911e-4750-41c5-b8ce-e76481e3bc6e"},"vehicle_type_id":"4","last_reported":1700752018,"current_range_meters":21600,"station_id":"ce4bgt12rcd13ifvqce0","pricing_plan_id":"free"},{"bike_id":"9b23fc13-b691-4871-8306-cb52a4ca9417","system_id":"levelo_inurba_marseille","lat":43.32494,"lon":5.3657,"is_reserved":false,"is_disabled":false,"rental_uris":{"android":"levelo://app?vid=9b23fc13-b691-4871-8306-cb52a4ca9417","ios":"levelo://app?vid=9b23fc13-b691-4871-8306-cb52a4ca9417"},"vehicle_type_id":"4","last_reported":1700752018,"current_range_meters":5200,"station_id":"ce4bhs12rcd13ifvqhvg","pricing_plan_id":"free"},{"bike_id":"73538775-42ef-487f-af2f-dfc54882e982","system_id":"levelo_inurba_marseille","lat":43.302864,"lon":5.376926,"is_reserved":false,"is_disabled":false,"rental_uris":{"android":"levelo://app?vid=73538775-42ef-487f-af2f-dfc54882e982","ios":"levelo://app?vid=73538775-42ef-487f-af2f-dfc54882e982"},"vehicle_type_id":"4","last_reported":1700752018,"current_range_meters":17600,"station_id":"ce4bguh2rcd13ifvqcj0","pricing_plan_id":"free"},{"bike_id":"df77b49a-b6ac-494b-8264-8735c433e09b","system_id":"levelo_inurba_marseille","lat":43.3136,"lon":5.38485,"is_reserved":false,"is_disabled":false,"rental_uris":{"android":"levelo://app?vid=df77b49a-b6ac-494b-8264-8735c433e09b","ios":"levelo://app?vid=df77b49a-b6ac-494b-8264-8735c433e09b"},"vehicle_type_id":"4","last_reported":1700752018,"current_range_meters":8800,"station_id":"ce4bgt92rcd13ifvqcf0","pricing_plan_id":"free"},{"bike_id":"20d2a473-389a-414f-812a-ce96aad909b4","system_id":"levelo_inurba_marseille","lat":43.313571,"lon":5.384829,"is_reserved":false,"is_disabled":false,"rental_uris":{"android":"levelo://app?vid=20d2a473-389a-414f-812a-ce96aad909b4","ios":"levelo://app?vid=20d2a473-389a-414f-812a-ce96aad909b4"},"vehicle_type_id":"4","last_reported":1700752018,"current_range_meters":26400,"station_id":"ce4bgt92rcd13ifvqcf0","pricing_plan_id":"free"},{"bike_id":"7d67e170-0dc5-4366-8406-b9b3077351ba","system_id":"levelo_inurba_marseille","lat":43.31355,"lon":5.38496,"is_reserved":false,"is_disabled":false,"rental_uris":{"android":"levelo://app?vid=7d67e170-0dc5-4366-8406-b9b3077351ba","ios":"levelo://app?vid=7d67e170-0dc5-4366-8406-b9b3077351ba"},"vehicle_type_id":"4","last_reported":1700752018,"current_range_meters":8000,"station_id":"ce4bgt92rcd13ifvqcf0","pricing_plan_id":"free"},{"bike_id":"32d5ab05-2744-4c50-aefb-564a35a14bc6","system_id":"levelo_inurba_marseille","lat":43.313571,"lon":5.384829,"is_reserved":false,"is_disabled":false,"rental_uris":{"android":"levelo://app?vid=32d5ab05-2744-4c50-aefb-564a35a14bc6","ios":"levelo://app?vid=32d5ab05-2744-4c50-aefb-564a35a14bc6"},"vehicle_type_id":"4","last_reported":1700752018,"current_range_meters":16800,"station_id":"ce4bgt92rcd13ifvqcf0","pricing_plan_id":"free"},{"bike_id":"29e3f9ee-744f-4ec6-8f3e-61ecbf32edac","system_id":"levelo_inurba_marseille","lat":43.313571,"lon":5.384829,"is_reserved":false,"is_disabled":false,"rental_uris":{"android":"levelo://app?vid=29e3f9ee-744f-4ec6-8f3e-61ecbf32edac","ios":"levelo://app?vid=29e3f9ee-744f-4ec6-8f3e-61ecbf32edac"},"vehicle_type_id":"4","last_reported":1700752018,"current_range_meters":24800,"station_id":"ce4bgt92rcd13ifvqcf0","pricing_plan_id":"free"},{"bike_id":"4e23f0b2-df85-4aa6-83d9-c824c47cd92b","system_id":"levelo_inurba_marseille","lat":43.29937,"lon":5.36554,"is_reserved":false,"is_disabled":false,"rental_uris":{"android":"levelo://app?vid=4e23f0b2-df85-4aa6-83d9-c824c47cd92b","ios":"levelo://app?vid=4e23f0b2-df85-4aa6-83d9-c824c47cd92b"},"vehicle_type_id":"4","last_reported":1700752018,"current_range_meters":15200,"station_id":"ce4bgm92rcd13ifvqbr0","pricing_plan_id":"free"},{"bike_id":"8557993f-b8e4-4e38-87ce-f3cd69ad5394","system_id":"levelo_inurba_marseille","lat":43.299724,"lon":5.371829,"is_reserved":false,"is_disabled":false,"rental_uris":{"android":"levelo://app?vid=8557993f-b8e4-4e38-87ce-f3cd69ad5394","ios":"levelo://app?vid=8557993f-b8e4-4e38-87ce-f3cd69ad5394"},"vehicle_type_id":"4","last_reported":1700752018,"current_range_meters":8400,"station_id":"ce4bgr92rcd13ifvqc7g","pricing_plan_id":"free"},{"bike_id":"f01ab7f7-c59f-42d5-849a-af21691308bd","system_id":"levelo_inurba_marseille","lat":43.305364,"lon":5.384119,"is_reserved":false,"is_disabled":false,"rental_uris":{"android":"levelo://app?vid=f01ab7f7-c59f-42d5-849a-af21691308bd","ios":"levelo://app?vid=f01ab7f7-c59f-42d5-849a-af21691308bd"},"vehicle_type_id":"4","last_reported":1700752018,"current_range_meters":2400,"station_id":"ce4bgg92rcd13ifvqb30","pricing_plan_id":"free"},{"bike_id":"f9dd83c0-250a-4e2d-86dc-aa9dbef8d832","system_id":"levelo_inurba_marseille","lat":43.31166,"lon":5.38691,"is_reserved":false,"is_disabled":false,"rental_uris":{"android":"levelo://app?vid=f9dd83c0-250a-4e2d-86dc-aa9dbef8d832","ios":"levelo://app?vid=f9dd83c0-250a-4e2d-86dc-aa9dbef8d832"},"vehicle_type_id":"4","last_reported":1700752018,"current_range_meters":20000,"station_id":"ce4bgv12rcd13ifvqcp0","pricing_plan_id":"free"},{"bike_id":"47426855-20a4-4f91-b86e-154b78259341","system_id":"levelo_inurba_marseille","lat":43.298433,"lon":5.362774,"is_reserved":false,"is_disabled":false,"rental_uris":{"android":"levelo://app?vid=47426855-20a4-4f91-b86e-154b78259341","ios":"levelo://app?vid=47426855-20a4-4f91-b86e-154b78259341"},"vehicle_type_id":"4","last_reported":1700752018,"current_range_meters":30800,"station_id":"ce4bgpp2rcd13ifvqc3g","pricing_plan_id":"free"},{"bike_id":"491b3f6a-66cf-4362-b987-493befa1a1f3","system_id":"levelo_inurba_marseille","lat":43.305364,"lon":5.384119,"is_reserved":false,"is_disabled":false,"rental_uris":{"android":"levelo://app?vid=491b3f6a-66cf-4362-b987-493befa1a1f3","ios":"levelo://app?vid=491b3f6a-66cf-4362-b987-493befa1a1f3"},"vehicle_type_id":"4","last_reported":1700752018,"current_range_meters":14000,"station_id":"ce4bgg92rcd13ifvqb30","pricing_plan_id":"free"},{"bike_id":"d9a0017d-8060-4fca-8d56-d9557416925e","system_id":"levelo_inurba_marseille","lat":43.305364,"lon":5.384119,"is_reserved":false,"is_disabled":false,"rental_uris":{"android":"levelo://app?vid=d9a0017d-8060-4fca-8d56-d9557416925e","ios":"levelo://app?vid=d9a0017d-8060-4fca-8d56-d9557416925e"},"vehicle_type_id":"4","last_reported":1700752018,"current_range_meters":30000,"station_id":"ce4bgg92rcd13ifvqb30","pricing_plan_id":"free"},{"bike_id":"0698ae28-831d-4bdd-835e-e7fbf830b44e","system_id":"levelo_inurba_marseille","lat":43.29841,"lon":5.36264,"is_reserved":false,"is_disabled":false,"rental_uris":{"android":"levelo://app?vid=0698ae28-831d-4bdd-835e-e7fbf830b44e","ios":"levelo://app?vid=0698ae28-831d-4bdd-835e-e7fbf830b44e"},"vehicle_type_id":"4","last_reported":1700752018,"current_range_meters":1600,"station_id":"ce4bgpp2rcd13ifvqc3g","pricing_plan_id":"free"},{"bike_id":"ecdd082c-8b3b-4507-8e29-667bdf0c263a","system_id":"levelo_inurba_marseille","lat":43.298433,"lon":5.362774,"is_reserved":false,"is_disabled":false,"rental_uris":{"android":"levelo://app?vid=ecdd082c-8b3b-4507-8e29-667bdf0c263a","ios":"levelo://app?vid=ecdd082c-8b3b-4507-8e29-667bdf0c263a"},"vehicle_type_id":"4","last_reported":1700752018,"current_range_meters":31600,"station_id":"ce4bgpp2rcd13ifvqc3g","pricing_plan_id":"free"},{"bike_id":"deb4772b-a541-4e35-87a1-fbc61b2e3808","system_id":"levelo_inurba_marseille","lat":43.311722,"lon":5.387247,"is_reserved":false,"is_disabled":false,"rental_uris":{"android":"levelo://app?vid=deb4772b-a541-4e35-87a1-fbc61b2e3808","ios":"levelo://app?vid=deb4772b-a541-4e35-87a1-fbc61b2e3808"},"vehicle_type_id":"4","last_reported":1700752018,"current_range_meters":800,"station_id":"ce4bgv12rcd13ifvqcp0","pricing_plan_id":"free"},{"bike_id":"4d7509f5-9559-42ca-a60d-bef9e80f0981","system_id":"levelo_inurba_marseille","lat":43.299599,"lon":5.379149,"is_reserved":false,"is_disabled":false,"rental_uris":{"android":"levelo://app?vid=4d7509f5-9559-42ca-a60d-bef9e80f0981","ios":"levelo://app?vid=4d7509f5-9559-42ca-a60d-bef9e80f0981"},"vehicle_type_id":"4","last_reported":1700752018,"current_range_meters":0,"station_id":"","pricing_plan_id":"free"},{"bike_id":"c9e48c03-cefe-4828-8d0e-3073c0a8e167","system_id":"levelo_inurba_marseille","lat":43.296131,"lon":5.370791,"is_reserved":false,"is_disabled":false,"rental_uris":{"android":"levelo://app?vid=c9e48c03-cefe-4828-8d0e-3073c0a8e167","ios":"levelo://app?vid=c9e48c03-cefe-4828-8d0e-3073c0a8e167"},"vehicle_type_id":"4","last_reported":1700752018,"current_range_meters":16800,"station_id":"ce4bgnh2rcd13ifvqc0g","pricing_plan_id":"free"},{"bike_id":"c28f00e4-ce0e-4937-9247-5ddd337f7b7c","system_id":"levelo_inurba_marseille","lat":43.29584,"lon":5.36744,"is_reserved":false,"is_disabled":false,"rental_uris":{"android":"levelo://app?vid=c28f00e4-ce0e-4937-9247-5ddd337f7b7c","ios":"levelo://app?vid=c28f00e4-ce0e-4937-9247-5ddd337f7b7c"},"vehicle_type_id":"4","last_reported":1700752018,"current_range_meters":800,"station_id":"ce4bgph2rcd13ifvqc2g","pricing_plan_id":"free"},{"bike_id":"77dde64d-6f65-41d6-b4b4-2ba97c323973","system_id":"levelo_inurba_marseille","lat":43.296921,"lon":5.376579,"is_reserved":false,"is_disabled":false,"rental_uris":{"android":"levelo://app?vid=77dde64d-6f65-41d6-b4b4-2ba97c323973","ios":"levelo://app?vid=77dde64d-6f65-41d6-b4b4-2ba97c323973"},"vehicle_type_id":"4","last_reported":1700752018,"current_range_meters":8400,"station_id":"ce4bgkh2rcd13ifvqbl0","pricing_plan_id":"free"},{"bike_id":"fb13598d-7140-457a-b4d9-1a2254e806fb","system_id":"levelo_inurba_marseille","lat":43.31754,"lon":5.39016,"is_reserved":false,"is_disabled":false,"rental_uris":{"android":"levelo://app?vid=fb13598d-7140-457a-b4d9-1a2254e806fb","ios":"levelo://app?vid=fb13598d-7140-457a-b4d9-1a2254e806fb"},"vehicle_type_id":"4","last_reported":1700752018,"current_range_meters":31200,"station_id":"ce4bhqp2rcd13ifvqhng","pricing_plan_id":"free"},{"bike_id":"3ed75c93-755f-4000-8710-50df376dbc91","system_id":"levelo_inurba_marseille","lat":43.317557,"lon":5.390173,"is_reserved":false,"is_disabled":false,"rental_uris":{"android":"levelo://app?vid=3ed75c93-755f-4000-8710-50df376dbc91","ios":"levelo://app?vid=3ed75c93-755f-4000-8710-50df376dbc91"},"vehicle_type_id":"4","last_reported":1700752018,"current_range_meters":8400,"station_id":"ce4bhqp2rcd13ifvqhng","pricing_plan_id":"free"},{"bike_id":"f2f32e0a-9a4f-464f-8fff-61d099c97948","system_id":"levelo_inurba_marseille","lat":43.31745,"lon":5.39028,"is_reserved":false,"is_disabled":false,"rental_uris":{"android":"levelo://app?vid=f2f32e0a-9a4f-464f-8fff-61d099c97948","ios":"levelo://app?vid=f2f32e0a-9a4f-464f-8fff-61d099c97948"},"vehicle_type_id":"4","last_reported":1700752018,"current_range_meters":11600,"station_id":"ce4bhqp2rcd13ifvqhng","pricing_plan_id":"free"},{"bike_id":"ea080739-67fe-4b29-ad93-68fd11146174","system_id":"levelo_inurba_marseille","lat":43.31755,"lon":5.39026,"is_reserved":false,"is_disabled":false,"rental_uris":{"android":"levelo://app?vid=ea080739-67fe-4b29-ad93-68fd11146174","ios":"levelo://app?vid=ea080739-67fe-4b29-ad93-68fd11146174"},"vehicle_type_id":"4","last_reported":1700752018,"current_range_meters":0,"station_id":"ce4bhqp2rcd13ifvqhng","pricing_plan_id":"free"},{"bike_id":"74985f7a-565d-4b64-82b7-c673a157e64e","system_id":"levelo_inurba_marseille","lat":43.298037,"lon":5.381066,"is_reserved":false,"is_disabled":false,"rental_uris":{"android":"levelo://app?vid=74985f7a-565d-4b64-82b7-c673a157e64e","ios":"levelo://app?vid=74985f7a-565d-4b64-82b7-c673a157e64e"},"vehicle_type_id":"4","last_reported":1700752018,"current_range_meters":26800,"station_id":"ce4bgip2rcd13ifvqbb0","pricing_plan_id":"free"},{"bike_id":"6d8a0e15-57a5-4778-94c7-29a838d5ab49","system_id":"levelo_inurba_marseille","lat":43.304278,"lon":5.388868,"is_reserved":false,"is_disabled":false,"rental_uris":{"android":"levelo://app?vid=6d8a0e15-57a5-4778-94c7-29a838d5ab49","ios":"levelo://app?vid=6d8a0e15-57a5-4778-94c7-29a838d5ab49"},"vehicle_type_id":"4","last_reported":1700752018,"current_range_meters":6000,"station_id":"ce4bgk12rcd13ifvqbi0","pricing_plan_id":"free"},{"bike_id":"d8497a13-62e9-4b68-8990-a728488feae1","system_id":"levelo_inurba_marseille","lat":43.304278,"lon":5.388868,"is_reserved":false,"is_disabled":false,"rental_uris":{"android":"levelo://app?vid=d8497a13-62e9-4b68-8990-a728488feae1","ios":"levelo://app?vid=d8497a13-62e9-4b68-8990-a728488feae1"},"vehicle_type_id":"4","last_reported":1700752018,"current_range_meters":1600,"station_id":"ce4bgk12rcd13ifvqbi0","pricing_plan_id":"free"},{"bike_id":"ebdd5356-a3b6-43e9-9152-3b70cf2883f7","system_id":"levelo_inurba_marseille","lat":43.298037,"lon":5.381066,"is_reserved":false,"is_disabled":false,"rental_uris":{"android":"levelo://app?vid=ebdd5356-a3b6-43e9-9152-3b70cf2883f7","ios":"levelo://app?vid=ebdd5356-a3b6-43e9-9152-3b70cf2883f7"},"vehicle_type_id":"4","last_reported":1700752018,"current_range_meters":14400,"station_id":"ce4bgip2rcd13ifvqbb0","pricing_plan_id":"free"},{"bike_id":"801c6889-db6a-46ca-8edd-f37b95b3b1b7","system_id":"levelo_inurba_marseille","lat":43.304274,"lon":5.388873,"is_reserved":false,"is_disabled":false,"rental_uris":{"android":"levelo://app?vid=801c6889-db6a-46ca-8edd-f37b95b3b1b7","ios":"levelo://app?vid=801c6889-db6a-46ca-8edd-f37b95b3b1b7"},"vehicle_type_id":"4","last_reported":1700752018,"current_range_meters":24800,"station_id":"ce4bgk12rcd13ifvqbi0","pricing_plan_id":"free"},{"bike_id":"15d5046d-97f3-4bf7-bdc1-2c2f1068a10f","system_id":"levelo_inurba_marseille","lat":43.298037,"lon":5.381066,"is_reserved":false,"is_disabled":false,"rental_uris":{"android":"levelo://app?vid=15d5046d-97f3-4bf7-bdc1-2c2f1068a10f","ios":"levelo://app?vid=15d5046d-97f3-4bf7-bdc1-2c2f1068a10f"},"vehicle_type_id":"4","last_reported":1700752018,"current_range_meters":18400,"station_id":"ce4bgip2rcd13ifvqbb0","pricing_plan_id":"free"},{"bike_id":"d2bd46d4-5f2e-467b-95e7-b68b2ee1c297","system_id":"levelo_inurba_marseille","lat":43.304278,"lon":5.388868,"is_reserved":false,"is_disabled":false,"rental_uris":{"android":"levelo://app?vid=d2bd46d4-5f2e-467b-95e7-b68b2ee1c297","ios":"levelo://app?vid=d2bd46d4-5f2e-467b-95e7-b68b2ee1c297"},"vehicle_type_id":"4","last_reported":1700752018,"current_range_meters":25200,"station_id":"ce4bgk12rcd13ifvqbi0","pricing_plan_id":"free"},{"bike_id":"6b621983-5e9e-42f7-990d-ad5a093820d2","system_id":"levelo_inurba_marseille","lat":43.293801,"lon":5.363066,"is_reserved":false,"is_disabled":false,"rental_uris":{"android":"levelo://app?vid=6b621983-5e9e-42f7-990d-ad5a093820d2","ios":"levelo://app?vid=6b621983-5e9e-42f7-990d-ad5a093820d2"},"vehicle_type_id":"4","last_reported":1700752018,"current_range_meters":8000,"station_id":"","pricing_plan_id":"free"},{"bike_id":"ca1143ee-3c07-4930-83a0-c4dba02b7410","system_id":"levelo_inurba_marseille","lat":43.293259,"lon":5.371586,"is_reserved":false,"is_disabled":false,"rental_uris":{"android":"levelo://app?vid=ca1143ee-3c07-4930-83a0-c4dba02b7410","ios":"levelo://app?vid=ca1143ee-3c07-4930-83a0-c4dba02b7410"},"vehicle_type_id":"4","last_reported":1700752018,"current_range_meters":12000,"station_id":"ce4bgh92rcd13ifvqb40","pricing_plan_id":"free"},{"bike_id":"ed345db6-d118-459a-aa1c-7cdaf1cf6fdc","system_id":"levelo_inurba_marseille","lat":43.292749,"lon":5.368402,"is_reserved":false,"is_disabled":false,"rental_uris":{"android":"levelo://app?vid=ed345db6-d118-459a-aa1c-7cdaf1cf6fdc","ios":"levelo://app?vid=ed345db6-d118-459a-aa1c-7cdaf1cf6fdc"},"vehicle_type_id":"4","last_reported":1700752018,"current_range_meters":18400,"station_id":"ce4bhbp2rcd13ifvqesg","pricing_plan_id":"free"},{"bike_id":"76a4d0e8-a8e3-499a-a39e-5795a36c479b","system_id":"levelo_inurba_marseille","lat":43.292749,"lon":5.368402,"is_reserved":false,"is_disabled":false,"rental_uris":{"android":"levelo://app?vid=76a4d0e8-a8e3-499a-a39e-5795a36c479b","ios":"levelo://app?vid=76a4d0e8-a8e3-499a-a39e-5795a36c479b"},"vehicle_type_id":"4","last_reported":1700752018,"current_range_meters":13600,"station_id":"ce4bhbp2rcd13ifvqesg","pricing_plan_id":"free"},{"bike_id":"79c721df-3b4a-456e-a6f6-42c3ce4133bf","system_id":"levelo_inurba_marseille","lat":43.2927,"lon":5.36846,"is_reserved":false,"is_disabled":false,"rental_uris":{"android":"levelo://app?vid=79c721df-3b4a-456e-a6f6-42c3ce4133bf","ios":"levelo://app?vid=79c721df-3b4a-456e-a6f6-42c3ce4133bf"},"vehicle_type_id":"4","last_reported":1700752018,"current_range_meters":21200,"station_id":"ce4bhbp2rcd13ifvqesg","pricing_plan_id":"free"},{"bike_id":"b73c32f2-dac8-462a-867f-f7d7294adb16","system_id":"levelo_inurba_marseille","lat":43.2936,"lon":5.37835,"is_reserved":false,"is_disabled":false,"rental_uris":{"android":"levelo://app?vid=b73c32f2-dac8-462a-867f-f7d7294adb16","ios":"levelo://app?vid=b73c32f2-dac8-462a-867f-f7d7294adb16"},"vehicle_type_id":"4","last_reported":1700752018,"current_range_meters":15600,"station_id":"ce4bgjh2rcd13ifvqbf0","pricing_plan_id":"free"},{"bike_id":"64b73bc9-0c37-4ac6-9471-19d9ce45d388","system_id":"levelo_inurba_marseille","lat":43.300852,"lon":5.390859,"is_reserved":false,"is_disabled":false,"rental_uris":{"android":"levelo://app?vid=64b73bc9-0c37-4ac6-9471-19d9ce45d388","ios":"levelo://app?vid=64b73bc9-0c37-4ac6-9471-19d9ce45d388"},"vehicle_type_id":"4","last_reported":1700752018,"current_range_meters":18800,"station_id":"ce4bh192rcd13ifvqdb0","pricing_plan_id":"free"},{"bike_id":"e02b3697-c923-40e1-b802-6c479220204b","system_id":"levelo_inurba_marseille","lat":43.298764,"lon":5.388973,"is_reserved":false,"is_disabled":false,"rental_uris":{"android":"levelo://app?vid=e02b3697-c923-40e1-b802-6c479220204b","ios":"levelo://app?vid=e02b3697-c923-40e1-b802-6c479220204b"},"vehicle_type_id":"4","last_reported":1700752018,"current_range_meters":4800,"station_id":"ce4bh392rcd13ifvqdl0","pricing_plan_id":"free"},{"bike_id":"a2b72aa1-41da-4ff5-96a0-ac90e95919a6","system_id":"levelo_inurba_marseille","lat":43.298764,"lon":5.388973,"is_reserved":false,"is_disabled":false,"rental_uris":{"android":"levelo://app?vid=a2b72aa1-41da-4ff5-96a0-ac90e95919a6","ios":"levelo://app?vid=a2b72aa1-41da-4ff5-96a0-ac90e95919a6"},"vehicle_type_id":"4","last_reported":1700752018,"current_range_meters":21600,"station_id":"ce4bh392rcd13ifvqdl0","pricing_plan_id":"free"},{"bike_id":"1d019962-653f-4328-a2c2-f770d59f3b3c","system_id":"levelo_inurba_marseille","lat":43.292,"lon":5.35803,"is_reserved":false,"is_disabled":false,"rental_uris":{"android":"levelo://app?vid=1d019962-653f-4328-a2c2-f770d59f3b3c","ios":"levelo://app?vid=1d019962-653f-4328-a2c2-f770d59f3b3c"},"vehicle_type_id":"4","last_reported":1700752018,"current_range_meters":22400,"station_id":"ce4bhb12rcd13ifvqel0","pricing_plan_id":"free"},{"bike_id":"8adfe9cd-144e-49a1-baee-7bc910457235","system_id":"levelo_inurba_marseille","lat":43.305994,"lon":5.393687,"is_reserved":false,"is_disabled":false,"rental_uris":{"android":"levelo://app?vid=8adfe9cd-144e-49a1-baee-7bc910457235","ios":"levelo://app?vid=8adfe9cd-144e-49a1-baee-7bc910457235"},"vehicle_type_id":"4","last_reported":1700752018,"current_range_meters":23600,"station_id":"ce4bh0p2rcd13ifvqd80","pricing_plan_id":"free"},{"bike_id":"1d10a1b1-d55f-4279-928a-9c6858f32ca9","system_id":"levelo_inurba_marseille","lat":43.33211,"lon":5.38112,"is_reserved":false,"is_disabled":false,"rental_uris":{"android":"levelo://app?vid=1d10a1b1-d55f-4279-928a-9c6858f32ca9","ios":"levelo://app?vid=1d10a1b1-d55f-4279-928a-9c6858f32ca9"},"vehicle_type_id":"4","last_reported":1700752018,"current_range_meters":0,"station_id":"","pricing_plan_id":"free"},{"bike_id":"268cf9cd-8d38-4cf5-a015-097905e04b85","system_id":"levelo_inurba_marseille","lat":43.29529,"lon":5.385581,"is_reserved":false,"is_disabled":false,"rental_uris":{"android":"levelo://app?vid=268cf9cd-8d38-4cf5-a015-097905e04b85","ios":"levelo://app?vid=268cf9cd-8d38-4cf5-a015-097905e04b85"},"vehicle_type_id":"4","last_reported":1700752018,"current_range_meters":0,"station_id":"ce4bgih2rcd13ifvqba0","pricing_plan_id":"free"},{"bike_id":"9da9bbb0-0b8a-40be-b079-b99dd5628c86","system_id":"levelo_inurba_marseille","lat":43.29529,"lon":5.385581,"is_reserved":false,"is_disabled":false,"rental_uris":{"android":"levelo://app?vid=9da9bbb0-0b8a-40be-b079-b99dd5628c86","ios":"levelo://app?vid=9da9bbb0-0b8a-40be-b079-b99dd5628c86"},"vehicle_type_id":"4","last_reported":1700752018,"current_range_meters":18800,"station_id":"ce4bgih2rcd13ifvqba0","pricing_plan_id":"free"},{"bike_id":"252de4a1-5fd8-4df4-a56f-b02d9dc7c6ed","system_id":"levelo_inurba_marseille","lat":43.29529,"lon":5.385581,"is_reserved":false,"is_disabled":false,"rental_uris":{"android":"levelo://app?vid=252de4a1-5fd8-4df4-a56f-b02d9dc7c6ed","ios":"levelo://app?vid=252de4a1-5fd8-4df4-a56f-b02d9dc7c6ed"},"vehicle_type_id":"4","last_reported":1700752018,"current_range_meters":16800,"station_id":"ce4bgih2rcd13ifvqba0","pricing_plan_id":"free"},{"bike_id":"111e138a-f51a-4b83-b314-5f1e8bc39521","system_id":"levelo_inurba_marseille","lat":43.29068,"lon":5.37164,"is_reserved":false,"is_disabled":false,"rental_uris":{"android":"levelo://app?vid=111e138a-f51a-4b83-b314-5f1e8bc39521","ios":"levelo://app?vid=111e138a-f51a-4b83-b314-5f1e8bc39521"},"vehicle_type_id":"4","last_reported":1700752018,"current_range_meters":21600,"station_id":"","pricing_plan_id":"free"},{"bike_id":"d4b9eaa4-7ab0-49f7-bdd8-da4b1782c730","system_id":"levelo_inurba_marseille","lat":43.290624,"lon":5.359245,"is_reserved":false,"is_disabled":false,"rental_uris":{"android":"levelo://app?vid=d4b9eaa4-7ab0-49f7-bdd8-da4b1782c730","ios":"levelo://app?vid=d4b9eaa4-7ab0-49f7-bdd8-da4b1782c730"},"vehicle_type_id":"4","last_reported":1700752018,"current_range_meters":17200,"station_id":"ce4bha92rcd13ifvqeg0","pricing_plan_id":"free"},{"bike_id":"5f8ef974-8e5d-4001-8f9d-4e440d824bf4","system_id":"levelo_inurba_marseille","lat":43.290624,"lon":5.359245,"is_reserved":false,"is_disabled":false,"rental_uris":{"android":"levelo://app?vid=5f8ef974-8e5d-4001-8f9d-4e440d824bf4","ios":"levelo://app?vid=5f8ef974-8e5d-4001-8f9d-4e440d824bf4"},"vehicle_type_id":"4","last_reported":1700752018,"current_range_meters":16000,"station_id":"ce4bha92rcd13ifvqeg0","pricing_plan_id":"free"},{"bike_id":"9770dd6a-27ca-4921-b0a4-fee5226dd60d","system_id":"levelo_inurba_marseille","lat":43.290631,"lon":5.359244,"is_reserved":false,"is_disabled":false,"rental_uris":{"android":"levelo://app?vid=9770dd6a-27ca-4921-b0a4-fee5226dd60d","ios":"levelo://app?vid=9770dd6a-27ca-4921-b0a4-fee5226dd60d"},"vehicle_type_id":"4","last_reported":1700752018,"current_range_meters":23200,"station_id":"ce4bha92rcd13ifvqeg0","pricing_plan_id":"free"},{"bike_id":"fb52bb17-d5c3-4a98-bec1-6201404dc454","system_id":"levelo_inurba_marseille","lat":43.294162,"lon":5.386292,"is_reserved":false,"is_disabled":false,"rental_uris":{"android":"levelo://app?vid=fb52bb17-d5c3-4a98-bec1-6201404dc454","ios":"levelo://app?vid=fb52bb17-d5c3-4a98-bec1-6201404dc454"},"vehicle_type_id":"4","last_reported":1700752018,"current_range_meters":10000,"station_id":"ce4bh2h2rcd13ifvqdh0","pricing_plan_id":"free"},{"bike_id":"81b96944-3ba3-4031-ab10-bdf15c3545ad","system_id":"levelo_inurba_marseille","lat":43.289184,"lon":5.366408,"is_reserved":false,"is_disabled":false,"rental_uris":{"android":"levelo://app?vid=81b96944-3ba3-4031-ab10-bdf15c3545ad","ios":"levelo://app?vid=81b96944-3ba3-4031-ab10-bdf15c3545ad"},"vehicle_type_id":"4","last_reported":1700752018,"current_range_meters":14800,"station_id":"ce4bhap2rcd13ifvqek0","pricing_plan_id":"free"},{"bike_id":"ad023685-05e7-442c-bcbb-c9599ff9aea4","system_id":"levelo_inurba_marseille","lat":43.294162,"lon":5.386292,"is_reserved":false,"is_disabled":false,"rental_uris":{"android":"levelo://app?vid=ad023685-05e7-442c-bcbb-c9599ff9aea4","ios":"levelo://app?vid=ad023685-05e7-442c-bcbb-c9599ff9aea4"},"vehicle_type_id":"4","last_reported":1700752018,"current_range_meters":12800,"station_id":"ce4bh2h2rcd13ifvqdh0","pricing_plan_id":"free"},{"bike_id":"07b8b385-a75a-492c-a7a6-e1935a77a620","system_id":"levelo_inurba_marseille","lat":43.294162,"lon":5.386292,"is_reserved":false,"is_disabled":false,"rental_uris":{"android":"levelo://app?vid=07b8b385-a75a-492c-a7a6-e1935a77a620","ios":"levelo://app?vid=07b8b385-a75a-492c-a7a6-e1935a77a620"},"vehicle_type_id":"4","last_reported":1700752018,"current_range_meters":17200,"station_id":"ce4bh2h2rcd13ifvqdh0","pricing_plan_id":"free"},{"bike_id":"167ac2df-6035-48d0-b490-0bb25ebabdb5","system_id":"levelo_inurba_marseille","lat":43.294162,"lon":5.386292,"is_reserved":false,"is_disabled":false,"rental_uris":{"android":"levelo://app?vid=167ac2df-6035-48d0-b490-0bb25ebabdb5","ios":"levelo://app?vid=167ac2df-6035-48d0-b490-0bb25ebabdb5"},"vehicle_type_id":"4","last_reported":1700752018,"current_range_meters":25200,"station_id":"ce4bh2h2rcd13ifvqdh0","pricing_plan_id":"free"},{"bike_id":"91f43715-e29c-420b-86ac-1e6c1a18d185","system_id":"levelo_inurba_marseille","lat":43.310125,"lon":5.399364,"is_reserved":false,"is_disabled":false,"rental_uris":{"android":"levelo://app?vid=91f43715-e29c-420b-86ac-1e6c1a18d185","ios":"levelo://app?vid=91f43715-e29c-420b-86ac-1e6c1a18d185"},"vehicle_type_id":"4","last_reported":1700752018,"current_range_meters":0,"station_id":"","pricing_plan_id":"free"},{"bike_id":"b535caf5-fbc1-416c-8194-550a8cfa2286","system_id":"levelo_inurba_marseille","lat":43.29006,"lon":5.35615,"is_reserved":false,"is_disabled":false,"rental_uris":{"android":"levelo://app?vid=b535caf5-fbc1-416c-8194-550a8cfa2286","ios":"levelo://app?vid=b535caf5-fbc1-416c-8194-550a8cfa2286"},"vehicle_type_id":"4","last_reported":1700752018,"current_range_meters":20800,"station_id":"ce4bhb92rcd13ifvqen0","pricing_plan_id":"free"},{"bike_id":"80901f79-daef-44ef-8a76-00f54854aca0","system_id":"levelo_inurba_marseille","lat":43.290995,"lon":5.381361,"is_reserved":false,"is_disabled":false,"rental_uris":{"android":"levelo://app?vid=80901f79-daef-44ef-8a76-00f54854aca0","ios":"levelo://app?vid=80901f79-daef-44ef-8a76-00f54854aca0"},"vehicle_type_id":"4","last_reported":1700752018,"current_range_meters":18400,"station_id":"ce4bh512rcd13ifvqe2g","pricing_plan_id":"free"},{"bike_id":"7a3c2d50-640b-444d-ad81-318079015b45","system_id":"levelo_inurba_marseille","lat":43.289743,"lon":5.378304,"is_reserved":false,"is_disabled":false,"rental_uris":{"android":"levelo://app?vid=7a3c2d50-640b-444d-ad81-318079015b45","ios":"levelo://app?vid=7a3c2d50-640b-444d-ad81-318079015b45"},"vehicle_type_id":"4","last_reported":1700752018,"current_range_meters":29200,"station_id":"ce4bh9p2rcd13ifvqed0","pricing_plan_id":"free"},{"bike_id":"6929eba3-21da-47bc-9808-c30be35970d0","system_id":"levelo_inurba_marseille","lat":43.289741,"lon":5.378306,"is_reserved":false,"is_disabled":false,"rental_uris":{"android":"levelo://app?vid=6929eba3-21da-47bc-9808-c30be35970d0","ios":"levelo://app?vid=6929eba3-21da-47bc-9808-c30be35970d0"},"vehicle_type_id":"4","last_reported":1700752018,"current_range_meters":24400,"station_id":"ce4bh9p2rcd13ifvqed0","pricing_plan_id":"free"},{"bike_id":"abbb8182-1a78-4d70-b671-161ac834f0fc","system_id":"levelo_inurba_marseille","lat":43.33102,"lon":5.38912,"is_reserved":false,"is_disabled":false,"rental_uris":{"android":"levelo://app?vid=abbb8182-1a78-4d70-b671-161ac834f0fc","ios":"levelo://app?vid=abbb8182-1a78-4d70-b671-161ac834f0fc"},"vehicle_type_id":"4","last_reported":1700752018,"current_range_meters":0,"station_id":"","pricing_plan_id":"free"},{"bike_id":"64350d52-cb43-4d2a-b7ce-46d2b0f3dbd2","system_id":"levelo_inurba_marseille","lat":43.289743,"lon":5.378304,"is_reserved":false,"is_disabled":false,"rental_uris":{"android":"levelo://app?vid=64350d52-cb43-4d2a-b7ce-46d2b0f3dbd2","ios":"levelo://app?vid=64350d52-cb43-4d2a-b7ce-46d2b0f3dbd2"},"vehicle_type_id":"4","last_reported":1700752018,"current_range_meters":4400,"station_id":"ce4bh9p2rcd13ifvqed0","pricing_plan_id":"free"},{"bike_id":"e2cf858a-72e7-484d-a951-ef4da1af34ac","system_id":"levelo_inurba_marseille","lat":43.29017,"lon":5.38148,"is_reserved":false,"is_disabled":false,"rental_uris":{"android":"levelo://app?vid=e2cf858a-72e7-484d-a951-ef4da1af34ac","ios":"levelo://app?vid=e2cf858a-72e7-484d-a951-ef4da1af34ac"},"vehicle_type_id":"4","last_reported":1700752018,"current_range_meters":11200,"station_id":"","pricing_plan_id":"free"},{"bike_id":"667cf98f-7a8a-4040-b806-907518aa7fd9","system_id":"levelo_inurba_marseille","lat":43.309371,"lon":5.401449,"is_reserved":false,"is_disabled":false,"rental_uris":{"android":"levelo://app?vid=667cf98f-7a8a-4040-b806-907518aa7fd9","ios":"levelo://app?vid=667cf98f-7a8a-4040-b806-907518aa7fd9"},"vehicle_type_id":"4","last_reported":1700752018,"current_range_meters":16800,"station_id":"ce4bgvp2rcd13ifvqct0","pricing_plan_id":"free"},{"bike_id":"9d8f0514-6679-4a27-b378-3350538dd03e","system_id":"levelo_inurba_marseille","lat":43.337604,"lon":5.37456,"is_reserved":false,"is_disabled":false,"rental_uris":{"android":"levelo://app?vid=9d8f0514-6679-4a27-b378-3350538dd03e","ios":"levelo://app?vid=9d8f0514-6679-4a27-b378-3350538dd03e"},"vehicle_type_id":"4","last_reported":1700752018,"current_range_meters":30800,"station_id":"","pricing_plan_id":"free"},{"bike_id":"931007b3-ce62-4436-919d-9274ad346792","system_id":"levelo_inurba_marseille","lat":43.309371,"lon":5.401449,"is_reserved":false,"is_disabled":false,"rental_uris":{"android":"levelo://app?vid=931007b3-ce62-4436-919d-9274ad346792","ios":"levelo://app?vid=931007b3-ce62-4436-919d-9274ad346792"},"vehicle_type_id":"4","last_reported":1700752018,"current_range_meters":12400,"station_id":"ce4bgvp2rcd13ifvqct0","pricing_plan_id":"free"},{"bike_id":"957ee36d-7a39-4507-a260-8991632bb92b","system_id":"levelo_inurba_marseille","lat":43.301117,"lon":5.398795,"is_reserved":false,"is_disabled":false,"rental_uris":{"android":"levelo://app?vid=957ee36d-7a39-4507-a260-8991632bb92b","ios":"levelo://app?vid=957ee36d-7a39-4507-a260-8991632bb92b"},"vehicle_type_id":"4","last_reported":1700752018,"current_range_meters":13200,"station_id":"ce4bh0h2rcd13ifvqd40","pricing_plan_id":"free"},{"bike_id":"20b5357f-9cfa-4945-a2c4-24490e5590ae","system_id":"levelo_inurba_marseille","lat":43.301117,"lon":5.398795,"is_reserved":false,"is_disabled":false,"rental_uris":{"android":"levelo://app?vid=20b5357f-9cfa-4945-a2c4-24490e5590ae","ios":"levelo://app?vid=20b5357f-9cfa-4945-a2c4-24490e5590ae"},"vehicle_type_id":"4","last_reported":1700752018,"current_range_meters":27600,"station_id":"ce4bh0h2rcd13ifvqd40","pricing_plan_id":"free"},{"bike_id":"314b1ecf-391a-424e-8789-9bc63bfef317","system_id":"levelo_inurba_marseille","lat":43.286961,"lon":5.373785,"is_reserved":false,"is_disabled":false,"rental_uris":{"android":"levelo://app?vid=314b1ecf-391a-424e-8789-9bc63bfef317","ios":"levelo://app?vid=314b1ecf-391a-424e-8789-9bc63bfef317"},"vehicle_type_id":"4","last_reported":1700752018,"current_range_meters":13200,"station_id":"ce4bh3p2rcd13ifvqdq0","pricing_plan_id":"free"},{"bike_id":"42e1c05e-ef31-4a36-aca0-42eee266633f","system_id":"levelo_inurba_marseille","lat":43.289307,"lon":5.38406,"is_reserved":false,"is_disabled":false,"rental_uris":{"android":"levelo://app?vid=42e1c05e-ef31-4a36-aca0-42eee266633f","ios":"levelo://app?vid=42e1c05e-ef31-4a36-aca0-42eee266633f"},"vehicle_type_id":"4","last_reported":1700752018,"current_range_meters":30800,"station_id":"ce4bh612rcd13ifvqe6g","pricing_plan_id":"free"},{"bike_id":"f047ef81-fa7a-44b1-8527-d954c1fb1988","system_id":"levelo_inurba_marseille","lat":43.28923,"lon":5.38413,"is_reserved":false,"is_disabled":false,"rental_uris":{"android":"levelo://app?vid=f047ef81-fa7a-44b1-8527-d954c1fb1988","ios":"levelo://app?vid=f047ef81-fa7a-44b1-8527-d954c1fb1988"},"vehicle_type_id":"4","last_reported":1700752018,"current_range_meters":15600,"station_id":"ce4bh612rcd13ifvqe6g","pricing_plan_id":"free"},{"bike_id":"8164012e-598c-49f3-a5b8-d0f71574baf5","system_id":"levelo_inurba_marseille","lat":43.28614,"lon":5.37056,"is_reserved":false,"is_disabled":false,"rental_uris":{"android":"levelo://app?vid=8164012e-598c-49f3-a5b8-d0f71574baf5","ios":"levelo://app?vid=8164012e-598c-49f3-a5b8-d0f71574baf5"},"vehicle_type_id":"4","last_reported":1700752018,"current_range_meters":9600,"station_id":"ce4bht12rcd13ifvqi60","pricing_plan_id":"free"},{"bike_id":"b1c4d1b6-9b9a-47aa-978d-2bc95f2ac090","system_id":"levelo_inurba_marseille","lat":43.287184,"lon":5.37937,"is_reserved":false,"is_disabled":false,"rental_uris":{"android":"levelo://app?vid=b1c4d1b6-9b9a-47aa-978d-2bc95f2ac090","ios":"levelo://app?vid=b1c4d1b6-9b9a-47aa-978d-2bc95f2ac090"},"vehicle_type_id":"4","last_reported":1700752018,"current_range_meters":7200,"station_id":"ce4bh9p2rcd13ifvqec0","pricing_plan_id":"free"},{"bike_id":"6c4f4506-c2b1-410b-bfe7-fac43b645a30","system_id":"levelo_inurba_marseille","lat":43.291994,"lon":5.392907,"is_reserved":false,"is_disabled":false,"rental_uris":{"android":"levelo://app?vid=6c4f4506-c2b1-410b-bfe7-fac43b645a30","ios":"levelo://app?vid=6c4f4506-c2b1-410b-bfe7-fac43b645a30"},"vehicle_type_id":"4","last_reported":1700752018,"current_range_meters":19200,"station_id":"ce4bh192rcd13ifvqdd0","pricing_plan_id":"free"},{"bike_id":"0c72b6bc-9f16-4897-841a-5835901e7e16","system_id":"levelo_inurba_marseille","lat":43.284538,"lon":5.358657,"is_reserved":false,"is_disabled":false,"rental_uris":{"android":"levelo://app?vid=0c72b6bc-9f16-4897-841a-5835901e7e16","ios":"levelo://app?vid=0c72b6bc-9f16-4897-841a-5835901e7e16"},"vehicle_type_id":"4","last_reported":1700752018,"current_range_meters":23200,"station_id":"ce4bhah2rcd13ifvqei0","pricing_plan_id":"free"},{"bike_id":"bed372ec-cace-4fde-92c9-c82599158c6f","system_id":"levelo_inurba_marseille","lat":43.284538,"lon":5.358657,"is_reserved":false,"is_disabled":false,"rental_uris":{"android":"levelo://app?vid=bed372ec-cace-4fde-92c9-c82599158c6f","ios":"levelo://app?vid=bed372ec-cace-4fde-92c9-c82599158c6f"},"vehicle_type_id":"4","last_reported":1700752018,"current_range_meters":11200,"station_id":"ce4bhah2rcd13ifvqei0","pricing_plan_id":"free"},{"bike_id":"086cea86-8dcd-470e-a05b-631aae8cf3b6","system_id":"levelo_inurba_marseille","lat":43.294314,"lon":5.397498,"is_reserved":false,"is_disabled":false,"rental_uris":{"android":"levelo://app?vid=086cea86-8dcd-470e-a05b-631aae8cf3b6","ios":"levelo://app?vid=086cea86-8dcd-470e-a05b-631aae8cf3b6"},"vehicle_type_id":"4","last_reported":1700752018,"current_range_meters":15200,"station_id":"ce4bh3h2rcd13ifvqdo0","pricing_plan_id":"free"},{"bike_id":"c7e1a950-a35e-4659-9027-27e561a868ec","system_id":"levelo_inurba_marseille","lat":43.294314,"lon":5.397498,"is_reserved":false,"is_disabled":false,"rental_uris":{"android":"levelo://app?vid=c7e1a950-a35e-4659-9027-27e561a868ec","ios":"levelo://app?vid=c7e1a950-a35e-4659-9027-27e561a868ec"},"vehicle_type_id":"4","last_reported":1700752018,"current_range_meters":24000,"station_id":"ce4bh3h2rcd13ifvqdo0","pricing_plan_id":"free"},{"bike_id":"5e13d910-e11d-4689-96cd-7bc0bd8cd08c","system_id":"levelo_inurba_marseille","lat":43.285848,"lon":5.350787,"is_reserved":false,"is_disabled":false,"rental_uris":{"android":"levelo://app?vid=5e13d910-e11d-4689-96cd-7bc0bd8cd08c","ios":"levelo://app?vid=5e13d910-e11d-4689-96cd-7bc0bd8cd08c"},"vehicle_type_id":"4","last_reported":1700752018,"current_range_meters":15200,"station_id":"ce4bhch2rcd13ifvqeug","pricing_plan_id":"free"},{"bike_id":"adbd441f-44c4-4168-877a-9278b4bd7ceb","system_id":"levelo_inurba_marseille","lat":43.33127,"lon":5.397858,"is_reserved":false,"is_disabled":false,"rental_uris":{"android":"levelo://app?vid=adbd441f-44c4-4168-877a-9278b4bd7ceb","ios":"levelo://app?vid=adbd441f-44c4-4168-877a-9278b4bd7ceb"},"vehicle_type_id":"4","last_reported":1700752018,"current_range_meters":17200,"station_id":"","pricing_plan_id":"free"},{"bike_id":"e7ad85db-b370-4e90-8a8b-7499234e4463","system_id":"levelo_inurba_marseille","lat":43.286595,"lon":5.386795,"is_reserved":false,"is_disabled":false,"rental_uris":{"android":"levelo://app?vid=e7ad85db-b370-4e90-8a8b-7499234e4463","ios":"levelo://app?vid=e7ad85db-b370-4e90-8a8b-7499234e4463"},"vehicle_type_id":"4","last_reported":1700752018,"current_range_meters":22800,"station_id":"ce4bh492rcd13ifvqdug","pricing_plan_id":"free"},{"bike_id":"5151a1d8-8c9a-44ca-b1ac-5a453a1af72b","system_id":"levelo_inurba_marseille","lat":43.286595,"lon":5.386795,"is_reserved":false,"is_disabled":false,"rental_uris":{"android":"levelo://app?vid=5151a1d8-8c9a-44ca-b1ac-5a453a1af72b","ios":"levelo://app?vid=5151a1d8-8c9a-44ca-b1ac-5a453a1af72b"},"vehicle_type_id":"4","last_reported":1700752018,"current_range_meters":10800,"station_id":"ce4bh492rcd13ifvqdug","pricing_plan_id":"free"},{"bike_id":"33df67cf-87ee-4bed-bf0d-0f0f2d51e92d","system_id":"levelo_inurba_marseille","lat":43.28484,"lon":5.38417,"is_reserved":false,"is_disabled":false,"rental_uris":{"android":"levelo://app?vid=33df67cf-87ee-4bed-bf0d-0f0f2d51e92d","ios":"levelo://app?vid=33df67cf-87ee-4bed-bf0d-0f0f2d51e92d"},"vehicle_type_id":"4","last_reported":1700752018,"current_range_meters":0,"station_id":"ce4bh512rcd13ifvqe3g","pricing_plan_id":"free"},{"bike_id":"3714913b-fe37-4565-8f40-0253914d7ac5","system_id":"levelo_inurba_marseille","lat":43.297946,"lon":5.404063,"is_reserved":false,"is_disabled":false,"rental_uris":{"android":"levelo://app?vid=3714913b-fe37-4565-8f40-0253914d7ac5","ios":"levelo://app?vid=3714913b-fe37-4565-8f40-0253914d7ac5"},"vehicle_type_id":"4","last_reported":1700752018,"current_range_meters":28400,"station_id":"ce4bh112rcd13ifvqd90","pricing_plan_id":"free"},{"bike_id":"ffc82614-f2c3-43a0-a648-d4416ff916cd","system_id":"levelo_inurba_marseille","lat":43.297946,"lon":5.404063,"is_reserved":false,"is_disabled":false,"rental_uris":{"android":"levelo://app?vid=ffc82614-f2c3-43a0-a648-d4416ff916cd","ios":"levelo://app?vid=ffc82614-f2c3-43a0-a648-d4416ff916cd"},"vehicle_type_id":"4","last_reported":1700752018,"current_range_meters":24400,"station_id":"ce4bh112rcd13ifvqd90","pricing_plan_id":"free"},{"bike_id":"fa77c7c8-380d-489b-be5e-3ca08f8c3a60","system_id":"levelo_inurba_marseille","lat":43.283498,"lon":5.380948,"is_reserved":false,"is_disabled":false,"rental_uris":{"android":"levelo://app?vid=fa77c7c8-380d-489b-be5e-3ca08f8c3a60","ios":"levelo://app?vid=fa77c7c8-380d-489b-be5e-3ca08f8c3a60"},"vehicle_type_id":"4","last_reported":1700752018,"current_range_meters":19200,"station_id":"ce4bh412rcd13ifvqdr0","pricing_plan_id":"free"},{"bike_id":"376eb8ef-aacc-4035-9531-164a982b0965","system_id":"levelo_inurba_marseille","lat":43.284117,"lon":5.349843,"is_reserved":false,"is_disabled":false,"rental_uris":{"android":"levelo://app?vid=376eb8ef-aacc-4035-9531-164a982b0965","ios":"levelo://app?vid=376eb8ef-aacc-4035-9531-164a982b0965"},"vehicle_type_id":"4","last_reported":1700752018,"current_range_meters":30800,"station_id":"ce4bhbh2rcd13ifvqepg","pricing_plan_id":"free"},{"bike_id":"e2284003-4e46-4e0a-93e7-73d05c3666d9","system_id":"levelo_inurba_marseille","lat":43.33479,"lon":5.39788,"is_reserved":false,"is_disabled":false,"rental_uris":{"android":"levelo://app?vid=e2284003-4e46-4e0a-93e7-73d05c3666d9","ios":"levelo://app?vid=e2284003-4e46-4e0a-93e7-73d05c3666d9"},"vehicle_type_id":"4","last_reported":1700752018,"current_range_meters":26400,"station_id":"","pricing_plan_id":"free"},{"bike_id":"9f406700-c6fa-44c2-b209-2e781c68762e","system_id":"levelo_inurba_marseille","lat":43.28627,"lon":5.39143,"is_reserved":false,"is_disabled":false,"rental_uris":{"android":"levelo://app?vid=9f406700-c6fa-44c2-b209-2e781c68762e","ios":"levelo://app?vid=9f406700-c6fa-44c2-b209-2e781c68762e"},"vehicle_type_id":"4","last_reported":1700752018,"current_range_meters":7600,"station_id":"","pricing_plan_id":"free"},{"bike_id":"57f4b6ad-d78e-47ed-9a41-879adc5f37fd","system_id":"levelo_inurba_marseille","lat":43.283502,"lon":5.386471,"is_reserved":false,"is_disabled":false,"rental_uris":{"android":"levelo://app?vid=57f4b6ad-d78e-47ed-9a41-879adc5f37fd","ios":"levelo://app?vid=57f4b6ad-d78e-47ed-9a41-879adc5f37fd"},"vehicle_type_id":"4","last_reported":1700752018,"current_range_meters":20800,"station_id":"ce4bh492rcd13ifvqdvg","pricing_plan_id":"free"},{"bike_id":"c82dcda3-77c3-4d3f-baa4-20a026a59045","system_id":"levelo_inurba_marseille","lat":43.283502,"lon":5.386471,"is_reserved":false,"is_disabled":false,"rental_uris":{"android":"levelo://app?vid=c82dcda3-77c3-4d3f-baa4-20a026a59045","ios":"levelo://app?vid=c82dcda3-77c3-4d3f-baa4-20a026a59045"},"vehicle_type_id":"4","last_reported":1700752018,"current_range_meters":25200,"station_id":"ce4bh492rcd13ifvqdvg","pricing_plan_id":"free"},{"bike_id":"42fdeb6a-5eb6-4e91-a08e-607bb878f908","system_id":"levelo_inurba_marseille","lat":43.282754,"lon":5.350519,"is_reserved":false,"is_disabled":false,"rental_uris":{"android":"levelo://app?vid=42fdeb6a-5eb6-4e91-a08e-607bb878f908","ios":"levelo://app?vid=42fdeb6a-5eb6-4e91-a08e-607bb878f908"},"vehicle_type_id":"4","last_reported":1700752018,"current_range_meters":12000,"station_id":"ce4bhbp2rcd13ifvqerg","pricing_plan_id":"free"},{"bike_id":"7018a593-b733-4bb6-a978-c50113d33e02","system_id":"levelo_inurba_marseille","lat":43.282754,"lon":5.350519,"is_reserved":false,"is_disabled":false,"rental_uris":{"android":"levelo://app?vid=7018a593-b733-4bb6-a978-c50113d33e02","ios":"levelo://app?vid=7018a593-b733-4bb6-a978-c50113d33e02"},"vehicle_type_id":"4","last_reported":1700752018,"current_range_meters":23600,"station_id":"ce4bhbp2rcd13ifvqerg","pricing_plan_id":"free"},{"bike_id":"1b5237ba-810a-4d17-bc4a-967fb2858f37","system_id":"levelo_inurba_marseille","lat":43.282744,"lon":5.350533,"is_reserved":false,"is_disabled":false,"rental_uris":{"android":"levelo://app?vid=1b5237ba-810a-4d17-bc4a-967fb2858f37","ios":"levelo://app?vid=1b5237ba-810a-4d17-bc4a-967fb2858f37"},"vehicle_type_id":"4","last_reported":1700752018,"current_range_meters":24400,"station_id":"ce4bhbp2rcd13ifvqerg","pricing_plan_id":"free"},{"bike_id":"308660ec-cefd-4b01-a206-5fd15d956638","system_id":"levelo_inurba_marseille","lat":43.280382,"lon":5.369291,"is_reserved":false,"is_disabled":false,"rental_uris":{"android":"levelo://app?vid=308660ec-cefd-4b01-a206-5fd15d956638","ios":"levelo://app?vid=308660ec-cefd-4b01-a206-5fd15d956638"},"vehicle_type_id":"4","last_reported":1700752018,"current_range_meters":25600,"station_id":"ce4bha12rcd13ifvqef0","pricing_plan_id":"free"},{"bike_id":"94d0f084-b23c-4929-bfcf-62375c8ab2bf","system_id":"levelo_inurba_marseille","lat":43.282744,"lon":5.350533,"is_reserved":false,"is_disabled":false,"rental_uris":{"android":"levelo://app?vid=94d0f084-b23c-4929-bfcf-62375c8ab2bf","ios":"levelo://app?vid=94d0f084-b23c-4929-bfcf-62375c8ab2bf"},"vehicle_type_id":"4","last_reported":1700752018,"current_range_meters":18800,"station_id":"ce4bhbp2rcd13ifvqerg","pricing_plan_id":"free"},{"bike_id":"120cf939-d266-42c6-8775-2faf5edf0692","system_id":"levelo_inurba_marseille","lat":43.28039,"lon":5.369297,"is_reserved":false,"is_disabled":false,"rental_uris":{"android":"levelo://app?vid=120cf939-d266-42c6-8775-2faf5edf0692","ios":"levelo://app?vid=120cf939-d266-42c6-8775-2faf5edf0692"},"vehicle_type_id":"4","last_reported":1700752018,"current_range_meters":27200,"station_id":"ce4bha12rcd13ifvqef0","pricing_plan_id":"free"},{"bike_id":"41b32225-c8a9-4a50-b754-507a314aed34","system_id":"levelo_inurba_marseille","lat":43.280382,"lon":5.369291,"is_reserved":false,"is_disabled":false,"rental_uris":{"android":"levelo://app?vid=41b32225-c8a9-4a50-b754-507a314aed34","ios":"levelo://app?vid=41b32225-c8a9-4a50-b754-507a314aed34"},"vehicle_type_id":"4","last_reported":1700752018,"current_range_meters":13600,"station_id":"ce4bha12rcd13ifvqef0","pricing_plan_id":"free"},{"bike_id":"1e003a98-9f3b-4368-8bcd-776652b7791c","system_id":"levelo_inurba_marseille","lat":43.281044,"lon":5.378308,"is_reserved":false,"is_disabled":false,"rental_uris":{"android":"levelo://app?vid=1e003a98-9f3b-4368-8bcd-776652b7791c","ios":"levelo://app?vid=1e003a98-9f3b-4368-8bcd-776652b7791c"},"vehicle_type_id":"4","last_reported":1700752018,"current_range_meters":12400,"station_id":"ce4bha12rcd13ifvqee0","pricing_plan_id":"free"},{"bike_id":"6c7c1799-9224-46e1-b30b-daafd70ab48d","system_id":"levelo_inurba_marseille","lat":43.281044,"lon":5.378308,"is_reserved":false,"is_disabled":false,"rental_uris":{"android":"levelo://app?vid=6c7c1799-9224-46e1-b30b-daafd70ab48d","ios":"levelo://app?vid=6c7c1799-9224-46e1-b30b-daafd70ab48d"},"vehicle_type_id":"4","last_reported":1700752018,"current_range_meters":30000,"station_id":"ce4bha12rcd13ifvqee0","pricing_plan_id":"free"},{"bike_id":"f880c89d-6db5-492e-9e9f-b889f440c8d2","system_id":"levelo_inurba_marseille","lat":43.28103,"lon":5.37849,"is_reserved":false,"is_disabled":false,"rental_uris":{"android":"levelo://app?vid=f880c89d-6db5-492e-9e9f-b889f440c8d2","ios":"levelo://app?vid=f880c89d-6db5-492e-9e9f-b889f440c8d2"},"vehicle_type_id":"4","last_reported":1700752018,"current_range_meters":13200,"station_id":"ce4bha12rcd13ifvqee0","pricing_plan_id":"free"},{"bike_id":"8c1d93f1-5023-434b-8411-c0e9a72e62ef","system_id":"levelo_inurba_marseille","lat":43.281044,"lon":5.378308,"is_reserved":false,"is_disabled":false,"rental_uris":{"android":"levelo://app?vid=8c1d93f1-5023-434b-8411-c0e9a72e62ef","ios":"levelo://app?vid=8c1d93f1-5023-434b-8411-c0e9a72e62ef"},"vehicle_type_id":"4","last_reported":1700752018,"current_range_meters":28000,"station_id":"ce4bha12rcd13ifvqee0","pricing_plan_id":"free"},{"bike_id":"3a96232f-b5d8-47c2-a845-0527f04073c2","system_id":"levelo_inurba_marseille","lat":43.284462,"lon":5.392121,"is_reserved":false,"is_disabled":false,"rental_uris":{"android":"levelo://app?vid=3a96232f-b5d8-47c2-a845-0527f04073c2","ios":"levelo://app?vid=3a96232f-b5d8-47c2-a845-0527f04073c2"},"vehicle_type_id":"4","last_reported":1700752018,"current_range_meters":13200,"station_id":"ce4bhoh2rcd13ifvqh5g","pricing_plan_id":"free"},{"bike_id":"fbc5412f-f507-433e-9864-2c89858f81e9","system_id":"levelo_inurba_marseille","lat":43.284462,"lon":5.392121,"is_reserved":false,"is_disabled":false,"rental_uris":{"android":"levelo://app?vid=fbc5412f-f507-433e-9864-2c89858f81e9","ios":"levelo://app?vid=fbc5412f-f507-433e-9864-2c89858f81e9"},"vehicle_type_id":"4","last_reported":1700752018,"current_range_meters":8400,"station_id":"ce4bhoh2rcd13ifvqh5g","pricing_plan_id":"free"},{"bike_id":"f0a1e270-519d-4151-9252-451a3a08d3de","system_id":"levelo_inurba_marseille","lat":43.284462,"lon":5.392121,"is_reserved":false,"is_disabled":false,"rental_uris":{"android":"levelo://app?vid=f0a1e270-519d-4151-9252-451a3a08d3de","ios":"levelo://app?vid=f0a1e270-519d-4151-9252-451a3a08d3de"},"vehicle_type_id":"4","last_reported":1700752018,"current_range_meters":9600,"station_id":"ce4bhoh2rcd13ifvqh5g","pricing_plan_id":"free"},{"bike_id":"4a358834-7939-4ccd-a279-4daba74f694c","system_id":"levelo_inurba_marseille","lat":43.284462,"lon":5.392121,"is_reserved":false,"is_disabled":false,"rental_uris":{"android":"levelo://app?vid=4a358834-7939-4ccd-a279-4daba74f694c","ios":"levelo://app?vid=4a358834-7939-4ccd-a279-4daba74f694c"},"vehicle_type_id":"4","last_reported":1700752018,"current_range_meters":6000,"station_id":"ce4bhoh2rcd13ifvqh5g","pricing_plan_id":"free"},{"bike_id":"2ab38154-7b4d-4625-b0ed-ff30e636a061","system_id":"levelo_inurba_marseille","lat":43.326563,"lon":5.40985,"is_reserved":false,"is_disabled":false,"rental_uris":{"android":"levelo://app?vid=2ab38154-7b4d-4625-b0ed-ff30e636a061","ios":"levelo://app?vid=2ab38154-7b4d-4625-b0ed-ff30e636a061"},"vehicle_type_id":"4","last_reported":1700752018,"current_range_meters":13200,"station_id":"ce4bhpp2rcd13ifvqhgg","pricing_plan_id":"free"},{"bike_id":"e5d324aa-c1c2-4b7e-a50c-fadeec132527","system_id":"levelo_inurba_marseille","lat":43.326605,"lon":5.409903,"is_reserved":false,"is_disabled":false,"rental_uris":{"android":"levelo://app?vid=e5d324aa-c1c2-4b7e-a50c-fadeec132527","ios":"levelo://app?vid=e5d324aa-c1c2-4b7e-a50c-fadeec132527"},"vehicle_type_id":"4","last_reported":1700752018,"current_range_meters":28800,"station_id":"ce4bhpp2rcd13ifvqhgg","pricing_plan_id":"free"},{"bike_id":"8e360a99-579d-498b-8373-2b154126c995","system_id":"levelo_inurba_marseille","lat":43.304188,"lon":5.412904,"is_reserved":false,"is_disabled":false,"rental_uris":{"android":"levelo://app?vid=8e360a99-579d-498b-8373-2b154126c995","ios":"levelo://app?vid=8e360a99-579d-498b-8373-2b154126c995"},"vehicle_type_id":"4","last_reported":1700752018,"current_range_meters":0,"station_id":"ce4bhop2rcd13ifvqh8g","pricing_plan_id":"free"},{"bike_id":"6e2c2465-4e40-4aae-912b-ca1fbcdf1978","system_id":"levelo_inurba_marseille","lat":43.326531,"lon":5.410409,"is_reserved":false,"is_disabled":false,"rental_uris":{"android":"levelo://app?vid=6e2c2465-4e40-4aae-912b-ca1fbcdf1978","ios":"levelo://app?vid=6e2c2465-4e40-4aae-912b-ca1fbcdf1978"},"vehicle_type_id":"4","last_reported":1700752018,"current_range_meters":0,"station_id":"ce4bhpp2rcd13ifvqhgg","pricing_plan_id":"free"},{"bike_id":"d6b3a6e2-70dd-4d4e-a0f6-6b3fc08fe9e8","system_id":"levelo_inurba_marseille","lat":43.287154,"lon":5.399979,"is_reserved":false,"is_disabled":false,"rental_uris":{"android":"levelo://app?vid=d6b3a6e2-70dd-4d4e-a0f6-6b3fc08fe9e8","ios":"levelo://app?vid=d6b3a6e2-70dd-4d4e-a0f6-6b3fc08fe9e8"},"vehicle_type_id":"4","last_reported":1700752018,"current_range_meters":25600,"station_id":"ce4bho92rcd13ifvqh3g","pricing_plan_id":"free"},{"bike_id":"7011775b-c0e4-46dc-8231-7485425aba5f","system_id":"levelo_inurba_marseille","lat":43.29939,"lon":5.41323,"is_reserved":false,"is_disabled":false,"rental_uris":{"android":"levelo://app?vid=7011775b-c0e4-46dc-8231-7485425aba5f","ios":"levelo://app?vid=7011775b-c0e4-46dc-8231-7485425aba5f"},"vehicle_type_id":"4","last_reported":1700752018,"current_range_meters":27200,"station_id":"ce4bhp12rcd13ifvqh9g","pricing_plan_id":"free"},{"bike_id":"a8e2b52b-9ba9-4b70-bcb4-1e1ad46ab6fe","system_id":"levelo_inurba_marseille","lat":43.29939,"lon":5.413237,"is_reserved":false,"is_disabled":false,"rental_uris":{"android":"levelo://app?vid=a8e2b52b-9ba9-4b70-bcb4-1e1ad46ab6fe","ios":"levelo://app?vid=a8e2b52b-9ba9-4b70-bcb4-1e1ad46ab6fe"},"vehicle_type_id":"4","last_reported":1700752018,"current_range_meters":30800,"station_id":"ce4bhp12rcd13ifvqh9g","pricing_plan_id":"free"},{"bike_id":"84842981-8aff-44b4-9c92-528854ccc84c","system_id":"levelo_inurba_marseille","lat":43.320045,"lon":5.415046,"is_reserved":false,"is_disabled":false,"rental_uris":{"android":"levelo://app?vid=84842981-8aff-44b4-9c92-528854ccc84c","ios":"levelo://app?vid=84842981-8aff-44b4-9c92-528854ccc84c"},"vehicle_type_id":"4","last_reported":1700752018,"current_range_meters":12000,"station_id":"ce4bhq92rcd13ifvqhkg","pricing_plan_id":"free"},{"bike_id":"ae4cd49f-e9e3-414d-b7fa-9e66245b3455","system_id":"levelo_inurba_marseille","lat":43.279742,"lon":5.38744,"is_reserved":false,"is_disabled":false,"rental_uris":{"android":"levelo://app?vid=ae4cd49f-e9e3-414d-b7fa-9e66245b3455","ios":"levelo://app?vid=ae4cd49f-e9e3-414d-b7fa-9e66245b3455"},"vehicle_type_id":"4","last_reported":1700752018,"current_range_meters":0,"station_id":"ce4bhg12rcd13ifvqf80","pricing_plan_id":"free"},{"bike_id":"cf7c6503-d761-4e4a-b826-f55f74848caf","system_id":"levelo_inurba_marseille","lat":43.34882,"lon":5.37507,"is_reserved":false,"is_disabled":false,"rental_uris":{"android":"levelo://app?vid=cf7c6503-d761-4e4a-b826-f55f74848caf","ios":"levelo://app?vid=cf7c6503-d761-4e4a-b826-f55f74848caf"},"vehicle_type_id":"4","last_reported":1700752018,"current_range_meters":800,"station_id":"","pricing_plan_id":"free"},{"bike_id":"ce2455e1-ac62-4515-9dca-9a8c0942bfc1","system_id":"levelo_inurba_marseille","lat":43.325243,"lon":5.414326,"is_reserved":false,"is_disabled":false,"rental_uris":{"android":"levelo://app?vid=ce2455e1-ac62-4515-9dca-9a8c0942bfc1","ios":"levelo://app?vid=ce2455e1-ac62-4515-9dca-9a8c0942bfc1"},"vehicle_type_id":"4","last_reported":1700752018,"current_range_meters":27200,"station_id":"ce4bhq12rcd13ifvqhhg","pricing_plan_id":"free"},{"bike_id":"0475e105-3a55-49ec-ac82-47c13dde5cb3","system_id":"levelo_inurba_marseille","lat":43.276182,"lon":5.361041,"is_reserved":false,"is_disabled":false,"rental_uris":{"android":"levelo://app?vid=0475e105-3a55-49ec-ac82-47c13dde5cb3","ios":"levelo://app?vid=0475e105-3a55-49ec-ac82-47c13dde5cb3"},"vehicle_type_id":"4","last_reported":1700752018,"current_range_meters":12400,"station_id":"ce4bgj92rcd13ifvqbe0","pricing_plan_id":"free"},{"bike_id":"5d19bf6c-7648-4ff2-8860-ef1baf092491","system_id":"levelo_inurba_marseille","lat":43.280784,"lon":5.396622,"is_reserved":false,"is_disabled":false,"rental_uris":{"android":"levelo://app?vid=5d19bf6c-7648-4ff2-8860-ef1baf092491","ios":"levelo://app?vid=5d19bf6c-7648-4ff2-8860-ef1baf092491"},"vehicle_type_id":"4","last_reported":1700752018,"current_range_meters":8800,"station_id":"ce4bho12rcd13ifvqh2g","pricing_plan_id":"free"},{"bike_id":"7f893720-ab8e-45c2-9f8a-5e86d6b4e127","system_id":"levelo_inurba_marseille","lat":43.278401,"lon":5.392152,"is_reserved":false,"is_disabled":false,"rental_uris":{"android":"levelo://app?vid=7f893720-ab8e-45c2-9f8a-5e86d6b4e127","ios":"levelo://app?vid=7f893720-ab8e-45c2-9f8a-5e86d6b4e127"},"vehicle_type_id":"4","last_reported":1700752018,"current_range_meters":10400,"station_id":"ce4bhjp2rcd13ifvqga0","pricing_plan_id":"free"},{"bike_id":"4043b474-b5ba-43f1-8754-efc7e66c3e3f","system_id":"levelo_inurba_marseille","lat":43.27383,"lon":5.36247,"is_reserved":false,"is_disabled":false,"rental_uris":{"android":"levelo://app?vid=4043b474-b5ba-43f1-8754-efc7e66c3e3f","ios":"levelo://app?vid=4043b474-b5ba-43f1-8754-efc7e66c3e3f"},"vehicle_type_id":"4","last_reported":1700752018,"current_range_meters":28000,"station_id":"ce4bhbh2rcd13ifvqeo0","pricing_plan_id":"free"},{"bike_id":"bcbe38d7-01ed-4b7b-b667-d491a9aff8be","system_id":"levelo_inurba_marseille","lat":43.273613,"lon":5.362705,"is_reserved":false,"is_disabled":false,"rental_uris":{"android":"levelo://app?vid=bcbe38d7-01ed-4b7b-b667-d491a9aff8be","ios":"levelo://app?vid=bcbe38d7-01ed-4b7b-b667-d491a9aff8be"},"vehicle_type_id":"4","last_reported":1700752018,"current_range_meters":30400,"station_id":"ce4bhbh2rcd13ifvqeo0","pricing_plan_id":"free"},{"bike_id":"2cf4f1d8-1e21-47b9-bd18-5b4ec8a41dda","system_id":"levelo_inurba_marseille","lat":43.273613,"lon":5.362705,"is_reserved":false,"is_disabled":false,"rental_uris":{"android":"levelo://app?vid=2cf4f1d8-1e21-47b9-bd18-5b4ec8a41dda","ios":"levelo://app?vid=2cf4f1d8-1e21-47b9-bd18-5b4ec8a41dda"},"vehicle_type_id":"4","last_reported":1700752018,"current_range_meters":18400,"station_id":"ce4bhbh2rcd13ifvqeo0","pricing_plan_id":"free"},{"bike_id":"3ab916d7-9199-4e3e-a401-b8fa636cd35b","system_id":"levelo_inurba_marseille","lat":43.273613,"lon":5.362705,"is_reserved":false,"is_disabled":false,"rental_uris":{"android":"levelo://app?vid=3ab916d7-9199-4e3e-a401-b8fa636cd35b","ios":"levelo://app?vid=3ab916d7-9199-4e3e-a401-b8fa636cd35b"},"vehicle_type_id":"4","last_reported":1700752018,"current_range_meters":31200,"station_id":"ce4bhbh2rcd13ifvqeo0","pricing_plan_id":"free"},{"bike_id":"b15fbec5-8078-4961-ad3e-8a84730caa09","system_id":"levelo_inurba_marseille","lat":43.273613,"lon":5.362705,"is_reserved":false,"is_disabled":false,"rental_uris":{"android":"levelo://app?vid=b15fbec5-8078-4961-ad3e-8a84730caa09","ios":"levelo://app?vid=b15fbec5-8078-4961-ad3e-8a84730caa09"},"vehicle_type_id":"4","last_reported":1700752018,"current_range_meters":31200,"station_id":"ce4bhbh2rcd13ifvqeo0","pricing_plan_id":"free"},{"bike_id":"50b9e0fa-fc8b-4c9c-8f0e-658ee28a9b37","system_id":"levelo_inurba_marseille","lat":43.273613,"lon":5.362705,"is_reserved":false,"is_disabled":false,"rental_uris":{"android":"levelo://app?vid=50b9e0fa-fc8b-4c9c-8f0e-658ee28a9b37","ios":"levelo://app?vid=50b9e0fa-fc8b-4c9c-8f0e-658ee28a9b37"},"vehicle_type_id":"4","last_reported":1700752018,"current_range_meters":28000,"station_id":"ce4bhbh2rcd13ifvqeo0","pricing_plan_id":"free"},{"bike_id":"8b4ef16f-7299-4e88-801d-ef1488fb616a","system_id":"levelo_inurba_marseille","lat":43.273609,"lon":5.362708,"is_reserved":false,"is_disabled":false,"rental_uris":{"android":"levelo://app?vid=8b4ef16f-7299-4e88-801d-ef1488fb616a","ios":"levelo://app?vid=8b4ef16f-7299-4e88-801d-ef1488fb616a"},"vehicle_type_id":"4","last_reported":1700752018,"current_range_meters":26800,"station_id":"ce4bhbh2rcd13ifvqeo0","pricing_plan_id":"free"},{"bike_id":"bbea839c-1811-46bd-9615-8ca6c41584f8","system_id":"levelo_inurba_marseille","lat":43.276769,"lon":5.388787,"is_reserved":false,"is_disabled":false,"rental_uris":{"android":"levelo://app?vid=bbea839c-1811-46bd-9615-8ca6c41584f8","ios":"levelo://app?vid=bbea839c-1811-46bd-9615-8ca6c41584f8"},"vehicle_type_id":"4","last_reported":1700752018,"current_range_meters":17200,"station_id":"ce4bhi12rcd13ifvqfo0","pricing_plan_id":"free"},{"bike_id":"b3c9dcd3-865f-42dd-8eff-2ab6406c8b1b","system_id":"levelo_inurba_marseille","lat":43.279952,"lon":5.400085,"is_reserved":false,"is_disabled":false,"rental_uris":{"android":"levelo://app?vid=b3c9dcd3-865f-42dd-8eff-2ab6406c8b1b","ios":"levelo://app?vid=b3c9dcd3-865f-42dd-8eff-2ab6406c8b1b"},"vehicle_type_id":"4","last_reported":1700752018,"current_range_meters":17200,"station_id":"ce4bho92rcd13ifvqh4g","pricing_plan_id":"free"},{"bike_id":"00c6eff5-1596-4e9b-87d9-ed22489a56cc","system_id":"levelo_inurba_marseille","lat":43.317121,"lon":5.423936,"is_reserved":false,"is_disabled":false,"rental_uris":{"android":"levelo://app?vid=00c6eff5-1596-4e9b-87d9-ed22489a56cc","ios":"levelo://app?vid=00c6eff5-1596-4e9b-87d9-ed22489a56cc"},"vehicle_type_id":"4","last_reported":1700752018,"current_range_meters":22400,"station_id":"ce4bhp92rcd13ifvqhbg","pricing_plan_id":"free"},{"bike_id":"55c54c30-52c4-4212-946b-6be248b33218","system_id":"levelo_inurba_marseille","lat":43.317121,"lon":5.423936,"is_reserved":false,"is_disabled":false,"rental_uris":{"android":"levelo://app?vid=55c54c30-52c4-4212-946b-6be248b33218","ios":"levelo://app?vid=55c54c30-52c4-4212-946b-6be248b33218"},"vehicle_type_id":"4","last_reported":1700752018,"current_range_meters":17200,"station_id":"ce4bhp92rcd13ifvqhbg","pricing_plan_id":"free"},{"bike_id":"785780ba-6842-4456-9d03-4bf13b463d2b","system_id":"levelo_inurba_marseille","lat":43.340804,"lon":5.410219,"is_reserved":false,"is_disabled":false,"rental_uris":{"android":"levelo://app?vid=785780ba-6842-4456-9d03-4bf13b463d2b","ios":"levelo://app?vid=785780ba-6842-4456-9d03-4bf13b463d2b"},"vehicle_type_id":"4","last_reported":1700752018,"current_range_meters":29200,"station_id":"ce4bhqh2rcd13ifvqhlg","pricing_plan_id":"free"},{"bike_id":"58041c42-19e3-4555-98d4-a1829bbce417","system_id":"levelo_inurba_marseille","lat":43.274103,"lon":5.394016,"is_reserved":false,"is_disabled":false,"rental_uris":{"android":"levelo://app?vid=58041c42-19e3-4555-98d4-a1829bbce417","ios":"levelo://app?vid=58041c42-19e3-4555-98d4-a1829bbce417"},"vehicle_type_id":"4","last_reported":1700752018,"current_range_meters":10000,"station_id":"ce4bhdp2rcd13ifvqf20","pricing_plan_id":"free"},{"bike_id":"7b23025e-3e59-4334-a31d-c2cc870a7c0e","system_id":"levelo_inurba_marseille","lat":43.295511,"lon":5.422926,"is_reserved":false,"is_disabled":false,"rental_uris":{"android":"levelo://app?vid=7b23025e-3e59-4334-a31d-c2cc870a7c0e","ios":"levelo://app?vid=7b23025e-3e59-4334-a31d-c2cc870a7c0e"},"vehicle_type_id":"4","last_reported":1700752018,"current_range_meters":21600,"station_id":"ce4bhph2rcd13ifvqhdg","pricing_plan_id":"free"},{"bike_id":"0ec9cdee-9bf5-453d-bbd8-0345b593a6bb","system_id":"levelo_inurba_marseille","lat":43.295511,"lon":5.422926,"is_reserved":false,"is_disabled":false,"rental_uris":{"android":"levelo://app?vid=0ec9cdee-9bf5-453d-bbd8-0345b593a6bb","ios":"levelo://app?vid=0ec9cdee-9bf5-453d-bbd8-0345b593a6bb"},"vehicle_type_id":"4","last_reported":1700752018,"current_range_meters":26400,"station_id":"ce4bhph2rcd13ifvqhdg","pricing_plan_id":"free"},{"bike_id":"72d3541b-d0ba-4970-8e11-62588791666b","system_id":"levelo_inurba_marseille","lat":43.295511,"lon":5.422926,"is_reserved":false,"is_disabled":false,"rental_uris":{"android":"levelo://app?vid=72d3541b-d0ba-4970-8e11-62588791666b","ios":"levelo://app?vid=72d3541b-d0ba-4970-8e11-62588791666b"},"vehicle_type_id":"4","last_reported":1700752018,"current_range_meters":30000,"station_id":"ce4bhph2rcd13ifvqhdg","pricing_plan_id":"free"},{"bike_id":"e57f52ed-652d-4955-80f2-72fbd24238b5","system_id":"levelo_inurba_marseille","lat":43.295511,"lon":5.422926,"is_reserved":false,"is_disabled":false,"rental_uris":{"android":"levelo://app?vid=e57f52ed-652d-4955-80f2-72fbd24238b5","ios":"levelo://app?vid=e57f52ed-652d-4955-80f2-72fbd24238b5"},"vehicle_type_id":"4","last_reported":1700752018,"current_range_meters":8400,"station_id":"ce4bhph2rcd13ifvqhdg","pricing_plan_id":"free"},{"bike_id":"72061b42-f63c-47cf-aab3-3692abf61ff9","system_id":"levelo_inurba_marseille","lat":43.295511,"lon":5.422926,"is_reserved":false,"is_disabled":false,"rental_uris":{"android":"levelo://app?vid=72061b42-f63c-47cf-aab3-3692abf61ff9","ios":"levelo://app?vid=72061b42-f63c-47cf-aab3-3692abf61ff9"},"vehicle_type_id":"4","last_reported":1700752018,"current_range_meters":19200,"station_id":"ce4bhph2rcd13ifvqhdg","pricing_plan_id":"free"},{"bike_id":"704d9b1a-f1ae-42a9-99c3-e6e01df0a8a6","system_id":"levelo_inurba_marseille","lat":43.295511,"lon":5.422926,"is_reserved":false,"is_disabled":false,"rental_uris":{"android":"levelo://app?vid=704d9b1a-f1ae-42a9-99c3-e6e01df0a8a6","ios":"levelo://app?vid=704d9b1a-f1ae-42a9-99c3-e6e01df0a8a6"},"vehicle_type_id":"4","last_reported":1700752018,"current_range_meters":26800,"station_id":"ce4bhph2rcd13ifvqhdg","pricing_plan_id":"free"},{"bike_id":"48c1fbfb-e6c4-4c56-a75c-55416f8bb4c3","system_id":"levelo_inurba_marseille","lat":43.27223,"lon":5.392533,"is_reserved":false,"is_disabled":false,"rental_uris":{"android":"levelo://app?vid=48c1fbfb-e6c4-4c56-a75c-55416f8bb4c3","ios":"levelo://app?vid=48c1fbfb-e6c4-4c56-a75c-55416f8bb4c3"},"vehicle_type_id":"4","last_reported":1700752018,"current_range_meters":25600,"station_id":"","pricing_plan_id":"free"},{"bike_id":"ac271da3-346c-428a-8b63-4a456d0d7d57","system_id":"levelo_inurba_marseille","lat":43.27808,"lon":5.40716,"is_reserved":false,"is_disabled":false,"rental_uris":{"android":"levelo://app?vid=ac271da3-346c-428a-8b63-4a456d0d7d57","ios":"levelo://app?vid=ac271da3-346c-428a-8b63-4a456d0d7d57"},"vehicle_type_id":"4","last_reported":1700752018,"current_range_meters":23600,"station_id":"ce4bhnh2rcd13ifvqgtg","pricing_plan_id":"free"},{"bike_id":"7392dc19-92da-4e1c-8888-be73dd93d0e9","system_id":"levelo_inurba_marseille","lat":43.278128,"lon":5.407195,"is_reserved":false,"is_disabled":false,"rental_uris":{"android":"levelo://app?vid=7392dc19-92da-4e1c-8888-be73dd93d0e9","ios":"levelo://app?vid=7392dc19-92da-4e1c-8888-be73dd93d0e9"},"vehicle_type_id":"4","last_reported":1700752018,"current_range_meters":14400,"station_id":"ce4bhnh2rcd13ifvqgtg","pricing_plan_id":"free"},{"bike_id":"964667e6-f8e8-42b8-b3c4-a46a34dc2a14","system_id":"levelo_inurba_marseille","lat":43.26972,"lon":5.39259,"is_reserved":false,"is_disabled":false,"rental_uris":{"android":"levelo://app?vid=964667e6-f8e8-42b8-b3c4-a46a34dc2a14","ios":"levelo://app?vid=964667e6-f8e8-42b8-b3c4-a46a34dc2a14"},"vehicle_type_id":"4","last_reported":1700752018,"current_range_meters":11600,"station_id":"","pricing_plan_id":"free"},{"bike_id":"32a73cee-6e7a-4f34-8684-f858e12e6109","system_id":"levelo_inurba_marseille","lat":43.26684,"lon":5.38267,"is_reserved":false,"is_disabled":false,"rental_uris":{"android":"levelo://app?vid=32a73cee-6e7a-4f34-8684-f858e12e6109","ios":"levelo://app?vid=32a73cee-6e7a-4f34-8684-f858e12e6109"},"vehicle_type_id":"4","last_reported":1700752018,"current_range_meters":14800,"station_id":"ce4bhg92rcd13ifvqf90","pricing_plan_id":"free"},{"bike_id":"8db7c29e-7357-42df-9373-8c7381809241","system_id":"levelo_inurba_marseille","lat":43.26681,"lon":5.382694,"is_reserved":false,"is_disabled":false,"rental_uris":{"android":"levelo://app?vid=8db7c29e-7357-42df-9373-8c7381809241","ios":"levelo://app?vid=8db7c29e-7357-42df-9373-8c7381809241"},"vehicle_type_id":"4","last_reported":1700752018,"current_range_meters":30400,"station_id":"ce4bhg92rcd13ifvqf90","pricing_plan_id":"free"},{"bike_id":"8f3b1a6c-3a9f-4d58-8712-a1083f0f2a40","system_id":"levelo_inurba_marseille","lat":43.265714,"lon":5.372891,"is_reserved":false,"is_disabled":false,"rental_uris":{"android":"levelo://app?vid=8f3b1a6c-3a9f-4d58-8712-a1083f0f2a40","ios":"levelo://app?vid=8f3b1a6c-3a9f-4d58-8712-a1083f0f2a40"},"vehicle_type_id":"4","last_reported":1700752018,"current_range_meters":27600,"station_id":"ce4bhg12rcd13ifvqf70","pricing_plan_id":"free"},{"bike_id":"6923e551-0f92-46dd-8c32-4c4694e55642","system_id":"levelo_inurba_marseille","lat":43.26555,"lon":5.37286,"is_reserved":false,"is_disabled":false,"rental_uris":{"android":"levelo://app?vid=6923e551-0f92-46dd-8c32-4c4694e55642","ios":"levelo://app?vid=6923e551-0f92-46dd-8c32-4c4694e55642"},"vehicle_type_id":"4","last_reported":1700752018,"current_range_meters":30800,"station_id":"ce4bhg12rcd13ifvqf70","pricing_plan_id":"free"},{"bike_id":"9476fa50-eaf7-41d3-95b6-0381288c6240","system_id":"levelo_inurba_marseille","lat":43.26551,"lon":5.37291,"is_reserved":false,"is_disabled":false,"rental_uris":{"android":"levelo://app?vid=9476fa50-eaf7-41d3-95b6-0381288c6240","ios":"levelo://app?vid=9476fa50-eaf7-41d3-95b6-0381288c6240"},"vehicle_type_id":"4","last_reported":1700752018,"current_range_meters":26400,"station_id":"ce4bhg12rcd13ifvqf70","pricing_plan_id":"free"},{"bike_id":"8ad48025-2840-4dbc-be02-03ec281422fa","system_id":"levelo_inurba_marseille","lat":43.265479,"lon":5.372899,"is_reserved":false,"is_disabled":false,"rental_uris":{"android":"levelo://app?vid=8ad48025-2840-4dbc-be02-03ec281422fa","ios":"levelo://app?vid=8ad48025-2840-4dbc-be02-03ec281422fa"},"vehicle_type_id":"4","last_reported":1700752018,"current_range_meters":27200,"station_id":"ce4bhg12rcd13ifvqf70","pricing_plan_id":"free"},{"bike_id":"28e8ce00-6b21-4e06-9930-c7c4408cc650","system_id":"levelo_inurba_marseille","lat":43.326174,"lon":5.430584,"is_reserved":false,"is_disabled":false,"rental_uris":{"android":"levelo://app?vid=28e8ce00-6b21-4e06-9930-c7c4408cc650","ios":"levelo://app?vid=28e8ce00-6b21-4e06-9930-c7c4408cc650"},"vehicle_type_id":"4","last_reported":1700752018,"current_range_meters":2400,"station_id":"","pricing_plan_id":"free"},{"bike_id":"c62de471-c94b-4a01-a172-e0b36eb8d88d","system_id":"levelo_inurba_marseille","lat":43.27996,"lon":5.416624,"is_reserved":false,"is_disabled":false,"rental_uris":{"android":"levelo://app?vid=c62de471-c94b-4a01-a172-e0b36eb8d88d","ios":"levelo://app?vid=c62de471-c94b-4a01-a172-e0b36eb8d88d"},"vehicle_type_id":"4","last_reported":1700752018,"current_range_meters":19200,"station_id":"ce4bho12rcd13ifvqh1g","pricing_plan_id":"free"},{"bike_id":"9c42760a-0ebf-4024-be3a-b9982b0d9be6","system_id":"levelo_inurba_marseille","lat":43.27996,"lon":5.416624,"is_reserved":false,"is_disabled":false,"rental_uris":{"android":"levelo://app?vid=9c42760a-0ebf-4024-be3a-b9982b0d9be6","ios":"levelo://app?vid=9c42760a-0ebf-4024-be3a-b9982b0d9be6"},"vehicle_type_id":"4","last_reported":1700752018,"current_range_meters":28000,"station_id":"ce4bho12rcd13ifvqh1g","pricing_plan_id":"free"},{"bike_id":"185c6506-c31f-4ab3-b6a4-5d409dfebce3","system_id":"levelo_inurba_marseille","lat":43.267966,"lon":5.393976,"is_reserved":false,"is_disabled":false,"rental_uris":{"android":"levelo://app?vid=185c6506-c31f-4ab3-b6a4-5d409dfebce3","ios":"levelo://app?vid=185c6506-c31f-4ab3-b6a4-5d409dfebce3"},"vehicle_type_id":"4","last_reported":1700752018,"current_range_meters":25200,"station_id":"ce4bhh12rcd13ifvqfg0","pricing_plan_id":"free"},{"bike_id":"2b5f0b27-ae58-4e9e-bd76-c585f78e8a73","system_id":"levelo_inurba_marseille","lat":43.26386,"lon":5.37454,"is_reserved":false,"is_disabled":false,"rental_uris":{"android":"levelo://app?vid=2b5f0b27-ae58-4e9e-bd76-c585f78e8a73","ios":"levelo://app?vid=2b5f0b27-ae58-4e9e-bd76-c585f78e8a73"},"vehicle_type_id":"4","last_reported":1700752018,"current_range_meters":18000,"station_id":"","pricing_plan_id":"free"},{"bike_id":"a4f24548-ba43-4b78-aece-8993d03410a3","system_id":"levelo_inurba_marseille","lat":43.266215,"lon":5.38987,"is_reserved":false,"is_disabled":false,"rental_uris":{"android":"levelo://app?vid=a4f24548-ba43-4b78-aece-8993d03410a3","ios":"levelo://app?vid=a4f24548-ba43-4b78-aece-8993d03410a3"},"vehicle_type_id":"4","last_reported":1700752018,"current_range_meters":6800,"station_id":"","pricing_plan_id":"free"},{"bike_id":"5a72c296-5d91-4ac5-a88b-5369e1512138","system_id":"levelo_inurba_marseille","lat":43.308051,"lon":5.43527,"is_reserved":false,"is_disabled":false,"rental_uris":{"android":"levelo://app?vid=5a72c296-5d91-4ac5-a88b-5369e1512138","ios":"levelo://app?vid=5a72c296-5d91-4ac5-a88b-5369e1512138"},"vehicle_type_id":"4","last_reported":1700752018,"current_range_meters":24400,"station_id":"ce4bhph2rcd13ifvqheg","pricing_plan_id":"free"},{"bike_id":"dc22160d-7442-41a9-a60d-eff6b03f21e9","system_id":"levelo_inurba_marseille","lat":43.26569,"lon":5.39018,"is_reserved":false,"is_disabled":false,"rental_uris":{"android":"levelo://app?vid=dc22160d-7442-41a9-a60d-eff6b03f21e9","ios":"levelo://app?vid=dc22160d-7442-41a9-a60d-eff6b03f21e9"},"vehicle_type_id":"4","last_reported":1700752018,"current_range_meters":24000,"station_id":"ce4bhe12rcd13ifvqf30","pricing_plan_id":"free"},{"bike_id":"45fcc99e-3ae0-4f5a-94bd-a924e353f767","system_id":"levelo_inurba_marseille","lat":43.265645,"lon":5.39023,"is_reserved":false,"is_disabled":false,"rental_uris":{"android":"levelo://app?vid=45fcc99e-3ae0-4f5a-94bd-a924e353f767","ios":"levelo://app?vid=45fcc99e-3ae0-4f5a-94bd-a924e353f767"},"vehicle_type_id":"4","last_reported":1700752018,"current_range_meters":3200,"station_id":"ce4bhe12rcd13ifvqf30","pricing_plan_id":"free"},{"bike_id":"72873903-0bc2-43cf-8402-fd3c52817465","system_id":"levelo_inurba_marseille","lat":43.26563,"lon":5.39019,"is_reserved":false,"is_disabled":false,"rental_uris":{"android":"levelo://app?vid=72873903-0bc2-43cf-8402-fd3c52817465","ios":"levelo://app?vid=72873903-0bc2-43cf-8402-fd3c52817465"},"vehicle_type_id":"4","last_reported":1700752018,"current_range_meters":2800,"station_id":"ce4bhe12rcd13ifvqf30","pricing_plan_id":"free"},{"bike_id":"33d9aaf5-29d0-4516-8e0e-c1baf77b6ba9","system_id":"levelo_inurba_marseille","lat":43.26563,"lon":5.39026,"is_reserved":false,"is_disabled":false,"rental_uris":{"android":"levelo://app?vid=33d9aaf5-29d0-4516-8e0e-c1baf77b6ba9","ios":"levelo://app?vid=33d9aaf5-29d0-4516-8e0e-c1baf77b6ba9"},"vehicle_type_id":"4","last_reported":1700752018,"current_range_meters":17600,"station_id":"ce4bhe12rcd13ifvqf30","pricing_plan_id":"free"},{"bike_id":"d5a32038-784b-4418-bfef-038c7981b2f0","system_id":"levelo_inurba_marseille","lat":43.26949,"lon":5.40262,"is_reserved":false,"is_disabled":false,"rental_uris":{"android":"levelo://app?vid=d5a32038-784b-4418-bfef-038c7981b2f0","ios":"levelo://app?vid=d5a32038-784b-4418-bfef-038c7981b2f0"},"vehicle_type_id":"4","last_reported":1700752018,"current_range_meters":22000,"station_id":"cjm6bp8fraef2m0cb0m0","pricing_plan_id":"free"},{"bike_id":"47831e0e-8d39-4129-b74a-5250c5765237","system_id":"levelo_inurba_marseille","lat":43.261782,"lon":5.374515,"is_reserved":false,"is_disabled":false,"rental_uris":{"android":"levelo://app?vid=47831e0e-8d39-4129-b74a-5250c5765237","ios":"levelo://app?vid=47831e0e-8d39-4129-b74a-5250c5765237"},"vehicle_type_id":"4","last_reported":1700752018,"current_range_meters":4000,"station_id":"ce4bhgp2rcd13ifvqfc0","pricing_plan_id":"free"},{"bike_id":"4a95ba9f-fc3b-48d3-a662-08a816164f4a","system_id":"levelo_inurba_marseille","lat":43.261782,"lon":5.374515,"is_reserved":false,"is_disabled":false,"rental_uris":{"android":"levelo://app?vid=4a95ba9f-fc3b-48d3-a662-08a816164f4a","ios":"levelo://app?vid=4a95ba9f-fc3b-48d3-a662-08a816164f4a"},"vehicle_type_id":"4","last_reported":1700752018,"current_range_meters":8400,"station_id":"ce4bhgp2rcd13ifvqfc0","pricing_plan_id":"free"},{"bike_id":"12b18236-02f7-417a-a34f-d87fc2e98b72","system_id":"levelo_inurba_marseille","lat":43.317104,"lon":5.436818,"is_reserved":false,"is_disabled":false,"rental_uris":{"android":"levelo://app?vid=12b18236-02f7-417a-a34f-d87fc2e98b72","ios":"levelo://app?vid=12b18236-02f7-417a-a34f-d87fc2e98b72"},"vehicle_type_id":"4","last_reported":1700752018,"current_range_meters":29200,"station_id":"ce4bhp92rcd13ifvqhcg","pricing_plan_id":"free"},{"bike_id":"3e51bfaa-931b-4acf-8161-43dbc322a6c0","system_id":"levelo_inurba_marseille","lat":43.262012,"lon":5.379307,"is_reserved":false,"is_disabled":false,"rental_uris":{"android":"levelo://app?vid=3e51bfaa-931b-4acf-8161-43dbc322a6c0","ios":"levelo://app?vid=3e51bfaa-931b-4acf-8161-43dbc322a6c0"},"vehicle_type_id":"4","last_reported":1700752018,"current_range_meters":31200,"station_id":"ce4bhjp2rcd13ifvqg90","pricing_plan_id":"free"},{"bike_id":"861e94e2-982b-4215-a671-df650b5b6578","system_id":"levelo_inurba_marseille","lat":43.271368,"lon":5.40928,"is_reserved":false,"is_disabled":false,"rental_uris":{"android":"levelo://app?vid=861e94e2-982b-4215-a671-df650b5b6578","ios":"levelo://app?vid=861e94e2-982b-4215-a671-df650b5b6578"},"vehicle_type_id":"4","last_reported":1700752018,"current_range_meters":30400,"station_id":"ce4bhl12rcd13ifvqgf0","pricing_plan_id":"free"},{"bike_id":"28bdf912-8ba7-4c75-b1e4-cc3e56ef56db","system_id":"levelo_inurba_marseille","lat":43.26202,"lon":5.379299,"is_reserved":false,"is_disabled":false,"rental_uris":{"android":"levelo://app?vid=28bdf912-8ba7-4c75-b1e4-cc3e56ef56db","ios":"levelo://app?vid=28bdf912-8ba7-4c75-b1e4-cc3e56ef56db"},"vehicle_type_id":"4","last_reported":1700752018,"current_range_meters":15200,"station_id":"ce4bhjp2rcd13ifvqg90","pricing_plan_id":"free"},{"bike_id":"de0ee282-eb2c-429e-98c6-ade30fe0ec8d","system_id":"levelo_inurba_marseille","lat":43.271388,"lon":5.409269,"is_reserved":false,"is_disabled":false,"rental_uris":{"android":"levelo://app?vid=de0ee282-eb2c-429e-98c6-ade30fe0ec8d","ios":"levelo://app?vid=de0ee282-eb2c-429e-98c6-ade30fe0ec8d"},"vehicle_type_id":"4","last_reported":1700752018,"current_range_meters":10800,"station_id":"ce4bhl12rcd13ifvqgf0","pricing_plan_id":"free"},{"bike_id":"fdb36c9f-2fdd-4c83-93e0-88e92e12659b","system_id":"levelo_inurba_marseille","lat":43.267959,"lon":5.402685,"is_reserved":false,"is_disabled":false,"rental_uris":{"android":"levelo://app?vid=fdb36c9f-2fdd-4c83-93e0-88e92e12659b","ios":"levelo://app?vid=fdb36c9f-2fdd-4c83-93e0-88e92e12659b"},"vehicle_type_id":"4","last_reported":1700752018,"current_range_meters":22800,"station_id":"ce501612rcd8frsf0b60","pricing_plan_id":"free"},{"bike_id":"c6fb98d5-5eb6-47f9-8abb-5be1873f085e","system_id":"levelo_inurba_marseille","lat":43.26805,"lon":5.40264,"is_reserved":false,"is_disabled":false,"rental_uris":{"android":"levelo://app?vid=c6fb98d5-5eb6-47f9-8abb-5be1873f085e","ios":"levelo://app?vid=c6fb98d5-5eb6-47f9-8abb-5be1873f085e"},"vehicle_type_id":"4","last_reported":1700752018,"current_range_meters":16000,"station_id":"ce501612rcd8frsf0b60","pricing_plan_id":"free"},{"bike_id":"b7f683d4-d9fd-457e-975f-f5cc0011e9fe","system_id":"levelo_inurba_marseille","lat":43.268046,"lon":5.402688,"is_reserved":false,"is_disabled":false,"rental_uris":{"android":"levelo://app?vid=b7f683d4-d9fd-457e-975f-f5cc0011e9fe","ios":"levelo://app?vid=b7f683d4-d9fd-457e-975f-f5cc0011e9fe"},"vehicle_type_id":"4","last_reported":1700752018,"current_range_meters":17200,"station_id":"ce501612rcd8frsf0b60","pricing_plan_id":"free"},{"bike_id":"cb16d7ee-4d8d-44c4-bc7a-142b1234ab63","system_id":"levelo_inurba_marseille","lat":43.31725,"lon":5.43786,"is_reserved":false,"is_disabled":false,"rental_uris":{"android":"levelo://app?vid=cb16d7ee-4d8d-44c4-bc7a-142b1234ab63","ios":"levelo://app?vid=cb16d7ee-4d8d-44c4-bc7a-142b1234ab63"},"vehicle_type_id":"4","last_reported":1700752018,"current_range_meters":0,"station_id":"","pricing_plan_id":"free"},{"bike_id":"d0bb53f7-f1b8-4609-a668-27efdac67f66","system_id":"levelo_inurba_marseille","lat":43.26301,"lon":5.38842,"is_reserved":false,"is_disabled":false,"rental_uris":{"android":"levelo://app?vid=d0bb53f7-f1b8-4609-a668-27efdac67f66","ios":"levelo://app?vid=d0bb53f7-f1b8-4609-a668-27efdac67f66"},"vehicle_type_id":"4","last_reported":1700752018,"current_range_meters":0,"station_id":"","pricing_plan_id":"free"},{"bike_id":"895de8b6-6f51-45cd-a58a-c7983d56547d","system_id":"levelo_inurba_marseille","lat":43.298768,"lon":5.43643,"is_reserved":false,"is_disabled":false,"rental_uris":{"android":"levelo://app?vid=895de8b6-6f51-45cd-a58a-c7983d56547d","ios":"levelo://app?vid=895de8b6-6f51-45cd-a58a-c7983d56547d"},"vehicle_type_id":"4","last_reported":1700752018,"current_range_meters":26400,"station_id":"ce4bhpp2rcd13ifvqhfg","pricing_plan_id":"free"},{"bike_id":"3f0f140e-166e-4e15-943d-0bccdbe67b8e","system_id":"levelo_inurba_marseille","lat":43.260909,"lon":5.397591,"is_reserved":false,"is_disabled":false,"rental_uris":{"android":"levelo://app?vid=3f0f140e-166e-4e15-943d-0bccdbe67b8e","ios":"levelo://app?vid=3f0f140e-166e-4e15-943d-0bccdbe67b8e"},"vehicle_type_id":"4","last_reported":1700752018,"current_range_meters":11200,"station_id":"ce4bhi12rcd13ifvqfq0","pricing_plan_id":"free"},{"bike_id":"e14584dd-d060-49ba-ba4e-7d380be725e7","system_id":"levelo_inurba_marseille","lat":43.27493,"lon":5.42451,"is_reserved":false,"is_disabled":false,"rental_uris":{"android":"levelo://app?vid=e14584dd-d060-49ba-ba4e-7d380be725e7","ios":"levelo://app?vid=e14584dd-d060-49ba-ba4e-7d380be725e7"},"vehicle_type_id":"4","last_reported":1700752018,"current_range_meters":0,"station_id":"ce4bhn92rcd13ifvqgrg","pricing_plan_id":"free"},{"bike_id":"de5529d1-ad3b-4b11-84a4-07a9dffe3d3a","system_id":"levelo_inurba_marseille","lat":43.260909,"lon":5.397591,"is_reserved":false,"is_disabled":false,"rental_uris":{"android":"levelo://app?vid=de5529d1-ad3b-4b11-84a4-07a9dffe3d3a","ios":"levelo://app?vid=de5529d1-ad3b-4b11-84a4-07a9dffe3d3a"},"vehicle_type_id":"4","last_reported":1700752018,"current_range_meters":7600,"station_id":"ce4bhi12rcd13ifvqfq0","pricing_plan_id":"free"},{"bike_id":"12cec3c5-f658-496a-951a-1ef01be2417a","system_id":"levelo_inurba_marseille","lat":43.255756,"lon":5.382303,"is_reserved":false,"is_disabled":false,"rental_uris":{"android":"levelo://app?vid=12cec3c5-f658-496a-951a-1ef01be2417a","ios":"levelo://app?vid=12cec3c5-f658-496a-951a-1ef01be2417a"},"vehicle_type_id":"4","last_reported":1700752018,"current_range_meters":31200,"station_id":"ce4bhih2rcd13ifvqfs0","pricing_plan_id":"free"},{"bike_id":"09a247f0-b196-4f79-a213-c469555c51bd","system_id":"levelo_inurba_marseille","lat":43.258224,"lon":5.394369,"is_reserved":false,"is_disabled":false,"rental_uris":{"android":"levelo://app?vid=09a247f0-b196-4f79-a213-c469555c51bd","ios":"levelo://app?vid=09a247f0-b196-4f79-a213-c469555c51bd"},"vehicle_type_id":"4","last_reported":1700752018,"current_range_meters":30800,"station_id":"ce4bhip2rcd13ifvqft0","pricing_plan_id":"free"},{"bike_id":"99e0e8a9-8e6d-4221-9bb5-666141ec9117","system_id":"levelo_inurba_marseille","lat":43.254947,"lon":5.376454,"is_reserved":false,"is_disabled":false,"rental_uris":{"android":"levelo://app?vid=99e0e8a9-8e6d-4221-9bb5-666141ec9117","ios":"levelo://app?vid=99e0e8a9-8e6d-4221-9bb5-666141ec9117"},"vehicle_type_id":"4","last_reported":1700752018,"current_range_meters":14800,"station_id":"ce4bhh12rcd13ifvqff0","pricing_plan_id":"free"},{"bike_id":"63ddc160-6039-49d3-90ad-9081f09ffb5a","system_id":"levelo_inurba_marseille","lat":43.254947,"lon":5.376454,"is_reserved":false,"is_disabled":false,"rental_uris":{"android":"levelo://app?vid=63ddc160-6039-49d3-90ad-9081f09ffb5a","ios":"levelo://app?vid=63ddc160-6039-49d3-90ad-9081f09ffb5a"},"vehicle_type_id":"4","last_reported":1700752018,"current_range_meters":23600,"station_id":"ce4bhh12rcd13ifvqff0","pricing_plan_id":"free"},{"bike_id":"1caee716-21b0-483e-b06c-f3c7e27bc64c","system_id":"levelo_inurba_marseille","lat":43.254947,"lon":5.376454,"is_reserved":false,"is_disabled":false,"rental_uris":{"android":"levelo://app?vid=1caee716-21b0-483e-b06c-f3c7e27bc64c","ios":"levelo://app?vid=1caee716-21b0-483e-b06c-f3c7e27bc64c"},"vehicle_type_id":"4","last_reported":1700752018,"current_range_meters":21600,"station_id":"ce4bhh12rcd13ifvqff0","pricing_plan_id":"free"},{"bike_id":"fdfb004f-1cec-4f8f-b113-69244b49a5b1","system_id":"levelo_inurba_marseille","lat":43.254947,"lon":5.376454,"is_reserved":false,"is_disabled":false,"rental_uris":{"android":"levelo://app?vid=fdfb004f-1cec-4f8f-b113-69244b49a5b1","ios":"levelo://app?vid=fdfb004f-1cec-4f8f-b113-69244b49a5b1"},"vehicle_type_id":"4","last_reported":1700752018,"current_range_meters":31600,"station_id":"ce4bhh12rcd13ifvqff0","pricing_plan_id":"free"},{"bike_id":"01f93f70-7088-4352-9ba2-dcb10c068540","system_id":"levelo_inurba_marseille","lat":43.27069,"lon":5.42274,"is_reserved":false,"is_disabled":false,"rental_uris":{"android":"levelo://app?vid=01f93f70-7088-4352-9ba2-dcb10c068540","ios":"levelo://app?vid=01f93f70-7088-4352-9ba2-dcb10c068540"},"vehicle_type_id":"4","last_reported":1700752018,"current_range_meters":0,"station_id":"ce4bhk92rcd13ifvqgb0","pricing_plan_id":"free"},{"bike_id":"f9097b76-3aa5-4399-b6e7-1bb7150b6810","system_id":"levelo_inurba_marseille","lat":43.270721,"lon":5.422764,"is_reserved":false,"is_disabled":false,"rental_uris":{"android":"levelo://app?vid=f9097b76-3aa5-4399-b6e7-1bb7150b6810","ios":"levelo://app?vid=f9097b76-3aa5-4399-b6e7-1bb7150b6810"},"vehicle_type_id":"4","last_reported":1700752018,"current_range_meters":27200,"station_id":"ce4bhk92rcd13ifvqgb0","pricing_plan_id":"free"},{"bike_id":"4f54d1f2-5111-48d6-b241-746024832a51","system_id":"levelo_inurba_marseille","lat":43.25933,"lon":5.40915,"is_reserved":false,"is_disabled":false,"rental_uris":{"android":"levelo://app?vid=4f54d1f2-5111-48d6-b241-746024832a51","ios":"levelo://app?vid=4f54d1f2-5111-48d6-b241-746024832a51"},"vehicle_type_id":"4","last_reported":1700752018,"current_range_meters":11600,"station_id":"ce4bhm92rcd13ifvqglg","pricing_plan_id":"free"},{"bike_id":"2c42dc32-816e-4c76-adce-f67248cdc7d5","system_id":"levelo_inurba_marseille","lat":43.257079,"lon":5.411051,"is_reserved":false,"is_disabled":false,"rental_uris":{"android":"levelo://app?vid=2c42dc32-816e-4c76-adce-f67248cdc7d5","ios":"levelo://app?vid=2c42dc32-816e-4c76-adce-f67248cdc7d5"},"vehicle_type_id":"4","last_reported":1700752018,"current_range_meters":2800,"station_id":"ce4bhkp2rcd13ifvqgd0","pricing_plan_id":"free"},{"bike_id":"97584902-988a-421a-8eb4-0aca6317a345","system_id":"levelo_inurba_marseille","lat":43.25723,"lon":5.4111,"is_reserved":false,"is_disabled":false,"rental_uris":{"android":"levelo://app?vid=97584902-988a-421a-8eb4-0aca6317a345","ios":"levelo://app?vid=97584902-988a-421a-8eb4-0aca6317a345"},"vehicle_type_id":"4","last_reported":1700752018,"current_range_meters":0,"station_id":"ce4bhkp2rcd13ifvqgd0","pricing_plan_id":"free"},{"bike_id":"d5d9a790-f1e3-4425-afc2-63428bf90d41","system_id":"levelo_inurba_marseille","lat":43.2479,"lon":5.374457,"is_reserved":false,"is_disabled":false,"rental_uris":{"android":"levelo://app?vid=d5d9a790-f1e3-4425-afc2-63428bf90d41","ios":"levelo://app?vid=d5d9a790-f1e3-4425-afc2-63428bf90d41"},"vehicle_type_id":"4","last_reported":1700752018,"current_range_meters":0,"station_id":"ce4bhgh2rcd13ifvqfb0","pricing_plan_id":"free"},{"bike_id":"f2fcfff7-37ba-4040-b049-9b648d737913","system_id":"levelo_inurba_marseille","lat":43.250966,"lon":5.395186,"is_reserved":false,"is_disabled":false,"rental_uris":{"android":"levelo://app?vid=f2fcfff7-37ba-4040-b049-9b648d737913","ios":"levelo://app?vid=f2fcfff7-37ba-4040-b049-9b648d737913"},"vehicle_type_id":"4","last_reported":1700752018,"current_range_meters":3200,"station_id":"ce4bhm12rcd13ifvqgkg","pricing_plan_id":"free"},{"bike_id":"5da84bd1-6795-45ac-8a3b-6d2d97a0528a","system_id":"levelo_inurba_marseille","lat":43.250966,"lon":5.395186,"is_reserved":false,"is_disabled":false,"rental_uris":{"android":"levelo://app?vid=5da84bd1-6795-45ac-8a3b-6d2d97a0528a","ios":"levelo://app?vid=5da84bd1-6795-45ac-8a3b-6d2d97a0528a"},"vehicle_type_id":"4","last_reported":1700752018,"current_range_meters":12800,"station_id":"ce4bhm12rcd13ifvqgkg","pricing_plan_id":"free"},{"bike_id":"be637d79-85d6-44d7-8c49-fa7b8679f6f4","system_id":"levelo_inurba_marseille","lat":43.24693,"lon":5.382096,"is_reserved":false,"is_disabled":false,"rental_uris":{"android":"levelo://app?vid=be637d79-85d6-44d7-8c49-fa7b8679f6f4","ios":"levelo://app?vid=be637d79-85d6-44d7-8c49-fa7b8679f6f4"},"vehicle_type_id":"4","last_reported":1700752018,"current_range_meters":25200,"station_id":"ce4bhih2rcd13ifvqfr0","pricing_plan_id":"free"},{"bike_id":"ecdaaafc-6478-42b3-bc8e-2f57f007c3a2","system_id":"levelo_inurba_marseille","lat":43.25102,"lon":5.403214,"is_reserved":false,"is_disabled":false,"rental_uris":{"android":"levelo://app?vid=ecdaaafc-6478-42b3-bc8e-2f57f007c3a2","ios":"levelo://app?vid=ecdaaafc-6478-42b3-bc8e-2f57f007c3a2"},"vehicle_type_id":"4","last_reported":1700752018,"current_range_meters":0,"station_id":"ce4bhlh2rcd13ifvqgig","pricing_plan_id":"free"},{"bike_id":"ccfd0e24-186c-4d25-bd97-59a2331cf68b","system_id":"levelo_inurba_marseille","lat":43.246461,"lon":5.389014,"is_reserved":false,"is_disabled":false,"rental_uris":{"android":"levelo://app?vid=ccfd0e24-186c-4d25-bd97-59a2331cf68b","ios":"levelo://app?vid=ccfd0e24-186c-4d25-bd97-59a2331cf68b"},"vehicle_type_id":"4","last_reported":1700752018,"current_range_meters":29200,"station_id":"ce4bhg12rcd13ifvqf60","pricing_plan_id":"free"},{"bike_id":"0f5edb09-3ba9-4ec8-a926-ccfa162b5272","system_id":"levelo_inurba_marseille","lat":43.243884,"lon":5.370736,"is_reserved":false,"is_disabled":false,"rental_uris":{"android":"levelo://app?vid=0f5edb09-3ba9-4ec8-a926-ccfa162b5272","ios":"levelo://app?vid=0f5edb09-3ba9-4ec8-a926-ccfa162b5272"},"vehicle_type_id":"4","last_reported":1700752018,"current_range_meters":27200,"station_id":"ce4bhhh2rcd13ifvqfk0","pricing_plan_id":"free"},{"bike_id":"c8190a55-c5ac-4b7b-a73d-1537cc3b1174","system_id":"levelo_inurba_marseille","lat":43.243884,"lon":5.370737,"is_reserved":false,"is_disabled":false,"rental_uris":{"android":"levelo://app?vid=c8190a55-c5ac-4b7b-a73d-1537cc3b1174","ios":"levelo://app?vid=c8190a55-c5ac-4b7b-a73d-1537cc3b1174"},"vehicle_type_id":"4","last_reported":1700752018,"current_range_meters":11200,"station_id":"ce4bhhh2rcd13ifvqfk0","pricing_plan_id":"free"},{"bike_id":"64e98e30-f1d1-4330-90f9-642d9a7db540","system_id":"levelo_inurba_marseille","lat":43.240623,"lon":5.377642,"is_reserved":false,"is_disabled":false,"rental_uris":{"android":"levelo://app?vid=64e98e30-f1d1-4330-90f9-642d9a7db540","ios":"levelo://app?vid=64e98e30-f1d1-4330-90f9-642d9a7db540"},"vehicle_type_id":"4","last_reported":1700752018,"current_range_meters":31200,"station_id":"ce4bhnp2rcd13ifvqgvg","pricing_plan_id":"free"},{"bike_id":"6b9b4b4c-d489-48bd-aeb0-342de19da5e0","system_id":"levelo_inurba_marseille","lat":43.240623,"lon":5.377642,"is_reserved":false,"is_disabled":false,"rental_uris":{"android":"levelo://app?vid=6b9b4b4c-d489-48bd-aeb0-342de19da5e0","ios":"levelo://app?vid=6b9b4b4c-d489-48bd-aeb0-342de19da5e0"},"vehicle_type_id":"4","last_reported":1700752018,"current_range_meters":31200,"station_id":"ce4bhnp2rcd13ifvqgvg","pricing_plan_id":"free"},{"bike_id":"c6e52e59-1562-4cc5-8067-418322e8937c","system_id":"levelo_inurba_marseille","lat":43.240623,"lon":5.377642,"is_reserved":false,"is_disabled":false,"rental_uris":{"android":"levelo://app?vid=c6e52e59-1562-4cc5-8067-418322e8937c","ios":"levelo://app?vid=c6e52e59-1562-4cc5-8067-418322e8937c"},"vehicle_type_id":"4","last_reported":1700752018,"current_range_meters":23600,"station_id":"ce4bhnp2rcd13ifvqgvg","pricing_plan_id":"free"},{"bike_id":"080eca2d-9c58-4287-9a23-b74b8d2013bc","system_id":"levelo_inurba_marseille","lat":43.240623,"lon":5.377642,"is_reserved":false,"is_disabled":false,"rental_uris":{"android":"levelo://app?vid=080eca2d-9c58-4287-9a23-b74b8d2013bc","ios":"levelo://app?vid=080eca2d-9c58-4287-9a23-b74b8d2013bc"},"vehicle_type_id":"4","last_reported":1700752018,"current_range_meters":28400,"station_id":"ce4bhnp2rcd13ifvqgvg","pricing_plan_id":"free"},{"bike_id":"fc1d4c33-8a88-4c5f-b4f7-02dabd425c6d","system_id":"levelo_inurba_marseille","lat":43.240623,"lon":5.377642,"is_reserved":false,"is_disabled":false,"rental_uris":{"android":"levelo://app?vid=fc1d4c33-8a88-4c5f-b4f7-02dabd425c6d","ios":"levelo://app?vid=fc1d4c33-8a88-4c5f-b4f7-02dabd425c6d"},"vehicle_type_id":"4","last_reported":1700752018,"current_range_meters":31600,"station_id":"ce4bhnp2rcd13ifvqgvg","pricing_plan_id":"free"},{"bike_id":"5af44420-f288-487d-abf9-5f4de05fc437","system_id":"levelo_inurba_marseille","lat":43.239588,"lon":5.366238,"is_reserved":false,"is_disabled":false,"rental_uris":{"android":"levelo://app?vid=5af44420-f288-487d-abf9-5f4de05fc437","ios":"levelo://app?vid=5af44420-f288-487d-abf9-5f4de05fc437"},"vehicle_type_id":"4","last_reported":1700752018,"current_range_meters":22800,"station_id":"ce4bhi12rcd13ifvqfp0","pricing_plan_id":"free"},