{"last_updated":1761192792,"ttl":60,"version":"2.2","data":{"bikes":[{"bike_id":"d64b2f69-b006-455d-ac12-4b32b078fbee","system_id":"levelo_inurba_marseille","lat":43.28722,"lon":5.37385,"is_reserved":false,"is_disabled":false,"rental_uris":{"android":"levelo://app?vid=d64b2f69-b006-455d-ac12-4b32b078fbee","ios":"levelo://app?vid=d64b2f69-b006-455d-ac12-4b32b078fbee"},"vehicle_type_id":"4","last_reported":1761192792,"current_range_meters":2800,"station_id":"ce4bh3p2rcd13ifvqdq0","pricing_plan_id":"cebpf4jnsgd1na2vs0mg"},{"bike_id":"a870d8c4-d388-4bd8-a292-a2b1665e7e0e","system_id":"levelo_inurba_marseille","lat":43.304308,"lon":5.405861,"is_reserved":false,"is_disabled":false,"rental_uris":{"android":"levelo://app?vid=a870d8c4-d388-4bd8-a292-a2b1665e7e0e","ios":"levelo://app?vid=a870d8c4-d388-4bd8-a292-a2b1665e7e0e"},"vehicle_type_id":"4","last_reported":1761192792,"current_range_meters":2800,"station_id":"","pricing_plan_id":"cebpf4jnsgd1na2vs0mg"},{"bike_id":"56de7ac9-ac79-483d-84ff-a29ab8ac4821","system_id":"levelo_inurba_marseille","lat":43.286142,"lon":5.351088,"is_reserved":false,"is_disabled":false,"rental_uris":{"android":"levelo://app?vid=56de7ac9-ac79-483d-84ff-a29ab8ac4821","ios":"levelo://app?vid=56de7ac9-ac79-483d-84ff-a29ab8ac4821"},"vehicle_type_id":"4","last_reported":1761192792,"current_range_meters":2800,"station_id":"ce4bhch2rcd13ifvqeug","pricing_plan_id":"cebpf4jnsgd1na2vs0mg"},{"bike_id":"76c92f4f-b2d3-49e5-93fa-99f0ea2296c0","system_id":"levelo_inurba_marseille","lat":43.29698,"lon":5.36593,"is_reserved":false,"is_disabled":false,"rental_uris":{"android":"levelo://app?vid=76c92f4f-b2d3-49e5-93fa-99f0ea2296c0","ios":"levelo://app?vid=76c92f4f-b2d3-49e5-93fa-99f0ea2296c0"},"vehicle_type_id":"4","last_reported":1761192792,"current_range_meters":3200,"station_id":"ce4bgn12rcd13ifvqbt0","pricing_plan_id":"cebpf4jnsgd1na2vs0mg"},{"bike_id":"48b8e499-3765-4026-8395-f8203eb5314a","system_id":"levelo_inurba_marseille","lat":43.28435,"lon":5.34974,"is_reserved":false,"is_disabled":false,"rental_uris":{"android":"levelo://app?vid=48b8e499-3765-4026-8395-f8203eb5314a","ios":"levelo://app?vid=48b8e499-3765-4026-8395-f8203eb5314a"},"vehicle_type_id":"4","last_reported":1761192792,"current_range_meters":3200,"station_id":"ce4bhbh2rcd13ifvqepg","pricing_plan_id":"cebpf4jnsgd1na2vs0mg"},{"bike_id":"41616ae1-2a08-4621-a1fb-5f69a79d18d3","system_id":"levelo_inurba_marseille","lat":43.29279,"lon":5.40166,"is_reserved":false,"is_disabled":false,"rental_uris":{"android":"levelo://app?vid=41616ae1-2a08-4621-a1fb-5f69a79d18d3","ios":"levelo://app?vid=41616ae1-2a08-4621-a1fb-5f69a79d18d3"},"vehicle_type_id":"4","last_reported":1761192792,"current_range_meters":3200,"station_id":"ce4bh312rcd13ifvqdk0","pricing_plan_id":"cebpf4jnsgd1na2vs0mg"},{"bike_id":"f34cc125-0c42-42b1-913f-43595d94e046","system_id":"levelo_inurba_marseille","lat":43.29785,"lon":5.38184,"is_reserved":false,"is_disabled":false,"rental_uris":{"android":"levelo://app?vid=f34cc125-0c42-42b1-913f-43595d94e046","ios":"levelo://app?vid=f34cc125-0c42-42b1-913f-43595d94e046"},"vehicle_type_id":"4","last_reported":1761192792,"current_range_meters":3600,"station_id":"","pricing_plan_id":"cebpf4jnsgd1na2vs0mg"},{"bike_id":"49d77014-0e67-4145-a458-9e7a551c9b23","system_id":"levelo_inurba_marseille","lat":43.28547,"lon":5.44095,"is_reserved":false,"is_disabled":false,"rental_uris":{"android":"levelo://app?vid=49d77014-0e67-4145-a458-9e7a551c9b23","ios":"levelo://app?vid=49d77014-0e67-4145-a458-9e7a551c9b23"},"vehicle_type_id":"4","last_reported":1761192792,"current_range_meters":3600,"station_id":"st_d3j3df2ikq2c7380ej80","pricing_plan_id":"cebpf4jnsgd1na2vs0mg"},{"bike_id":"c374a3ec-2b9a-4a1b-b687-4eb6009415e2","system_id":"levelo_inurba_marseille","lat":43.240724,"lon":5.377505,"is_reserved":false,"is_disabled":false,"rental_uris":{"android":"levelo://app?vid=c374a3ec-2b9a-4a1b-b687-4eb6009415e2","ios":"levelo://app?vid=c374a3ec-2b9a-4a1b-b687-4eb6009415e2"},"vehicle_type_id":"4","last_reported":1761192792,"current_range_meters":3600,"station_id":"ce4bhnp2rcd13ifvqgvg","pricing_plan_id":"cebpf4jnsgd1na2vs0mg"},{"bike_id":"66bec76d-d7e9-4a1e-a715-39e56334bf96","system_id":"levelo_inurba_marseille","lat":43.28283,"lon":5.39627,"is_reserved":false,"is_disabled":false,"rental_uris":{"android":"levelo://app?vid=66bec76d-d7e9-4a1e-a715-39e56334bf96","ios":"levelo://app?vid=66bec76d-d7e9-4a1e-a715-39e56334bf96"},"vehicle_type_id":"4","last_reported":1761192792,"current_range_meters":4000,"station_id":"","pricing_plan_id":"cebpf4jnsgd1na2vs0mg"},{"bike_id":"3d068a7d-8c2c-4f97-8d7d-54140fa95800","system_id":"levelo_inurba_marseille","lat":43.2736,"lon":5.39889,"is_reserved":false,"is_disabled":false,"rental_uris":{"android":"levelo://app?vid=3d068a7d-8c2c-4f97-8d7d-54140fa95800","ios":"levelo://app?vid=3d068a7d-8c2c-4f97-8d7d-54140fa95800"},"vehicle_type_id":"4","last_reported":1761192792,"current_range_meters":4000,"station_id":"","pricing_plan_id":"cebpf4jnsgd1na2vs0mg"},{"bike_id":"d11d5ebd-6e05-4007-bbc3-6120c3704d71","system_id":"levelo_inurba_marseille","lat":43.279208,"lon":5.395852,"is_reserved":false,"is_disabled":false,"rental_uris":{"android":"levelo://app?vid=d11d5ebd-6e05-4007-bbc3-6120c3704d71","ios":"levelo://app?vid=d11d5ebd-6e05-4007-bbc3-6120c3704d71"},"vehicle_type_id":"4","last_reported":1761192792,"current_range_meters":4000,"station_id":"ce4bhf92rcd13ifvqf40","pricing_plan_id":"cebpf4jnsgd1na2vs0mg"},{"bike_id":"158efa80-12ab-4b7d-8a51-8d3a468fcc07","system_id":"levelo_inurba_marseille","lat":43.21197,"lon":5.35058,"is_reserved":false,"is_disabled":true,"rental_uris":{"android":"levelo://app?vid=158efa80-12ab-4b7d-8a51-8d3a468fcc07","ios":"levelo://app?vid=158efa80-12ab-4b7d-8a51-8d3a468fcc07"},"vehicle_type_id":"4","last_reported":1761192792,"current_range_meters":4400,"station_id":"","pricing_plan_id":"cebpf4jnsgd1na2vs0mg"},{"bike_id":"3ae2ab6e-8616-4f5b-acea-6112edc96854","system_id":"levelo_inurba_marseille","lat":43.3191,"lon":5.40721,"is_reserved":false,"is_disabled":false,"rental_uris":{"android":"levelo://app?vid=3ae2ab6e-8616-4f5b-acea-6112edc96854","ios":"levelo://app?vid=3ae2ab6e-8616-4f5b-acea-6112edc96854"},"vehicle_type_id":"4","last_reported":1761192792,"current_range_meters":5600,"station_id":"ce4bhq12rcd13ifvqhig","pricing_plan_id":"cebpf4jnsgd1na2vs0mg"},{"bike_id":"563add41-42b5-4a40-a2f4-2f753e2062a9","system_id":"levelo_inurba_marseille","lat":43.28765,"lon":5.3634,"is_reserved":false,"is_disabled":false,"rental_uris":{"android":"levelo://app?vid=563add41-42b5-4a40-a2f4-2f753e2062a9","ios":"levelo://app?vid=563add41-42b5-4a40-a2f4-2f753e2062a9"},"vehicle_type_id":"4","last_reported":1761192792,"current_range_meters":5600,"station_id":"","pricing_plan_id":"cebpf4jnsgd1na2vs0mg"},{"bike_id":"3201e625-69d5-420e-838c-f4c3f44666ef","system_id":"levelo_inurba_marseille","lat":43.33774,"lon":5.37435,"is_reserved":false,"is_disabled":false,"rental_uris":{"android":"levelo://app?vid=3201e625-69d5-420e-838c-f4c3f44666ef","ios":"levelo://app?vid=3201e625-69d5-420e-838c-f4c3f44666ef"},"vehicle_type_id":"4","last_reported":1761192792,"current_range_meters":5600,"station_id":"","pricing_plan_id":"cebpf4jnsgd1na2vs0mg"},{"bike_id":"2b812646-b6d2-423a-8819-b87e8de55263","system_id":"levelo_inurba_marseille","lat":43.24074,"lon":5.37761,"is_reserved":false,"is_disabled":false,"rental_uris":{"android":"levelo://app?vid=2b812646-b6d2-423a-8819-b87e8de55263","ios":"levelo://app?vid=2b812646-b6d2-423a-8819-b87e8de55263"},"vehicle_type_id":"4","last_reported":1761192792,"current_range_meters":5600,"station_id":"ce4bhnp2rcd13ifvqgvg","pricing_plan_id":"cebpf4jnsgd1na2vs0mg"},{"bike_id":"da3c5d5d-639d-4a11-88e1-f7b9c2ad220a","system_id":"levelo_inurba_marseille","lat":43.31566,"lon":5.37786,"is_reserved":false,"is_disabled":true,"rental_uris":{"android":"levelo://app?vid=da3c5d5d-639d-4a11-88e1-f7b9c2ad220a","ios":"levelo://app?vid=da3c5d5d-639d-4a11-88e1-f7b9c2ad220a"},"vehicle_type_id":"4","last_reported":1761192792,"current_range_meters":5600,"station_id":"","pricing_plan_id":"cebpf4jnsgd1na2vs0mg"},{"bike_id":"bf2f4fe3-062c-4c88-aa58-a55bd96f1cd3","system_id":"levelo_inurba_marseille","lat":43.31482,"lon":5.37298,"is_reserved":false,"is_disabled":false,"rental_uris":{"android":"levelo://app?vid=bf2f4fe3-062c-4c88-aa58-a55bd96f1cd3","ios":"levelo://app?vid=bf2f4fe3-062c-4c88-aa58-a55bd96f1cd3"},"vehicle_type_id":"4","last_reported":1761192792,"current_range_meters":6000,"station_id":"ce4bgt12rcd13ifvqcd0","pricing_plan_id":"cebpf4jnsgd1na2vs0mg"},{"bike_id":"a7b06526-aea6-4369-9939-dc263cf58f1c","system_id":"levelo_inurba_marseille","lat":43.27829,"lon":5.39213,"is_reserved":false,"is_disabled":true,"rental_uris":{"android":"levelo://app?vid=a7b06526-aea6-4369-9939-dc263cf58f1c","ios":"levelo://app?vid=a7b06526-aea6-4369-9939-dc263cf58f1c"},"vehicle_type_id":"4","last_reported":1761192792,"current_range_meters":6000,"station_id":"ce4bhjp2rcd13ifvqga0","pricing_plan_id":"cebpf4jnsgd1na2vs0mg"},{"bike_id":"8a08a765-f557-4802-8298-119762b30fe3","system_id":"levelo_inurba_marseille","lat":43.26222,"lon":5.37452,"is_reserved":false,"is_disabled":false,"rental_uris":{"android":"levelo://app?vid=8a08a765-f557-4802-8298-119762b30fe3","ios":"levelo://app?vid=8a08a765-f557-4802-8298-119762b30fe3"},"vehicle_type_id":"4","last_reported":1761192792,"current_range_meters":6000,"station_id":"ce4bhgp2rcd13ifvqfc0","pricing_plan_id":"cebpf4jnsgd1na2vs0mg"},{"bike_id":"b7e41c34-cad5-468c-aadc-3ef8a1845b5a","system_id":"levelo_inurba_marseille","lat":43.28151,"lon":5.36147,"is_reserved":false,"is_disabled":false,"rental_uris":{"android":"levelo://app?vid=b7e41c34-cad5-468c-aadc-3ef8a1845b5a","ios":"levelo://app?vid=b7e41c34-cad5-468c-aadc-3ef8a1845b5a"},"vehicle_type_id":"4","last_reported":1761192792,"current_range_meters":6400,"station_id":"","pricing_plan_id":"cebpf4jnsgd1na2vs0mg"},{"bike_id":"97585d63-cae0-46a3-8fec-9651d52b3156","system_id":"levelo_inurba_marseille","lat":43.27907,"lon":5.38007,"is_reserved":false,"is_disabled":true,"rental_uris":{"android":"levelo://app?vid=97585d63-cae0-46a3-8fec-9651d52b3156","ios":"levelo://app?vid=97585d63-cae0-46a3-8fec-9651d52b3156"},"vehicle_type_id":"4","last_reported":1761192792,"current_range_meters":6400,"station_id":"ce4bhf92rcd13ifvqf50","pricing_plan_id":"cebpf4jnsgd1na2vs0mg"},{"bike_id":"c78ceb28-c149-49e7-b369-78d6f00dbd37","system_id":"levelo_inurba_marseille","lat":43.31204,"lon":5.37967,"is_reserved":false,"is_disabled":false,"rental_uris":{"android":"levelo://app?vid=c78ceb28-c149-49e7-b369-78d6f00dbd37","ios":"levelo://app?vid=c78ceb28-c149-49e7-b369-78d6f00dbd37"},"vehicle_type_id":"4","last_reported":1761192792,"current_range_meters":6400,"station_id":"","pricing_plan_id":"cebpf4jnsgd1na2vs0mg"},{"bike_id":"b8457e49-45d1-4539-8d31-1eb0283df508","system_id":"levelo_inurba_marseille","lat":43.33168,"lon":5.35507,"is_reserved":false,"is_disabled":false,"rental_uris":{"android":"levelo://app?vid=b8457e49-45d1-4539-8d31-1eb0283df508","ios":"levelo://app?vid=b8457e49-45d1-4539-8d31-1eb0283df508"},"vehicle_type_id":"4","last_reported":1761192792,"current_range_meters":6400,"station_id":"","pricing_plan_id":"cebpf4jnsgd1na2vs0mg"},{"bike_id":"7ffbdf46-1d13-4e32-ad8f-b99766448a99","system_id":"levelo_inurba_marseille","lat":43.315734,"lon":5.388731,"is_reserved":false,"is_disabled":false,"rental_uris":{"android":"levelo://app?vid=7ffbdf46-1d13-4e32-ad8f-b99766448a99","ios":"levelo://app?vid=7ffbdf46-1d13-4e32-ad8f-b99766448a99"},"vehicle_type_id":"4","last_reported":1761192792,"current_range_meters":6400,"station_id":"","pricing_plan_id":"cebpf4jnsgd1na2vs0mg"},{"bike_id":"0c8b83e7-c365-4b7c-87cc-9e35b50af735","system_id":"levelo_inurba_marseille","lat":43.28298,"lon":5.35076,"is_reserved":false,"is_disabled":false,"rental_uris":{"android":"levelo://app?vid=0c8b83e7-c365-4b7c-87cc-9e35b50af735","ios":"levelo://app?vid=0c8b83e7-c365-4b7c-87cc-9e35b50af735"},"vehicle_type_id":"4","last_reported":1761192792,"current_range_meters":6800,"station_id":"ce4bhbp2rcd13ifvqerg","pricing_plan_id":"cebpf4jnsgd1na2vs0mg"},{"bike_id":"97602c79-ec6d-4034-9cc2-d9745a16d84f","system_id":"levelo_inurba_marseille","lat":43.30796,"lon":5.38177,"is_reserved":false,"is_disabled":false,"rental_uris":{"android":"levelo://app?vid=97602c79-ec6d-4034-9cc2-d9745a16d84f","ios":"levelo://app?vid=97602c79-ec6d-4034-9cc2-d9745a16d84f"},"vehicle_type_id":"4","last_reported":1761192792,"current_range_meters":6800,"station_id":"ce4bgt12rcd13ifvqce0","pricing_plan_id":"cebpf4jnsgd1na2vs0mg"},{"bike_id":"097300c8-be25-41b9-bc9c-c1bd3901634c","system_id":"levelo_inurba_marseille","lat":43.25085,"lon":5.39509,"is_reserved":false,"is_disabled":false,"rental_uris":{"android":"levelo://app?vid=097300c8-be25-41b9-bc9c-c1bd3901634c","ios":"levelo://app?vid=097300c8-be25-41b9-bc9c-c1bd3901634c"},"vehicle_type_id":"4","last_reported":1761192792,"current_range_meters":6800,"station_id":"ce4bhm12rcd13ifvqgkg","pricing_plan_id":"cebpf4jnsgd1na2vs0mg"},{"bike_id":"f13cde0d-45ed-40f4-94c1-3377bc18932c","system_id":"levelo_inurba_marseille","lat":43.303762,"lon":5.424814,"is_reserved":false,"is_disabled":false,"rental_uris":{"android":"levelo://app?vid=f13cde0d-45ed-40f4-94c1-3377bc18932c","ios":"levelo://app?vid=f13cde0d-45ed-40f4-94c1-3377bc18932c"},"vehicle_type_id":"4","last_reported":1761192792,"current_range_meters":6800,"station_id":"ce4bhoh2rcd13ifvqh6g","pricing_plan_id":"cebpf4jnsgd1na2vs0mg"},{"bike_id":"ac1df8dc-41e5-4954-977f-6f21ed12d11a","system_id":"levelo_inurba_marseille","lat":43.21755,"lon":5.34597,"is_reserved":false,"is_disabled":false,"rental_uris":{"android":"levelo://app?vid=ac1df8dc-41e5-4954-977f-6f21ed12d11a","ios":"levelo://app?vid=ac1df8dc-41e5-4954-977f-6f21ed12d11a"},"vehicle_type_id":"4","last_reported":1761192792,"current_range_meters":7200,"station_id":"st_cvj6r9ubvosntc0bgbag","pricing_plan_id":"cebpf4jnsgd1na2vs0mg"},{"bike_id":"3b61b380-3926-4755-bae0-9ddfc3d8c480","system_id":"levelo_inurba_marseille","lat":43.24966,"lon":5.40488,"is_reserved":false,"is_disabled":false,"rental_uris":{"android":"levelo://app?vid=3b61b380-3926-4755-bae0-9ddfc3d8c480","ios":"levelo://app?vid=3b61b380-3926-4755-bae0-9ddfc3d8c480"},"vehicle_type_id":"4","last_reported":1761192792,"current_range_meters":7200,"station_id":"st_d2ngiaodas8pm72gd1h0","pricing_plan_id":"cebpf4jnsgd1na2vs0mg"},{"bike_id":"76dff460-afc5-48c4-81d8-fda45aac3b09","system_id":"levelo_inurba_marseille","lat":43.27633,"lon":5.36145,"is_reserved":false,"is_disabled":true,"rental_uris":{"android":"levelo://app?vid=76dff460-afc5-48c4-81d8-fda45aac3b09","ios":"levelo://app?vid=76dff460-afc5-48c4-81d8-fda45aac3b09"},"vehicle_type_id":"4","last_reported":1761192792,"current_range_meters":8000,"station_id":"ce4bgj92rcd13ifvqbe0","pricing_plan_id":"cebpf4jnsgd1na2vs0mg"},{"bike_id":"5170909c-0915-47d6-ab69-6e165aae5206","system_id":"levelo_inurba_marseille","lat":43.27854,"lon":5.39206,"is_reserved":false,"is_disabled":false,"rental_uris":{"android":"levelo://app?vid=5170909c-0915-47d6-ab69-6e165aae5206","ios":"levelo://app?vid=5170909c-0915-47d6-ab69-6e165aae5206"},"vehicle_type_id":"4","last_reported":1761192792,"current_range_meters":8000,"station_id":"ce4bhjp2rcd13ifvqga0","pricing_plan_id":"cebpf4jnsgd1na2vs0mg"},{"bike_id":"4579d17c-c380-4d64-ad08-0f15474b13c4","system_id":"levelo_inurba_marseille","lat":43.253372,"lon":5.421787,"is_reserved":false,"is_disabled":false,"rental_uris":{"android":"levelo://app?vid=4579d17c-c380-4d64-ad08-0f15474b13c4","ios":"levelo://app?vid=4579d17c-c380-4d64-ad08-0f15474b13c4"},"vehicle_type_id":"4","last_reported":1761192792,"current_range_meters":8000,"station_id":"st_d2m65c5bi1j21697t3ng","pricing_plan_id":"cebpf4jnsgd1na2vs0mg"},{"bike_id":"35796a5a-bbcf-4972-a0f6-695729f8f723","system_id":"levelo_inurba_marseille","lat":43.28612,"lon":5.37064,"is_reserved":false,"is_disabled":false,"rental_uris":{"android":"levelo://app?vid=35796a5a-bbcf-4972-a0f6-695729f8f723","ios":"levelo://app?vid=35796a5a-bbcf-4972-a0f6-695729f8f723"},"vehicle_type_id":"4","last_reported":1761192792,"current_range_meters":8000,"station_id":"ce4bht12rcd13ifvqi60","pricing_plan_id":"cebpf4jnsgd1na2vs0mg"},{"bike_id":"02f7835e-8895-43db-bc46-dc0659a292d5","system_id":"levelo_inurba_marseille","lat":43.29331,"lon":5.3707,"is_reserved":false,"is_disabled":false,"rental_uris":{"android":"levelo://app?vid=02f7835e-8895-43db-bc46-dc0659a292d5","ios":"levelo://app?vid=02f7835e-8895-43db-bc46-dc0659a292d5"},"vehicle_type_id":"4","last_reported":1761192792,"current_range_meters":8000,"station_id":"","pricing_plan_id":"cebpf4jnsgd1na2vs0mg"},{"bike_id":"7d2d5787-0ce3-440b-bd99-871ac3e090ec","system_id":"levelo_inurba_marseille","lat":43.28882,"lon":5.37871,"is_reserved":false,"is_disabled":false,"rental_uris":{"android":"levelo://app?vid=7d2d5787-0ce3-440b-bd99-871ac3e090ec","ios":"levelo://app?vid=7d2d5787-0ce3-440b-bd99-871ac3e090ec"},"vehicle_type_id":"4","last_reported":1761192792,"current_range_meters":8400,"station_id":"","pricing_plan_id":"cebpf4jnsgd1na2vs0mg"},{"bike_id":"236e14f1-f822-4ade-ac8b-316197c3738f","system_id":"levelo_inurba_marseille","lat":43.30657,"lon":5.40078,"is_reserved":false,"is_disabled":false,"rental_uris":{"android":"levelo://app?vid=236e14f1-f822-4ade-ac8b-316197c3738f","ios":"levelo://app?vid=236e14f1-f822-4ade-ac8b-316197c3738f"},"vehicle_type_id":"4","last_reported":1761192792,"current_range_meters":8400,"station_id":"ce4bh112rcd13ifvqda0","pricing_plan_id":"cebpf4jnsgd1na2vs0mg"},{"bike_id":"c4432b73-0adb-475d-83b3-18f6e7bba483","system_id":"levelo_inurba_marseille","lat":43.32138,"lon":5.40808,"is_reserved":false,"is_disabled":false,"rental_uris":{"android":"levelo://app?vid=c4432b73-0adb-475d-83b3-18f6e7bba483","ios":"levelo://app?vid=c4432b73-0adb-475d-83b3-18f6e7bba483"},"vehicle_type_id":"4","last_reported":1761192792,"current_range_meters":8400,"station_id":"","pricing_plan_id":"cebpf4jnsgd1na2vs0mg"},{"bike_id":"44b1ad6b-1a98-4e37-a182-f58df3beccce","system_id":"levelo_inurba_marseille","lat":43.211997,"lon":5.35077,"is_reserved":false,"is_disabled":true,"rental_uris":{"android":"levelo://app?vid=44b1ad6b-1a98-4e37-a182-f58df3beccce","ios":"levelo://app?vid=44b1ad6b-1a98-4e37-a182-f58df3beccce"},"vehicle_type_id":"4","last_reported":1761192792,"current_range_meters":8800,"station_id":"","pricing_plan_id":"cebpf4jnsgd1na2vs0mg"},{"bike_id":"c68f665a-6efd-4c07-8f31-2344023dad7f","system_id":"levelo_inurba_marseille","lat":43.28612,"lon":5.37063,"is_reserved":false,"is_disabled":false,"rental_uris":{"android":"levelo://app?vid=c68f665a-6efd-4c07-8f31-2344023dad7f","ios":"levelo://app?vid=c68f665a-6efd-4c07-8f31-2344023dad7f"},"vehicle_type_id":"4","last_reported":1761192792,"current_range_meters":8800,"station_id":"ce4bht12rcd13ifvqi60","pricing_plan_id":"cebpf4jnsgd1na2vs0mg"},{"bike_id":"89dd87c4-c8d0-4de7-8902-2b0447e67475","system_id":"levelo_inurba_marseille","lat":43.31232,"lon":5.36877,"is_reserved":false,"is_disabled":true,"rental_uris":{"android":"levelo://app?vid=89dd87c4-c8d0-4de7-8902-2b0447e67475","ios":"levelo://app?vid=89dd87c4-c8d0-4de7-8902-2b0447e67475"},"vehicle_type_id":"4","last_reported":1761192792,"current_range_meters":8800,"station_id":"","pricing_plan_id":"cebpf4jnsgd1na2vs0mg"},{"bike_id":"bdb2e266-06fe-4408-875a-4d00460ebc09","system_id":"levelo_inurba_marseille","lat":43.30496,"lon":5.37254,"is_reserved":false,"is_disabled":false,"rental_uris":{"android":"levelo://app?vid=bdb2e266-06fe-4408-875a-4d00460ebc09","ios":"levelo://app?vid=bdb2e266-06fe-4408-875a-4d00460ebc09"},"vehicle_type_id":"4","last_reported":1761192792,"current_range_meters":8800,"station_id":"","pricing_plan_id":"cebpf4jnsgd1na2vs0mg"},{"bike_id":"4d3fc0cd-61a7-4d9d-bdcd-9c71bdf921ee","system_id":"levelo_inurba_marseille","lat":43.307937,"lon":5.381585,"is_reserved":false,"is_disabled":false,"rental_uris":{"android":"levelo://app?vid=4d3fc0cd-61a7-4d9d-bdcd-9c71bdf921ee","ios":"levelo://app?vid=4d3fc0cd-61a7-4d9d-bdcd-9c71bdf921ee"},"vehicle_type_id":"4","last_reported":1761192792,"current_range_meters":8800,"station_id":"ce4bgt12rcd13ifvqce0","pricing_plan_id":"cebpf4jnsgd1na2vs0mg"},{"bike_id":"30b310ad-ec20-4448-864e-4d11e2b074fa","system_id":"levelo_inurba_marseille","lat":43.24805,"lon":5.37451,"is_reserved":false,"is_disabled":false,"rental_uris":{"android":"levelo://app?vid=30b310ad-ec20-4448-864e-4d11e2b074fa","ios":"levelo://app?vid=30b310ad-ec20-4448-864e-4d11e2b074fa"},"vehicle_type_id":"4","last_reported":1761192792,"current_range_meters":8800,"station_id":"ce4bhgh2rcd13ifvqfb0","pricing_plan_id":"cebpf4jnsgd1na2vs0mg"},{"bike_id":"ff25ea38-015a-49e7-bad0-1b2dce2cffe0","system_id":"levelo_inurba_marseille","lat":43.2964,"lon":5.4064,"is_reserved":false,"is_disabled":false,"rental_uris":{"android":"levelo://app?vid=ff25ea38-015a-49e7-bad0-1b2dce2cffe0","ios":"levelo://app?vid=ff25ea38-015a-49e7-bad0-1b2dce2cffe0"},"vehicle_type_id":"4","last_reported":1761192792,"current_range_meters":8800,"station_id":"ce4bh0h2rcd13ifvqd60","pricing_plan_id":"cebpf4jnsgd1na2vs0mg"},{"bike_id":"26bb77a2-e7fc-45b1-a09c-a251319de07e","system_id":"levelo_inurba_marseille","lat":43.294436,"lon":5.39758,"is_reserved":false,"is_disabled":false,"rental_uris":{"android":"levelo://app?vid=26bb77a2-e7fc-45b1-a09c-a251319de07e","ios":"levelo://app?vid=26bb77a2-e7fc-45b1-a09c-a251319de07e"},"vehicle_type_id":"4","last_reported":1761192792,"current_range_meters":9200,"station_id":"ce4bh3h2rcd13ifvqdo0","pricing_plan_id":"cebpf4jnsgd1na2vs0mg"},{"bike_id":"f24765d2-3be6-4065-ae28-75cab44ee818","system_id":"levelo_inurba_marseille","lat":43.28372,"lon":5.38616,"is_reserved":false,"is_disabled":false,"rental_uris":{"android":"levelo://app?vid=f24765d2-3be6-4065-ae28-75cab44ee818","ios":"levelo://app?vid=f24765d2-3be6-4065-ae28-75cab44ee818"},"vehicle_type_id":"4","last_reported":1761192792,"current_range_meters":9200,"station_id":"ce4bh492rcd13ifvqdvg","pricing_plan_id":"cebpf4jnsgd1na2vs0mg"},{"bike_id":"82576c51-8b9b-43eb-aa43-fc4a18c9ea5b","system_id":"levelo_inurba_marseille","lat":43.2176,"lon":5.34615,"is_reserved":false,"is_disabled":false,"rental_uris":{"android":"levelo://app?vid=82576c51-8b9b-43eb-aa43-fc4a18c9ea5b","ios":"levelo://app?vid=82576c51-8b9b-43eb-aa43-fc4a18c9ea5b"},"vehicle_type_id":"4","last_reported":1761192792,"current_range_meters":9200,"station_id":"st_cvj6r9ubvosntc0bgbag","pricing_plan_id":"cebpf4jnsgd1na2vs0mg"},{"bike_id":"fe5786a2-3cbd-4e30-8ddf-18df8db18ee6","system_id":"levelo_inurba_marseille","lat":43.3001,"lon":5.37172,"is_reserved":false,"is_disabled":true,"rental_uris":{"android":"levelo://app?vid=fe5786a2-3cbd-4e30-8ddf-18df8db18ee6","ios":"levelo://app?vid=fe5786a2-3cbd-4e30-8ddf-18df8db18ee6"},"vehicle_type_id":"4","last_reported":1761192792,"current_range_meters":9200,"station_id":"ce4bgr92rcd13ifvqc7g","pricing_plan_id":"cebpf4jnsgd1na2vs0mg"},{"bike_id":"f68e9c96-49cf-4f54-a1a4-580ed7c84fc3","system_id":"levelo_inurba_marseille","lat":43.28352,"lon":5.38101,"is_reserved":false,"is_disabled":false,"rental_uris":{"android":"levelo://app?vid=f68e9c96-49cf-4f54-a1a4-580ed7c84fc3","ios":"levelo://app?vid=f68e9c96-49cf-4f54-a1a4-580ed7c84fc3"},"vehicle_type_id":"4","last_reported":1761192792,"current_range_meters":9200,"station_id":"ce4bh412rcd13ifvqdr0","pricing_plan_id":"cebpf4jnsgd1na2vs0mg"},{"bike_id":"ff3ba630-dc04-489c-b422-8721b9ddc862","system_id":"levelo_inurba_marseille","lat":43.29858,"lon":5.37793,"is_reserved":false,"is_disabled":false,"rental_uris":{"android":"levelo://app?vid=ff3ba630-dc04-489c-b422-8721b9ddc862","ios":"levelo://app?vid=ff3ba630-dc04-489c-b422-8721b9ddc862"},"vehicle_type_id":"4","last_reported":1761192792,"current_range_meters":9200,"station_id":"","pricing_plan_id":"cebpf4jnsgd1na2vs0mg"},{"bike_id":"53153c1c-aecd-4290-a7de-4c4ca2cbf178","system_id":"levelo_inurba_marseille","lat":43.31102,"lon":5.38356,"is_reserved":false,"is_disabled":false,"rental_uris":{"android":"levelo://app?vid=53153c1c-aecd-4290-a7de-4c4ca2cbf178","ios":"levelo://app?vid=53153c1c-aecd-4290-a7de-4c4ca2cbf178"},"vehicle_type_id":"4","last_reported":1761192792,"current_range_meters":9600,"station_id":"ce4bgv92rcd13ifvqcr0","pricing_plan_id":"cebpf4jnsgd1na2vs0mg"},{"bike_id":"14af9e13-3e6b-4c60-be99-c5a44e711f26","system_id":"levelo_inurba_marseille","lat":43.29815,"lon":5.38118,"is_reserved":false,"is_disabled":false,"rental_uris":{"android":"levelo://app?vid=14af9e13-3e6b-4c60-be99-c5a44e711f26","ios":"levelo://app?vid=14af9e13-3e6b-4c60-be99-c5a44e711f26"},"vehicle_type_id":"4","last_reported":1761192792,"current_range_meters":9600,"station_id":"ce4bgip2rcd13ifvqbb0","pricing_plan_id":"cebpf4jnsgd1na2vs0mg"},{"bike_id":"396aaa55-c35f-41fc-8337-93bac25c9dde","system_id":"levelo_inurba_marseille","lat":43.29244,"lon":5.35593,"is_reserved":false,"is_disabled":false,"rental_uris":{"android":"levelo://app?vid=396aaa55-c35f-41fc-8337-93bac25c9dde","ios":"levelo://app?vid=396aaa55-c35f-41fc-8337-93bac25c9dde"},"vehicle_type_id":"4","last_reported":1761192792,"current_range_meters":9600,"station_id":"","pricing_plan_id":"cebpf4jnsgd1na2vs0mg"},{"bike_id":"6acf2ae9-136b-4104-8a69-7d816eedd218","system_id":"levelo_inurba_marseille","lat":43.280642,"lon":5.352788,"is_reserved":false,"is_disabled":false,"rental_uris":{"android":"levelo://app?vid=6acf2ae9-136b-4104-8a69-7d816eedd218","ios":"levelo://app?vid=6acf2ae9-136b-4104-8a69-7d816eedd218"},"vehicle_type_id":"4","last_reported":1761192792,"current_range_meters":9600,"station_id":"","pricing_plan_id":"cebpf4jnsgd1na2vs0mg"},{"bike_id":"65b4c744-81cf-4b0e-9ca1-4121ebb68155","system_id":"levelo_inurba_marseille","lat":43.2838,"lon":5.38116,"is_reserved":false,"is_disabled":false,"rental_uris":{"android":"levelo://app?vid=65b4c744-81cf-4b0e-9ca1-4121ebb68155","ios":"levelo://app?vid=65b4c744-81cf-4b0e-9ca1-4121ebb68155"},"vehicle_type_id":"4","last_reported":1761192792,"current_range_meters":9600,"station_id":"ce4bh412rcd13ifvqdr0","pricing_plan_id":"cebpf4jnsgd1na2vs0mg"},{"bike_id":"ec60652f-d3c2-400e-8251-0e42407708db","system_id":"levelo_inurba_marseille","lat":43.27051,"lon":5.42268,"is_reserved":false,"is_disabled":false,"rental_uris":{"android":"levelo://app?vid=ec60652f-d3c2-400e-8251-0e42407708db","ios":"levelo://app?vid=ec60652f-d3c2-400e-8251-0e42407708db"},"vehicle_type_id":"4","last_reported":1761192792,"current_range_meters":10000,"station_id":"ce4bhk92rcd13ifvqgb0","pricing_plan_id":"cebpf4jnsgd1na2vs0mg"},{"bike_id":"61c47949-89b9-4c27-95f4-2b581fa26bb6","system_id":"levelo_inurba_marseille","lat":43.23204,"lon":5.39955,"is_reserved":false,"is_disabled":false,"rental_uris":{"android":"levelo://app?vid=61c47949-89b9-4c27-95f4-2b581fa26bb6","ios":"levelo://app?vid=61c47949-89b9-4c27-95f4-2b581fa26bb6"},"vehicle_type_id":"4","last_reported":1761192792,"current_range_meters":10000,"station_id":"ce4bhn12rcd13ifvqgqg","pricing_plan_id":"cebpf4jnsgd1na2vs0mg"},{"bike_id":"003db9b9-c4d5-45c4-90c5-058ef9d1e11f","system_id":"levelo_inurba_marseille","lat":43.303836,"lon":5.424798,"is_reserved":false,"is_disabled":false,"rental_uris":{"android":"levelo://app?vid=003db9b9-c4d5-45c4-90c5-058ef9d1e11f","ios":"levelo://app?vid=003db9b9-c4d5-45c4-90c5-058ef9d1e11f"},"vehicle_type_id":"4","last_reported":1761192792,"current_range_meters":10000,"station_id":"ce4bhoh2rcd13ifvqh6g","pricing_plan_id":"cebpf4jnsgd1na2vs0mg"},{"bike_id":"6cedbdd4-d4fa-45a0-a47a-6925bf95118c","system_id":"levelo_inurba_marseille","lat":43.22936,"lon":5.35371,"is_reserved":false,"is_disabled":false,"rental_uris":{"android":"levelo://app?vid=6cedbdd4-d4fa-45a0-a47a-6925bf95118c","ios":"levelo://app?vid=6cedbdd4-d4fa-45a0-a47a-6925bf95118c"},"vehicle_type_id":"4","last_reported":1761192792,"current_range_meters":10000,"station_id":"cpo3532slgdg3j2ikp40","pricing_plan_id":"cebpf4jnsgd1na2vs0mg"},{"bike_id":"61f001a3-2cb1-43fb-bfe4-e4a1763b22c1","system_id":"levelo_inurba_marseille","lat":43.27079,"lon":5.42274,"is_reserved":false,"is_disabled":false,"rental_uris":{"android":"levelo://app?vid=61f001a3-2cb1-43fb-bfe4-e4a1763b22c1","ios":"levelo://app?vid=61f001a3-2cb1-43fb-bfe4-e4a1763b22c1"},"vehicle_type_id":"4","last_reported":1761192792,"current_range_meters":10000,"station_id":"ce4bhk92rcd13ifvqgb0","pricing_plan_id":"cebpf4jnsgd1na2vs0mg"},{"bike_id":"45b23ec0-1f26-4a73-bf31-06acd3f194a7","system_id":"levelo_inurba_marseille","lat":43.2428,"lon":5.402635,"is_reserved":false,"is_disabled":false,"rental_uris":{"android":"levelo://app?vid=45b23ec0-1f26-4a73-bf31-06acd3f194a7","ios":"levelo://app?vid=45b23ec0-1f26-4a73-bf31-06acd3f194a7"},"vehicle_type_id":"4","last_reported":1761192792,"current_range_meters":10000,"station_id":"","pricing_plan_id":"cebpf4jnsgd1na2vs0mg"},{"bike_id":"37d01fc8-4b4d-4652-a489-1254eb9d4c80","system_id":"levelo_inurba_marseille","lat":43.34076,"lon":5.40411,"is_reserved":false,"is_disabled":false,"rental_uris":{"android":"levelo://app?vid=37d01fc8-4b4d-4652-a489-1254eb9d4c80","ios":"levelo://app?vid=37d01fc8-4b4d-4652-a489-1254eb9d4c80"},"vehicle_type_id":"4","last_reported":1761192792,"current_range_meters":10000,"station_id":"","pricing_plan_id":"cebpf4jnsgd1na2vs0mg"},{"bike_id":"9880e93c-d19c-40b1-b34a-e56695334737","system_id":"levelo_inurba_marseille","lat":43.3075,"lon":5.42456,"is_reserved":false,"is_disabled":false,"rental_uris":{"android":"levelo://app?vid=9880e93c-d19c-40b1-b34a-e56695334737","ios":"levelo://app?vid=9880e93c-d19c-40b1-b34a-e56695334737"},"vehicle_type_id":"4","last_reported":1761192792,"current_range_meters":10000,"station_id":"st_cvj6ca6bvosntc0bfgr0","pricing_plan_id":"cebpf4jnsgd1na2vs0mg"},{"bike_id":"d091eb4a-0c1e-43d3-bab2-a00d4ad1b84a","system_id":"levelo_inurba_marseille","lat":43.30281,"lon":5.4006,"is_reserved":false,"is_disabled":false,"rental_uris":{"android":"levelo://app?vid=d091eb4a-0c1e-43d3-bab2-a00d4ad1b84a","ios":"levelo://app?vid=d091eb4a-0c1e-43d3-bab2-a00d4ad1b84a"},"vehicle_type_id":"4","last_reported":1761192792,"current_range_meters":10000,"station_id":"ce4bgvh2rcd13ifvqcs0","pricing_plan_id":"cebpf4jnsgd1na2vs0mg"},{"bike_id":"27938040-5f97-48c9-b073-25f510f7592c","system_id":"levelo_inurba_marseille","lat":43.31762,"lon":5.38953,"is_reserved":false,"is_disabled":true,"rental_uris":{"android":"levelo://app?vid=27938040-5f97-48c9-b073-25f510f7592c","ios":"levelo://app?vid=27938040-5f97-48c9-b073-25f510f7592c"},"vehicle_type_id":"4","last_reported":1761192792,"current_range_meters":10800,"station_id":"","pricing_plan_id":"cebpf4jnsgd1na2vs0mg"},{"bike_id":"923d022b-4a85-437d-b152-30f3ec505c40","system_id":"levelo_inurba_marseille","lat":43.2737,"lon":5.3628,"is_reserved":false,"is_disabled":false,"rental_uris":{"android":"levelo://app?vid=923d022b-4a85-437d-b152-30f3ec505c40","ios":"levelo://app?vid=923d022b-4a85-437d-b152-30f3ec505c40"},"vehicle_type_id":"4","last_reported":1761192792,"current_range_meters":10800,"station_id":"ce4bhbh2rcd13ifvqeo0","pricing_plan_id":"cebpf4jnsgd1na2vs0mg"},{"bike_id":"3aa8c3e6-230d-4538-ac39-2b944611f536","system_id":"levelo_inurba_marseille","lat":43.31356,"lon":5.367141,"is_reserved":false,"is_disabled":true,"rental_uris":{"android":"levelo://app?vid=3aa8c3e6-230d-4538-ac39-2b944611f536","ios":"levelo://app?vid=3aa8c3e6-230d-4538-ac39-2b944611f536"},"vehicle_type_id":"4","last_reported":1761192792,"current_range_meters":10800,"station_id":"ce4bgr92rcd13ifvqc6g","pricing_plan_id":"cebpf4jnsgd1na2vs0mg"},{"bike_id":"c2f5c17d-56bd-4356-9cc8-a70d64ef916e","system_id":"levelo_inurba_marseille","lat":43.28475,"lon":5.35892,"is_reserved":false,"is_disabled":false,"rental_uris":{"android":"levelo://app?vid=c2f5c17d-56bd-4356-9cc8-a70d64ef916e","ios":"levelo://app?vid=c2f5c17d-56bd-4356-9cc8-a70d64ef916e"},"vehicle_type_id":"4","last_reported":1761192792,"current_range_meters":10800,"station_id":"ce4bhah2rcd13ifvqei0","pricing_plan_id":"cebpf4jnsgd1na2vs0mg"},{"bike_id":"00950afb-c342-47c9-9cac-09e4bd0cd22a","system_id":"levelo_inurba_marseille","lat":43.28742,"lon":5.39985,"is_reserved":false,"is_disabled":false,"rental_uris":{"android":"levelo://app?vid=00950afb-c342-47c9-9cac-09e4bd0cd22a","ios":"levelo://app?vid=00950afb-c342-47c9-9cac-09e4bd0cd22a"},"vehicle_type_id":"4","last_reported":1761192792,"current_range_meters":10800,"station_id":"ce4bho92rcd13ifvqh3g","pricing_plan_id":"cebpf4jnsgd1na2vs0mg"},{"bike_id":"7ab93674-3618-4d2a-bad0-80df678a9a9a","system_id":"levelo_inurba_marseille","lat":43.260645,"lon":5.393902,"is_reserved":false,"is_disabled":false,"rental_uris":{"android":"levelo://app?vid=7ab93674-3618-4d2a-bad0-80df678a9a9a","ios":"levelo://app?vid=7ab93674-3618-4d2a-bad0-80df678a9a9a"},"vehicle_type_id":"4","last_reported":1761192792,"current_range_meters":10800,"station_id":"ce4bhh92rcd13ifvqfj0","pricing_plan_id":"cebpf4jnsgd1na2vs0mg"},{"bike_id":"3abb8715-b1f9-4a86-9202-8230ef14e54d","system_id":"levelo_inurba_marseille","lat":43.284586,"lon":5.358802,"is_reserved":false,"is_disabled":false,"rental_uris":{"android":"levelo://app?vid=3abb8715-b1f9-4a86-9202-8230ef14e54d","ios":"levelo://app?vid=3abb8715-b1f9-4a86-9202-8230ef14e54d"},"vehicle_type_id":"4","last_reported":1761192792,"current_range_meters":11200,"station_id":"ce4bhah2rcd13ifvqei0","pricing_plan_id":"cebpf4jnsgd1na2vs0mg"},{"bike_id":"ac4f7d3c-5af7-44ad-8c8b-463d26f4b847","system_id":"levelo_inurba_marseille","lat":43.274451,"lon":5.390878,"is_reserved":false,"is_disabled":false,"rental_uris":{"android":"levelo://app?vid=ac4f7d3c-5af7-44ad-8c8b-463d26f4b847","ios":"levelo://app?vid=ac4f7d3c-5af7-44ad-8c8b-463d26f4b847"},"vehicle_type_id":"4","last_reported":1761192792,"current_range_meters":11200,"station_id":"ce4bhg12rcd13ifvqf80","pricing_plan_id":"cebpf4jnsgd1na2vs0mg"},{"bike_id":"4f39751f-28cc-4f69-954f-5fdde0927635","system_id":"levelo_inurba_marseille","lat":43.249589,"lon":5.404937,"is_reserved":false,"is_disabled":false,"rental_uris":{"android":"levelo://app?vid=4f39751f-28cc-4f69-954f-5fdde0927635","ios":"levelo://app?vid=4f39751f-28cc-4f69-954f-5fdde0927635"},"vehicle_type_id":"4","last_reported":1761192792,"current_range_meters":11200,"station_id":"st_d2ngiaodas8pm72gd1h0","pricing_plan_id":"cebpf4jnsgd1na2vs0mg"},{"bike_id":"e7709aff-f080-4c40-b225-77642ea3c5cc","system_id":"levelo_inurba_marseille","lat":43.24167,"lon":5.36399,"is_reserved":false,"is_disabled":false,"rental_uris":{"android":"levelo://app?vid=e7709aff-f080-4c40-b225-77642ea3c5cc","ios":"levelo://app?vid=e7709aff-f080-4c40-b225-77642ea3c5cc"},"vehicle_type_id":"4","last_reported":1761192792,"current_range_meters":11200,"station_id":"cpo36qri1sfpv3e86is0","pricing_plan_id":"cebpf4jnsgd1na2vs0mg"},{"bike_id":"5b2fb394-b654-4cda-abea-19d87e1a4938","system_id":"levelo_inurba_marseille","lat":43.240822,"lon":5.377519,"is_reserved":false,"is_disabled":false,"rental_uris":{"android":"levelo://app?vid=5b2fb394-b654-4cda-abea-19d87e1a4938","ios":"levelo://app?vid=5b2fb394-b654-4cda-abea-19d87e1a4938"},"vehicle_type_id":"4","last_reported":1761192792,"current_range_meters":11600,"station_id":"ce4bhnp2rcd13ifvqgvg","pricing_plan_id":"cebpf4jnsgd1na2vs0mg"},{"bike_id":"4eae2ec4-8862-466e-a3d9-395cca4276d0","system_id":"levelo_inurba_marseille","lat":43.30309,"lon":5.37557,"is_reserved":false,"is_disabled":false,"rental_uris":{"android":"levelo://app?vid=4eae2ec4-8862-466e-a3d9-395cca4276d0","ios":"levelo://app?vid=4eae2ec4-8862-466e-a3d9-395cca4276d0"},"vehicle_type_id":"4","last_reported":1761192792,"current_range_meters":11600,"station_id":"","pricing_plan_id":"cebpf4jnsgd1na2vs0mg"},{"bike_id":"6bff3bde-bdc8-4906-8f3d-61c5e2291902","system_id":"levelo_inurba_marseille","lat":43.30889,"lon":5.39645,"is_reserved":false,"is_disabled":false,"rental_uris":{"android":"levelo://app?vid=6bff3bde-bdc8-4906-8f3d-61c5e2291902","ios":"levelo://app?vid=6bff3bde-bdc8-4906-8f3d-61c5e2291902"},"vehicle_type_id":"4","last_reported":1761192792,"current_range_meters":11600,"station_id":"ce4bh012rcd13ifvqcv0","pricing_plan_id":"cebpf4jnsgd1na2vs0mg"},{"bike_id":"1656396b-ce0e-470e-9f40-d432e00c8827","system_id":"levelo_inurba_marseille","lat":43.2961,"lon":5.40473,"is_reserved":false,"is_disabled":false,"rental_uris":{"android":"levelo://app?vid=1656396b-ce0e-470e-9f40-d432e00c8827","ios":"levelo://app?vid=1656396b-ce0e-470e-9f40-d432e00c8827"},"vehicle_type_id":"4","last_reported":1761192792,"current_range_meters":12000,"station_id":"","pricing_plan_id":"cebpf4jnsgd1na2vs0mg"},{"bike_id":"9870a68d-ae62-4bec-82c3-a7443a850bdc","system_id":"levelo_inurba_marseille","lat":43.31299,"lon":5.37769,"is_reserved":false,"is_disabled":false,"rental_uris":{"android":"levelo://app?vid=9870a68d-ae62-4bec-82c3-a7443a850bdc","ios":"levelo://app?vid=9870a68d-ae62-4bec-82c3-a7443a850bdc"},"vehicle_type_id":"4","last_reported":1761192792,"current_range_meters":12000,"station_id":"","pricing_plan_id":"cebpf4jnsgd1na2vs0mg"},{"bike_id":"2f86c0e7-791d-40d3-86dc-3a2c4a57947d","system_id":"levelo_inurba_marseille","lat":43.310836,"lon":5.424382,"is_reserved":false,"is_disabled":false,"rental_uris":{"android":"levelo://app?vid=2f86c0e7-791d-40d3-86dc-3a2c4a57947d","ios":"levelo://app?vid=2f86c0e7-791d-40d3-86dc-3a2c4a57947d"},"vehicle_type_id":"4","last_reported":1761192792,"current_range_meters":12000,"station_id":"ce4bhp92rcd13ifvqhag","pricing_plan_id":"cebpf4jnsgd1na2vs0mg"},{"bike_id":"6bc5b062-3150-4dc9-88b7-f6bc3e81f791","system_id":"levelo_inurba_marseille","lat":43.31279,"lon":5.40175,"is_reserved":false,"is_disabled":false,"rental_uris":{"android":"levelo://app?vid=6bc5b062-3150-4dc9-88b7-f6bc3e81f791","ios":"levelo://app?vid=6bc5b062-3150-4dc9-88b7-f6bc3e81f791"},"vehicle_type_id":"4","last_reported":1761192792,"current_range_meters":12000,"station_id":"ce4bh092rcd13ifvqd30","pricing_plan_id":"cebpf4jnsgd1na2vs0mg"},{"bike_id":"5c5f86d4-45e0-4ad5-a478-5119cd222b7f","system_id":"levelo_inurba_marseille","lat":43.331415,"lon":5.381695,"is_reserved":false,"is_disabled":false,"rental_uris":{"android":"levelo://app?vid=5c5f86d4-45e0-4ad5-a478-5119cd222b7f","ios":"levelo://app?vid=5c5f86d4-45e0-4ad5-a478-5119cd222b7f"},"vehicle_type_id":"4","last_reported":1761192792,"current_range_meters":12000,"station_id":"","pricing_plan_id":"cebpf4jnsgd1na2vs0mg"},{"bike_id":"07e992db-48e1-481b-a50e-3b491cfc1455","system_id":"levelo_inurba_marseille","lat":43.31991,"lon":5.41291,"is_reserved":false,"is_disabled":false,"rental_uris":{"android":"levelo://app?vid=07e992db-48e1-481b-a50e-3b491cfc1455","ios":"levelo://app?vid=07e992db-48e1-481b-a50e-3b491cfc1455"},"vehicle_type_id":"4","last_reported":1761192792,"current_range_meters":12000,"station_id":"","pricing_plan_id":"cebpf4jnsgd1na2vs0mg"},{"bike_id":"7dc3a787-7b14-4505-8e32-0b28349ba8b9","system_id":"levelo_inurba_marseille","lat":43.287063,"lon":5.362525,"is_reserved":false,"is_disabled":false,"rental_uris":{"android":"levelo://app?vid=7dc3a787-7b14-4505-8e32-0b28349ba8b9","ios":"levelo://app?vid=7dc3a787-7b14-4505-8e32-0b28349ba8b9"},"vehicle_type_id":"4","last_reported":1761192792,"current_range_meters":12400,"station_id":"","pricing_plan_id":"cebpf4jnsgd1na2vs0mg"},{"bike_id":"f7b67f9a-ce10-4c5c-bac2-7e5464f16364","system_id":"levelo_inurba_marseille","lat":43.27321,"lon":5.40843,"is_reserved":false,"is_disabled":false,"rental_uris":{"android":"levelo://app?vid=f7b67f9a-ce10-4c5c-bac2-7e5464f16364","ios":"levelo://app?vid=f7b67f9a-ce10-4c5c-bac2-7e5464f16364"},"vehicle_type_id":"4","last_reported":1761192792,"current_range_meters":12800,"station_id":"","pricing_plan_id":"cebpf4jnsgd1na2vs0mg"},{"bike_id":"7ca9991e-0bc4-4fc5-ad7c-19f19203c013","system_id":"levelo_inurba_marseille","lat":43.31183,"lon":5.38707,"is_reserved":false,"is_disabled":false,"rental_uris":{"android":"levelo://app?vid=7ca9991e-0bc4-4fc5-ad7c-19f19203c013","ios":"levelo://app?vid=7ca9991e-0bc4-4fc5-ad7c-19f19203c013"},"vehicle_type_id":"4","last_reported":1761192792,"current_range_meters":12800,"station_id":"ce4bgv12rcd13ifvqcp0","pricing_plan_id":"cebpf4jnsgd1na2vs0mg"},{"bike_id":"1f70c7ed-fb60-4795-b932-255c2f1bb7ec","system_id":"levelo_inurba_marseille","lat":43.250888,"lon":5.395102,"is_reserved":false,"is_disabled":false,"rental_uris":{"android":"levelo://app?vid=1f70c7ed-fb60-4795-b932-255c2f1bb7ec","ios":"levelo://app?vid=1f70c7ed-fb60-4795-b932-255c2f1bb7ec"},"vehicle_type_id":"4","last_reported":1761192792,"current_range_meters":12800,"station_id":"ce4bhm12rcd13ifvqgkg","pricing_plan_id":"cebpf4jnsgd1na2vs0mg"},{"bike_id":"e26a4ba5-d1f0-450a-a9c3-d00a5fad899d","system_id":"levelo_inurba_marseille","lat":43.241648,"lon":5.364007,"is_reserved":false,"is_disabled":false,"rental_uris":{"android":"levelo://app?vid=e26a4ba5-d1f0-450a-a9c3-d00a5fad899d","ios":"levelo://app?vid=e26a4ba5-d1f0-450a-a9c3-d00a5fad899d"},"vehicle_type_id":"4","last_reported":1761192792,"current_range_meters":12800,"station_id":"cpo36qri1sfpv3e86is0","pricing_plan_id":"cebpf4jnsgd1na2vs0mg"},{"bike_id":"618a9c44-e479-45b6-b144-58d3228e3132","system_id":"levelo_inurba_marseille","lat":43.24638,"lon":5.388811,"is_reserved":false,"is_disabled":false,"rental_uris":{"android":"levelo://app?vid=618a9c44-e479-45b6-b144-58d3228e3132","ios":"levelo://app?vid=618a9c44-e479-45b6-b144-58d3228e3132"},"vehicle_type_id":"4","last_reported":1761192792,"current_range_meters":12800,"station_id":"ce4bhg12rcd13ifvqf60","pricing_plan_id":"cebpf4jnsgd1na2vs0mg"},{"bike_id":"ced847b2-31dd-40eb-be95-f465fd352e23","system_id":"levelo_inurba_marseille","lat":43.31882,"lon":5.40742,"is_reserved":false,"is_disabled":false,"rental_uris":{"android":"levelo://app?vid=ced847b2-31dd-40eb-be95-f465fd352e23","ios":"levelo://app?vid=ced847b2-31dd-40eb-be95-f465fd352e23"},"vehicle_type_id":"4","last_reported":1761192792,"current_range_meters":12800,"station_id":"ce4bhq12rcd13ifvqhig","pricing_plan_id":"cebpf4jnsgd1na2vs0mg"},{"bike_id":"c775e1ea-9a62-4435-8d4f-004bf2c26047","system_id":"levelo_inurba_marseille","lat":43.298242,"lon":5.440638,"is_reserved":false,"is_disabled":false,"rental_uris":{"android":"levelo://app?vid=c775e1ea-9a62-4435-8d4f-004bf2c26047","ios":"levelo://app?vid=c775e1ea-9a62-4435-8d4f-004bf2c26047"},"vehicle_type_id":"4","last_reported":1761192792,"current_range_meters":13600,"station_id":"st_d3jp68qikq2c7381ktn0","pricing_plan_id":"cebpf4jnsgd1na2vs0mg"},{"bike_id":"c8c0fa58-a519-4343-9887-b0c694f93aef","system_id":"levelo_inurba_marseille","lat":43.28883,"lon":5.42487,"is_reserved":false,"is_disabled":false,"rental_uris":{"android":"levelo://app?vid=c8c0fa58-a519-4343-9887-b0c694f93aef","ios":"levelo://app?vid=c8c0fa58-a519-4343-9887-b0c694f93aef"},"vehicle_type_id":"4","last_reported":1761192792,"current_range_meters":13600,"station_id":"st_d3b462108ojc7389ooeg","pricing_plan_id":"cebpf4jnsgd1na2vs0mg"},{"bike_id":"6b9158cc-993e-4fdb-bafb-7fa32e0adab3","system_id":"levelo_inurba_marseille","lat":43.21749,"lon":5.346146,"is_reserved":false,"is_disabled":false,"rental_uris":{"android":"levelo://app?vid=6b9158cc-993e-4fdb-bafb-7fa32e0adab3","ios":"levelo://app?vid=6b9158cc-993e-4fdb-bafb-7fa32e0adab3"},"vehicle_type_id":"4","last_reported":1761192792,"current_range_meters":13600,"station_id":"","pricing_plan_id":"cebpf4jnsgd1na2vs0mg"},{"bike_id":"a8c54fc0-fa67-4a1f-a261-d4ae32b66c04","system_id":"levelo_inurba_marseille","lat":43.312711,"lon":5.404713,"is_reserved":false,"is_disabled":false,"rental_uris":{"android":"levelo://app?vid=a8c54fc0-fa67-4a1f-a261-d4ae32b66c04","ios":"levelo://app?vid=a8c54fc0-fa67-4a1f-a261-d4ae32b66c04"},"vehicle_type_id":"4","last_reported":1761192792,"current_range_meters":13600,"station_id":"","pricing_plan_id":"cebpf4jnsgd1na2vs0mg"},{"bike_id":"ff3839d3-16ac-4aa9-9120-d4030bd2a260","system_id":"levelo_inurba_marseille","lat":43.29779,"lon":5.39363,"is_reserved":false,"is_disabled":true,"rental_uris":{"android":"levelo://app?vid=ff3839d3-16ac-4aa9-9120-d4030bd2a260","ios":"levelo://app?vid=ff3839d3-16ac-4aa9-9120-d4030bd2a260"},"vehicle_type_id":"4","last_reported":1761192792,"current_range_meters":13600,"station_id":"chh1huq6cuj3fo74tm60","pricing_plan_id":"cebpf4jnsgd1na2vs0mg"},{"bike_id":"d59bf119-d6cb-4ad0-8809-efcb4f8dd276","system_id":"levelo_inurba_marseille","lat":43.29844,"lon":5.44906,"is_reserved":false,"is_disabled":false,"rental_uris":{"android":"levelo://app?vid=d59bf119-d6cb-4ad0-8809-efcb4f8dd276","ios":"levelo://app?vid=d59bf119-d6cb-4ad0-8809-efcb4f8dd276"},"vehicle_type_id":"4","last_reported":1761192792,"current_range_meters":13600,"station_id":"","pricing_plan_id":"cebpf4jnsgd1na2vs0mg"},{"bike_id":"61525fe3-26d4-4c5c-a075-e59599c296c4","system_id":"levelo_inurba_marseille","lat":43.31493,"lon":5.39384,"is_reserved":false,"is_disabled":false,"rental_uris":{"android":"levelo://app?vid=61525fe3-26d4-4c5c-a075-e59599c296c4","ios":"levelo://app?vid=61525fe3-26d4-4c5c-a075-e59599c296c4"},"vehicle_type_id":"4","last_reported":1761192792,"current_range_meters":14000,"station_id":"","pricing_plan_id":"cebpf4jnsgd1na2vs0mg"},{"bike_id":"f11297b4-b982-48a7-bc40-b4e5242b1d8d","system_id":"levelo_inurba_marseille","lat":43.23154,"lon":5.43715,"is_reserved":false,"is_disabled":false,"rental_uris":{"android":"levelo://app?vid=f11297b4-b982-48a7-bc40-b4e5242b1d8d","ios":"levelo://app?vid=f11297b4-b982-48a7-bc40-b4e5242b1d8d"},"vehicle_type_id":"4","last_reported":1761192792,"current_range_meters":14000,"station_id":"ce4bhmp2rcd13ifvqgog","pricing_plan_id":"cebpf4jnsgd1na2vs0mg"},{"bike_id":"d67e95c6-1ede-4a04-9ab4-6b7a95d008f8","system_id":"levelo_inurba_marseille","lat":43.30274,"lon":5.40073,"is_reserved":false,"is_disabled":false,"rental_uris":{"android":"levelo://app?vid=d67e95c6-1ede-4a04-9ab4-6b7a95d008f8","ios":"levelo://app?vid=d67e95c6-1ede-4a04-9ab4-6b7a95d008f8"},"vehicle_type_id":"4","last_reported":1761192792,"current_range_meters":14000,"station_id":"ce4bgvh2rcd13ifvqcs0","pricing_plan_id":"cebpf4jnsgd1na2vs0mg"},{"bike_id":"f538f63b-5046-43e0-b976-b5f9d5d4e253","system_id":"levelo_inurba_marseille","lat":43.2978,"lon":5.39338,"is_reserved":false,"is_disabled":false,"rental_uris":{"android":"levelo://app?vid=f538f63b-5046-43e0-b976-b5f9d5d4e253","ios":"levelo://app?vid=f538f63b-5046-43e0-b976-b5f9d5d4e253"},"vehicle_type_id":"4","last_reported":1761192792,"current_range_meters":14000,"station_id":"chh1huq6cuj3fo74tm60","pricing_plan_id":"cebpf4jnsgd1na2vs0mg"},{"bike_id":"96a5d1da-e2b5-492e-99b1-8e18fe8e283b","system_id":"levelo_inurba_marseille","lat":43.30879,"lon":5.39661,"is_reserved":false,"is_disabled":false,"rental_uris":{"android":"levelo://app?vid=96a5d1da-e2b5-492e-99b1-8e18fe8e283b","ios":"levelo://app?vid=96a5d1da-e2b5-492e-99b1-8e18fe8e283b"},"vehicle_type_id":"4","last_reported":1761192792,"current_range_meters":14400,"station_id":"ce4bh012rcd13ifvqcv0","pricing_plan_id":"cebpf4jnsgd1na2vs0mg"},{"bike_id":"71d530ff-c617-4500-862e-2196508ef7cb","system_id":"levelo_inurba_marseille","lat":43.2379,"lon":5.36644,"is_reserved":false,"is_disabled":false,"rental_uris":{"android":"levelo://app?vid=71d530ff-c617-4500-862e-2196508ef7cb","ios":"levelo://app?vid=71d530ff-c617-4500-862e-2196508ef7cb"},"vehicle_type_id":"4","last_reported":1761192792,"current_range_meters":14400,"station_id":"st_d3nk18o9ro0c73en2l3g","pricing_plan_id":"cebpf4jnsgd1na2vs0mg"},{"bike_id":"56880329-4c76-4c4e-84a7-3c605e225585","system_id":"levelo_inurba_marseille","lat":43.33732,"lon":5.3917,"is_reserved":false,"is_disabled":false,"rental_uris":{"android":"levelo://app?vid=56880329-4c76-4c4e-84a7-3c605e225585","ios":"levelo://app?vid=56880329-4c76-4c4e-84a7-3c605e225585"},"vehicle_type_id":"4","last_reported":1761192792,"current_range_meters":14400,"station_id":"ce4bhr92rcd13ifvqhsg","pricing_plan_id":"cebpf4jnsgd1na2vs0mg"},{"bike_id":"d9247930-f477-4727-872b-24c5b02f6614","system_id":"levelo_inurba_marseille","lat":43.271998,"lon":5.409887,"is_reserved":false,"is_disabled":false,"rental_uris":{"android":"levelo://app?vid=d9247930-f477-4727-872b-24c5b02f6614","ios":"levelo://app?vid=d9247930-f477-4727-872b-24c5b02f6614"},"vehicle_type_id":"4","last_reported":1761192792,"current_range_meters":14400,"station_id":"ce4bhl12rcd13ifvqgf0","pricing_plan_id":"cebpf4jnsgd1na2vs0mg"},{"bike_id":"e60b0896-e96f-44aa-8531-9b9887fb3d4b","system_id":"levelo_inurba_marseille","lat":43.30801,"lon":5.38167,"is_reserved":false,"is_disabled":false,"rental_uris":{"android":"levelo://app?vid=e60b0896-e96f-44aa-8531-9b9887fb3d4b","ios":"levelo://app?vid=e60b0896-e96f-44aa-8531-9b9887fb3d4b"},"vehicle_type_id":"4","last_reported":1761192792,"current_range_meters":14400,"station_id":"ce4bgt12rcd13ifvqce0","pricing_plan_id":"cebpf4jnsgd1na2vs0mg"},{"bike_id":"1aaa028d-93d8-4a20-8355-7a4b17d8620a","system_id":"levelo_inurba_marseille","lat":43.276343,"lon":5.392077,"is_reserved":false,"is_disabled":false,"rental_uris":{"android":"levelo://app?vid=1aaa028d-93d8-4a20-8355-7a4b17d8620a","ios":"levelo://app?vid=1aaa028d-93d8-4a20-8355-7a4b17d8620a"},"vehicle_type_id":"4","last_reported":1761192792,"current_range_meters":14800,"station_id":"","pricing_plan_id":"cebpf4jnsgd1na2vs0mg"},{"bike_id":"b47656b5-24c6-4cdc-ad67-1d843e8edbeb","system_id":"levelo_inurba_marseille","lat":43.30729,"lon":5.4244,"is_reserved":false,"is_disabled":false,"rental_uris":{"android":"levelo://app?vid=b47656b5-24c6-4cdc-ad67-1d843e8edbeb","ios":"levelo://app?vid=b47656b5-24c6-4cdc-ad67-1d843e8edbeb"},"vehicle_type_id":"4","last_reported":1761192792,"current_range_meters":14800,"station_id":"st_cvj6ca6bvosntc0bfgr0","pricing_plan_id":"cebpf4jnsgd1na2vs0mg"},{"bike_id":"0198280f-05b0-401c-b9f2-7586dff77353","system_id":"levelo_inurba_marseille","lat":43.28934,"lon":5.37807,"is_reserved":false,"is_disabled":false,"rental_uris":{"android":"levelo://app?vid=0198280f-05b0-401c-b9f2-7586dff77353","ios":"levelo://app?vid=0198280f-05b0-401c-b9f2-7586dff77353"},"vehicle_type_id":"4","last_reported":1761192792,"current_range_meters":15200,"station_id":"ce4bh9p2rcd13ifvqed0","pricing_plan_id":"cebpf4jnsgd1na2vs0mg"},{"bike_id":"22556366-5b35-4879-b6f5-b944bfc8418c","system_id":"levelo_inurba_marseille","lat":43.301666,"lon":5.381067,"is_reserved":false,"is_disabled":true,"rental_uris":{"android":"levelo://app?vid=22556366-5b35-4879-b6f5-b944bfc8418c","ios":"levelo://app?vid=22556366-5b35-4879-b6f5-b944bfc8418c"},"vehicle_type_id":"4","last_reported":1761192792,"current_range_meters":15200,"station_id":"ce4bgjp2rcd13ifvqbh0","pricing_plan_id":"cebpf4jnsgd1na2vs0mg"},{"bike_id":"2a22829e-2bd6-41ec-a3e5-ef826e7425d3","system_id":"levelo_inurba_marseille","lat":43.321117,"lon":5.36772,"is_reserved":false,"is_disabled":false,"rental_uris":{"android":"levelo://app?vid=2a22829e-2bd6-41ec-a3e5-ef826e7425d3","ios":"levelo://app?vid=2a22829e-2bd6-41ec-a3e5-ef826e7425d3"},"vehicle_type_id":"4","last_reported":1761192792,"current_range_meters":15200,"station_id":"ce4bhrh2rcd13ifvqhug","pricing_plan_id":"cebpf4jnsgd1na2vs0mg"},{"bike_id":"bda3ed1a-3199-4eb8-8229-577855d09dbb","system_id":"levelo_inurba_marseille","lat":43.3163,"lon":5.37876,"is_reserved":false,"is_disabled":false,"rental_uris":{"android":"levelo://app?vid=bda3ed1a-3199-4eb8-8229-577855d09dbb","ios":"levelo://app?vid=bda3ed1a-3199-4eb8-8229-577855d09dbb"},"vehicle_type_id":"4","last_reported":1761192792,"current_range_meters":15200,"station_id":"","pricing_plan_id":"cebpf4jnsgd1na2vs0mg"},{"bike_id":"b3b13e92-d401-45af-ad84-a41c7bbeb5fe","system_id":"levelo_inurba_marseille","lat":43.29477,"lon":5.37958,"is_reserved":false,"is_disabled":false,"rental_uris":{"android":"levelo://app?vid=b3b13e92-d401-45af-ad84-a41c7bbeb5fe","ios":"levelo://app?vid=b3b13e92-d401-45af-ad84-a41c7bbeb5fe"},"vehicle_type_id":"4","last_reported":1761192792,"current_range_meters":15200,"station_id":"","pricing_plan_id":"cebpf4jnsgd1na2vs0mg"},{"bike_id":"b0cda5ef-b8d0-4c5b-829f-99802466d677","system_id":"levelo_inurba_marseille","lat":43.29275,"lon":5.401212,"is_reserved":false,"is_disabled":false,"rental_uris":{"android":"levelo://app?vid=b0cda5ef-b8d0-4c5b-829f-99802466d677","ios":"levelo://app?vid=b0cda5ef-b8d0-4c5b-829f-99802466d677"},"vehicle_type_id":"4","last_reported":1761192792,"current_range_meters":15200,"station_id":"ce4bh312rcd13ifvqdk0","pricing_plan_id":"cebpf4jnsgd1na2vs0mg"},{"bike_id":"9393f9ef-7253-457f-bdcb-e284d908af29","system_id":"levelo_inurba_marseille","lat":43.28867,"lon":5.35855,"is_reserved":false,"is_disabled":false,"rental_uris":{"android":"levelo://app?vid=9393f9ef-7253-457f-bdcb-e284d908af29","ios":"levelo://app?vid=9393f9ef-7253-457f-bdcb-e284d908af29"},"vehicle_type_id":"4","last_reported":1761192792,"current_range_meters":15200,"station_id":"ce4bhb12rcd13ifvqem0","pricing_plan_id":"cebpf4jnsgd1na2vs0mg"},{"bike_id":"4b9cc68c-d09f-49e6-964a-67a75198ff94","system_id":"levelo_inurba_marseille","lat":43.24635,"lon":5.43141,"is_reserved":false,"is_disabled":false,"rental_uris":{"android":"levelo://app?vid=4b9cc68c-d09f-49e6-964a-67a75198ff94","ios":"levelo://app?vid=4b9cc68c-d09f-49e6-964a-67a75198ff94"},"vehicle_type_id":"4","last_reported":1761192792,"current_range_meters":15200,"station_id":"st_d2m6c4gdas8pm72e190g","pricing_plan_id":"cebpf4jnsgd1na2vs0mg"},{"bike_id":"5eb5a8bc-2270-4eca-8676-00017d02ca58","system_id":"levelo_inurba_marseille","lat":43.31344,"lon":5.36717,"is_reserved":false,"is_disabled":false,"rental_uris":{"android":"levelo://app?vid=5eb5a8bc-2270-4eca-8676-00017d02ca58","ios":"levelo://app?vid=5eb5a8bc-2270-4eca-8676-00017d02ca58"},"vehicle_type_id":"4","last_reported":1761192792,"current_range_meters":16000,"station_id":"ce4bgr92rcd13ifvqc6g","pricing_plan_id":"cebpf4jnsgd1na2vs0mg"},{"bike_id":"9a1972b5-72a6-4763-9884-2f966099622e","system_id":"levelo_inurba_marseille","lat":43.29999,"lon":5.37547,"is_reserved":false,"is_disabled":false,"rental_uris":{"android":"levelo://app?vid=9a1972b5-72a6-4763-9884-2f966099622e","ios":"levelo://app?vid=9a1972b5-72a6-4763-9884-2f966099622e"},"vehicle_type_id":"4","last_reported":1761192792,"current_range_meters":16000,"station_id":"","pricing_plan_id":"cebpf4jnsgd1na2vs0mg"},{"bike_id":"e1927214-042b-4ff4-88d7-8c0645f3fb8b","system_id":"levelo_inurba_marseille","lat":43.240656,"lon":5.377589,"is_reserved":false,"is_disabled":false,"rental_uris":{"android":"levelo://app?vid=e1927214-042b-4ff4-88d7-8c0645f3fb8b","ios":"levelo://app?vid=e1927214-042b-4ff4-88d7-8c0645f3fb8b"},"vehicle_type_id":"4","last_reported":1761192792,"current_range_meters":16000,"station_id":"ce4bhnp2rcd13ifvqgvg","pricing_plan_id":"cebpf4jnsgd1na2vs0mg"},{"bike_id":"6b5213dd-3dbc-4ddd-995d-998bf1c25ee9","system_id":"levelo_inurba_marseille","lat":43.2795,"lon":5.41045,"is_reserved":false,"is_disabled":false,"rental_uris":{"android":"levelo://app?vid=6b5213dd-3dbc-4ddd-995d-998bf1c25ee9","ios":"levelo://app?vid=6b5213dd-3dbc-4ddd-995d-998bf1c25ee9"},"vehicle_type_id":"4","last_reported":1761192792,"current_range_meters":16000,"station_id":"ce4bhnp2rcd13ifvqh0g","pricing_plan_id":"cebpf4jnsgd1na2vs0mg"},{"bike_id":"7a5af68a-59cb-461b-b7ea-e73b980858f9","system_id":"levelo_inurba_marseille","lat":43.28561,"lon":5.39486,"is_reserved":false,"is_disabled":true,"rental_uris":{"android":"levelo://app?vid=7a5af68a-59cb-461b-b7ea-e73b980858f9","ios":"levelo://app?vid=7a5af68a-59cb-461b-b7ea-e73b980858f9"},"vehicle_type_id":"4","last_reported":1761192792,"current_range_meters":16000,"station_id":"ce4bh292rcd13ifvqdg0","pricing_plan_id":"cebpf4jnsgd1na2vs0mg"},{"bike_id":"06d44f89-dfde-47e1-b8f3-66ae8c5fa4c4","system_id":"levelo_inurba_marseille","lat":43.30137,"lon":5.38083,"is_reserved":false,"is_disabled":false,"rental_uris":{"android":"levelo://app?vid=06d44f89-dfde-47e1-b8f3-66ae8c5fa4c4","ios":"levelo://app?vid=06d44f89-dfde-47e1-b8f3-66ae8c5fa4c4"},"vehicle_type_id":"4","last_reported":1761192792,"current_range_meters":16000,"station_id":"ce4bgjp2rcd13ifvqbh0","pricing_plan_id":"cebpf4jnsgd1na2vs0mg"},{"bike_id":"f30d474c-592d-470d-816b-bf7526dcf767","system_id":"levelo_inurba_marseille","lat":43.30855,"lon":5.38138,"is_reserved":false,"is_disabled":false,"rental_uris":{"android":"levelo://app?vid=f30d474c-592d-470d-816b-bf7526dcf767","ios":"levelo://app?vid=f30d474c-592d-470d-816b-bf7526dcf767"},"vehicle_type_id":"4","last_reported":1761192792,"current_range_meters":16400,"station_id":"","pricing_plan_id":"cebpf4jnsgd1na2vs0mg"},{"bike_id":"13ffca06-ecc4-46ee-aa82-6818647126c8","system_id":"levelo_inurba_marseille","lat":43.29897,"lon":5.43666,"is_reserved":false,"is_disabled":false,"rental_uris":{"android":"levelo://app?vid=13ffca06-ecc4-46ee-aa82-6818647126c8","ios":"levelo://app?vid=13ffca06-ecc4-46ee-aa82-6818647126c8"},"vehicle_type_id":"4","last_reported":1761192792,"current_range_meters":16400,"station_id":"ce4bhpp2rcd13ifvqhfg","pricing_plan_id":"cebpf4jnsgd1na2vs0mg"},{"bike_id":"fe30cecb-f264-4fe0-b4a7-fca9a34f6ed4","system_id":"levelo_inurba_marseille","lat":43.290305,"lon":5.372418,"is_reserved":false,"is_disabled":false,"rental_uris":{"android":"levelo://app?vid=fe30cecb-f264-4fe0-b4a7-fca9a34f6ed4","ios":"levelo://app?vid=fe30cecb-f264-4fe0-b4a7-fca9a34f6ed4"},"vehicle_type_id":"4","last_reported":1761192792,"current_range_meters":16400,"station_id":"","pricing_plan_id":"cebpf4jnsgd1na2vs0mg"},{"bike_id":"10609d54-fa50-4660-a63b-2fa8b465fd96","system_id":"levelo_inurba_marseille","lat":43.31094,"lon":5.38337,"is_reserved":false,"is_disabled":false,"rental_uris":{"android":"levelo://app?vid=10609d54-fa50-4660-a63b-2fa8b465fd96","ios":"levelo://app?vid=10609d54-fa50-4660-a63b-2fa8b465fd96"},"vehicle_type_id":"4","last_reported":1761192792,"current_range_meters":16800,"station_id":"ce4bgv92rcd13ifvqcr0","pricing_plan_id":"cebpf4jnsgd1na2vs0mg"},{"bike_id":"ad1d7432-fd6a-4c81-bb51-c33522dc754d","system_id":"levelo_inurba_marseille","lat":43.3043,"lon":5.39755,"is_reserved":false,"is_disabled":false,"rental_uris":{"android":"levelo://app?vid=ad1d7432-fd6a-4c81-bb51-c33522dc754d","ios":"levelo://app?vid=ad1d7432-fd6a-4c81-bb51-c33522dc754d"},"vehicle_type_id":"4","last_reported":1761192792,"current_range_meters":16800,"station_id":"ce4bh092rcd13ifvqd20","pricing_plan_id":"cebpf4jnsgd1na2vs0mg"},{"bike_id":"4ef0489f-e7b2-4aa8-950b-34bfa22a7c0e","system_id":"levelo_inurba_marseille","lat":43.2886,"lon":5.35833,"is_reserved":false,"is_disabled":false,"rental_uris":{"android":"levelo://app?vid=4ef0489f-e7b2-4aa8-950b-34bfa22a7c0e","ios":"levelo://app?vid=4ef0489f-e7b2-4aa8-950b-34bfa22a7c0e"},"vehicle_type_id":"4","last_reported":1761192792,"current_range_meters":16800,"station_id":"ce4bhb12rcd13ifvqem0","pricing_plan_id":"cebpf4jnsgd1na2vs0mg"},{"bike_id":"9c023054-f387-47db-bf1d-2774b5d6d642","system_id":"levelo_inurba_marseille","lat":43.3174,"lon":5.38138,"is_reserved":false,"is_disabled":false,"rental_uris":{"android":"levelo://app?vid=9c023054-f387-47db-bf1d-2774b5d6d642","ios":"levelo://app?vid=9c023054-f387-47db-bf1d-2774b5d6d642"},"vehicle_type_id":"4","last_reported":1761192792,"current_range_meters":16800,"station_id":"","pricing_plan_id":"cebpf4jnsgd1na2vs0mg"},{"bike_id":"b284a5b8-145b-4b18-970a-f541b5c0ebef","system_id":"levelo_inurba_marseille","lat":43.28576,"lon":5.39443,"is_reserved":false,"is_disabled":false,"rental_uris":{"android":"levelo://app?vid=b284a5b8-145b-4b18-970a-f541b5c0ebef","ios":"levelo://app?vid=b284a5b8-145b-4b18-970a-f541b5c0ebef"},"vehicle_type_id":"4","last_reported":1761192792,"current_range_meters":16800,"station_id":"ce4bh292rcd13ifvqdg0","pricing_plan_id":"cebpf4jnsgd1na2vs0mg"},{"bike_id":"26ecfd90-2879-4ffd-b3cb-633752b421a5","system_id":"levelo_inurba_marseille","lat":43.265503,"lon":5.372975,"is_reserved":false,"is_disabled":false,"rental_uris":{"android":"levelo://app?vid=26ecfd90-2879-4ffd-b3cb-633752b421a5","ios":"levelo://app?vid=26ecfd90-2879-4ffd-b3cb-633752b421a5"},"vehicle_type_id":"4","last_reported":1761192792,"current_range_meters":17200,"station_id":"ce4bhg12rcd13ifvqf70","pricing_plan_id":"cebpf4jnsgd1na2vs0mg"},{"bike_id":"03946b55-ed1f-44cd-85ca-fa5b74d76c1f","system_id":"levelo_inurba_marseille","lat":43.29427,"lon":5.39735,"is_reserved":false,"is_disabled":false,"rental_uris":{"android":"levelo://app?vid=03946b55-ed1f-44cd-85ca-fa5b74d76c1f","ios":"levelo://app?vid=03946b55-ed1f-44cd-85ca-fa5b74d76c1f"},"vehicle_type_id":"4","last_reported":1761192792,"current_range_meters":17200,"station_id":"ce4bh3h2rcd13ifvqdo0","pricing_plan_id":"cebpf4jnsgd1na2vs0mg"},{"bike_id":"035ca1d7-233f-4f69-9569-4f3393764361","system_id":"levelo_inurba_marseille","lat":43.30901,"lon":5.37324,"is_reserved":false,"is_disabled":false,"rental_uris":{"android":"levelo://app?vid=035ca1d7-233f-4f69-9569-4f3393764361","ios":"levelo://app?vid=035ca1d7-233f-4f69-9569-4f3393764361"},"vehicle_type_id":"4","last_reported":1761192792,"current_range_meters":17200,"station_id":"","pricing_plan_id":"cebpf4jnsgd1na2vs0mg"},{"bike_id":"1996ea89-9471-4d12-8066-1a9d0b7c69da","system_id":"levelo_inurba_marseille","lat":43.24387,"lon":5.37095,"is_reserved":false,"is_disabled":false,"rental_uris":{"android":"levelo://app?vid=1996ea89-9471-4d12-8066-1a9d0b7c69da","ios":"levelo://app?vid=1996ea89-9471-4d12-8066-1a9d0b7c69da"},"vehicle_type_id":"4","last_reported":1761192792,"current_range_meters":17200,"station_id":"ce4bhhh2rcd13ifvqfk0","pricing_plan_id":"cebpf4jnsgd1na2vs0mg"},{"bike_id":"8bcacd78-80de-4026-af75-b37ebe3030fe","system_id":"levelo_inurba_marseille","lat":43.334756,"lon":5.404255,"is_reserved":false,"is_disabled":false,"rental_uris":{"android":"levelo://app?vid=8bcacd78-80de-4026-af75-b37ebe3030fe","ios":"levelo://app?vid=8bcacd78-80de-4026-af75-b37ebe3030fe"},"vehicle_type_id":"4","last_reported":1761192792,"current_range_meters":17200,"station_id":"","pricing_plan_id":"cebpf4jnsgd1na2vs0mg"},{"bike_id":"749eacd6-346c-4dec-8797-07d92fbf774a","system_id":"levelo_inurba_marseille","lat":43.25395,"lon":5.41905,"is_reserved":false,"is_disabled":false,"rental_uris":{"android":"levelo://app?vid=749eacd6-346c-4dec-8797-07d92fbf774a","ios":"levelo://app?vid=749eacd6-346c-4dec-8797-07d92fbf774a"},"vehicle_type_id":"4","last_reported":1761192792,"current_range_meters":17200,"station_id":"","pricing_plan_id":"cebpf4jnsgd1na2vs0mg"},{"bike_id":"e769906a-6115-425c-84a0-aab1fda48d3f","system_id":"levelo_inurba_marseille","lat":43.29658,"lon":5.37526,"is_reserved":false,"is_disabled":false,"rental_uris":{"android":"levelo://app?vid=e769906a-6115-425c-84a0-aab1fda48d3f","ios":"levelo://app?vid=e769906a-6115-425c-84a0-aab1fda48d3f"},"vehicle_type_id":"4","last_reported":1761192792,"current_range_meters":17600,"station_id":"","pricing_plan_id":"cebpf4jnsgd1na2vs0mg"},{"bike_id":"6a9a788f-a6ec-4256-a75f-9f62b85ffbe8","system_id":"levelo_inurba_marseille","lat":43.30972,"lon":5.39043,"is_reserved":false,"is_disabled":false,"rental_uris":{"android":"levelo://app?vid=6a9a788f-a6ec-4256-a75f-9f62b85ffbe8","ios":"levelo://app?vid=6a9a788f-a6ec-4256-a75f-9f62b85ffbe8"},"vehicle_type_id":"4","last_reported":1761192792,"current_range_meters":17600,"station_id":"ce4bgup2rcd13ifvqco0","pricing_plan_id":"cebpf4jnsgd1na2vs0mg"},{"bike_id":"34c2751e-da05-409d-9ad3-2bea6afe72ae","system_id":"levelo_inurba_marseille","lat":43.30894,"lon":5.39667,"is_reserved":false,"is_disabled":false,"rental_uris":{"android":"levelo://app?vid=34c2751e-da05-409d-9ad3-2bea6afe72ae","ios":"levelo://app?vid=34c2751e-da05-409d-9ad3-2bea6afe72ae"},"vehicle_type_id":"4","last_reported":1761192792,"current_range_meters":17600,"station_id":"ce4bh012rcd13ifvqcv0","pricing_plan_id":"cebpf4jnsgd1na2vs0mg"},{"bike_id":"a64f1eab-29ca-4ba7-8b03-6c3c12ada45c","system_id":"levelo_inurba_marseille","lat":43.24406,"lon":5.37072,"is_reserved":false,"is_disabled":false,"rental_uris":{"android":"levelo://app?vid=a64f1eab-29ca-4ba7-8b03-6c3c12ada45c","ios":"levelo://app?vid=a64f1eab-29ca-4ba7-8b03-6c3c12ada45c"},"vehicle_type_id":"4","last_reported":1761192792,"current_range_meters":17600,"station_id":"ce4bhhh2rcd13ifvqfk0","pricing_plan_id":"cebpf4jnsgd1na2vs0mg"},{"bike_id":"08f56b83-c155-4673-8754-24a82492b8d8","system_id":"levelo_inurba_marseille","lat":43.28473,"lon":5.35884,"is_reserved":false,"is_disabled":false,"rental_uris":{"android":"levelo://app?vid=08f56b83-c155-4673-8754-24a82492b8d8","ios":"levelo://app?vid=08f56b83-c155-4673-8754-24a82492b8d8"},"vehicle_type_id":"4","last_reported":1761192792,"current_range_meters":17600,"station_id":"ce4bhah2rcd13ifvqei0","pricing_plan_id":"cebpf4jnsgd1na2vs0mg"},{"bike_id":"23eef07a-fdc9-4985-900c-8ba5658eaf97","system_id":"levelo_inurba_marseille","lat":43.25452,"lon":5.41987,"is_reserved":false,"is_disabled":false,"rental_uris":{"android":"levelo://app?vid=23eef07a-fdc9-4985-900c-8ba5658eaf97","ios":"levelo://app?vid=23eef07a-fdc9-4985-900c-8ba5658eaf97"},"vehicle_type_id":"4","last_reported":1761192792,"current_range_meters":17600,"station_id":"","pricing_plan_id":"cebpf4jnsgd1na2vs0mg"},{"bike_id":"4fa5b3c9-3889-46cb-af1d-88433d9408f1","system_id":"levelo_inurba_marseille","lat":43.27908,"lon":5.38007,"is_reserved":false,"is_disabled":false,"rental_uris":{"android":"levelo://app?vid=4fa5b3c9-3889-46cb-af1d-88433d9408f1","ios":"levelo://app?vid=4fa5b3c9-3889-46cb-af1d-88433d9408f1"},"vehicle_type_id":"4","last_reported":1761192792,"current_range_meters":18000,"station_id":"ce4bhf92rcd13ifvqf50","pricing_plan_id":"cebpf4jnsgd1na2vs0mg"},{"bike_id":"96939117-35ce-41f0-9af0-fcff4726b36a","system_id":"levelo_inurba_marseille","lat":43.303767,"lon":5.424885,"is_reserved":false,"is_disabled":false,"rental_uris":{"android":"levelo://app?vid=96939117-35ce-41f0-9af0-fcff4726b36a","ios":"levelo://app?vid=96939117-35ce-41f0-9af0-fcff4726b36a"},"vehicle_type_id":"4","last_reported":1761192792,"current_range_meters":18000,"station_id":"ce4bhoh2rcd13ifvqh6g","pricing_plan_id":"cebpf4jnsgd1na2vs0mg"},{"bike_id":"206ce9bb-93f8-4a08-b561-f32d594a1852","system_id":"levelo_inurba_marseille","lat":43.29826,"lon":5.44071,"is_reserved":false,"is_disabled":false,"rental_uris":{"android":"levelo://app?vid=206ce9bb-93f8-4a08-b561-f32d594a1852","ios":"levelo://app?vid=206ce9bb-93f8-4a08-b561-f32d594a1852"},"vehicle_type_id":"4","last_reported":1761192792,"current_range_meters":18000,"station_id":"st_d3jp68qikq2c7381ktn0","pricing_plan_id":"cebpf4jnsgd1na2vs0mg"},{"bike_id":"142aacb7-1ed6-4fc3-8b6b-99c8d1c3c7dd","system_id":"levelo_inurba_marseille","lat":43.31741,"lon":5.42339,"is_reserved":false,"is_disabled":false,"rental_uris":{"android":"levelo://app?vid=142aacb7-1ed6-4fc3-8b6b-99c8d1c3c7dd","ios":"levelo://app?vid=142aacb7-1ed6-4fc3-8b6b-99c8d1c3c7dd"},"vehicle_type_id":"4","last_reported":1761192792,"current_range_meters":18000,"station_id":"ce4bhp92rcd13ifvqhbg","pricing_plan_id":"cebpf4jnsgd1na2vs0mg"},{"bike_id":"4b57f639-91e4-4b76-b70a-71ec481a791c","system_id":"levelo_inurba_marseille","lat":43.25124,"lon":5.40325,"is_reserved":false,"is_disabled":false,"rental_uris":{"android":"levelo://app?vid=4b57f639-91e4-4b76-b70a-71ec481a791c","ios":"levelo://app?vid=4b57f639-91e4-4b76-b70a-71ec481a791c"},"vehicle_type_id":"4","last_reported":1761192792,"current_range_meters":18000,"station_id":"ce4bhlh2rcd13ifvqgig","pricing_plan_id":"cebpf4jnsgd1na2vs0mg"},{"bike_id":"6b37a1b8-5eb3-475e-b683-fd0eb1dbf02a","system_id":"levelo_inurba_marseille","lat":43.24806,"lon":5.37428,"is_reserved":false,"is_disabled":true,"rental_uris":{"android":"levelo://app?vid=6b37a1b8-5eb3-475e-b683-fd0eb1dbf02a","ios":"levelo://app?vid=6b37a1b8-5eb3-475e-b683-fd0eb1dbf02a"},"vehicle_type_id":"4","last_reported":1761192792,"current_range_meters":18000,"station_id":"ce4bhgh2rcd13ifvqfb0","pricing_plan_id":"cebpf4jnsgd1na2vs0mg"},{"bike_id":"078081c6-88c0-4f2d-a619-261bfa8b66b2","system_id":"levelo_inurba_marseille","lat":43.29809,"lon":5.43858,"is_reserved":false,"is_disabled":false,"rental_uris":{"android":"levelo://app?vid=078081c6-88c0-4f2d-a619-261bfa8b66b2","ios":"levelo://app?vid=078081c6-88c0-4f2d-a619-261bfa8b66b2"},"vehicle_type_id":"4","last_reported":1761192792,"current_range_meters":18000,"station_id":"","pricing_plan_id":"cebpf4jnsgd1na2vs0mg"},{"bike_id":"7b113150-9a3e-408d-be60-f73dcbe6efbf","system_id":"levelo_inurba_marseille","lat":43.248131,"lon":5.37461,"is_reserved":false,"is_disabled":false,"rental_uris":{"android":"levelo://app?vid=7b113150-9a3e-408d-be60-f73dcbe6efbf","ios":"levelo://app?vid=7b113150-9a3e-408d-be60-f73dcbe6efbf"},"vehicle_type_id":"4","last_reported":1761192792,"current_range_meters":18000,"station_id":"ce4bhgh2rcd13ifvqfb0","pricing_plan_id":"cebpf4jnsgd1na2vs0mg"},{"bike_id":"bd6dc95a-a163-4881-9acc-941af1bf377a","system_id":"levelo_inurba_marseille","lat":43.309267,"lon":5.401568,"is_reserved":false,"is_disabled":false,"rental_uris":{"android":"levelo://app?vid=bd6dc95a-a163-4881-9acc-941af1bf377a","ios":"levelo://app?vid=bd6dc95a-a163-4881-9acc-941af1bf377a"},"vehicle_type_id":"4","last_reported":1761192792,"current_range_meters":18000,"station_id":"ce4bgvp2rcd13ifvqct0","pricing_plan_id":"cebpf4jnsgd1na2vs0mg"},{"bike_id":"2172ef7f-240b-4c72-bf8d-26c79cc1f73d","system_id":"levelo_inurba_marseille","lat":43.29913,"lon":5.43658,"is_reserved":false,"is_disabled":false,"rental_uris":{"android":"levelo://app?vid=2172ef7f-240b-4c72-bf8d-26c79cc1f73d","ios":"levelo://app?vid=2172ef7f-240b-4c72-bf8d-26c79cc1f73d"},"vehicle_type_id":"4","last_reported":1761192792,"current_range_meters":18800,"station_id":"ce4bhpp2rcd13ifvqhfg","pricing_plan_id":"cebpf4jnsgd1na2vs0mg"},{"bike_id":"e986eb56-ca00-4dbf-ada0-578bc3d8f529","system_id":"levelo_inurba_marseille","lat":43.27314,"lon":5.414144,"is_reserved":false,"is_disabled":false,"rental_uris":{"android":"levelo://app?vid=e986eb56-ca00-4dbf-ada0-578bc3d8f529","ios":"levelo://app?vid=e986eb56-ca00-4dbf-ada0-578bc3d8f529"},"vehicle_type_id":"4","last_reported":1761192792,"current_range_meters":18800,"station_id":"","pricing_plan_id":"cebpf4jnsgd1na2vs0mg"},{"bike_id":"2b7bd532-1ae3-4d40-83fc-9389b1e0a3b2","system_id":"levelo_inurba_marseille","lat":43.30408,"lon":5.38884,"is_reserved":false,"is_disabled":false,"rental_uris":{"android":"levelo://app?vid=2b7bd532-1ae3-4d40-83fc-9389b1e0a3b2","ios":"levelo://app?vid=2b7bd532-1ae3-4d40-83fc-9389b1e0a3b2"},"vehicle_type_id":"4","last_reported":1761192792,"current_range_meters":18800,"station_id":"ce4bgk12rcd13ifvqbi0","pricing_plan_id":"cebpf4jnsgd1na2vs0mg"},{"bike_id":"75eebb0f-2447-4bf8-b846-45b5b359059b","system_id":"levelo_inurba_marseille","lat":43.33762,"lon":5.37487,"is_reserved":false,"is_disabled":false,"rental_uris":{"android":"levelo://app?vid=75eebb0f-2447-4bf8-b846-45b5b359059b","ios":"levelo://app?vid=75eebb0f-2447-4bf8-b846-45b5b359059b"},"vehicle_type_id":"4","last_reported":1761192792,"current_range_meters":18800,"station_id":"","pricing_plan_id":"cebpf4jnsgd1na2vs0mg"},{"bike_id":"ff3fcf70-c183-4046-b310-5c316a40bd51","system_id":"levelo_inurba_marseille","lat":43.307403,"lon":5.424428,"is_reserved":false,"is_disabled":false,"rental_uris":{"android":"levelo://app?vid=ff3fcf70-c183-4046-b310-5c316a40bd51","ios":"levelo://app?vid=ff3fcf70-c183-4046-b310-5c316a40bd51"},"vehicle_type_id":"4","last_reported":1761192792,"current_range_meters":18800,"station_id":"st_cvj6ca6bvosntc0bfgr0","pricing_plan_id":"cebpf4jnsgd1na2vs0mg"},{"bike_id":"de6614d3-f5d0-4631-a6ac-aad439cfe511","system_id":"levelo_inurba_marseille","lat":43.24562,"lon":5.39521,"is_reserved":false,"is_disabled":true,"rental_uris":{"android":"levelo://app?vid=de6614d3-f5d0-4631-a6ac-aad439cfe511","ios":"levelo://app?vid=de6614d3-f5d0-4631-a6ac-aad439cfe511"},"vehicle_type_id":"4","last_reported":1761192792,"current_range_meters":18800,"station_id":"ce4bhlp2rcd13ifvqgjg","pricing_plan_id":"cebpf4jnsgd1na2vs0mg"},{"bike_id":"0e693f24-b475-4e05-8789-fe144bc148e8","system_id":"levelo_inurba_marseille","lat":43.28866,"lon":5.42533,"is_reserved":false,"is_disabled":false,"rental_uris":{"android":"levelo://app?vid=0e693f24-b475-4e05-8789-fe144bc148e8","ios":"levelo://app?vid=0e693f24-b475-4e05-8789-fe144bc148e8"},"vehicle_type_id":"4","last_reported":1761192792,"current_range_meters":18800,"station_id":"st_d3b462108ojc7389ooeg","pricing_plan_id":"cebpf4jnsgd1na2vs0mg"},{"bike_id":"05fe6669-308a-4fe7-b1fc-601cee92a2d3","system_id":"levelo_inurba_marseille","lat":43.28966,"lon":5.36407,"is_reserved":false,"is_disabled":false,"rental_uris":{"android":"levelo://app?vid=05fe6669-308a-4fe7-b1fc-601cee92a2d3","ios":"levelo://app?vid=05fe6669-308a-4fe7-b1fc-601cee92a2d3"},"vehicle_type_id":"4","last_reported":1761192792,"current_range_meters":19200,"station_id":"ce4bhc92rcd13ifvqetg","pricing_plan_id":"cebpf4jnsgd1na2vs0mg"},{"bike_id":"caee9124-12d2-49f7-b04c-21503560b945","system_id":"levelo_inurba_marseille","lat":43.28962,"lon":5.36415,"is_reserved":false,"is_disabled":false,"rental_uris":{"android":"levelo://app?vid=caee9124-12d2-49f7-b04c-21503560b945","ios":"levelo://app?vid=caee9124-12d2-49f7-b04c-21503560b945"},"vehicle_type_id":"4","last_reported":1761192792,"current_range_meters":19200,"station_id":"ce4bhc92rcd13ifvqetg","pricing_plan_id":"cebpf4jnsgd1na2vs0mg"},{"bike_id":"3e4783b6-28d8-4737-a4ef-6a1b0da02476","system_id":"levelo_inurba_marseille","lat":43.29436,"lon":5.40705,"is_reserved":false,"is_disabled":false,"rental_uris":{"android":"levelo://app?vid=3e4783b6-28d8-4737-a4ef-6a1b0da02476","ios":"levelo://app?vid=3e4783b6-28d8-4737-a4ef-6a1b0da02476"},"vehicle_type_id":"4","last_reported":1761192792,"current_range_meters":19200,"station_id":"","pricing_plan_id":"cebpf4jnsgd1na2vs0mg"},{"bike_id":"25510b45-08cd-431b-9096-a61c2284a027","system_id":"levelo_inurba_marseille","lat":43.316678,"lon":5.382044,"is_reserved":false,"is_disabled":false,"rental_uris":{"android":"levelo://app?vid=25510b45-08cd-431b-9096-a61c2284a027","ios":"levelo://app?vid=25510b45-08cd-431b-9096-a61c2284a027"},"vehicle_type_id":"4","last_reported":1761192792,"current_range_meters":19200,"station_id":"","pricing_plan_id":"cebpf4jnsgd1na2vs0mg"},{"bike_id":"5c57c97f-5b4e-4169-89b1-842474be16a9","system_id":"levelo_inurba_marseille","lat":43.27948,"lon":5.39581,"is_reserved":false,"is_disabled":false,"rental_uris":{"android":"levelo://app?vid=5c57c97f-5b4e-4169-89b1-842474be16a9","ios":"levelo://app?vid=5c57c97f-5b4e-4169-89b1-842474be16a9"},"vehicle_type_id":"4","last_reported":1761192792,"current_range_meters":19200,"station_id":"ce4bhf92rcd13ifvqf40","pricing_plan_id":"cebpf4jnsgd1na2vs0mg"},{"bike_id":"692a999f-f646-43fe-b949-d58fd32447f4","system_id":"levelo_inurba_marseille","lat":43.32254,"lon":5.39417,"is_reserved":false,"is_disabled":false,"rental_uris":{"android":"levelo://app?vid=692a999f-f646-43fe-b949-d58fd32447f4","ios":"levelo://app?vid=692a999f-f646-43fe-b949-d58fd32447f4"},"vehicle_type_id":"4","last_reported":1761192792,"current_range_meters":19200,"station_id":"","pricing_plan_id":"cebpf4jnsgd1na2vs0mg"},{"bike_id":"d9ecb998-ceaa-4a39-8aba-9f0e44069447","system_id":"levelo_inurba_marseille","lat":43.32147,"lon":5.38731,"is_reserved":false,"is_disabled":false,"rental_uris":{"android":"levelo://app?vid=d9ecb998-ceaa-4a39-8aba-9f0e44069447","ios":"levelo://app?vid=d9ecb998-ceaa-4a39-8aba-9f0e44069447"},"vehicle_type_id":"4","last_reported":1761192792,"current_range_meters":19200,"station_id":"","pricing_plan_id":"cebpf4jnsgd1na2vs0mg"},{"bike_id":"a6c158d3-c11f-4b54-ac22-f8128d53e5c6","system_id":"levelo_inurba_marseille","lat":43.27545,"lon":5.38437,"is_reserved":false,"is_disabled":true,"rental_uris":{"android":"levelo://app?vid=a6c158d3-c11f-4b54-ac22-f8128d53e5c6","ios":"levelo://app?vid=a6c158d3-c11f-4b54-ac22-f8128d53e5c6"},"vehicle_type_id":"4","last_reported":1761192792,"current_range_meters":19600,"station_id":"ce4bhh92rcd13ifvqfi0","pricing_plan_id":"cebpf4jnsgd1na2vs0mg"},{"bike_id":"33041920-f691-4885-a5ca-db3ff3ddcbe6","system_id":"levelo_inurba_marseille","lat":43.28739,"lon":5.40006,"is_reserved":false,"is_disabled":false,"rental_uris":{"android":"levelo://app?vid=33041920-f691-4885-a5ca-db3ff3ddcbe6","ios":"levelo://app?vid=33041920-f691-4885-a5ca-db3ff3ddcbe6"},"vehicle_type_id":"4","last_reported":1761192792,"current_range_meters":19600,"station_id":"ce4bho92rcd13ifvqh3g","pricing_plan_id":"cebpf4jnsgd1na2vs0mg"},{"bike_id":"bddae8d9-c994-44fe-91c4-5260759d1412","system_id":"levelo_inurba_marseille","lat":43.31141,"lon":5.37749,"is_reserved":false,"is_disabled":false,"rental_uris":{"android":"levelo://app?vid=bddae8d9-c994-44fe-91c4-5260759d1412","ios":"levelo://app?vid=bddae8d9-c994-44fe-91c4-5260759d1412"},"vehicle_type_id":"4","last_reported":1761192792,"current_range_meters":19600,"station_id":"ce4bgt92rcd13ifvqcg0","pricing_plan_id":"cebpf4jnsgd1na2vs0mg"},{"bike_id":"0a4d81c6-2647-4e67-bde2-b7adbc7ef2ba","system_id":"levelo_inurba_marseille","lat":43.28545,"lon":5.44105,"is_reserved":false,"is_disabled":false,"rental_uris":{"android":"levelo://app?vid=0a4d81c6-2647-4e67-bde2-b7adbc7ef2ba","ios":"levelo://app?vid=0a4d81c6-2647-4e67-bde2-b7adbc7ef2ba"},"vehicle_type_id":"4","last_reported":1761192792,"current_range_meters":19600,"station_id":"st_d3j3df2ikq2c7380ej80","pricing_plan_id":"cebpf4jnsgd1na2vs0mg"},{"bike_id":"3a68393b-9b39-488f-b6d0-b32fbdfdd060","system_id":"levelo_inurba_marseille","lat":43.289301,"lon":5.363954,"is_reserved":false,"is_disabled":false,"rental_uris":{"android":"levelo://app?vid=3a68393b-9b39-488f-b6d0-b32fbdfdd060","ios":"levelo://app?vid=3a68393b-9b39-488f-b6d0-b32fbdfdd060"},"vehicle_type_id":"4","last_reported":1761192792,"current_range_meters":19600,"station_id":"ce4bhc92rcd13ifvqetg","pricing_plan_id":"cebpf4jnsgd1na2vs0mg"},{"bike_id":"6552118e-9997-496d-8ae3-3aae82824535","system_id":"levelo_inurba_marseille","lat":43.32246,"lon":5.38357,"is_reserved":false,"is_disabled":false,"rental_uris":{"android":"levelo://app?vid=6552118e-9997-496d-8ae3-3aae82824535","ios":"levelo://app?vid=6552118e-9997-496d-8ae3-3aae82824535"},"vehicle_type_id":"4","last_reported":1761192792,"current_range_meters":19600,"station_id":"","pricing_plan_id":"cebpf4jnsgd1na2vs0mg"},{"bike_id":"c446ae36-ccac-459c-9cf5-91b99d58f28d","system_id":"levelo_inurba_marseille","lat":43.30805,"lon":5.38151,"is_reserved":false,"is_disabled":false,"rental_uris":{"android":"levelo://app?vid=c446ae36-ccac-459c-9cf5-91b99d58f28d","ios":"levelo://app?vid=c446ae36-ccac-459c-9cf5-91b99d58f28d"},"vehicle_type_id":"4","last_reported":1761192792,"current_range_meters":19600,"station_id":"ce4bgt12rcd13ifvqce0","pricing_plan_id":"cebpf4jnsgd1na2vs0mg"},{"bike_id":"e437460d-805d-4c07-9b55-237013e207ed","system_id":"levelo_inurba_marseille","lat":43.30838,"lon":5.38129,"is_reserved":false,"is_disabled":false,"rental_uris":{"android":"levelo://app?vid=e437460d-805d-4c07-9b55-237013e207ed","ios":"levelo://app?vid=e437460d-805d-4c07-9b55-237013e207ed"},"vehicle_type_id":"4","last_reported":1761192792,"current_range_meters":19600,"station_id":"ce4bgt12rcd13ifvqce0","pricing_plan_id":"cebpf4jnsgd1na2vs0mg"},{"bike_id":"e161184c-b47c-41c2-9784-a1463e3f31bf","system_id":"levelo_inurba_marseille","lat":43.31559,"lon":5.38057,"is_reserved":false,"is_disabled":false,"rental_uris":{"android":"levelo://app?vid=e161184c-b47c-41c2-9784-a1463e3f31bf","ios":"levelo://app?vid=e161184c-b47c-41c2-9784-a1463e3f31bf"},"vehicle_type_id":"4","last_reported":1761192792,"current_range_meters":19600,"station_id":"ce4bhsp2rcd13ifvqi50","pricing_plan_id":"cebpf4jnsgd1na2vs0mg"},{"bike_id":"2cd81037-3f76-464f-886c-e8714d61d459","system_id":"levelo_inurba_marseille","lat":43.231905,"lon":5.355485,"is_reserved":false,"is_disabled":false,"rental_uris":{"android":"levelo://app?vid=2cd81037-3f76-464f-886c-e8714d61d459","ios":"levelo://app?vid=2cd81037-3f76-464f-886c-e8714d61d459"},"vehicle_type_id":"4","last_reported":1761192792,"current_range_meters":19600,"station_id":"ce4bhu92rcd13ifvqi70","pricing_plan_id":"cebpf4jnsgd1na2vs0mg"},{"bike_id":"6250ac27-ee37-41d1-bc0f-a615c7912f4a","system_id":"levelo_inurba_marseille","lat":43.32355,"lon":5.36761,"is_reserved":false,"is_disabled":false,"rental_uris":{"android":"levelo://app?vid=6250ac27-ee37-41d1-bc0f-a615c7912f4a","ios":"levelo://app?vid=6250ac27-ee37-41d1-bc0f-a615c7912f4a"},"vehicle_type_id":"4","last_reported":1761192792,"current_range_meters":20000,"station_id":"ce4bhsh2rcd13ifvqi2g","pricing_plan_id":"cebpf4jnsgd1na2vs0mg"},{"bike_id":"f8c755d7-1bb8-4fcd-bb3f-74aeb49951cc","system_id":"levelo_inurba_marseille","lat":43.31392,"lon":5.37899,"is_reserved":false,"is_disabled":false,"rental_uris":{"android":"levelo://app?vid=f8c755d7-1bb8-4fcd-bb3f-74aeb49951cc","ios":"levelo://app?vid=f8c755d7-1bb8-4fcd-bb3f-74aeb49951cc"},"vehicle_type_id":"4","last_reported":1761192792,"current_range_meters":20000,"station_id":"","pricing_plan_id":"cebpf4jnsgd1na2vs0mg"},{"bike_id":"ba758c6c-e7ec-4971-8d5b-04a556881f85","system_id":"levelo_inurba_marseille","lat":43.24079,"lon":5.37756,"is_reserved":false,"is_disabled":false,"rental_uris":{"android":"levelo://app?vid=ba758c6c-e7ec-4971-8d5b-04a556881f85","ios":"levelo://app?vid=ba758c6c-e7ec-4971-8d5b-04a556881f85"},"vehicle_type_id":"4","last_reported":1761192792,"current_range_meters":20000,"station_id":"ce4bhnp2rcd13ifvqgvg","pricing_plan_id":"cebpf4jnsgd1na2vs0mg"},{"bike_id":"5db0d44d-18b4-422a-9766-a3218057e91c","system_id":"levelo_inurba_marseille","lat":43.22929,"lon":5.353811,"is_reserved":false,"is_disabled":false,"rental_uris":{"android":"levelo://app?vid=5db0d44d-18b4-422a-9766-a3218057e91c","ios":"levelo://app?vid=5db0d44d-18b4-422a-9766-a3218057e91c"},"vehicle_type_id":"4","last_reported":1761192792,"current_range_meters":20000,"station_id":"cpo3532slgdg3j2ikp40","pricing_plan_id":"cebpf4jnsgd1na2vs0mg"},{"bike_id":"5a65291a-dbb0-4355-98e3-dc4a423dabce","system_id":"levelo_inurba_marseille","lat":43.25336,"lon":5.42169,"is_reserved":false,"is_disabled":false,"rental_uris":{"android":"levelo://app?vid=5a65291a-dbb0-4355-98e3-dc4a423dabce","ios":"levelo://app?vid=5a65291a-dbb0-4355-98e3-dc4a423dabce"},"vehicle_type_id":"4","last_reported":1761192792,"current_range_meters":20000,"station_id":"st_d2m65c5bi1j21697t3ng","pricing_plan_id":"cebpf4jnsgd1na2vs0mg"},{"bike_id":"5272df9f-0e34-4767-842b-7ab5533efe44","system_id":"levelo_inurba_marseille","lat":43.292798,"lon":5.401428,"is_reserved":false,"is_disabled":false,"rental_uris":{"android":"levelo://app?vid=5272df9f-0e34-4767-842b-7ab5533efe44","ios":"levelo://app?vid=5272df9f-0e34-4767-842b-7ab5533efe44"},"vehicle_type_id":"4","last_reported":1761192792,"current_range_meters":20000,"station_id":"ce4bh312rcd13ifvqdk0","pricing_plan_id":"cebpf4jnsgd1na2vs0mg"},{"bike_id":"88a081c8-feff-4a32-aa72-5352839a2f7c","system_id":"levelo_inurba_marseille","lat":43.25095,"lon":5.39453,"is_reserved":false,"is_disabled":false,"rental_uris":{"android":"levelo://app?vid=88a081c8-feff-4a32-aa72-5352839a2f7c","ios":"levelo://app?vid=88a081c8-feff-4a32-aa72-5352839a2f7c"},"vehicle_type_id":"4","last_reported":1761192792,"current_range_meters":20000,"station_id":"ce4bhm12rcd13ifvqgkg","pricing_plan_id":"cebpf4jnsgd1na2vs0mg"},{"bike_id":"75552eb5-38a2-43ca-9291-cacb859b6f73","system_id":"levelo_inurba_marseille","lat":43.284215,"lon":5.349847,"is_reserved":false,"is_disabled":false,"rental_uris":{"android":"levelo://app?vid=75552eb5-38a2-43ca-9291-cacb859b6f73","ios":"levelo://app?vid=75552eb5-38a2-43ca-9291-cacb859b6f73"},"vehicle_type_id":"4","last_reported":1761192792,"current_range_meters":20400,"station_id":"","pricing_plan_id":"cebpf4jnsgd1na2vs0mg"},{"bike_id":"63d2ead4-e81e-4e90-85c6-a4ce2bb0559a","system_id":"levelo_inurba_marseille","lat":43.309345,"lon":5.401446,"is_reserved":false,"is_disabled":false,"rental_uris":{"android":"levelo://app?vid=63d2ead4-e81e-4e90-85c6-a4ce2bb0559a","ios":"levelo://app?vid=63d2ead4-e81e-4e90-85c6-a4ce2bb0559a"},"vehicle_type_id":"4","last_reported":1761192792,"current_range_meters":20400,"station_id":"ce4bgvp2rcd13ifvqct0","pricing_plan_id":"cebpf4jnsgd1na2vs0mg"},{"bike_id":"fd02326d-bd67-43a3-886c-2bc96a184b95","system_id":"levelo_inurba_marseille","lat":43.25105,"lon":5.39499,"is_reserved":false,"is_disabled":false,"rental_uris":{"android":"levelo://app?vid=fd02326d-bd67-43a3-886c-2bc96a184b95","ios":"levelo://app?vid=fd02326d-bd67-43a3-886c-2bc96a184b95"},"vehicle_type_id":"4","last_reported":1761192792,"current_range_meters":20400,"station_id":"ce4bhm12rcd13ifvqgkg","pricing_plan_id":"cebpf4jnsgd1na2vs0mg"},{"bike_id":"a5455cc9-6fb6-4560-8825-f3f69dbc76f4","system_id":"levelo_inurba_marseille","lat":43.30704,"lon":5.39209,"is_reserved":false,"is_disabled":false,"rental_uris":{"android":"levelo://app?vid=a5455cc9-6fb6-4560-8825-f3f69dbc76f4","ios":"levelo://app?vid=a5455cc9-6fb6-4560-8825-f3f69dbc76f4"},"vehicle_type_id":"4","last_reported":1761192792,"current_range_meters":20400,"station_id":"","pricing_plan_id":"cebpf4jnsgd1na2vs0mg"},{"bike_id":"4b73dd3c-5279-4ce5-ad3d-69bc87c2bffd","system_id":"levelo_inurba_marseille","lat":43.308007,"lon":5.381487,"is_reserved":false,"is_disabled":false,"rental_uris":{"android":"levelo://app?vid=4b73dd3c-5279-4ce5-ad3d-69bc87c2bffd","ios":"levelo://app?vid=4b73dd3c-5279-4ce5-ad3d-69bc87c2bffd"},"vehicle_type_id":"4","last_reported":1761192792,"current_range_meters":20400,"station_id":"ce4bgt12rcd13ifvqce0","pricing_plan_id":"cebpf4jnsgd1na2vs0mg"},{"bike_id":"62f0a2f8-d352-4580-a096-e8ce56ffccdb","system_id":"levelo_inurba_marseille","lat":43.321133,"lon":5.367693,"is_reserved":false,"is_disabled":false,"rental_uris":{"android":"levelo://app?vid=62f0a2f8-d352-4580-a096-e8ce56ffccdb","ios":"levelo://app?vid=62f0a2f8-d352-4580-a096-e8ce56ffccdb"},"vehicle_type_id":"4","last_reported":1761192792,"current_range_meters":20800,"station_id":"ce4bhrh2rcd13ifvqhug","pricing_plan_id":"cebpf4jnsgd1na2vs0mg"},{"bike_id":"7250ad44-ad76-4243-becf-2dd5ce968607","system_id":"levelo_inurba_marseille","lat":43.31248,"lon":5.36865,"is_reserved":false,"is_disabled":false,"rental_uris":{"android":"levelo://app?vid=7250ad44-ad76-4243-becf-2dd5ce968607","ios":"levelo://app?vid=7250ad44-ad76-4243-becf-2dd5ce968607"},"vehicle_type_id":"4","last_reported":1761192792,"current_range_meters":20800,"station_id":"ce4bgl92rcd13ifvqbq0","pricing_plan_id":"cebpf4jnsgd1na2vs0mg"},{"bike_id":"efec5d4f-0237-4c5b-8fe2-6beafb931f9e","system_id":"levelo_inurba_marseille","lat":43.253279,"lon":5.421682,"is_reserved":false,"is_disabled":false,"rental_uris":{"android":"levelo://app?vid=efec5d4f-0237-4c5b-8fe2-6beafb931f9e","ios":"levelo://app?vid=efec5d4f-0237-4c5b-8fe2-6beafb931f9e"},"vehicle_type_id":"4","last_reported":1761192792,"current_range_meters":20800,"station_id":"st_d2m65c5bi1j21697t3ng","pricing_plan_id":"cebpf4jnsgd1na2vs0mg"},{"bike_id":"7e3f0c29-c7cf-4648-8c63-90f647962dab","system_id":"levelo_inurba_marseille","lat":43.29902,"lon":5.43673,"is_reserved":false,"is_disabled":false,"rental_uris":{"android":"levelo://app?vid=7e3f0c29-c7cf-4648-8c63-90f647962dab","ios":"levelo://app?vid=7e3f0c29-c7cf-4648-8c63-90f647962dab"},"vehicle_type_id":"4","last_reported":1761192792,"current_range_meters":20800,"station_id":"ce4bhpp2rcd13ifvqhfg","pricing_plan_id":"cebpf4jnsgd1na2vs0mg"},{"bike_id":"2b5658af-f75e-4db1-9cd0-d4cf8f6bfaa6","system_id":"levelo_inurba_marseille","lat":43.28701,"lon":5.38652,"is_reserved":false,"is_disabled":true,"rental_uris":{"android":"levelo://app?vid=2b5658af-f75e-4db1-9cd0-d4cf8f6bfaa6","ios":"levelo://app?vid=2b5658af-f75e-4db1-9cd0-d4cf8f6bfaa6"},"vehicle_type_id":"4","last_reported":1761192792,"current_range_meters":20800,"station_id":"","pricing_plan_id":"cebpf4jnsgd1na2vs0mg"},{"bike_id":"77124793-d73a-43ea-8840-1a1b5476fa23","system_id":"levelo_inurba_marseille","lat":43.31071,"lon":5.38066,"is_reserved":false,"is_disabled":false,"rental_uris":{"android":"levelo://app?vid=77124793-d73a-43ea-8840-1a1b5476fa23","ios":"levelo://app?vid=77124793-d73a-43ea-8840-1a1b5476fa23"},"vehicle_type_id":"4","last_reported":1761192792,"current_range_meters":20800,"station_id":"","pricing_plan_id":"cebpf4jnsgd1na2vs0mg"},{"bike_id":"ed1e794b-0ed0-4b2e-9bb6-a0c8a06e29f9","system_id":"levelo_inurba_marseille","lat":43.25872,"lon":5.398972,"is_reserved":false,"is_disabled":false,"rental_uris":{"android":"levelo://app?vid=ed1e794b-0ed0-4b2e-9bb6-a0c8a06e29f9","ios":"levelo://app?vid=ed1e794b-0ed0-4b2e-9bb6-a0c8a06e29f9"},"vehicle_type_id":"4","last_reported":1761192792,"current_range_meters":21600,"station_id":"ce4bhl92rcd13ifvqghg","pricing_plan_id":"cebpf4jnsgd1na2vs0mg"},{"bike_id":"ba4abd38-2758-40e2-b80e-1eaf2520794b","system_id":"levelo_inurba_marseille","lat":43.24671,"lon":5.38168,"is_reserved":false,"is_disabled":false,"rental_uris":{"android":"levelo://app?vid=ba4abd38-2758-40e2-b80e-1eaf2520794b","ios":"levelo://app?vid=ba4abd38-2758-40e2-b80e-1eaf2520794b"},"vehicle_type_id":"4","last_reported":1761192792,"current_range_meters":21600,"station_id":"ce4bhih2rcd13ifvqfr0","pricing_plan_id":"cebpf4jnsgd1na2vs0mg"},{"bike_id":"47f09c0c-92a9-44eb-a23c-69934b3ff134","system_id":"levelo_inurba_marseille","lat":43.30111,"lon":5.43115,"is_reserved":false,"is_disabled":true,"rental_uris":{"android":"levelo://app?vid=47f09c0c-92a9-44eb-a23c-69934b3ff134","ios":"levelo://app?vid=47f09c0c-92a9-44eb-a23c-69934b3ff134"},"vehicle_type_id":"4","last_reported":1761192792,"current_range_meters":21600,"station_id":"st_d3js3co5814s73ftftug","pricing_plan_id":"cebpf4jnsgd1na2vs0mg"},{"bike_id":"6d3b8921-c6fa-4ed9-8ab6-03cc87ad2c24","system_id":"levelo_inurba_marseille","lat":43.29434,"lon":5.39713,"is_reserved":false,"is_disabled":false,"rental_uris":{"android":"levelo://app?vid=6d3b8921-c6fa-4ed9-8ab6-03cc87ad2c24","ios":"levelo://app?vid=6d3b8921-c6fa-4ed9-8ab6-03cc87ad2c24"},"vehicle_type_id":"4","last_reported":1761192792,"current_range_meters":21600,"station_id":"ce4bh3h2rcd13ifvqdo0","pricing_plan_id":"cebpf4jnsgd1na2vs0mg"},{"bike_id":"776a3ae1-4adb-4b27-a8ba-1c119aa4fc0d","system_id":"levelo_inurba_marseille","lat":43.31881,"lon":5.40742,"is_reserved":false,"is_disabled":false,"rental_uris":{"android":"levelo://app?vid=776a3ae1-4adb-4b27-a8ba-1c119aa4fc0d","ios":"levelo://app?vid=776a3ae1-4adb-4b27-a8ba-1c119aa4fc0d"},"vehicle_type_id":"4","last_reported":1761192792,"current_range_meters":22000,"station_id":"ce4bhq12rcd13ifvqhig","pricing_plan_id":"cebpf4jnsgd1na2vs0mg"},{"bike_id":"6468c41f-856b-4bf2-9f2b-aa12c2401043","system_id":"levelo_inurba_marseille","lat":43.3114,"lon":5.37745,"is_reserved":false,"is_disabled":false,"rental_uris":{"android":"levelo://app?vid=6468c41f-856b-4bf2-9f2b-aa12c2401043","ios":"levelo://app?vid=6468c41f-856b-4bf2-9f2b-aa12c2401043"},"vehicle_type_id":"4","last_reported":1761192792,"current_range_meters":22000,"station_id":"ce4bgt92rcd13ifvqcg0","pricing_plan_id":"cebpf4jnsgd1na2vs0mg"},{"bike_id":"1316ae57-eb56-4e6b-a70d-c7eecf200875","system_id":"levelo_inurba_marseille","lat":43.296017,"lon":5.380827,"is_reserved":false,"is_disabled":true,"rental_uris":{"android":"levelo://app?vid=1316ae57-eb56-4e6b-a70d-c7eecf200875","ios":"levelo://app?vid=1316ae57-eb56-4e6b-a70d-c7eecf200875"},"vehicle_type_id":"4","last_reported":1761192792,"current_range_meters":22000,"station_id":"ce4bgl12rcd13ifvqbo0","pricing_plan_id":"cebpf4jnsgd1na2vs0mg"},{"bike_id":"f00444e6-df88-45ec-96e2-f1a810e01aa3","system_id":"levelo_inurba_marseille","lat":43.28284,"lon":5.35071,"is_reserved":false,"is_disabled":false,"rental_uris":{"android":"levelo://app?vid=f00444e6-df88-45ec-96e2-f1a810e01aa3","ios":"levelo://app?vid=f00444e6-df88-45ec-96e2-f1a810e01aa3"},"vehicle_type_id":"4","last_reported":1761192792,"current_range_meters":22000,"station_id":"ce4bh312rcd13ifvqdj0","pricing_plan_id":"cebpf4jnsgd1na2vs0mg"},{"bike_id":"51e5442d-f766-4821-b995-605ee39a11a0","system_id":"levelo_inurba_marseille","lat":43.2888,"lon":5.35872,"is_reserved":false,"is_disabled":false,"rental_uris":{"android":"levelo://app?vid=51e5442d-f766-4821-b995-605ee39a11a0","ios":"levelo://app?vid=51e5442d-f766-4821-b995-605ee39a11a0"},"vehicle_type_id":"4","last_reported":1761192792,"current_range_meters":22000,"station_id":"ce4bhb12rcd13ifvqem0","pricing_plan_id":"cebpf4jnsgd1na2vs0mg"},{"bike_id":"f30600c8-fc9d-49ce-b55b-031a13f6836c","system_id":"levelo_inurba_marseille","lat":43.231906,"lon":5.355541,"is_reserved":false,"is_disabled":false,"rental_uris":{"android":"levelo://app?vid=f30600c8-fc9d-49ce-b55b-031a13f6836c","ios":"levelo://app?vid=f30600c8-fc9d-49ce-b55b-031a13f6836c"},"vehicle_type_id":"4","last_reported":1761192792,"current_range_meters":22000,"station_id":"ce4bhu92rcd13ifvqi70","pricing_plan_id":"cebpf4jnsgd1na2vs0mg"},{"bike_id":"41276ee6-d29c-42de-befd-e8a0582d933e","system_id":"levelo_inurba_marseille","lat":43.31551,"lon":5.38037,"is_reserved":false,"is_disabled":false,"rental_uris":{"android":"levelo://app?vid=41276ee6-d29c-42de-befd-e8a0582d933e","ios":"levelo://app?vid=41276ee6-d29c-42de-befd-e8a0582d933e"},"vehicle_type_id":"4","last_reported":1761192792,"current_range_meters":22000,"station_id":"ce4bhsp2rcd13ifvqi50","pricing_plan_id":"cebpf4jnsgd1na2vs0mg"},{"bike_id":"50d421f9-b229-48e4-8430-63db10b9f1be","system_id":"levelo_inurba_marseille","lat":43.28922,"lon":5.38417,"is_reserved":false,"is_disabled":false,"rental_uris":{"android":"levelo://app?vid=50d421f9-b229-48e4-8430-63db10b9f1be","ios":"levelo://app?vid=50d421f9-b229-48e4-8430-63db10b9f1be"},"vehicle_type_id":"4","last_reported":1761192792,"current_range_meters":22000,"station_id":"ce4bh612rcd13ifvqe6g","pricing_plan_id":"cebpf4jnsgd1na2vs0mg"},{"bike_id":"785b7d78-f659-4c05-9fc8-1509b5027e8c","system_id":"levelo_inurba_marseille","lat":43.297962,"lon":5.380943,"is_reserved":false,"is_disabled":false,"rental_uris":{"android":"levelo://app?vid=785b7d78-f659-4c05-9fc8-1509b5027e8c","ios":"levelo://app?vid=785b7d78-f659-4c05-9fc8-1509b5027e8c"},"vehicle_type_id":"4","last_reported":1761192792,"current_range_meters":22400,"station_id":"ce4bgip2rcd13ifvqbb0","pricing_plan_id":"cebpf4jnsgd1na2vs0mg"},{"bike_id":"794baa42-d130-486c-b3d4-d2a560a13d67","system_id":"levelo_inurba_marseille","lat":43.30358,"lon":5.40758,"is_reserved":false,"is_disabled":false,"rental_uris":{"android":"levelo://app?vid=794baa42-d130-486c-b3d4-d2a560a13d67","ios":"levelo://app?vid=794baa42-d130-486c-b3d4-d2a560a13d67"},"vehicle_type_id":"4","last_reported":1761192792,"current_range_meters":22400,"station_id":"","pricing_plan_id":"cebpf4jnsgd1na2vs0mg"},{"bike_id":"ae9439a7-0388-4333-9561-e35c05cd7af4","system_id":"levelo_inurba_marseille","lat":43.28154,"lon":5.39605,"is_reserved":false,"is_disabled":false,"rental_uris":{"android":"levelo://app?vid=ae9439a7-0388-4333-9561-e35c05cd7af4","ios":"levelo://app?vid=ae9439a7-0388-4333-9561-e35c05cd7af4"},"vehicle_type_id":"4","last_reported":1761192792,"current_range_meters":22400,"station_id":"","pricing_plan_id":"cebpf4jnsgd1na2vs0mg"},{"bike_id":"90e74522-eb48-428f-952e-b56fba122848","system_id":"levelo_inurba_marseille","lat":43.28879,"lon":5.35811,"is_reserved":false,"is_disabled":false,"rental_uris":{"android":"levelo://app?vid=90e74522-eb48-428f-952e-b56fba122848","ios":"levelo://app?vid=90e74522-eb48-428f-952e-b56fba122848"},"vehicle_type_id":"4","last_reported":1761192792,"current_range_meters":22400,"station_id":"ce4bhb12rcd13ifvqem0","pricing_plan_id":"cebpf4jnsgd1na2vs0mg"},{"bike_id":"a3b5f10a-e319-4de4-a1ac-888030bf0fed","system_id":"levelo_inurba_marseille","lat":43.30928,"lon":5.40125,"is_reserved":false,"is_disabled":true,"rental_uris":{"android":"levelo://app?vid=a3b5f10a-e319-4de4-a1ac-888030bf0fed","ios":"levelo://app?vid=a3b5f10a-e319-4de4-a1ac-888030bf0fed"},"vehicle_type_id":"4","last_reported":1761192792,"current_range_meters":22400,"station_id":"ce4bgvp2rcd13ifvqct0","pricing_plan_id":"cebpf4jnsgd1na2vs0mg"},{"bike_id":"ace3309e-9a2e-46b8-802d-e7cc0a911f9d","system_id":"levelo_inurba_marseille","lat":43.3235,"lon":5.36743,"is_reserved":false,"is_disabled":false,"rental_uris":{"android":"levelo://app?vid=ace3309e-9a2e-46b8-802d-e7cc0a911f9d","ios":"levelo://app?vid=ace3309e-9a2e-46b8-802d-e7cc0a911f9d"},"vehicle_type_id":"4","last_reported":1761192792,"current_range_meters":22400,"station_id":"ce4bhsh2rcd13ifvqi2g","pricing_plan_id":"cebpf4jnsgd1na2vs0mg"},{"bike_id":"faa6e779-12a7-4d81-a807-9ded52c61b71","system_id":"levelo_inurba_marseille","lat":43.271412,"lon":5.401787,"is_reserved":false,"is_disabled":false,"rental_uris":{"android":"levelo://app?vid=faa6e779-12a7-4d81-a807-9ded52c61b71","ios":"levelo://app?vid=faa6e779-12a7-4d81-a807-9ded52c61b71"},"vehicle_type_id":"4","last_reported":1761192792,"current_range_meters":22800,"station_id":"ce4bhk92rcd13ifvqgc0","pricing_plan_id":"cebpf4jnsgd1na2vs0mg"},{"bike_id":"41bbbdef-22cc-41ba-97cb-8d730d939107","system_id":"levelo_inurba_marseille","lat":43.33028,"lon":5.37278,"is_reserved":false,"is_disabled":false,"rental_uris":{"android":"levelo://app?vid=41bbbdef-22cc-41ba-97cb-8d730d939107","ios":"levelo://app?vid=41bbbdef-22cc-41ba-97cb-8d730d939107"},"vehicle_type_id":"4","last_reported":1761192792,"current_range_meters":22800,"station_id":"","pricing_plan_id":"cebpf4jnsgd1na2vs0mg"},{"bike_id":"2365444c-ce3f-426a-ac2e-1cca700d2046","system_id":"levelo_inurba_marseille","lat":43.3013,"lon":5.37413,"is_reserved":false,"is_disabled":false,"rental_uris":{"android":"levelo://app?vid=2365444c-ce3f-426a-ac2e-1cca700d2046","ios":"levelo://app?vid=2365444c-ce3f-426a-ac2e-1cca700d2046"},"vehicle_type_id":"4","last_reported":1761192792,"current_range_meters":22800,"station_id":"ce4bgs92rcd13ifvqcc0","pricing_plan_id":"cebpf4jnsgd1na2vs0mg"},{"bike_id":"17585014-36d0-4d96-ab97-1812e8c7fbe7","system_id":"levelo_inurba_marseille","lat":43.31667,"lon":5.38241,"is_reserved":false,"is_disabled":false,"rental_uris":{"android":"levelo://app?vid=17585014-36d0-4d96-ab97-1812e8c7fbe7","ios":"levelo://app?vid=17585014-36d0-4d96-ab97-1812e8c7fbe7"},"vehicle_type_id":"4","last_reported":1761192792,"current_range_meters":22800,"station_id":"","pricing_plan_id":"cebpf4jnsgd1na2vs0mg"},{"bike_id":"e7760421-8b1d-4d71-996b-a11ee04f8a94","system_id":"levelo_inurba_marseille","lat":43.29394,"lon":5.39757,"is_reserved":false,"is_disabled":false,"rental_uris":{"android":"levelo://app?vid=e7760421-8b1d-4d71-996b-a11ee04f8a94","ios":"levelo://app?vid=e7760421-8b1d-4d71-996b-a11ee04f8a94"},"vehicle_type_id":"4","last_reported":1761192792,"current_range_meters":22800,"station_id":"ce4bh3h2rcd13ifvqdo0","pricing_plan_id":"cebpf4jnsgd1na2vs0mg"},{"bike_id":"3c897e7a-ca67-4c02-b1ad-be4bdeb2680f","system_id":"levelo_inurba_marseille","lat":43.23138,"lon":5.43736,"is_reserved":false,"is_disabled":false,"rental_uris":{"android":"levelo://app?vid=3c897e7a-ca67-4c02-b1ad-be4bdeb2680f","ios":"levelo://app?vid=3c897e7a-ca67-4c02-b1ad-be4bdeb2680f"},"vehicle_type_id":"4","last_reported":1761192792,"current_range_meters":23200,"station_id":"ce4bhmp2rcd13ifvqgog","pricing_plan_id":"cebpf4jnsgd1na2vs0mg"},{"bike_id":"89eb4c17-f122-4e5f-b880-84255746e0e3","system_id":"levelo_inurba_marseille","lat":43.24664,"lon":5.38846,"is_reserved":false,"is_disabled":false,"rental_uris":{"android":"levelo://app?vid=89eb4c17-f122-4e5f-b880-84255746e0e3","ios":"levelo://app?vid=89eb4c17-f122-4e5f-b880-84255746e0e3"},"vehicle_type_id":"4","last_reported":1761192792,"current_range_meters":23200,"station_id":"ce4bhg12rcd13ifvqf60","pricing_plan_id":"cebpf4jnsgd1na2vs0mg"},{"bike_id":"b3f3f083-b2c6-4366-9642-f6e39e8fb217","system_id":"levelo_inurba_marseille","lat":43.30158,"lon":5.38082,"is_reserved":false,"is_disabled":false,"rental_uris":{"android":"levelo://app?vid=b3f3f083-b2c6-4366-9642-f6e39e8fb217","ios":"levelo://app?vid=b3f3f083-b2c6-4366-9642-f6e39e8fb217"},"vehicle_type_id":"4","last_reported":1761192792,"current_range_meters":23200,"station_id":"ce4bgjp2rcd13ifvqbh0","pricing_plan_id":"cebpf4jnsgd1na2vs0mg"},