{"last_updated":1737630458,"ttl":60,"version":"2.2","data":{"bikes":[{"bike_id":"a24718f8-9faa-4fa4-85a5-9ea2304fdcc6","system_id":"levelo_inurba_marseille","lat":43.31366,"lon":5.38496,"is_reserved":false,"is_disabled":false,"rental_uris":{"android":"levelo://app?vid=a24718f8-9faa-4fa4-85a5-9ea2304fdcc6","ios":"levelo://app?vid=a24718f8-9faa-4fa4-85a5-9ea2304fdcc6"},"vehicle_type_id":"4","last_reported":1737630459,"current_range_meters":26800,"station_id":"ce4bgt92rcd13ifvqcf0","pricing_plan_id":"cebpf4jnsgd1na2vs0mg"},{"bike_id":"2aa5a7ae-52e5-426f-b5df-84bbe04277be","system_id":"levelo_inurba_marseille","lat":43.29996,"lon":5.38481,"is_reserved":false,"is_disabled":false,"rental_uris":{"android":"levelo://app?vid=2aa5a7ae-52e5-426f-b5df-84bbe04277be","ios":"levelo://app?vid=2aa5a7ae-52e5-426f-b5df-84bbe04277be"},"vehicle_type_id":"4","last_reported":1737630459,"current_range_meters":22400,"station_id":"ce4bgj92rcd13ifvqbd0","pricing_plan_id":"cebpf4jnsgd1na2vs0mg"},{"bike_id":"c3fa857d-6c16-4a35-a19b-32c6da4e6156","system_id":"levelo_inurba_marseille","lat":43.324772,"lon":5.365771,"is_reserved":false,"is_disabled":false,"rental_uris":{"android":"levelo://app?vid=c3fa857d-6c16-4a35-a19b-32c6da4e6156","ios":"levelo://app?vid=c3fa857d-6c16-4a35-a19b-32c6da4e6156"},"vehicle_type_id":"4","last_reported":1737630459,"current_range_meters":14000,"station_id":"ce4bhs12rcd13ifvqhvg","pricing_plan_id":"cebpf4jnsgd1na2vs0mg"},{"bike_id":"9aff2613-f85d-49aa-a3c3-3c3e7031c8e3","system_id":"levelo_inurba_marseille","lat":43.26966,"lon":5.38626,"is_reserved":false,"is_disabled":false,"rental_uris":{"android":"levelo://app?vid=9aff2613-f85d-49aa-a3c3-3c3e7031c8e3","ios":"levelo://app?vid=9aff2613-f85d-49aa-a3c3-3c3e7031c8e3"},"vehicle_type_id":"4","last_reported":1737630459,"current_range_meters":37600,"station_id":"ce4bhh92rcd13ifvqfh0","pricing_plan_id":"cebpf4jnsgd1na2vs0mg"},{"bike_id":"d7369b85-0ac0-45eb-8e9f-e47a4e989adc","system_id":"levelo_inurba_marseille","lat":43.29578,"lon":5.36748,"is_reserved":false,"is_disabled":true,"rental_uris":{"android":"levelo://app?vid=d7369b85-0ac0-45eb-8e9f-e47a4e989adc","ios":"levelo://app?vid=d7369b85-0ac0-45eb-8e9f-e47a4e989adc"},"vehicle_type_id":"4","last_reported":1737630459,"current_range_meters":35600,"station_id":"ce4bgph2rcd13ifvqc2g","pricing_plan_id":"cebpf4jnsgd1na2vs0mg"},{"bike_id":"154f4131-0ea8-451d-9f73-b9185b06727a","system_id":"levelo_inurba_marseille","lat":43.29043,"lon":5.39972,"is_reserved":false,"is_disabled":false,"rental_uris":{"android":"levelo://app?vid=154f4131-0ea8-451d-9f73-b9185b06727a","ios":"levelo://app?vid=154f4131-0ea8-451d-9f73-b9185b06727a"},"vehicle_type_id":"4","last_reported":1737630459,"current_range_meters":16000,"station_id":"ce4bh392rcd13ifvqdm0","pricing_plan_id":"cebpf4jnsgd1na2vs0mg"},{"bike_id":"f7287b9a-d591-427c-a646-35e4fb4a8649","system_id":"levelo_inurba_marseille","lat":43.26198,"lon":5.37457,"is_reserved":false,"is_disabled":false,"rental_uris":{"android":"levelo://app?vid=f7287b9a-d591-427c-a646-35e4fb4a8649","ios":"levelo://app?vid=f7287b9a-d591-427c-a646-35e4fb4a8649"},"vehicle_type_id":"4","last_reported":1737630459,"current_range_meters":34000,"station_id":"ce4bhgp2rcd13ifvqfc0","pricing_plan_id":"cebpf4jnsgd1na2vs0mg"},{"bike_id":"dcf4555a-aebc-4561-8ac8-3e8a57d63da1","system_id":"levelo_inurba_marseille","lat":43.29574,"lon":5.36736,"is_reserved":false,"is_disabled":false,"rental_uris":{"android":"levelo://app?vid=dcf4555a-aebc-4561-8ac8-3e8a57d63da1","ios":"levelo://app?vid=dcf4555a-aebc-4561-8ac8-3e8a57d63da1"},"vehicle_type_id":"4","last_reported":1737630459,"current_range_meters":30000,"station_id":"ce4bgph2rcd13ifvqc2g","pricing_plan_id":"cebpf4jnsgd1na2vs0mg"},{"bike_id":"10dad027-cc21-48b4-a245-f49b6bb9b9e3","system_id":"levelo_inurba_marseille","lat":43.31381,"lon":5.38496,"is_reserved":false,"is_disabled":false,"rental_uris":{"android":"levelo://app?vid=10dad027-cc21-48b4-a245-f49b6bb9b9e3","ios":"levelo://app?vid=10dad027-cc21-48b4-a245-f49b6bb9b9e3"},"vehicle_type_id":"4","last_reported":1737630459,"current_range_meters":35200,"station_id":"ce4bgt92rcd13ifvqcf0","pricing_plan_id":"cebpf4jnsgd1na2vs0mg"},{"bike_id":"03656079-b762-4a60-a502-5c4cfb4ffdff","system_id":"levelo_inurba_marseille","lat":43.24074,"lon":5.37756,"is_reserved":false,"is_disabled":false,"rental_uris":{"android":"levelo://app?vid=03656079-b762-4a60-a502-5c4cfb4ffdff","ios":"levelo://app?vid=03656079-b762-4a60-a502-5c4cfb4ffdff"},"vehicle_type_id":"4","last_reported":1737630459,"current_range_meters":38800,"station_id":"","pricing_plan_id":"cebpf4jnsgd1na2vs0mg"},{"bike_id":"c8462216-c0f3-4d05-8f34-f3dd1382f2b5","system_id":"levelo_inurba_marseille","lat":43.291,"lon":5.38134,"is_reserved":false,"is_disabled":false,"rental_uris":{"android":"levelo://app?vid=c8462216-c0f3-4d05-8f34-f3dd1382f2b5","ios":"levelo://app?vid=c8462216-c0f3-4d05-8f34-f3dd1382f2b5"},"vehicle_type_id":"4","last_reported":1737630459,"current_range_meters":35600,"station_id":"ce4bh512rcd13ifvqe2g","pricing_plan_id":"cebpf4jnsgd1na2vs0mg"},{"bike_id":"4ac18713-4945-4d21-be28-e2edb2ddb02f","system_id":"levelo_inurba_marseille","lat":43.30152,"lon":5.3809,"is_reserved":false,"is_disabled":false,"rental_uris":{"android":"levelo://app?vid=4ac18713-4945-4d21-be28-e2edb2ddb02f","ios":"levelo://app?vid=4ac18713-4945-4d21-be28-e2edb2ddb02f"},"vehicle_type_id":"4","last_reported":1737630459,"current_range_meters":25600,"station_id":"ce4bgjp2rcd13ifvqbh0","pricing_plan_id":"cebpf4jnsgd1na2vs0mg"},{"bike_id":"b5cb07e6-6ffd-4db4-8954-0084503b2aef","system_id":"levelo_inurba_marseille","lat":43.33032,"lon":5.39018,"is_reserved":false,"is_disabled":false,"rental_uris":{"android":"levelo://app?vid=b5cb07e6-6ffd-4db4-8954-0084503b2aef","ios":"levelo://app?vid=b5cb07e6-6ffd-4db4-8954-0084503b2aef"},"vehicle_type_id":"4","last_reported":1737630459,"current_range_meters":37600,"station_id":"ce4bhr92rcd13ifvqhrg","pricing_plan_id":"cebpf4jnsgd1na2vs0mg"},{"bike_id":"ce2b86ec-5c6e-436b-bbf1-eb1b6c761903","system_id":"levelo_inurba_marseille","lat":43.27669,"lon":5.38889,"is_reserved":false,"is_disabled":false,"rental_uris":{"android":"levelo://app?vid=ce2b86ec-5c6e-436b-bbf1-eb1b6c761903","ios":"levelo://app?vid=ce2b86ec-5c6e-436b-bbf1-eb1b6c761903"},"vehicle_type_id":"4","last_reported":1737630459,"current_range_meters":37600,"station_id":"ce4bhi12rcd13ifvqfo0","pricing_plan_id":"cebpf4jnsgd1na2vs0mg"},{"bike_id":"6dcec624-3a7c-4332-85d1-ca98b38ab14a","system_id":"levelo_inurba_marseille","lat":43.26499,"lon":5.39537,"is_reserved":false,"is_disabled":false,"rental_uris":{"android":"levelo://app?vid=6dcec624-3a7c-4332-85d1-ca98b38ab14a","ios":"levelo://app?vid=6dcec624-3a7c-4332-85d1-ca98b38ab14a"},"vehicle_type_id":"4","last_reported":1737630459,"current_range_meters":20000,"station_id":"ce4bhi12rcd13ifvqfq0","pricing_plan_id":"cebpf4jnsgd1na2vs0mg"},{"bike_id":"a28ab41f-3280-4cec-afce-3b8a6bab205d","system_id":"levelo_inurba_marseille","lat":43.2988,"lon":5.39731,"is_reserved":false,"is_disabled":false,"rental_uris":{"android":"levelo://app?vid=a28ab41f-3280-4cec-afce-3b8a6bab205d","ios":"levelo://app?vid=a28ab41f-3280-4cec-afce-3b8a6bab205d"},"vehicle_type_id":"4","last_reported":1737630459,"current_range_meters":29600,"station_id":"ce4bh0h2rcd13ifvqd50","pricing_plan_id":"cebpf4jnsgd1na2vs0mg"},{"bike_id":"30ed2cc6-f71f-42ec-a788-fecd9edec9ce","system_id":"levelo_inurba_marseille","lat":43.30952,"lon":5.39053,"is_reserved":false,"is_disabled":false,"rental_uris":{"android":"levelo://app?vid=30ed2cc6-f71f-42ec-a788-fecd9edec9ce","ios":"levelo://app?vid=30ed2cc6-f71f-42ec-a788-fecd9edec9ce"},"vehicle_type_id":"4","last_reported":1737630459,"current_range_meters":8400,"station_id":"ce4bgup2rcd13ifvqco0","pricing_plan_id":"cebpf4jnsgd1na2vs0mg"},{"bike_id":"2236f678-2742-4458-b17f-cf2279d3091c","system_id":"levelo_inurba_marseille","lat":43.27897,"lon":5.38004,"is_reserved":false,"is_disabled":false,"rental_uris":{"android":"levelo://app?vid=2236f678-2742-4458-b17f-cf2279d3091c","ios":"levelo://app?vid=2236f678-2742-4458-b17f-cf2279d3091c"},"vehicle_type_id":"4","last_reported":1737630459,"current_range_meters":36800,"station_id":"ce4bhf92rcd13ifvqf50","pricing_plan_id":"cebpf4jnsgd1na2vs0mg"},{"bike_id":"400bfd21-89af-4f06-a1b2-4bb1b37f3a13","system_id":"levelo_inurba_marseille","lat":43.28454,"lon":5.35896,"is_reserved":false,"is_disabled":false,"rental_uris":{"android":"levelo://app?vid=400bfd21-89af-4f06-a1b2-4bb1b37f3a13","ios":"levelo://app?vid=400bfd21-89af-4f06-a1b2-4bb1b37f3a13"},"vehicle_type_id":"4","last_reported":1737630459,"current_range_meters":31200,"station_id":"ce4bhah2rcd13ifvqei0","pricing_plan_id":"cebpf4jnsgd1na2vs0mg"},{"bike_id":"2a80df51-a758-43ec-8377-7504eaafab77","system_id":"levelo_inurba_marseille","lat":43.25935,"lon":5.40913,"is_reserved":false,"is_disabled":false,"rental_uris":{"android":"levelo://app?vid=2a80df51-a758-43ec-8377-7504eaafab77","ios":"levelo://app?vid=2a80df51-a758-43ec-8377-7504eaafab77"},"vehicle_type_id":"4","last_reported":1737630459,"current_range_meters":38800,"station_id":"ce4bhm92rcd13ifvqglg","pricing_plan_id":"cebpf4jnsgd1na2vs0mg"},{"bike_id":"62deda02-398b-428c-93c7-c43dbeb4b460","system_id":"levelo_inurba_marseille","lat":43.32015,"lon":5.38147,"is_reserved":false,"is_disabled":false,"rental_uris":{"android":"levelo://app?vid=62deda02-398b-428c-93c7-c43dbeb4b460","ios":"levelo://app?vid=62deda02-398b-428c-93c7-c43dbeb4b460"},"vehicle_type_id":"4","last_reported":1737630459,"current_range_meters":37600,"station_id":"ce4bhr12rcd13ifvqhpg","pricing_plan_id":"cebpf4jnsgd1na2vs0mg"},{"bike_id":"9e81dc59-8f27-4b8f-b9f5-64c9903a7bf4","system_id":"levelo_inurba_marseille","lat":43.30906,"lon":5.36868,"is_reserved":false,"is_disabled":false,"rental_uris":{"android":"levelo://app?vid=9e81dc59-8f27-4b8f-b9f5-64c9903a7bf4","ios":"levelo://app?vid=9e81dc59-8f27-4b8f-b9f5-64c9903a7bf4"},"vehicle_type_id":"4","last_reported":1737630459,"current_range_meters":36800,"station_id":"ce4bgn92rcd13ifvqbvg","pricing_plan_id":"cebpf4jnsgd1na2vs0mg"},{"bike_id":"4b99948f-ea48-4383-875e-b58ed823d600","system_id":"levelo_inurba_marseille","lat":43.30527,"lon":5.36716,"is_reserved":false,"is_disabled":false,"rental_uris":{"android":"levelo://app?vid=4b99948f-ea48-4383-875e-b58ed823d600","ios":"levelo://app?vid=4b99948f-ea48-4383-875e-b58ed823d600"},"vehicle_type_id":"4","last_reported":1737630459,"current_range_meters":39200,"station_id":"ce4bgrp2rcd13ifvqc9g","pricing_plan_id":"cebpf4jnsgd1na2vs0mg"},{"bike_id":"01cae3ee-cbac-4053-afea-a21902dbcb64","system_id":"levelo_inurba_marseille","lat":43.31367,"lon":5.385,"is_reserved":false,"is_disabled":false,"rental_uris":{"android":"levelo://app?vid=01cae3ee-cbac-4053-afea-a21902dbcb64","ios":"levelo://app?vid=01cae3ee-cbac-4053-afea-a21902dbcb64"},"vehicle_type_id":"4","last_reported":1737630459,"current_range_meters":30000,"station_id":"ce4bgt92rcd13ifvqcf0","pricing_plan_id":"cebpf4jnsgd1na2vs0mg"},{"bike_id":"e38da209-d8d9-4680-be99-11d1954272ef","system_id":"levelo_inurba_marseille","lat":43.2619,"lon":5.37932,"is_reserved":false,"is_disabled":false,"rental_uris":{"android":"levelo://app?vid=e38da209-d8d9-4680-be99-11d1954272ef","ios":"levelo://app?vid=e38da209-d8d9-4680-be99-11d1954272ef"},"vehicle_type_id":"4","last_reported":1737630459,"current_range_meters":38400,"station_id":"ce4bhjp2rcd13ifvqg90","pricing_plan_id":"cebpf4jnsgd1na2vs0mg"},{"bike_id":"77f1573a-30a1-4557-8b1e-0b2d3380a621","system_id":"levelo_inurba_marseille","lat":43.29969,"lon":5.37183,"is_reserved":false,"is_disabled":false,"rental_uris":{"android":"levelo://app?vid=77f1573a-30a1-4557-8b1e-0b2d3380a621","ios":"levelo://app?vid=77f1573a-30a1-4557-8b1e-0b2d3380a621"},"vehicle_type_id":"4","last_reported":1737630459,"current_range_meters":38400,"station_id":"ce4bgr92rcd13ifvqc7g","pricing_plan_id":"cebpf4jnsgd1na2vs0mg"},{"bike_id":"5d4fa761-e480-4599-a18e-55917918b6b9","system_id":"levelo_inurba_marseille","lat":43.23153,"lon":5.43719,"is_reserved":false,"is_disabled":false,"rental_uris":{"android":"levelo://app?vid=5d4fa761-e480-4599-a18e-55917918b6b9","ios":"levelo://app?vid=5d4fa761-e480-4599-a18e-55917918b6b9"},"vehicle_type_id":"4","last_reported":1737630459,"current_range_meters":18000,"station_id":"ce4bhmp2rcd13ifvqgog","pricing_plan_id":"cebpf4jnsgd1na2vs0mg"},{"bike_id":"b79fd583-0f35-4890-bc5b-c92796d8cb12","system_id":"levelo_inurba_marseille","lat":43.30156,"lon":5.38094,"is_reserved":false,"is_disabled":false,"rental_uris":{"android":"levelo://app?vid=b79fd583-0f35-4890-bc5b-c92796d8cb12","ios":"levelo://app?vid=b79fd583-0f35-4890-bc5b-c92796d8cb12"},"vehicle_type_id":"4","last_reported":1737630459,"current_range_meters":13600,"station_id":"ce4bgjp2rcd13ifvqbh0","pricing_plan_id":"cebpf4jnsgd1na2vs0mg"},{"bike_id":"adf3c0fc-d185-4660-9571-e3bb74b0545e","system_id":"levelo_inurba_marseille","lat":43.29905,"lon":5.37487,"is_reserved":false,"is_disabled":false,"rental_uris":{"android":"levelo://app?vid=adf3c0fc-d185-4660-9571-e3bb74b0545e","ios":"levelo://app?vid=adf3c0fc-d185-4660-9571-e3bb74b0545e"},"vehicle_type_id":"4","last_reported":1737630459,"current_range_meters":38800,"station_id":"ce4bgjh2rcd13ifvqbg0","pricing_plan_id":"cebpf4jnsgd1na2vs0mg"},{"bike_id":"7ac4acd4-bd74-4db4-b010-03d6a4eb59a1","system_id":"levelo_inurba_marseille","lat":43.29473,"lon":5.3759,"is_reserved":false,"is_disabled":false,"rental_uris":{"android":"levelo://app?vid=7ac4acd4-bd74-4db4-b010-03d6a4eb59a1","ios":"levelo://app?vid=7ac4acd4-bd74-4db4-b010-03d6a4eb59a1"},"vehicle_type_id":"4","last_reported":1737630459,"current_range_meters":39200,"station_id":"ce4bgkp2rcd13ifvqbmg","pricing_plan_id":"cebpf4jnsgd1na2vs0mg"},{"bike_id":"78e04b22-500f-4fc2-b600-8f3fdd81bda1","system_id":"levelo_inurba_marseille","lat":43.255737,"lon":5.382197,"is_reserved":false,"is_disabled":false,"rental_uris":{"android":"levelo://app?vid=78e04b22-500f-4fc2-b600-8f3fdd81bda1","ios":"levelo://app?vid=78e04b22-500f-4fc2-b600-8f3fdd81bda1"},"vehicle_type_id":"4","last_reported":1737630459,"current_range_meters":16800,"station_id":"ce4bhih2rcd13ifvqfs0","pricing_plan_id":"cebpf4jnsgd1na2vs0mg"},{"bike_id":"476e1891-c5e3-4d5c-b1b5-9f6fc81f93b2","system_id":"levelo_inurba_marseille","lat":43.29909,"lon":5.37477,"is_reserved":false,"is_disabled":false,"rental_uris":{"android":"levelo://app?vid=476e1891-c5e3-4d5c-b1b5-9f6fc81f93b2","ios":"levelo://app?vid=476e1891-c5e3-4d5c-b1b5-9f6fc81f93b2"},"vehicle_type_id":"4","last_reported":1737630459,"current_range_meters":20800,"station_id":"ce4bgjh2rcd13ifvqbg0","pricing_plan_id":"cebpf4jnsgd1na2vs0mg"},{"bike_id":"3e4ba3ea-c8eb-4ae4-840f-7cac3a5d1103","system_id":"levelo_inurba_marseille","lat":43.27979,"lon":5.38731,"is_reserved":false,"is_disabled":false,"rental_uris":{"android":"levelo://app?vid=3e4ba3ea-c8eb-4ae4-840f-7cac3a5d1103","ios":"levelo://app?vid=3e4ba3ea-c8eb-4ae4-840f-7cac3a5d1103"},"vehicle_type_id":"4","last_reported":1737630459,"current_range_meters":34000,"station_id":"ce4bhg12rcd13ifvqf80","pricing_plan_id":"cebpf4jnsgd1na2vs0mg"},{"bike_id":"9885c3b6-bcd1-4482-97df-d738948a9fd6","system_id":"levelo_inurba_marseille","lat":43.33617,"lon":5.41022,"is_reserved":false,"is_disabled":false,"rental_uris":{"android":"levelo://app?vid=9885c3b6-bcd1-4482-97df-d738948a9fd6","ios":"levelo://app?vid=9885c3b6-bcd1-4482-97df-d738948a9fd6"},"vehicle_type_id":"4","last_reported":1737630459,"current_range_meters":27600,"station_id":"ce4bhqh2rcd13ifvqhmg","pricing_plan_id":"cebpf4jnsgd1na2vs0mg"},{"bike_id":"4a1877ac-0eba-4d1d-a5b6-5c57a0d326b7","system_id":"levelo_inurba_marseille","lat":43.31089,"lon":5.42433,"is_reserved":false,"is_disabled":false,"rental_uris":{"android":"levelo://app?vid=4a1877ac-0eba-4d1d-a5b6-5c57a0d326b7","ios":"levelo://app?vid=4a1877ac-0eba-4d1d-a5b6-5c57a0d326b7"},"vehicle_type_id":"4","last_reported":1737630459,"current_range_meters":12800,"station_id":"ce4bhp92rcd13ifvqhag","pricing_plan_id":"cebpf4jnsgd1na2vs0mg"},{"bike_id":"4c3fd064-567c-4c07-aded-62366cae8c14","system_id":"levelo_inurba_marseille","lat":43.30289,"lon":5.37722,"is_reserved":false,"is_disabled":false,"rental_uris":{"android":"levelo://app?vid=4c3fd064-567c-4c07-aded-62366cae8c14","ios":"levelo://app?vid=4c3fd064-567c-4c07-aded-62366cae8c14"},"vehicle_type_id":"4","last_reported":1737630459,"current_range_meters":38800,"station_id":"ce4bguh2rcd13ifvqcj0","pricing_plan_id":"cebpf4jnsgd1na2vs0mg"},{"bike_id":"3079cbe3-87e2-4b16-9293-0e1aeb56da01","system_id":"levelo_inurba_marseille","lat":43.30955,"lon":5.39032,"is_reserved":false,"is_disabled":false,"rental_uris":{"android":"levelo://app?vid=3079cbe3-87e2-4b16-9293-0e1aeb56da01","ios":"levelo://app?vid=3079cbe3-87e2-4b16-9293-0e1aeb56da01"},"vehicle_type_id":"4","last_reported":1737630459,"current_range_meters":10000,"station_id":"ce4bgup2rcd13ifvqco0","pricing_plan_id":"cebpf4jnsgd1na2vs0mg"},{"bike_id":"e07ef434-e132-40c2-a8b3-7e403c5158c9","system_id":"levelo_inurba_marseille","lat":43.29203,"lon":5.3931,"is_reserved":false,"is_disabled":false,"rental_uris":{"android":"levelo://app?vid=e07ef434-e132-40c2-a8b3-7e403c5158c9","ios":"levelo://app?vid=e07ef434-e132-40c2-a8b3-7e403c5158c9"},"vehicle_type_id":"4","last_reported":1737630459,"current_range_meters":22000,"station_id":"ce4bh192rcd13ifvqdd0","pricing_plan_id":"cebpf4jnsgd1na2vs0mg"},{"bike_id":"879aa565-d8cc-4200-91ce-808c6930b82a","system_id":"levelo_inurba_marseille","lat":43.313624,"lon":5.38488,"is_reserved":false,"is_disabled":false,"rental_uris":{"android":"levelo://app?vid=879aa565-d8cc-4200-91ce-808c6930b82a","ios":"levelo://app?vid=879aa565-d8cc-4200-91ce-808c6930b82a"},"vehicle_type_id":"4","last_reported":1737630459,"current_range_meters":19600,"station_id":"","pricing_plan_id":"cebpf4jnsgd1na2vs0mg"},{"bike_id":"b643a99a-69fe-476a-9b0c-812e19557960","system_id":"levelo_inurba_marseille","lat":43.30428,"lon":5.37927,"is_reserved":false,"is_disabled":false,"rental_uris":{"android":"levelo://app?vid=b643a99a-69fe-476a-9b0c-812e19557960","ios":"levelo://app?vid=b643a99a-69fe-476a-9b0c-812e19557960"},"vehicle_type_id":"4","last_reported":1737630459,"current_range_meters":38800,"station_id":"ce4bgup2rcd13ifvqcn0","pricing_plan_id":"cebpf4jnsgd1na2vs0mg"},{"bike_id":"8b1db7fb-3f92-4839-8a1b-2cf6afc9c963","system_id":"levelo_inurba_marseille","lat":43.24995,"lon":5.38933,"is_reserved":false,"is_disabled":false,"rental_uris":{"android":"levelo://app?vid=8b1db7fb-3f92-4839-8a1b-2cf6afc9c963","ios":"levelo://app?vid=8b1db7fb-3f92-4839-8a1b-2cf6afc9c963"},"vehicle_type_id":"4","last_reported":1737630459,"current_range_meters":17600,"station_id":"ce4bhgp2rcd13ifvqfd0","pricing_plan_id":"cebpf4jnsgd1na2vs0mg"},{"bike_id":"7ace546e-9c67-4124-8420-9ed07a575e5a","system_id":"levelo_inurba_marseille","lat":43.31626,"lon":5.40563,"is_reserved":false,"is_disabled":true,"rental_uris":{"android":"levelo://app?vid=7ace546e-9c67-4124-8420-9ed07a575e5a","ios":"levelo://app?vid=7ace546e-9c67-4124-8420-9ed07a575e5a"},"vehicle_type_id":"4","last_reported":1737630459,"current_range_meters":0,"station_id":"","pricing_plan_id":"cebpf4jnsgd1na2vs0mg"},{"bike_id":"f4064b91-d50f-4faa-b80a-c4b38df2d08b","system_id":"levelo_inurba_marseille","lat":43.22928,"lon":5.3541,"is_reserved":false,"is_disabled":false,"rental_uris":{"android":"levelo://app?vid=f4064b91-d50f-4faa-b80a-c4b38df2d08b","ios":"levelo://app?vid=f4064b91-d50f-4faa-b80a-c4b38df2d08b"},"vehicle_type_id":"4","last_reported":1737630459,"current_range_meters":38800,"station_id":"cpo3532slgdg3j2ikp40","pricing_plan_id":"cebpf4jnsgd1na2vs0mg"},{"bike_id":"010d7af0-1cdd-4754-9cac-a1dc0f27c72d","system_id":"levelo_inurba_marseille","lat":43.33114,"lon":5.38221,"is_reserved":false,"is_disabled":false,"rental_uris":{"android":"levelo://app?vid=010d7af0-1cdd-4754-9cac-a1dc0f27c72d","ios":"levelo://app?vid=010d7af0-1cdd-4754-9cac-a1dc0f27c72d"},"vehicle_type_id":"4","last_reported":1737630459,"current_range_meters":26800,"station_id":"","pricing_plan_id":"cebpf4jnsgd1na2vs0mg"},{"bike_id":"5e75dd30-ab3b-44d3-8dcb-cb5fd4a0eb65","system_id":"levelo_inurba_marseille","lat":43.24662,"lon":5.3892,"is_reserved":false,"is_disabled":false,"rental_uris":{"android":"levelo://app?vid=5e75dd30-ab3b-44d3-8dcb-cb5fd4a0eb65","ios":"levelo://app?vid=5e75dd30-ab3b-44d3-8dcb-cb5fd4a0eb65"},"vehicle_type_id":"4","last_reported":1737630459,"current_range_meters":38000,"station_id":"ce4bhg12rcd13ifvqf60","pricing_plan_id":"cebpf4jnsgd1na2vs0mg"},{"bike_id":"e85e33fd-c077-43bf-b3c0-86587a318274","system_id":"levelo_inurba_marseille","lat":43.24179,"lon":5.3973,"is_reserved":false,"is_disabled":false,"rental_uris":{"android":"levelo://app?vid=e85e33fd-c077-43bf-b3c0-86587a318274","ios":"levelo://app?vid=e85e33fd-c077-43bf-b3c0-86587a318274"},"vehicle_type_id":"4","last_reported":1737630459,"current_range_meters":21600,"station_id":"ce4bhn12rcd13ifvqgpg","pricing_plan_id":"cebpf4jnsgd1na2vs0mg"},{"bike_id":"6d736148-0838-4827-bf70-745978854c80","system_id":"levelo_inurba_marseille","lat":43.26189,"lon":5.37942,"is_reserved":false,"is_disabled":false,"rental_uris":{"android":"levelo://app?vid=6d736148-0838-4827-bf70-745978854c80","ios":"levelo://app?vid=6d736148-0838-4827-bf70-745978854c80"},"vehicle_type_id":"4","last_reported":1737630459,"current_range_meters":38800,"station_id":"ce4bhjp2rcd13ifvqg90","pricing_plan_id":"cebpf4jnsgd1na2vs0mg"},{"bike_id":"f0fd2388-1e46-43cf-aae4-f26949657486","system_id":"levelo_inurba_marseille","lat":43.29444,"lon":5.39735,"is_reserved":false,"is_disabled":false,"rental_uris":{"android":"levelo://app?vid=f0fd2388-1e46-43cf-aae4-f26949657486","ios":"levelo://app?vid=f0fd2388-1e46-43cf-aae4-f26949657486"},"vehicle_type_id":"4","last_reported":1737630459,"current_range_meters":32000,"station_id":"ce4bh3h2rcd13ifvqdo0","pricing_plan_id":"cebpf4jnsgd1na2vs0mg"},{"bike_id":"6c2e2f41-9c52-4308-86ab-09129b1176ab","system_id":"levelo_inurba_marseille","lat":43.30534,"lon":5.36527,"is_reserved":false,"is_disabled":false,"rental_uris":{"android":"levelo://app?vid=6c2e2f41-9c52-4308-86ab-09129b1176ab","ios":"levelo://app?vid=6c2e2f41-9c52-4308-86ab-09129b1176ab"},"vehicle_type_id":"4","last_reported":1737630459,"current_range_meters":32800,"station_id":"ce4bgs12rcd13ifvqcag","pricing_plan_id":"cebpf4jnsgd1na2vs0mg"},{"bike_id":"df570c82-1ba3-4893-abbc-6c8e2015a56b","system_id":"levelo_inurba_marseille","lat":43.31675,"lon":5.40494,"is_reserved":false,"is_disabled":false,"rental_uris":{"android":"levelo://app?vid=df570c82-1ba3-4893-abbc-6c8e2015a56b","ios":"levelo://app?vid=df570c82-1ba3-4893-abbc-6c8e2015a56b"},"vehicle_type_id":"4","last_reported":1737630459,"current_range_meters":35600,"station_id":"ce4bh012rcd13ifvqd00","pricing_plan_id":"cebpf4jnsgd1na2vs0mg"},{"bike_id":"72b27e72-0a7f-444e-8089-b40480a90960","system_id":"levelo_inurba_marseille","lat":43.29575,"lon":5.3751,"is_reserved":false,"is_disabled":false,"rental_uris":{"android":"levelo://app?vid=72b27e72-0a7f-444e-8089-b40480a90960","ios":"levelo://app?vid=72b27e72-0a7f-444e-8089-b40480a90960"},"vehicle_type_id":"4","last_reported":1737630459,"current_range_meters":28800,"station_id":"ce4bgh92rcd13ifvqb50","pricing_plan_id":"cebpf4jnsgd1na2vs0mg"},{"bike_id":"9838cc78-2b53-49d3-ae13-82df62c4fd64","system_id":"levelo_inurba_marseille","lat":43.28407,"lon":5.40946,"is_reserved":false,"is_disabled":false,"rental_uris":{"android":"levelo://app?vid=9838cc78-2b53-49d3-ae13-82df62c4fd64","ios":"levelo://app?vid=9838cc78-2b53-49d3-ae13-82df62c4fd64"},"vehicle_type_id":"4","last_reported":1737630459,"current_range_meters":6400,"station_id":"","pricing_plan_id":"cebpf4jnsgd1na2vs0mg"},{"bike_id":"f3ef6cec-33a1-4ae9-94f9-5b6ef04ea4ec","system_id":"levelo_inurba_marseille","lat":43.31343,"lon":5.39699,"is_reserved":false,"is_disabled":false,"rental_uris":{"android":"levelo://app?vid=f3ef6cec-33a1-4ae9-94f9-5b6ef04ea4ec","ios":"levelo://app?vid=f3ef6cec-33a1-4ae9-94f9-5b6ef04ea4ec"},"vehicle_type_id":"4","last_reported":1737630459,"current_range_meters":23200,"station_id":"ce4bgvp2rcd13ifvqcu0","pricing_plan_id":"cebpf4jnsgd1na2vs0mg"},{"bike_id":"d9d67e50-ff60-4024-bb97-06b4cc192a7e","system_id":"levelo_inurba_marseille","lat":43.30221,"lon":5.37451,"is_reserved":false,"is_disabled":true,"rental_uris":{"android":"levelo://app?vid=d9d67e50-ff60-4024-bb97-06b4cc192a7e","ios":"levelo://app?vid=d9d67e50-ff60-4024-bb97-06b4cc192a7e"},"vehicle_type_id":"4","last_reported":1737630459,"current_range_meters":38800,"station_id":"","pricing_plan_id":"cebpf4jnsgd1na2vs0mg"},{"bike_id":"119214ee-6b87-4f01-9e11-980178b3273a","system_id":"levelo_inurba_marseille","lat":43.29556,"lon":5.39983,"is_reserved":false,"is_disabled":true,"rental_uris":{"android":"levelo://app?vid=119214ee-6b87-4f01-9e11-980178b3273a","ios":"levelo://app?vid=119214ee-6b87-4f01-9e11-980178b3273a"},"vehicle_type_id":"4","last_reported":1737630459,"current_range_meters":34800,"station_id":"ce4bh312rcd13ifvqdj0","pricing_plan_id":"cebpf4jnsgd1na2vs0mg"},{"bike_id":"19b8198b-0b8b-41c2-8c4a-a703ec5c010b","system_id":"levelo_inurba_marseille","lat":43.30133,"lon":5.38092,"is_reserved":false,"is_disabled":false,"rental_uris":{"android":"levelo://app?vid=19b8198b-0b8b-41c2-8c4a-a703ec5c010b","ios":"levelo://app?vid=19b8198b-0b8b-41c2-8c4a-a703ec5c010b"},"vehicle_type_id":"4","last_reported":1737630459,"current_range_meters":38800,"station_id":"ce4bgjp2rcd13ifvqbh0","pricing_plan_id":"cebpf4jnsgd1na2vs0mg"},{"bike_id":"8e9b16d7-aa98-4495-aaff-c04ab1afcc63","system_id":"levelo_inurba_marseille","lat":43.30144,"lon":5.38089,"is_reserved":false,"is_disabled":false,"rental_uris":{"android":"levelo://app?vid=8e9b16d7-aa98-4495-aaff-c04ab1afcc63","ios":"levelo://app?vid=8e9b16d7-aa98-4495-aaff-c04ab1afcc63"},"vehicle_type_id":"4","last_reported":1737630459,"current_range_meters":33600,"station_id":"ce4bgjp2rcd13ifvqbh0","pricing_plan_id":"cebpf4jnsgd1na2vs0mg"},{"bike_id":"9f96de60-ba44-4c93-9707-a282028a4274","system_id":"levelo_inurba_marseille","lat":43.2418,"lon":5.39719,"is_reserved":false,"is_disabled":false,"rental_uris":{"android":"levelo://app?vid=9f96de60-ba44-4c93-9707-a282028a4274","ios":"levelo://app?vid=9f96de60-ba44-4c93-9707-a282028a4274"},"vehicle_type_id":"4","last_reported":1737630459,"current_range_meters":37600,"station_id":"ce4bhn12rcd13ifvqgpg","pricing_plan_id":"cebpf4jnsgd1na2vs0mg"},{"bike_id":"453049cf-9b62-421e-aca6-df9a4afd0bf0","system_id":"levelo_inurba_marseille","lat":43.28121,"lon":5.37866,"is_reserved":false,"is_disabled":false,"rental_uris":{"android":"levelo://app?vid=453049cf-9b62-421e-aca6-df9a4afd0bf0","ios":"levelo://app?vid=453049cf-9b62-421e-aca6-df9a4afd0bf0"},"vehicle_type_id":"4","last_reported":1737630459,"current_range_meters":12000,"station_id":"ce4bha12rcd13ifvqee0","pricing_plan_id":"cebpf4jnsgd1na2vs0mg"},{"bike_id":"d08c37a7-7fe0-4179-ac80-eb214b053de8","system_id":"levelo_inurba_marseille","lat":43.32557,"lon":5.41516,"is_reserved":false,"is_disabled":false,"rental_uris":{"android":"levelo://app?vid=d08c37a7-7fe0-4179-ac80-eb214b053de8","ios":"levelo://app?vid=d08c37a7-7fe0-4179-ac80-eb214b053de8"},"vehicle_type_id":"4","last_reported":1737630459,"current_range_meters":38000,"station_id":"","pricing_plan_id":"cebpf4jnsgd1na2vs0mg"},{"bike_id":"2f94ddaf-3e6c-44ee-84f0-e7d186fed9b8","system_id":"levelo_inurba_marseille","lat":43.30922,"lon":5.36853,"is_reserved":false,"is_disabled":false,"rental_uris":{"android":"levelo://app?vid=2f94ddaf-3e6c-44ee-84f0-e7d186fed9b8","ios":"levelo://app?vid=2f94ddaf-3e6c-44ee-84f0-e7d186fed9b8"},"vehicle_type_id":"4","last_reported":1737630459,"current_range_meters":26000,"station_id":"ce4bgn92rcd13ifvqbvg","pricing_plan_id":"cebpf4jnsgd1na2vs0mg"},{"bike_id":"b6a17ddb-9bbb-49ff-bd70-8900a4bca0f7","system_id":"levelo_inurba_marseille","lat":43.30964,"lon":5.39085,"is_reserved":false,"is_disabled":false,"rental_uris":{"android":"levelo://app?vid=b6a17ddb-9bbb-49ff-bd70-8900a4bca0f7","ios":"levelo://app?vid=b6a17ddb-9bbb-49ff-bd70-8900a4bca0f7"},"vehicle_type_id":"4","last_reported":1737630459,"current_range_meters":31200,"station_id":"ce4bgup2rcd13ifvqco0","pricing_plan_id":"cebpf4jnsgd1na2vs0mg"},{"bike_id":"68b608b1-4b2e-42e4-afbb-5cdcf5bc15cf","system_id":"levelo_inurba_marseille","lat":43.26676,"lon":5.3828,"is_reserved":false,"is_disabled":false,"rental_uris":{"android":"levelo://app?vid=68b608b1-4b2e-42e4-afbb-5cdcf5bc15cf","ios":"levelo://app?vid=68b608b1-4b2e-42e4-afbb-5cdcf5bc15cf"},"vehicle_type_id":"4","last_reported":1737630459,"current_range_meters":24800,"station_id":"ce4bhg92rcd13ifvqf90","pricing_plan_id":"cebpf4jnsgd1na2vs0mg"},{"bike_id":"e6e8646a-47fe-42a2-b78a-21530b7ebe2d","system_id":"levelo_inurba_marseille","lat":43.31686,"lon":5.40492,"is_reserved":false,"is_disabled":false,"rental_uris":{"android":"levelo://app?vid=e6e8646a-47fe-42a2-b78a-21530b7ebe2d","ios":"levelo://app?vid=e6e8646a-47fe-42a2-b78a-21530b7ebe2d"},"vehicle_type_id":"4","last_reported":1737630459,"current_range_meters":28400,"station_id":"ce4bh012rcd13ifvqd00","pricing_plan_id":"cebpf4jnsgd1na2vs0mg"},{"bike_id":"e2151eb3-314b-404c-b259-cf12a3a3e0c6","system_id":"levelo_inurba_marseille","lat":43.3159,"lon":5.40258,"is_reserved":false,"is_disabled":false,"rental_uris":{"android":"levelo://app?vid=e2151eb3-314b-404c-b259-cf12a3a3e0c6","ios":"levelo://app?vid=e2151eb3-314b-404c-b259-cf12a3a3e0c6"},"vehicle_type_id":"4","last_reported":1737630459,"current_range_meters":23200,"station_id":"","pricing_plan_id":"cebpf4jnsgd1na2vs0mg"},{"bike_id":"e3c06976-794e-4b0d-8d47-c1fa43444852","system_id":"levelo_inurba_marseille","lat":43.31154,"lon":5.38731,"is_reserved":false,"is_disabled":false,"rental_uris":{"android":"levelo://app?vid=e3c06976-794e-4b0d-8d47-c1fa43444852","ios":"levelo://app?vid=e3c06976-794e-4b0d-8d47-c1fa43444852"},"vehicle_type_id":"4","last_reported":1737630459,"current_range_meters":13600,"station_id":"ce4bgv12rcd13ifvqcp0","pricing_plan_id":"cebpf4jnsgd1na2vs0mg"},{"bike_id":"64bf195a-3778-4038-971b-73163caa0f96","system_id":"levelo_inurba_marseille","lat":43.31489,"lon":5.37306,"is_reserved":false,"is_disabled":false,"rental_uris":{"android":"levelo://app?vid=64bf195a-3778-4038-971b-73163caa0f96","ios":"levelo://app?vid=64bf195a-3778-4038-971b-73163caa0f96"},"vehicle_type_id":"4","last_reported":1737630459,"current_range_meters":34800,"station_id":"ce4bgt12rcd13ifvqcd0","pricing_plan_id":"cebpf4jnsgd1na2vs0mg"},{"bike_id":"1d3742a0-bd07-4b85-97c6-2520180d496e","system_id":"levelo_inurba_marseille","lat":43.32334,"lon":5.4062,"is_reserved":false,"is_disabled":false,"rental_uris":{"android":"levelo://app?vid=1d3742a0-bd07-4b85-97c6-2520180d496e","ios":"levelo://app?vid=1d3742a0-bd07-4b85-97c6-2520180d496e"},"vehicle_type_id":"4","last_reported":1737630459,"current_range_meters":14000,"station_id":"ce4bhq92rcd13ifvqhjg","pricing_plan_id":"cebpf4jnsgd1na2vs0mg"},{"bike_id":"04de6f23-407d-4fcf-b28c-ee2a21a52bbe","system_id":"levelo_inurba_marseille","lat":43.23137,"lon":5.43721,"is_reserved":false,"is_disabled":false,"rental_uris":{"android":"levelo://app?vid=04de6f23-407d-4fcf-b28c-ee2a21a52bbe","ios":"levelo://app?vid=04de6f23-407d-4fcf-b28c-ee2a21a52bbe"},"vehicle_type_id":"4","last_reported":1737630459,"current_range_meters":34000,"station_id":"ce4bhmp2rcd13ifvqgog","pricing_plan_id":"cebpf4jnsgd1na2vs0mg"},{"bike_id":"14f2b8f6-5774-4871-8a2f-d86951c8fb94","system_id":"levelo_inurba_marseille","lat":43.30952,"lon":5.39042,"is_reserved":false,"is_disabled":false,"rental_uris":{"android":"levelo://app?vid=14f2b8f6-5774-4871-8a2f-d86951c8fb94","ios":"levelo://app?vid=14f2b8f6-5774-4871-8a2f-d86951c8fb94"},"vehicle_type_id":"4","last_reported":1737630459,"current_range_meters":13600,"station_id":"ce4bgup2rcd13ifvqco0","pricing_plan_id":"cebpf4jnsgd1na2vs0mg"},{"bike_id":"050bd42b-0fa4-4ea3-8a02-3c1196960ece","system_id":"levelo_inurba_marseille","lat":43.31677,"lon":5.37353,"is_reserved":false,"is_disabled":false,"rental_uris":{"android":"levelo://app?vid=050bd42b-0fa4-4ea3-8a02-3c1196960ece","ios":"levelo://app?vid=050bd42b-0fa4-4ea3-8a02-3c1196960ece"},"vehicle_type_id":"4","last_reported":1737630459,"current_range_meters":27600,"station_id":"","pricing_plan_id":"cebpf4jnsgd1na2vs0mg"},{"bike_id":"3b78501e-373d-4af9-a07c-c1a27585fc17","system_id":"levelo_inurba_marseille","lat":43.29958,"lon":5.41332,"is_reserved":false,"is_disabled":false,"rental_uris":{"android":"levelo://app?vid=3b78501e-373d-4af9-a07c-c1a27585fc17","ios":"levelo://app?vid=3b78501e-373d-4af9-a07c-c1a27585fc17"},"vehicle_type_id":"4","last_reported":1737630459,"current_range_meters":29600,"station_id":"ce4bhp12rcd13ifvqh9g","pricing_plan_id":"cebpf4jnsgd1na2vs0mg"},{"bike_id":"58d694a0-8c3c-447c-979d-d00067af5c1f","system_id":"levelo_inurba_marseille","lat":43.28979,"lon":5.37834,"is_reserved":false,"is_disabled":false,"rental_uris":{"android":"levelo://app?vid=58d694a0-8c3c-447c-979d-d00067af5c1f","ios":"levelo://app?vid=58d694a0-8c3c-447c-979d-d00067af5c1f"},"vehicle_type_id":"4","last_reported":1737630459,"current_range_meters":36400,"station_id":"ce4bh9p2rcd13ifvqed0","pricing_plan_id":"cebpf4jnsgd1na2vs0mg"},{"bike_id":"1970fe03-2a19-4871-a01b-17809d851312","system_id":"levelo_inurba_marseille","lat":43.24372,"lon":5.37063,"is_reserved":false,"is_disabled":false,"rental_uris":{"android":"levelo://app?vid=1970fe03-2a19-4871-a01b-17809d851312","ios":"levelo://app?vid=1970fe03-2a19-4871-a01b-17809d851312"},"vehicle_type_id":"4","last_reported":1737630459,"current_range_meters":30400,"station_id":"ce4bhhh2rcd13ifvqfk0","pricing_plan_id":"cebpf4jnsgd1na2vs0mg"},{"bike_id":"2c79079a-42ff-472f-8a01-e9cc8770acac","system_id":"levelo_inurba_marseille","lat":43.30144,"lon":5.37423,"is_reserved":false,"is_disabled":false,"rental_uris":{"android":"levelo://app?vid=2c79079a-42ff-472f-8a01-e9cc8770acac","ios":"levelo://app?vid=2c79079a-42ff-472f-8a01-e9cc8770acac"},"vehicle_type_id":"4","last_reported":1737630459,"current_range_meters":9600,"station_id":"ce4bgs92rcd13ifvqcc0","pricing_plan_id":"cebpf4jnsgd1na2vs0mg"},{"bike_id":"1ac06258-ad9a-434b-839f-fd5f6c847dd6","system_id":"levelo_inurba_marseille","lat":43.30538,"lon":5.3673,"is_reserved":false,"is_disabled":false,"rental_uris":{"android":"levelo://app?vid=1ac06258-ad9a-434b-839f-fd5f6c847dd6","ios":"levelo://app?vid=1ac06258-ad9a-434b-839f-fd5f6c847dd6"},"vehicle_type_id":"4","last_reported":1737630459,"current_range_meters":38000,"station_id":"ce4bgrp2rcd13ifvqc9g","pricing_plan_id":"cebpf4jnsgd1na2vs0mg"},{"bike_id":"6440f376-b0ac-4979-8b74-813c76d7599b","system_id":"levelo_inurba_marseille","lat":43.24183,"lon":5.39731,"is_reserved":false,"is_disabled":false,"rental_uris":{"android":"levelo://app?vid=6440f376-b0ac-4979-8b74-813c76d7599b","ios":"levelo://app?vid=6440f376-b0ac-4979-8b74-813c76d7599b"},"vehicle_type_id":"4","last_reported":1737630459,"current_range_meters":25600,"station_id":"ce4bhn12rcd13ifvqgpg","pricing_plan_id":"cebpf4jnsgd1na2vs0mg"},{"bike_id":"04e4a48c-3dfc-4aef-aa3c-bc5ef6794a55","system_id":"levelo_inurba_marseille","lat":43.29574,"lon":5.39988,"is_reserved":false,"is_disabled":false,"rental_uris":{"android":"levelo://app?vid=04e4a48c-3dfc-4aef-aa3c-bc5ef6794a55","ios":"levelo://app?vid=04e4a48c-3dfc-4aef-aa3c-bc5ef6794a55"},"vehicle_type_id":"4","last_reported":1737630459,"current_range_meters":27200,"station_id":"ce4bh312rcd13ifvqdj0","pricing_plan_id":"cebpf4jnsgd1na2vs0mg"},{"bike_id":"5c51c44a-07f3-4d33-86f6-5b9b4e2a6bfa","system_id":"levelo_inurba_marseille","lat":43.29764,"lon":5.37144,"is_reserved":false,"is_disabled":false,"rental_uris":{"android":"levelo://app?vid=5c51c44a-07f3-4d33-86f6-5b9b4e2a6bfa","ios":"levelo://app?vid=5c51c44a-07f3-4d33-86f6-5b9b4e2a6bfa"},"vehicle_type_id":"4","last_reported":1737630459,"current_range_meters":8800,"station_id":"ce4bgop2rcd13ifvqc1g","pricing_plan_id":"cebpf4jnsgd1na2vs0mg"},{"bike_id":"f98a7ee0-f9fe-4556-933e-ecf6827038e5","system_id":"levelo_inurba_marseille","lat":43.29168,"lon":5.35716,"is_reserved":false,"is_disabled":false,"rental_uris":{"android":"levelo://app?vid=f98a7ee0-f9fe-4556-933e-ecf6827038e5","ios":"levelo://app?vid=f98a7ee0-f9fe-4556-933e-ecf6827038e5"},"vehicle_type_id":"4","last_reported":1737630459,"current_range_meters":14400,"station_id":"","pricing_plan_id":"cebpf4jnsgd1na2vs0mg"},{"bike_id":"46e55038-fbd6-4771-893c-ab44f3c1642a","system_id":"levelo_inurba_marseille","lat":43.31684,"lon":5.40497,"is_reserved":false,"is_disabled":false,"rental_uris":{"android":"levelo://app?vid=46e55038-fbd6-4771-893c-ab44f3c1642a","ios":"levelo://app?vid=46e55038-fbd6-4771-893c-ab44f3c1642a"},"vehicle_type_id":"4","last_reported":1737630459,"current_range_meters":38800,"station_id":"ce4bh012rcd13ifvqd00","pricing_plan_id":"cebpf4jnsgd1na2vs0mg"},{"bike_id":"91f957bd-7ae6-4841-8ac4-1ecdcd0c697e","system_id":"levelo_inurba_marseille","lat":43.31574,"lon":5.40193,"is_reserved":false,"is_disabled":false,"rental_uris":{"android":"levelo://app?vid=91f957bd-7ae6-4841-8ac4-1ecdcd0c697e","ios":"levelo://app?vid=91f957bd-7ae6-4841-8ac4-1ecdcd0c697e"},"vehicle_type_id":"4","last_reported":1737630459,"current_range_meters":26000,"station_id":"","pricing_plan_id":"cebpf4jnsgd1na2vs0mg"},{"bike_id":"632b28ad-d7cb-46af-a69c-c857c2a0764e","system_id":"levelo_inurba_marseille","lat":43.27059,"lon":5.40269,"is_reserved":false,"is_disabled":false,"rental_uris":{"android":"levelo://app?vid=632b28ad-d7cb-46af-a69c-c857c2a0764e","ios":"levelo://app?vid=632b28ad-d7cb-46af-a69c-c857c2a0764e"},"vehicle_type_id":"4","last_reported":1737630459,"current_range_meters":16400,"station_id":"ce4bhk92rcd13ifvqgc0","pricing_plan_id":"cebpf4jnsgd1na2vs0mg"},{"bike_id":"8c1b5877-c918-4cfc-a617-34eb59d4ecdf","system_id":"levelo_inurba_marseille","lat":43.28709,"lon":5.3999,"is_reserved":false,"is_disabled":false,"rental_uris":{"android":"levelo://app?vid=8c1b5877-c918-4cfc-a617-34eb59d4ecdf","ios":"levelo://app?vid=8c1b5877-c918-4cfc-a617-34eb59d4ecdf"},"vehicle_type_id":"4","last_reported":1737630459,"current_range_meters":9200,"station_id":"ce4bho92rcd13ifvqh3g","pricing_plan_id":"cebpf4jnsgd1na2vs0mg"},{"bike_id":"ce90fea6-ff2a-4d0b-bd4f-45ced0acf4c0","system_id":"levelo_inurba_marseille","lat":43.32352,"lon":5.36747,"is_reserved":false,"is_disabled":false,"rental_uris":{"android":"levelo://app?vid=ce90fea6-ff2a-4d0b-bd4f-45ced0acf4c0","ios":"levelo://app?vid=ce90fea6-ff2a-4d0b-bd4f-45ced0acf4c0"},"vehicle_type_id":"4","last_reported":1737630459,"current_range_meters":11600,"station_id":"ce4bhsh2rcd13ifvqi2g","pricing_plan_id":"cebpf4jnsgd1na2vs0mg"},{"bike_id":"57b499de-bbc2-4ebb-8d6f-537c7b612abe","system_id":"levelo_inurba_marseille","lat":43.28702,"lon":5.39996,"is_reserved":false,"is_disabled":false,"rental_uris":{"android":"levelo://app?vid=57b499de-bbc2-4ebb-8d6f-537c7b612abe","ios":"levelo://app?vid=57b499de-bbc2-4ebb-8d6f-537c7b612abe"},"vehicle_type_id":"4","last_reported":1737630459,"current_range_meters":30400,"station_id":"ce4bho92rcd13ifvqh3g","pricing_plan_id":"cebpf4jnsgd1na2vs0mg"},{"bike_id":"ab13439f-1c4b-4b83-ac72-9f4e6d1f64cb","system_id":"levelo_inurba_marseille","lat":43.31245,"lon":5.37971,"is_reserved":false,"is_disabled":true,"rental_uris":{"android":"levelo://app?vid=ab13439f-1c4b-4b83-ac72-9f4e6d1f64cb","ios":"levelo://app?vid=ab13439f-1c4b-4b83-ac72-9f4e6d1f64cb"},"vehicle_type_id":"4","last_reported":1737630459,"current_range_meters":10800,"station_id":"","pricing_plan_id":"cebpf4jnsgd1na2vs0mg"},{"bike_id":"63f79744-d204-4fb1-a491-9d75c387d80c","system_id":"levelo_inurba_marseille","lat":43.30551,"lon":5.36552,"is_reserved":false,"is_disabled":false,"rental_uris":{"android":"levelo://app?vid=63f79744-d204-4fb1-a491-9d75c387d80c","ios":"levelo://app?vid=63f79744-d204-4fb1-a491-9d75c387d80c"},"vehicle_type_id":"4","last_reported":1737630459,"current_range_meters":38800,"station_id":"ce4bgs12rcd13ifvqcag","pricing_plan_id":"cebpf4jnsgd1na2vs0mg"},{"bike_id":"7e1a0ad5-f007-483e-86f8-a5336bb1689f","system_id":"levelo_inurba_marseille","lat":43.25573,"lon":5.38237,"is_reserved":false,"is_disabled":false,"rental_uris":{"android":"levelo://app?vid=7e1a0ad5-f007-483e-86f8-a5336bb1689f","ios":"levelo://app?vid=7e1a0ad5-f007-483e-86f8-a5336bb1689f"},"vehicle_type_id":"4","last_reported":1737630459,"current_range_meters":38400,"station_id":"ce4bhih2rcd13ifvqfs0","pricing_plan_id":"cebpf4jnsgd1na2vs0mg"},{"bike_id":"9852a9dc-943a-442f-9475-a08ad558062a","system_id":"levelo_inurba_marseille","lat":43.30276,"lon":5.37705,"is_reserved":false,"is_disabled":false,"rental_uris":{"android":"levelo://app?vid=9852a9dc-943a-442f-9475-a08ad558062a","ios":"levelo://app?vid=9852a9dc-943a-442f-9475-a08ad558062a"},"vehicle_type_id":"4","last_reported":1737630459,"current_range_meters":37600,"station_id":"ce4bguh2rcd13ifvqcj0","pricing_plan_id":"cebpf4jnsgd1na2vs0mg"},{"bike_id":"837539cb-62d1-43d7-a8c4-c244ce73cb62","system_id":"levelo_inurba_marseille","lat":43.29007,"lon":5.3561,"is_reserved":false,"is_disabled":false,"rental_uris":{"android":"levelo://app?vid=837539cb-62d1-43d7-a8c4-c244ce73cb62","ios":"levelo://app?vid=837539cb-62d1-43d7-a8c4-c244ce73cb62"},"vehicle_type_id":"4","last_reported":1737630459,"current_range_meters":30800,"station_id":"ce4bhb92rcd13ifvqen0","pricing_plan_id":"cebpf4jnsgd1na2vs0mg"},{"bike_id":"704b9ac4-08a6-48ef-85ea-bb2a6455baf7","system_id":"levelo_inurba_marseille","lat":43.26191,"lon":5.37954,"is_reserved":false,"is_disabled":false,"rental_uris":{"android":"levelo://app?vid=704b9ac4-08a6-48ef-85ea-bb2a6455baf7","ios":"levelo://app?vid=704b9ac4-08a6-48ef-85ea-bb2a6455baf7"},"vehicle_type_id":"4","last_reported":1737630459,"current_range_meters":37600,"station_id":"ce4bhjp2rcd13ifvqg90","pricing_plan_id":"cebpf4jnsgd1na2vs0mg"},{"bike_id":"dc25515f-2516-4d8e-8ff7-eaa9f571f705","system_id":"levelo_inurba_marseille","lat":43.30079,"lon":5.39096,"is_reserved":false,"is_disabled":false,"rental_uris":{"android":"levelo://app?vid=dc25515f-2516-4d8e-8ff7-eaa9f571f705","ios":"levelo://app?vid=dc25515f-2516-4d8e-8ff7-eaa9f571f705"},"vehicle_type_id":"4","last_reported":1737630459,"current_range_meters":12800,"station_id":"ce4bh192rcd13ifvqdb0","pricing_plan_id":"cebpf4jnsgd1na2vs0mg"},{"bike_id":"6d744f18-55f9-4353-afce-bf46cbe886e0","system_id":"levelo_inurba_marseille","lat":43.30152,"lon":5.38096,"is_reserved":false,"is_disabled":false,"rental_uris":{"android":"levelo://app?vid=6d744f18-55f9-4353-afce-bf46cbe886e0","ios":"levelo://app?vid=6d744f18-55f9-4353-afce-bf46cbe886e0"},"vehicle_type_id":"4","last_reported":1737630459,"current_range_meters":24000,"station_id":"ce4bgjp2rcd13ifvqbh0","pricing_plan_id":"cebpf4jnsgd1na2vs0mg"},{"bike_id":"cb89451d-fcbc-47ab-bfa4-263d9c5e103c","system_id":"levelo_inurba_marseille","lat":43.24996,"lon":5.38936,"is_reserved":false,"is_disabled":false,"rental_uris":{"android":"levelo://app?vid=cb89451d-fcbc-47ab-bfa4-263d9c5e103c","ios":"levelo://app?vid=cb89451d-fcbc-47ab-bfa4-263d9c5e103c"},"vehicle_type_id":"4","last_reported":1737630459,"current_range_meters":30400,"station_id":"ce4bhgp2rcd13ifvqfd0","pricing_plan_id":"cebpf4jnsgd1na2vs0mg"},{"bike_id":"c4db15ea-eb22-409d-a92c-518ac96d96dd","system_id":"levelo_inurba_marseille","lat":43.29561,"lon":5.42272,"is_reserved":false,"is_disabled":false,"rental_uris":{"android":"levelo://app?vid=c4db15ea-eb22-409d-a92c-518ac96d96dd","ios":"levelo://app?vid=c4db15ea-eb22-409d-a92c-518ac96d96dd"},"vehicle_type_id":"4","last_reported":1737630459,"current_range_meters":37600,"station_id":"ce4bhph2rcd13ifvqhdg","pricing_plan_id":"cebpf4jnsgd1na2vs0mg"},{"bike_id":"20c0844d-5c8d-4efe-8668-c1cb3901a363","system_id":"levelo_inurba_marseille","lat":43.29829,"lon":5.39799,"is_reserved":false,"is_disabled":false,"rental_uris":{"android":"levelo://app?vid=20c0844d-5c8d-4efe-8668-c1cb3901a363","ios":"levelo://app?vid=20c0844d-5c8d-4efe-8668-c1cb3901a363"},"vehicle_type_id":"4","last_reported":1737630459,"current_range_meters":35600,"station_id":"ce4bh0h2rcd13ifvqd50","pricing_plan_id":"cebpf4jnsgd1na2vs0mg"},{"bike_id":"3be88071-19d8-4415-963d-01896d6416f6","system_id":"levelo_inurba_marseille","lat":43.29423,"lon":5.38613,"is_reserved":false,"is_disabled":true,"rental_uris":{"android":"levelo://app?vid=3be88071-19d8-4415-963d-01896d6416f6","ios":"levelo://app?vid=3be88071-19d8-4415-963d-01896d6416f6"},"vehicle_type_id":"4","last_reported":1737630459,"current_range_meters":0,"station_id":"ce4bh2h2rcd13ifvqdh0","pricing_plan_id":"cebpf4jnsgd1na2vs0mg"},{"bike_id":"3a584a2d-0bec-48d3-bef1-1f525427e3b5","system_id":"levelo_inurba_marseille","lat":43.31328,"lon":5.39713,"is_reserved":false,"is_disabled":false,"rental_uris":{"android":"levelo://app?vid=3a584a2d-0bec-48d3-bef1-1f525427e3b5","ios":"levelo://app?vid=3a584a2d-0bec-48d3-bef1-1f525427e3b5"},"vehicle_type_id":"4","last_reported":1737630459,"current_range_meters":38800,"station_id":"ce4bgvp2rcd13ifvqcu0","pricing_plan_id":"cebpf4jnsgd1na2vs0mg"},{"bike_id":"feb8229e-62ad-4887-89d0-ca4f3ddac27a","system_id":"levelo_inurba_marseille","lat":43.27949,"lon":5.41051,"is_reserved":false,"is_disabled":false,"rental_uris":{"android":"levelo://app?vid=feb8229e-62ad-4887-89d0-ca4f3ddac27a","ios":"levelo://app?vid=feb8229e-62ad-4887-89d0-ca4f3ddac27a"},"vehicle_type_id":"4","last_reported":1737630459,"current_range_meters":3600,"station_id":"ce4bhnp2rcd13ifvqh0g","pricing_plan_id":"cebpf4jnsgd1na2vs0mg"},{"bike_id":"1bf316b5-e489-41ce-8231-0df992cb2b56","system_id":"levelo_inurba_marseille","lat":43.28703,"lon":5.3739,"is_reserved":false,"is_disabled":false,"rental_uris":{"android":"levelo://app?vid=1bf316b5-e489-41ce-8231-0df992cb2b56","ios":"levelo://app?vid=1bf316b5-e489-41ce-8231-0df992cb2b56"},"vehicle_type_id":"4","last_reported":1737630459,"current_range_meters":32000,"station_id":"ce4bh3p2rcd13ifvqdq0","pricing_plan_id":"cebpf4jnsgd1na2vs0mg"},{"bike_id":"2a0e841b-41fb-4b43-8d93-42ba2b03f3a4","system_id":"levelo_inurba_marseille","lat":43.2466,"lon":5.38161,"is_reserved":false,"is_disabled":false,"rental_uris":{"android":"levelo://app?vid=2a0e841b-41fb-4b43-8d93-42ba2b03f3a4","ios":"levelo://app?vid=2a0e841b-41fb-4b43-8d93-42ba2b03f3a4"},"vehicle_type_id":"4","last_reported":1737630459,"current_range_meters":38400,"station_id":"ce4bhih2rcd13ifvqfr0","pricing_plan_id":"cebpf4jnsgd1na2vs0mg"},{"bike_id":"9bfdf7cb-91d1-44ae-89e3-489d8a73d8f7","system_id":"levelo_inurba_marseille","lat":43.32491,"lon":5.36565,"is_reserved":false,"is_disabled":false,"rental_uris":{"android":"levelo://app?vid=9bfdf7cb-91d1-44ae-89e3-489d8a73d8f7","ios":"levelo://app?vid=9bfdf7cb-91d1-44ae-89e3-489d8a73d8f7"},"vehicle_type_id":"4","last_reported":1737630459,"current_range_meters":38400,"station_id":"ce4bhs12rcd13ifvqhvg","pricing_plan_id":"cebpf4jnsgd1na2vs0mg"},{"bike_id":"b961f1cf-d10d-49f9-8fe5-c156ac9fbab7","system_id":"levelo_inurba_marseille","lat":43.30208,"lon":5.38083,"is_reserved":false,"is_disabled":false,"rental_uris":{"android":"levelo://app?vid=b961f1cf-d10d-49f9-8fe5-c156ac9fbab7","ios":"levelo://app?vid=b961f1cf-d10d-49f9-8fe5-c156ac9fbab7"},"vehicle_type_id":"4","last_reported":1737630459,"current_range_meters":32800,"station_id":"","pricing_plan_id":"cebpf4jnsgd1na2vs0mg"},{"bike_id":"6af01551-9900-4546-99a1-d63a6c9402e6","system_id":"levelo_inurba_marseille","lat":43.30131,"lon":5.37432,"is_reserved":false,"is_disabled":false,"rental_uris":{"android":"levelo://app?vid=6af01551-9900-4546-99a1-d63a6c9402e6","ios":"levelo://app?vid=6af01551-9900-4546-99a1-d63a6c9402e6"},"vehicle_type_id":"4","last_reported":1737630459,"current_range_meters":14000,"station_id":"ce4bgs92rcd13ifvqcc0","pricing_plan_id":"cebpf4jnsgd1na2vs0mg"},{"bike_id":"dc106d26-2435-4fc6-b189-67702605d5dc","system_id":"levelo_inurba_marseille","lat":43.27048,"lon":5.4028,"is_reserved":false,"is_disabled":false,"rental_uris":{"android":"levelo://app?vid=dc106d26-2435-4fc6-b189-67702605d5dc","ios":"levelo://app?vid=dc106d26-2435-4fc6-b189-67702605d5dc"},"vehicle_type_id":"4","last_reported":1737630459,"current_range_meters":24800,"station_id":"ce4bhk92rcd13ifvqgc0","pricing_plan_id":"cebpf4jnsgd1na2vs0mg"},{"bike_id":"62a4859e-3ecc-4714-869d-bc3060ae3156","system_id":"levelo_inurba_marseille","lat":43.25891,"lon":5.40934,"is_reserved":false,"is_disabled":false,"rental_uris":{"android":"levelo://app?vid=62a4859e-3ecc-4714-869d-bc3060ae3156","ios":"levelo://app?vid=62a4859e-3ecc-4714-869d-bc3060ae3156"},"vehicle_type_id":"4","last_reported":1737630459,"current_range_meters":36800,"station_id":"ce4bhm92rcd13ifvqglg","pricing_plan_id":"cebpf4jnsgd1na2vs0mg"},{"bike_id":"f1716f93-245a-4098-9aaa-7b4777443619","system_id":"levelo_inurba_marseille","lat":43.27986,"lon":5.41641,"is_reserved":false,"is_disabled":false,"rental_uris":{"android":"levelo://app?vid=f1716f93-245a-4098-9aaa-7b4777443619","ios":"levelo://app?vid=f1716f93-245a-4098-9aaa-7b4777443619"},"vehicle_type_id":"4","last_reported":1737630459,"current_range_meters":38400,"station_id":"ce4bho12rcd13ifvqh1g","pricing_plan_id":"cebpf4jnsgd1na2vs0mg"},{"bike_id":"232b25b7-fa81-4630-9104-082348ac0480","system_id":"levelo_inurba_marseille","lat":43.27995,"lon":5.40035,"is_reserved":false,"is_disabled":false,"rental_uris":{"android":"levelo://app?vid=232b25b7-fa81-4630-9104-082348ac0480","ios":"levelo://app?vid=232b25b7-fa81-4630-9104-082348ac0480"},"vehicle_type_id":"4","last_reported":1737630459,"current_range_meters":38000,"station_id":"ce4bho92rcd13ifvqh4g","pricing_plan_id":"cebpf4jnsgd1na2vs0mg"},{"bike_id":"e27655d4-4288-4bf0-b85c-3c846dba64a1","system_id":"levelo_inurba_marseille","lat":43.2985,"lon":5.36277,"is_reserved":false,"is_disabled":false,"rental_uris":{"android":"levelo://app?vid=e27655d4-4288-4bf0-b85c-3c846dba64a1","ios":"levelo://app?vid=e27655d4-4288-4bf0-b85c-3c846dba64a1"},"vehicle_type_id":"4","last_reported":1737630459,"current_range_meters":38000,"station_id":"ce4bgpp2rcd13ifvqc3g","pricing_plan_id":"cebpf4jnsgd1na2vs0mg"},{"bike_id":"84a7c535-438f-4c17-80b8-78ee3c58b952","system_id":"levelo_inurba_marseille","lat":43.30934,"lon":5.40143,"is_reserved":false,"is_disabled":false,"rental_uris":{"android":"levelo://app?vid=84a7c535-438f-4c17-80b8-78ee3c58b952","ios":"levelo://app?vid=84a7c535-438f-4c17-80b8-78ee3c58b952"},"vehicle_type_id":"4","last_reported":1737630459,"current_range_meters":38800,"station_id":"ce4bgvp2rcd13ifvqct0","pricing_plan_id":"cebpf4jnsgd1na2vs0mg"},{"bike_id":"58ec83d8-fd2a-4ea1-a37e-b5f9bbb32c0e","system_id":"levelo_inurba_marseille","lat":43.3096,"lon":5.3903,"is_reserved":false,"is_disabled":false,"rental_uris":{"android":"levelo://app?vid=58ec83d8-fd2a-4ea1-a37e-b5f9bbb32c0e","ios":"levelo://app?vid=58ec83d8-fd2a-4ea1-a37e-b5f9bbb32c0e"},"vehicle_type_id":"4","last_reported":1737630459,"current_range_meters":37600,"station_id":"ce4bgup2rcd13ifvqco0","pricing_plan_id":"cebpf4jnsgd1na2vs0mg"},{"bike_id":"96e0558c-cec8-47c4-89d3-1aa21c4b0119","system_id":"levelo_inurba_marseille","lat":43.25716,"lon":5.41762,"is_reserved":false,"is_disabled":false,"rental_uris":{"android":"levelo://app?vid=96e0558c-cec8-47c4-89d3-1aa21c4b0119","ios":"levelo://app?vid=96e0558c-cec8-47c4-89d3-1aa21c4b0119"},"vehicle_type_id":"4","last_reported":1737630459,"current_range_meters":16400,"station_id":"","pricing_plan_id":"cebpf4jnsgd1na2vs0mg"},{"bike_id":"f214401a-dba5-4f6f-8c9a-9bc928023425","system_id":"levelo_inurba_marseille","lat":43.29117,"lon":5.40092,"is_reserved":false,"is_disabled":false,"rental_uris":{"android":"levelo://app?vid=f214401a-dba5-4f6f-8c9a-9bc928023425","ios":"levelo://app?vid=f214401a-dba5-4f6f-8c9a-9bc928023425"},"vehicle_type_id":"4","last_reported":1737630459,"current_range_meters":38800,"station_id":"","pricing_plan_id":"cebpf4jnsgd1na2vs0mg"},{"bike_id":"bdc9df5b-15df-4da6-8498-c1412c4f1ee3","system_id":"levelo_inurba_marseille","lat":43.26945,"lon":5.38623,"is_reserved":false,"is_disabled":false,"rental_uris":{"android":"levelo://app?vid=bdc9df5b-15df-4da6-8498-c1412c4f1ee3","ios":"levelo://app?vid=bdc9df5b-15df-4da6-8498-c1412c4f1ee3"},"vehicle_type_id":"4","last_reported":1737630459,"current_range_meters":36800,"station_id":"ce4bhh92rcd13ifvqfh0","pricing_plan_id":"cebpf4jnsgd1na2vs0mg"},{"bike_id":"13a64475-e4c7-493c-900a-0bcfe86942ca","system_id":"levelo_inurba_marseille","lat":43.30793,"lon":5.43559,"is_reserved":false,"is_disabled":false,"rental_uris":{"android":"levelo://app?vid=13a64475-e4c7-493c-900a-0bcfe86942ca","ios":"levelo://app?vid=13a64475-e4c7-493c-900a-0bcfe86942ca"},"vehicle_type_id":"4","last_reported":1737630459,"current_range_meters":11600,"station_id":"ce4bhph2rcd13ifvqheg","pricing_plan_id":"cebpf4jnsgd1na2vs0mg"},{"bike_id":"eec29bcc-4db9-490c-8509-0569ef65d3a4","system_id":"levelo_inurba_marseille","lat":43.23139,"lon":5.43707,"is_reserved":false,"is_disabled":true,"rental_uris":{"android":"levelo://app?vid=eec29bcc-4db9-490c-8509-0569ef65d3a4","ios":"levelo://app?vid=eec29bcc-4db9-490c-8509-0569ef65d3a4"},"vehicle_type_id":"4","last_reported":1737630459,"current_range_meters":0,"station_id":"ce4bhmp2rcd13ifvqgog","pricing_plan_id":"cebpf4jnsgd1na2vs0mg"},{"bike_id":"366618e5-58e4-49a2-b359-c5654fbadc2c","system_id":"levelo_inurba_marseille","lat":43.23996,"lon":5.37868,"is_reserved":false,"is_disabled":false,"rental_uris":{"android":"levelo://app?vid=366618e5-58e4-49a2-b359-c5654fbadc2c","ios":"levelo://app?vid=366618e5-58e4-49a2-b359-c5654fbadc2c"},"vehicle_type_id":"4","last_reported":1737630459,"current_range_meters":18000,"station_id":"ce4bhnp2rcd13ifvqgvg","pricing_plan_id":"cebpf4jnsgd1na2vs0mg"},{"bike_id":"028b6d21-7371-43e8-b034-308a0aa22441","system_id":"levelo_inurba_marseille","lat":43.25089,"lon":5.39523,"is_reserved":false,"is_disabled":false,"rental_uris":{"android":"levelo://app?vid=028b6d21-7371-43e8-b034-308a0aa22441","ios":"levelo://app?vid=028b6d21-7371-43e8-b034-308a0aa22441"},"vehicle_type_id":"4","last_reported":1737630459,"current_range_meters":20800,"station_id":"ce4bhm12rcd13ifvqgkg","pricing_plan_id":"cebpf4jnsgd1na2vs0mg"},{"bike_id":"e91ed29f-6d7c-4e60-8189-11773ebb5840","system_id":"levelo_inurba_marseille","lat":43.25716,"lon":5.41808,"is_reserved":false,"is_disabled":true,"rental_uris":{"android":"levelo://app?vid=e91ed29f-6d7c-4e60-8189-11773ebb5840","ios":"levelo://app?vid=e91ed29f-6d7c-4e60-8189-11773ebb5840"},"vehicle_type_id":"4","last_reported":1737630459,"current_range_meters":28800,"station_id":"","pricing_plan_id":"cebpf4jnsgd1na2vs0mg"},{"bike_id":"8b26ce36-d7ea-468d-a506-81cdced7e6bc","system_id":"levelo_inurba_marseille","lat":43.32348,"lon":5.38892,"is_reserved":false,"is_disabled":false,"rental_uris":{"android":"levelo://app?vid=8b26ce36-d7ea-468d-a506-81cdced7e6bc","ios":"levelo://app?vid=8b26ce36-d7ea-468d-a506-81cdced7e6bc"},"vehicle_type_id":"4","last_reported":1737630459,"current_range_meters":28800,"station_id":"ce4bhqp2rcd13ifvqhog","pricing_plan_id":"cebpf4jnsgd1na2vs0mg"},{"bike_id":"a20b0889-fcde-4bac-9035-b7a880de8195","system_id":"levelo_inurba_marseille","lat":43.27616,"lon":5.36122,"is_reserved":false,"is_disabled":false,"rental_uris":{"android":"levelo://app?vid=a20b0889-fcde-4bac-9035-b7a880de8195","ios":"levelo://app?vid=a20b0889-fcde-4bac-9035-b7a880de8195"},"vehicle_type_id":"4","last_reported":1737630459,"current_range_meters":10000,"station_id":"ce4bgj92rcd13ifvqbe0","pricing_plan_id":"cebpf4jnsgd1na2vs0mg"},{"bike_id":"58bd67b2-eea0-4ad2-8092-8cb589d6733b","system_id":"levelo_inurba_marseille","lat":43.30801,"lon":5.43532,"is_reserved":false,"is_disabled":false,"rental_uris":{"android":"levelo://app?vid=58bd67b2-eea0-4ad2-8092-8cb589d6733b","ios":"levelo://app?vid=58bd67b2-eea0-4ad2-8092-8cb589d6733b"},"vehicle_type_id":"4","last_reported":1737630459,"current_range_meters":6000,"station_id":"ce4bhph2rcd13ifvqheg","pricing_plan_id":"cebpf4jnsgd1na2vs0mg"},{"bike_id":"f8216a2b-e7c5-4eea-8c3d-912daef0d729","system_id":"levelo_inurba_marseille","lat":43.2987,"lon":5.43682,"is_reserved":false,"is_disabled":false,"rental_uris":{"android":"levelo://app?vid=f8216a2b-e7c5-4eea-8c3d-912daef0d729","ios":"levelo://app?vid=f8216a2b-e7c5-4eea-8c3d-912daef0d729"},"vehicle_type_id":"4","last_reported":1737630459,"current_range_meters":19600,"station_id":"ce4bhpp2rcd13ifvqhfg","pricing_plan_id":"cebpf4jnsgd1na2vs0mg"},{"bike_id":"174ef919-1de8-4476-8071-7ce5e1cde64a","system_id":"levelo_inurba_marseille","lat":43.26978,"lon":5.38663,"is_reserved":false,"is_disabled":false,"rental_uris":{"android":"levelo://app?vid=174ef919-1de8-4476-8071-7ce5e1cde64a","ios":"levelo://app?vid=174ef919-1de8-4476-8071-7ce5e1cde64a"},"vehicle_type_id":"4","last_reported":1737630459,"current_range_meters":22800,"station_id":"ce4bhh92rcd13ifvqfh0","pricing_plan_id":"cebpf4jnsgd1na2vs0mg"},{"bike_id":"c778869e-b9bf-49a6-a4ac-f17a52c456f7","system_id":"levelo_inurba_marseille","lat":43.30128,"lon":5.38787,"is_reserved":false,"is_disabled":false,"rental_uris":{"android":"levelo://app?vid=c778869e-b9bf-49a6-a4ac-f17a52c456f7","ios":"levelo://app?vid=c778869e-b9bf-49a6-a4ac-f17a52c456f7"},"vehicle_type_id":"4","last_reported":1737630459,"current_range_meters":30000,"station_id":"ce4bghh2rcd13ifvqb60","pricing_plan_id":"cebpf4jnsgd1na2vs0mg"},{"bike_id":"549b1928-e1cf-4e8f-979d-82ddd1e2f667","system_id":"levelo_inurba_marseille","lat":43.31894,"lon":5.4073,"is_reserved":false,"is_disabled":false,"rental_uris":{"android":"levelo://app?vid=549b1928-e1cf-4e8f-979d-82ddd1e2f667","ios":"levelo://app?vid=549b1928-e1cf-4e8f-979d-82ddd1e2f667"},"vehicle_type_id":"4","last_reported":1737630459,"current_range_meters":39200,"station_id":"ce4bhq12rcd13ifvqhig","pricing_plan_id":"cebpf4jnsgd1na2vs0mg"},{"bike_id":"4ec96207-5c88-4957-875c-7fb36b853318","system_id":"levelo_inurba_marseille","lat":43.3096,"lon":5.39051,"is_reserved":false,"is_disabled":false,"rental_uris":{"android":"levelo://app?vid=4ec96207-5c88-4957-875c-7fb36b853318","ios":"levelo://app?vid=4ec96207-5c88-4957-875c-7fb36b853318"},"vehicle_type_id":"4","last_reported":1737630459,"current_range_meters":10000,"station_id":"ce4bgup2rcd13ifvqco0","pricing_plan_id":"cebpf4jnsgd1na2vs0mg"},{"bike_id":"9863b7f9-4316-4322-9f6c-3cc66b0448e2","system_id":"levelo_inurba_marseille","lat":43.279439,"lon":5.389008,"is_reserved":false,"is_disabled":true,"rental_uris":{"android":"levelo://app?vid=9863b7f9-4316-4322-9f6c-3cc66b0448e2","ios":"levelo://app?vid=9863b7f9-4316-4322-9f6c-3cc66b0448e2"},"vehicle_type_id":"4","last_reported":1737630459,"current_range_meters":25200,"station_id":"","pricing_plan_id":"cebpf4jnsgd1na2vs0mg"},{"bike_id":"8741379d-312c-4f8a-874b-6f14433f6a99","system_id":"levelo_inurba_marseille","lat":43.305452,"lon":5.365427,"is_reserved":false,"is_disabled":false,"rental_uris":{"android":"levelo://app?vid=8741379d-312c-4f8a-874b-6f14433f6a99","ios":"levelo://app?vid=8741379d-312c-4f8a-874b-6f14433f6a99"},"vehicle_type_id":"4","last_reported":1737630459,"current_range_meters":36000,"station_id":"ce4bgs12rcd13ifvqcag","pricing_plan_id":"cebpf4jnsgd1na2vs0mg"},{"bike_id":"eddb6b89-082b-479c-b34f-44c352a03897","system_id":"levelo_inurba_marseille","lat":43.25501,"lon":5.37649,"is_reserved":false,"is_disabled":false,"rental_uris":{"android":"levelo://app?vid=eddb6b89-082b-479c-b34f-44c352a03897","ios":"levelo://app?vid=eddb6b89-082b-479c-b34f-44c352a03897"},"vehicle_type_id":"4","last_reported":1737630459,"current_range_meters":39200,"station_id":"ce4bhh12rcd13ifvqff0","pricing_plan_id":"cebpf4jnsgd1na2vs0mg"},{"bike_id":"80645ce0-0810-46bd-89be-9d2588c2d6e0","system_id":"levelo_inurba_marseille","lat":43.29306,"lon":5.37434,"is_reserved":false,"is_disabled":false,"rental_uris":{"android":"levelo://app?vid=80645ce0-0810-46bd-89be-9d2588c2d6e0","ios":"levelo://app?vid=80645ce0-0810-46bd-89be-9d2588c2d6e0"},"vehicle_type_id":"4","last_reported":1737630459,"current_range_meters":31200,"station_id":"ce4bgi12rcd13ifvqb70","pricing_plan_id":"cebpf4jnsgd1na2vs0mg"},{"bike_id":"b3fcf7c5-647c-465f-bfe0-1159d14a276e","system_id":"levelo_inurba_marseille","lat":43.243876,"lon":5.370566,"is_reserved":false,"is_disabled":false,"rental_uris":{"android":"levelo://app?vid=b3fcf7c5-647c-465f-bfe0-1159d14a276e","ios":"levelo://app?vid=b3fcf7c5-647c-465f-bfe0-1159d14a276e"},"vehicle_type_id":"4","last_reported":1737630459,"current_range_meters":20800,"station_id":"ce4bhhh2rcd13ifvqfk0","pricing_plan_id":"cebpf4jnsgd1na2vs0mg"},{"bike_id":"4eb6e3a4-f3a2-4ea1-9696-00c96a02150a","system_id":"levelo_inurba_marseille","lat":43.30447,"lon":5.38891,"is_reserved":false,"is_disabled":false,"rental_uris":{"android":"levelo://app?vid=4eb6e3a4-f3a2-4ea1-9696-00c96a02150a","ios":"levelo://app?vid=4eb6e3a4-f3a2-4ea1-9696-00c96a02150a"},"vehicle_type_id":"4","last_reported":1737630459,"current_range_meters":31200,"station_id":"ce4bgk12rcd13ifvqbi0","pricing_plan_id":"cebpf4jnsgd1na2vs0mg"},{"bike_id":"66298199-3847-478a-aaf4-8eeb6eae21ba","system_id":"levelo_inurba_marseille","lat":43.29025,"lon":5.39939,"is_reserved":false,"is_disabled":false,"rental_uris":{"android":"levelo://app?vid=66298199-3847-478a-aaf4-8eeb6eae21ba","ios":"levelo://app?vid=66298199-3847-478a-aaf4-8eeb6eae21ba"},"vehicle_type_id":"4","last_reported":1737630459,"current_range_meters":39200,"station_id":"ce4bh392rcd13ifvqdm0","pricing_plan_id":"cebpf4jnsgd1na2vs0mg"},{"bike_id":"0295e9dd-aeae-47d3-98d0-f632a94b13c9","system_id":"levelo_inurba_marseille","lat":43.30787,"lon":5.37642,"is_reserved":false,"is_disabled":false,"rental_uris":{"android":"levelo://app?vid=0295e9dd-aeae-47d3-98d0-f632a94b13c9","ios":"levelo://app?vid=0295e9dd-aeae-47d3-98d0-f632a94b13c9"},"vehicle_type_id":"4","last_reported":1737630459,"current_range_meters":20000,"station_id":"ce4bgv92rcd13ifvqcq0","pricing_plan_id":"cebpf4jnsgd1na2vs0mg"},{"bike_id":"dfbd27e7-12bf-4812-80d1-488dbaf230dc","system_id":"levelo_inurba_marseille","lat":43.32511,"lon":5.36557,"is_reserved":false,"is_disabled":false,"rental_uris":{"android":"levelo://app?vid=dfbd27e7-12bf-4812-80d1-488dbaf230dc","ios":"levelo://app?vid=dfbd27e7-12bf-4812-80d1-488dbaf230dc"},"vehicle_type_id":"4","last_reported":1737630459,"current_range_meters":22800,"station_id":"ce4bhs12rcd13ifvqhvg","pricing_plan_id":"cebpf4jnsgd1na2vs0mg"},{"bike_id":"73ad4c6e-44f1-4922-9662-d1557ab428e0","system_id":"levelo_inurba_marseille","lat":43.28109,"lon":5.37838,"is_reserved":false,"is_disabled":false,"rental_uris":{"android":"levelo://app?vid=73ad4c6e-44f1-4922-9662-d1557ab428e0","ios":"levelo://app?vid=73ad4c6e-44f1-4922-9662-d1557ab428e0"},"vehicle_type_id":"4","last_reported":1737630459,"current_range_meters":4800,"station_id":"ce4bha12rcd13ifvqee0","pricing_plan_id":"cebpf4jnsgd1na2vs0mg"},{"bike_id":"f9c1a640-291d-40bd-8de6-70023d0d3da3","system_id":"levelo_inurba_marseille","lat":43.29562,"lon":5.37504,"is_reserved":false,"is_disabled":false,"rental_uris":{"android":"levelo://app?vid=f9c1a640-291d-40bd-8de6-70023d0d3da3","ios":"levelo://app?vid=f9c1a640-291d-40bd-8de6-70023d0d3da3"},"vehicle_type_id":"4","last_reported":1737630459,"current_range_meters":20800,"station_id":"ce4bgh92rcd13ifvqb50","pricing_plan_id":"cebpf4jnsgd1na2vs0mg"},{"bike_id":"6d9a4246-24ff-446a-b261-6af59c8b56bf","system_id":"levelo_inurba_marseille","lat":43.29849,"lon":5.3626,"is_reserved":false,"is_disabled":false,"rental_uris":{"android":"levelo://app?vid=6d9a4246-24ff-446a-b261-6af59c8b56bf","ios":"levelo://app?vid=6d9a4246-24ff-446a-b261-6af59c8b56bf"},"vehicle_type_id":"4","last_reported":1737630459,"current_range_meters":24400,"station_id":"ce4bgpp2rcd13ifvqc3g","pricing_plan_id":"cebpf4jnsgd1na2vs0mg"},{"bike_id":"ce52ec54-d6ce-4d32-a27d-200721040280","system_id":"levelo_inurba_marseille","lat":43.2721,"lon":5.39179,"is_reserved":false,"is_disabled":false,"rental_uris":{"android":"levelo://app?vid=ce52ec54-d6ce-4d32-a27d-200721040280","ios":"levelo://app?vid=ce52ec54-d6ce-4d32-a27d-200721040280"},"vehicle_type_id":"4","last_reported":1737630459,"current_range_meters":20800,"station_id":"ce4bhhp2rcd13ifvqfm0","pricing_plan_id":"cebpf4jnsgd1na2vs0mg"},{"bike_id":"b8522101-a8dc-4556-9aa4-7546debea75f","system_id":"levelo_inurba_marseille","lat":43.33722,"lon":5.3918,"is_reserved":false,"is_disabled":false,"rental_uris":{"android":"levelo://app?vid=b8522101-a8dc-4556-9aa4-7546debea75f","ios":"levelo://app?vid=b8522101-a8dc-4556-9aa4-7546debea75f"},"vehicle_type_id":"4","last_reported":1737630459,"current_range_meters":39200,"station_id":"ce4bhr92rcd13ifvqhsg","pricing_plan_id":"cebpf4jnsgd1na2vs0mg"},{"bike_id":"a353073b-3453-490f-bdfe-01f1c076898b","system_id":"levelo_inurba_marseille","lat":43.31366,"lon":5.367,"is_reserved":false,"is_disabled":false,"rental_uris":{"android":"levelo://app?vid=a353073b-3453-490f-bdfe-01f1c076898b","ios":"levelo://app?vid=a353073b-3453-490f-bdfe-01f1c076898b"},"vehicle_type_id":"4","last_reported":1737630459,"current_range_meters":26800,"station_id":"ce4bgr92rcd13ifvqc6g","pricing_plan_id":"cebpf4jnsgd1na2vs0mg"},{"bike_id":"49052dc3-4d8a-4007-89e4-6a2b13d47195","system_id":"levelo_inurba_marseille","lat":43.24401,"lon":5.37058,"is_reserved":false,"is_disabled":false,"rental_uris":{"android":"levelo://app?vid=49052dc3-4d8a-4007-89e4-6a2b13d47195","ios":"levelo://app?vid=49052dc3-4d8a-4007-89e4-6a2b13d47195"},"vehicle_type_id":"4","last_reported":1737630459,"current_range_meters":10000,"station_id":"ce4bhhh2rcd13ifvqfk0","pricing_plan_id":"cebpf4jnsgd1na2vs0mg"},{"bike_id":"13404d01-1c7c-4d4b-bb24-e98755f8bf24","system_id":"levelo_inurba_marseille","lat":43.30524,"lon":5.36706,"is_reserved":false,"is_disabled":false,"rental_uris":{"android":"levelo://app?vid=13404d01-1c7c-4d4b-bb24-e98755f8bf24","ios":"levelo://app?vid=13404d01-1c7c-4d4b-bb24-e98755f8bf24"},"vehicle_type_id":"4","last_reported":1737630459,"current_range_meters":33200,"station_id":"ce4bgrp2rcd13ifvqc9g","pricing_plan_id":"cebpf4jnsgd1na2vs0mg"},{"bike_id":"5fd5deb8-85db-4c77-9556-3d5346f224b3","system_id":"levelo_inurba_marseille","lat":43.30545,"lon":5.36705,"is_reserved":false,"is_disabled":false,"rental_uris":{"android":"levelo://app?vid=5fd5deb8-85db-4c77-9556-3d5346f224b3","ios":"levelo://app?vid=5fd5deb8-85db-4c77-9556-3d5346f224b3"},"vehicle_type_id":"4","last_reported":1737630459,"current_range_meters":33200,"station_id":"ce4bgrp2rcd13ifvqc9g","pricing_plan_id":"cebpf4jnsgd1na2vs0mg"},{"bike_id":"e6d69e77-2426-40e6-8b56-caff4d581c0e","system_id":"levelo_inurba_marseille","lat":43.29563,"lon":5.42271,"is_reserved":false,"is_disabled":false,"rental_uris":{"android":"levelo://app?vid=e6d69e77-2426-40e6-8b56-caff4d581c0e","ios":"levelo://app?vid=e6d69e77-2426-40e6-8b56-caff4d581c0e"},"vehicle_type_id":"4","last_reported":1737630459,"current_range_meters":38800,"station_id":"ce4bhph2rcd13ifvqhdg","pricing_plan_id":"cebpf4jnsgd1na2vs0mg"},{"bike_id":"5c8017d7-9b1a-4c68-bca4-997a9194762e","system_id":"levelo_inurba_marseille","lat":43.28945,"lon":5.36405,"is_reserved":false,"is_disabled":false,"rental_uris":{"android":"levelo://app?vid=5c8017d7-9b1a-4c68-bca4-997a9194762e","ios":"levelo://app?vid=5c8017d7-9b1a-4c68-bca4-997a9194762e"},"vehicle_type_id":"4","last_reported":1737630459,"current_range_meters":14000,"station_id":"ce4bhc92rcd13ifvqetg","pricing_plan_id":"cebpf4jnsgd1na2vs0mg"},{"bike_id":"fcd4837f-6e09-4786-bcf5-c3a686cbcfef","system_id":"levelo_inurba_marseille","lat":43.29888,"lon":5.43665,"is_reserved":false,"is_disabled":false,"rental_uris":{"android":"levelo://app?vid=fcd4837f-6e09-4786-bcf5-c3a686cbcfef","ios":"levelo://app?vid=fcd4837f-6e09-4786-bcf5-c3a686cbcfef"},"vehicle_type_id":"4","last_reported":1737630459,"current_range_meters":28400,"station_id":"ce4bhpp2rcd13ifvqhfg","pricing_plan_id":"cebpf4jnsgd1na2vs0mg"},{"bike_id":"51c1070e-6813-43c7-a18c-a032e3325f2b","system_id":"levelo_inurba_marseille","lat":43.29879,"lon":5.39736,"is_reserved":false,"is_disabled":false,"rental_uris":{"android":"levelo://app?vid=51c1070e-6813-43c7-a18c-a032e3325f2b","ios":"levelo://app?vid=51c1070e-6813-43c7-a18c-a032e3325f2b"},"vehicle_type_id":"4","last_reported":1737630459,"current_range_meters":30800,"station_id":"ce4bh0h2rcd13ifvqd50","pricing_plan_id":"cebpf4jnsgd1na2vs0mg"},{"bike_id":"26e8235e-1368-401b-8234-f0b5225ccf46","system_id":"levelo_inurba_marseille","lat":43.29578,"lon":5.37458,"is_reserved":false,"is_disabled":false,"rental_uris":{"android":"levelo://app?vid=26e8235e-1368-401b-8234-f0b5225ccf46","ios":"levelo://app?vid=26e8235e-1368-401b-8234-f0b5225ccf46"},"vehicle_type_id":"4","last_reported":1737630459,"current_range_meters":39200,"station_id":"ce4bgkp2rcd13ifvqbmg","pricing_plan_id":"cebpf4jnsgd1na2vs0mg"},{"bike_id":"1fa3d9db-7729-4fb4-8067-a77b7f64ec3d","system_id":"levelo_inurba_marseille","lat":43.29536,"lon":5.37514,"is_reserved":false,"is_disabled":false,"rental_uris":{"android":"levelo://app?vid=1fa3d9db-7729-4fb4-8067-a77b7f64ec3d","ios":"levelo://app?vid=1fa3d9db-7729-4fb4-8067-a77b7f64ec3d"},"vehicle_type_id":"4","last_reported":1737630459,"current_range_meters":32000,"station_id":"ce4bgkp2rcd13ifvqbmg","pricing_plan_id":"cebpf4jnsgd1na2vs0mg"},{"bike_id":"16f0e6b5-d946-47d2-a97c-ad19d0c1e9a1","system_id":"levelo_inurba_marseille","lat":43.30915,"lon":5.36871,"is_reserved":false,"is_disabled":false,"rental_uris":{"android":"levelo://app?vid=16f0e6b5-d946-47d2-a97c-ad19d0c1e9a1","ios":"levelo://app?vid=16f0e6b5-d946-47d2-a97c-ad19d0c1e9a1"},"vehicle_type_id":"4","last_reported":1737630459,"current_range_meters":30800,"station_id":"ce4bgn92rcd13ifvqbvg","pricing_plan_id":"cebpf4jnsgd1na2vs0mg"},{"bike_id":"23cbf68b-004a-4a92-9108-cf5e88d72d1d","system_id":"levelo_inurba_marseille","lat":43.27319,"lon":5.39088,"is_reserved":false,"is_disabled":false,"rental_uris":{"android":"levelo://app?vid=23cbf68b-004a-4a92-9108-cf5e88d72d1d","ios":"levelo://app?vid=23cbf68b-004a-4a92-9108-cf5e88d72d1d"},"vehicle_type_id":"4","last_reported":1737630459,"current_range_meters":39200,"station_id":"ce4bhgp2rcd13ifvqfe0","pricing_plan_id":"cebpf4jnsgd1na2vs0mg"},{"bike_id":"61bf316f-0513-43b6-a2aa-f78552ff6504","system_id":"levelo_inurba_marseille","lat":43.31908,"lon":5.40729,"is_reserved":false,"is_disabled":false,"rental_uris":{"android":"levelo://app?vid=61bf316f-0513-43b6-a2aa-f78552ff6504","ios":"levelo://app?vid=61bf316f-0513-43b6-a2aa-f78552ff6504"},"vehicle_type_id":"4","last_reported":1737630459,"current_range_meters":30800,"station_id":"ce4bhq12rcd13ifvqhig","pricing_plan_id":"cebpf4jnsgd1na2vs0mg"},{"bike_id":"1073ae25-e342-4b46-862b-9edc259986a2","system_id":"levelo_inurba_marseille","lat":43.27203,"lon":5.39188,"is_reserved":false,"is_disabled":false,"rental_uris":{"android":"levelo://app?vid=1073ae25-e342-4b46-862b-9edc259986a2","ios":"levelo://app?vid=1073ae25-e342-4b46-862b-9edc259986a2"},"vehicle_type_id":"4","last_reported":1737630459,"current_range_meters":32400,"station_id":"ce4bhhp2rcd13ifvqfm0","pricing_plan_id":"cebpf4jnsgd1na2vs0mg"},{"bike_id":"e4758cb0-0367-4c65-b523-571a72650646","system_id":"levelo_inurba_marseille","lat":43.3055,"lon":5.36534,"is_reserved":false,"is_disabled":true,"rental_uris":{"android":"levelo://app?vid=e4758cb0-0367-4c65-b523-571a72650646","ios":"levelo://app?vid=e4758cb0-0367-4c65-b523-571a72650646"},"vehicle_type_id":"4","last_reported":1737630459,"current_range_meters":38800,"station_id":"ce4bgs12rcd13ifvqcag","pricing_plan_id":"cebpf4jnsgd1na2vs0mg"},{"bike_id":"26d96d78-7a29-4ec5-93ac-79ad4342b085","system_id":"levelo_inurba_marseille","lat":43.31326,"lon":5.39709,"is_reserved":false,"is_disabled":false,"rental_uris":{"android":"levelo://app?vid=26d96d78-7a29-4ec5-93ac-79ad4342b085","ios":"levelo://app?vid=26d96d78-7a29-4ec5-93ac-79ad4342b085"},"vehicle_type_id":"4","last_reported":1737630459,"current_range_meters":36000,"station_id":"ce4bgvp2rcd13ifvqcu0","pricing_plan_id":"cebpf4jnsgd1na2vs0mg"},{"bike_id":"0bcf729b-7f1d-44be-83b9-5d96cbbd12f7","system_id":"levelo_inurba_marseille","lat":43.25498,"lon":5.37647,"is_reserved":false,"is_disabled":false,"rental_uris":{"android":"levelo://app?vid=0bcf729b-7f1d-44be-83b9-5d96cbbd12f7","ios":"levelo://app?vid=0bcf729b-7f1d-44be-83b9-5d96cbbd12f7"},"vehicle_type_id":"4","last_reported":1737630459,"current_range_meters":34800,"station_id":"ce4bhh12rcd13ifvqff0","pricing_plan_id":"cebpf4jnsgd1na2vs0mg"},{"bike_id":"d96f7a91-42fe-404b-b108-4c7a0d7b5adf","system_id":"levelo_inurba_marseille","lat":43.33575,"lon":5.40989,"is_reserved":false,"is_disabled":true,"rental_uris":{"android":"levelo://app?vid=d96f7a91-42fe-404b-b108-4c7a0d7b5adf","ios":"levelo://app?vid=d96f7a91-42fe-404b-b108-4c7a0d7b5adf"},"vehicle_type_id":"4","last_reported":1737630459,"current_range_meters":12800,"station_id":"","pricing_plan_id":"cebpf4jnsgd1na2vs0mg"},{"bike_id":"2ed35bd3-1fe4-43c7-b8b2-713d0a30cf03","system_id":"levelo_inurba_marseille","lat":43.25577,"lon":5.38239,"is_reserved":false,"is_disabled":false,"rental_uris":{"android":"levelo://app?vid=2ed35bd3-1fe4-43c7-b8b2-713d0a30cf03","ios":"levelo://app?vid=2ed35bd3-1fe4-43c7-b8b2-713d0a30cf03"},"vehicle_type_id":"4","last_reported":1737630459,"current_range_meters":18800,"station_id":"ce4bhih2rcd13ifvqfs0","pricing_plan_id":"cebpf4jnsgd1na2vs0mg"},{"bike_id":"740ca7dc-7fcb-49cd-8b20-28b6f7632f45","system_id":"levelo_inurba_marseille","lat":43.30224,"lon":5.39467,"is_reserved":false,"is_disabled":true,"rental_uris":{"android":"levelo://app?vid=740ca7dc-7fcb-49cd-8b20-28b6f7632f45","ios":"levelo://app?vid=740ca7dc-7fcb-49cd-8b20-28b6f7632f45"},"vehicle_type_id":"4","last_reported":1737630459,"current_range_meters":400,"station_id":"ce4bh0p2rcd13ifvqd70","pricing_plan_id":"cebpf4jnsgd1na2vs0mg"},{"bike_id":"c1a32994-ceeb-4bae-8a8f-8c175866c949","system_id":"levelo_inurba_marseille","lat":43.29165,"lon":5.3717,"is_reserved":false,"is_disabled":false,"rental_uris":{"android":"levelo://app?vid=c1a32994-ceeb-4bae-8a8f-8c175866c949","ios":"levelo://app?vid=c1a32994-ceeb-4bae-8a8f-8c175866c949"},"vehicle_type_id":"4","last_reported":1737630459,"current_range_meters":19200,"station_id":"ce4bha92rcd13ifvqeh0","pricing_plan_id":"cebpf4jnsgd1na2vs0mg"},{"bike_id":"83425837-a35c-4add-b93c-3f5e7bf7312b","system_id":"levelo_inurba_marseille","lat":43.27368,"lon":5.36265,"is_reserved":false,"is_disabled":false,"rental_uris":{"android":"levelo://app?vid=83425837-a35c-4add-b93c-3f5e7bf7312b","ios":"levelo://app?vid=83425837-a35c-4add-b93c-3f5e7bf7312b"},"vehicle_type_id":"4","last_reported":1737630459,"current_range_meters":18800,"station_id":"ce4bhbh2rcd13ifvqeo0","pricing_plan_id":"cebpf4jnsgd1na2vs0mg"},{"bike_id":"433c5acb-0074-4249-a229-86b8f48bca85","system_id":"levelo_inurba_marseille","lat":43.30534,"lon":5.36525,"is_reserved":false,"is_disabled":false,"rental_uris":{"android":"levelo://app?vid=433c5acb-0074-4249-a229-86b8f48bca85","ios":"levelo://app?vid=433c5acb-0074-4249-a229-86b8f48bca85"},"vehicle_type_id":"4","last_reported":1737630459,"current_range_meters":38800,"station_id":"ce4bgs12rcd13ifvqcag","pricing_plan_id":"cebpf4jnsgd1na2vs0mg"},{"bike_id":"83166b0a-899b-4693-98c4-ffc2b5705e20","system_id":"levelo_inurba_marseille","lat":43.249857,"lon":5.389467,"is_reserved":false,"is_disabled":false,"rental_uris":{"android":"levelo://app?vid=83166b0a-899b-4693-98c4-ffc2b5705e20","ios":"levelo://app?vid=83166b0a-899b-4693-98c4-ffc2b5705e20"},"vehicle_type_id":"4","last_reported":1737630459,"current_range_meters":30000,"station_id":"ce4bhgp2rcd13ifvqfd0","pricing_plan_id":"cebpf4jnsgd1na2vs0mg"},{"bike_id":"88461d53-13e7-4744-ab4c-a734676217e6","system_id":"levelo_inurba_marseille","lat":43.29003,"lon":5.356,"is_reserved":false,"is_disabled":false,"rental_uris":{"android":"levelo://app?vid=88461d53-13e7-4744-ab4c-a734676217e6","ios":"levelo://app?vid=88461d53-13e7-4744-ab4c-a734676217e6"},"vehicle_type_id":"4","last_reported":1737630459,"current_range_meters":36800,"station_id":"ce4bhb92rcd13ifvqen0","pricing_plan_id":"cebpf4jnsgd1na2vs0mg"},{"bike_id":"7ca7e54b-3d43-4710-b428-cc328cd1a4a8","system_id":"levelo_inurba_marseille","lat":43.26802,"lon":5.39464,"is_reserved":false,"is_disabled":false,"rental_uris":{"android":"levelo://app?vid=7ca7e54b-3d43-4710-b428-cc328cd1a4a8","ios":"levelo://app?vid=7ca7e54b-3d43-4710-b428-cc328cd1a4a8"},"vehicle_type_id":"4","last_reported":1737630459,"current_range_meters":38800,"station_id":"","pricing_plan_id":"cebpf4jnsgd1na2vs0mg"},{"bike_id":"13ff516e-16cf-4543-8540-9030b8b296b4","system_id":"levelo_inurba_marseille","lat":43.23197,"lon":5.3556,"is_reserved":false,"is_disabled":false,"rental_uris":{"android":"levelo://app?vid=13ff516e-16cf-4543-8540-9030b8b296b4","ios":"levelo://app?vid=13ff516e-16cf-4543-8540-9030b8b296b4"},"vehicle_type_id":"4","last_reported":1737630459,"current_range_meters":29600,"station_id":"ce4bhu92rcd13ifvqi70","pricing_plan_id":"cebpf4jnsgd1na2vs0mg"},{"bike_id":"94a9bd3b-c2c7-463c-a9dc-a349f0b819db","system_id":"levelo_inurba_marseille","lat":43.27975,"lon":5.38725,"is_reserved":false,"is_disabled":false,"rental_uris":{"android":"levelo://app?vid=94a9bd3b-c2c7-463c-a9dc-a349f0b819db","ios":"levelo://app?vid=94a9bd3b-c2c7-463c-a9dc-a349f0b819db"},"vehicle_type_id":"4","last_reported":1737630459,"current_range_meters":36800,"station_id":"ce4bhg12rcd13ifvqf80","pricing_plan_id":"cebpf4jnsgd1na2vs0mg"},{"bike_id":"8b5d432a-bc57-4d7a-bed6-fb393e8e84d2","system_id":"levelo_inurba_marseille","lat":43.29803,"lon":5.38093,"is_reserved":false,"is_disabled":false,"rental_uris":{"android":"levelo://app?vid=8b5d432a-bc57-4d7a-bed6-fb393e8e84d2","ios":"levelo://app?vid=8b5d432a-bc57-4d7a-bed6-fb393e8e84d2"},"vehicle_type_id":"4","last_reported":1737630459,"current_range_meters":35200,"station_id":"ce4bgip2rcd13ifvqbb0","pricing_plan_id":"cebpf4jnsgd1na2vs0mg"},{"bike_id":"dc9afc0d-d533-431b-a32f-6f6423d7880b","system_id":"levelo_inurba_marseille","lat":43.31733,"lon":5.42396,"is_reserved":false,"is_disabled":true,"rental_uris":{"android":"levelo://app?vid=dc9afc0d-d533-431b-a32f-6f6423d7880b","ios":"levelo://app?vid=dc9afc0d-d533-431b-a32f-6f6423d7880b"},"vehicle_type_id":"4","last_reported":1737630459,"current_range_meters":31200,"station_id":"ce4bhp92rcd13ifvqhbg","pricing_plan_id":"cebpf4jnsgd1na2vs0mg"},{"bike_id":"9879772a-8703-4f73-b3f0-82c5d49d8afe","system_id":"levelo_inurba_marseille","lat":43.2991,"lon":5.39747,"is_reserved":false,"is_disabled":false,"rental_uris":{"android":"levelo://app?vid=9879772a-8703-4f73-b3f0-82c5d49d8afe","ios":"levelo://app?vid=9879772a-8703-4f73-b3f0-82c5d49d8afe"},"vehicle_type_id":"4","last_reported":1737630459,"current_range_meters":38800,"station_id":"ce4bh0h2rcd13ifvqd50","pricing_plan_id":"cebpf4jnsgd1na2vs0mg"},{"bike_id":"07c90ff2-f5ee-4bbd-9eb8-ab19d1831348","system_id":"levelo_inurba_marseille","lat":43.32108,"lon":5.36768,"is_reserved":false,"is_disabled":false,"rental_uris":{"android":"levelo://app?vid=07c90ff2-f5ee-4bbd-9eb8-ab19d1831348","ios":"levelo://app?vid=07c90ff2-f5ee-4bbd-9eb8-ab19d1831348"},"vehicle_type_id":"4","last_reported":1737630459,"current_range_meters":6000,"station_id":"ce4bhrh2rcd13ifvqhug","pricing_plan_id":"cebpf4jnsgd1na2vs0mg"},{"bike_id":"b2f004cc-c0f3-4203-a96b-8b31c46e72f3","system_id":"levelo_inurba_marseille","lat":43.31084,"lon":5.42434,"is_reserved":false,"is_disabled":false,"rental_uris":{"android":"levelo://app?vid=b2f004cc-c0f3-4203-a96b-8b31c46e72f3","ios":"levelo://app?vid=b2f004cc-c0f3-4203-a96b-8b31c46e72f3"},"vehicle_type_id":"4","last_reported":1737630459,"current_range_meters":32800,"station_id":"ce4bhp92rcd13ifvqhag","pricing_plan_id":"cebpf4jnsgd1na2vs0mg"},{"bike_id":"1876537c-c9d8-4160-b31c-e17d644f44c6","system_id":"levelo_inurba_marseille","lat":43.32475,"lon":5.36569,"is_reserved":false,"is_disabled":false,"rental_uris":{"android":"levelo://app?vid=1876537c-c9d8-4160-b31c-e17d644f44c6","ios":"levelo://app?vid=1876537c-c9d8-4160-b31c-e17d644f44c6"},"vehicle_type_id":"4","last_reported":1737630459,"current_range_meters":33200,"station_id":"ce4bhs12rcd13ifvqhvg","pricing_plan_id":"cebpf4jnsgd1na2vs0mg"},{"bike_id":"c39beb18-b568-4699-95c1-ddaef8c27d01","system_id":"levelo_inurba_marseille","lat":43.30962,"lon":5.39037,"is_reserved":false,"is_disabled":true,"rental_uris":{"android":"levelo://app?vid=c39beb18-b568-4699-95c1-ddaef8c27d01","ios":"levelo://app?vid=c39beb18-b568-4699-95c1-ddaef8c27d01"},"vehicle_type_id":"4","last_reported":1737630459,"current_range_meters":0,"station_id":"ce4bgup2rcd13ifvqco0","pricing_plan_id":"cebpf4jnsgd1na2vs0mg"},{"bike_id":"708a790a-0a02-4db4-be0d-89e70821e080","system_id":"levelo_inurba_marseille","lat":43.30457,"lon":5.38889,"is_reserved":false,"is_disabled":false,"rental_uris":{"android":"levelo://app?vid=708a790a-0a02-4db4-be0d-89e70821e080","ios":"levelo://app?vid=708a790a-0a02-4db4-be0d-89e70821e080"},"vehicle_type_id":"4","last_reported":1737630459,"current_range_meters":24400,"station_id":"ce4bgk12rcd13ifvqbi0","pricing_plan_id":"cebpf4jnsgd1na2vs0mg"},{"bike_id":"047de2d8-e2d9-4cca-801a-aea25689a488","system_id":"levelo_inurba_marseille","lat":43.27169,"lon":5.40995,"is_reserved":false,"is_disabled":false,"rental_uris":{"android":"levelo://app?vid=047de2d8-e2d9-4cca-801a-aea25689a488","ios":"levelo://app?vid=047de2d8-e2d9-4cca-801a-aea25689a488"},"vehicle_type_id":"4","last_reported":1737630459,"current_range_meters":39200,"station_id":"ce4bhl12rcd13ifvqgf0","pricing_plan_id":"cebpf4jnsgd1na2vs0mg"},{"bike_id":"37c90366-1f73-41fa-9e11-962522b59f25","system_id":"levelo_inurba_marseille","lat":43.28684,"lon":5.37407,"is_reserved":false,"is_disabled":false,"rental_uris":{"android":"levelo://app?vid=37c90366-1f73-41fa-9e11-962522b59f25","ios":"levelo://app?vid=37c90366-1f73-41fa-9e11-962522b59f25"},"vehicle_type_id":"4","last_reported":1737630459,"current_range_meters":25600,"station_id":"ce4bh3p2rcd13ifvqdq0","pricing_plan_id":"cebpf4jnsgd1na2vs0mg"},{"bike_id":"5b5d4d96-8df1-499e-a530-eead026d912a","system_id":"levelo_inurba_marseille","lat":43.27361,"lon":5.3626,"is_reserved":false,"is_disabled":false,"rental_uris":{"android":"levelo://app?vid=5b5d4d96-8df1-499e-a530-eead026d912a","ios":"levelo://app?vid=5b5d4d96-8df1-499e-a530-eead026d912a"},"vehicle_type_id":"4","last_reported":1737630459,"current_range_meters":38000,"station_id":"ce4bhbh2rcd13ifvqeo0","pricing_plan_id":"cebpf4jnsgd1na2vs0mg"},{"bike_id":"523e29ba-9888-4685-bb6f-a946a980c055","system_id":"levelo_inurba_marseille","lat":43.30143,"lon":5.38078,"is_reserved":false,"is_disabled":false,"rental_uris":{"android":"levelo://app?vid=523e29ba-9888-4685-bb6f-a946a980c055","ios":"levelo://app?vid=523e29ba-9888-4685-bb6f-a946a980c055"},"vehicle_type_id":"4","last_reported":1737630459,"current_range_meters":37600,"station_id":"ce4bgjp2rcd13ifvqbh0","pricing_plan_id":"cebpf4jnsgd1na2vs0mg"},{"bike_id":"d5e580bb-31f1-420b-8967-4ef30e3f9e43","system_id":"levelo_inurba_marseille","lat":43.31081,"lon":5.42439,"is_reserved":false,"is_disabled":false,"rental_uris":{"android":"levelo://app?vid=d5e580bb-31f1-420b-8967-4ef30e3f9e43","ios":"levelo://app?vid=d5e580bb-31f1-420b-8967-4ef30e3f9e43"},"vehicle_type_id":"4","last_reported":1737630459,"current_range_meters":26000,"station_id":"ce4bhp92rcd13ifvqhag","pricing_plan_id":"cebpf4jnsgd1na2vs0mg"},{"bike_id":"68e9c31c-ad3e-43bf-9dd6-a2db62b95ef7","system_id":"levelo_inurba_marseille","lat":43.32457,"lon":5.36577,"is_reserved":false,"is_disabled":false,"rental_uris":{"android":"levelo://app?vid=68e9c31c-ad3e-43bf-9dd6-a2db62b95ef7","ios":"levelo://app?vid=68e9c31c-ad3e-43bf-9dd6-a2db62b95ef7"},"vehicle_type_id":"4","last_reported":1737630459,"current_range_meters":23200,"station_id":"ce4bhs12rcd13ifvqhvg","pricing_plan_id":"cebpf4jnsgd1na2vs0mg"},{"bike_id":"c57a4656-9914-4691-8920-de942ac8d52d","system_id":"levelo_inurba_marseille","lat":43.24973,"lon":5.38939,"is_reserved":false,"is_disabled":false,"rental_uris":{"android":"levelo://app?vid=c57a4656-9914-4691-8920-de942ac8d52d","ios":"levelo://app?vid=c57a4656-9914-4691-8920-de942ac8d52d"},"vehicle_type_id":"4","last_reported":1737630459,"current_range_meters":27200,"station_id":"ce4bhgp2rcd13ifvqfd0","pricing_plan_id":"cebpf4jnsgd1na2vs0mg"},{"bike_id":"b8338bfe-1284-4232-9a51-15bb8e974f1c","system_id":"levelo_inurba_marseille","lat":43.29842,"lon":5.36264,"is_reserved":false,"is_disabled":false,"rental_uris":{"android":"levelo://app?vid=b8338bfe-1284-4232-9a51-15bb8e974f1c","ios":"levelo://app?vid=b8338bfe-1284-4232-9a51-15bb8e974f1c"},"vehicle_type_id":"4","last_reported":1737630459,"current_range_meters":38800,"station_id":"ce4bgpp2rcd13ifvqc3g","pricing_plan_id":"cebpf4jnsgd1na2vs0mg"},{"bike_id":"5cd4fc2c-be6b-48c5-a932-54ec673ea17b","system_id":"levelo_inurba_marseille","lat":43.29198,"lon":5.35818,"is_reserved":false,"is_disabled":false,"rental_uris":{"android":"levelo://app?vid=5cd4fc2c-be6b-48c5-a932-54ec673ea17b","ios":"levelo://app?vid=5cd4fc2c-be6b-48c5-a932-54ec673ea17b"},"vehicle_type_id":"4","last_reported":1737630459,"current_range_meters":12000,"station_id":"ce4bhb12rcd13ifvqel0","pricing_plan_id":"cebpf4jnsgd1na2vs0mg"},{"bike_id":"d44e0181-8fda-48f6-8535-2fda924ce2fd","system_id":"levelo_inurba_marseille","lat":43.29952,"lon":5.43556,"is_reserved":false,"is_disabled":false,"rental_uris":{"android":"levelo://app?vid=d44e0181-8fda-48f6-8535-2fda924ce2fd","ios":"levelo://app?vid=d44e0181-8fda-48f6-8535-2fda924ce2fd"},"vehicle_type_id":"4","last_reported":1737630459,"current_range_meters":4000,"station_id":"","pricing_plan_id":"cebpf4jnsgd1na2vs0mg"},{"bike_id":"a8726e23-c62e-4886-badc-570732767531","system_id":"levelo_inurba_marseille","lat":43.29307,"lon":5.3744,"is_reserved":false,"is_disabled":false,"rental_uris":{"android":"levelo://app?vid=a8726e23-c62e-4886-badc-570732767531","ios":"levelo://app?vid=a8726e23-c62e-4886-badc-570732767531"},"vehicle_type_id":"4","last_reported":1737630459,"current_range_meters":38800,"station_id":"ce4bgi12rcd13ifvqb70","pricing_plan_id":"cebpf4jnsgd1na2vs0mg"},{"bike_id":"a2c6f3c8-0042-49e9-a93c-f77ff305dc28","system_id":"levelo_inurba_marseille","lat":43.295238,"lon":5.390411,"is_reserved":false,"is_disabled":false,"rental_uris":{"android":"levelo://app?vid=a2c6f3c8-0042-49e9-a93c-f77ff305dc28","ios":"levelo://app?vid=a2c6f3c8-0042-49e9-a93c-f77ff305dc28"},"vehicle_type_id":"4","last_reported":1737630459,"current_range_meters":22000,"station_id":"ce4bh3p2rcd13ifvqdp0","pricing_plan_id":"cebpf4jnsgd1na2vs0mg"},{"bike_id":"f15a3926-03ea-4c4b-9f1b-6e7324acfe94","system_id":"levelo_inurba_marseille","lat":43.30913,"lon":5.36884,"is_reserved":false,"is_disabled":false,"rental_uris":{"android":"levelo://app?vid=f15a3926-03ea-4c4b-9f1b-6e7324acfe94","ios":"levelo://app?vid=f15a3926-03ea-4c4b-9f1b-6e7324acfe94"},"vehicle_type_id":"4","last_reported":1737630459,"current_range_meters":14800,"station_id":"ce4bgn92rcd13ifvqbvg","pricing_plan_id":"cebpf4jnsgd1na2vs0mg"},{"bike_id":"0aa76b23-a584-481f-b01e-84e6592d1623","system_id":"levelo_inurba_marseille","lat":43.29774,"lon":5.37745,"is_reserved":false,"is_disabled":false,"rental_uris":{"android":"levelo://app?vid=0aa76b23-a584-481f-b01e-84e6592d1623","ios":"levelo://app?vid=0aa76b23-a584-481f-b01e-84e6592d1623"},"vehicle_type_id":"4","last_reported":1737630459,"current_range_meters":30400,"station_id":"","pricing_plan_id":"cebpf4jnsgd1na2vs0mg"},{"bike_id":"d22b6dd8-70dd-44e2-b2da-7416379d6042","system_id":"levelo_inurba_marseille","lat":43.26698,"lon":5.38243,"is_reserved":false,"is_disabled":false,"rental_uris":{"android":"levelo://app?vid=d22b6dd8-70dd-44e2-b2da-7416379d6042","ios":"levelo://app?vid=d22b6dd8-70dd-44e2-b2da-7416379d6042"},"vehicle_type_id":"4","last_reported":1737630459,"current_range_meters":39200,"station_id":"ce4bhg92rcd13ifvqf90","pricing_plan_id":"cebpf4jnsgd1na2vs0mg"},{"bike_id":"0aec17a1-d8f2-4e00-b9ec-705d67e6be92","system_id":"levelo_inurba_marseille","lat":43.30542,"lon":5.3657,"is_reserved":false,"is_disabled":false,"rental_uris":{"android":"levelo://app?vid=0aec17a1-d8f2-4e00-b9ec-705d67e6be92","ios":"levelo://app?vid=0aec17a1-d8f2-4e00-b9ec-705d67e6be92"},"vehicle_type_id":"4","last_reported":1737630459,"current_range_meters":26800,"station_id":"ce4bgs12rcd13ifvqcag","pricing_plan_id":"cebpf4jnsgd1na2vs0mg"},{"bike_id":"b447f92a-5d99-46a4-b5cc-3590e2b17e81","system_id":"levelo_inurba_marseille","lat":43.2964,"lon":5.3714,"is_reserved":false,"is_disabled":false,"rental_uris":{"android":"levelo://app?vid=b447f92a-5d99-46a4-b5cc-3590e2b17e81","ios":"levelo://app?vid=b447f92a-5d99-46a4-b5cc-3590e2b17e81"},"vehicle_type_id":"4","last_reported":1737630459,"current_range_meters":39200,"station_id":"ce4bgnh2rcd13ifvqc0g","pricing_plan_id":"cebpf4jnsgd1na2vs0mg"},{"bike_id":"73437ec1-c49c-4c1d-87bb-5c89656ded36","system_id":"levelo_inurba_marseille","lat":43.30546,"lon":5.36699,"is_reserved":false,"is_disabled":false,"rental_uris":{"android":"levelo://app?vid=73437ec1-c49c-4c1d-87bb-5c89656ded36","ios":"levelo://app?vid=73437ec1-c49c-4c1d-87bb-5c89656ded36"},"vehicle_type_id":"4","last_reported":1737630459,"current_range_meters":39200,"station_id":"ce4bgrp2rcd13ifvqc9g","pricing_plan_id":"cebpf4jnsgd1na2vs0mg"},{"bike_id":"c433d072-0a66-4269-8237-4a9666d43019","system_id":"levelo_inurba_marseille","lat":43.272,"lon":5.39178,"is_reserved":false,"is_disabled":false,"rental_uris":{"android":"levelo://app?vid=c433d072-0a66-4269-8237-4a9666d43019","ios":"levelo://app?vid=c433d072-0a66-4269-8237-4a9666d43019"},"vehicle_type_id":"4","last_reported":1737630459,"current_range_meters":39200,"station_id":"ce4bhhp2rcd13ifvqfm0","pricing_plan_id":"cebpf4jnsgd1na2vs0mg"},{"bike_id":"22194593-f787-46d9-8429-b9675a290fcf","system_id":"levelo_inurba_marseille","lat":43.33593,"lon":5.40988,"is_reserved":false,"is_disabled":false,"rental_uris":{"android":"levelo://app?vid=22194593-f787-46d9-8429-b9675a290fcf","ios":"levelo://app?vid=22194593-f787-46d9-8429-b9675a290fcf"},"vehicle_type_id":"4","last_reported":1737630459,"current_range_meters":38400,"station_id":"ce4bhqh2rcd13ifvqhmg","pricing_plan_id":"cebpf4jnsgd1na2vs0mg"},{"bike_id":"1714e45e-7747-4d49-a740-f2b4f1a907bf","system_id":"levelo_inurba_marseille","lat":43.32507,"lon":5.36575,"is_reserved":false,"is_disabled":false,"rental_uris":{"android":"levelo://app?vid=1714e45e-7747-4d49-a740-f2b4f1a907bf","ios":"levelo://app?vid=1714e45e-7747-4d49-a740-f2b4f1a907bf"},"vehicle_type_id":"4","last_reported":1737630459,"current_range_meters":26000,"station_id":"ce4bhs12rcd13ifvqhvg","pricing_plan_id":"cebpf4jnsgd1na2vs0mg"},{"bike_id":"ed9a2d24-d42d-4f35-9597-7e954db2d1ca","system_id":"levelo_inurba_marseille","lat":43.27209,"lon":5.39178,"is_reserved":false,"is_disabled":false,"rental_uris":{"android":"levelo://app?vid=ed9a2d24-d42d-4f35-9597-7e954db2d1ca","ios":"levelo://app?vid=ed9a2d24-d42d-4f35-9597-7e954db2d1ca"},"vehicle_type_id":"4","last_reported":1737630459,"current_range_meters":35200,"station_id":"ce4bhhp2rcd13ifvqfm0","pricing_plan_id":"cebpf4jnsgd1na2vs0mg"},{"bike_id":"47078629-c7b7-45ce-8b45-10c5ffa6761f","system_id":"levelo_inurba_marseille","lat":43.26192,"lon":5.3793,"is_reserved":false,"is_disabled":false,"rental_uris":{"android":"levelo://app?vid=47078629-c7b7-45ce-8b45-10c5ffa6761f","ios":"levelo://app?vid=47078629-c7b7-45ce-8b45-10c5ffa6761f"},"vehicle_type_id":"4","last_reported":1737630459,"current_range_meters":26800,"station_id":"ce4bhjp2rcd13ifvqg90","pricing_plan_id":"cebpf4jnsgd1na2vs0mg"},{"bike_id":"1d3074c7-d1f8-482c-8faa-2fc8e3684f7d","system_id":"levelo_inurba_marseille","lat":43.29006,"lon":5.35611,"is_reserved":false,"is_disabled":false,"rental_uris":{"android":"levelo://app?vid=1d3074c7-d1f8-482c-8faa-2fc8e3684f7d","ios":"levelo://app?vid=1d3074c7-d1f8-482c-8faa-2fc8e3684f7d"},"vehicle_type_id":"4","last_reported":1737630459,"current_range_meters":24800,"station_id":"ce4bhb92rcd13ifvqen0","pricing_plan_id":"cebpf4jnsgd1na2vs0mg"},{"bike_id":"eba4adbd-9f00-40cb-ad0d-0aa94c7536f5","system_id":"levelo_inurba_marseille","lat":43.30545,"lon":5.36533,"is_reserved":false,"is_disabled":false,"rental_uris":{"android":"levelo://app?vid=eba4adbd-9f00-40cb-ad0d-0aa94c7536f5","ios":"levelo://app?vid=eba4adbd-9f00-40cb-ad0d-0aa94c7536f5"},"vehicle_type_id":"4","last_reported":1737630459,"current_range_meters":16800,"station_id":"ce4bgs12rcd13ifvqcag","pricing_plan_id":"cebpf4jnsgd1na2vs0mg"},{"bike_id":"069f1bef-6205-41ba-98a3-b8477fcc3e4d","system_id":"levelo_inurba_marseille","lat":43.27309,"lon":5.3908,"is_reserved":false,"is_disabled":false,"rental_uris":{"android":"levelo://app?vid=069f1bef-6205-41ba-98a3-b8477fcc3e4d","ios":"levelo://app?vid=069f1bef-6205-41ba-98a3-b8477fcc3e4d"},"vehicle_type_id":"4","last_reported":1737630459,"current_range_meters":39200,"station_id":"ce4bhgp2rcd13ifvqfe0","pricing_plan_id":"cebpf4jnsgd1na2vs0mg"},{"bike_id":"2bcd27d5-39c7-4073-8eab-73d9180af4c9","system_id":"levelo_inurba_marseille","lat":43.28486,"lon":5.3854,"is_reserved":false,"is_disabled":false,"rental_uris":{"android":"levelo://app?vid=2bcd27d5-39c7-4073-8eab-73d9180af4c9","ios":"levelo://app?vid=2bcd27d5-39c7-4073-8eab-73d9180af4c9"},"vehicle_type_id":"4","last_reported":1737630459,"current_range_meters":36400,"station_id":"ce4bh8p2rcd13ifvqeb0","pricing_plan_id":"cebpf4jnsgd1na2vs0mg"},{"bike_id":"bbc643c8-6ad0-4e92-9c95-fe929c5eba3c","system_id":"levelo_inurba_marseille","lat":43.28961,"lon":5.37838,"is_reserved":false,"is_disabled":false,"rental_uris":{"android":"levelo://app?vid=bbc643c8-6ad0-4e92-9c95-fe929c5eba3c","ios":"levelo://app?vid=bbc643c8-6ad0-4e92-9c95-fe929c5eba3c"},"vehicle_type_id":"4","last_reported":1737630459,"current_range_meters":31200,"station_id":"ce4bh9p2rcd13ifvqed0","pricing_plan_id":"cebpf4jnsgd1na2vs0mg"},{"bike_id":"e285e636-e5a9-4ecf-a3fd-83e16d322fc4","system_id":"levelo_inurba_marseille","lat":43.28606,"lon":5.3706,"is_reserved":false,"is_disabled":false,"rental_uris":{"android":"levelo://app?vid=e285e636-e5a9-4ecf-a3fd-83e16d322fc4","ios":"levelo://app?vid=e285e636-e5a9-4ecf-a3fd-83e16d322fc4"},"vehicle_type_id":"4","last_reported":1737630459,"current_range_meters":38400,"station_id":"ce4bht12rcd13ifvqi60","pricing_plan_id":"cebpf4jnsgd1na2vs0mg"},{"bike_id":"672f7971-e71a-4604-b339-1cb89253402d","system_id":"levelo_inurba_marseille","lat":43.27195,"lon":5.39196,"is_reserved":false,"is_disabled":false,"rental_uris":{"android":"levelo://app?vid=672f7971-e71a-4604-b339-1cb89253402d","ios":"levelo://app?vid=672f7971-e71a-4604-b339-1cb89253402d"},"vehicle_type_id":"4","last_reported":1737630459,"current_range_meters":39200,"station_id":"ce4bhhp2rcd13ifvqfm0","pricing_plan_id":"cebpf4jnsgd1na2vs0mg"},{"bike_id":"68ccfa4f-7717-4549-8123-9c330e08740a","system_id":"levelo_inurba_marseille","lat":43.27912,"lon":5.37992,"is_reserved":false,"is_disabled":false,"rental_uris":{"android":"levelo://app?vid=68ccfa4f-7717-4549-8123-9c330e08740a","ios":"levelo://app?vid=68ccfa4f-7717-4549-8123-9c330e08740a"},"vehicle_type_id":"4","last_reported":1737630459,"current_range_meters":39200,"station_id":"ce4bhf92rcd13ifvqf50","pricing_plan_id":"cebpf4jnsgd1na2vs0mg"},{"bike_id":"739cf68d-be9a-4192-bc44-28a4fb93d0f5","system_id":"levelo_inurba_marseille","lat":43.24999,"lon":5.38937,"is_reserved":false,"is_disabled":false,"rental_uris":{"android":"levelo://app?vid=739cf68d-be9a-4192-bc44-28a4fb93d0f5","ios":"levelo://app?vid=739cf68d-be9a-4192-bc44-28a4fb93d0f5"},"vehicle_type_id":"4","last_reported":1737630459,"current_range_meters":38800,"station_id":"ce4bhgp2rcd13ifvqfd0","pricing_plan_id":"cebpf4jnsgd1na2vs0mg"},{"bike_id":"3d6d91c7-ef17-4d62-b7f4-0e4245ec8c50","system_id":"levelo_inurba_marseille","lat":43.25117,"lon":5.40314,"is_reserved":false,"is_disabled":false,"rental_uris":{"android":"levelo://app?vid=3d6d91c7-ef17-4d62-b7f4-0e4245ec8c50","ios":"levelo://app?vid=3d6d91c7-ef17-4d62-b7f4-0e4245ec8c50"},"vehicle_type_id":"4","last_reported":1737630459,"current_range_meters":6000,"station_id":"ce4bhlh2rcd13ifvqgig","pricing_plan_id":"cebpf4jnsgd1na2vs0mg"},{"bike_id":"bafe43b2-a6fb-4753-a6e0-6239cade9867","system_id":"levelo_inurba_marseille","lat":43.30956,"lon":5.39035,"is_reserved":false,"is_disabled":false,"rental_uris":{"android":"levelo://app?vid=bafe43b2-a6fb-4753-a6e0-6239cade9867","ios":"levelo://app?vid=bafe43b2-a6fb-4753-a6e0-6239cade9867"},"vehicle_type_id":"4","last_reported":1737630459,"current_range_meters":34800,"station_id":"ce4bgup2rcd13ifvqco0","pricing_plan_id":"cebpf4jnsgd1na2vs0mg"},{"bike_id":"31e32d05-f82b-4931-b1ac-634a5d17c4df","system_id":"levelo_inurba_marseille","lat":43.26213,"lon":5.37444,"is_reserved":false,"is_disabled":false,"rental_uris":{"android":"levelo://app?vid=31e32d05-f82b-4931-b1ac-634a5d17c4df","ios":"levelo://app?vid=31e32d05-f82b-4931-b1ac-634a5d17c4df"},"vehicle_type_id":"4","last_reported":1737630459,"current_range_meters":2800,"station_id":"ce4bhgp2rcd13ifvqfc0","pricing_plan_id":"cebpf4jnsgd1na2vs0mg"},{"bike_id":"59387345-1aaf-46db-b4e0-5c155ccc5142","system_id":"levelo_inurba_marseille","lat":43.31353,"lon":5.39697,"is_reserved":false,"is_disabled":false,"rental_uris":{"android":"levelo://app?vid=59387345-1aaf-46db-b4e0-5c155ccc5142","ios":"levelo://app?vid=59387345-1aaf-46db-b4e0-5c155ccc5142"},"vehicle_type_id":"4","last_reported":1737630459,"current_range_meters":38800,"station_id":"ce4bgvp2rcd13ifvqcu0","pricing_plan_id":"cebpf4jnsgd1na2vs0mg"},{"bike_id":"ab3356a0-f087-444a-935c-61f42d98aa05","system_id":"levelo_inurba_marseille","lat":43.30954,"lon":5.39037,"is_reserved":false,"is_disabled":false,"rental_uris":{"android":"levelo://app?vid=ab3356a0-f087-444a-935c-61f42d98aa05","ios":"levelo://app?vid=ab3356a0-f087-444a-935c-61f42d98aa05"},"vehicle_type_id":"4","last_reported":1737630459,"current_range_meters":25200,"station_id":"ce4bgup2rcd13ifvqco0","pricing_plan_id":"cebpf4jnsgd1na2vs0mg"},{"bike_id":"c99e9926-3dd4-4c36-ad54-cc4faa0d6a82","system_id":"levelo_inurba_marseille","lat":43.29269,"lon":5.36858,"is_reserved":false,"is_disabled":false,"rental_uris":{"android":"levelo://app?vid=c99e9926-3dd4-4c36-ad54-cc4faa0d6a82","ios":"levelo://app?vid=c99e9926-3dd4-4c36-ad54-cc4faa0d6a82"},"vehicle_type_id":"4","last_reported":1737630459,"current_range_meters":17600,"station_id":"ce4bhbp2rcd13ifvqesg","pricing_plan_id":"cebpf4jnsgd1na2vs0mg"},{"bike_id":"2e457fbb-8d81-4511-a6ff-864756d2e168","system_id":"levelo_inurba_marseille","lat":43.30953,"lon":5.39057,"is_reserved":false,"is_disabled":false,"rental_uris":{"android":"levelo://app?vid=2e457fbb-8d81-4511-a6ff-864756d2e168","ios":"levelo://app?vid=2e457fbb-8d81-4511-a6ff-864756d2e168"},"vehicle_type_id":"4","last_reported":1737630459,"current_range_meters":8800,"station_id":"ce4bgup2rcd13ifvqco0","pricing_plan_id":"cebpf4jnsgd1na2vs0mg"},{"bike_id":"53436702-dea1-4580-88d5-57e7bf032375","system_id":"levelo_inurba_marseille","lat":43.31483,"lon":5.37307,"is_reserved":false,"is_disabled":false,"rental_uris":{"android":"levelo://app?vid=53436702-dea1-4580-88d5-57e7bf032375","ios":"levelo://app?vid=53436702-dea1-4580-88d5-57e7bf032375"},"vehicle_type_id":"4","last_reported":1737630459,"current_range_meters":20000,"station_id":"ce4bgt12rcd13ifvqcd0","pricing_plan_id":"cebpf4jnsgd1na2vs0mg"},{"bike_id":"d748a01a-8e50-4ae8-82f7-7fe7b8012286","system_id":"levelo_inurba_marseille","lat":43.29687,"lon":5.37706,"is_reserved":false,"is_disabled":false,"rental_uris":{"android":"levelo://app?vid=d748a01a-8e50-4ae8-82f7-7fe7b8012286","ios":"levelo://app?vid=d748a01a-8e50-4ae8-82f7-7fe7b8012286"},"vehicle_type_id":"4","last_reported":1737630459,"current_range_meters":30800,"station_id":"ce4bgkh2rcd13ifvqbl0","pricing_plan_id":"cebpf4jnsgd1na2vs0mg"},{"bike_id":"3c9d5d82-e531-4fce-b24d-74c2797405a3","system_id":"levelo_inurba_marseille","lat":43.32351,"lon":5.36778,"is_reserved":false,"is_disabled":false,"rental_uris":{"android":"levelo://app?vid=3c9d5d82-e531-4fce-b24d-74c2797405a3","ios":"levelo://app?vid=3c9d5d82-e531-4fce-b24d-74c2797405a3"},