{"last_updated":1717852057,"ttl":30,"version":"2.2","data":{"bikes":[{"bike_id":"5668e40c-3e5d-4ef7-a883-b9cc9fba445a","system_id":"levelo_inurba_marseille","lat":43.313391,"lon":5.36706,"is_reserved":false,"is_disabled":false,"rental_uris":{"android":"levelo://app?vid=5668e40c-3e5d-4ef7-a883-b9cc9fba445a","ios":"levelo://app?vid=5668e40c-3e5d-4ef7-a883-b9cc9fba445a"},"vehicle_type_id":"4","last_reported":1717852057,"current_range_meters":17200,"station_id":"ce4bgr92rcd13ifvqc6g","pricing_plan_id":"cebpf4jnsgd1na2vs0mg"},{"bike_id":"3741c616-b197-44be-b01c-615b8f35c509","system_id":"levelo_inurba_marseille","lat":43.314811,"lon":5.373104,"is_reserved":false,"is_disabled":false,"rental_uris":{"android":"levelo://app?vid=3741c616-b197-44be-b01c-615b8f35c509","ios":"levelo://app?vid=3741c616-b197-44be-b01c-615b8f35c509"},"vehicle_type_id":"4","last_reported":1717852057,"current_range_meters":2000,"station_id":"ce4bgt12rcd13ifvqcd0","pricing_plan_id":"cebpf4jnsgd1na2vs0mg"},{"bike_id":"ea510525-5765-42aa-848a-a2936c8c8e84","system_id":"levelo_inurba_marseille","lat":43.31496,"lon":5.3731,"is_reserved":false,"is_disabled":false,"rental_uris":{"android":"levelo://app?vid=ea510525-5765-42aa-848a-a2936c8c8e84","ios":"levelo://app?vid=ea510525-5765-42aa-848a-a2936c8c8e84"},"vehicle_type_id":"4","last_reported":1717852057,"current_range_meters":0,"station_id":"ce4bgt12rcd13ifvqcd0","pricing_plan_id":"cebpf4jnsgd1na2vs0mg"},{"bike_id":"4eb2b219-b25e-4b82-b8c4-4d42d85bf8a3","system_id":"levelo_inurba_marseille","lat":43.309039,"lon":5.371797,"is_reserved":false,"is_disabled":false,"rental_uris":{"android":"levelo://app?vid=4eb2b219-b25e-4b82-b8c4-4d42d85bf8a3","ios":"levelo://app?vid=4eb2b219-b25e-4b82-b8c4-4d42d85bf8a3"},"vehicle_type_id":"4","last_reported":1717852057,"current_range_meters":12000,"station_id":"ce4bguh2rcd13ifvqckg","pricing_plan_id":"cebpf4jnsgd1na2vs0mg"},{"bike_id":"3140b04e-3d78-4b81-abd8-a88ba5770847","system_id":"levelo_inurba_marseille","lat":43.309039,"lon":5.371797,"is_reserved":false,"is_disabled":false,"rental_uris":{"android":"levelo://app?vid=3140b04e-3d78-4b81-abd8-a88ba5770847","ios":"levelo://app?vid=3140b04e-3d78-4b81-abd8-a88ba5770847"},"vehicle_type_id":"4","last_reported":1717852057,"current_range_meters":17600,"station_id":"ce4bguh2rcd13ifvqckg","pricing_plan_id":"cebpf4jnsgd1na2vs0mg"},{"bike_id":"1a5ccd45-bdd9-47cc-9103-34ebde651379","system_id":"levelo_inurba_marseille","lat":43.309039,"lon":5.371797,"is_reserved":false,"is_disabled":false,"rental_uris":{"android":"levelo://app?vid=1a5ccd45-bdd9-47cc-9103-34ebde651379","ios":"levelo://app?vid=1a5ccd45-bdd9-47cc-9103-34ebde651379"},"vehicle_type_id":"4","last_reported":1717852057,"current_range_meters":5200,"station_id":"ce4bguh2rcd13ifvqckg","pricing_plan_id":"cebpf4jnsgd1na2vs0mg"},{"bike_id":"6ae11b5d-1d88-4358-ad2b-172e0e558637","system_id":"levelo_inurba_marseille","lat":43.309039,"lon":5.371797,"is_reserved":false,"is_disabled":false,"rental_uris":{"android":"levelo://app?vid=6ae11b5d-1d88-4358-ad2b-172e0e558637","ios":"levelo://app?vid=6ae11b5d-1d88-4358-ad2b-172e0e558637"},"vehicle_type_id":"4","last_reported":1717852057,"current_range_meters":15600,"station_id":"ce4bguh2rcd13ifvqckg","pricing_plan_id":"cebpf4jnsgd1na2vs0mg"},{"bike_id":"c85a0d11-2ebf-4979-a89f-6f738c2657b2","system_id":"levelo_inurba_marseille","lat":43.305368,"lon":5.367343,"is_reserved":false,"is_disabled":false,"rental_uris":{"android":"levelo://app?vid=c85a0d11-2ebf-4979-a89f-6f738c2657b2","ios":"levelo://app?vid=c85a0d11-2ebf-4979-a89f-6f738c2657b2"},"vehicle_type_id":"4","last_reported":1717852057,"current_range_meters":800,"station_id":"ce4bgrp2rcd13ifvqc9g","pricing_plan_id":"cebpf4jnsgd1na2vs0mg"},{"bike_id":"a01b9747-ded5-4ef3-9750-597f25a1f061","system_id":"levelo_inurba_marseille","lat":43.305706,"lon":5.365654,"is_reserved":false,"is_disabled":false,"rental_uris":{"android":"levelo://app?vid=a01b9747-ded5-4ef3-9750-597f25a1f061","ios":"levelo://app?vid=a01b9747-ded5-4ef3-9750-597f25a1f061"},"vehicle_type_id":"4","last_reported":1717852057,"current_range_meters":15200,"station_id":"ce4bgs12rcd13ifvqcag","pricing_plan_id":"cebpf4jnsgd1na2vs0mg"},{"bike_id":"22024944-d70d-4324-9a61-604a4199f669","system_id":"levelo_inurba_marseille","lat":43.30537,"lon":5.367345,"is_reserved":false,"is_disabled":false,"rental_uris":{"android":"levelo://app?vid=22024944-d70d-4324-9a61-604a4199f669","ios":"levelo://app?vid=22024944-d70d-4324-9a61-604a4199f669"},"vehicle_type_id":"4","last_reported":1717852057,"current_range_meters":5600,"station_id":"ce4bgrp2rcd13ifvqc9g","pricing_plan_id":"cebpf4jnsgd1na2vs0mg"},{"bike_id":"de1a5a2e-6cba-4d5b-9813-220a13d14469","system_id":"levelo_inurba_marseille","lat":43.305706,"lon":5.365654,"is_reserved":false,"is_disabled":false,"rental_uris":{"android":"levelo://app?vid=de1a5a2e-6cba-4d5b-9813-220a13d14469","ios":"levelo://app?vid=de1a5a2e-6cba-4d5b-9813-220a13d14469"},"vehicle_type_id":"4","last_reported":1717852057,"current_range_meters":800,"station_id":"ce4bgs12rcd13ifvqcag","pricing_plan_id":"cebpf4jnsgd1na2vs0mg"},{"bike_id":"07c4b605-c305-4436-b4a6-49725516e6c0","system_id":"levelo_inurba_marseille","lat":43.305714,"lon":5.365633,"is_reserved":false,"is_disabled":false,"rental_uris":{"android":"levelo://app?vid=07c4b605-c305-4436-b4a6-49725516e6c0","ios":"levelo://app?vid=07c4b605-c305-4436-b4a6-49725516e6c0"},"vehicle_type_id":"4","last_reported":1717852057,"current_range_meters":11600,"station_id":"ce4bgs12rcd13ifvqcag","pricing_plan_id":"cebpf4jnsgd1na2vs0mg"},{"bike_id":"6711a720-4be1-4766-9812-54d9f67bc267","system_id":"levelo_inurba_marseille","lat":43.31844,"lon":5.37356,"is_reserved":false,"is_disabled":false,"rental_uris":{"android":"levelo://app?vid=6711a720-4be1-4766-9812-54d9f67bc267","ios":"levelo://app?vid=6711a720-4be1-4766-9812-54d9f67bc267"},"vehicle_type_id":"4","last_reported":1717852057,"current_range_meters":11600,"station_id":"","pricing_plan_id":"cebpf4jnsgd1na2vs0mg"},{"bike_id":"0e856b40-f80e-4d92-87ec-069097a75f9e","system_id":"levelo_inurba_marseille","lat":43.305368,"lon":5.367343,"is_reserved":false,"is_disabled":false,"rental_uris":{"android":"levelo://app?vid=0e856b40-f80e-4d92-87ec-069097a75f9e","ios":"levelo://app?vid=0e856b40-f80e-4d92-87ec-069097a75f9e"},"vehicle_type_id":"4","last_reported":1717852057,"current_range_meters":10800,"station_id":"ce4bgrp2rcd13ifvqc9g","pricing_plan_id":"cebpf4jnsgd1na2vs0mg"},{"bike_id":"2858a18f-9e81-415a-ae3a-a7e7556099c3","system_id":"levelo_inurba_marseille","lat":43.305368,"lon":5.367343,"is_reserved":false,"is_disabled":false,"rental_uris":{"android":"levelo://app?vid=2858a18f-9e81-415a-ae3a-a7e7556099c3","ios":"levelo://app?vid=2858a18f-9e81-415a-ae3a-a7e7556099c3"},"vehicle_type_id":"4","last_reported":1717852057,"current_range_meters":18800,"station_id":"ce4bgrp2rcd13ifvqc9g","pricing_plan_id":"cebpf4jnsgd1na2vs0mg"},{"bike_id":"6346f381-fec9-4271-aa61-8d45a76bfe42","system_id":"levelo_inurba_marseille","lat":43.309904,"lon":5.376628,"is_reserved":false,"is_disabled":false,"rental_uris":{"android":"levelo://app?vid=6346f381-fec9-4271-aa61-8d45a76bfe42","ios":"levelo://app?vid=6346f381-fec9-4271-aa61-8d45a76bfe42"},"vehicle_type_id":"4","last_reported":1717852057,"current_range_meters":24800,"station_id":"","pricing_plan_id":"cebpf4jnsgd1na2vs0mg"},{"bike_id":"a529797e-0142-4415-bee7-9c2359256e08","system_id":"levelo_inurba_marseille","lat":43.311196,"lon":5.377721,"is_reserved":false,"is_disabled":false,"rental_uris":{"android":"levelo://app?vid=a529797e-0142-4415-bee7-9c2359256e08","ios":"levelo://app?vid=a529797e-0142-4415-bee7-9c2359256e08"},"vehicle_type_id":"4","last_reported":1717852057,"current_range_meters":0,"station_id":"ce4bgt92rcd13ifvqcg0","pricing_plan_id":"cebpf4jnsgd1na2vs0mg"},{"bike_id":"574a4e7c-ee8d-45ae-96ac-0e465ffba071","system_id":"levelo_inurba_marseille","lat":43.307945,"lon":5.376487,"is_reserved":false,"is_disabled":false,"rental_uris":{"android":"levelo://app?vid=574a4e7c-ee8d-45ae-96ac-0e465ffba071","ios":"levelo://app?vid=574a4e7c-ee8d-45ae-96ac-0e465ffba071"},"vehicle_type_id":"4","last_reported":1717852057,"current_range_meters":13200,"station_id":"ce4bgv92rcd13ifvqcq0","pricing_plan_id":"cebpf4jnsgd1na2vs0mg"},{"bike_id":"5230a620-94e1-4758-85b2-b35dacb39ed8","system_id":"levelo_inurba_marseille","lat":43.307945,"lon":5.376487,"is_reserved":false,"is_disabled":false,"rental_uris":{"android":"levelo://app?vid=5230a620-94e1-4758-85b2-b35dacb39ed8","ios":"levelo://app?vid=5230a620-94e1-4758-85b2-b35dacb39ed8"},"vehicle_type_id":"4","last_reported":1717852057,"current_range_meters":30800,"station_id":"ce4bgv92rcd13ifvqcq0","pricing_plan_id":"cebpf4jnsgd1na2vs0mg"},{"bike_id":"3df820f0-aeda-45e6-85e8-1db52d66b26c","system_id":"levelo_inurba_marseille","lat":43.30781,"lon":5.3766,"is_reserved":false,"is_disabled":false,"rental_uris":{"android":"levelo://app?vid=3df820f0-aeda-45e6-85e8-1db52d66b26c","ios":"levelo://app?vid=3df820f0-aeda-45e6-85e8-1db52d66b26c"},"vehicle_type_id":"4","last_reported":1717852057,"current_range_meters":400,"station_id":"ce4bgv92rcd13ifvqcq0","pricing_plan_id":"cebpf4jnsgd1na2vs0mg"},{"bike_id":"7a47f840-aac7-4e62-a63f-08d6726051c6","system_id":"levelo_inurba_marseille","lat":43.317075,"lon":5.377367,"is_reserved":false,"is_disabled":false,"rental_uris":{"android":"levelo://app?vid=7a47f840-aac7-4e62-a63f-08d6726051c6","ios":"levelo://app?vid=7a47f840-aac7-4e62-a63f-08d6726051c6"},"vehicle_type_id":"4","last_reported":1717852057,"current_range_meters":0,"station_id":"ce4bgth2rcd13ifvqch0","pricing_plan_id":"cebpf4jnsgd1na2vs0mg"},{"bike_id":"a1b80bf6-859c-4b76-98c1-8e29aca19236","system_id":"levelo_inurba_marseille","lat":43.317075,"lon":5.377367,"is_reserved":false,"is_disabled":false,"rental_uris":{"android":"levelo://app?vid=a1b80bf6-859c-4b76-98c1-8e29aca19236","ios":"levelo://app?vid=a1b80bf6-859c-4b76-98c1-8e29aca19236"},"vehicle_type_id":"4","last_reported":1717852057,"current_range_meters":28000,"station_id":"ce4bgth2rcd13ifvqch0","pricing_plan_id":"cebpf4jnsgd1na2vs0mg"},{"bike_id":"ce1d1646-0639-4447-b874-73d80dba07b3","system_id":"levelo_inurba_marseille","lat":43.317144,"lon":5.377565,"is_reserved":false,"is_disabled":false,"rental_uris":{"android":"levelo://app?vid=ce1d1646-0639-4447-b874-73d80dba07b3","ios":"levelo://app?vid=ce1d1646-0639-4447-b874-73d80dba07b3"},"vehicle_type_id":"4","last_reported":1717852057,"current_range_meters":31200,"station_id":"ce4bgth2rcd13ifvqch0","pricing_plan_id":"cebpf4jnsgd1na2vs0mg"},{"bike_id":"3d2b7053-23ec-4314-9e2c-c09a5a2d4fa2","system_id":"levelo_inurba_marseille","lat":43.303046,"lon":5.368981,"is_reserved":false,"is_disabled":false,"rental_uris":{"android":"levelo://app?vid=3d2b7053-23ec-4314-9e2c-c09a5a2d4fa2","ios":"levelo://app?vid=3d2b7053-23ec-4314-9e2c-c09a5a2d4fa2"},"vehicle_type_id":"4","last_reported":1717852057,"current_range_meters":11600,"station_id":"ce4bgqh2rcd13ifvqc5g","pricing_plan_id":"cebpf4jnsgd1na2vs0mg"},{"bike_id":"affaf05a-fbac-4ebc-9fd1-8aaa215d1e9e","system_id":"levelo_inurba_marseille","lat":43.303046,"lon":5.368981,"is_reserved":false,"is_disabled":false,"rental_uris":{"android":"levelo://app?vid=affaf05a-fbac-4ebc-9fd1-8aaa215d1e9e","ios":"levelo://app?vid=affaf05a-fbac-4ebc-9fd1-8aaa215d1e9e"},"vehicle_type_id":"4","last_reported":1717852057,"current_range_meters":24400,"station_id":"ce4bgqh2rcd13ifvqc5g","pricing_plan_id":"cebpf4jnsgd1na2vs0mg"},{"bike_id":"4d5b86e1-fd58-4fd2-9d10-e06e41c371e1","system_id":"levelo_inurba_marseille","lat":43.303046,"lon":5.368981,"is_reserved":false,"is_disabled":false,"rental_uris":{"android":"levelo://app?vid=4d5b86e1-fd58-4fd2-9d10-e06e41c371e1","ios":"levelo://app?vid=4d5b86e1-fd58-4fd2-9d10-e06e41c371e1"},"vehicle_type_id":"4","last_reported":1717852057,"current_range_meters":13200,"station_id":"ce4bgqh2rcd13ifvqc5g","pricing_plan_id":"cebpf4jnsgd1na2vs0mg"},{"bike_id":"1f4d7c1b-59b9-4205-910b-bab84c81ba83","system_id":"levelo_inurba_marseille","lat":43.303046,"lon":5.368981,"is_reserved":false,"is_disabled":false,"rental_uris":{"android":"levelo://app?vid=1f4d7c1b-59b9-4205-910b-bab84c81ba83","ios":"levelo://app?vid=1f4d7c1b-59b9-4205-910b-bab84c81ba83"},"vehicle_type_id":"4","last_reported":1717852057,"current_range_meters":24400,"station_id":"ce4bgqh2rcd13ifvqc5g","pricing_plan_id":"cebpf4jnsgd1na2vs0mg"},{"bike_id":"91394148-4e56-43e0-b240-a3b1e1a757d5","system_id":"levelo_inurba_marseille","lat":43.30304,"lon":5.368987,"is_reserved":false,"is_disabled":false,"rental_uris":{"android":"levelo://app?vid=91394148-4e56-43e0-b240-a3b1e1a757d5","ios":"levelo://app?vid=91394148-4e56-43e0-b240-a3b1e1a757d5"},"vehicle_type_id":"4","last_reported":1717852057,"current_range_meters":28400,"station_id":"ce4bgqh2rcd13ifvqc5g","pricing_plan_id":"cebpf4jnsgd1na2vs0mg"},{"bike_id":"88b35d2c-3c42-44c7-a7c6-7c33885673c1","system_id":"levelo_inurba_marseille","lat":43.303046,"lon":5.368981,"is_reserved":false,"is_disabled":false,"rental_uris":{"android":"levelo://app?vid=88b35d2c-3c42-44c7-a7c6-7c33885673c1","ios":"levelo://app?vid=88b35d2c-3c42-44c7-a7c6-7c33885673c1"},"vehicle_type_id":"4","last_reported":1717852057,"current_range_meters":8800,"station_id":"ce4bgqh2rcd13ifvqc5g","pricing_plan_id":"cebpf4jnsgd1na2vs0mg"},{"bike_id":"79900a69-e240-421b-a0c4-4895303415a6","system_id":"levelo_inurba_marseille","lat":43.303046,"lon":5.368981,"is_reserved":false,"is_disabled":false,"rental_uris":{"android":"levelo://app?vid=79900a69-e240-421b-a0c4-4895303415a6","ios":"levelo://app?vid=79900a69-e240-421b-a0c4-4895303415a6"},"vehicle_type_id":"4","last_reported":1717852057,"current_range_meters":22000,"station_id":"ce4bgqh2rcd13ifvqc5g","pricing_plan_id":"cebpf4jnsgd1na2vs0mg"},{"bike_id":"da8df4c4-092c-4404-9f5d-aebf3172109b","system_id":"levelo_inurba_marseille","lat":43.30304,"lon":5.368987,"is_reserved":false,"is_disabled":false,"rental_uris":{"android":"levelo://app?vid=da8df4c4-092c-4404-9f5d-aebf3172109b","ios":"levelo://app?vid=da8df4c4-092c-4404-9f5d-aebf3172109b"},"vehicle_type_id":"4","last_reported":1717852057,"current_range_meters":13600,"station_id":"ce4bgqh2rcd13ifvqc5g","pricing_plan_id":"cebpf4jnsgd1na2vs0mg"},{"bike_id":"85ae6975-3714-4c18-8a96-60afa584f25d","system_id":"levelo_inurba_marseille","lat":43.30304,"lon":5.368987,"is_reserved":false,"is_disabled":false,"rental_uris":{"android":"levelo://app?vid=85ae6975-3714-4c18-8a96-60afa584f25d","ios":"levelo://app?vid=85ae6975-3714-4c18-8a96-60afa584f25d"},"vehicle_type_id":"4","last_reported":1717852057,"current_range_meters":12400,"station_id":"ce4bgqh2rcd13ifvqc5g","pricing_plan_id":"cebpf4jnsgd1na2vs0mg"},{"bike_id":"d7f94dd7-0f00-4d56-b030-2946ef481bea","system_id":"levelo_inurba_marseille","lat":43.30304,"lon":5.368987,"is_reserved":false,"is_disabled":false,"rental_uris":{"android":"levelo://app?vid=d7f94dd7-0f00-4d56-b030-2946ef481bea","ios":"levelo://app?vid=d7f94dd7-0f00-4d56-b030-2946ef481bea"},"vehicle_type_id":"4","last_reported":1717852057,"current_range_meters":20000,"station_id":"ce4bgqh2rcd13ifvqc5g","pricing_plan_id":"cebpf4jnsgd1na2vs0mg"},{"bike_id":"cf6fa13d-0249-4240-9084-3cea98fa47fc","system_id":"levelo_inurba_marseille","lat":43.303046,"lon":5.368981,"is_reserved":false,"is_disabled":false,"rental_uris":{"android":"levelo://app?vid=cf6fa13d-0249-4240-9084-3cea98fa47fc","ios":"levelo://app?vid=cf6fa13d-0249-4240-9084-3cea98fa47fc"},"vehicle_type_id":"4","last_reported":1717852057,"current_range_meters":31200,"station_id":"ce4bgqh2rcd13ifvqc5g","pricing_plan_id":"cebpf4jnsgd1na2vs0mg"},{"bike_id":"9f6752ee-ea2f-4d75-921c-0ca55403fdc3","system_id":"levelo_inurba_marseille","lat":43.303046,"lon":5.368981,"is_reserved":false,"is_disabled":false,"rental_uris":{"android":"levelo://app?vid=9f6752ee-ea2f-4d75-921c-0ca55403fdc3","ios":"levelo://app?vid=9f6752ee-ea2f-4d75-921c-0ca55403fdc3"},"vehicle_type_id":"4","last_reported":1717852057,"current_range_meters":16000,"station_id":"ce4bgqh2rcd13ifvqc5g","pricing_plan_id":"cebpf4jnsgd1na2vs0mg"},{"bike_id":"d2b73ffa-f0d5-44d4-a7c6-b08795e2fbfd","system_id":"levelo_inurba_marseille","lat":43.31535,"lon":5.38037,"is_reserved":false,"is_disabled":false,"rental_uris":{"android":"levelo://app?vid=d2b73ffa-f0d5-44d4-a7c6-b08795e2fbfd","ios":"levelo://app?vid=d2b73ffa-f0d5-44d4-a7c6-b08795e2fbfd"},"vehicle_type_id":"4","last_reported":1717852057,"current_range_meters":8000,"station_id":"ce4bhsp2rcd13ifvqi50","pricing_plan_id":"cebpf4jnsgd1na2vs0mg"},{"bike_id":"53295028-3f58-42d0-84d8-686ed73f20d0","system_id":"levelo_inurba_marseille","lat":43.31865,"lon":5.37825,"is_reserved":false,"is_disabled":false,"rental_uris":{"android":"levelo://app?vid=53295028-3f58-42d0-84d8-686ed73f20d0","ios":"levelo://app?vid=53295028-3f58-42d0-84d8-686ed73f20d0"},"vehicle_type_id":"4","last_reported":1717852057,"current_range_meters":8400,"station_id":"","pricing_plan_id":"cebpf4jnsgd1na2vs0mg"},{"bike_id":"a471985e-2e4c-45ea-9198-5e387a5c9cc7","system_id":"levelo_inurba_marseille","lat":43.301939,"lon":5.366286,"is_reserved":false,"is_disabled":false,"rental_uris":{"android":"levelo://app?vid=a471985e-2e4c-45ea-9198-5e387a5c9cc7","ios":"levelo://app?vid=a471985e-2e4c-45ea-9198-5e387a5c9cc7"},"vehicle_type_id":"4","last_reported":1717852057,"current_range_meters":14400,"station_id":"ce4bgrh2rcd13ifvqc8g","pricing_plan_id":"cebpf4jnsgd1na2vs0mg"},{"bike_id":"482b3bec-3103-41ef-b28e-4a0e634fc82f","system_id":"levelo_inurba_marseille","lat":43.302784,"lon":5.377158,"is_reserved":false,"is_disabled":false,"rental_uris":{"android":"levelo://app?vid=482b3bec-3103-41ef-b28e-4a0e634fc82f","ios":"levelo://app?vid=482b3bec-3103-41ef-b28e-4a0e634fc82f"},"vehicle_type_id":"4","last_reported":1717852057,"current_range_meters":6800,"station_id":"ce4bguh2rcd13ifvqcj0","pricing_plan_id":"cebpf4jnsgd1na2vs0mg"},{"bike_id":"79a6dd8c-076b-48e7-a686-38b1b9d9a2f3","system_id":"levelo_inurba_marseille","lat":43.304606,"lon":5.379026,"is_reserved":false,"is_disabled":false,"rental_uris":{"android":"levelo://app?vid=79a6dd8c-076b-48e7-a686-38b1b9d9a2f3","ios":"levelo://app?vid=79a6dd8c-076b-48e7-a686-38b1b9d9a2f3"},"vehicle_type_id":"4","last_reported":1717852057,"current_range_meters":27200,"station_id":"ce4bgup2rcd13ifvqcn0","pricing_plan_id":"cebpf4jnsgd1na2vs0mg"},{"bike_id":"f187b580-6b30-4aae-a7ea-b14d1499f9c7","system_id":"levelo_inurba_marseille","lat":43.304606,"lon":5.379026,"is_reserved":false,"is_disabled":false,"rental_uris":{"android":"levelo://app?vid=f187b580-6b30-4aae-a7ea-b14d1499f9c7","ios":"levelo://app?vid=f187b580-6b30-4aae-a7ea-b14d1499f9c7"},"vehicle_type_id":"4","last_reported":1717852057,"current_range_meters":6800,"station_id":"ce4bgup2rcd13ifvqcn0","pricing_plan_id":"cebpf4jnsgd1na2vs0mg"},{"bike_id":"70f929be-a26d-4043-9d75-1dec1b67e40a","system_id":"levelo_inurba_marseille","lat":43.304798,"lon":5.379117,"is_reserved":false,"is_disabled":false,"rental_uris":{"android":"levelo://app?vid=70f929be-a26d-4043-9d75-1dec1b67e40a","ios":"levelo://app?vid=70f929be-a26d-4043-9d75-1dec1b67e40a"},"vehicle_type_id":"4","last_reported":1717852057,"current_range_meters":13200,"station_id":"ce4bgup2rcd13ifvqcn0","pricing_plan_id":"cebpf4jnsgd1na2vs0mg"},{"bike_id":"b6bde669-e2fb-4dd9-9d8a-096473d48e1c","system_id":"levelo_inurba_marseille","lat":43.304606,"lon":5.379026,"is_reserved":false,"is_disabled":false,"rental_uris":{"android":"levelo://app?vid=b6bde669-e2fb-4dd9-9d8a-096473d48e1c","ios":"levelo://app?vid=b6bde669-e2fb-4dd9-9d8a-096473d48e1c"},"vehicle_type_id":"4","last_reported":1717852057,"current_range_meters":24400,"station_id":"ce4bgup2rcd13ifvqcn0","pricing_plan_id":"cebpf4jnsgd1na2vs0mg"},{"bike_id":"b080d269-b8b2-45df-bc6b-fbc2d4ac6b0e","system_id":"levelo_inurba_marseille","lat":43.304606,"lon":5.379026,"is_reserved":false,"is_disabled":false,"rental_uris":{"android":"levelo://app?vid=b080d269-b8b2-45df-bc6b-fbc2d4ac6b0e","ios":"levelo://app?vid=b080d269-b8b2-45df-bc6b-fbc2d4ac6b0e"},"vehicle_type_id":"4","last_reported":1717852057,"current_range_meters":31200,"station_id":"ce4bgup2rcd13ifvqcn0","pricing_plan_id":"cebpf4jnsgd1na2vs0mg"},{"bike_id":"e9c4d1bd-dbbd-4a32-bc64-62d561cd2fdb","system_id":"levelo_inurba_marseille","lat":43.304606,"lon":5.379026,"is_reserved":false,"is_disabled":false,"rental_uris":{"android":"levelo://app?vid=e9c4d1bd-dbbd-4a32-bc64-62d561cd2fdb","ios":"levelo://app?vid=e9c4d1bd-dbbd-4a32-bc64-62d561cd2fdb"},"vehicle_type_id":"4","last_reported":1717852057,"current_range_meters":20800,"station_id":"ce4bgup2rcd13ifvqcn0","pricing_plan_id":"cebpf4jnsgd1na2vs0mg"},{"bike_id":"74a93db6-44c8-46d0-95d7-bbd3be57e734","system_id":"levelo_inurba_marseille","lat":43.304606,"lon":5.379026,"is_reserved":false,"is_disabled":false,"rental_uris":{"android":"levelo://app?vid=74a93db6-44c8-46d0-95d7-bbd3be57e734","ios":"levelo://app?vid=74a93db6-44c8-46d0-95d7-bbd3be57e734"},"vehicle_type_id":"4","last_reported":1717852057,"current_range_meters":27600,"station_id":"ce4bgup2rcd13ifvqcn0","pricing_plan_id":"cebpf4jnsgd1na2vs0mg"},{"bike_id":"eade6d33-46c4-47e5-a92e-203305cc8214","system_id":"levelo_inurba_marseille","lat":43.304606,"lon":5.379026,"is_reserved":false,"is_disabled":false,"rental_uris":{"android":"levelo://app?vid=eade6d33-46c4-47e5-a92e-203305cc8214","ios":"levelo://app?vid=eade6d33-46c4-47e5-a92e-203305cc8214"},"vehicle_type_id":"4","last_reported":1717852057,"current_range_meters":30000,"station_id":"ce4bgup2rcd13ifvqcn0","pricing_plan_id":"cebpf4jnsgd1na2vs0mg"},{"bike_id":"0e1cec30-0477-4d4e-b05c-cfda4387c933","system_id":"levelo_inurba_marseille","lat":43.304606,"lon":5.379026,"is_reserved":false,"is_disabled":false,"rental_uris":{"android":"levelo://app?vid=0e1cec30-0477-4d4e-b05c-cfda4387c933","ios":"levelo://app?vid=0e1cec30-0477-4d4e-b05c-cfda4387c933"},"vehicle_type_id":"4","last_reported":1717852057,"current_range_meters":19200,"station_id":"ce4bgup2rcd13ifvqcn0","pricing_plan_id":"cebpf4jnsgd1na2vs0mg"},{"bike_id":"89b11b6a-4615-4aff-a67a-777a5fd99849","system_id":"levelo_inurba_marseille","lat":43.304606,"lon":5.379026,"is_reserved":false,"is_disabled":false,"rental_uris":{"android":"levelo://app?vid=89b11b6a-4615-4aff-a67a-777a5fd99849","ios":"levelo://app?vid=89b11b6a-4615-4aff-a67a-777a5fd99849"},"vehicle_type_id":"4","last_reported":1717852057,"current_range_meters":31200,"station_id":"ce4bgup2rcd13ifvqcn0","pricing_plan_id":"cebpf4jnsgd1na2vs0mg"},{"bike_id":"8035708b-a0e1-4fc7-9af3-272848f1f68e","system_id":"levelo_inurba_marseille","lat":43.304606,"lon":5.379026,"is_reserved":false,"is_disabled":false,"rental_uris":{"android":"levelo://app?vid=8035708b-a0e1-4fc7-9af3-272848f1f68e","ios":"levelo://app?vid=8035708b-a0e1-4fc7-9af3-272848f1f68e"},"vehicle_type_id":"4","last_reported":1717852057,"current_range_meters":31200,"station_id":"ce4bgup2rcd13ifvqcn0","pricing_plan_id":"cebpf4jnsgd1na2vs0mg"},{"bike_id":"b31b0a52-483b-476c-834c-045e3428111e","system_id":"levelo_inurba_marseille","lat":43.304606,"lon":5.379026,"is_reserved":false,"is_disabled":false,"rental_uris":{"android":"levelo://app?vid=b31b0a52-483b-476c-834c-045e3428111e","ios":"levelo://app?vid=b31b0a52-483b-476c-834c-045e3428111e"},"vehicle_type_id":"4","last_reported":1717852057,"current_range_meters":12000,"station_id":"ce4bgup2rcd13ifvqcn0","pricing_plan_id":"cebpf4jnsgd1na2vs0mg"},{"bike_id":"de98f92d-0a2f-4b7f-b8e5-5d3c45efb9b1","system_id":"levelo_inurba_marseille","lat":43.304606,"lon":5.379026,"is_reserved":false,"is_disabled":false,"rental_uris":{"android":"levelo://app?vid=de98f92d-0a2f-4b7f-b8e5-5d3c45efb9b1","ios":"levelo://app?vid=de98f92d-0a2f-4b7f-b8e5-5d3c45efb9b1"},"vehicle_type_id":"4","last_reported":1717852057,"current_range_meters":8400,"station_id":"ce4bgup2rcd13ifvqcn0","pricing_plan_id":"cebpf4jnsgd1na2vs0mg"},{"bike_id":"b634e24b-98c6-45a6-aa42-669ff68b4cc5","system_id":"levelo_inurba_marseille","lat":43.304606,"lon":5.379026,"is_reserved":false,"is_disabled":false,"rental_uris":{"android":"levelo://app?vid=b634e24b-98c6-45a6-aa42-669ff68b4cc5","ios":"levelo://app?vid=b634e24b-98c6-45a6-aa42-669ff68b4cc5"},"vehicle_type_id":"4","last_reported":1717852057,"current_range_meters":31200,"station_id":"ce4bgup2rcd13ifvqcn0","pricing_plan_id":"cebpf4jnsgd1na2vs0mg"},{"bike_id":"8e3f4339-7c3a-4ff0-8e10-ae8904793e13","system_id":"levelo_inurba_marseille","lat":43.304606,"lon":5.379026,"is_reserved":false,"is_disabled":false,"rental_uris":{"android":"levelo://app?vid=8e3f4339-7c3a-4ff0-8e10-ae8904793e13","ios":"levelo://app?vid=8e3f4339-7c3a-4ff0-8e10-ae8904793e13"},"vehicle_type_id":"4","last_reported":1717852057,"current_range_meters":31200,"station_id":"ce4bgup2rcd13ifvqcn0","pricing_plan_id":"cebpf4jnsgd1na2vs0mg"},{"bike_id":"5bf24d5f-0449-4220-8658-512d1dcb959d","system_id":"levelo_inurba_marseille","lat":43.30458,"lon":5.37901,"is_reserved":false,"is_disabled":false,"rental_uris":{"android":"levelo://app?vid=5bf24d5f-0449-4220-8658-512d1dcb959d","ios":"levelo://app?vid=5bf24d5f-0449-4220-8658-512d1dcb959d"},"vehicle_type_id":"4","last_reported":1717852057,"current_range_meters":4000,"station_id":"ce4bgup2rcd13ifvqcn0","pricing_plan_id":"cebpf4jnsgd1na2vs0mg"},{"bike_id":"2fe1511e-c42b-4db5-8c99-5f582d1ab9f6","system_id":"levelo_inurba_marseille","lat":43.304606,"lon":5.379026,"is_reserved":false,"is_disabled":false,"rental_uris":{"android":"levelo://app?vid=2fe1511e-c42b-4db5-8c99-5f582d1ab9f6","ios":"levelo://app?vid=2fe1511e-c42b-4db5-8c99-5f582d1ab9f6"},"vehicle_type_id":"4","last_reported":1717852057,"current_range_meters":1600,"station_id":"ce4bgup2rcd13ifvqcn0","pricing_plan_id":"cebpf4jnsgd1na2vs0mg"},{"bike_id":"6630eb6f-0c51-4b49-ae3e-0751d1f8be5c","system_id":"levelo_inurba_marseille","lat":43.304606,"lon":5.379026,"is_reserved":false,"is_disabled":false,"rental_uris":{"android":"levelo://app?vid=6630eb6f-0c51-4b49-ae3e-0751d1f8be5c","ios":"levelo://app?vid=6630eb6f-0c51-4b49-ae3e-0751d1f8be5c"},"vehicle_type_id":"4","last_reported":1717852057,"current_range_meters":31200,"station_id":"ce4bgup2rcd13ifvqcn0","pricing_plan_id":"cebpf4jnsgd1na2vs0mg"},{"bike_id":"9633f505-a36a-4f94-994c-0656a19c7353","system_id":"levelo_inurba_marseille","lat":43.304606,"lon":5.379026,"is_reserved":false,"is_disabled":false,"rental_uris":{"android":"levelo://app?vid=9633f505-a36a-4f94-994c-0656a19c7353","ios":"levelo://app?vid=9633f505-a36a-4f94-994c-0656a19c7353"},"vehicle_type_id":"4","last_reported":1717852057,"current_range_meters":9600,"station_id":"ce4bgup2rcd13ifvqcn0","pricing_plan_id":"cebpf4jnsgd1na2vs0mg"},{"bike_id":"7535daae-ab8a-48f4-b3fe-c3ddd480362c","system_id":"levelo_inurba_marseille","lat":43.304621,"lon":5.379116,"is_reserved":false,"is_disabled":false,"rental_uris":{"android":"levelo://app?vid=7535daae-ab8a-48f4-b3fe-c3ddd480362c","ios":"levelo://app?vid=7535daae-ab8a-48f4-b3fe-c3ddd480362c"},"vehicle_type_id":"4","last_reported":1717852057,"current_range_meters":14800,"station_id":"ce4bgup2rcd13ifvqcn0","pricing_plan_id":"cebpf4jnsgd1na2vs0mg"},{"bike_id":"41d1e68f-2289-4ebe-bc83-d65d75c4a2aa","system_id":"levelo_inurba_marseille","lat":43.30464,"lon":5.37916,"is_reserved":false,"is_disabled":false,"rental_uris":{"android":"levelo://app?vid=41d1e68f-2289-4ebe-bc83-d65d75c4a2aa","ios":"levelo://app?vid=41d1e68f-2289-4ebe-bc83-d65d75c4a2aa"},"vehicle_type_id":"4","last_reported":1717852057,"current_range_meters":23200,"station_id":"ce4bgup2rcd13ifvqcn0","pricing_plan_id":"cebpf4jnsgd1na2vs0mg"},{"bike_id":"a6aa8749-c445-4d83-8c55-b7204ecb858d","system_id":"levelo_inurba_marseille","lat":43.304615,"lon":5.379129,"is_reserved":false,"is_disabled":false,"rental_uris":{"android":"levelo://app?vid=a6aa8749-c445-4d83-8c55-b7204ecb858d","ios":"levelo://app?vid=a6aa8749-c445-4d83-8c55-b7204ecb858d"},"vehicle_type_id":"4","last_reported":1717852057,"current_range_meters":17200,"station_id":"ce4bgup2rcd13ifvqcn0","pricing_plan_id":"cebpf4jnsgd1na2vs0mg"},{"bike_id":"4d0cdf5b-11b8-4130-b5ed-ec04afae3c37","system_id":"levelo_inurba_marseille","lat":43.304606,"lon":5.379026,"is_reserved":false,"is_disabled":false,"rental_uris":{"android":"levelo://app?vid=4d0cdf5b-11b8-4130-b5ed-ec04afae3c37","ios":"levelo://app?vid=4d0cdf5b-11b8-4130-b5ed-ec04afae3c37"},"vehicle_type_id":"4","last_reported":1717852057,"current_range_meters":25200,"station_id":"ce4bgup2rcd13ifvqcn0","pricing_plan_id":"cebpf4jnsgd1na2vs0mg"},{"bike_id":"91920456-48e7-4bf2-af5c-0d985dd998e9","system_id":"levelo_inurba_marseille","lat":43.304606,"lon":5.379026,"is_reserved":false,"is_disabled":false,"rental_uris":{"android":"levelo://app?vid=91920456-48e7-4bf2-af5c-0d985dd998e9","ios":"levelo://app?vid=91920456-48e7-4bf2-af5c-0d985dd998e9"},"vehicle_type_id":"4","last_reported":1717852057,"current_range_meters":28400,"station_id":"ce4bgup2rcd13ifvqcn0","pricing_plan_id":"cebpf4jnsgd1na2vs0mg"},{"bike_id":"ab759854-a9ca-49dc-b492-a8ac306df9a5","system_id":"levelo_inurba_marseille","lat":43.324771,"lon":5.36557,"is_reserved":false,"is_disabled":false,"rental_uris":{"android":"levelo://app?vid=ab759854-a9ca-49dc-b492-a8ac306df9a5","ios":"levelo://app?vid=ab759854-a9ca-49dc-b492-a8ac306df9a5"},"vehicle_type_id":"4","last_reported":1717852057,"current_range_meters":26400,"station_id":"ce4bhs12rcd13ifvqhvg","pricing_plan_id":"cebpf4jnsgd1na2vs0mg"},{"bike_id":"b61b678f-d38d-4e66-99f6-bce35b7ceb9f","system_id":"levelo_inurba_marseille","lat":43.31078,"lon":5.383473,"is_reserved":false,"is_disabled":false,"rental_uris":{"android":"levelo://app?vid=b61b678f-d38d-4e66-99f6-bce35b7ceb9f","ios":"levelo://app?vid=b61b678f-d38d-4e66-99f6-bce35b7ceb9f"},"vehicle_type_id":"4","last_reported":1717852057,"current_range_meters":0,"station_id":"ce4bgv92rcd13ifvqcr0","pricing_plan_id":"cebpf4jnsgd1na2vs0mg"},{"bike_id":"0a092ea0-45e4-4c32-8026-d308205b7240","system_id":"levelo_inurba_marseille","lat":43.31079,"lon":5.38355,"is_reserved":false,"is_disabled":false,"rental_uris":{"android":"levelo://app?vid=0a092ea0-45e4-4c32-8026-d308205b7240","ios":"levelo://app?vid=0a092ea0-45e4-4c32-8026-d308205b7240"},"vehicle_type_id":"4","last_reported":1717852057,"current_range_meters":26000,"station_id":"ce4bgv92rcd13ifvqcr0","pricing_plan_id":"cebpf4jnsgd1na2vs0mg"},{"bike_id":"aeef4646-fd8d-405b-ad76-3e5ad2fe4e5e","system_id":"levelo_inurba_marseille","lat":43.310804,"lon":5.38359,"is_reserved":false,"is_disabled":false,"rental_uris":{"android":"levelo://app?vid=aeef4646-fd8d-405b-ad76-3e5ad2fe4e5e","ios":"levelo://app?vid=aeef4646-fd8d-405b-ad76-3e5ad2fe4e5e"},"vehicle_type_id":"4","last_reported":1717852057,"current_range_meters":11600,"station_id":"ce4bgv92rcd13ifvqcr0","pricing_plan_id":"cebpf4jnsgd1na2vs0mg"},{"bike_id":"abe323fd-991a-4380-acfd-1bf72c19ec64","system_id":"levelo_inurba_marseille","lat":43.302784,"lon":5.377158,"is_reserved":false,"is_disabled":false,"rental_uris":{"android":"levelo://app?vid=abe323fd-991a-4380-acfd-1bf72c19ec64","ios":"levelo://app?vid=abe323fd-991a-4380-acfd-1bf72c19ec64"},"vehicle_type_id":"4","last_reported":1717852057,"current_range_meters":31200,"station_id":"ce4bguh2rcd13ifvqcj0","pricing_plan_id":"cebpf4jnsgd1na2vs0mg"},{"bike_id":"98b72aa7-50ef-4428-b22c-709b7465d487","system_id":"levelo_inurba_marseille","lat":43.302784,"lon":5.377158,"is_reserved":false,"is_disabled":false,"rental_uris":{"android":"levelo://app?vid=98b72aa7-50ef-4428-b22c-709b7465d487","ios":"levelo://app?vid=98b72aa7-50ef-4428-b22c-709b7465d487"},"vehicle_type_id":"4","last_reported":1717852057,"current_range_meters":31200,"station_id":"ce4bguh2rcd13ifvqcj0","pricing_plan_id":"cebpf4jnsgd1na2vs0mg"},{"bike_id":"2f9aff66-8de7-47aa-a290-baa89c5b3afc","system_id":"levelo_inurba_marseille","lat":43.302784,"lon":5.377158,"is_reserved":false,"is_disabled":false,"rental_uris":{"android":"levelo://app?vid=2f9aff66-8de7-47aa-a290-baa89c5b3afc","ios":"levelo://app?vid=2f9aff66-8de7-47aa-a290-baa89c5b3afc"},"vehicle_type_id":"4","last_reported":1717852057,"current_range_meters":27200,"station_id":"ce4bguh2rcd13ifvqcj0","pricing_plan_id":"cebpf4jnsgd1na2vs0mg"},{"bike_id":"0a0d3276-85e6-4ba3-91ea-5dc908728cfe","system_id":"levelo_inurba_marseille","lat":43.30143,"lon":5.37413,"is_reserved":false,"is_disabled":false,"rental_uris":{"android":"levelo://app?vid=0a0d3276-85e6-4ba3-91ea-5dc908728cfe","ios":"levelo://app?vid=0a0d3276-85e6-4ba3-91ea-5dc908728cfe"},"vehicle_type_id":"4","last_reported":1717852057,"current_range_meters":19600,"station_id":"ce4bgs92rcd13ifvqcc0","pricing_plan_id":"cebpf4jnsgd1na2vs0mg"},{"bike_id":"8fa0c394-6743-48bb-a6ce-7e0ce8d27b6c","system_id":"levelo_inurba_marseille","lat":43.302784,"lon":5.377158,"is_reserved":false,"is_disabled":false,"rental_uris":{"android":"levelo://app?vid=8fa0c394-6743-48bb-a6ce-7e0ce8d27b6c","ios":"levelo://app?vid=8fa0c394-6743-48bb-a6ce-7e0ce8d27b6c"},"vehicle_type_id":"4","last_reported":1717852057,"current_range_meters":26800,"station_id":"ce4bguh2rcd13ifvqcj0","pricing_plan_id":"cebpf4jnsgd1na2vs0mg"},{"bike_id":"c1bfb853-ba5e-4be2-a7bf-d510c1e4b3ae","system_id":"levelo_inurba_marseille","lat":43.30143,"lon":5.37413,"is_reserved":false,"is_disabled":false,"rental_uris":{"android":"levelo://app?vid=c1bfb853-ba5e-4be2-a7bf-d510c1e4b3ae","ios":"levelo://app?vid=c1bfb853-ba5e-4be2-a7bf-d510c1e4b3ae"},"vehicle_type_id":"4","last_reported":1717852057,"current_range_meters":29200,"station_id":"ce4bgs92rcd13ifvqcc0","pricing_plan_id":"cebpf4jnsgd1na2vs0mg"},{"bike_id":"2d89a6c1-9f21-463c-bd76-e000bb4a8d39","system_id":"levelo_inurba_marseille","lat":43.301498,"lon":5.374328,"is_reserved":false,"is_disabled":false,"rental_uris":{"android":"levelo://app?vid=2d89a6c1-9f21-463c-bd76-e000bb4a8d39","ios":"levelo://app?vid=2d89a6c1-9f21-463c-bd76-e000bb4a8d39"},"vehicle_type_id":"4","last_reported":1717852057,"current_range_meters":23600,"station_id":"","pricing_plan_id":"cebpf4jnsgd1na2vs0mg"},{"bike_id":"3c1eea35-279d-480d-9a01-6a93f61b2795","system_id":"levelo_inurba_marseille","lat":43.319935,"lon":5.381699,"is_reserved":false,"is_disabled":false,"rental_uris":{"android":"levelo://app?vid=3c1eea35-279d-480d-9a01-6a93f61b2795","ios":"levelo://app?vid=3c1eea35-279d-480d-9a01-6a93f61b2795"},"vehicle_type_id":"4","last_reported":1717852057,"current_range_meters":26400,"station_id":"ce4bhr12rcd13ifvqhpg","pricing_plan_id":"cebpf4jnsgd1na2vs0mg"},{"bike_id":"08c7eeac-beb0-4921-ab9f-4e5e847d49f0","system_id":"levelo_inurba_marseille","lat":43.319935,"lon":5.381699,"is_reserved":false,"is_disabled":false,"rental_uris":{"android":"levelo://app?vid=08c7eeac-beb0-4921-ab9f-4e5e847d49f0","ios":"levelo://app?vid=08c7eeac-beb0-4921-ab9f-4e5e847d49f0"},"vehicle_type_id":"4","last_reported":1717852057,"current_range_meters":27200,"station_id":"ce4bhr12rcd13ifvqhpg","pricing_plan_id":"cebpf4jnsgd1na2vs0mg"},{"bike_id":"699c1570-326e-425c-bcac-af01ccfc73c6","system_id":"levelo_inurba_marseille","lat":43.32,"lon":5.38149,"is_reserved":false,"is_disabled":false,"rental_uris":{"android":"levelo://app?vid=699c1570-326e-425c-bcac-af01ccfc73c6","ios":"levelo://app?vid=699c1570-326e-425c-bcac-af01ccfc73c6"},"vehicle_type_id":"4","last_reported":1717852057,"current_range_meters":4800,"station_id":"ce4bhr12rcd13ifvqhpg","pricing_plan_id":"cebpf4jnsgd1na2vs0mg"},{"bike_id":"f69db902-c2cd-4398-a38d-a173f000b1e5","system_id":"levelo_inurba_marseille","lat":43.319935,"lon":5.381699,"is_reserved":false,"is_disabled":false,"rental_uris":{"android":"levelo://app?vid=f69db902-c2cd-4398-a38d-a173f000b1e5","ios":"levelo://app?vid=f69db902-c2cd-4398-a38d-a173f000b1e5"},"vehicle_type_id":"4","last_reported":1717852057,"current_range_meters":14000,"station_id":"ce4bhr12rcd13ifvqhpg","pricing_plan_id":"cebpf4jnsgd1na2vs0mg"},{"bike_id":"32e06f05-2fd2-4d30-bc71-9b91ed7ee733","system_id":"levelo_inurba_marseille","lat":43.319935,"lon":5.381699,"is_reserved":false,"is_disabled":false,"rental_uris":{"android":"levelo://app?vid=32e06f05-2fd2-4d30-bc71-9b91ed7ee733","ios":"levelo://app?vid=32e06f05-2fd2-4d30-bc71-9b91ed7ee733"},"vehicle_type_id":"4","last_reported":1717852057,"current_range_meters":4800,"station_id":"ce4bhr12rcd13ifvqhpg","pricing_plan_id":"cebpf4jnsgd1na2vs0mg"},{"bike_id":"c719d72a-2dac-4b8d-91b3-c214730abab9","system_id":"levelo_inurba_marseille","lat":43.319935,"lon":5.381699,"is_reserved":false,"is_disabled":false,"rental_uris":{"android":"levelo://app?vid=c719d72a-2dac-4b8d-91b3-c214730abab9","ios":"levelo://app?vid=c719d72a-2dac-4b8d-91b3-c214730abab9"},"vehicle_type_id":"4","last_reported":1717852057,"current_range_meters":12800,"station_id":"ce4bhr12rcd13ifvqhpg","pricing_plan_id":"cebpf4jnsgd1na2vs0mg"},{"bike_id":"557e5bd0-70ab-433e-a3cd-a6f8a1a868bb","system_id":"levelo_inurba_marseille","lat":43.313571,"lon":5.384829,"is_reserved":false,"is_disabled":false,"rental_uris":{"android":"levelo://app?vid=557e5bd0-70ab-433e-a3cd-a6f8a1a868bb","ios":"levelo://app?vid=557e5bd0-70ab-433e-a3cd-a6f8a1a868bb"},"vehicle_type_id":"4","last_reported":1717852057,"current_range_meters":22800,"station_id":"ce4bgt92rcd13ifvqcf0","pricing_plan_id":"cebpf4jnsgd1na2vs0mg"},{"bike_id":"f669908d-093c-4c73-b266-149fda6ac4a4","system_id":"levelo_inurba_marseille","lat":43.313571,"lon":5.384829,"is_reserved":false,"is_disabled":false,"rental_uris":{"android":"levelo://app?vid=f669908d-093c-4c73-b266-149fda6ac4a4","ios":"levelo://app?vid=f669908d-093c-4c73-b266-149fda6ac4a4"},"vehicle_type_id":"4","last_reported":1717852057,"current_range_meters":28800,"station_id":"ce4bgt92rcd13ifvqcf0","pricing_plan_id":"cebpf4jnsgd1na2vs0mg"},{"bike_id":"83a5e73e-b0d0-4b41-b9a3-9231006f1413","system_id":"levelo_inurba_marseille","lat":43.2999,"lon":5.37178,"is_reserved":false,"is_disabled":false,"rental_uris":{"android":"levelo://app?vid=83a5e73e-b0d0-4b41-b9a3-9231006f1413","ios":"levelo://app?vid=83a5e73e-b0d0-4b41-b9a3-9231006f1413"},"vehicle_type_id":"4","last_reported":1717852057,"current_range_meters":0,"station_id":"ce4bgr92rcd13ifvqc7g","pricing_plan_id":"cebpf4jnsgd1na2vs0mg"},{"bike_id":"e966c5fc-532a-4aea-90f0-f8096967bbbb","system_id":"levelo_inurba_marseille","lat":43.29985,"lon":5.37182,"is_reserved":false,"is_disabled":false,"rental_uris":{"android":"levelo://app?vid=e966c5fc-532a-4aea-90f0-f8096967bbbb","ios":"levelo://app?vid=e966c5fc-532a-4aea-90f0-f8096967bbbb"},"vehicle_type_id":"4","last_reported":1717852057,"current_range_meters":0,"station_id":"ce4bgr92rcd13ifvqc7g","pricing_plan_id":"cebpf4jnsgd1na2vs0mg"},{"bike_id":"f6d6af67-1c0c-464e-af06-55512261840c","system_id":"levelo_inurba_marseille","lat":43.313361,"lon":5.385571,"is_reserved":false,"is_disabled":false,"rental_uris":{"android":"levelo://app?vid=f6d6af67-1c0c-464e-af06-55512261840c","ios":"levelo://app?vid=f6d6af67-1c0c-464e-af06-55512261840c"},"vehicle_type_id":"4","last_reported":1717852057,"current_range_meters":10400,"station_id":"ce4bgt92rcd13ifvqcf0","pricing_plan_id":"cebpf4jnsgd1na2vs0mg"},{"bike_id":"3c9fe599-11ef-4904-ac9f-222bc966a693","system_id":"levelo_inurba_marseille","lat":43.305425,"lon":5.383724,"is_reserved":false,"is_disabled":false,"rental_uris":{"android":"levelo://app?vid=3c9fe599-11ef-4904-ac9f-222bc966a693","ios":"levelo://app?vid=3c9fe599-11ef-4904-ac9f-222bc966a693"},"vehicle_type_id":"4","last_reported":1717852057,"current_range_meters":4400,"station_id":"ce4bgg92rcd13ifvqb30","pricing_plan_id":"cebpf4jnsgd1na2vs0mg"},{"bike_id":"53292ff7-b626-4089-96b7-3943e9a48282","system_id":"levelo_inurba_marseille","lat":43.29853,"lon":5.36291,"is_reserved":false,"is_disabled":false,"rental_uris":{"android":"levelo://app?vid=53292ff7-b626-4089-96b7-3943e9a48282","ios":"levelo://app?vid=53292ff7-b626-4089-96b7-3943e9a48282"},"vehicle_type_id":"4","last_reported":1717852057,"current_range_meters":18400,"station_id":"ce4bgpp2rcd13ifvqc3g","pricing_plan_id":"cebpf4jnsgd1na2vs0mg"},{"bike_id":"c1ec3fb2-c8ad-4e10-82d1-9cf65a004438","system_id":"levelo_inurba_marseille","lat":43.298433,"lon":5.362774,"is_reserved":false,"is_disabled":false,"rental_uris":{"android":"levelo://app?vid=c1ec3fb2-c8ad-4e10-82d1-9cf65a004438","ios":"levelo://app?vid=c1ec3fb2-c8ad-4e10-82d1-9cf65a004438"},"vehicle_type_id":"4","last_reported":1717852057,"current_range_meters":10400,"station_id":"ce4bgpp2rcd13ifvqc3g","pricing_plan_id":"cebpf4jnsgd1na2vs0mg"},{"bike_id":"13b7eb43-ffc9-4191-99f2-b10530193261","system_id":"levelo_inurba_marseille","lat":43.29853,"lon":5.36287,"is_reserved":false,"is_disabled":false,"rental_uris":{"android":"levelo://app?vid=13b7eb43-ffc9-4191-99f2-b10530193261","ios":"levelo://app?vid=13b7eb43-ffc9-4191-99f2-b10530193261"},"vehicle_type_id":"4","last_reported":1717852057,"current_range_meters":23200,"station_id":"ce4bgpp2rcd13ifvqc3g","pricing_plan_id":"cebpf4jnsgd1na2vs0mg"},{"bike_id":"f8474e5b-b190-47fb-b1d6-c7affa783bc9","system_id":"levelo_inurba_marseille","lat":43.29852,"lon":5.36288,"is_reserved":false,"is_disabled":false,"rental_uris":{"android":"levelo://app?vid=f8474e5b-b190-47fb-b1d6-c7affa783bc9","ios":"levelo://app?vid=f8474e5b-b190-47fb-b1d6-c7affa783bc9"},"vehicle_type_id":"4","last_reported":1717852057,"current_range_meters":11600,"station_id":"ce4bgpp2rcd13ifvqc3g","pricing_plan_id":"cebpf4jnsgd1na2vs0mg"},{"bike_id":"4ebf6313-980c-48c9-91ad-35d4b30b0500","system_id":"levelo_inurba_marseille","lat":43.298433,"lon":5.362774,"is_reserved":false,"is_disabled":false,"rental_uris":{"android":"levelo://app?vid=4ebf6313-980c-48c9-91ad-35d4b30b0500","ios":"levelo://app?vid=4ebf6313-980c-48c9-91ad-35d4b30b0500"},"vehicle_type_id":"4","last_reported":1717852057,"current_range_meters":26000,"station_id":"ce4bgpp2rcd13ifvqc3g","pricing_plan_id":"cebpf4jnsgd1na2vs0mg"},{"bike_id":"ff641500-a828-4009-9ba4-6229054c20e5","system_id":"levelo_inurba_marseille","lat":43.298433,"lon":5.362774,"is_reserved":false,"is_disabled":false,"rental_uris":{"android":"levelo://app?vid=ff641500-a828-4009-9ba4-6229054c20e5","ios":"levelo://app?vid=ff641500-a828-4009-9ba4-6229054c20e5"},"vehicle_type_id":"4","last_reported":1717852057,"current_range_meters":30000,"station_id":"ce4bgpp2rcd13ifvqc3g","pricing_plan_id":"cebpf4jnsgd1na2vs0mg"},{"bike_id":"bdb0021d-6505-4133-8907-c00c1ad02b3b","system_id":"levelo_inurba_marseille","lat":43.298433,"lon":5.362774,"is_reserved":false,"is_disabled":false,"rental_uris":{"android":"levelo://app?vid=bdb0021d-6505-4133-8907-c00c1ad02b3b","ios":"levelo://app?vid=bdb0021d-6505-4133-8907-c00c1ad02b3b"},"vehicle_type_id":"4","last_reported":1717852057,"current_range_meters":31200,"station_id":"ce4bgpp2rcd13ifvqc3g","pricing_plan_id":"cebpf4jnsgd1na2vs0mg"},{"bike_id":"07783201-4705-41d0-b464-604e8f063e32","system_id":"levelo_inurba_marseille","lat":43.298433,"lon":5.362774,"is_reserved":false,"is_disabled":false,"rental_uris":{"android":"levelo://app?vid=07783201-4705-41d0-b464-604e8f063e32","ios":"levelo://app?vid=07783201-4705-41d0-b464-604e8f063e32"},"vehicle_type_id":"4","last_reported":1717852057,"current_range_meters":31200,"station_id":"ce4bgpp2rcd13ifvqc3g","pricing_plan_id":"cebpf4jnsgd1na2vs0mg"},{"bike_id":"798c925d-47d6-44e9-8de6-fb2aa0480582","system_id":"levelo_inurba_marseille","lat":43.298433,"lon":5.362774,"is_reserved":false,"is_disabled":false,"rental_uris":{"android":"levelo://app?vid=798c925d-47d6-44e9-8de6-fb2aa0480582","ios":"levelo://app?vid=798c925d-47d6-44e9-8de6-fb2aa0480582"},"vehicle_type_id":"4","last_reported":1717852057,"current_range_meters":31200,"station_id":"ce4bgpp2rcd13ifvqc3g","pricing_plan_id":"cebpf4jnsgd1na2vs0mg"},{"bike_id":"cd7f563e-1e32-4348-94ba-11184d203f02","system_id":"levelo_inurba_marseille","lat":43.298433,"lon":5.362774,"is_reserved":false,"is_disabled":false,"rental_uris":{"android":"levelo://app?vid=cd7f563e-1e32-4348-94ba-11184d203f02","ios":"levelo://app?vid=cd7f563e-1e32-4348-94ba-11184d203f02"},"vehicle_type_id":"4","last_reported":1717852057,"current_range_meters":11200,"station_id":"ce4bgpp2rcd13ifvqc3g","pricing_plan_id":"cebpf4jnsgd1na2vs0mg"},{"bike_id":"d18d1cd4-1eaa-48a7-b9d9-44a0c26a00e2","system_id":"levelo_inurba_marseille","lat":43.298433,"lon":5.362774,"is_reserved":false,"is_disabled":false,"rental_uris":{"android":"levelo://app?vid=d18d1cd4-1eaa-48a7-b9d9-44a0c26a00e2","ios":"levelo://app?vid=d18d1cd4-1eaa-48a7-b9d9-44a0c26a00e2"},"vehicle_type_id":"4","last_reported":1717852057,"current_range_meters":20400,"station_id":"ce4bgpp2rcd13ifvqc3g","pricing_plan_id":"cebpf4jnsgd1na2vs0mg"},{"bike_id":"94a90f3d-860f-477b-8c78-70252b42d08d","system_id":"levelo_inurba_marseille","lat":43.299243,"lon":5.37481,"is_reserved":false,"is_disabled":false,"rental_uris":{"android":"levelo://app?vid=94a90f3d-860f-477b-8c78-70252b42d08d","ios":"levelo://app?vid=94a90f3d-860f-477b-8c78-70252b42d08d"},"vehicle_type_id":"4","last_reported":1717852057,"current_range_meters":0,"station_id":"ce4bgjh2rcd13ifvqbg0","pricing_plan_id":"cebpf4jnsgd1na2vs0mg"},{"bike_id":"3a78096d-d5a6-4c07-adf0-47187d96bc33","system_id":"levelo_inurba_marseille","lat":43.311722,"lon":5.387247,"is_reserved":false,"is_disabled":false,"rental_uris":{"android":"levelo://app?vid=3a78096d-d5a6-4c07-adf0-47187d96bc33","ios":"levelo://app?vid=3a78096d-d5a6-4c07-adf0-47187d96bc33"},"vehicle_type_id":"4","last_reported":1717852057,"current_range_meters":14400,"station_id":"ce4bgv12rcd13ifvqcp0","pricing_plan_id":"cebpf4jnsgd1na2vs0mg"},{"bike_id":"8310cd58-fe37-46f2-b754-95a44588fa6f","system_id":"levelo_inurba_marseille","lat":43.311722,"lon":5.387247,"is_reserved":false,"is_disabled":false,"rental_uris":{"android":"levelo://app?vid=8310cd58-fe37-46f2-b754-95a44588fa6f","ios":"levelo://app?vid=8310cd58-fe37-46f2-b754-95a44588fa6f"},"vehicle_type_id":"4","last_reported":1717852057,"current_range_meters":8000,"station_id":"ce4bgv12rcd13ifvqcp0","pricing_plan_id":"cebpf4jnsgd1na2vs0mg"},{"bike_id":"3f96b5b4-f71b-4d4a-83ea-5e1f02649ce7","system_id":"levelo_inurba_marseille","lat":43.311722,"lon":5.387247,"is_reserved":false,"is_disabled":false,"rental_uris":{"android":"levelo://app?vid=3f96b5b4-f71b-4d4a-83ea-5e1f02649ce7","ios":"levelo://app?vid=3f96b5b4-f71b-4d4a-83ea-5e1f02649ce7"},"vehicle_type_id":"4","last_reported":1717852057,"current_range_meters":16000,"station_id":"ce4bgv12rcd13ifvqcp0","pricing_plan_id":"cebpf4jnsgd1na2vs0mg"},{"bike_id":"3dd8066a-7278-40ae-90e4-d7da32cf3dfb","system_id":"levelo_inurba_marseille","lat":43.311722,"lon":5.387247,"is_reserved":false,"is_disabled":false,"rental_uris":{"android":"levelo://app?vid=3dd8066a-7278-40ae-90e4-d7da32cf3dfb","ios":"levelo://app?vid=3dd8066a-7278-40ae-90e4-d7da32cf3dfb"},"vehicle_type_id":"4","last_reported":1717852057,"current_range_meters":1600,"station_id":"ce4bgv12rcd13ifvqcp0","pricing_plan_id":"cebpf4jnsgd1na2vs0mg"},{"bike_id":"ca2944c7-8cca-4f83-b4b2-48f37bd45f55","system_id":"levelo_inurba_marseille","lat":43.311722,"lon":5.387247,"is_reserved":false,"is_disabled":false,"rental_uris":{"android":"levelo://app?vid=ca2944c7-8cca-4f83-b4b2-48f37bd45f55","ios":"levelo://app?vid=ca2944c7-8cca-4f83-b4b2-48f37bd45f55"},"vehicle_type_id":"4","last_reported":1717852057,"current_range_meters":7600,"station_id":"ce4bgv12rcd13ifvqcp0","pricing_plan_id":"cebpf4jnsgd1na2vs0mg"},{"bike_id":"4c04b16f-4c66-45a9-ae39-7272500068e4","system_id":"levelo_inurba_marseille","lat":43.311722,"lon":5.387247,"is_reserved":false,"is_disabled":false,"rental_uris":{"android":"levelo://app?vid=4c04b16f-4c66-45a9-ae39-7272500068e4","ios":"levelo://app?vid=4c04b16f-4c66-45a9-ae39-7272500068e4"},"vehicle_type_id":"4","last_reported":1717852057,"current_range_meters":22800,"station_id":"ce4bgv12rcd13ifvqcp0","pricing_plan_id":"cebpf4jnsgd1na2vs0mg"},{"bike_id":"1686af6e-1d2e-43de-a602-539e461fc3a4","system_id":"levelo_inurba_marseille","lat":43.311722,"lon":5.387247,"is_reserved":false,"is_disabled":false,"rental_uris":{"android":"levelo://app?vid=1686af6e-1d2e-43de-a602-539e461fc3a4","ios":"levelo://app?vid=1686af6e-1d2e-43de-a602-539e461fc3a4"},"vehicle_type_id":"4","last_reported":1717852057,"current_range_meters":26800,"station_id":"ce4bgv12rcd13ifvqcp0","pricing_plan_id":"cebpf4jnsgd1na2vs0mg"},{"bike_id":"1a3529f5-6e32-4579-8018-001d51650464","system_id":"levelo_inurba_marseille","lat":43.311722,"lon":5.387247,"is_reserved":false,"is_disabled":false,"rental_uris":{"android":"levelo://app?vid=1a3529f5-6e32-4579-8018-001d51650464","ios":"levelo://app?vid=1a3529f5-6e32-4579-8018-001d51650464"},"vehicle_type_id":"4","last_reported":1717852057,"current_range_meters":17200,"station_id":"ce4bgv12rcd13ifvqcp0","pricing_plan_id":"cebpf4jnsgd1na2vs0mg"},{"bike_id":"7dfdb917-d721-4ab0-b825-050c09694fce","system_id":"levelo_inurba_marseille","lat":43.30207,"lon":5.38154,"is_reserved":false,"is_disabled":false,"rental_uris":{"android":"levelo://app?vid=7dfdb917-d721-4ab0-b825-050c09694fce","ios":"levelo://app?vid=7dfdb917-d721-4ab0-b825-050c09694fce"},"vehicle_type_id":"4","last_reported":1717852057,"current_range_meters":20400,"station_id":"","pricing_plan_id":"cebpf4jnsgd1na2vs0mg"},{"bike_id":"272dbd81-8dba-422c-8387-41818f5d5ab2","system_id":"levelo_inurba_marseille","lat":43.297794,"lon":5.370888,"is_reserved":false,"is_disabled":false,"rental_uris":{"android":"levelo://app?vid=272dbd81-8dba-422c-8387-41818f5d5ab2","ios":"levelo://app?vid=272dbd81-8dba-422c-8387-41818f5d5ab2"},"vehicle_type_id":"4","last_reported":1717852057,"current_range_meters":24400,"station_id":"ce4bgop2rcd13ifvqc1g","pricing_plan_id":"cebpf4jnsgd1na2vs0mg"},{"bike_id":"2db291ce-c7f9-435e-9a2e-09e96cf9368a","system_id":"levelo_inurba_marseille","lat":43.297774,"lon":5.370875,"is_reserved":false,"is_disabled":false,"rental_uris":{"android":"levelo://app?vid=2db291ce-c7f9-435e-9a2e-09e96cf9368a","ios":"levelo://app?vid=2db291ce-c7f9-435e-9a2e-09e96cf9368a"},"vehicle_type_id":"4","last_reported":1717852057,"current_range_meters":2400,"station_id":"ce4bgop2rcd13ifvqc1g","pricing_plan_id":"cebpf4jnsgd1na2vs0mg"},{"bike_id":"b3999aff-636e-42d3-a03d-757c34b18a12","system_id":"levelo_inurba_marseille","lat":43.322872,"lon":5.382756,"is_reserved":false,"is_disabled":false,"rental_uris":{"android":"levelo://app?vid=b3999aff-636e-42d3-a03d-757c34b18a12","ios":"levelo://app?vid=b3999aff-636e-42d3-a03d-757c34b18a12"},"vehicle_type_id":"4","last_reported":1717852057,"current_range_meters":2000,"station_id":"ce4bhr12rcd13ifvqhqg","pricing_plan_id":"cebpf4jnsgd1na2vs0mg"},{"bike_id":"7c1eea94-8a4b-4b48-af8d-39e26073e81f","system_id":"levelo_inurba_marseille","lat":43.297163,"lon":5.365866,"is_reserved":false,"is_disabled":false,"rental_uris":{"android":"levelo://app?vid=7c1eea94-8a4b-4b48-af8d-39e26073e81f","ios":"levelo://app?vid=7c1eea94-8a4b-4b48-af8d-39e26073e81f"},"vehicle_type_id":"4","last_reported":1717852057,"current_range_meters":28400,"station_id":"ce4bgn12rcd13ifvqbt0","pricing_plan_id":"cebpf4jnsgd1na2vs0mg"},{"bike_id":"df9b05b3-698d-459b-b9ae-1c7c3c9ffd56","system_id":"levelo_inurba_marseille","lat":43.297163,"lon":5.365866,"is_reserved":false,"is_disabled":false,"rental_uris":{"android":"levelo://app?vid=df9b05b3-698d-459b-b9ae-1c7c3c9ffd56","ios":"levelo://app?vid=df9b05b3-698d-459b-b9ae-1c7c3c9ffd56"},"vehicle_type_id":"4","last_reported":1717852057,"current_range_meters":24000,"station_id":"ce4bgn12rcd13ifvqbt0","pricing_plan_id":"cebpf4jnsgd1na2vs0mg"},{"bike_id":"c71b20cd-b9dd-4f67-9c68-f0db5ed03636","system_id":"levelo_inurba_marseille","lat":43.30009,"lon":5.38009,"is_reserved":false,"is_disabled":false,"rental_uris":{"android":"levelo://app?vid=c71b20cd-b9dd-4f67-9c68-f0db5ed03636","ios":"levelo://app?vid=c71b20cd-b9dd-4f67-9c68-f0db5ed03636"},"vehicle_type_id":"4","last_reported":1717852057,"current_range_meters":21600,"station_id":"","pricing_plan_id":"cebpf4jnsgd1na2vs0mg"},{"bike_id":"5b9f7ad7-ba0f-4457-bb15-50d6524d8416","system_id":"levelo_inurba_marseille","lat":43.29585,"lon":5.36735,"is_reserved":false,"is_disabled":false,"rental_uris":{"android":"levelo://app?vid=5b9f7ad7-ba0f-4457-bb15-50d6524d8416","ios":"levelo://app?vid=5b9f7ad7-ba0f-4457-bb15-50d6524d8416"},"vehicle_type_id":"4","last_reported":1717852057,"current_range_meters":13600,"station_id":"ce4bgph2rcd13ifvqc2g","pricing_plan_id":"cebpf4jnsgd1na2vs0mg"},{"bike_id":"0630808b-b6d9-4138-8f3d-e0a6375eb3c1","system_id":"levelo_inurba_marseille","lat":43.32147,"lon":5.38685,"is_reserved":false,"is_disabled":false,"rental_uris":{"android":"levelo://app?vid=0630808b-b6d9-4138-8f3d-e0a6375eb3c1","ios":"levelo://app?vid=0630808b-b6d9-4138-8f3d-e0a6375eb3c1"},"vehicle_type_id":"4","last_reported":1717852057,"current_range_meters":2000,"station_id":"","pricing_plan_id":"cebpf4jnsgd1na2vs0mg"},{"bike_id":"ad54b560-8b3b-41c0-b4f6-581214dfa983","system_id":"levelo_inurba_marseille","lat":43.295801,"lon":5.36743,"is_reserved":false,"is_disabled":false,"rental_uris":{"android":"levelo://app?vid=ad54b560-8b3b-41c0-b4f6-581214dfa983","ios":"levelo://app?vid=ad54b560-8b3b-41c0-b4f6-581214dfa983"},"vehicle_type_id":"4","last_reported":1717852057,"current_range_meters":29600,"station_id":"ce4bgph2rcd13ifvqc2g","pricing_plan_id":"cebpf4jnsgd1na2vs0mg"},{"bike_id":"521422ff-e177-46bd-b42c-ccb1447097f2","system_id":"levelo_inurba_marseille","lat":43.29579,"lon":5.36739,"is_reserved":false,"is_disabled":false,"rental_uris":{"android":"levelo://app?vid=521422ff-e177-46bd-b42c-ccb1447097f2","ios":"levelo://app?vid=521422ff-e177-46bd-b42c-ccb1447097f2"},"vehicle_type_id":"4","last_reported":1717852057,"current_range_meters":31200,"station_id":"ce4bgph2rcd13ifvqc2g","pricing_plan_id":"cebpf4jnsgd1na2vs0mg"},{"bike_id":"f90c4619-4bd3-4b27-ac4d-a57879367d35","system_id":"levelo_inurba_marseille","lat":43.296921,"lon":5.376579,"is_reserved":false,"is_disabled":false,"rental_uris":{"android":"levelo://app?vid=f90c4619-4bd3-4b27-ac4d-a57879367d35","ios":"levelo://app?vid=f90c4619-4bd3-4b27-ac4d-a57879367d35"},"vehicle_type_id":"4","last_reported":1717852057,"current_range_meters":19200,"station_id":"ce4bgkh2rcd13ifvqbl0","pricing_plan_id":"cebpf4jnsgd1na2vs0mg"},{"bike_id":"b8e357b2-0e8d-41eb-a51d-e6bf9effd50f","system_id":"levelo_inurba_marseille","lat":43.296921,"lon":5.376579,"is_reserved":false,"is_disabled":false,"rental_uris":{"android":"levelo://app?vid=b8e357b2-0e8d-41eb-a51d-e6bf9effd50f","ios":"levelo://app?vid=b8e357b2-0e8d-41eb-a51d-e6bf9effd50f"},"vehicle_type_id":"4","last_reported":1717852057,"current_range_meters":21600,"station_id":"ce4bgkh2rcd13ifvqbl0","pricing_plan_id":"cebpf4jnsgd1na2vs0mg"},{"bike_id":"949f7fc6-1fa5-4806-9566-41ab1550f515","system_id":"levelo_inurba_marseille","lat":43.29721,"lon":5.37693,"is_reserved":false,"is_disabled":false,"rental_uris":{"android":"levelo://app?vid=949f7fc6-1fa5-4806-9566-41ab1550f515","ios":"levelo://app?vid=949f7fc6-1fa5-4806-9566-41ab1550f515"},"vehicle_type_id":"4","last_reported":1717852057,"current_range_meters":26400,"station_id":"ce4bgkh2rcd13ifvqbl0","pricing_plan_id":"cebpf4jnsgd1na2vs0mg"},{"bike_id":"04266c54-7093-487b-9245-bd1aea494d1b","system_id":"levelo_inurba_marseille","lat":43.299028,"lon":5.381509,"is_reserved":false,"is_disabled":false,"rental_uris":{"android":"levelo://app?vid=04266c54-7093-487b-9245-bd1aea494d1b","ios":"levelo://app?vid=04266c54-7093-487b-9245-bd1aea494d1b"},"vehicle_type_id":"4","last_reported":1717852057,"current_range_meters":5600,"station_id":"ce4bgj12rcd13ifvqbc0","pricing_plan_id":"cebpf4jnsgd1na2vs0mg"},{"bike_id":"b5a0a17d-3ef1-47d5-815c-20a8b622be65","system_id":"levelo_inurba_marseille","lat":43.299028,"lon":5.381509,"is_reserved":false,"is_disabled":false,"rental_uris":{"android":"levelo://app?vid=b5a0a17d-3ef1-47d5-815c-20a8b622be65","ios":"levelo://app?vid=b5a0a17d-3ef1-47d5-815c-20a8b622be65"},"vehicle_type_id":"4","last_reported":1717852057,"current_range_meters":26000,"station_id":"ce4bgj12rcd13ifvqbc0","pricing_plan_id":"cebpf4jnsgd1na2vs0mg"},{"bike_id":"9749f082-eefd-4875-9a74-27aae9e08fbb","system_id":"levelo_inurba_marseille","lat":43.299028,"lon":5.381509,"is_reserved":false,"is_disabled":false,"rental_uris":{"android":"levelo://app?vid=9749f082-eefd-4875-9a74-27aae9e08fbb","ios":"levelo://app?vid=9749f082-eefd-4875-9a74-27aae9e08fbb"},"vehicle_type_id":"4","last_reported":1717852057,"current_range_meters":26400,"station_id":"ce4bgj12rcd13ifvqbc0","pricing_plan_id":"cebpf4jnsgd1na2vs0mg"},{"bike_id":"95765036-e537-4d35-a83a-9b42b1112090","system_id":"levelo_inurba_marseille","lat":43.299028,"lon":5.381509,"is_reserved":false,"is_disabled":false,"rental_uris":{"android":"levelo://app?vid=95765036-e537-4d35-a83a-9b42b1112090","ios":"levelo://app?vid=95765036-e537-4d35-a83a-9b42b1112090"},"vehicle_type_id":"4","last_reported":1717852057,"current_range_meters":22000,"station_id":"ce4bgj12rcd13ifvqbc0","pricing_plan_id":"cebpf4jnsgd1na2vs0mg"},{"bike_id":"a5a08300-bbbf-4fa1-a3f6-2a2da0694982","system_id":"levelo_inurba_marseille","lat":43.299028,"lon":5.381509,"is_reserved":false,"is_disabled":false,"rental_uris":{"android":"levelo://app?vid=a5a08300-bbbf-4fa1-a3f6-2a2da0694982","ios":"levelo://app?vid=a5a08300-bbbf-4fa1-a3f6-2a2da0694982"},"vehicle_type_id":"4","last_reported":1717852057,"current_range_meters":3200,"station_id":"ce4bgj12rcd13ifvqbc0","pricing_plan_id":"cebpf4jnsgd1na2vs0mg"},{"bike_id":"e6c35f1f-aa68-4e88-9c43-87ab6375c731","system_id":"levelo_inurba_marseille","lat":43.309589,"lon":5.390258,"is_reserved":false,"is_disabled":false,"rental_uris":{"android":"levelo://app?vid=e6c35f1f-aa68-4e88-9c43-87ab6375c731","ios":"levelo://app?vid=e6c35f1f-aa68-4e88-9c43-87ab6375c731"},"vehicle_type_id":"4","last_reported":1717852057,"current_range_meters":14000,"station_id":"ce4bgup2rcd13ifvqco0","pricing_plan_id":"cebpf4jnsgd1na2vs0mg"},{"bike_id":"391c1553-0ec5-4346-8adb-c4904261908f","system_id":"levelo_inurba_marseille","lat":43.309589,"lon":5.390258,"is_reserved":false,"is_disabled":false,"rental_uris":{"android":"levelo://app?vid=391c1553-0ec5-4346-8adb-c4904261908f","ios":"levelo://app?vid=391c1553-0ec5-4346-8adb-c4904261908f"},"vehicle_type_id":"4","last_reported":1717852057,"current_range_meters":24400,"station_id":"ce4bgup2rcd13ifvqco0","pricing_plan_id":"cebpf4jnsgd1na2vs0mg"},{"bike_id":"1ce12c6a-7ab8-4b0d-bf22-31b69c2b1547","system_id":"levelo_inurba_marseille","lat":43.299028,"lon":5.381509,"is_reserved":false,"is_disabled":false,"rental_uris":{"android":"levelo://app?vid=1ce12c6a-7ab8-4b0d-bf22-31b69c2b1547","ios":"levelo://app?vid=1ce12c6a-7ab8-4b0d-bf22-31b69c2b1547"},"vehicle_type_id":"4","last_reported":1717852057,"current_range_meters":31200,"station_id":"ce4bgj12rcd13ifvqbc0","pricing_plan_id":"cebpf4jnsgd1na2vs0mg"},{"bike_id":"8dae672b-0ef6-4bc6-9e87-59ed9f42d50e","system_id":"levelo_inurba_marseille","lat":43.309589,"lon":5.390258,"is_reserved":false,"is_disabled":false,"rental_uris":{"android":"levelo://app?vid=8dae672b-0ef6-4bc6-9e87-59ed9f42d50e","ios":"levelo://app?vid=8dae672b-0ef6-4bc6-9e87-59ed9f42d50e"},"vehicle_type_id":"4","last_reported":1717852057,"current_range_meters":1200,"station_id":"ce4bgup2rcd13ifvqco0","pricing_plan_id":"cebpf4jnsgd1na2vs0mg"},{"bike_id":"f45f43d7-c7cc-4e31-b801-38024d3b6c1b","system_id":"levelo_inurba_marseille","lat":43.309589,"lon":5.390258,"is_reserved":false,"is_disabled":false,"rental_uris":{"android":"levelo://app?vid=f45f43d7-c7cc-4e31-b801-38024d3b6c1b","ios":"levelo://app?vid=f45f43d7-c7cc-4e31-b801-38024d3b6c1b"},"vehicle_type_id":"4","last_reported":1717852057,"current_range_meters":26000,"station_id":"ce4bgup2rcd13ifvqco0","pricing_plan_id":"cebpf4jnsgd1na2vs0mg"},{"bike_id":"961b2188-fae7-4c99-9895-f2336f24c4c3","system_id":"levelo_inurba_marseille","lat":43.299028,"lon":5.381509,"is_reserved":false,"is_disabled":false,"rental_uris":{"android":"levelo://app?vid=961b2188-fae7-4c99-9895-f2336f24c4c3","ios":"levelo://app?vid=961b2188-fae7-4c99-9895-f2336f24c4c3"},"vehicle_type_id":"4","last_reported":1717852057,"current_range_meters":31200,"station_id":"ce4bgj12rcd13ifvqbc0","pricing_plan_id":"cebpf4jnsgd1na2vs0mg"},{"bike_id":"b0d476b5-ad72-42b8-83ca-bb61f4c26e68","system_id":"levelo_inurba_marseille","lat":43.309589,"lon":5.390258,"is_reserved":false,"is_disabled":false,"rental_uris":{"android":"levelo://app?vid=b0d476b5-ad72-42b8-83ca-bb61f4c26e68","ios":"levelo://app?vid=b0d476b5-ad72-42b8-83ca-bb61f4c26e68"},"vehicle_type_id":"4","last_reported":1717852057,"current_range_meters":29600,"station_id":"ce4bgup2rcd13ifvqco0","pricing_plan_id":"cebpf4jnsgd1na2vs0mg"},{"bike_id":"8e34d2ad-3e8a-49d2-9523-48fc56be191d","system_id":"levelo_inurba_marseille","lat":43.299028,"lon":5.381509,"is_reserved":false,"is_disabled":false,"rental_uris":{"android":"levelo://app?vid=8e34d2ad-3e8a-49d2-9523-48fc56be191d","ios":"levelo://app?vid=8e34d2ad-3e8a-49d2-9523-48fc56be191d"},"vehicle_type_id":"4","last_reported":1717852057,"current_range_meters":31200,"station_id":"ce4bgj12rcd13ifvqbc0","pricing_plan_id":"cebpf4jnsgd1na2vs0mg"},{"bike_id":"8fef5875-f579-4b31-9d7c-4c75b5a0f692","system_id":"levelo_inurba_marseille","lat":43.298037,"lon":5.381066,"is_reserved":false,"is_disabled":false,"rental_uris":{"android":"levelo://app?vid=8fef5875-f579-4b31-9d7c-4c75b5a0f692","ios":"levelo://app?vid=8fef5875-f579-4b31-9d7c-4c75b5a0f692"},"vehicle_type_id":"4","last_reported":1717852057,"current_range_meters":0,"station_id":"ce4bgip2rcd13ifvqbb0","pricing_plan_id":"cebpf4jnsgd1na2vs0mg"},{"bike_id":"4c918a08-fe16-4212-8620-9fcb85bc3dc2","system_id":"levelo_inurba_marseille","lat":43.298037,"lon":5.381066,"is_reserved":false,"is_disabled":false,"rental_uris":{"android":"levelo://app?vid=4c918a08-fe16-4212-8620-9fcb85bc3dc2","ios":"levelo://app?vid=4c918a08-fe16-4212-8620-9fcb85bc3dc2"},"vehicle_type_id":"4","last_reported":1717852057,"current_range_meters":0,"station_id":"ce4bgip2rcd13ifvqbb0","pricing_plan_id":"cebpf4jnsgd1na2vs0mg"},{"bike_id":"3e42c30c-cbc5-4188-a542-2be4c1cce00a","system_id":"levelo_inurba_marseille","lat":43.304278,"lon":5.388868,"is_reserved":false,"is_disabled":false,"rental_uris":{"android":"levelo://app?vid=3e42c30c-cbc5-4188-a542-2be4c1cce00a","ios":"levelo://app?vid=3e42c30c-cbc5-4188-a542-2be4c1cce00a"},"vehicle_type_id":"4","last_reported":1717852057,"current_range_meters":22000,"station_id":"ce4bgk12rcd13ifvqbi0","pricing_plan_id":"cebpf4jnsgd1na2vs0mg"},{"bike_id":"d4718a31-db7f-4490-a5e6-9e3eecdbb34f","system_id":"levelo_inurba_marseille","lat":43.296277,"lon":5.377108,"is_reserved":false,"is_disabled":false,"rental_uris":{"android":"levelo://app?vid=d4718a31-db7f-4490-a5e6-9e3eecdbb34f","ios":"levelo://app?vid=d4718a31-db7f-4490-a5e6-9e3eecdbb34f"},"vehicle_type_id":"4","last_reported":1717852057,"current_range_meters":6800,"station_id":"ce4bgi92rcd13ifvqb90","pricing_plan_id":"cebpf4jnsgd1na2vs0mg"},{"bike_id":"a0884e72-c801-4f49-865c-5d00603f14d7","system_id":"levelo_inurba_marseille","lat":43.296263,"lon":5.377094,"is_reserved":false,"is_disabled":false,"rental_uris":{"android":"levelo://app?vid=a0884e72-c801-4f49-865c-5d00603f14d7","ios":"levelo://app?vid=a0884e72-c801-4f49-865c-5d00603f14d7"},"vehicle_type_id":"4","last_reported":1717852057,"current_range_meters":11600,"station_id":"ce4bgi92rcd13ifvqb90","pricing_plan_id":"cebpf4jnsgd1na2vs0mg"},{"bike_id":"c05e183d-f417-4c0a-aae9-9c92569c1a8e","system_id":"levelo_inurba_marseille","lat":43.295279,"lon":5.375048,"is_reserved":false,"is_disabled":false,"rental_uris":{"android":"levelo://app?vid=c05e183d-f417-4c0a-aae9-9c92569c1a8e","ios":"levelo://app?vid=c05e183d-f417-4c0a-aae9-9c92569c1a8e"},"vehicle_type_id":"4","last_reported":1717852057,"current_range_meters":18800,"station_id":"ce4bgkp2rcd13ifvqbmg","pricing_plan_id":"cebpf4jnsgd1na2vs0mg"},{"bike_id":"b8764faa-886c-46a8-9977-b71301ace04a","system_id":"levelo_inurba_marseille","lat":43.299672,"lon":5.386118,"is_reserved":false,"is_disabled":false,"rental_uris":{"android":"levelo://app?vid=b8764faa-886c-46a8-9977-b71301ace04a","ios":"levelo://app?vid=b8764faa-886c-46a8-9977-b71301ace04a"},"vehicle_type_id":"4","last_reported":1717852057,"current_range_meters":18800,"station_id":"","pricing_plan_id":"cebpf4jnsgd1na2vs0mg"},{"bike_id":"741ede4b-524f-4804-b507-2f3f52f8eff1","system_id":"levelo_inurba_marseille","lat":43.29602,"lon":5.381084,"is_reserved":false,"is_disabled":false,"rental_uris":{"android":"levelo://app?vid=741ede4b-524f-4804-b507-2f3f52f8eff1","ios":"levelo://app?vid=741ede4b-524f-4804-b507-2f3f52f8eff1"},"vehicle_type_id":"4","last_reported":1717852057,"current_range_meters":0,"station_id":"ce4bgl12rcd13ifvqbo0","pricing_plan_id":"cebpf4jnsgd1na2vs0mg"},{"bike_id":"58168571-989a-4fc4-b269-cdac21a11dfc","system_id":"levelo_inurba_marseille","lat":43.290779,"lon":5.371482,"is_reserved":false,"is_disabled":false,"rental_uris":{"android":"levelo://app?vid=58168571-989a-4fc4-b269-cdac21a11dfc","ios":"levelo://app?vid=58168571-989a-4fc4-b269-cdac21a11dfc"},"vehicle_type_id":"4","last_reported":1717852057,"current_range_meters":3200,"station_id":"ce4bh5p2rcd13ifvqe4g","pricing_plan_id":"cebpf4jnsgd1na2vs0mg"},{"bike_id":"cfd98225-26a3-4e3f-96fd-00e9d26fbc76","system_id":"levelo_inurba_marseille","lat":43.292749,"lon":5.368402,"is_reserved":false,"is_disabled":false,"rental_uris":{"android":"levelo://app?vid=cfd98225-26a3-4e3f-96fd-00e9d26fbc76","ios":"levelo://app?vid=cfd98225-26a3-4e3f-96fd-00e9d26fbc76"},"vehicle_type_id":"4","last_reported":1717852057,"current_range_meters":28800,"station_id":"ce4bhbp2rcd13ifvqesg","pricing_plan_id":"cebpf4jnsgd1na2vs0mg"},{"bike_id":"af0b102c-a526-4335-8e70-9849a9f289f9","system_id":"levelo_inurba_marseille","lat":43.292749,"lon":5.368402,"is_reserved":false,"is_disabled":false,"rental_uris":{"android":"levelo://app?vid=af0b102c-a526-4335-8e70-9849a9f289f9","ios":"levelo://app?vid=af0b102c-a526-4335-8e70-9849a9f289f9"},"vehicle_type_id":"4","last_reported":1717852057,"current_range_meters":27600,"station_id":"ce4bhbp2rcd13ifvqesg","pricing_plan_id":"cebpf4jnsgd1na2vs0mg"},{"bike_id":"c539881b-4719-4f3b-b03a-50cfd3742130","system_id":"levelo_inurba_marseille","lat":43.29275,"lon":5.36838,"is_reserved":false,"is_disabled":false,"rental_uris":{"android":"levelo://app?vid=c539881b-4719-4f3b-b03a-50cfd3742130","ios":"levelo://app?vid=c539881b-4719-4f3b-b03a-50cfd3742130"},"vehicle_type_id":"4","last_reported":1717852057,"current_range_meters":0,"station_id":"ce4bhbp2rcd13ifvqesg","pricing_plan_id":"cebpf4jnsgd1na2vs0mg"},{"bike_id":"b55f2a09-1e3f-4fa8-8c38-e5db42cba452","system_id":"levelo_inurba_marseille","lat":43.292749,"lon":5.368402,"is_reserved":false,"is_disabled":false,"rental_uris":{"android":"levelo://app?vid=b55f2a09-1e3f-4fa8-8c38-e5db42cba452","ios":"levelo://app?vid=b55f2a09-1e3f-4fa8-8c38-e5db42cba452"},"vehicle_type_id":"4","last_reported":1717852057,"current_range_meters":19200,"station_id":"ce4bhbp2rcd13ifvqesg","pricing_plan_id":"cebpf4jnsgd1na2vs0mg"},{"bike_id":"bf0abbcd-3e8d-4e3d-b274-0c2f2029af71","system_id":"levelo_inurba_marseille","lat":43.293009,"lon":5.374584,"is_reserved":false,"is_disabled":false,"rental_uris":{"android":"levelo://app?vid=bf0abbcd-3e8d-4e3d-b274-0c2f2029af71","ios":"levelo://app?vid=bf0abbcd-3e8d-4e3d-b274-0c2f2029af71"},"vehicle_type_id":"4","last_reported":1717852057,"current_range_meters":19200,"station_id":"ce4bgi12rcd13ifvqb70","pricing_plan_id":"cebpf4jnsgd1na2vs0mg"},{"bike_id":"0653caf2-ea0f-4ffa-8d89-14576e13174f","system_id":"levelo_inurba_marseille","lat":43.292311,"lon":5.360731,"is_reserved":false,"is_disabled":false,"rental_uris":{"android":"levelo://app?vid=0653caf2-ea0f-4ffa-8d89-14576e13174f","ios":"levelo://app?vid=0653caf2-ea0f-4ffa-8d89-14576e13174f"},"vehicle_type_id":"4","last_reported":1717852057,"current_range_meters":27200,"station_id":"ce4bhbh2rcd13ifvqeqg","pricing_plan_id":"cebpf4jnsgd1na2vs0mg"},{"bike_id":"343534ac-42bd-4872-9a9d-d63e73fd75e5","system_id":"levelo_inurba_marseille","lat":43.303002,"lon":5.392142,"is_reserved":false,"is_disabled":false,"rental_uris":{"android":"levelo://app?vid=343534ac-42bd-4872-9a9d-d63e73fd75e5","ios":"levelo://app?vid=343534ac-42bd-4872-9a9d-d63e73fd75e5"},"vehicle_type_id":"4","last_reported":1717852057,"current_range_meters":400,"station_id":"ce4bgkh2rcd13ifvqbk0","pricing_plan_id":"cebpf4jnsgd1na2vs0mg"},{"bike_id":"3eadc9a7-d984-4dfe-9347-02513fa14116","system_id":"levelo_inurba_marseille","lat":43.292311,"lon":5.360731,"is_reserved":false,"is_disabled":false,"rental_uris":{"android":"levelo://app?vid=3eadc9a7-d984-4dfe-9347-02513fa14116","ios":"levelo://app?vid=3eadc9a7-d984-4dfe-9347-02513fa14116"},"vehicle_type_id":"4","last_reported":1717852057,"current_range_meters":24400,"station_id":"ce4bhbh2rcd13ifvqeqg","pricing_plan_id":"cebpf4jnsgd1na2vs0mg"},{"bike_id":"2f9a5496-d0f3-4d91-99c9-6c387cf9b696","system_id":"levelo_inurba_marseille","lat":43.292311,"lon":5.360731,"is_reserved":false,"is_disabled":false,"rental_uris":{"android":"levelo://app?vid=2f9a5496-d0f3-4d91-99c9-6c387cf9b696","ios":"levelo://app?vid=2f9a5496-d0f3-4d91-99c9-6c387cf9b696"},"vehicle_type_id":"4","last_reported":1717852057,"current_range_meters":26000,"station_id":"ce4bhbh2rcd13ifvqeqg","pricing_plan_id":"cebpf4jnsgd1na2vs0mg"},{"bike_id":"7c0d355c-07c8-4edc-9ed7-9d9641bf505c","system_id":"levelo_inurba_marseille","lat":43.304606,"lon":5.379026,"is_reserved":false,"is_disabled":false,"rental_uris":{"android":"levelo://app?vid=7c0d355c-07c8-4edc-9ed7-9d9641bf505c","ios":"levelo://app?vid=7c0d355c-07c8-4edc-9ed7-9d9641bf505c"},"vehicle_type_id":"4","last_reported":1717852057,"current_range_meters":17200,"station_id":"ce4bgup2rcd13ifvqcn0","pricing_plan_id":"cebpf4jnsgd1na2vs0mg"},{"bike_id":"562f5a93-26f1-4ad9-96e0-e3f5067faf01","system_id":"levelo_inurba_marseille","lat":43.29209,"lon":5.36044,"is_reserved":false,"is_disabled":false,"rental_uris":{"android":"levelo://app?vid=562f5a93-26f1-4ad9-96e0-e3f5067faf01","ios":"levelo://app?vid=562f5a93-26f1-4ad9-96e0-e3f5067faf01"},"vehicle_type_id":"4","last_reported":1717852057,"current_range_meters":24800,"station_id":"ce4bhbh2rcd13ifvqeqg","pricing_plan_id":"cebpf4jnsgd1na2vs0mg"},{"bike_id":"6fc4add2-ec32-4c5f-9c6b-b3621272364f","system_id":"levelo_inurba_marseille","lat":43.291671,"lon":5.371575,"is_reserved":false,"is_disabled":false,"rental_uris":{"android":"levelo://app?vid=6fc4add2-ec32-4c5f-9c6b-b3621272364f","ios":"levelo://app?vid=6fc4add2-ec32-4c5f-9c6b-b3621272364f"},"vehicle_type_id":"4","last_reported":1717852057,"current_range_meters":20400,"station_id":"ce4bha92rcd13ifvqeh0","pricing_plan_id":"cebpf4jnsgd1na2vs0mg"},{"bike_id":"20c5193a-ad07-4be6-a502-c6d8a09d1571","system_id":"levelo_inurba_marseille","lat":43.291675,"lon":5.371583,"is_reserved":false,"is_disabled":false,"rental_uris":{"android":"levelo://app?vid=20c5193a-ad07-4be6-a502-c6d8a09d1571","ios":"levelo://app?vid=20c5193a-ad07-4be6-a502-c6d8a09d1571"},"vehicle_type_id":"4","last_reported":1717852057,"current_range_meters":3200,"station_id":"ce4bha92rcd13ifvqeh0","pricing_plan_id":"cebpf4jnsgd1na2vs0mg"},{"bike_id":"559a0633-48e0-437f-8c1c-03acff85009b","system_id":"levelo_inurba_marseille","lat":43.313291,"lon":5.396838,"is_reserved":false,"is_disabled":false,"rental_uris":{"android":"levelo://app?vid=559a0633-48e0-437f-8c1c-03acff85009b","ios":"levelo://app?vid=559a0633-48e0-437f-8c1c-03acff85009b"},"vehicle_type_id":"4","last_reported":1717852057,"current_range_meters":12400,"station_id":"ce4bgvp2rcd13ifvqcu0","pricing_plan_id":"cebpf4jnsgd1na2vs0mg"},{"bike_id":"a089322e-4c5e-47dc-86dc-2e39563b7d8a","system_id":"levelo_inurba_marseille","lat":43.309047,"lon":5.396551,"is_reserved":false,"is_disabled":false,"rental_uris":{"android":"levelo://app?vid=a089322e-4c5e-47dc-86dc-2e39563b7d8a","ios":"levelo://app?vid=a089322e-4c5e-47dc-86dc-2e39563b7d8a"},"vehicle_type_id":"4","last_reported":1717852057,"current_range_meters":9600,"station_id":"ce4bh012rcd13ifvqcv0","pricing_plan_id":"cebpf4jnsgd1na2vs0mg"},{"bike_id":"5332b78a-337d-4ae0-9466-e113fdc4f574","system_id":"levelo_inurba_marseille","lat":43.309401,"lon":5.396468,"is_reserved":false,"is_disabled":false,"rental_uris":{"android":"levelo://app?vid=5332b78a-337d-4ae0-9466-e113fdc4f574","ios":"levelo://app?vid=5332b78a-337d-4ae0-9466-e113fdc4f574"},"vehicle_type_id":"4","last_reported":1717852057,"current_range_meters":5200,"station_id":"ce4bh012rcd13ifvqcv0","pricing_plan_id":"cebpf4jnsgd1na2vs0mg"},{"bike_id":"d30513d2-03a0-4e77-99fb-1be2637e449f","system_id":"levelo_inurba_marseille","lat":43.292005,"lon":5.357875,"is_reserved":false,"is_disabled":false,"rental_uris":{"android":"levelo://app?vid=d30513d2-03a0-4e77-99fb-1be2637e449f","ios":"levelo://app?vid=d30513d2-03a0-4e77-99fb-1be2637e449f"},"vehicle_type_id":"4","last_reported":1717852057,"current_range_meters":27200,"station_id":"ce4bhb12rcd13ifvqel0","pricing_plan_id":"cebpf4jnsgd1na2vs0mg"},{"bike_id":"70ad81ee-6210-4f4b-8afb-d479c5cfafe4","system_id":"levelo_inurba_marseille","lat":43.29538,"lon":5.38539,"is_reserved":false,"is_disabled":false,"rental_uris":{"android":"levelo://app?vid=70ad81ee-6210-4f4b-8afb-d479c5cfafe4","ios":"levelo://app?vid=70ad81ee-6210-4f4b-8afb-d479c5cfafe4"},"vehicle_type_id":"4","last_reported":1717852057,"current_range_meters":6000,"station_id":"ce4bgih2rcd13ifvqba0","pricing_plan_id":"cebpf4jnsgd1na2vs0mg"},{"bike_id":"9d278028-6912-46a0-8661-972489026778","system_id":"levelo_inurba_marseille","lat":43.290779,"lon":5.371482,"is_reserved":false,"is_disabled":false,"rental_uris":{"android":"levelo://app?vid=9d278028-6912-46a0-8661-972489026778","ios":"levelo://app?vid=9d278028-6912-46a0-8661-972489026778"},"vehicle_type_id":"4","last_reported":1717852057,"current_range_meters":7200,"station_id":"ce4bh5p2rcd13ifvqe4g","pricing_plan_id":"cebpf4jnsgd1na2vs0mg"},{"bike_id":"18ee4dd0-7102-4e88-8c2b-ac314ed5ddbc","system_id":"levelo_inurba_marseille","lat":43.30215,"lon":5.39459,"is_reserved":false,"is_disabled":false,"rental_uris":{"android":"levelo://app?vid=18ee4dd0-7102-4e88-8c2b-ac314ed5ddbc","ios":"levelo://app?vid=18ee4dd0-7102-4e88-8c2b-ac314ed5ddbc"},"vehicle_type_id":"4","last_reported":1717852057,"current_range_meters":0,"station_id":"ce4bh0p2rcd13ifvqd70","pricing_plan_id":"cebpf4jnsgd1na2vs0mg"},{"bike_id":"18a82358-794b-4a9f-8ece-5bc7c8c3cadf","system_id":"levelo_inurba_marseille","lat":43.290319,"lon":5.375732,"is_reserved":false,"is_disabled":false,"rental_uris":{"android":"levelo://app?vid=18a82358-794b-4a9f-8ece-5bc7c8c3cadf","ios":"levelo://app?vid=18a82358-794b-4a9f-8ece-5bc7c8c3cadf"},"vehicle_type_id":"4","last_reported":1717852057,"current_range_meters":31200,"station_id":"ce4bh692rcd13ifvqe90","pricing_plan_id":"cebpf4jnsgd1na2vs0mg"},{"bike_id":"07af7026-e11e-40ef-9c2a-60325c88f76a","system_id":"levelo_inurba_marseille","lat":43.290327,"lon":5.375711,"is_reserved":false,"is_disabled":false,"rental_uris":{"android":"levelo://app?vid=07af7026-e11e-40ef-9c2a-60325c88f76a","ios":"levelo://app?vid=07af7026-e11e-40ef-9c2a-60325c88f76a"},"vehicle_type_id":"4","last_reported":1717852057,"current_range_meters":0,"station_id":"ce4bh692rcd13ifvqe90","pricing_plan_id":"cebpf4jnsgd1na2vs0mg"},{"bike_id":"e385557d-c93d-43c9-a6c0-9c4cf98e1a29","system_id":"levelo_inurba_marseille","lat":43.289468,"lon":5.363719,"is_reserved":false,"is_disabled":false,"rental_uris":{"android":"levelo://app?vid=e385557d-c93d-43c9-a6c0-9c4cf98e1a29","ios":"levelo://app?vid=e385557d-c93d-43c9-a6c0-9c4cf98e1a29"},"vehicle_type_id":"4","last_reported":1717852057,"current_range_meters":11200,"station_id":"ce4bhc92rcd13ifvqetg","pricing_plan_id":"cebpf4jnsgd1na2vs0mg"},{"bike_id":"fde0194d-5a8f-407b-b21a-63c56b98e4de","system_id":"levelo_inurba_marseille","lat":43.289184,"lon":5.366408,"is_reserved":false,"is_disabled":false,"rental_uris":{"android":"levelo://app?vid=fde0194d-5a8f-407b-b21a-63c56b98e4de","ios":"levelo://app?vid=fde0194d-5a8f-407b-b21a-63c56b98e4de"},"vehicle_type_id":"4","last_reported":1717852057,"current_range_meters":0,"station_id":"ce4bhap2rcd13ifvqek0","pricing_plan_id":"cebpf4jnsgd1na2vs0mg"},{"bike_id":"ae85451c-70a1-45ec-9453-f7170f7a7591","system_id":"levelo_inurba_marseille","lat":43.289468,"lon":5.363719,"is_reserved":false,"is_disabled":false,"rental_uris":{"android":"levelo://app?vid=ae85451c-70a1-45ec-9453-f7170f7a7591","ios":"levelo://app?vid=ae85451c-70a1-45ec-9453-f7170f7a7591"},"vehicle_type_id":"4","last_reported":1717852057,"current_range_meters":31200,"station_id":"ce4bhc92rcd13ifvqetg","pricing_plan_id":"cebpf4jnsgd1na2vs0mg"},{"bike_id":"778278be-9b7d-4f7e-be47-68b719b6e7ce","system_id":"levelo_inurba_marseille","lat":43.289468,"lon":5.363719,"is_reserved":false,"is_disabled":false,"rental_uris":{"android":"levelo://app?vid=778278be-9b7d-4f7e-be47-68b719b6e7ce","ios":"levelo://app?vid=778278be-9b7d-4f7e-be47-68b719b6e7ce"},"vehicle_type_id":"4","last_reported":1717852057,"current_range_meters":20400,"station_id":"ce4bhc92rcd13ifvqetg","pricing_plan_id":"cebpf4jnsgd1na2vs0mg"},{"bike_id":"6ad8829a-8601-4b16-b0f1-c9b42c83e440","system_id":"levelo_inurba_marseille","lat":43.289184,"lon":5.366408,"is_reserved":false,"is_disabled":false,"rental_uris":{"android":"levelo://app?vid=6ad8829a-8601-4b16-b0f1-c9b42c83e440","ios":"levelo://app?vid=6ad8829a-8601-4b16-b0f1-c9b42c83e440"},"vehicle_type_id":"4","last_reported":1717852057,"current_range_meters":20000,"station_id":"ce4bhap2rcd13ifvqek0","pricing_plan_id":"cebpf4jnsgd1na2vs0mg"},{"bike_id":"11876c79-40ea-4553-b6b3-db08966fae5a","system_id":"levelo_inurba_marseille","lat":43.289468,"lon":5.363719,"is_reserved":false,"is_disabled":false,"rental_uris":{"android":"levelo://app?vid=11876c79-40ea-4553-b6b3-db08966fae5a","ios":"levelo://app?vid=11876c79-40ea-4553-b6b3-db08966fae5a"},"vehicle_type_id":"4","last_reported":1717852057,"current_range_meters":11200,"station_id":"ce4bhc92rcd13ifvqetg","pricing_plan_id":"cebpf4jnsgd1na2vs0mg"},{"bike_id":"05769945-556f-4ece-95a2-f10f05aebf98","system_id":"levelo_inurba_marseille","lat":43.289468,"lon":5.363719,"is_reserved":false,"is_disabled":false,"rental_uris":{"android":"levelo://app?vid=05769945-556f-4ece-95a2-f10f05aebf98","ios":"levelo://app?vid=05769945-556f-4ece-95a2-f10f05aebf98"},"vehicle_type_id":"4","last_reported":1717852057,"current_range_meters":26800,"station_id":"ce4bhc92rcd13ifvqetg","pricing_plan_id":"cebpf4jnsgd1na2vs0mg"},{"bike_id":"f5bf238c-c4d0-4610-a5d0-758da84a8561","system_id":"levelo_inurba_marseille","lat":43.290104,"lon":5.356111,"is_reserved":false,"is_disabled":false,"rental_uris":{"android":"levelo://app?vid=f5bf238c-c4d0-4610-a5d0-758da84a8561","ios":"levelo://app?vid=f5bf238c-c4d0-4610-a5d0-758da84a8561"},"vehicle_type_id":"4","last_reported":1717852057,"current_range_meters":800,"station_id":"ce4bhb92rcd13ifvqen0","pricing_plan_id":"cebpf4jnsgd1na2vs0mg"},{"bike_id":"e2147445-80d7-482e-bbe6-22001511e30f","system_id":"levelo_inurba_marseille","lat":43.29573,"lon":5.367355,"is_reserved":false,"is_disabled":false,"rental_uris":{"android":"levelo://app?vid=e2147445-80d7-482e-bbe6-22001511e30f","ios":"levelo://app?vid=e2147445-80d7-482e-bbe6-22001511e30f"},"vehicle_type_id":"4","last_reported":1717852057,"current_range_meters":0,"station_id":"ce4bgph2rcd13ifvqc2g","pricing_plan_id":"cebpf4jnsgd1na2vs0mg"},{"bike_id":"21199418-df34-4f42-a025-c9ea231923df","system_id":"levelo_inurba_marseille","lat":43.304274,"lon":5.397513,"is_reserved":false,"is_disabled":false,"rental_uris":{"android":"levelo://app?vid=21199418-df34-4f42-a025-c9ea231923df","ios":"levelo://app?vid=21199418-df34-4f42-a025-c9ea231923df"},"vehicle_type_id":"4","last_reported":1717852057,"current_range_meters":0,"station_id":"ce4bh092rcd13ifvqd20","pricing_plan_id":"cebpf4jnsgd1na2vs0mg"},{"bike_id":"050f3bdf-875e-431a-b86c-13047a0638f5","system_id":"levelo_inurba_marseille","lat":43.290104,"lon":5.356111,"is_reserved":false,"is_disabled":false,"rental_uris":{"android":"levelo://app?vid=050f3bdf-875e-431a-b86c-13047a0638f5","ios":"levelo://app?vid=050f3bdf-875e-431a-b86c-13047a0638f5"},"vehicle_type_id":"4","last_reported":1717852057,"current_range_meters":15200,"station_id":"ce4bhb92rcd13ifvqen0","pricing_plan_id":"cebpf4jnsgd1na2vs0mg"},{"bike_id":"f2739652-d40b-4d7b-a631-6a341c9266c5","system_id":"levelo_inurba_marseille","lat":43.290103,"lon":5.356114,"is_reserved":false,"is_disabled":false,"rental_uris":{"android":"levelo://app?vid=f2739652-d40b-4d7b-a631-6a341c9266c5","ios":"levelo://app?vid=f2739652-d40b-4d7b-a631-6a341c9266c5"},"vehicle_type_id":"4","last_reported":1717852057,"current_range_meters":24000,"station_id":"ce4bhb92rcd13ifvqen0","pricing_plan_id":"cebpf4jnsgd1na2vs0mg"},{"bike_id":"c1c3442c-d7eb-4b57-9a00-37659a7810e5","system_id":"levelo_inurba_marseille","lat":43.290104,"lon":5.356111,"is_reserved":false,"is_disabled":false,"rental_uris":{"android":"levelo://app?vid=c1c3442c-d7eb-4b57-9a00-37659a7810e5","ios":"levelo://app?vid=c1c3442c-d7eb-4b57-9a00-37659a7810e5"},"vehicle_type_id":"4","last_reported":1717852057,"current_range_meters":25600,"station_id":"ce4bhb92rcd13ifvqen0","pricing_plan_id":"cebpf4jnsgd1na2vs0mg"},{"bike_id":"b79d95cf-1b19-47c6-b601-b118fdab451c","system_id":"levelo_inurba_marseille","lat":43.29103,"lon":5.38156,"is_reserved":false,"is_disabled":false,"rental_uris":{"android":"levelo://app?vid=b79d95cf-1b19-47c6-b601-b118fdab451c","ios":"levelo://app?vid=b79d95cf-1b19-47c6-b601-b118fdab451c"},"vehicle_type_id":"4","last_reported":1717852057,"current_range_meters":0,"station_id":"ce4bh512rcd13ifvqe2g","pricing_plan_id":"cebpf4jnsgd1na2vs0mg"},{"bike_id":"527162c0-b62d-4172-bd54-ef82578838d3","system_id":"levelo_inurba_marseille","lat":43.297931,"lon":5.393365,"is_reserved":false,"is_disabled":false,"rental_uris":{"android":"levelo://app?vid=527162c0-b62d-4172-bd54-ef82578838d3","ios":"levelo://app?vid=527162c0-b62d-4172-bd54-ef82578838d3"},"vehicle_type_id":"4","last_reported":1717852057,"current_range_meters":23600,"station_id":"chh1huq6cuj3fo74tm60","pricing_plan_id":"cebpf4jnsgd1na2vs0mg"},{"bike_id":"2a32eeef-3e04-4987-bf60-4474fa70c5c7","system_id":"levelo_inurba_marseille","lat":43.33022,"lon":5.39039,"is_reserved":false,"is_disabled":false,"rental_uris":{"android":"levelo://app?vid=2a32eeef-3e04-4987-bf60-4474fa70c5c7","ios":"levelo://app?vid=2a32eeef-3e04-4987-bf60-4474fa70c5c7"},"vehicle_type_id":"4","last_reported":1717852057,"current_range_meters":0,"station_id":"ce4bhr92rcd13ifvqhrg","pricing_plan_id":"cebpf4jnsgd1na2vs0mg"},{"bike_id":"32cb4853-e209-46f1-908a-af65f366eb9b","system_id":"levelo_inurba_marseille","lat":43.289743,"lon":5.378304,"is_reserved":false,"is_disabled":false,"rental_uris":{"android":"levelo://app?vid=32cb4853-e209-46f1-908a-af65f366eb9b","ios":"levelo://app?vid=32cb4853-e209-46f1-908a-af65f366eb9b"},"vehicle_type_id":"4","last_reported":1717852057,"current_range_meters":8000,"station_id":"ce4bh9p2rcd13ifvqed0","pricing_plan_id":"cebpf4jnsgd1na2vs0mg"},{"bike_id":"10f052da-41c3-43e5-b96c-96043e84b34e","system_id":"levelo_inurba_marseille","lat":43.310624,"lon":5.400902,"is_reserved":false,"is_disabled":false,"rental_uris":{"android":"levelo://app?vid=10f052da-41c3-43e5-b96c-96043e84b34e","ios":"levelo://app?vid=10f052da-41c3-43e5-b96c-96043e84b34e"},"vehicle_type_id":"4","last_reported":1717852057,"current_range_meters":18000,"station_id":"","pricing_plan_id":"cebpf4jnsgd1na2vs0mg"},{"bike_id":"55f08ff7-f87f-4a8a-aeb0-1973d8b176d3","system_id":"levelo_inurba_marseille","lat":43.28856,"lon":5.358371,"is_reserved":false,"is_disabled":false,"rental_uris":{"android":"levelo://app?vid=55f08ff7-f87f-4a8a-aeb0-1973d8b176d3","ios":"levelo://app?vid=55f08ff7-f87f-4a8a-aeb0-1973d8b176d3"},"vehicle_type_id":"4","last_reported":1717852057,"current_range_meters":4400,"station_id":"ce4bhb12rcd13ifvqem0","pricing_plan_id":"cebpf4jnsgd1na2vs0mg"},{"bike_id":"f5d81ff7-7e0d-44d8-86e3-2548419d17b8","system_id":"levelo_inurba_marseille","lat":43.3373,"lon":5.37466,"is_reserved":false,"is_disabled":false,"rental_uris":{"android":"levelo://app?vid=f5d81ff7-7e0d-44d8-86e3-2548419d17b8","ios":"levelo://app?vid=f5d81ff7-7e0d-44d8-86e3-2548419d17b8"},"vehicle_type_id":"4","last_reported":1717852057,"current_range_meters":4800,"station_id":"","pricing_plan_id":"cebpf4jnsgd1na2vs0mg"},{"bike_id":"5c19b950-fed3-4109-be74-878808b1c1da","system_id":"levelo_inurba_marseille","lat":43.309371,"lon":5.401449,"is_reserved":false,"is_disabled":false,"rental_uris":{"android":"levelo://app?vid=5c19b950-fed3-4109-be74-878808b1c1da","ios":"levelo://app?vid=5c19b950-fed3-4109-be74-878808b1c1da"},"vehicle_type_id":"4","last_reported":1717852057,"current_range_meters":0,"station_id":"ce4bgvp2rcd13ifvqct0","pricing_plan_id":"cebpf4jnsgd1na2vs0mg"},{"bike_id":"fee00d37-c385-4f01-983a-d4b13d95cafc","system_id":"levelo_inurba_marseille","lat":43.337446,"lon":5.374642,"is_reserved":false,"is_disabled":false,"rental_uris":{"android":"levelo://app?vid=fee00d37-c385-4f01-983a-d4b13d95cafc","ios":"levelo://app?vid=fee00d37-c385-4f01-983a-d4b13d95cafc"},"vehicle_type_id":"4","last_reported":1717852057,"current_range_meters":30400,"station_id":"","pricing_plan_id":"cebpf4jnsgd1na2vs0mg"},{"bike_id":"056f03f9-3b35-486c-8e83-1970c304aa04","system_id":"levelo_inurba_marseille","lat":43.287397,"lon":5.365253,"is_reserved":false,"is_disabled":false,"rental_uris":{"android":"levelo://app?vid=056f03f9-3b35-486c-8e83-1970c304aa04","ios":"levelo://app?vid=056f03f9-3b35-486c-8e83-1970c304aa04"},"vehicle_type_id":"4","last_reported":1717852057,"current_range_meters":18800,"station_id":"","pricing_plan_id":"cebpf4jnsgd1na2vs0mg"},{"bike_id":"c4f698ec-64e9-4887-b0e3-1335dc62c252","system_id":"levelo_inurba_marseille","lat":43.337564,"lon":5.374545,"is_reserved":false,"is_disabled":false,"rental_uris":{"android":"levelo://app?vid=c4f698ec-64e9-4887-b0e3-1335dc62c252","ios":"levelo://app?vid=c4f698ec-64e9-4887-b0e3-1335dc62c252"},"vehicle_type_id":"4","last_reported":1717852057,"current_range_meters":15200,"station_id":"","pricing_plan_id":"cebpf4jnsgd1na2vs0mg"},{"bike_id":"527c8278-6351-4925-bce7-002d3ad83d8e","system_id":"levelo_inurba_marseille","lat":43.3376,"lon":5.374523,"is_reserved":false,"is_disabled":false,"rental_uris":{"android":"levelo://app?vid=527c8278-6351-4925-bce7-002d3ad83d8e","ios":"levelo://app?vid=527c8278-6351-4925-bce7-002d3ad83d8e"},"vehicle_type_id":"4","last_reported":1717852057,"current_range_meters":30000,"station_id":"","pricing_plan_id":"cebpf4jnsgd1na2vs0mg"},{"bike_id":"10c53891-9146-44ae-9185-bf8cc571acaa","system_id":"levelo_inurba_marseille","lat":43.33762,"lon":5.3745,"is_reserved":false,"is_disabled":false,"rental_uris":{"android":"levelo://app?vid=10c53891-9146-44ae-9185-bf8cc571acaa","ios":"levelo://app?vid=10c53891-9146-44ae-9185-bf8cc571acaa"},"vehicle_type_id":"4","last_reported":1717852057,"current_range_meters":8400,"station_id":"","pricing_plan_id":"cebpf4jnsgd1na2vs0mg"},{"bike_id":"1df20743-e5a0-4e8d-9238-7391f0b96883","system_id":"levelo_inurba_marseille","lat":43.337703,"lon":5.374296,"is_reserved":false,"is_disabled":false,"rental_uris":{"android":"levelo://app?vid=1df20743-e5a0-4e8d-9238-7391f0b96883","ios":"levelo://app?vid=1df20743-e5a0-4e8d-9238-7391f0b96883"},"vehicle_type_id":"4","last_reported":1717852057,"current_range_meters":27200,"station_id":"","pricing_plan_id":"cebpf4jnsgd1na2vs0mg"},{"bike_id":"a4e76cf6-80e5-46b8-8c9c-391be5703f05","system_id":"levelo_inurba_marseille","lat":43.30642,"lon":5.401031,"is_reserved":false,"is_disabled":false,"rental_uris":{"android":"levelo://app?vid=a4e76cf6-80e5-46b8-8c9c-391be5703f05","ios":"levelo://app?vid=a4e76cf6-80e5-46b8-8c9c-391be5703f05"},"vehicle_type_id":"4","last_reported":1717852057,"current_range_meters":2800,"station_id":"ce4bh112rcd13ifvqda0","pricing_plan_id":"cebpf4jnsgd1na2vs0mg"},{"bike_id":"55486166-fc61-40d2-ae31-96b7b2356a6d","system_id":"levelo_inurba_marseille","lat":43.33779,"lon":5.37428,"is_reserved":false,"is_disabled":false,"rental_uris":{"android":"levelo://app?vid=55486166-fc61-40d2-ae31-96b7b2356a6d","ios":"levelo://app?vid=55486166-fc61-40d2-ae31-96b7b2356a6d"},"vehicle_type_id":"4","last_reported":1717852057,"current_range_meters":31200,"station_id":"","pricing_plan_id":"cebpf4jnsgd1na2vs0mg"},{"bike_id":"8496a3ff-aab3-4fe6-9dce-a06dd5f684c8","system_id":"levelo_inurba_marseille","lat":43.298681,"lon":5.397225,"is_reserved":false,"is_disabled":false,"rental_uris":{"android":"levelo://app?vid=8496a3ff-aab3-4fe6-9dce-a06dd5f684c8","ios":"levelo://app?vid=8496a3ff-aab3-4fe6-9dce-a06dd5f684c8"},"vehicle_type_id":"4","last_reported":1717852057,"current_range_meters":12400,"station_id":"ce4bh0h2rcd13ifvqd50","pricing_plan_id":"cebpf4jnsgd1na2vs0mg"},{"bike_id":"94636e92-ba25-4442-9321-32b20d700c3d","system_id":"levelo_inurba_marseille","lat":43.28727,"lon":5.36078,"is_reserved":false,"is_disabled":false,"rental_uris":{"android":"levelo://app?vid=94636e92-ba25-4442-9321-32b20d700c3d","ios":"levelo://app?vid=94636e92-ba25-4442-9321-32b20d700c3d"},"vehicle_type_id":"4","last_reported":1717852057,"current_range_meters":9600,"station_id":"cki0cbj6b192h4jlfktg","pricing_plan_id":"cebpf4jnsgd1na2vs0mg"},{"bike_id":"617d02d3-64d3-4fce-b32d-b70f6b1cadef","system_id":"levelo_inurba_marseille","lat":43.28727,"lon":5.36078,"is_reserved":false,"is_disabled":false,"rental_uris":{"android":"levelo://app?vid=617d02d3-64d3-4fce-b32d-b70f6b1cadef","ios":"levelo://app?vid=617d02d3-64d3-4fce-b32d-b70f6b1cadef"},"vehicle_type_id":"4","last_reported":1717852057,"current_range_meters":5200,"station_id":"cki0cbj6b192h4jlfktg","pricing_plan_id":"cebpf4jnsgd1na2vs0mg"},{"bike_id":"6d679425-45dc-4b0e-b21f-2ce1b5cb7ae7","system_id":"levelo_inurba_marseille","lat":43.286789,"lon":5.367599,"is_reserved":false,"is_disabled":false,"rental_uris":{"android":"levelo://app?vid=6d679425-45dc-4b0e-b21f-2ce1b5cb7ae7","ios":"levelo://app?vid=6d679425-45dc-4b0e-b21f-2ce1b5cb7ae7"},"vehicle_type_id":"4","last_reported":1717852057,"current_range_meters":2800,"station_id":"","pricing_plan_id":"cebpf4jnsgd1na2vs0mg"},{"bike_id":"df186f3b-73c7-40ea-81bd-149bb5afe22b","system_id":"levelo_inurba_marseille","lat":43.286591,"lon":5.363346,"is_reserved":false,"is_disabled":false,"rental_uris":{"android":"levelo://app?vid=df186f3b-73c7-40ea-81bd-149bb5afe22b","ios":"levelo://app?vid=df186f3b-73c7-40ea-81bd-149bb5afe22b"},"vehicle_type_id":"4","last_reported":1717852057,"current_range_meters":28800,"station_id":"ce4bhah2rcd13ifvqej0","pricing_plan_id":"cebpf4jnsgd1na2vs0mg"},{"bike_id":"5c8184c0-770f-4254-99ca-ae1b20ca9311","system_id":"levelo_inurba_marseille","lat":43.286593,"lon":5.363346,"is_reserved":false,"is_disabled":false,"rental_uris":{"android":"levelo://app?vid=5c8184c0-770f-4254-99ca-ae1b20ca9311","ios":"levelo://app?vid=5c8184c0-770f-4254-99ca-ae1b20ca9311"},"vehicle_type_id":"4","last_reported":1717852057,"current_range_meters":27600,"station_id":"ce4bhah2rcd13ifvqej0","pricing_plan_id":"cebpf4jnsgd1na2vs0mg"},{"bike_id":"c2a1c3b6-aad0-4755-9924-567a1fbfd03e","system_id":"levelo_inurba_marseille","lat":43.298681,"lon":5.397225,"is_reserved":false,"is_disabled":false,"rental_uris":{"android":"levelo://app?vid=c2a1c3b6-aad0-4755-9924-567a1fbfd03e","ios":"levelo://app?vid=c2a1c3b6-aad0-4755-9924-567a1fbfd03e"},"vehicle_type_id":"4","last_reported":1717852057,"current_range_meters":8800,"station_id":"ce4bh0h2rcd13ifvqd50","pricing_plan_id":"cebpf4jnsgd1na2vs0mg"},{"bike_id":"3a5de81c-66d3-4ee4-b894-838defcf8a7c","system_id":"levelo_inurba_marseille","lat":43.290336,"lon":5.386425,"is_reserved":false,"is_disabled":false,"rental_uris":{"android":"levelo://app?vid=3a5de81c-66d3-4ee4-b894-838defcf8a7c","ios":"levelo://app?vid=3a5de81c-66d3-4ee4-b894-838defcf8a7c"},"vehicle_type_id":"4","last_reported":1717852057,"current_range_meters":0,"station_id":"ce4bh4p2rcd13ifvqe0g","pricing_plan_id":"cebpf4jnsgd1na2vs0mg"},{"bike_id":"228aa75b-0222-459c-8539-afd62c88eac3","system_id":"levelo_inurba_marseille","lat":43.291994,"lon":5.392907,"is_reserved":false,"is_disabled":false,"rental_uris":{"android":"levelo://app?vid=228aa75b-0222-459c-8539-afd62c88eac3","ios":"levelo://app?vid=228aa75b-0222-459c-8539-afd62c88eac3"},"vehicle_type_id":"4","last_reported":1717852057,"current_range_meters":6000,"station_id":"ce4bh192rcd13ifvqdd0","pricing_plan_id":"cebpf4jnsgd1na2vs0mg"},{"bike_id":"2f6ccd10-7322-477c-8cee-2b61941b97d9","system_id":"levelo_inurba_marseille","lat":43.285856,"lon":5.350771,"is_reserved":false,"is_disabled":false,"rental_uris":{"android":"levelo://app?vid=2f6ccd10-7322-477c-8cee-2b61941b97d9","ios":"levelo://app?vid=2f6ccd10-7322-477c-8cee-2b61941b97d9"},"vehicle_type_id":"4","last_reported":1717852057,"current_range_meters":13600,"station_id":"ce4bhch2rcd13ifvqeug","pricing_plan_id":"cebpf4jnsgd1na2vs0mg"},{"bike_id":"cc72d739-a3e4-4835-9463-e6bae97a6aad","system_id":"levelo_inurba_marseille","lat":43.284538,"lon":5.358657,"is_reserved":false,"is_disabled":false,"rental_uris":{"android":"levelo://app?vid=cc72d739-a3e4-4835-9463-e6bae97a6aad","ios":"levelo://app?vid=cc72d739-a3e4-4835-9463-e6bae97a6aad"},"vehicle_type_id":"4","last_reported":1717852057,"current_range_meters":21600,"station_id":"ce4bhah2rcd13ifvqei0","pricing_plan_id":"cebpf4jnsgd1na2vs0mg"},{"bike_id":"a452c726-cdf9-4520-bd19-b63c593187b0","system_id":"levelo_inurba_marseille","lat":43.2862,"lon":5.35098,"is_reserved":false,"is_disabled":false,"rental_uris":{"android":"levelo://app?vid=a452c726-cdf9-4520-bd19-b63c593187b0","ios":"levelo://app?vid=a452c726-cdf9-4520-bd19-b63c593187b0"},"vehicle_type_id":"4","last_reported":1717852057,"current_range_meters":4800,"station_id":"ce4bhch2rcd13ifvqeug","pricing_plan_id":"cebpf4jnsgd1na2vs0mg"},{"bike_id":"f02475e4-0504-403f-9484-0615bcfbf850","system_id":"levelo_inurba_marseille","lat":43.285856,"lon":5.350771,"is_reserved":false,"is_disabled":false,"rental_uris":{"android":"levelo://app?vid=f02475e4-0504-403f-9484-0615bcfbf850","ios":"levelo://app?vid=f02475e4-0504-403f-9484-0615bcfbf850"},"vehicle_type_id":"4","last_reported":1717852057,"current_range_meters":11200,"station_id":"ce4bhch2rcd13ifvqeug","pricing_plan_id":"cebpf4jnsgd1na2vs0mg"},{"bike_id":"cf2c14d2-7edf-45f0-a521-011187686794","system_id":"levelo_inurba_marseille","lat":43.285856,"lon":5.350771,"is_reserved":false,"is_disabled":false,"rental_uris":{"android":"levelo://app?vid=cf2c14d2-7edf-45f0-a521-011187686794","ios":"levelo://app?vid=cf2c14d2-7edf-45f0-a521-011187686794"},"vehicle_type_id":"4","last_reported":1717852057,"current_range_meters":3600,"station_id":"ce4bhch2rcd13ifvqeug","pricing_plan_id":"cebpf4jnsgd1na2vs0mg"},{"bike_id":"81905936-bc2e-4954-a1ba-aeb3b2e7c24c","system_id":"levelo_inurba_marseille","lat":43.285856,"lon":5.350771,"is_reserved":false,"is_disabled":false,"rental_uris":{"android":"levelo://app?vid=81905936-bc2e-4954-a1ba-aeb3b2e7c24c","ios":"levelo://app?vid=81905936-bc2e-4954-a1ba-aeb3b2e7c24c"},"vehicle_type_id":"4","last_reported":1717852057,"current_range_meters":24800,"station_id":"ce4bhch2rcd13ifvqeug","pricing_plan_id":"cebpf4jnsgd1na2vs0mg"},{"bike_id":"ba9a6178-f0cb-4817-affc-a38641a63b6f","system_id":"levelo_inurba_marseille","lat":43.285856,"lon":5.350771,"is_reserved":false,"is_disabled":false,"rental_uris":{"android":"levelo://app?vid=ba9a6178-f0cb-4817-affc-a38641a63b6f","ios":"levelo://app?vid=ba9a6178-f0cb-4817-affc-a38641a63b6f"},"vehicle_type_id":"4","last_reported":1717852057,"current_range_meters":10000,"station_id":"ce4bhch2rcd13ifvqeug","pricing_plan_id":"cebpf4jnsgd1na2vs0mg"},{"bike_id":"4cb01351-ca6e-4a81-8063-8361bd3c9ea0","system_id":"levelo_inurba_marseille","lat":43.283998,"lon":5.375062,"is_reserved":false,"is_disabled":false,"rental_uris":{"android":"levelo://app?vid=4cb01351-ca6e-4a81-8063-8361bd3c9ea0","ios":"levelo://app?vid=4cb01351-ca6e-4a81-8063-8361bd3c9ea0"},"vehicle_type_id":"4","last_reported":1717852057,"current_range_meters":14400,"station_id":"ce4bh412rcd13ifvqds0","pricing_plan_id":"cebpf4jnsgd1na2vs0mg"},{"bike_id":"6eb29491-b2cc-418d-8406-21093600f517","system_id":"levelo_inurba_marseille","lat":43.319179,"lon":5.407725,"is_reserved":false,"is_disabled":false,"rental_uris":{"android":"levelo://app?vid=6eb29491-b2cc-418d-8406-21093600f517","ios":"levelo://app?vid=6eb29491-b2cc-418d-8406-21093600f517"},"vehicle_type_id":"4","last_reported":1717852057,"current_range_meters":16800,"station_id":"ce4bhq12rcd13ifvqhig","pricing_plan_id":"cebpf4jnsgd1na2vs0mg"},{"bike_id":"11be261a-4c2c-44dc-8659-739dee6a4ba7","system_id":"levelo_inurba_marseille","lat":43.283998,"lon":5.375062,"is_reserved":false,"is_disabled":false,"rental_uris":{"android":"levelo://app?vid=11be261a-4c2c-44dc-8659-739dee6a4ba7","ios":"levelo://app?vid=11be261a-4c2c-44dc-8659-739dee6a4ba7"},"vehicle_type_id":"4","last_reported":1717852057,"current_range_meters":23600,"station_id":"ce4bh412rcd13ifvqds0","pricing_plan_id":"cebpf4jnsgd1na2vs0mg"},{"bike_id":"0431c3da-5fb8-48ce-b29a-0ad476abc2f5","system_id":"levelo_inurba_marseille","lat":43.283998,"lon":5.375062,"is_reserved":false,"is_disabled":false,"rental_uris":{"android":"levelo://app?vid=0431c3da-5fb8-48ce-b29a-0ad476abc2f5","ios":"levelo://app?vid=0431c3da-5fb8-48ce-b29a-0ad476abc2f5"},"vehicle_type_id":"4","last_reported":1717852057,"current_range_meters":9600,"station_id":"ce4bh412rcd13ifvqds0","pricing_plan_id":"cebpf4jnsgd1na2vs0mg"},{"bike_id":"c3074c74-4185-437b-a1e0-3f7a9df22b78","system_id":"levelo_inurba_marseille","lat":43.295713,"lon":5.399639,"is_reserved":false,"is_disabled":false,"rental_uris":{"android":"levelo://app?vid=c3074c74-4185-437b-a1e0-3f7a9df22b78","ios":"levelo://app?vid=c3074c74-4185-437b-a1e0-3f7a9df22b78"},"vehicle_type_id":"4","last_reported":1717852057,"current_range_meters":16000,"station_id":"ce4bh312rcd13ifvqdj0","pricing_plan_id":"cebpf4jnsgd1na2vs0mg"},{"bike_id":"a95d5172-2916-4d2d-ac51-c22b960f9586","system_id":"levelo_inurba_marseille","lat":43.295428,"lon":5.399923,"is_reserved":false,"is_disabled":false,"rental_uris":{"android":"levelo://app?vid=a95d5172-2916-4d2d-ac51-c22b960f9586","ios":"levelo://app?vid=a95d5172-2916-4d2d-ac51-c22b960f9586"},"vehicle_type_id":"4","last_reported":1717852057,"current_range_meters":24800,"station_id":"ce4bh312rcd13ifvqdj0","pricing_plan_id":"cebpf4jnsgd1na2vs0mg"},{"bike_id":"87f7ba54-928e-48e0-bdfe-dfacf00fb8c7","system_id":"levelo_inurba_marseille","lat":43.29055,"lon":5.394123,"is_reserved":false,"is_disabled":false,"rental_uris":{"android":"levelo://app?vid=87f7ba54-928e-48e0-bdfe-dfacf00fb8c7","ios":"levelo://app?vid=87f7ba54-928e-48e0-bdfe-dfacf00fb8c7"},"vehicle_type_id":"4","last_reported":1717852057,"current_range_meters":7600,"station_id":"","pricing_plan_id":"cebpf4jnsgd1na2vs0mg"},{"bike_id":"ff5767cd-dadf-4016-8dea-ba3d72fb3abf","system_id":"levelo_inurba_marseille","lat":43.323464,"lon":5.406297,"is_reserved":false,"is_disabled":false,"rental_uris":{"android":"levelo://app?vid=ff5767cd-dadf-4016-8dea-ba3d72fb3abf","ios":"levelo://app?vid=ff5767cd-dadf-4016-8dea-ba3d72fb3abf"},"vehicle_type_id":"4","last_reported":1717852057,"current_range_meters":29200,"station_id":"ce4bhq92rcd13ifvqhjg","pricing_plan_id":"cebpf4jnsgd1na2vs0mg"},{"bike_id":"529c5641-e97d-410b-8d83-f9e5b86a8ccd","system_id":"levelo_inurba_marseille","lat":43.337168,"lon":5.391825,"is_reserved":false,"is_disabled":false,"rental_uris":{"android":"levelo://app?vid=529c5641-e97d-410b-8d83-f9e5b86a8ccd","ios":"levelo://app?vid=529c5641-e97d-410b-8d83-f9e5b86a8ccd"},"vehicle_type_id":"4","last_reported":1717852057,"current_range_meters":23200,"station_id":"ce4bhr92rcd13ifvqhsg","pricing_plan_id":"cebpf4jnsgd1na2vs0mg"},{"bike_id":"397fede1-d9f9-462e-8362-ad7b811eb156","system_id":"levelo_inurba_marseille","lat":43.284793,"lon":5.384113,"is_reserved":false,"is_disabled":false,"rental_uris":{"android":"levelo://app?vid=397fede1-d9f9-462e-8362-ad7b811eb156","ios":"levelo://app?vid=397fede1-d9f9-462e-8362-ad7b811eb156"},"vehicle_type_id":"4","last_reported":1717852057,"current_range_meters":28000,"station_id":"ce4bh512rcd13ifvqe3g","pricing_plan_id":"cebpf4jnsgd1na2vs0mg"},