{"last_updated":1685012737,"ttl":30,"version":"2.2","data":{"bikes":[{"bike_id":"c483a466-8b7a-4236-8add-6682a44bd099","system_id":"levelo_inurba_marseille","lat":43.313391,"lon":5.36706,"is_reserved":false,"is_disabled":false,"rental_uris":{"android":"levelo://app?vid=c483a466-8b7a-4236-8add-6682a44bd099","ios":"levelo://app?vid=c483a466-8b7a-4236-8add-6682a44bd099"},"vehicle_type_id":"4","last_reported":1685012738,"current_range_meters":24800,"station_id":"ce4bgr92rcd13ifvqc6g","pricing_plan_id":"free"},{"bike_id":"9add802e-2be5-47bb-99d4-889533610c7f","system_id":"levelo_inurba_marseille","lat":43.313391,"lon":5.36706,"is_reserved":false,"is_disabled":false,"rental_uris":{"android":"levelo://app?vid=9add802e-2be5-47bb-99d4-889533610c7f","ios":"levelo://app?vid=9add802e-2be5-47bb-99d4-889533610c7f"},"vehicle_type_id":"4","last_reported":1685012738,"current_range_meters":26000,"station_id":"ce4bgr92rcd13ifvqc6g","pricing_plan_id":"free"},{"bike_id":"43653bd7-693f-4e9f-a189-36b2f77d0ea1","system_id":"levelo_inurba_marseille","lat":43.31342,"lon":5.36716,"is_reserved":false,"is_disabled":false,"rental_uris":{"android":"levelo://app?vid=43653bd7-693f-4e9f-a189-36b2f77d0ea1","ios":"levelo://app?vid=43653bd7-693f-4e9f-a189-36b2f77d0ea1"},"vehicle_type_id":"4","last_reported":1685012738,"current_range_meters":31200,"station_id":"ce4bgr92rcd13ifvqc6g","pricing_plan_id":"free"},{"bike_id":"e984a29f-7fbf-4df4-8737-51e1746b0871","system_id":"levelo_inurba_marseille","lat":43.313391,"lon":5.36706,"is_reserved":false,"is_disabled":false,"rental_uris":{"android":"levelo://app?vid=e984a29f-7fbf-4df4-8737-51e1746b0871","ios":"levelo://app?vid=e984a29f-7fbf-4df4-8737-51e1746b0871"},"vehicle_type_id":"4","last_reported":1685012738,"current_range_meters":31600,"station_id":"ce4bgr92rcd13ifvqc6g","pricing_plan_id":"free"},{"bike_id":"be0f795b-7ced-4c0d-8d5e-c3c455811729","system_id":"levelo_inurba_marseille","lat":43.313391,"lon":5.36706,"is_reserved":false,"is_disabled":false,"rental_uris":{"android":"levelo://app?vid=be0f795b-7ced-4c0d-8d5e-c3c455811729","ios":"levelo://app?vid=be0f795b-7ced-4c0d-8d5e-c3c455811729"},"vehicle_type_id":"4","last_reported":1685012738,"current_range_meters":31600,"station_id":"ce4bgr92rcd13ifvqc6g","pricing_plan_id":"free"},{"bike_id":"275bcb69-0784-42fa-b862-afbe2737c47f","system_id":"levelo_inurba_marseille","lat":43.313391,"lon":5.36706,"is_reserved":false,"is_disabled":false,"rental_uris":{"android":"levelo://app?vid=275bcb69-0784-42fa-b862-afbe2737c47f","ios":"levelo://app?vid=275bcb69-0784-42fa-b862-afbe2737c47f"},"vehicle_type_id":"4","last_reported":1685012738,"current_range_meters":30000,"station_id":"ce4bgr92rcd13ifvqc6g","pricing_plan_id":"free"},{"bike_id":"c7196536-9b0a-4dcd-a747-b9a6353a191a","system_id":"levelo_inurba_marseille","lat":43.31341,"lon":5.367098,"is_reserved":false,"is_disabled":false,"rental_uris":{"android":"levelo://app?vid=c7196536-9b0a-4dcd-a747-b9a6353a191a","ios":"levelo://app?vid=c7196536-9b0a-4dcd-a747-b9a6353a191a"},"vehicle_type_id":"4","last_reported":1685012738,"current_range_meters":31600,"station_id":"ce4bgr92rcd13ifvqc6g","pricing_plan_id":"free"},{"bike_id":"85c73a90-66de-434e-b698-7d80915eb59f","system_id":"levelo_inurba_marseille","lat":43.31341,"lon":5.367098,"is_reserved":false,"is_disabled":false,"rental_uris":{"android":"levelo://app?vid=85c73a90-66de-434e-b698-7d80915eb59f","ios":"levelo://app?vid=85c73a90-66de-434e-b698-7d80915eb59f"},"vehicle_type_id":"4","last_reported":1685012738,"current_range_meters":31600,"station_id":"ce4bgr92rcd13ifvqc6g","pricing_plan_id":"free"},{"bike_id":"1d352922-19f8-45c7-8daa-d4299beae67c","system_id":"levelo_inurba_marseille","lat":43.312239,"lon":5.368562,"is_reserved":false,"is_disabled":false,"rental_uris":{"android":"levelo://app?vid=1d352922-19f8-45c7-8daa-d4299beae67c","ios":"levelo://app?vid=1d352922-19f8-45c7-8daa-d4299beae67c"},"vehicle_type_id":"4","last_reported":1685012738,"current_range_meters":28400,"station_id":"ce4bgl92rcd13ifvqbq0","pricing_plan_id":"free"},{"bike_id":"057874b2-e801-4ed3-9143-b0ecbb73e206","system_id":"levelo_inurba_marseille","lat":43.312239,"lon":5.368562,"is_reserved":false,"is_disabled":false,"rental_uris":{"android":"levelo://app?vid=057874b2-e801-4ed3-9143-b0ecbb73e206","ios":"levelo://app?vid=057874b2-e801-4ed3-9143-b0ecbb73e206"},"vehicle_type_id":"4","last_reported":1685012738,"current_range_meters":27600,"station_id":"ce4bgl92rcd13ifvqbq0","pricing_plan_id":"free"},{"bike_id":"7b5c99ab-fe4f-4d0a-92df-752ed5837304","system_id":"levelo_inurba_marseille","lat":43.312239,"lon":5.368562,"is_reserved":false,"is_disabled":false,"rental_uris":{"android":"levelo://app?vid=7b5c99ab-fe4f-4d0a-92df-752ed5837304","ios":"levelo://app?vid=7b5c99ab-fe4f-4d0a-92df-752ed5837304"},"vehicle_type_id":"4","last_reported":1685012738,"current_range_meters":31600,"station_id":"ce4bgl92rcd13ifvqbq0","pricing_plan_id":"free"},{"bike_id":"d99c1bcf-74e3-41bb-a740-5ce155c3fa73","system_id":"levelo_inurba_marseille","lat":43.312239,"lon":5.368562,"is_reserved":false,"is_disabled":false,"rental_uris":{"android":"levelo://app?vid=d99c1bcf-74e3-41bb-a740-5ce155c3fa73","ios":"levelo://app?vid=d99c1bcf-74e3-41bb-a740-5ce155c3fa73"},"vehicle_type_id":"4","last_reported":1685012738,"current_range_meters":31200,"station_id":"ce4bgl92rcd13ifvqbq0","pricing_plan_id":"free"},{"bike_id":"25a036b0-264d-441d-a165-67f667e28bea","system_id":"levelo_inurba_marseille","lat":43.312239,"lon":5.368562,"is_reserved":false,"is_disabled":false,"rental_uris":{"android":"levelo://app?vid=25a036b0-264d-441d-a165-67f667e28bea","ios":"levelo://app?vid=25a036b0-264d-441d-a165-67f667e28bea"},"vehicle_type_id":"4","last_reported":1685012738,"current_range_meters":17600,"station_id":"ce4bgl92rcd13ifvqbq0","pricing_plan_id":"free"},{"bike_id":"6c3f7686-062b-4166-8b95-ab30734fe755","system_id":"levelo_inurba_marseille","lat":43.309076,"lon":5.368465,"is_reserved":false,"is_disabled":false,"rental_uris":{"android":"levelo://app?vid=6c3f7686-062b-4166-8b95-ab30734fe755","ios":"levelo://app?vid=6c3f7686-062b-4166-8b95-ab30734fe755"},"vehicle_type_id":"4","last_reported":1685012738,"current_range_meters":19600,"station_id":"ce4bgn92rcd13ifvqbvg","pricing_plan_id":"free"},{"bike_id":"a1fc642d-1cab-4adb-82a0-511adae5bec9","system_id":"levelo_inurba_marseille","lat":43.309076,"lon":5.368465,"is_reserved":false,"is_disabled":false,"rental_uris":{"android":"levelo://app?vid=a1fc642d-1cab-4adb-82a0-511adae5bec9","ios":"levelo://app?vid=a1fc642d-1cab-4adb-82a0-511adae5bec9"},"vehicle_type_id":"4","last_reported":1685012738,"current_range_meters":17200,"station_id":"ce4bgn92rcd13ifvqbvg","pricing_plan_id":"free"},{"bike_id":"c94d3c4b-8a36-4138-9dd9-5ff48a1f9b30","system_id":"levelo_inurba_marseille","lat":43.309076,"lon":5.368465,"is_reserved":false,"is_disabled":false,"rental_uris":{"android":"levelo://app?vid=c94d3c4b-8a36-4138-9dd9-5ff48a1f9b30","ios":"levelo://app?vid=c94d3c4b-8a36-4138-9dd9-5ff48a1f9b30"},"vehicle_type_id":"4","last_reported":1685012738,"current_range_meters":29600,"station_id":"ce4bgn92rcd13ifvqbvg","pricing_plan_id":"free"},{"bike_id":"5846c4c4-c2fd-4016-8ffd-f94e509664c3","system_id":"levelo_inurba_marseille","lat":43.309076,"lon":5.368465,"is_reserved":false,"is_disabled":false,"rental_uris":{"android":"levelo://app?vid=5846c4c4-c2fd-4016-8ffd-f94e509664c3","ios":"levelo://app?vid=5846c4c4-c2fd-4016-8ffd-f94e509664c3"},"vehicle_type_id":"4","last_reported":1685012738,"current_range_meters":26800,"station_id":"ce4bgn92rcd13ifvqbvg","pricing_plan_id":"free"},{"bike_id":"5c942ca7-033f-4392-9ae3-232588de6752","system_id":"levelo_inurba_marseille","lat":43.314811,"lon":5.373103,"is_reserved":false,"is_disabled":false,"rental_uris":{"android":"levelo://app?vid=5c942ca7-033f-4392-9ae3-232588de6752","ios":"levelo://app?vid=5c942ca7-033f-4392-9ae3-232588de6752"},"vehicle_type_id":"4","last_reported":1685012738,"current_range_meters":26000,"station_id":"ce4bgt12rcd13ifvqcd0","pricing_plan_id":"free"},{"bike_id":"37ab0458-0b18-44cf-ada0-887cbe9741f1","system_id":"levelo_inurba_marseille","lat":43.314811,"lon":5.373104,"is_reserved":false,"is_disabled":false,"rental_uris":{"android":"levelo://app?vid=37ab0458-0b18-44cf-ada0-887cbe9741f1","ios":"levelo://app?vid=37ab0458-0b18-44cf-ada0-887cbe9741f1"},"vehicle_type_id":"4","last_reported":1685012738,"current_range_meters":31600,"station_id":"ce4bgt12rcd13ifvqcd0","pricing_plan_id":"free"},{"bike_id":"643b7958-34c5-42cf-b390-9f5140eadccc","system_id":"levelo_inurba_marseille","lat":43.314811,"lon":5.373104,"is_reserved":false,"is_disabled":false,"rental_uris":{"android":"levelo://app?vid=643b7958-34c5-42cf-b390-9f5140eadccc","ios":"levelo://app?vid=643b7958-34c5-42cf-b390-9f5140eadccc"},"vehicle_type_id":"4","last_reported":1685012738,"current_range_meters":31600,"station_id":"ce4bgt12rcd13ifvqcd0","pricing_plan_id":"free"},{"bike_id":"0b81d4eb-2691-44c0-beed-2716b4b0564e","system_id":"levelo_inurba_marseille","lat":43.314811,"lon":5.373104,"is_reserved":false,"is_disabled":false,"rental_uris":{"android":"levelo://app?vid=0b81d4eb-2691-44c0-beed-2716b4b0564e","ios":"levelo://app?vid=0b81d4eb-2691-44c0-beed-2716b4b0564e"},"vehicle_type_id":"4","last_reported":1685012738,"current_range_meters":31600,"station_id":"ce4bgt12rcd13ifvqcd0","pricing_plan_id":"free"},{"bike_id":"db0d3519-701c-4778-94e2-eb09106b5449","system_id":"levelo_inurba_marseille","lat":43.314811,"lon":5.373104,"is_reserved":false,"is_disabled":false,"rental_uris":{"android":"levelo://app?vid=db0d3519-701c-4778-94e2-eb09106b5449","ios":"levelo://app?vid=db0d3519-701c-4778-94e2-eb09106b5449"},"vehicle_type_id":"4","last_reported":1685012738,"current_range_meters":31600,"station_id":"ce4bgt12rcd13ifvqcd0","pricing_plan_id":"free"},{"bike_id":"76bc4219-9662-441c-b53b-d4fcd1865c9d","system_id":"levelo_inurba_marseille","lat":43.314811,"lon":5.373104,"is_reserved":false,"is_disabled":false,"rental_uris":{"android":"levelo://app?vid=76bc4219-9662-441c-b53b-d4fcd1865c9d","ios":"levelo://app?vid=76bc4219-9662-441c-b53b-d4fcd1865c9d"},"vehicle_type_id":"4","last_reported":1685012738,"current_range_meters":20800,"station_id":"ce4bgt12rcd13ifvqcd0","pricing_plan_id":"free"},{"bike_id":"1ba0cfe2-03a3-4870-bc0d-399d6fd59a45","system_id":"levelo_inurba_marseille","lat":43.314811,"lon":5.373104,"is_reserved":false,"is_disabled":false,"rental_uris":{"android":"levelo://app?vid=1ba0cfe2-03a3-4870-bc0d-399d6fd59a45","ios":"levelo://app?vid=1ba0cfe2-03a3-4870-bc0d-399d6fd59a45"},"vehicle_type_id":"4","last_reported":1685012738,"current_range_meters":26800,"station_id":"ce4bgt12rcd13ifvqcd0","pricing_plan_id":"free"},{"bike_id":"b2dfd504-e910-445d-9772-694f36a095e4","system_id":"levelo_inurba_marseille","lat":43.314811,"lon":5.373104,"is_reserved":false,"is_disabled":false,"rental_uris":{"android":"levelo://app?vid=b2dfd504-e910-445d-9772-694f36a095e4","ios":"levelo://app?vid=b2dfd504-e910-445d-9772-694f36a095e4"},"vehicle_type_id":"4","last_reported":1685012738,"current_range_meters":31600,"station_id":"ce4bgt12rcd13ifvqcd0","pricing_plan_id":"free"},{"bike_id":"1d2b2a87-827e-4968-be5f-c4debde6f5f5","system_id":"levelo_inurba_marseille","lat":43.314811,"lon":5.373104,"is_reserved":false,"is_disabled":false,"rental_uris":{"android":"levelo://app?vid=1d2b2a87-827e-4968-be5f-c4debde6f5f5","ios":"levelo://app?vid=1d2b2a87-827e-4968-be5f-c4debde6f5f5"},"vehicle_type_id":"4","last_reported":1685012738,"current_range_meters":31600,"station_id":"ce4bgt12rcd13ifvqcd0","pricing_plan_id":"free"},{"bike_id":"7d276d20-bb42-45b1-bed1-ca97bf5711b8","system_id":"levelo_inurba_marseille","lat":43.314811,"lon":5.373104,"is_reserved":false,"is_disabled":false,"rental_uris":{"android":"levelo://app?vid=7d276d20-bb42-45b1-bed1-ca97bf5711b8","ios":"levelo://app?vid=7d276d20-bb42-45b1-bed1-ca97bf5711b8"},"vehicle_type_id":"4","last_reported":1685012738,"current_range_meters":29200,"station_id":"ce4bgt12rcd13ifvqcd0","pricing_plan_id":"free"},{"bike_id":"8f28eeb1-a911-48a7-995c-cb1d14aa267e","system_id":"levelo_inurba_marseille","lat":43.308614,"lon":5.372098,"is_reserved":false,"is_disabled":false,"rental_uris":{"android":"levelo://app?vid=8f28eeb1-a911-48a7-995c-cb1d14aa267e","ios":"levelo://app?vid=8f28eeb1-a911-48a7-995c-cb1d14aa267e"},"vehicle_type_id":"4","last_reported":1685012738,"current_range_meters":16400,"station_id":"ce4bguh2rcd13ifvqckg","pricing_plan_id":"free"},{"bike_id":"c138181f-48ac-4415-a593-05e777911b4d","system_id":"levelo_inurba_marseille","lat":43.30693,"lon":5.36697,"is_reserved":false,"is_disabled":false,"rental_uris":{"android":"levelo://app?vid=c138181f-48ac-4415-a593-05e777911b4d","ios":"levelo://app?vid=c138181f-48ac-4415-a593-05e777911b4d"},"vehicle_type_id":"4","last_reported":1685012738,"current_range_meters":24400,"station_id":"","pricing_plan_id":"free"},{"bike_id":"8196ffec-f12b-439e-90a4-bdb567d477cf","system_id":"levelo_inurba_marseille","lat":43.305368,"lon":5.367343,"is_reserved":false,"is_disabled":false,"rental_uris":{"android":"levelo://app?vid=8196ffec-f12b-439e-90a4-bdb567d477cf","ios":"levelo://app?vid=8196ffec-f12b-439e-90a4-bdb567d477cf"},"vehicle_type_id":"4","last_reported":1685012738,"current_range_meters":22000,"station_id":"ce4bgrp2rcd13ifvqc9g","pricing_plan_id":"free"},{"bike_id":"ffd5c177-d890-4e61-8234-19ef4660c40b","system_id":"levelo_inurba_marseille","lat":43.305368,"lon":5.367343,"is_reserved":false,"is_disabled":false,"rental_uris":{"android":"levelo://app?vid=ffd5c177-d890-4e61-8234-19ef4660c40b","ios":"levelo://app?vid=ffd5c177-d890-4e61-8234-19ef4660c40b"},"vehicle_type_id":"4","last_reported":1685012738,"current_range_meters":2800,"station_id":"ce4bgrp2rcd13ifvqc9g","pricing_plan_id":"free"},{"bike_id":"b625a4e9-5a5e-4f44-983b-3b8f5f2dac17","system_id":"levelo_inurba_marseille","lat":43.305368,"lon":5.367343,"is_reserved":false,"is_disabled":false,"rental_uris":{"android":"levelo://app?vid=b625a4e9-5a5e-4f44-983b-3b8f5f2dac17","ios":"levelo://app?vid=b625a4e9-5a5e-4f44-983b-3b8f5f2dac17"},"vehicle_type_id":"4","last_reported":1685012738,"current_range_meters":28400,"station_id":"ce4bgrp2rcd13ifvqc9g","pricing_plan_id":"free"},{"bike_id":"02a0f9d8-bdbb-4ef9-9dc0-93d124765f29","system_id":"levelo_inurba_marseille","lat":43.305368,"lon":5.367343,"is_reserved":false,"is_disabled":false,"rental_uris":{"android":"levelo://app?vid=02a0f9d8-bdbb-4ef9-9dc0-93d124765f29","ios":"levelo://app?vid=02a0f9d8-bdbb-4ef9-9dc0-93d124765f29"},"vehicle_type_id":"4","last_reported":1685012738,"current_range_meters":27600,"station_id":"ce4bgrp2rcd13ifvqc9g","pricing_plan_id":"free"},{"bike_id":"6b1eddd9-9fee-4587-a887-acf76781d61d","system_id":"levelo_inurba_marseille","lat":43.305368,"lon":5.367343,"is_reserved":false,"is_disabled":false,"rental_uris":{"android":"levelo://app?vid=6b1eddd9-9fee-4587-a887-acf76781d61d","ios":"levelo://app?vid=6b1eddd9-9fee-4587-a887-acf76781d61d"},"vehicle_type_id":"4","last_reported":1685012738,"current_range_meters":23600,"station_id":"ce4bgrp2rcd13ifvqc9g","pricing_plan_id":"free"},{"bike_id":"55182d8f-6f25-441b-a0c3-9aa2ef7bb11a","system_id":"levelo_inurba_marseille","lat":43.305368,"lon":5.367343,"is_reserved":false,"is_disabled":false,"rental_uris":{"android":"levelo://app?vid=55182d8f-6f25-441b-a0c3-9aa2ef7bb11a","ios":"levelo://app?vid=55182d8f-6f25-441b-a0c3-9aa2ef7bb11a"},"vehicle_type_id":"4","last_reported":1685012738,"current_range_meters":26800,"station_id":"ce4bgrp2rcd13ifvqc9g","pricing_plan_id":"free"},{"bike_id":"2485fa92-c380-4c26-9561-c389b49cf08e","system_id":"levelo_inurba_marseille","lat":43.30541,"lon":5.36699,"is_reserved":false,"is_disabled":false,"rental_uris":{"android":"levelo://app?vid=2485fa92-c380-4c26-9561-c389b49cf08e","ios":"levelo://app?vid=2485fa92-c380-4c26-9561-c389b49cf08e"},"vehicle_type_id":"4","last_reported":1685012738,"current_range_meters":22400,"station_id":"ce4bgrp2rcd13ifvqc9g","pricing_plan_id":"free"},{"bike_id":"3d61a6b8-8faf-451c-bc25-4d5a6a7904a6","system_id":"levelo_inurba_marseille","lat":43.305706,"lon":5.365654,"is_reserved":false,"is_disabled":false,"rental_uris":{"android":"levelo://app?vid=3d61a6b8-8faf-451c-bc25-4d5a6a7904a6","ios":"levelo://app?vid=3d61a6b8-8faf-451c-bc25-4d5a6a7904a6"},"vehicle_type_id":"4","last_reported":1685012738,"current_range_meters":28000,"station_id":"ce4bgs12rcd13ifvqcag","pricing_plan_id":"free"},{"bike_id":"7f62c4a4-3a53-4456-9812-3ebc6e96b13a","system_id":"levelo_inurba_marseille","lat":43.305368,"lon":5.367343,"is_reserved":false,"is_disabled":false,"rental_uris":{"android":"levelo://app?vid=7f62c4a4-3a53-4456-9812-3ebc6e96b13a","ios":"levelo://app?vid=7f62c4a4-3a53-4456-9812-3ebc6e96b13a"},"vehicle_type_id":"4","last_reported":1685012738,"current_range_meters":25200,"station_id":"ce4bgrp2rcd13ifvqc9g","pricing_plan_id":"free"},{"bike_id":"7a0aef98-4321-4ce6-b636-37fb5727af66","system_id":"levelo_inurba_marseille","lat":43.305706,"lon":5.365654,"is_reserved":false,"is_disabled":false,"rental_uris":{"android":"levelo://app?vid=7a0aef98-4321-4ce6-b636-37fb5727af66","ios":"levelo://app?vid=7a0aef98-4321-4ce6-b636-37fb5727af66"},"vehicle_type_id":"4","last_reported":1685012738,"current_range_meters":21600,"station_id":"ce4bgs12rcd13ifvqcag","pricing_plan_id":"free"},{"bike_id":"745ee211-93a4-4bfb-abfe-eb025f8a5e1e","system_id":"levelo_inurba_marseille","lat":43.305368,"lon":5.367343,"is_reserved":false,"is_disabled":false,"rental_uris":{"android":"levelo://app?vid=745ee211-93a4-4bfb-abfe-eb025f8a5e1e","ios":"levelo://app?vid=745ee211-93a4-4bfb-abfe-eb025f8a5e1e"},"vehicle_type_id":"4","last_reported":1685012738,"current_range_meters":24000,"station_id":"ce4bgrp2rcd13ifvqc9g","pricing_plan_id":"free"},{"bike_id":"cdc1e4d5-c159-4a30-9df1-79b0384683d6","system_id":"levelo_inurba_marseille","lat":43.305714,"lon":5.365633,"is_reserved":false,"is_disabled":false,"rental_uris":{"android":"levelo://app?vid=cdc1e4d5-c159-4a30-9df1-79b0384683d6","ios":"levelo://app?vid=cdc1e4d5-c159-4a30-9df1-79b0384683d6"},"vehicle_type_id":"4","last_reported":1685012738,"current_range_meters":21200,"station_id":"ce4bgs12rcd13ifvqcag","pricing_plan_id":"free"},{"bike_id":"b23155bd-ac8f-434f-b5ad-ff3d9de593d8","system_id":"levelo_inurba_marseille","lat":43.305706,"lon":5.365654,"is_reserved":false,"is_disabled":false,"rental_uris":{"android":"levelo://app?vid=b23155bd-ac8f-434f-b5ad-ff3d9de593d8","ios":"levelo://app?vid=b23155bd-ac8f-434f-b5ad-ff3d9de593d8"},"vehicle_type_id":"4","last_reported":1685012738,"current_range_meters":26400,"station_id":"ce4bgs12rcd13ifvqcag","pricing_plan_id":"free"},{"bike_id":"c8294234-7bbc-4b49-9bda-3692db3ec19f","system_id":"levelo_inurba_marseille","lat":43.305368,"lon":5.367343,"is_reserved":false,"is_disabled":false,"rental_uris":{"android":"levelo://app?vid=c8294234-7bbc-4b49-9bda-3692db3ec19f","ios":"levelo://app?vid=c8294234-7bbc-4b49-9bda-3692db3ec19f"},"vehicle_type_id":"4","last_reported":1685012738,"current_range_meters":14800,"station_id":"ce4bgrp2rcd13ifvqc9g","pricing_plan_id":"free"},{"bike_id":"09ceac73-97db-4c6f-8d50-d2c4cf6d4faa","system_id":"levelo_inurba_marseille","lat":43.305706,"lon":5.365654,"is_reserved":false,"is_disabled":false,"rental_uris":{"android":"levelo://app?vid=09ceac73-97db-4c6f-8d50-d2c4cf6d4faa","ios":"levelo://app?vid=09ceac73-97db-4c6f-8d50-d2c4cf6d4faa"},"vehicle_type_id":"4","last_reported":1685012738,"current_range_meters":19600,"station_id":"ce4bgs12rcd13ifvqcag","pricing_plan_id":"free"},{"bike_id":"c90d46c6-b661-4a39-898c-edffff943bc4","system_id":"levelo_inurba_marseille","lat":43.305706,"lon":5.365654,"is_reserved":false,"is_disabled":false,"rental_uris":{"android":"levelo://app?vid=c90d46c6-b661-4a39-898c-edffff943bc4","ios":"levelo://app?vid=c90d46c6-b661-4a39-898c-edffff943bc4"},"vehicle_type_id":"4","last_reported":1685012738,"current_range_meters":23200,"station_id":"ce4bgs12rcd13ifvqcag","pricing_plan_id":"free"},{"bike_id":"f61d83f0-a44c-4f9f-ac1f-32df5151a940","system_id":"levelo_inurba_marseille","lat":43.305706,"lon":5.365654,"is_reserved":false,"is_disabled":false,"rental_uris":{"android":"levelo://app?vid=f61d83f0-a44c-4f9f-ac1f-32df5151a940","ios":"levelo://app?vid=f61d83f0-a44c-4f9f-ac1f-32df5151a940"},"vehicle_type_id":"4","last_reported":1685012738,"current_range_meters":25600,"station_id":"ce4bgs12rcd13ifvqcag","pricing_plan_id":"free"},{"bike_id":"d2572ef8-1392-48e4-a969-e484a0edd11e","system_id":"levelo_inurba_marseille","lat":43.305706,"lon":5.365654,"is_reserved":false,"is_disabled":false,"rental_uris":{"android":"levelo://app?vid=d2572ef8-1392-48e4-a969-e484a0edd11e","ios":"levelo://app?vid=d2572ef8-1392-48e4-a969-e484a0edd11e"},"vehicle_type_id":"4","last_reported":1685012738,"current_range_meters":25200,"station_id":"ce4bgs12rcd13ifvqcag","pricing_plan_id":"free"},{"bike_id":"b6855b1f-51d1-440e-8236-2a00d5254915","system_id":"levelo_inurba_marseille","lat":43.317075,"lon":5.377367,"is_reserved":false,"is_disabled":false,"rental_uris":{"android":"levelo://app?vid=b6855b1f-51d1-440e-8236-2a00d5254915","ios":"levelo://app?vid=b6855b1f-51d1-440e-8236-2a00d5254915"},"vehicle_type_id":"4","last_reported":1685012738,"current_range_meters":20000,"station_id":"ce4bgth2rcd13ifvqch0","pricing_plan_id":"free"},{"bike_id":"9131a18f-c97e-4447-9aba-a95bef5c80ae","system_id":"levelo_inurba_marseille","lat":43.317075,"lon":5.377367,"is_reserved":false,"is_disabled":false,"rental_uris":{"android":"levelo://app?vid=9131a18f-c97e-4447-9aba-a95bef5c80ae","ios":"levelo://app?vid=9131a18f-c97e-4447-9aba-a95bef5c80ae"},"vehicle_type_id":"4","last_reported":1685012738,"current_range_meters":29200,"station_id":"ce4bgth2rcd13ifvqch0","pricing_plan_id":"free"},{"bike_id":"16e7282a-4eed-47c3-83b3-d7e0dee6c006","system_id":"levelo_inurba_marseille","lat":43.317075,"lon":5.377367,"is_reserved":false,"is_disabled":false,"rental_uris":{"android":"levelo://app?vid=16e7282a-4eed-47c3-83b3-d7e0dee6c006","ios":"levelo://app?vid=16e7282a-4eed-47c3-83b3-d7e0dee6c006"},"vehicle_type_id":"4","last_reported":1685012738,"current_range_meters":22800,"station_id":"ce4bgth2rcd13ifvqch0","pricing_plan_id":"free"},{"bike_id":"2ab4639f-70ee-4cae-8aea-667b4c6c63d0","system_id":"levelo_inurba_marseille","lat":43.317075,"lon":5.377367,"is_reserved":false,"is_disabled":false,"rental_uris":{"android":"levelo://app?vid=2ab4639f-70ee-4cae-8aea-667b4c6c63d0","ios":"levelo://app?vid=2ab4639f-70ee-4cae-8aea-667b4c6c63d0"},"vehicle_type_id":"4","last_reported":1685012738,"current_range_meters":18000,"station_id":"ce4bgth2rcd13ifvqch0","pricing_plan_id":"free"},{"bike_id":"8945841a-7770-487f-a018-37b5826c7149","system_id":"levelo_inurba_marseille","lat":43.317075,"lon":5.377367,"is_reserved":false,"is_disabled":false,"rental_uris":{"android":"levelo://app?vid=8945841a-7770-487f-a018-37b5826c7149","ios":"levelo://app?vid=8945841a-7770-487f-a018-37b5826c7149"},"vehicle_type_id":"4","last_reported":1685012738,"current_range_meters":24800,"station_id":"ce4bgth2rcd13ifvqch0","pricing_plan_id":"free"},{"bike_id":"1e3654da-4ca8-4941-8c9e-d7ae66415c19","system_id":"levelo_inurba_marseille","lat":43.317075,"lon":5.377367,"is_reserved":false,"is_disabled":false,"rental_uris":{"android":"levelo://app?vid=1e3654da-4ca8-4941-8c9e-d7ae66415c19","ios":"levelo://app?vid=1e3654da-4ca8-4941-8c9e-d7ae66415c19"},"vehicle_type_id":"4","last_reported":1685012738,"current_range_meters":21600,"station_id":"ce4bgth2rcd13ifvqch0","pricing_plan_id":"free"},{"bike_id":"e0c120af-edda-495a-af40-15fcc09948cc","system_id":"levelo_inurba_marseille","lat":43.317075,"lon":5.377367,"is_reserved":false,"is_disabled":false,"rental_uris":{"android":"levelo://app?vid=e0c120af-edda-495a-af40-15fcc09948cc","ios":"levelo://app?vid=e0c120af-edda-495a-af40-15fcc09948cc"},"vehicle_type_id":"4","last_reported":1685012738,"current_range_meters":28800,"station_id":"ce4bgth2rcd13ifvqch0","pricing_plan_id":"free"},{"bike_id":"68553df9-2b4c-4244-a834-2447f191355a","system_id":"levelo_inurba_marseille","lat":43.317075,"lon":5.377367,"is_reserved":false,"is_disabled":false,"rental_uris":{"android":"levelo://app?vid=68553df9-2b4c-4244-a834-2447f191355a","ios":"levelo://app?vid=68553df9-2b4c-4244-a834-2447f191355a"},"vehicle_type_id":"4","last_reported":1685012738,"current_range_meters":7200,"station_id":"ce4bgth2rcd13ifvqch0","pricing_plan_id":"free"},{"bike_id":"3022569d-6af5-45bd-8997-a0f8c384be8e","system_id":"levelo_inurba_marseille","lat":43.317075,"lon":5.377367,"is_reserved":false,"is_disabled":false,"rental_uris":{"android":"levelo://app?vid=3022569d-6af5-45bd-8997-a0f8c384be8e","ios":"levelo://app?vid=3022569d-6af5-45bd-8997-a0f8c384be8e"},"vehicle_type_id":"4","last_reported":1685012738,"current_range_meters":24400,"station_id":"ce4bgth2rcd13ifvqch0","pricing_plan_id":"free"},{"bike_id":"8d3b898a-41aa-4f28-b1a2-33ce656ae17f","system_id":"levelo_inurba_marseille","lat":43.317075,"lon":5.377367,"is_reserved":false,"is_disabled":false,"rental_uris":{"android":"levelo://app?vid=8d3b898a-41aa-4f28-b1a2-33ce656ae17f","ios":"levelo://app?vid=8d3b898a-41aa-4f28-b1a2-33ce656ae17f"},"vehicle_type_id":"4","last_reported":1685012738,"current_range_meters":23600,"station_id":"ce4bgth2rcd13ifvqch0","pricing_plan_id":"free"},{"bike_id":"fd38c318-e10c-4ea0-8386-140691495f8d","system_id":"levelo_inurba_marseille","lat":43.31713,"lon":5.37832,"is_reserved":false,"is_disabled":false,"rental_uris":{"android":"levelo://app?vid=fd38c318-e10c-4ea0-8386-140691495f8d","ios":"levelo://app?vid=fd38c318-e10c-4ea0-8386-140691495f8d"},"vehicle_type_id":"4","last_reported":1685012738,"current_range_meters":28800,"station_id":"","pricing_plan_id":"free"},{"bike_id":"46bd889a-1f3e-44cc-8c6b-967ad64473d0","system_id":"levelo_inurba_marseille","lat":43.30304,"lon":5.368987,"is_reserved":false,"is_disabled":false,"rental_uris":{"android":"levelo://app?vid=46bd889a-1f3e-44cc-8c6b-967ad64473d0","ios":"levelo://app?vid=46bd889a-1f3e-44cc-8c6b-967ad64473d0"},"vehicle_type_id":"4","last_reported":1685012738,"current_range_meters":26800,"station_id":"ce4bgqh2rcd13ifvqc5g","pricing_plan_id":"free"},{"bike_id":"b3ec09bc-7d4b-4dab-9ebc-859ea8380bb4","system_id":"levelo_inurba_marseille","lat":43.303046,"lon":5.368981,"is_reserved":false,"is_disabled":false,"rental_uris":{"android":"levelo://app?vid=b3ec09bc-7d4b-4dab-9ebc-859ea8380bb4","ios":"levelo://app?vid=b3ec09bc-7d4b-4dab-9ebc-859ea8380bb4"},"vehicle_type_id":"4","last_reported":1685012738,"current_range_meters":23600,"station_id":"ce4bgqh2rcd13ifvqc5g","pricing_plan_id":"free"},{"bike_id":"a4cd93eb-4e84-49a9-841f-3abb3029375f","system_id":"levelo_inurba_marseille","lat":43.303046,"lon":5.368981,"is_reserved":false,"is_disabled":false,"rental_uris":{"android":"levelo://app?vid=a4cd93eb-4e84-49a9-841f-3abb3029375f","ios":"levelo://app?vid=a4cd93eb-4e84-49a9-841f-3abb3029375f"},"vehicle_type_id":"4","last_reported":1685012738,"current_range_meters":24800,"station_id":"ce4bgqh2rcd13ifvqc5g","pricing_plan_id":"free"},{"bike_id":"0e65853c-55a8-4264-bdc8-5eb660105653","system_id":"levelo_inurba_marseille","lat":43.315289,"lon":5.380349,"is_reserved":false,"is_disabled":false,"rental_uris":{"android":"levelo://app?vid=0e65853c-55a8-4264-bdc8-5eb660105653","ios":"levelo://app?vid=0e65853c-55a8-4264-bdc8-5eb660105653"},"vehicle_type_id":"4","last_reported":1685012738,"current_range_meters":14000,"station_id":"ce4bhsp2rcd13ifvqi50","pricing_plan_id":"free"},{"bike_id":"d89317e6-0268-4af2-bc1f-65ba3e57a063","system_id":"levelo_inurba_marseille","lat":43.31526,"lon":5.38026,"is_reserved":false,"is_disabled":false,"rental_uris":{"android":"levelo://app?vid=d89317e6-0268-4af2-bc1f-65ba3e57a063","ios":"levelo://app?vid=d89317e6-0268-4af2-bc1f-65ba3e57a063"},"vehicle_type_id":"4","last_reported":1685012738,"current_range_meters":31600,"station_id":"ce4bhsp2rcd13ifvqi50","pricing_plan_id":"free"},{"bike_id":"e6d095ef-2b84-4614-9036-dcde0d40e77b","system_id":"levelo_inurba_marseille","lat":43.315289,"lon":5.380349,"is_reserved":false,"is_disabled":false,"rental_uris":{"android":"levelo://app?vid=e6d095ef-2b84-4614-9036-dcde0d40e77b","ios":"levelo://app?vid=e6d095ef-2b84-4614-9036-dcde0d40e77b"},"vehicle_type_id":"4","last_reported":1685012738,"current_range_meters":31600,"station_id":"ce4bhsp2rcd13ifvqi50","pricing_plan_id":"free"},{"bike_id":"b7409f09-2a8a-4570-aae9-bdb6db678b58","system_id":"levelo_inurba_marseille","lat":43.315289,"lon":5.380349,"is_reserved":false,"is_disabled":false,"rental_uris":{"android":"levelo://app?vid=b7409f09-2a8a-4570-aae9-bdb6db678b58","ios":"levelo://app?vid=b7409f09-2a8a-4570-aae9-bdb6db678b58"},"vehicle_type_id":"4","last_reported":1685012738,"current_range_meters":17600,"station_id":"ce4bhsp2rcd13ifvqi50","pricing_plan_id":"free"},{"bike_id":"5667468a-befa-4d46-9e08-82371f38a1ba","system_id":"levelo_inurba_marseille","lat":43.31536,"lon":5.38041,"is_reserved":false,"is_disabled":false,"rental_uris":{"android":"levelo://app?vid=5667468a-befa-4d46-9e08-82371f38a1ba","ios":"levelo://app?vid=5667468a-befa-4d46-9e08-82371f38a1ba"},"vehicle_type_id":"4","last_reported":1685012738,"current_range_meters":27200,"station_id":"ce4bhsp2rcd13ifvqi50","pricing_plan_id":"free"},{"bike_id":"2ecab5ee-11c3-4b96-b1a2-04cf358dfa1a","system_id":"levelo_inurba_marseille","lat":43.301939,"lon":5.366286,"is_reserved":false,"is_disabled":false,"rental_uris":{"android":"levelo://app?vid=2ecab5ee-11c3-4b96-b1a2-04cf358dfa1a","ios":"levelo://app?vid=2ecab5ee-11c3-4b96-b1a2-04cf358dfa1a"},"vehicle_type_id":"4","last_reported":1685012738,"current_range_meters":26000,"station_id":"ce4bgrh2rcd13ifvqc8g","pricing_plan_id":"free"},{"bike_id":"1c46bc6b-3dcc-4388-bf8d-3fee885fe07f","system_id":"levelo_inurba_marseille","lat":43.301939,"lon":5.366286,"is_reserved":false,"is_disabled":false,"rental_uris":{"android":"levelo://app?vid=1c46bc6b-3dcc-4388-bf8d-3fee885fe07f","ios":"levelo://app?vid=1c46bc6b-3dcc-4388-bf8d-3fee885fe07f"},"vehicle_type_id":"4","last_reported":1685012738,"current_range_meters":27600,"station_id":"ce4bgrh2rcd13ifvqc8g","pricing_plan_id":"free"},{"bike_id":"5c40c2a5-acc6-4c7e-943d-afbd0e72674f","system_id":"levelo_inurba_marseille","lat":43.308012,"lon":5.381511,"is_reserved":false,"is_disabled":false,"rental_uris":{"android":"levelo://app?vid=5c40c2a5-acc6-4c7e-943d-afbd0e72674f","ios":"levelo://app?vid=5c40c2a5-acc6-4c7e-943d-afbd0e72674f"},"vehicle_type_id":"4","last_reported":1685012738,"current_range_meters":20000,"station_id":"ce4bgt12rcd13ifvqce0","pricing_plan_id":"free"},{"bike_id":"fec61e95-eee6-47da-bb41-60634a74c235","system_id":"levelo_inurba_marseille","lat":43.304606,"lon":5.379026,"is_reserved":false,"is_disabled":false,"rental_uris":{"android":"levelo://app?vid=fec61e95-eee6-47da-bb41-60634a74c235","ios":"levelo://app?vid=fec61e95-eee6-47da-bb41-60634a74c235"},"vehicle_type_id":"4","last_reported":1685012738,"current_range_meters":32000,"station_id":"ce4bgup2rcd13ifvqcn0","pricing_plan_id":"free"},{"bike_id":"d91d74fb-f6d4-4a20-8e52-3d25c1e8f3ae","system_id":"levelo_inurba_marseille","lat":43.304606,"lon":5.379026,"is_reserved":false,"is_disabled":false,"rental_uris":{"android":"levelo://app?vid=d91d74fb-f6d4-4a20-8e52-3d25c1e8f3ae","ios":"levelo://app?vid=d91d74fb-f6d4-4a20-8e52-3d25c1e8f3ae"},"vehicle_type_id":"4","last_reported":1685012738,"current_range_meters":31600,"station_id":"ce4bgup2rcd13ifvqcn0","pricing_plan_id":"free"},{"bike_id":"cb79e689-3bb0-430f-95c7-107aeee7d1fc","system_id":"levelo_inurba_marseille","lat":43.304606,"lon":5.379026,"is_reserved":false,"is_disabled":false,"rental_uris":{"android":"levelo://app?vid=cb79e689-3bb0-430f-95c7-107aeee7d1fc","ios":"levelo://app?vid=cb79e689-3bb0-430f-95c7-107aeee7d1fc"},"vehicle_type_id":"4","last_reported":1685012738,"current_range_meters":31600,"station_id":"ce4bgup2rcd13ifvqcn0","pricing_plan_id":"free"},{"bike_id":"085969f1-3ddd-4d93-9085-a124dd44320f","system_id":"levelo_inurba_marseille","lat":43.30469,"lon":5.37895,"is_reserved":false,"is_disabled":false,"rental_uris":{"android":"levelo://app?vid=085969f1-3ddd-4d93-9085-a124dd44320f","ios":"levelo://app?vid=085969f1-3ddd-4d93-9085-a124dd44320f"},"vehicle_type_id":"4","last_reported":1685012738,"current_range_meters":17600,"station_id":"ce4bgup2rcd13ifvqcn0","pricing_plan_id":"free"},{"bike_id":"729ec42e-599d-4794-a350-cc672288239d","system_id":"levelo_inurba_marseille","lat":43.30471,"lon":5.37901,"is_reserved":false,"is_disabled":false,"rental_uris":{"android":"levelo://app?vid=729ec42e-599d-4794-a350-cc672288239d","ios":"levelo://app?vid=729ec42e-599d-4794-a350-cc672288239d"},"vehicle_type_id":"4","last_reported":1685012738,"current_range_meters":4000,"station_id":"ce4bgup2rcd13ifvqcn0","pricing_plan_id":"free"},{"bike_id":"f597d245-5484-40fd-a94e-c732fabf651b","system_id":"levelo_inurba_marseille","lat":43.304606,"lon":5.379026,"is_reserved":false,"is_disabled":false,"rental_uris":{"android":"levelo://app?vid=f597d245-5484-40fd-a94e-c732fabf651b","ios":"levelo://app?vid=f597d245-5484-40fd-a94e-c732fabf651b"},"vehicle_type_id":"4","last_reported":1685012738,"current_range_meters":23200,"station_id":"ce4bgup2rcd13ifvqcn0","pricing_plan_id":"free"},{"bike_id":"cf2f3eb4-6f4f-4a50-b605-72765a8ff72b","system_id":"levelo_inurba_marseille","lat":43.304606,"lon":5.379026,"is_reserved":false,"is_disabled":false,"rental_uris":{"android":"levelo://app?vid=cf2f3eb4-6f4f-4a50-b605-72765a8ff72b","ios":"levelo://app?vid=cf2f3eb4-6f4f-4a50-b605-72765a8ff72b"},"vehicle_type_id":"4","last_reported":1685012738,"current_range_meters":30800,"station_id":"ce4bgup2rcd13ifvqcn0","pricing_plan_id":"free"},{"bike_id":"a50db0b2-81dd-478f-918a-2962e53808ad","system_id":"levelo_inurba_marseille","lat":43.304606,"lon":5.379026,"is_reserved":false,"is_disabled":false,"rental_uris":{"android":"levelo://app?vid=a50db0b2-81dd-478f-918a-2962e53808ad","ios":"levelo://app?vid=a50db0b2-81dd-478f-918a-2962e53808ad"},"vehicle_type_id":"4","last_reported":1685012738,"current_range_meters":1200,"station_id":"ce4bgup2rcd13ifvqcn0","pricing_plan_id":"free"},{"bike_id":"4a04b2b5-e6b7-4dde-a6fa-a015924ab68d","system_id":"levelo_inurba_marseille","lat":43.30465,"lon":5.37899,"is_reserved":false,"is_disabled":false,"rental_uris":{"android":"levelo://app?vid=4a04b2b5-e6b7-4dde-a6fa-a015924ab68d","ios":"levelo://app?vid=4a04b2b5-e6b7-4dde-a6fa-a015924ab68d"},"vehicle_type_id":"4","last_reported":1685012738,"current_range_meters":31200,"station_id":"ce4bgup2rcd13ifvqcn0","pricing_plan_id":"free"},{"bike_id":"c95c124c-90ad-4b4a-bbbc-da3d70626f4a","system_id":"levelo_inurba_marseille","lat":43.30458,"lon":5.37891,"is_reserved":false,"is_disabled":false,"rental_uris":{"android":"levelo://app?vid=c95c124c-90ad-4b4a-bbbc-da3d70626f4a","ios":"levelo://app?vid=c95c124c-90ad-4b4a-bbbc-da3d70626f4a"},"vehicle_type_id":"4","last_reported":1685012738,"current_range_meters":20400,"station_id":"ce4bgup2rcd13ifvqcn0","pricing_plan_id":"free"},{"bike_id":"9b0e13c2-50fc-40f3-a4b1-165ec841fc11","system_id":"levelo_inurba_marseille","lat":43.30469,"lon":5.37907,"is_reserved":false,"is_disabled":false,"rental_uris":{"android":"levelo://app?vid=9b0e13c2-50fc-40f3-a4b1-165ec841fc11","ios":"levelo://app?vid=9b0e13c2-50fc-40f3-a4b1-165ec841fc11"},"vehicle_type_id":"4","last_reported":1685012738,"current_range_meters":22400,"station_id":"ce4bgup2rcd13ifvqcn0","pricing_plan_id":"free"},{"bike_id":"0d182200-5941-408f-91ef-0f874f5b46d5","system_id":"levelo_inurba_marseille","lat":43.30462,"lon":5.37899,"is_reserved":false,"is_disabled":false,"rental_uris":{"android":"levelo://app?vid=0d182200-5941-408f-91ef-0f874f5b46d5","ios":"levelo://app?vid=0d182200-5941-408f-91ef-0f874f5b46d5"},"vehicle_type_id":"4","last_reported":1685012738,"current_range_meters":20400,"station_id":"ce4bgup2rcd13ifvqcn0","pricing_plan_id":"free"},{"bike_id":"863823a4-040e-4915-82fe-a0802a7b9745","system_id":"levelo_inurba_marseille","lat":43.30463,"lon":5.37901,"is_reserved":false,"is_disabled":false,"rental_uris":{"android":"levelo://app?vid=863823a4-040e-4915-82fe-a0802a7b9745","ios":"levelo://app?vid=863823a4-040e-4915-82fe-a0802a7b9745"},"vehicle_type_id":"4","last_reported":1685012738,"current_range_meters":22800,"station_id":"ce4bgup2rcd13ifvqcn0","pricing_plan_id":"free"},{"bike_id":"4e814b18-bd40-456c-8834-f45cc5994bd7","system_id":"levelo_inurba_marseille","lat":43.304606,"lon":5.379026,"is_reserved":false,"is_disabled":false,"rental_uris":{"android":"levelo://app?vid=4e814b18-bd40-456c-8834-f45cc5994bd7","ios":"levelo://app?vid=4e814b18-bd40-456c-8834-f45cc5994bd7"},"vehicle_type_id":"4","last_reported":1685012738,"current_range_meters":28800,"station_id":"ce4bgup2rcd13ifvqcn0","pricing_plan_id":"free"},{"bike_id":"7ef50207-6d47-435a-8ead-8b21a651be3c","system_id":"levelo_inurba_marseille","lat":43.304646,"lon":5.379035,"is_reserved":false,"is_disabled":false,"rental_uris":{"android":"levelo://app?vid=7ef50207-6d47-435a-8ead-8b21a651be3c","ios":"levelo://app?vid=7ef50207-6d47-435a-8ead-8b21a651be3c"},"vehicle_type_id":"4","last_reported":1685012738,"current_range_meters":15600,"station_id":"","pricing_plan_id":"free"},{"bike_id":"fb8b5732-fa72-4b2a-99f6-b19b6f61e809","system_id":"levelo_inurba_marseille","lat":43.3046,"lon":5.37898,"is_reserved":false,"is_disabled":false,"rental_uris":{"android":"levelo://app?vid=fb8b5732-fa72-4b2a-99f6-b19b6f61e809","ios":"levelo://app?vid=fb8b5732-fa72-4b2a-99f6-b19b6f61e809"},"vehicle_type_id":"4","last_reported":1685012738,"current_range_meters":21200,"station_id":"ce4bgup2rcd13ifvqcn0","pricing_plan_id":"free"},{"bike_id":"7c8e47f6-8e85-4c65-be72-08727df199da","system_id":"levelo_inurba_marseille","lat":43.304606,"lon":5.379026,"is_reserved":false,"is_disabled":false,"rental_uris":{"android":"levelo://app?vid=7c8e47f6-8e85-4c65-be72-08727df199da","ios":"levelo://app?vid=7c8e47f6-8e85-4c65-be72-08727df199da"},"vehicle_type_id":"4","last_reported":1685012738,"current_range_meters":31200,"station_id":"ce4bgup2rcd13ifvqcn0","pricing_plan_id":"free"},{"bike_id":"b61a68e2-6000-4bdb-9bc4-3598198ea889","system_id":"levelo_inurba_marseille","lat":43.30467,"lon":5.37908,"is_reserved":false,"is_disabled":false,"rental_uris":{"android":"levelo://app?vid=b61a68e2-6000-4bdb-9bc4-3598198ea889","ios":"levelo://app?vid=b61a68e2-6000-4bdb-9bc4-3598198ea889"},"vehicle_type_id":"4","last_reported":1685012738,"current_range_meters":22000,"station_id":"ce4bgup2rcd13ifvqcn0","pricing_plan_id":"free"},{"bike_id":"c60ca167-7b47-4028-a0d1-db8c68845f79","system_id":"levelo_inurba_marseille","lat":43.30466,"lon":5.37907,"is_reserved":false,"is_disabled":false,"rental_uris":{"android":"levelo://app?vid=c60ca167-7b47-4028-a0d1-db8c68845f79","ios":"levelo://app?vid=c60ca167-7b47-4028-a0d1-db8c68845f79"},"vehicle_type_id":"4","last_reported":1685012738,"current_range_meters":22000,"station_id":"ce4bgup2rcd13ifvqcn0","pricing_plan_id":"free"},{"bike_id":"7395c332-0b22-4349-8d13-fd8e52e63d93","system_id":"levelo_inurba_marseille","lat":43.304606,"lon":5.379026,"is_reserved":false,"is_disabled":false,"rental_uris":{"android":"levelo://app?vid=7395c332-0b22-4349-8d13-fd8e52e63d93","ios":"levelo://app?vid=7395c332-0b22-4349-8d13-fd8e52e63d93"},"vehicle_type_id":"4","last_reported":1685012738,"current_range_meters":22000,"station_id":"ce4bgup2rcd13ifvqcn0","pricing_plan_id":"free"},{"bike_id":"94f072e2-85ff-4596-bbb0-710894775dab","system_id":"levelo_inurba_marseille","lat":43.30463,"lon":5.37904,"is_reserved":false,"is_disabled":false,"rental_uris":{"android":"levelo://app?vid=94f072e2-85ff-4596-bbb0-710894775dab","ios":"levelo://app?vid=94f072e2-85ff-4596-bbb0-710894775dab"},"vehicle_type_id":"4","last_reported":1685012738,"current_range_meters":26000,"station_id":"ce4bgup2rcd13ifvqcn0","pricing_plan_id":"free"},{"bike_id":"bbbfc76f-0981-452d-9331-e387301d3fdd","system_id":"levelo_inurba_marseille","lat":43.304606,"lon":5.379026,"is_reserved":false,"is_disabled":false,"rental_uris":{"android":"levelo://app?vid=bbbfc76f-0981-452d-9331-e387301d3fdd","ios":"levelo://app?vid=bbbfc76f-0981-452d-9331-e387301d3fdd"},"vehicle_type_id":"4","last_reported":1685012738,"current_range_meters":17200,"station_id":"ce4bgup2rcd13ifvqcn0","pricing_plan_id":"free"},{"bike_id":"5a7a7e37-5a2a-43b9-b38c-6cfc67fb7f20","system_id":"levelo_inurba_marseille","lat":43.304606,"lon":5.379026,"is_reserved":false,"is_disabled":false,"rental_uris":{"android":"levelo://app?vid=5a7a7e37-5a2a-43b9-b38c-6cfc67fb7f20","ios":"levelo://app?vid=5a7a7e37-5a2a-43b9-b38c-6cfc67fb7f20"},"vehicle_type_id":"4","last_reported":1685012738,"current_range_meters":31600,"station_id":"ce4bgup2rcd13ifvqcn0","pricing_plan_id":"free"},{"bike_id":"c2753820-8c3f-4b36-b195-3fbd1d1d7104","system_id":"levelo_inurba_marseille","lat":43.30465,"lon":5.37909,"is_reserved":false,"is_disabled":false,"rental_uris":{"android":"levelo://app?vid=c2753820-8c3f-4b36-b195-3fbd1d1d7104","ios":"levelo://app?vid=c2753820-8c3f-4b36-b195-3fbd1d1d7104"},"vehicle_type_id":"4","last_reported":1685012738,"current_range_meters":23600,"station_id":"ce4bgup2rcd13ifvqcn0","pricing_plan_id":"free"},{"bike_id":"c55ca39e-0e57-4098-bcf7-7ef12d439714","system_id":"levelo_inurba_marseille","lat":43.304606,"lon":5.379026,"is_reserved":false,"is_disabled":false,"rental_uris":{"android":"levelo://app?vid=c55ca39e-0e57-4098-bcf7-7ef12d439714","ios":"levelo://app?vid=c55ca39e-0e57-4098-bcf7-7ef12d439714"},"vehicle_type_id":"4","last_reported":1685012738,"current_range_meters":30000,"station_id":"ce4bgup2rcd13ifvqcn0","pricing_plan_id":"free"},{"bike_id":"89baf52f-062e-470a-bd90-f63134490c8f","system_id":"levelo_inurba_marseille","lat":43.30147,"lon":5.37408,"is_reserved":false,"is_disabled":false,"rental_uris":{"android":"levelo://app?vid=89baf52f-062e-470a-bd90-f63134490c8f","ios":"levelo://app?vid=89baf52f-062e-470a-bd90-f63134490c8f"},"vehicle_type_id":"4","last_reported":1685012738,"current_range_meters":3600,"station_id":"","pricing_plan_id":"free"},{"bike_id":"db7b5ba3-3a4c-4254-883f-baced38456b7","system_id":"levelo_inurba_marseille","lat":43.30142,"lon":5.37425,"is_reserved":false,"is_disabled":false,"rental_uris":{"android":"levelo://app?vid=db7b5ba3-3a4c-4254-883f-baced38456b7","ios":"levelo://app?vid=db7b5ba3-3a4c-4254-883f-baced38456b7"},"vehicle_type_id":"4","last_reported":1685012738,"current_range_meters":22800,"station_id":"","pricing_plan_id":"free"},{"bike_id":"88715556-756f-4e5d-a278-e51ab229bcd6","system_id":"levelo_inurba_marseille","lat":43.30132,"lon":5.37429,"is_reserved":false,"is_disabled":false,"rental_uris":{"android":"levelo://app?vid=88715556-756f-4e5d-a278-e51ab229bcd6","ios":"levelo://app?vid=88715556-756f-4e5d-a278-e51ab229bcd6"},"vehicle_type_id":"4","last_reported":1685012738,"current_range_meters":30400,"station_id":"","pricing_plan_id":"free"},{"bike_id":"ec2bf9d8-bdcd-4d00-823b-5e25cb80cc6b","system_id":"levelo_inurba_marseille","lat":43.319935,"lon":5.381699,"is_reserved":false,"is_disabled":false,"rental_uris":{"android":"levelo://app?vid=ec2bf9d8-bdcd-4d00-823b-5e25cb80cc6b","ios":"levelo://app?vid=ec2bf9d8-bdcd-4d00-823b-5e25cb80cc6b"},"vehicle_type_id":"4","last_reported":1685012738,"current_range_meters":31200,"station_id":"ce4bhr12rcd13ifvqhpg","pricing_plan_id":"free"},{"bike_id":"bfdcad51-97fc-4fc5-8b82-c545596782cd","system_id":"levelo_inurba_marseille","lat":43.319935,"lon":5.381699,"is_reserved":false,"is_disabled":false,"rental_uris":{"android":"levelo://app?vid=bfdcad51-97fc-4fc5-8b82-c545596782cd","ios":"levelo://app?vid=bfdcad51-97fc-4fc5-8b82-c545596782cd"},"vehicle_type_id":"4","last_reported":1685012738,"current_range_meters":31200,"station_id":"ce4bhr12rcd13ifvqhpg","pricing_plan_id":"free"},{"bike_id":"530a238a-2fe4-4ada-b174-d32325afbdf2","system_id":"levelo_inurba_marseille","lat":43.31995,"lon":5.38149,"is_reserved":false,"is_disabled":false,"rental_uris":{"android":"levelo://app?vid=530a238a-2fe4-4ada-b174-d32325afbdf2","ios":"levelo://app?vid=530a238a-2fe4-4ada-b174-d32325afbdf2"},"vehicle_type_id":"4","last_reported":1685012738,"current_range_meters":30400,"station_id":"ce4bhr12rcd13ifvqhpg","pricing_plan_id":"free"},{"bike_id":"e5571f58-adb6-49b7-8c86-2d757ae8e1a0","system_id":"levelo_inurba_marseille","lat":43.319935,"lon":5.381699,"is_reserved":false,"is_disabled":false,"rental_uris":{"android":"levelo://app?vid=e5571f58-adb6-49b7-8c86-2d757ae8e1a0","ios":"levelo://app?vid=e5571f58-adb6-49b7-8c86-2d757ae8e1a0"},"vehicle_type_id":"4","last_reported":1685012738,"current_range_meters":22800,"station_id":"ce4bhr12rcd13ifvqhpg","pricing_plan_id":"free"},{"bike_id":"0d8c7cdb-342a-483d-8084-83a1b19c465c","system_id":"levelo_inurba_marseille","lat":43.31993,"lon":5.38167,"is_reserved":false,"is_disabled":false,"rental_uris":{"android":"levelo://app?vid=0d8c7cdb-342a-483d-8084-83a1b19c465c","ios":"levelo://app?vid=0d8c7cdb-342a-483d-8084-83a1b19c465c"},"vehicle_type_id":"4","last_reported":1685012738,"current_range_meters":24400,"station_id":"","pricing_plan_id":"free"},{"bike_id":"5ac2fe43-85c7-472b-b3f7-4192c6da01ce","system_id":"levelo_inurba_marseille","lat":43.320076,"lon":5.381696,"is_reserved":false,"is_disabled":false,"rental_uris":{"android":"levelo://app?vid=5ac2fe43-85c7-472b-b3f7-4192c6da01ce","ios":"levelo://app?vid=5ac2fe43-85c7-472b-b3f7-4192c6da01ce"},"vehicle_type_id":"4","last_reported":1685012738,"current_range_meters":21600,"station_id":"","pricing_plan_id":"free"},{"bike_id":"3e96d812-4a85-4a74-91a9-2cfb6a122e6e","system_id":"levelo_inurba_marseille","lat":43.313571,"lon":5.384829,"is_reserved":false,"is_disabled":false,"rental_uris":{"android":"levelo://app?vid=3e96d812-4a85-4a74-91a9-2cfb6a122e6e","ios":"levelo://app?vid=3e96d812-4a85-4a74-91a9-2cfb6a122e6e"},"vehicle_type_id":"4","last_reported":1685012738,"current_range_meters":27600,"station_id":"ce4bgt92rcd13ifvqcf0","pricing_plan_id":"free"},{"bike_id":"d4b0c2b6-4e7a-43aa-b1a1-ee583cc5e17a","system_id":"levelo_inurba_marseille","lat":43.313571,"lon":5.384829,"is_reserved":false,"is_disabled":false,"rental_uris":{"android":"levelo://app?vid=d4b0c2b6-4e7a-43aa-b1a1-ee583cc5e17a","ios":"levelo://app?vid=d4b0c2b6-4e7a-43aa-b1a1-ee583cc5e17a"},"vehicle_type_id":"4","last_reported":1685012738,"current_range_meters":29200,"station_id":"ce4bgt92rcd13ifvqcf0","pricing_plan_id":"free"},{"bike_id":"d51cd496-b9dd-47df-85d7-684a83175422","system_id":"levelo_inurba_marseille","lat":43.29934,"lon":5.36536,"is_reserved":false,"is_disabled":false,"rental_uris":{"android":"levelo://app?vid=d51cd496-b9dd-47df-85d7-684a83175422","ios":"levelo://app?vid=d51cd496-b9dd-47df-85d7-684a83175422"},"vehicle_type_id":"4","last_reported":1685012738,"current_range_meters":0,"station_id":"ce4bgm92rcd13ifvqbr0","pricing_plan_id":"free"},{"bike_id":"f82d7f5a-31d5-4a32-bcfc-1069af242e0f","system_id":"levelo_inurba_marseille","lat":43.298433,"lon":5.362774,"is_reserved":false,"is_disabled":false,"rental_uris":{"android":"levelo://app?vid=f82d7f5a-31d5-4a32-bcfc-1069af242e0f","ios":"levelo://app?vid=f82d7f5a-31d5-4a32-bcfc-1069af242e0f"},"vehicle_type_id":"4","last_reported":1685012738,"current_range_meters":23200,"station_id":"ce4bgpp2rcd13ifvqc3g","pricing_plan_id":"free"},{"bike_id":"b56ea11b-7c7e-42c7-9937-13717277099d","system_id":"levelo_inurba_marseille","lat":43.299243,"lon":5.37481,"is_reserved":false,"is_disabled":false,"rental_uris":{"android":"levelo://app?vid=b56ea11b-7c7e-42c7-9937-13717277099d","ios":"levelo://app?vid=b56ea11b-7c7e-42c7-9937-13717277099d"},"vehicle_type_id":"4","last_reported":1685012738,"current_range_meters":15600,"station_id":"ce4bgjh2rcd13ifvqbg0","pricing_plan_id":"free"},{"bike_id":"5b682101-7ff0-4ff5-a5e2-115089a7439e","system_id":"levelo_inurba_marseille","lat":43.298433,"lon":5.362774,"is_reserved":false,"is_disabled":false,"rental_uris":{"android":"levelo://app?vid=5b682101-7ff0-4ff5-a5e2-115089a7439e","ios":"levelo://app?vid=5b682101-7ff0-4ff5-a5e2-115089a7439e"},"vehicle_type_id":"4","last_reported":1685012738,"current_range_meters":30000,"station_id":"ce4bgpp2rcd13ifvqc3g","pricing_plan_id":"free"},{"bike_id":"1ab28f2d-1c64-4b41-884e-6da4beff208f","system_id":"levelo_inurba_marseille","lat":43.298433,"lon":5.362774,"is_reserved":false,"is_disabled":false,"rental_uris":{"android":"levelo://app?vid=1ab28f2d-1c64-4b41-884e-6da4beff208f","ios":"levelo://app?vid=1ab28f2d-1c64-4b41-884e-6da4beff208f"},"vehicle_type_id":"4","last_reported":1685012738,"current_range_meters":31600,"station_id":"ce4bgpp2rcd13ifvqc3g","pricing_plan_id":"free"},{"bike_id":"8ca42f57-3cdb-411a-949f-28587ebd135b","system_id":"levelo_inurba_marseille","lat":43.298433,"lon":5.362774,"is_reserved":false,"is_disabled":false,"rental_uris":{"android":"levelo://app?vid=8ca42f57-3cdb-411a-949f-28587ebd135b","ios":"levelo://app?vid=8ca42f57-3cdb-411a-949f-28587ebd135b"},"vehicle_type_id":"4","last_reported":1685012738,"current_range_meters":30800,"station_id":"ce4bgpp2rcd13ifvqc3g","pricing_plan_id":"free"},{"bike_id":"96aeed43-1ddb-4ecc-94a8-cd2e3f3d5419","system_id":"levelo_inurba_marseille","lat":43.298433,"lon":5.362774,"is_reserved":false,"is_disabled":false,"rental_uris":{"android":"levelo://app?vid=96aeed43-1ddb-4ecc-94a8-cd2e3f3d5419","ios":"levelo://app?vid=96aeed43-1ddb-4ecc-94a8-cd2e3f3d5419"},"vehicle_type_id":"4","last_reported":1685012738,"current_range_meters":30800,"station_id":"ce4bgpp2rcd13ifvqc3g","pricing_plan_id":"free"},{"bike_id":"13e239ae-4297-41ec-8609-a7d2f7022bde","system_id":"levelo_inurba_marseille","lat":43.298433,"lon":5.362774,"is_reserved":false,"is_disabled":false,"rental_uris":{"android":"levelo://app?vid=13e239ae-4297-41ec-8609-a7d2f7022bde","ios":"levelo://app?vid=13e239ae-4297-41ec-8609-a7d2f7022bde"},"vehicle_type_id":"4","last_reported":1685012738,"current_range_meters":31200,"station_id":"ce4bgpp2rcd13ifvqc3g","pricing_plan_id":"free"},{"bike_id":"ed89fe21-ff47-4ec5-860b-b9a82334ae8b","system_id":"levelo_inurba_marseille","lat":43.298433,"lon":5.362774,"is_reserved":false,"is_disabled":false,"rental_uris":{"android":"levelo://app?vid=ed89fe21-ff47-4ec5-860b-b9a82334ae8b","ios":"levelo://app?vid=ed89fe21-ff47-4ec5-860b-b9a82334ae8b"},"vehicle_type_id":"4","last_reported":1685012738,"current_range_meters":31600,"station_id":"ce4bgpp2rcd13ifvqc3g","pricing_plan_id":"free"},{"bike_id":"7f150796-9809-4146-a47c-5341212bb9ee","system_id":"levelo_inurba_marseille","lat":43.299243,"lon":5.374807,"is_reserved":false,"is_disabled":false,"rental_uris":{"android":"levelo://app?vid=7f150796-9809-4146-a47c-5341212bb9ee","ios":"levelo://app?vid=7f150796-9809-4146-a47c-5341212bb9ee"},"vehicle_type_id":"4","last_reported":1685012738,"current_range_meters":21200,"station_id":"ce4bgjh2rcd13ifvqbg0","pricing_plan_id":"free"},{"bike_id":"aa8749f3-de4f-4ce2-b068-954f9a690f84","system_id":"levelo_inurba_marseille","lat":43.298433,"lon":5.362774,"is_reserved":false,"is_disabled":false,"rental_uris":{"android":"levelo://app?vid=aa8749f3-de4f-4ce2-b068-954f9a690f84","ios":"levelo://app?vid=aa8749f3-de4f-4ce2-b068-954f9a690f84"},"vehicle_type_id":"4","last_reported":1685012738,"current_range_meters":26800,"station_id":"ce4bgpp2rcd13ifvqc3g","pricing_plan_id":"free"},{"bike_id":"07c0427f-668e-4cf0-b70b-131cde4b50d7","system_id":"levelo_inurba_marseille","lat":43.299243,"lon":5.37481,"is_reserved":false,"is_disabled":false,"rental_uris":{"android":"levelo://app?vid=07c0427f-668e-4cf0-b70b-131cde4b50d7","ios":"levelo://app?vid=07c0427f-668e-4cf0-b70b-131cde4b50d7"},"vehicle_type_id":"4","last_reported":1685012738,"current_range_meters":29200,"station_id":"ce4bgjh2rcd13ifvqbg0","pricing_plan_id":"free"},{"bike_id":"9b422bca-ffa1-4948-abfc-8ab2b5ded8b4","system_id":"levelo_inurba_marseille","lat":43.299243,"lon":5.37481,"is_reserved":false,"is_disabled":false,"rental_uris":{"android":"levelo://app?vid=9b422bca-ffa1-4948-abfc-8ab2b5ded8b4","ios":"levelo://app?vid=9b422bca-ffa1-4948-abfc-8ab2b5ded8b4"},"vehicle_type_id":"4","last_reported":1685012738,"current_range_meters":16400,"station_id":"ce4bgjh2rcd13ifvqbg0","pricing_plan_id":"free"},{"bike_id":"222af222-eb78-44de-9b83-1cd69aaa2759","system_id":"levelo_inurba_marseille","lat":43.299243,"lon":5.37481,"is_reserved":false,"is_disabled":false,"rental_uris":{"android":"levelo://app?vid=222af222-eb78-44de-9b83-1cd69aaa2759","ios":"levelo://app?vid=222af222-eb78-44de-9b83-1cd69aaa2759"},"vehicle_type_id":"4","last_reported":1685012738,"current_range_meters":31600,"station_id":"ce4bgjh2rcd13ifvqbg0","pricing_plan_id":"free"},{"bike_id":"9e9001a0-7bfc-4a97-af23-4d1525122888","system_id":"levelo_inurba_marseille","lat":43.299243,"lon":5.374807,"is_reserved":false,"is_disabled":false,"rental_uris":{"android":"levelo://app?vid=9e9001a0-7bfc-4a97-af23-4d1525122888","ios":"levelo://app?vid=9e9001a0-7bfc-4a97-af23-4d1525122888"},"vehicle_type_id":"4","last_reported":1685012738,"current_range_meters":28800,"station_id":"ce4bgjh2rcd13ifvqbg0","pricing_plan_id":"free"},{"bike_id":"f4a5c009-9116-45de-843f-e750266933a4","system_id":"levelo_inurba_marseille","lat":43.299243,"lon":5.374807,"is_reserved":false,"is_disabled":false,"rental_uris":{"android":"levelo://app?vid=f4a5c009-9116-45de-843f-e750266933a4","ios":"levelo://app?vid=f4a5c009-9116-45de-843f-e750266933a4"},"vehicle_type_id":"4","last_reported":1685012738,"current_range_meters":29600,"station_id":"ce4bgjh2rcd13ifvqbg0","pricing_plan_id":"free"},{"bike_id":"3bfb4307-1252-4ce7-90cf-0d223bd74af7","system_id":"levelo_inurba_marseille","lat":43.299243,"lon":5.37481,"is_reserved":false,"is_disabled":false,"rental_uris":{"android":"levelo://app?vid=3bfb4307-1252-4ce7-90cf-0d223bd74af7","ios":"levelo://app?vid=3bfb4307-1252-4ce7-90cf-0d223bd74af7"},"vehicle_type_id":"4","last_reported":1685012738,"current_range_meters":23600,"station_id":"ce4bgjh2rcd13ifvqbg0","pricing_plan_id":"free"},{"bike_id":"9424a6ae-c4a5-43ac-9197-7674e37b4fb0","system_id":"levelo_inurba_marseille","lat":43.299243,"lon":5.374807,"is_reserved":false,"is_disabled":false,"rental_uris":{"android":"levelo://app?vid=9424a6ae-c4a5-43ac-9197-7674e37b4fb0","ios":"levelo://app?vid=9424a6ae-c4a5-43ac-9197-7674e37b4fb0"},"vehicle_type_id":"4","last_reported":1685012738,"current_range_meters":31600,"station_id":"ce4bgjh2rcd13ifvqbg0","pricing_plan_id":"free"},{"bike_id":"f612a92b-c79e-4d62-bd69-d9947a9c15df","system_id":"levelo_inurba_marseille","lat":43.299243,"lon":5.37481,"is_reserved":false,"is_disabled":false,"rental_uris":{"android":"levelo://app?vid=f612a92b-c79e-4d62-bd69-d9947a9c15df","ios":"levelo://app?vid=f612a92b-c79e-4d62-bd69-d9947a9c15df"},"vehicle_type_id":"4","last_reported":1685012738,"current_range_meters":31600,"station_id":"ce4bgjh2rcd13ifvqbg0","pricing_plan_id":"free"},{"bike_id":"79ea4606-c6a1-48e7-b04e-6e98630b3459","system_id":"levelo_inurba_marseille","lat":43.311722,"lon":5.387247,"is_reserved":false,"is_disabled":false,"rental_uris":{"android":"levelo://app?vid=79ea4606-c6a1-48e7-b04e-6e98630b3459","ios":"levelo://app?vid=79ea4606-c6a1-48e7-b04e-6e98630b3459"},"vehicle_type_id":"4","last_reported":1685012738,"current_range_meters":31600,"station_id":"ce4bgv12rcd13ifvqcp0","pricing_plan_id":"free"},{"bike_id":"06d97226-790c-4cce-b2d2-f9b56c25339f","system_id":"levelo_inurba_marseille","lat":43.311722,"lon":5.387247,"is_reserved":false,"is_disabled":false,"rental_uris":{"android":"levelo://app?vid=06d97226-790c-4cce-b2d2-f9b56c25339f","ios":"levelo://app?vid=06d97226-790c-4cce-b2d2-f9b56c25339f"},"vehicle_type_id":"4","last_reported":1685012738,"current_range_meters":29600,"station_id":"ce4bgv12rcd13ifvqcp0","pricing_plan_id":"free"},{"bike_id":"cdfd178b-d035-4eb7-aeed-80ac56fca5c4","system_id":"levelo_inurba_marseille","lat":43.299243,"lon":5.374807,"is_reserved":false,"is_disabled":false,"rental_uris":{"android":"levelo://app?vid=cdfd178b-d035-4eb7-aeed-80ac56fca5c4","ios":"levelo://app?vid=cdfd178b-d035-4eb7-aeed-80ac56fca5c4"},"vehicle_type_id":"4","last_reported":1685012738,"current_range_meters":18000,"station_id":"ce4bgjh2rcd13ifvqbg0","pricing_plan_id":"free"},{"bike_id":"65c49fca-29d5-422c-8b90-ee0679ccfae0","system_id":"levelo_inurba_marseille","lat":43.311722,"lon":5.387247,"is_reserved":false,"is_disabled":false,"rental_uris":{"android":"levelo://app?vid=65c49fca-29d5-422c-8b90-ee0679ccfae0","ios":"levelo://app?vid=65c49fca-29d5-422c-8b90-ee0679ccfae0"},"vehicle_type_id":"4","last_reported":1685012738,"current_range_meters":31600,"station_id":"ce4bgv12rcd13ifvqcp0","pricing_plan_id":"free"},{"bike_id":"6593734c-6b45-42e5-9029-536c9d67ca03","system_id":"levelo_inurba_marseille","lat":43.311722,"lon":5.387247,"is_reserved":false,"is_disabled":false,"rental_uris":{"android":"levelo://app?vid=6593734c-6b45-42e5-9029-536c9d67ca03","ios":"levelo://app?vid=6593734c-6b45-42e5-9029-536c9d67ca03"},"vehicle_type_id":"4","last_reported":1685012738,"current_range_meters":31600,"station_id":"ce4bgv12rcd13ifvqcp0","pricing_plan_id":"free"},{"bike_id":"2cda44d6-0788-4851-a77a-9d801494027d","system_id":"levelo_inurba_marseille","lat":43.311722,"lon":5.387247,"is_reserved":false,"is_disabled":false,"rental_uris":{"android":"levelo://app?vid=2cda44d6-0788-4851-a77a-9d801494027d","ios":"levelo://app?vid=2cda44d6-0788-4851-a77a-9d801494027d"},"vehicle_type_id":"4","last_reported":1685012738,"current_range_meters":30400,"station_id":"ce4bgv12rcd13ifvqcp0","pricing_plan_id":"free"},{"bike_id":"92af44f5-3f46-4382-81bc-7e4bfbc92fea","system_id":"levelo_inurba_marseille","lat":43.297774,"lon":5.370875,"is_reserved":false,"is_disabled":false,"rental_uris":{"android":"levelo://app?vid=92af44f5-3f46-4382-81bc-7e4bfbc92fea","ios":"levelo://app?vid=92af44f5-3f46-4382-81bc-7e4bfbc92fea"},"vehicle_type_id":"4","last_reported":1685012738,"current_range_meters":27600,"station_id":"ce4bgop2rcd13ifvqc1g","pricing_plan_id":"free"},{"bike_id":"50fcd39d-5482-4c7b-a506-9e30906771aa","system_id":"levelo_inurba_marseille","lat":43.29785,"lon":5.37093,"is_reserved":false,"is_disabled":false,"rental_uris":{"android":"levelo://app?vid=50fcd39d-5482-4c7b-a506-9e30906771aa","ios":"levelo://app?vid=50fcd39d-5482-4c7b-a506-9e30906771aa"},"vehicle_type_id":"4","last_reported":1685012738,"current_range_meters":21200,"station_id":"ce4bgop2rcd13ifvqc1g","pricing_plan_id":"free"},{"bike_id":"07d0f5f8-594a-4c99-bd5f-efd86e16327f","system_id":"levelo_inurba_marseille","lat":43.328371,"lon":5.366912,"is_reserved":false,"is_disabled":false,"rental_uris":{"android":"levelo://app?vid=07d0f5f8-594a-4c99-bd5f-efd86e16327f","ios":"levelo://app?vid=07d0f5f8-594a-4c99-bd5f-efd86e16327f"},"vehicle_type_id":"4","last_reported":1685012738,"current_range_meters":12800,"station_id":"ce4bhs92rcd13ifvqi0g","pricing_plan_id":"free"},{"bike_id":"fad50468-bff6-4eb0-bc39-08e7203bec60","system_id":"levelo_inurba_marseille","lat":43.328371,"lon":5.366912,"is_reserved":false,"is_disabled":false,"rental_uris":{"android":"levelo://app?vid=fad50468-bff6-4eb0-bc39-08e7203bec60","ios":"levelo://app?vid=fad50468-bff6-4eb0-bc39-08e7203bec60"},"vehicle_type_id":"4","last_reported":1685012738,"current_range_meters":18800,"station_id":"ce4bhs92rcd13ifvqi0g","pricing_plan_id":"free"},{"bike_id":"4fe812b5-a152-4f6f-a5e4-5b2d482ba70f","system_id":"levelo_inurba_marseille","lat":43.328371,"lon":5.366912,"is_reserved":false,"is_disabled":false,"rental_uris":{"android":"levelo://app?vid=4fe812b5-a152-4f6f-a5e4-5b2d482ba70f","ios":"levelo://app?vid=4fe812b5-a152-4f6f-a5e4-5b2d482ba70f"},"vehicle_type_id":"4","last_reported":1685012738,"current_range_meters":19200,"station_id":"ce4bhs92rcd13ifvqi0g","pricing_plan_id":"free"},{"bike_id":"0bcf9f5e-41b0-4efd-81f8-d1adca95ca0b","system_id":"levelo_inurba_marseille","lat":43.328371,"lon":5.366912,"is_reserved":false,"is_disabled":false,"rental_uris":{"android":"levelo://app?vid=0bcf9f5e-41b0-4efd-81f8-d1adca95ca0b","ios":"levelo://app?vid=0bcf9f5e-41b0-4efd-81f8-d1adca95ca0b"},"vehicle_type_id":"4","last_reported":1685012738,"current_range_meters":3200,"station_id":"ce4bhs92rcd13ifvqi0g","pricing_plan_id":"free"},{"bike_id":"df1880ac-d231-4326-8b39-c3d013dbb8ca","system_id":"levelo_inurba_marseille","lat":43.3151,"lon":5.38914,"is_reserved":false,"is_disabled":false,"rental_uris":{"android":"levelo://app?vid=df1880ac-d231-4326-8b39-c3d013dbb8ca","ios":"levelo://app?vid=df1880ac-d231-4326-8b39-c3d013dbb8ca"},"vehicle_type_id":"4","last_reported":1685012738,"current_range_meters":23600,"station_id":"","pricing_plan_id":"free"},{"bike_id":"276e8684-5df0-487d-a846-8933fb6a8ad0","system_id":"levelo_inurba_marseille","lat":43.296129,"lon":5.370777,"is_reserved":false,"is_disabled":false,"rental_uris":{"android":"levelo://app?vid=276e8684-5df0-487d-a846-8933fb6a8ad0","ios":"levelo://app?vid=276e8684-5df0-487d-a846-8933fb6a8ad0"},"vehicle_type_id":"4","last_reported":1685012738,"current_range_meters":31200,"station_id":"ce4bgnh2rcd13ifvqc0g","pricing_plan_id":"free"},{"bike_id":"287908f5-73bb-4505-98c0-048d3cd90521","system_id":"levelo_inurba_marseille","lat":43.296129,"lon":5.370777,"is_reserved":false,"is_disabled":false,"rental_uris":{"android":"levelo://app?vid=287908f5-73bb-4505-98c0-048d3cd90521","ios":"levelo://app?vid=287908f5-73bb-4505-98c0-048d3cd90521"},"vehicle_type_id":"4","last_reported":1685012738,"current_range_meters":31600,"station_id":"ce4bgnh2rcd13ifvqc0g","pricing_plan_id":"free"},{"bike_id":"46c30e7f-fb95-443a-ad04-fcf0dbc18e7b","system_id":"levelo_inurba_marseille","lat":43.29622,"lon":5.37153,"is_reserved":false,"is_disabled":false,"rental_uris":{"android":"levelo://app?vid=46c30e7f-fb95-443a-ad04-fcf0dbc18e7b","ios":"levelo://app?vid=46c30e7f-fb95-443a-ad04-fcf0dbc18e7b"},"vehicle_type_id":"4","last_reported":1685012738,"current_range_meters":28400,"station_id":"ce4bgk12rcd13ifvqbj0","pricing_plan_id":"free"},{"bike_id":"c1deb0c2-b281-40c1-9849-5cc7814987e5","system_id":"levelo_inurba_marseille","lat":43.296131,"lon":5.370773,"is_reserved":false,"is_disabled":false,"rental_uris":{"android":"levelo://app?vid=c1deb0c2-b281-40c1-9849-5cc7814987e5","ios":"levelo://app?vid=c1deb0c2-b281-40c1-9849-5cc7814987e5"},"vehicle_type_id":"4","last_reported":1685012738,"current_range_meters":31200,"station_id":"ce4bgnh2rcd13ifvqc0g","pricing_plan_id":"free"},{"bike_id":"560fb9aa-f551-4b4b-a2e0-cd6add8ef0de","system_id":"levelo_inurba_marseille","lat":43.296131,"lon":5.370791,"is_reserved":false,"is_disabled":false,"rental_uris":{"android":"levelo://app?vid=560fb9aa-f551-4b4b-a2e0-cd6add8ef0de","ios":"levelo://app?vid=560fb9aa-f551-4b4b-a2e0-cd6add8ef0de"},"vehicle_type_id":"4","last_reported":1685012738,"current_range_meters":19600,"station_id":"ce4bgnh2rcd13ifvqc0g","pricing_plan_id":"free"},{"bike_id":"ab3d2a27-8557-4913-b72d-52cd747a45fe","system_id":"levelo_inurba_marseille","lat":43.296129,"lon":5.370777,"is_reserved":false,"is_disabled":false,"rental_uris":{"android":"levelo://app?vid=ab3d2a27-8557-4913-b72d-52cd747a45fe","ios":"levelo://app?vid=ab3d2a27-8557-4913-b72d-52cd747a45fe"},"vehicle_type_id":"4","last_reported":1685012738,"current_range_meters":22800,"station_id":"ce4bgnh2rcd13ifvqc0g","pricing_plan_id":"free"},{"bike_id":"6d92b8ce-a246-48eb-a54e-e04c17de80ba","system_id":"levelo_inurba_marseille","lat":43.296131,"lon":5.370773,"is_reserved":false,"is_disabled":false,"rental_uris":{"android":"levelo://app?vid=6d92b8ce-a246-48eb-a54e-e04c17de80ba","ios":"levelo://app?vid=6d92b8ce-a246-48eb-a54e-e04c17de80ba"},"vehicle_type_id":"4","last_reported":1685012738,"current_range_meters":31200,"station_id":"ce4bgnh2rcd13ifvqc0g","pricing_plan_id":"free"},{"bike_id":"8d2a68ab-a795-457d-8046-b1268d68d348","system_id":"levelo_inurba_marseille","lat":43.296131,"lon":5.370791,"is_reserved":false,"is_disabled":false,"rental_uris":{"android":"levelo://app?vid=8d2a68ab-a795-457d-8046-b1268d68d348","ios":"levelo://app?vid=8d2a68ab-a795-457d-8046-b1268d68d348"},"vehicle_type_id":"4","last_reported":1685012738,"current_range_meters":25600,"station_id":"ce4bgnh2rcd13ifvqc0g","pricing_plan_id":"free"},{"bike_id":"35aea008-f538-4863-bf8e-3da6bf2695fc","system_id":"levelo_inurba_marseille","lat":43.296129,"lon":5.370777,"is_reserved":false,"is_disabled":false,"rental_uris":{"android":"levelo://app?vid=35aea008-f538-4863-bf8e-3da6bf2695fc","ios":"levelo://app?vid=35aea008-f538-4863-bf8e-3da6bf2695fc"},"vehicle_type_id":"4","last_reported":1685012738,"current_range_meters":25200,"station_id":"ce4bgnh2rcd13ifvqc0g","pricing_plan_id":"free"},{"bike_id":"c1ec7047-1e6d-4c8b-ad64-5755a04afd61","system_id":"levelo_inurba_marseille","lat":43.296131,"lon":5.370773,"is_reserved":false,"is_disabled":false,"rental_uris":{"android":"levelo://app?vid=c1ec7047-1e6d-4c8b-ad64-5755a04afd61","ios":"levelo://app?vid=c1ec7047-1e6d-4c8b-ad64-5755a04afd61"},"vehicle_type_id":"4","last_reported":1685012738,"current_range_meters":31600,"station_id":"ce4bgnh2rcd13ifvqc0g","pricing_plan_id":"free"},{"bike_id":"2a199159-5e6f-41c6-a296-e425db54d69d","system_id":"levelo_inurba_marseille","lat":43.29573,"lon":5.367355,"is_reserved":false,"is_disabled":false,"rental_uris":{"android":"levelo://app?vid=2a199159-5e6f-41c6-a296-e425db54d69d","ios":"levelo://app?vid=2a199159-5e6f-41c6-a296-e425db54d69d"},"vehicle_type_id":"4","last_reported":1685012738,"current_range_meters":31200,"station_id":"ce4bgph2rcd13ifvqc2g","pricing_plan_id":"free"},{"bike_id":"7187ccfd-8c7a-4cc5-91e7-248a68a678e4","system_id":"levelo_inurba_marseille","lat":43.31674,"lon":5.38963,"is_reserved":false,"is_disabled":false,"rental_uris":{"android":"levelo://app?vid=7187ccfd-8c7a-4cc5-91e7-248a68a678e4","ios":"levelo://app?vid=7187ccfd-8c7a-4cc5-91e7-248a68a678e4"},"vehicle_type_id":"4","last_reported":1685012738,"current_range_meters":2400,"station_id":"","pricing_plan_id":"free"},{"bike_id":"caa3d85c-a14d-4dc8-bfeb-117847fbe8b3","system_id":"levelo_inurba_marseille","lat":43.29738,"lon":5.37694,"is_reserved":false,"is_disabled":false,"rental_uris":{"android":"levelo://app?vid=caa3d85c-a14d-4dc8-bfeb-117847fbe8b3","ios":"levelo://app?vid=caa3d85c-a14d-4dc8-bfeb-117847fbe8b3"},"vehicle_type_id":"4","last_reported":1685012738,"current_range_meters":28400,"station_id":"ce4bgkh2rcd13ifvqbl0","pricing_plan_id":"free"},{"bike_id":"253bb9d2-b1fb-40bd-8593-eea7fc182d35","system_id":"levelo_inurba_marseille","lat":43.296921,"lon":5.376579,"is_reserved":false,"is_disabled":false,"rental_uris":{"android":"levelo://app?vid=253bb9d2-b1fb-40bd-8593-eea7fc182d35","ios":"levelo://app?vid=253bb9d2-b1fb-40bd-8593-eea7fc182d35"},"vehicle_type_id":"4","last_reported":1685012738,"current_range_meters":31600,"station_id":"ce4bgkh2rcd13ifvqbl0","pricing_plan_id":"free"},{"bike_id":"8021f0fe-be1e-4e0e-88e4-991619d28e4f","system_id":"levelo_inurba_marseille","lat":43.296921,"lon":5.376579,"is_reserved":false,"is_disabled":false,"rental_uris":{"android":"levelo://app?vid=8021f0fe-be1e-4e0e-88e4-991619d28e4f","ios":"levelo://app?vid=8021f0fe-be1e-4e0e-88e4-991619d28e4f"},"vehicle_type_id":"4","last_reported":1685012738,"current_range_meters":25600,"station_id":"ce4bgkh2rcd13ifvqbl0","pricing_plan_id":"free"},{"bike_id":"3fa6f2ef-a688-42ed-845b-3e8f47c1aae7","system_id":"levelo_inurba_marseille","lat":43.309589,"lon":5.390258,"is_reserved":false,"is_disabled":false,"rental_uris":{"android":"levelo://app?vid=3fa6f2ef-a688-42ed-845b-3e8f47c1aae7","ios":"levelo://app?vid=3fa6f2ef-a688-42ed-845b-3e8f47c1aae7"},"vehicle_type_id":"4","last_reported":1685012738,"current_range_meters":31600,"station_id":"ce4bgup2rcd13ifvqco0","pricing_plan_id":"free"},{"bike_id":"f157929a-a9ac-43d0-aaf0-f69de9666196","system_id":"levelo_inurba_marseille","lat":43.309589,"lon":5.390258,"is_reserved":false,"is_disabled":false,"rental_uris":{"android":"levelo://app?vid=f157929a-a9ac-43d0-aaf0-f69de9666196","ios":"levelo://app?vid=f157929a-a9ac-43d0-aaf0-f69de9666196"},"vehicle_type_id":"4","last_reported":1685012738,"current_range_meters":28400,"station_id":"ce4bgup2rcd13ifvqco0","pricing_plan_id":"free"},{"bike_id":"517c7d4f-fd33-4081-9a0c-3a439801ed6c","system_id":"levelo_inurba_marseille","lat":43.309589,"lon":5.390258,"is_reserved":false,"is_disabled":false,"rental_uris":{"android":"levelo://app?vid=517c7d4f-fd33-4081-9a0c-3a439801ed6c","ios":"levelo://app?vid=517c7d4f-fd33-4081-9a0c-3a439801ed6c"},"vehicle_type_id":"4","last_reported":1685012738,"current_range_meters":31600,"station_id":"ce4bgup2rcd13ifvqco0","pricing_plan_id":"free"},{"bike_id":"b4e10166-47d2-4221-91d4-cf70fe2dea0d","system_id":"levelo_inurba_marseille","lat":43.309589,"lon":5.390258,"is_reserved":false,"is_disabled":false,"rental_uris":{"android":"levelo://app?vid=b4e10166-47d2-4221-91d4-cf70fe2dea0d","ios":"levelo://app?vid=b4e10166-47d2-4221-91d4-cf70fe2dea0d"},"vehicle_type_id":"4","last_reported":1685012738,"current_range_meters":28800,"station_id":"ce4bgup2rcd13ifvqco0","pricing_plan_id":"free"},{"bike_id":"6c811dda-8ade-4eac-a585-d7bb833bc0c1","system_id":"levelo_inurba_marseille","lat":43.309589,"lon":5.390258,"is_reserved":false,"is_disabled":false,"rental_uris":{"android":"levelo://app?vid=6c811dda-8ade-4eac-a585-d7bb833bc0c1","ios":"levelo://app?vid=6c811dda-8ade-4eac-a585-d7bb833bc0c1"},"vehicle_type_id":"4","last_reported":1685012738,"current_range_meters":31600,"station_id":"ce4bgup2rcd13ifvqco0","pricing_plan_id":"free"},{"bike_id":"26065bd1-de86-4cfb-a35a-5c6a5f1676ff","system_id":"levelo_inurba_marseille","lat":43.309589,"lon":5.390258,"is_reserved":false,"is_disabled":false,"rental_uris":{"android":"levelo://app?vid=26065bd1-de86-4cfb-a35a-5c6a5f1676ff","ios":"levelo://app?vid=26065bd1-de86-4cfb-a35a-5c6a5f1676ff"},"vehicle_type_id":"4","last_reported":1685012738,"current_range_meters":31200,"station_id":"ce4bgup2rcd13ifvqco0","pricing_plan_id":"free"},{"bike_id":"e843928d-73bf-4400-b394-f8352936d936","system_id":"levelo_inurba_marseille","lat":43.309589,"lon":5.390258,"is_reserved":false,"is_disabled":false,"rental_uris":{"android":"levelo://app?vid=e843928d-73bf-4400-b394-f8352936d936","ios":"levelo://app?vid=e843928d-73bf-4400-b394-f8352936d936"},"vehicle_type_id":"4","last_reported":1685012738,"current_range_meters":20000,"station_id":"ce4bgup2rcd13ifvqco0","pricing_plan_id":"free"},{"bike_id":"62daeab9-03ea-4e03-aa2c-9028257d2325","system_id":"levelo_inurba_marseille","lat":43.309589,"lon":5.390258,"is_reserved":false,"is_disabled":false,"rental_uris":{"android":"levelo://app?vid=62daeab9-03ea-4e03-aa2c-9028257d2325","ios":"levelo://app?vid=62daeab9-03ea-4e03-aa2c-9028257d2325"},"vehicle_type_id":"4","last_reported":1685012738,"current_range_meters":30400,"station_id":"ce4bgup2rcd13ifvqco0","pricing_plan_id":"free"},{"bike_id":"9e4d1865-ecb4-42ea-b0ed-9a47b7b6efd0","system_id":"levelo_inurba_marseille","lat":43.309589,"lon":5.390258,"is_reserved":false,"is_disabled":false,"rental_uris":{"android":"levelo://app?vid=9e4d1865-ecb4-42ea-b0ed-9a47b7b6efd0","ios":"levelo://app?vid=9e4d1865-ecb4-42ea-b0ed-9a47b7b6efd0"},"vehicle_type_id":"4","last_reported":1685012738,"current_range_meters":30400,"station_id":"ce4bgup2rcd13ifvqco0","pricing_plan_id":"free"},{"bike_id":"d1f7629f-8a6d-4f28-9a7f-7f342df988b9","system_id":"levelo_inurba_marseille","lat":43.309589,"lon":5.390258,"is_reserved":false,"is_disabled":false,"rental_uris":{"android":"levelo://app?vid=d1f7629f-8a6d-4f28-9a7f-7f342df988b9","ios":"levelo://app?vid=d1f7629f-8a6d-4f28-9a7f-7f342df988b9"},"vehicle_type_id":"4","last_reported":1685012738,"current_range_meters":23600,"station_id":"ce4bgup2rcd13ifvqco0","pricing_plan_id":"free"},{"bike_id":"900b6f57-26f5-484f-889f-9847d60c517f","system_id":"levelo_inurba_marseille","lat":43.309589,"lon":5.390258,"is_reserved":false,"is_disabled":false,"rental_uris":{"android":"levelo://app?vid=900b6f57-26f5-484f-889f-9847d60c517f","ios":"levelo://app?vid=900b6f57-26f5-484f-889f-9847d60c517f"},"vehicle_type_id":"4","last_reported":1685012738,"current_range_meters":31600,"station_id":"ce4bgup2rcd13ifvqco0","pricing_plan_id":"free"},{"bike_id":"428323dc-8645-43b5-b29f-308454fd9794","system_id":"levelo_inurba_marseille","lat":43.309589,"lon":5.390258,"is_reserved":false,"is_disabled":false,"rental_uris":{"android":"levelo://app?vid=428323dc-8645-43b5-b29f-308454fd9794","ios":"levelo://app?vid=428323dc-8645-43b5-b29f-308454fd9794"},"vehicle_type_id":"4","last_reported":1685012738,"current_range_meters":31200,"station_id":"ce4bgup2rcd13ifvqco0","pricing_plan_id":"free"},{"bike_id":"287364c3-4106-492d-80f0-1e1e0131f7ce","system_id":"levelo_inurba_marseille","lat":43.30948,"lon":5.3905,"is_reserved":false,"is_disabled":false,"rental_uris":{"android":"levelo://app?vid=287364c3-4106-492d-80f0-1e1e0131f7ce","ios":"levelo://app?vid=287364c3-4106-492d-80f0-1e1e0131f7ce"},"vehicle_type_id":"4","last_reported":1685012738,"current_range_meters":31200,"station_id":"ce4bgup2rcd13ifvqco0","pricing_plan_id":"free"},{"bike_id":"7536048a-8120-4c15-90e6-bce81906500a","system_id":"levelo_inurba_marseille","lat":43.30954,"lon":5.39054,"is_reserved":false,"is_disabled":false,"rental_uris":{"android":"levelo://app?vid=7536048a-8120-4c15-90e6-bce81906500a","ios":"levelo://app?vid=7536048a-8120-4c15-90e6-bce81906500a"},"vehicle_type_id":"4","last_reported":1685012738,"current_range_meters":26800,"station_id":"ce4bgup2rcd13ifvqco0","pricing_plan_id":"free"},{"bike_id":"7597cb79-abc9-4efd-858a-04e4a9ffd277","system_id":"levelo_inurba_marseille","lat":43.29627,"lon":5.3753,"is_reserved":false,"is_disabled":false,"rental_uris":{"android":"levelo://app?vid=7597cb79-abc9-4efd-858a-04e4a9ffd277","ios":"levelo://app?vid=7597cb79-abc9-4efd-858a-04e4a9ffd277"},"vehicle_type_id":"4","last_reported":1685012738,"current_range_meters":26800,"station_id":"","pricing_plan_id":"free"},{"bike_id":"d8751498-a5e6-4585-9264-a09d851ef850","system_id":"levelo_inurba_marseille","lat":43.317557,"lon":5.390173,"is_reserved":false,"is_disabled":false,"rental_uris":{"android":"levelo://app?vid=d8751498-a5e6-4585-9264-a09d851ef850","ios":"levelo://app?vid=d8751498-a5e6-4585-9264-a09d851ef850"},"vehicle_type_id":"4","last_reported":1685012738,"current_range_meters":27600,"station_id":"ce4bhqp2rcd13ifvqhng","pricing_plan_id":"free"},{"bike_id":"71a88215-f9b9-47ed-91f8-c9e9805f98ea","system_id":"levelo_inurba_marseille","lat":43.317557,"lon":5.390173,"is_reserved":false,"is_disabled":false,"rental_uris":{"android":"levelo://app?vid=71a88215-f9b9-47ed-91f8-c9e9805f98ea","ios":"levelo://app?vid=71a88215-f9b9-47ed-91f8-c9e9805f98ea"},"vehicle_type_id":"4","last_reported":1685012738,"current_range_meters":9600,"station_id":"ce4bhqp2rcd13ifvqhng","pricing_plan_id":"free"},{"bike_id":"2cd12df0-a3d3-4e74-b8aa-d1b9e5aaa09d","system_id":"levelo_inurba_marseille","lat":43.304274,"lon":5.388873,"is_reserved":false,"is_disabled":false,"rental_uris":{"android":"levelo://app?vid=2cd12df0-a3d3-4e74-b8aa-d1b9e5aaa09d","ios":"levelo://app?vid=2cd12df0-a3d3-4e74-b8aa-d1b9e5aaa09d"},"vehicle_type_id":"4","last_reported":1685012738,"current_range_meters":14400,"station_id":"ce4bgk12rcd13ifvqbi0","pricing_plan_id":"free"},{"bike_id":"426c8cca-8e46-4a7a-a9b5-f3635e64610c","system_id":"levelo_inurba_marseille","lat":43.304274,"lon":5.388873,"is_reserved":false,"is_disabled":false,"rental_uris":{"android":"levelo://app?vid=426c8cca-8e46-4a7a-a9b5-f3635e64610c","ios":"levelo://app?vid=426c8cca-8e46-4a7a-a9b5-f3635e64610c"},"vehicle_type_id":"4","last_reported":1685012738,"current_range_meters":24800,"station_id":"ce4bgk12rcd13ifvqbi0","pricing_plan_id":"free"},{"bike_id":"9dfc993d-b0f8-4c5d-9745-4783af061ca9","system_id":"levelo_inurba_marseille","lat":43.296277,"lon":5.377108,"is_reserved":false,"is_disabled":false,"rental_uris":{"android":"levelo://app?vid=9dfc993d-b0f8-4c5d-9745-4783af061ca9","ios":"levelo://app?vid=9dfc993d-b0f8-4c5d-9745-4783af061ca9"},"vehicle_type_id":"4","last_reported":1685012738,"current_range_meters":23600,"station_id":"ce4bgi92rcd13ifvqb90","pricing_plan_id":"free"},{"bike_id":"85172daf-7a63-4211-8b2f-53a4835908bb","system_id":"levelo_inurba_marseille","lat":43.296263,"lon":5.377094,"is_reserved":false,"is_disabled":false,"rental_uris":{"android":"levelo://app?vid=85172daf-7a63-4211-8b2f-53a4835908bb","ios":"levelo://app?vid=85172daf-7a63-4211-8b2f-53a4835908bb"},"vehicle_type_id":"4","last_reported":1685012738,"current_range_meters":17200,"station_id":"ce4bgi92rcd13ifvqb90","pricing_plan_id":"free"},{"bike_id":"82670bca-a6ca-4ae2-90c9-72b812ca1bfe","system_id":"levelo_inurba_marseille","lat":43.304274,"lon":5.388873,"is_reserved":false,"is_disabled":false,"rental_uris":{"android":"levelo://app?vid=82670bca-a6ca-4ae2-90c9-72b812ca1bfe","ios":"levelo://app?vid=82670bca-a6ca-4ae2-90c9-72b812ca1bfe"},"vehicle_type_id":"4","last_reported":1685012738,"current_range_meters":14400,"station_id":"ce4bgk12rcd13ifvqbi0","pricing_plan_id":"free"},{"bike_id":"f857cfa9-26b6-47b3-9514-e929780cea09","system_id":"levelo_inurba_marseille","lat":43.304274,"lon":5.388873,"is_reserved":false,"is_disabled":false,"rental_uris":{"android":"levelo://app?vid=f857cfa9-26b6-47b3-9514-e929780cea09","ios":"levelo://app?vid=f857cfa9-26b6-47b3-9514-e929780cea09"},"vehicle_type_id":"4","last_reported":1685012738,"current_range_meters":22000,"station_id":"ce4bgk12rcd13ifvqbi0","pricing_plan_id":"free"},{"bike_id":"8219e272-d54e-48e9-8c07-1b4cb8da3f4d","system_id":"levelo_inurba_marseille","lat":43.296263,"lon":5.377094,"is_reserved":false,"is_disabled":false,"rental_uris":{"android":"levelo://app?vid=8219e272-d54e-48e9-8c07-1b4cb8da3f4d","ios":"levelo://app?vid=8219e272-d54e-48e9-8c07-1b4cb8da3f4d"},"vehicle_type_id":"4","last_reported":1685012738,"current_range_meters":20000,"station_id":"ce4bgi92rcd13ifvqb90","pricing_plan_id":"free"},{"bike_id":"0f5b13d8-3c80-4245-a552-a692461354cc","system_id":"levelo_inurba_marseille","lat":43.296263,"lon":5.377094,"is_reserved":false,"is_disabled":false,"rental_uris":{"android":"levelo://app?vid=0f5b13d8-3c80-4245-a552-a692461354cc","ios":"levelo://app?vid=0f5b13d8-3c80-4245-a552-a692461354cc"},"vehicle_type_id":"4","last_reported":1685012738,"current_range_meters":4000,"station_id":"ce4bgi92rcd13ifvqb90","pricing_plan_id":"free"},{"bike_id":"640ef60f-1450-4a54-8bbc-5fa2060386cf","system_id":"levelo_inurba_marseille","lat":43.299707,"lon":5.384859,"is_reserved":false,"is_disabled":false,"rental_uris":{"android":"levelo://app?vid=640ef60f-1450-4a54-8bbc-5fa2060386cf","ios":"levelo://app?vid=640ef60f-1450-4a54-8bbc-5fa2060386cf"},"vehicle_type_id":"4","last_reported":1685012738,"current_range_meters":14000,"station_id":"ce4bgj92rcd13ifvqbd0","pricing_plan_id":"free"},{"bike_id":"270ed182-68fc-4867-8ba4-28935dad5ce7","system_id":"levelo_inurba_marseille","lat":43.299707,"lon":5.384859,"is_reserved":false,"is_disabled":false,"rental_uris":{"android":"levelo://app?vid=270ed182-68fc-4867-8ba4-28935dad5ce7","ios":"levelo://app?vid=270ed182-68fc-4867-8ba4-28935dad5ce7"},"vehicle_type_id":"4","last_reported":1685012738,"current_range_meters":1200,"station_id":"ce4bgj92rcd13ifvqbd0","pricing_plan_id":"free"},{"bike_id":"955ddd99-4008-4ca0-af8b-a80219dbec1d","system_id":"levelo_inurba_marseille","lat":43.299707,"lon":5.384859,"is_reserved":false,"is_disabled":false,"rental_uris":{"android":"levelo://app?vid=955ddd99-4008-4ca0-af8b-a80219dbec1d","ios":"levelo://app?vid=955ddd99-4008-4ca0-af8b-a80219dbec1d"},"vehicle_type_id":"4","last_reported":1685012738,"current_range_meters":31200,"station_id":"ce4bgj92rcd13ifvqbd0","pricing_plan_id":"free"},{"bike_id":"451b9d47-0ddf-4bde-8ae9-abbf2d0c5008","system_id":"levelo_inurba_marseille","lat":43.299724,"lon":5.384848,"is_reserved":false,"is_disabled":false,"rental_uris":{"android":"levelo://app?vid=451b9d47-0ddf-4bde-8ae9-abbf2d0c5008","ios":"levelo://app?vid=451b9d47-0ddf-4bde-8ae9-abbf2d0c5008"},"vehicle_type_id":"4","last_reported":1685012738,"current_range_meters":30800,"station_id":"ce4bgj92rcd13ifvqbd0","pricing_plan_id":"free"},{"bike_id":"3f5be396-e893-4f97-a9c0-48f17a82fb11","system_id":"levelo_inurba_marseille","lat":43.32367,"lon":5.388836,"is_reserved":false,"is_disabled":false,"rental_uris":{"android":"levelo://app?vid=3f5be396-e893-4f97-a9c0-48f17a82fb11","ios":"levelo://app?vid=3f5be396-e893-4f97-a9c0-48f17a82fb11"},"vehicle_type_id":"4","last_reported":1685012738,"current_range_meters":31200,"station_id":"ce4bhqp2rcd13ifvqhog","pricing_plan_id":"free"},{"bike_id":"b842a883-baab-4aaa-9c22-726d37235f77","system_id":"levelo_inurba_marseille","lat":43.32366,"lon":5.38882,"is_reserved":false,"is_disabled":false,"rental_uris":{"android":"levelo://app?vid=b842a883-baab-4aaa-9c22-726d37235f77","ios":"levelo://app?vid=b842a883-baab-4aaa-9c22-726d37235f77"},"vehicle_type_id":"4","last_reported":1685012738,"current_range_meters":31200,"station_id":"ce4bhqp2rcd13ifvqhog","pricing_plan_id":"free"},{"bike_id":"eb919dee-7924-4349-b9ec-b54f7f96aefd","system_id":"levelo_inurba_marseille","lat":43.32367,"lon":5.388836,"is_reserved":false,"is_disabled":false,"rental_uris":{"android":"levelo://app?vid=eb919dee-7924-4349-b9ec-b54f7f96aefd","ios":"levelo://app?vid=eb919dee-7924-4349-b9ec-b54f7f96aefd"},"vehicle_type_id":"4","last_reported":1685012738,"current_range_meters":24000,"station_id":"ce4bhqp2rcd13ifvqhog","pricing_plan_id":"free"},{"bike_id":"3f245026-7545-4924-a951-14be0bedc89e","system_id":"levelo_inurba_marseille","lat":43.31297,"lon":5.39386,"is_reserved":false,"is_disabled":false,"rental_uris":{"android":"levelo://app?vid=3f245026-7545-4924-a951-14be0bedc89e","ios":"levelo://app?vid=3f245026-7545-4924-a951-14be0bedc89e"},"vehicle_type_id":"4","last_reported":1685012738,"current_range_meters":2400,"station_id":"","pricing_plan_id":"free"},{"bike_id":"c80557df-564b-451c-a3a5-258dffcdd86f","system_id":"levelo_inurba_marseille","lat":43.293249,"lon":5.371578,"is_reserved":false,"is_disabled":false,"rental_uris":{"android":"levelo://app?vid=c80557df-564b-451c-a3a5-258dffcdd86f","ios":"levelo://app?vid=c80557df-564b-451c-a3a5-258dffcdd86f"},"vehicle_type_id":"4","last_reported":1685012738,"current_range_meters":31600,"station_id":"ce4bgh92rcd13ifvqb40","pricing_plan_id":"free"},{"bike_id":"a8b5268e-a459-447a-ab2e-4c643f84bd0d","system_id":"levelo_inurba_marseille","lat":43.29314,"lon":5.37177,"is_reserved":false,"is_disabled":false,"rental_uris":{"android":"levelo://app?vid=a8b5268e-a459-447a-ab2e-4c643f84bd0d","ios":"levelo://app?vid=a8b5268e-a459-447a-ab2e-4c643f84bd0d"},"vehicle_type_id":"4","last_reported":1685012738,"current_range_meters":20400,"station_id":"ce4bgh92rcd13ifvqb40","pricing_plan_id":"free"},{"bike_id":"a12270ec-73b0-4ab7-aa0d-9b6cc3121d89","system_id":"levelo_inurba_marseille","lat":43.29311,"lon":5.37158,"is_reserved":false,"is_disabled":false,"rental_uris":{"android":"levelo://app?vid=a12270ec-73b0-4ab7-aa0d-9b6cc3121d89","ios":"levelo://app?vid=a12270ec-73b0-4ab7-aa0d-9b6cc3121d89"},"vehicle_type_id":"4","last_reported":1685012738,"current_range_meters":12800,"station_id":"ce4bgh92rcd13ifvqb40","pricing_plan_id":"free"},{"bike_id":"5241bc3c-c36e-4839-87fe-c743a91e2f31","system_id":"levelo_inurba_marseille","lat":43.293249,"lon":5.371578,"is_reserved":false,"is_disabled":false,"rental_uris":{"android":"levelo://app?vid=5241bc3c-c36e-4839-87fe-c743a91e2f31","ios":"levelo://app?vid=5241bc3c-c36e-4839-87fe-c743a91e2f31"},"vehicle_type_id":"4","last_reported":1685012738,"current_range_meters":26800,"station_id":"ce4bgh92rcd13ifvqb40","pricing_plan_id":"free"},{"bike_id":"9bf1c75d-248e-4365-8770-cf1e404e8dc7","system_id":"levelo_inurba_marseille","lat":43.2931,"lon":5.37172,"is_reserved":false,"is_disabled":false,"rental_uris":{"android":"levelo://app?vid=9bf1c75d-248e-4365-8770-cf1e404e8dc7","ios":"levelo://app?vid=9bf1c75d-248e-4365-8770-cf1e404e8dc7"},"vehicle_type_id":"4","last_reported":1685012738,"current_range_meters":28800,"station_id":"","pricing_plan_id":"free"},{"bike_id":"55169147-c485-44e1-962c-81f526d60199","system_id":"levelo_inurba_marseille","lat":43.29308,"lon":5.37178,"is_reserved":false,"is_disabled":false,"rental_uris":{"android":"levelo://app?vid=55169147-c485-44e1-962c-81f526d60199","ios":"levelo://app?vid=55169147-c485-44e1-962c-81f526d60199"},"vehicle_type_id":"4","last_reported":1685012738,"current_range_meters":28400,"station_id":"ce4bgh92rcd13ifvqb40","pricing_plan_id":"free"},{"bike_id":"940187d4-c006-4ba0-bdb1-da5e3d4ac6ff","system_id":"levelo_inurba_marseille","lat":43.293249,"lon":5.371578,"is_reserved":false,"is_disabled":false,"rental_uris":{"android":"levelo://app?vid=940187d4-c006-4ba0-bdb1-da5e3d4ac6ff","ios":"levelo://app?vid=940187d4-c006-4ba0-bdb1-da5e3d4ac6ff"},"vehicle_type_id":"4","last_reported":1685012738,"current_range_meters":26800,"station_id":"ce4bgh92rcd13ifvqb40","pricing_plan_id":"free"},{"bike_id":"88533c47-4ebd-46a3-a48c-9d1881477db0","system_id":"levelo_inurba_marseille","lat":43.292749,"lon":5.368398,"is_reserved":false,"is_disabled":false,"rental_uris":{"android":"levelo://app?vid=88533c47-4ebd-46a3-a48c-9d1881477db0","ios":"levelo://app?vid=88533c47-4ebd-46a3-a48c-9d1881477db0"},"vehicle_type_id":"4","last_reported":1685012738,"current_range_meters":9200,"station_id":"ce4bhbp2rcd13ifvqesg","pricing_plan_id":"free"},{"bike_id":"a0cd0f20-68b2-4543-9d61-a875ee8e55e9","system_id":"levelo_inurba_marseille","lat":43.29303,"lon":5.37183,"is_reserved":false,"is_disabled":false,"rental_uris":{"android":"levelo://app?vid=a0cd0f20-68b2-4543-9d61-a875ee8e55e9","ios":"levelo://app?vid=a0cd0f20-68b2-4543-9d61-a875ee8e55e9"},"vehicle_type_id":"4","last_reported":1685012738,"current_range_meters":27600,"station_id":"ce4bgh92rcd13ifvqb40","pricing_plan_id":"free"},{"bike_id":"89049dab-5372-4754-ac09-f533dbfd1e49","system_id":"levelo_inurba_marseille","lat":43.293,"lon":5.37164,"is_reserved":false,"is_disabled":false,"rental_uris":{"android":"levelo://app?vid=89049dab-5372-4754-ac09-f533dbfd1e49","ios":"levelo://app?vid=89049dab-5372-4754-ac09-f533dbfd1e49"},"vehicle_type_id":"4","last_reported":1685012738,"current_range_meters":24000,"station_id":"ce4bgh92rcd13ifvqb40","pricing_plan_id":"free"},{"bike_id":"f14e98ef-5411-4e82-bde5-c1ae27e7e267","system_id":"levelo_inurba_marseille","lat":43.2927,"lon":5.36846,"is_reserved":false,"is_disabled":false,"rental_uris":{"android":"levelo://app?vid=f14e98ef-5411-4e82-bde5-c1ae27e7e267","ios":"levelo://app?vid=f14e98ef-5411-4e82-bde5-c1ae27e7e267"},"vehicle_type_id":"4","last_reported":1685012738,"current_range_meters":30800,"station_id":"ce4bhbp2rcd13ifvqesg","pricing_plan_id":"free"},{"bike_id":"e1ede26f-2ff9-4929-9ee3-e5ab2c539c4d","system_id":"levelo_inurba_marseille","lat":43.292749,"lon":5.368398,"is_reserved":false,"is_disabled":false,"rental_uris":{"android":"levelo://app?vid=e1ede26f-2ff9-4929-9ee3-e5ab2c539c4d","ios":"levelo://app?vid=e1ede26f-2ff9-4929-9ee3-e5ab2c539c4d"},"vehicle_type_id":"4","last_reported":1685012738,"current_range_meters":27600,"station_id":"ce4bhbp2rcd13ifvqesg","pricing_plan_id":"free"},{"bike_id":"36949663-1bc3-41a7-92aa-970d51ec3f58","system_id":"levelo_inurba_marseille","lat":43.30607,"lon":5.39335,"is_reserved":false,"is_disabled":false,"rental_uris":{"android":"levelo://app?vid=36949663-1bc3-41a7-92aa-970d51ec3f58","ios":"levelo://app?vid=36949663-1bc3-41a7-92aa-970d51ec3f58"},"vehicle_type_id":"4","last_reported":1685012738,"current_range_meters":27600,"station_id":"","pricing_plan_id":"free"},{"bike_id":"8adee9c6-023b-4fce-a9de-ffbd57a252ae","system_id":"levelo_inurba_marseille","lat":43.29307,"lon":5.37462,"is_reserved":false,"is_disabled":false,"rental_uris":{"android":"levelo://app?vid=8adee9c6-023b-4fce-a9de-ffbd57a252ae","ios":"levelo://app?vid=8adee9c6-023b-4fce-a9de-ffbd57a252ae"},"vehicle_type_id":"4","last_reported":1685012738,"current_range_meters":21600,"station_id":"ce4bgi12rcd13ifvqb70","pricing_plan_id":"free"},{"bike_id":"2a638e17-705a-4d1c-b425-3c1886055111","system_id":"levelo_inurba_marseille","lat":43.293009,"lon":5.374584,"is_reserved":false,"is_disabled":false,"rental_uris":{"android":"levelo://app?vid=2a638e17-705a-4d1c-b425-3c1886055111","ios":"levelo://app?vid=2a638e17-705a-4d1c-b425-3c1886055111"},"vehicle_type_id":"4","last_reported":1685012738,"current_range_meters":29200,"station_id":"ce4bgi12rcd13ifvqb70","pricing_plan_id":"free"},{"bike_id":"a03600e6-3db5-40b2-8e21-94b480cb9059","system_id":"levelo_inurba_marseille","lat":43.29297,"lon":5.37442,"is_reserved":false,"is_disabled":false,"rental_uris":{"android":"levelo://app?vid=a03600e6-3db5-40b2-8e21-94b480cb9059","ios":"levelo://app?vid=a03600e6-3db5-40b2-8e21-94b480cb9059"},"vehicle_type_id":"4","last_reported":1685012738,"current_range_meters":2400,"station_id":"ce4bgi12rcd13ifvqb70","pricing_plan_id":"free"},{"bike_id":"e071d18d-b99e-4bf4-bb90-ffdf3c0ddc9b","system_id":"levelo_inurba_marseille","lat":43.30597,"lon":5.39356,"is_reserved":false,"is_disabled":false,"rental_uris":{"android":"levelo://app?vid=e071d18d-b99e-4bf4-bb90-ffdf3c0ddc9b","ios":"levelo://app?vid=e071d18d-b99e-4bf4-bb90-ffdf3c0ddc9b"},"vehicle_type_id":"4","last_reported":1685012738,"current_range_meters":24400,"station_id":"ce4bh0p2rcd13ifvqd80","pricing_plan_id":"free"},{"bike_id":"c682fab3-0308-431a-a06f-e985fae31ac8","system_id":"levelo_inurba_marseille","lat":43.305994,"lon":5.393687,"is_reserved":false,"is_disabled":false,"rental_uris":{"android":"levelo://app?vid=c682fab3-0308-431a-a06f-e985fae31ac8","ios":"levelo://app?vid=c682fab3-0308-431a-a06f-e985fae31ac8"},"vehicle_type_id":"4","last_reported":1685012738,"current_range_meters":22800,"station_id":"ce4bh0p2rcd13ifvqd80","pricing_plan_id":"free"},{"bike_id":"a8ae94b1-c6f4-4b35-883e-c8645212ebf1","system_id":"levelo_inurba_marseille","lat":43.30596,"lon":5.39359,"is_reserved":false,"is_disabled":false,"rental_uris":{"android":"levelo://app?vid=a8ae94b1-c6f4-4b35-883e-c8645212ebf1","ios":"levelo://app?vid=a8ae94b1-c6f4-4b35-883e-c8645212ebf1"},"vehicle_type_id":"4","last_reported":1685012738,"current_range_meters":23200,"station_id":"ce4bh0p2rcd13ifvqd80","pricing_plan_id":"free"},{"bike_id":"ed796b02-600e-40d3-9b68-ff3f14a7bec0","system_id":"levelo_inurba_marseille","lat":43.305994,"lon":5.393687,"is_reserved":false,"is_disabled":false,"rental_uris":{"android":"levelo://app?vid=ed796b02-600e-40d3-9b68-ff3f14a7bec0","ios":"levelo://app?vid=ed796b02-600e-40d3-9b68-ff3f14a7bec0"},"vehicle_type_id":"4","last_reported":1685012738,"current_range_meters":23600,"station_id":"ce4bh0p2rcd13ifvqd80","pricing_plan_id":"free"},{"bike_id":"7fa7919a-f17c-417b-ad35-ba593915f532","system_id":"levelo_inurba_marseille","lat":43.30596,"lon":5.3936,"is_reserved":false,"is_disabled":false,"rental_uris":{"android":"levelo://app?vid=7fa7919a-f17c-417b-ad35-ba593915f532","ios":"levelo://app?vid=7fa7919a-f17c-417b-ad35-ba593915f532"},"vehicle_type_id":"4","last_reported":1685012738,"current_range_meters":19200,"station_id":"ce4bh0p2rcd13ifvqd80","pricing_plan_id":"free"},{"bike_id":"93cef55c-f963-45da-af94-d8884431b82c","system_id":"levelo_inurba_marseille","lat":43.305994,"lon":5.393687,"is_reserved":false,"is_disabled":false,"rental_uris":{"android":"levelo://app?vid=93cef55c-f963-45da-af94-d8884431b82c","ios":"levelo://app?vid=93cef55c-f963-45da-af94-d8884431b82c"},"vehicle_type_id":"4","last_reported":1685012738,"current_range_meters":20800,"station_id":"ce4bh0p2rcd13ifvqd80","pricing_plan_id":"free"},{"bike_id":"13dcc581-956c-4292-be64-8c0ffc4b2577","system_id":"levelo_inurba_marseille","lat":43.305994,"lon":5.393687,"is_reserved":false,"is_disabled":false,"rental_uris":{"android":"levelo://app?vid=13dcc581-956c-4292-be64-8c0ffc4b2577","ios":"levelo://app?vid=13dcc581-956c-4292-be64-8c0ffc4b2577"},"vehicle_type_id":"4","last_reported":1685012738,"current_range_meters":9200,"station_id":"ce4bh0p2rcd13ifvqd80","pricing_plan_id":"free"},{"bike_id":"2d8b0290-32c9-4766-a177-5dfb1b2ba7aa","system_id":"levelo_inurba_marseille","lat":43.306,"lon":5.39364,"is_reserved":false,"is_disabled":false,"rental_uris":{"android":"levelo://app?vid=2d8b0290-32c9-4766-a177-5dfb1b2ba7aa","ios":"levelo://app?vid=2d8b0290-32c9-4766-a177-5dfb1b2ba7aa"},"vehicle_type_id":"4","last_reported":1685012738,"current_range_meters":22400,"station_id":"ce4bh0p2rcd13ifvqd80","pricing_plan_id":"free"},{"bike_id":"948582cc-2858-4fc3-8059-3dda42f92b19","system_id":"levelo_inurba_marseille","lat":43.30591,"lon":5.39363,"is_reserved":false,"is_disabled":false,"rental_uris":{"android":"levelo://app?vid=948582cc-2858-4fc3-8059-3dda42f92b19","ios":"levelo://app?vid=948582cc-2858-4fc3-8059-3dda42f92b19"},"vehicle_type_id":"4","last_reported":1685012738,"current_range_meters":24800,"station_id":"ce4bh0p2rcd13ifvqd80","pricing_plan_id":"free"},{"bike_id":"9b87ec85-05c2-45c8-9974-7c90e0249549","system_id":"levelo_inurba_marseille","lat":43.30592,"lon":5.39364,"is_reserved":false,"is_disabled":false,"rental_uris":{"android":"levelo://app?vid=9b87ec85-05c2-45c8-9974-7c90e0249549","ios":"levelo://app?vid=9b87ec85-05c2-45c8-9974-7c90e0249549"},"vehicle_type_id":"4","last_reported":1685012738,"current_range_meters":22800,"station_id":"ce4bh0p2rcd13ifvqd80","pricing_plan_id":"free"},{"bike_id":"fbf95bd8-eb69-4e8a-831b-77d582ca73ef","system_id":"levelo_inurba_marseille","lat":43.303002,"lon":5.392142,"is_reserved":false,"is_disabled":false,"rental_uris":{"android":"levelo://app?vid=fbf95bd8-eb69-4e8a-831b-77d582ca73ef","ios":"levelo://app?vid=fbf95bd8-eb69-4e8a-831b-77d582ca73ef"},"vehicle_type_id":"4","last_reported":1685012738,"current_range_meters":31200,"station_id":"ce4bgkh2rcd13ifvqbk0","pricing_plan_id":"free"},{"bike_id":"11c0c71e-f2e6-4ae0-aef5-69b4551df894","system_id":"levelo_inurba_marseille","lat":43.303002,"lon":5.392142,"is_reserved":false,"is_disabled":false,"rental_uris":{"android":"levelo://app?vid=11c0c71e-f2e6-4ae0-aef5-69b4551df894","ios":"levelo://app?vid=11c0c71e-f2e6-4ae0-aef5-69b4551df894"},"vehicle_type_id":"4","last_reported":1685012738,"current_range_meters":28800,"station_id":"ce4bgkh2rcd13ifvqbk0","pricing_plan_id":"free"},{"bike_id":"973dabc5-9a6a-4c69-9420-68fc33f4cc62","system_id":"levelo_inurba_marseille","lat":43.2936,"lon":5.37835,"is_reserved":false,"is_disabled":false,"rental_uris":{"android":"levelo://app?vid=973dabc5-9a6a-4c69-9420-68fc33f4cc62","ios":"levelo://app?vid=973dabc5-9a6a-4c69-9420-68fc33f4cc62"},"vehicle_type_id":"4","last_reported":1685012738,"current_range_meters":31200,"station_id":"ce4bgjh2rcd13ifvqbf0","pricing_plan_id":"free"},{"bike_id":"14b15ad6-a28e-4745-bb81-262752302133","system_id":"levelo_inurba_marseille","lat":43.29376,"lon":5.37849,"is_reserved":false,"is_disabled":false,"rental_uris":{"android":"levelo://app?vid=14b15ad6-a28e-4745-bb81-262752302133","ios":"levelo://app?vid=14b15ad6-a28e-4745-bb81-262752302133"},"vehicle_type_id":"4","last_reported":1685012738,"current_range_meters":6800,"station_id":"ce4bgjh2rcd13ifvqbf0","pricing_plan_id":"free"},{"bike_id":"5ed48110-9618-4114-8ec0-42c945c643e8","system_id":"levelo_inurba_marseille","lat":43.2936,"lon":5.37835,"is_reserved":false,"is_disabled":false,"rental_uris":{"android":"levelo://app?vid=5ed48110-9618-4114-8ec0-42c945c643e8","ios":"levelo://app?vid=5ed48110-9618-4114-8ec0-42c945c643e8"},"vehicle_type_id":"4","last_reported":1685012738,"current_range_meters":26000,"station_id":"ce4bgjh2rcd13ifvqbf0","pricing_plan_id":"free"},{"bike_id":"579911fe-e351-4eac-bc2b-da60d64e8c39","system_id":"levelo_inurba_marseille","lat":43.302992,"lon":5.392136,"is_reserved":false,"is_disabled":false,"rental_uris":{"android":"levelo://app?vid=579911fe-e351-4eac-bc2b-da60d64e8c39","ios":"levelo://app?vid=579911fe-e351-4eac-bc2b-da60d64e8c39"},"vehicle_type_id":"4","last_reported":1685012738,"current_range_meters":25200,"station_id":"ce4bgkh2rcd13ifvqbk0","pricing_plan_id":"free"},{"bike_id":"f7fe02a1-e5eb-4949-bc0d-345a0d169549","system_id":"levelo_inurba_marseille","lat":43.300852,"lon":5.390859,"is_reserved":false,"is_disabled":false,"rental_uris":{"android":"levelo://app?vid=f7fe02a1-e5eb-4949-bc0d-345a0d169549","ios":"levelo://app?vid=f7fe02a1-e5eb-4949-bc0d-345a0d169549"},"vehicle_type_id":"4","last_reported":1685012738,"current_range_meters":30000,"station_id":"ce4bh192rcd13ifvqdb0","pricing_plan_id":"free"},{"bike_id":"367fb829-3e21-47f0-9c87-16f531dab7e9","system_id":"levelo_inurba_marseille","lat":43.292663,"lon":5.376394,"is_reserved":false,"is_disabled":false,"rental_uris":{"android":"levelo://app?vid=367fb829-3e21-47f0-9c87-16f531dab7e9","ios":"levelo://app?vid=367fb829-3e21-47f0-9c87-16f531dab7e9"},"vehicle_type_id":"4","last_reported":1685012738,"current_range_meters":27600,"station_id":"ce4bgi12rcd13ifvqb80","pricing_plan_id":"free"},{"bike_id":"af0a295c-ae19-42cb-b8db-a3036f91fbf0","system_id":"levelo_inurba_marseille","lat":43.29194,"lon":5.35804,"is_reserved":false,"is_disabled":false,"rental_uris":{"android":"levelo://app?vid=af0a295c-ae19-42cb-b8db-a3036f91fbf0","ios":"levelo://app?vid=af0a295c-ae19-42cb-b8db-a3036f91fbf0"},"vehicle_type_id":"4","last_reported":1685012738,"current_range_meters":0,"station_id":"ce4bhb12rcd13ifvqel0","pricing_plan_id":"free"},{"bike_id":"40b68277-6f5f-4aac-8216-847d33e7dfd3","system_id":"levelo_inurba_marseille","lat":43.309038,"lon":5.396546,"is_reserved":false,"is_disabled":false,"rental_uris":{"android":"levelo://app?vid=40b68277-6f5f-4aac-8216-847d33e7dfd3","ios":"levelo://app?vid=40b68277-6f5f-4aac-8216-847d33e7dfd3"},"vehicle_type_id":"4","last_reported":1685012738,"current_range_meters":12800,"station_id":"ce4bh012rcd13ifvqcv0","pricing_plan_id":"free"},{"bike_id":"8344e5c1-f4db-45f1-bcb4-31122ce74860","system_id":"levelo_inurba_marseille","lat":43.31331,"lon":5.39692,"is_reserved":false,"is_disabled":false,"rental_uris":{"android":"levelo://app?vid=8344e5c1-f4db-45f1-bcb4-31122ce74860","ios":"levelo://app?vid=8344e5c1-f4db-45f1-bcb4-31122ce74860"},"vehicle_type_id":"4","last_reported":1685012738,"current_range_meters":27600,"station_id":"ce4bgvp2rcd13ifvqcu0","pricing_plan_id":"free"},{"bike_id":"31ad45cc-cd55-4fa4-8819-4f1a25288b6a","system_id":"levelo_inurba_marseille","lat":43.31323,"lon":5.39704,"is_reserved":false,"is_disabled":false,"rental_uris":{"android":"levelo://app?vid=31ad45cc-cd55-4fa4-8819-4f1a25288b6a","ios":"levelo://app?vid=31ad45cc-cd55-4fa4-8819-4f1a25288b6a"},"vehicle_type_id":"4","last_reported":1685012738,"current_range_meters":6000,"station_id":"ce4bgvp2rcd13ifvqcu0","pricing_plan_id":"free"},{"bike_id":"235ba1ad-2be8-4177-8fd7-e69e6531ed05","system_id":"levelo_inurba_marseille","lat":43.29529,"lon":5.385581,"is_reserved":false,"is_disabled":false,"rental_uris":{"android":"levelo://app?vid=235ba1ad-2be8-4177-8fd7-e69e6531ed05","ios":"levelo://app?vid=235ba1ad-2be8-4177-8fd7-e69e6531ed05"},"vehicle_type_id":"4","last_reported":1685012738,"current_range_meters":18800,"station_id":"ce4bgih2rcd13ifvqba0","pricing_plan_id":"free"},{"bike_id":"4e13fc0a-0319-4f10-9718-797b98bbb597","system_id":"levelo_inurba_marseille","lat":43.29529,"lon":5.385581,"is_reserved":false,"is_disabled":false,"rental_uris":{"android":"levelo://app?vid=4e13fc0a-0319-4f10-9718-797b98bbb597","ios":"levelo://app?vid=4e13fc0a-0319-4f10-9718-797b98bbb597"},"vehicle_type_id":"4","last_reported":1685012738,"current_range_meters":22800,"station_id":"ce4bgih2rcd13ifvqba0","pricing_plan_id":"free"},{"bike_id":"73d35715-e680-432c-b430-700a19b588a8","system_id":"levelo_inurba_marseille","lat":43.30197,"lon":5.39464,"is_reserved":false,"is_disabled":false,"rental_uris":{"android":"levelo://app?vid=73d35715-e680-432c-b430-700a19b588a8","ios":"levelo://app?vid=73d35715-e680-432c-b430-700a19b588a8"},"vehicle_type_id":"4","last_reported":1685012738,"current_range_meters":19200,"station_id":"ce4bh0p2rcd13ifvqd70","pricing_plan_id":"free"},