{"last_updated":1729969553,"ttl":60,"version":"2.2","data":{"bikes":[{"bike_id":"c894f70f-2a6f-425b-ba00-c08216f3e7e3","system_id":"levelo_inurba_marseille","lat":43.29628,"lon":5.37169,"is_reserved":false,"is_disabled":false,"rental_uris":{"android":"levelo://app?vid=c894f70f-2a6f-425b-ba00-c08216f3e7e3","ios":"levelo://app?vid=c894f70f-2a6f-425b-ba00-c08216f3e7e3"},"vehicle_type_id":"4","last_reported":1729969553,"current_range_meters":39200,"station_id":"ce4bgnh2rcd13ifvqc0g","pricing_plan_id":"cebpf4jnsgd1na2vs0mg"},{"bike_id":"ae0b6f7e-ff4f-4b67-ace3-b86964f492d6","system_id":"levelo_inurba_marseille","lat":43.241888,"lon":5.397174,"is_reserved":false,"is_disabled":false,"rental_uris":{"android":"levelo://app?vid=ae0b6f7e-ff4f-4b67-ace3-b86964f492d6","ios":"levelo://app?vid=ae0b6f7e-ff4f-4b67-ace3-b86964f492d6"},"vehicle_type_id":"4","last_reported":1729969553,"current_range_meters":17600,"station_id":"ce4bhn12rcd13ifvqgpg","pricing_plan_id":"cebpf4jnsgd1na2vs0mg"},{"bike_id":"a5665962-8f9b-48f5-a5d3-fa16ab36a6ff","system_id":"levelo_inurba_marseille","lat":43.28078,"lon":5.39662,"is_reserved":false,"is_disabled":false,"rental_uris":{"android":"levelo://app?vid=a5665962-8f9b-48f5-a5d3-fa16ab36a6ff","ios":"levelo://app?vid=a5665962-8f9b-48f5-a5d3-fa16ab36a6ff"},"vehicle_type_id":"4","last_reported":1729969553,"current_range_meters":38000,"station_id":"ce4bho12rcd13ifvqh2g","pricing_plan_id":"cebpf4jnsgd1na2vs0mg"},{"bike_id":"d5efcb1a-289c-421e-bfad-7702f935411c","system_id":"levelo_inurba_marseille","lat":43.25825,"lon":5.39435,"is_reserved":false,"is_disabled":false,"rental_uris":{"android":"levelo://app?vid=d5efcb1a-289c-421e-bfad-7702f935411c","ios":"levelo://app?vid=d5efcb1a-289c-421e-bfad-7702f935411c"},"vehicle_type_id":"4","last_reported":1729969553,"current_range_meters":33200,"station_id":"ce4bhip2rcd13ifvqft0","pricing_plan_id":"cebpf4jnsgd1na2vs0mg"},{"bike_id":"26d518f2-e761-46eb-bc7c-d62463112389","system_id":"levelo_inurba_marseille","lat":43.29679,"lon":5.37292,"is_reserved":false,"is_disabled":false,"rental_uris":{"android":"levelo://app?vid=26d518f2-e761-46eb-bc7c-d62463112389","ios":"levelo://app?vid=26d518f2-e761-46eb-bc7c-d62463112389"},"vehicle_type_id":"4","last_reported":1729969553,"current_range_meters":39200,"station_id":"ce4bgk12rcd13ifvqbj0","pricing_plan_id":"cebpf4jnsgd1na2vs0mg"},{"bike_id":"48660d12-eacc-4f93-a06c-04c2aa9e37e4","system_id":"levelo_inurba_marseille","lat":43.268,"lon":5.40275,"is_reserved":false,"is_disabled":false,"rental_uris":{"android":"levelo://app?vid=48660d12-eacc-4f93-a06c-04c2aa9e37e4","ios":"levelo://app?vid=48660d12-eacc-4f93-a06c-04c2aa9e37e4"},"vehicle_type_id":"4","last_reported":1729969553,"current_range_meters":21600,"station_id":"ce501612rcd8frsf0b60","pricing_plan_id":"cebpf4jnsgd1na2vs0mg"},{"bike_id":"332166a0-17e4-49e8-bd99-62ae5090f294","system_id":"levelo_inurba_marseille","lat":43.292624,"lon":5.384501,"is_reserved":false,"is_disabled":false,"rental_uris":{"android":"levelo://app?vid=332166a0-17e4-49e8-bd99-62ae5090f294","ios":"levelo://app?vid=332166a0-17e4-49e8-bd99-62ae5090f294"},"vehicle_type_id":"4","last_reported":1729969553,"current_range_meters":38800,"station_id":"ce4bh692rcd13ifvqea0","pricing_plan_id":"cebpf4jnsgd1na2vs0mg"},{"bike_id":"82f409f0-9c9f-4e73-930f-3ee9f785c37f","system_id":"levelo_inurba_marseille","lat":43.30207,"lon":5.39469,"is_reserved":false,"is_disabled":false,"rental_uris":{"android":"levelo://app?vid=82f409f0-9c9f-4e73-930f-3ee9f785c37f","ios":"levelo://app?vid=82f409f0-9c9f-4e73-930f-3ee9f785c37f"},"vehicle_type_id":"4","last_reported":1729969553,"current_range_meters":38800,"station_id":"ce4bh0p2rcd13ifvqd70","pricing_plan_id":"cebpf4jnsgd1na2vs0mg"},{"bike_id":"3381cd79-1316-4c50-ad86-ee5056cd0e14","system_id":"levelo_inurba_marseille","lat":43.26067,"lon":5.39398,"is_reserved":false,"is_disabled":false,"rental_uris":{"android":"levelo://app?vid=3381cd79-1316-4c50-ad86-ee5056cd0e14","ios":"levelo://app?vid=3381cd79-1316-4c50-ad86-ee5056cd0e14"},"vehicle_type_id":"4","last_reported":1729969553,"current_range_meters":35200,"station_id":"ce4bhh92rcd13ifvqfj0","pricing_plan_id":"cebpf4jnsgd1na2vs0mg"},{"bike_id":"16e9bde6-cded-4d6e-8f02-fc109b1bd1da","system_id":"levelo_inurba_marseille","lat":43.305972,"lon":5.372291,"is_reserved":false,"is_disabled":false,"rental_uris":{"android":"levelo://app?vid=16e9bde6-cded-4d6e-8f02-fc109b1bd1da","ios":"levelo://app?vid=16e9bde6-cded-4d6e-8f02-fc109b1bd1da"},"vehicle_type_id":"4","last_reported":1729969553,"current_range_meters":20800,"station_id":"ce4bgqh2rcd13ifvqc4g","pricing_plan_id":"cebpf4jnsgd1na2vs0mg"},{"bike_id":"a7c0cf59-46c7-407f-8733-488f8b043784","system_id":"levelo_inurba_marseille","lat":43.29916,"lon":5.38152,"is_reserved":false,"is_disabled":false,"rental_uris":{"android":"levelo://app?vid=a7c0cf59-46c7-407f-8733-488f8b043784","ios":"levelo://app?vid=a7c0cf59-46c7-407f-8733-488f8b043784"},"vehicle_type_id":"4","last_reported":1729969553,"current_range_meters":34800,"station_id":"ce4bgj12rcd13ifvqbc0","pricing_plan_id":"cebpf4jnsgd1na2vs0mg"},{"bike_id":"93b8a5b6-66ad-4a6e-af44-9f2521dc496d","system_id":"levelo_inurba_marseille","lat":43.30886,"lon":5.39655,"is_reserved":false,"is_disabled":false,"rental_uris":{"android":"levelo://app?vid=93b8a5b6-66ad-4a6e-af44-9f2521dc496d","ios":"levelo://app?vid=93b8a5b6-66ad-4a6e-af44-9f2521dc496d"},"vehicle_type_id":"4","last_reported":1729969553,"current_range_meters":28400,"station_id":"ce4bh012rcd13ifvqcv0","pricing_plan_id":"cebpf4jnsgd1na2vs0mg"},{"bike_id":"a15fa7ff-93f4-4c55-ad50-5f623b517d5d","system_id":"levelo_inurba_marseille","lat":43.29031,"lon":5.37562,"is_reserved":false,"is_disabled":false,"rental_uris":{"android":"levelo://app?vid=a15fa7ff-93f4-4c55-ad50-5f623b517d5d","ios":"levelo://app?vid=a15fa7ff-93f4-4c55-ad50-5f623b517d5d"},"vehicle_type_id":"4","last_reported":1729969553,"current_range_meters":38800,"station_id":"ce4bh692rcd13ifvqe90","pricing_plan_id":"cebpf4jnsgd1na2vs0mg"},{"bike_id":"47623020-0c90-41e5-bb48-79ad4b2c18cf","system_id":"levelo_inurba_marseille","lat":43.3089,"lon":5.39646,"is_reserved":false,"is_disabled":false,"rental_uris":{"android":"levelo://app?vid=47623020-0c90-41e5-bb48-79ad4b2c18cf","ios":"levelo://app?vid=47623020-0c90-41e5-bb48-79ad4b2c18cf"},"vehicle_type_id":"4","last_reported":1729969553,"current_range_meters":39200,"station_id":"ce4bh012rcd13ifvqcv0","pricing_plan_id":"cebpf4jnsgd1na2vs0mg"},{"bike_id":"e7c10702-9019-46f5-afdb-0f55cecf6380","system_id":"levelo_inurba_marseille","lat":43.31164,"lon":5.38716,"is_reserved":false,"is_disabled":false,"rental_uris":{"android":"levelo://app?vid=e7c10702-9019-46f5-afdb-0f55cecf6380","ios":"levelo://app?vid=e7c10702-9019-46f5-afdb-0f55cecf6380"},"vehicle_type_id":"4","last_reported":1729969553,"current_range_meters":20400,"station_id":"ce4bgv12rcd13ifvqcp0","pricing_plan_id":"cebpf4jnsgd1na2vs0mg"},{"bike_id":"a4418c4a-7e8f-402f-8ae8-b6f6bf553309","system_id":"levelo_inurba_marseille","lat":43.32048,"lon":5.41543,"is_reserved":false,"is_disabled":false,"rental_uris":{"android":"levelo://app?vid=a4418c4a-7e8f-402f-8ae8-b6f6bf553309","ios":"levelo://app?vid=a4418c4a-7e8f-402f-8ae8-b6f6bf553309"},"vehicle_type_id":"4","last_reported":1729969553,"current_range_meters":38000,"station_id":"ce4bhq92rcd13ifvqhkg","pricing_plan_id":"cebpf4jnsgd1na2vs0mg"},{"bike_id":"6ef9c451-07a1-433a-a702-ff7bb7c5a616","system_id":"levelo_inurba_marseille","lat":43.30476,"lon":5.40091,"is_reserved":false,"is_disabled":false,"rental_uris":{"android":"levelo://app?vid=6ef9c451-07a1-433a-a702-ff7bb7c5a616","ios":"levelo://app?vid=6ef9c451-07a1-433a-a702-ff7bb7c5a616"},"vehicle_type_id":"4","last_reported":1729969553,"current_range_meters":32400,"station_id":"","pricing_plan_id":"cebpf4jnsgd1na2vs0mg"},{"bike_id":"558cc369-037c-45c6-9887-1f7236378f73","system_id":"levelo_inurba_marseille","lat":43.31197,"lon":5.38775,"is_reserved":false,"is_disabled":false,"rental_uris":{"android":"levelo://app?vid=558cc369-037c-45c6-9887-1f7236378f73","ios":"levelo://app?vid=558cc369-037c-45c6-9887-1f7236378f73"},"vehicle_type_id":"4","last_reported":1729969553,"current_range_meters":4800,"station_id":"ce4bgv12rcd13ifvqcp0","pricing_plan_id":"cebpf4jnsgd1na2vs0mg"},{"bike_id":"78fa142a-540f-4add-96b9-80802b68d17b","system_id":"levelo_inurba_marseille","lat":43.29516,"lon":5.39037,"is_reserved":false,"is_disabled":false,"rental_uris":{"android":"levelo://app?vid=78fa142a-540f-4add-96b9-80802b68d17b","ios":"levelo://app?vid=78fa142a-540f-4add-96b9-80802b68d17b"},"vehicle_type_id":"4","last_reported":1729969553,"current_range_meters":18000,"station_id":"ce4bh3p2rcd13ifvqdp0","pricing_plan_id":"cebpf4jnsgd1na2vs0mg"},{"bike_id":"569b7a8b-260c-4a91-b446-1637f95c418f","system_id":"levelo_inurba_marseille","lat":43.2979,"lon":5.38105,"is_reserved":false,"is_disabled":false,"rental_uris":{"android":"levelo://app?vid=569b7a8b-260c-4a91-b446-1637f95c418f","ios":"levelo://app?vid=569b7a8b-260c-4a91-b446-1637f95c418f"},"vehicle_type_id":"4","last_reported":1729969553,"current_range_meters":36400,"station_id":"ce4bgip2rcd13ifvqbb0","pricing_plan_id":"cebpf4jnsgd1na2vs0mg"},{"bike_id":"62549f93-d342-45bb-a02e-c59e2942f4a9","system_id":"levelo_inurba_marseille","lat":43.29585,"lon":5.36744,"is_reserved":false,"is_disabled":false,"rental_uris":{"android":"levelo://app?vid=62549f93-d342-45bb-a02e-c59e2942f4a9","ios":"levelo://app?vid=62549f93-d342-45bb-a02e-c59e2942f4a9"},"vehicle_type_id":"4","last_reported":1729969553,"current_range_meters":38800,"station_id":"ce4bgph2rcd13ifvqc2g","pricing_plan_id":"cebpf4jnsgd1na2vs0mg"},{"bike_id":"54bcc0ea-cce7-4187-9cab-1ca588f3b085","system_id":"levelo_inurba_marseille","lat":43.24644,"lon":5.38899,"is_reserved":false,"is_disabled":false,"rental_uris":{"android":"levelo://app?vid=54bcc0ea-cce7-4187-9cab-1ca588f3b085","ios":"levelo://app?vid=54bcc0ea-cce7-4187-9cab-1ca588f3b085"},"vehicle_type_id":"4","last_reported":1729969553,"current_range_meters":25600,"station_id":"ce4bhg12rcd13ifvqf60","pricing_plan_id":"cebpf4jnsgd1na2vs0mg"},{"bike_id":"e2aa58f7-d33c-4137-a1e4-dac1de2e1489","system_id":"levelo_inurba_marseille","lat":43.297787,"lon":5.365904,"is_reserved":false,"is_disabled":false,"rental_uris":{"android":"levelo://app?vid=e2aa58f7-d33c-4137-a1e4-dac1de2e1489","ios":"levelo://app?vid=e2aa58f7-d33c-4137-a1e4-dac1de2e1489"},"vehicle_type_id":"4","last_reported":1729969553,"current_range_meters":38400,"station_id":"ce4bgrp2rcd13ifvqc9g","pricing_plan_id":"cebpf4jnsgd1na2vs0mg"},{"bike_id":"348ce854-d9c3-4e5a-a4a9-1fa42d764b3e","system_id":"levelo_inurba_marseille","lat":43.27834,"lon":5.39208,"is_reserved":false,"is_disabled":false,"rental_uris":{"android":"levelo://app?vid=348ce854-d9c3-4e5a-a4a9-1fa42d764b3e","ios":"levelo://app?vid=348ce854-d9c3-4e5a-a4a9-1fa42d764b3e"},"vehicle_type_id":"4","last_reported":1729969553,"current_range_meters":18800,"station_id":"ce4bhjp2rcd13ifvqga0","pricing_plan_id":"cebpf4jnsgd1na2vs0mg"},{"bike_id":"d35e5b6c-fb08-4a71-b70f-638bcfea4cf6","system_id":"levelo_inurba_marseille","lat":43.31261,"lon":5.40175,"is_reserved":false,"is_disabled":false,"rental_uris":{"android":"levelo://app?vid=d35e5b6c-fb08-4a71-b70f-638bcfea4cf6","ios":"levelo://app?vid=d35e5b6c-fb08-4a71-b70f-638bcfea4cf6"},"vehicle_type_id":"4","last_reported":1729969553,"current_range_meters":38800,"station_id":"ce4bh092rcd13ifvqd30","pricing_plan_id":"cebpf4jnsgd1na2vs0mg"},{"bike_id":"95082efa-9423-420a-905a-859dc2ae2023","system_id":"levelo_inurba_marseille","lat":43.29522,"lon":5.39052,"is_reserved":false,"is_disabled":false,"rental_uris":{"android":"levelo://app?vid=95082efa-9423-420a-905a-859dc2ae2023","ios":"levelo://app?vid=95082efa-9423-420a-905a-859dc2ae2023"},"vehicle_type_id":"4","last_reported":1729969553,"current_range_meters":19200,"station_id":"ce4bh3p2rcd13ifvqdp0","pricing_plan_id":"cebpf4jnsgd1na2vs0mg"},{"bike_id":"633bdd84-8a27-486c-8d5a-62bd9dd56f9f","system_id":"levelo_inurba_marseille","lat":43.26943,"lon":5.40256,"is_reserved":false,"is_disabled":false,"rental_uris":{"android":"levelo://app?vid=633bdd84-8a27-486c-8d5a-62bd9dd56f9f","ios":"levelo://app?vid=633bdd84-8a27-486c-8d5a-62bd9dd56f9f"},"vehicle_type_id":"4","last_reported":1729969553,"current_range_meters":39200,"station_id":"cjm6bp8fraef2m0cb0m0","pricing_plan_id":"cebpf4jnsgd1na2vs0mg"},{"bike_id":"365042da-fe2f-49c8-bdd1-2a0373063ba3","system_id":"levelo_inurba_marseille","lat":43.29624,"lon":5.37171,"is_reserved":false,"is_disabled":false,"rental_uris":{"android":"levelo://app?vid=365042da-fe2f-49c8-bdd1-2a0373063ba3","ios":"levelo://app?vid=365042da-fe2f-49c8-bdd1-2a0373063ba3"},"vehicle_type_id":"4","last_reported":1729969553,"current_range_meters":29600,"station_id":"ce4bgnh2rcd13ifvqc0g","pricing_plan_id":"cebpf4jnsgd1na2vs0mg"},{"bike_id":"7ad5cee9-1700-4df5-9506-106d58079bca","system_id":"levelo_inurba_marseille","lat":43.2962,"lon":5.37149,"is_reserved":false,"is_disabled":false,"rental_uris":{"android":"levelo://app?vid=7ad5cee9-1700-4df5-9506-106d58079bca","ios":"levelo://app?vid=7ad5cee9-1700-4df5-9506-106d58079bca"},"vehicle_type_id":"4","last_reported":1729969553,"current_range_meters":39200,"station_id":"ce4bgnh2rcd13ifvqc0g","pricing_plan_id":"cebpf4jnsgd1na2vs0mg"},{"bike_id":"29f66952-0970-424a-850e-2421b29f59ce","system_id":"levelo_inurba_marseille","lat":43.25119,"lon":5.40315,"is_reserved":false,"is_disabled":false,"rental_uris":{"android":"levelo://app?vid=29f66952-0970-424a-850e-2421b29f59ce","ios":"levelo://app?vid=29f66952-0970-424a-850e-2421b29f59ce"},"vehicle_type_id":"4","last_reported":1729969553,"current_range_meters":30000,"station_id":"ce4bhlh2rcd13ifvqgig","pricing_plan_id":"cebpf4jnsgd1na2vs0mg"},{"bike_id":"779cf707-07aa-4d01-b1a5-a56b5b977378","system_id":"levelo_inurba_marseille","lat":43.2407,"lon":5.37766,"is_reserved":false,"is_disabled":false,"rental_uris":{"android":"levelo://app?vid=779cf707-07aa-4d01-b1a5-a56b5b977378","ios":"levelo://app?vid=779cf707-07aa-4d01-b1a5-a56b5b977378"},"vehicle_type_id":"4","last_reported":1729969553,"current_range_meters":33600,"station_id":"ce4bhnp2rcd13ifvqgvg","pricing_plan_id":"cebpf4jnsgd1na2vs0mg"},{"bike_id":"7c18295e-37bd-4aba-ab2e-5f3a556ffc92","system_id":"levelo_inurba_marseille","lat":43.27313,"lon":5.39091,"is_reserved":false,"is_disabled":false,"rental_uris":{"android":"levelo://app?vid=7c18295e-37bd-4aba-ab2e-5f3a556ffc92","ios":"levelo://app?vid=7c18295e-37bd-4aba-ab2e-5f3a556ffc92"},"vehicle_type_id":"4","last_reported":1729969553,"current_range_meters":33200,"station_id":"ce4bhgp2rcd13ifvqfe0","pricing_plan_id":"cebpf4jnsgd1na2vs0mg"},{"bike_id":"f15302fc-4070-4923-929e-e016a73baf0e","system_id":"levelo_inurba_marseille","lat":43.276784,"lon":5.388846,"is_reserved":false,"is_disabled":false,"rental_uris":{"android":"levelo://app?vid=f15302fc-4070-4923-929e-e016a73baf0e","ios":"levelo://app?vid=f15302fc-4070-4923-929e-e016a73baf0e"},"vehicle_type_id":"4","last_reported":1729969553,"current_range_meters":38000,"station_id":"ce4bhi12rcd13ifvqfo0","pricing_plan_id":"cebpf4jnsgd1na2vs0mg"},{"bike_id":"6dffe3f6-ae62-40b1-a0e8-b66a1ae742df","system_id":"levelo_inurba_marseille","lat":43.29416,"lon":5.3862,"is_reserved":false,"is_disabled":false,"rental_uris":{"android":"levelo://app?vid=6dffe3f6-ae62-40b1-a0e8-b66a1ae742df","ios":"levelo://app?vid=6dffe3f6-ae62-40b1-a0e8-b66a1ae742df"},"vehicle_type_id":"4","last_reported":1729969553,"current_range_meters":26800,"station_id":"ce4bh2h2rcd13ifvqdh0","pricing_plan_id":"cebpf4jnsgd1na2vs0mg"},{"bike_id":"c8f33dbe-8d46-4679-b0bd-686b38e43e1d","system_id":"levelo_inurba_marseille","lat":43.24545,"lon":5.39525,"is_reserved":false,"is_disabled":false,"rental_uris":{"android":"levelo://app?vid=c8f33dbe-8d46-4679-b0bd-686b38e43e1d","ios":"levelo://app?vid=c8f33dbe-8d46-4679-b0bd-686b38e43e1d"},"vehicle_type_id":"4","last_reported":1729969553,"current_range_meters":32800,"station_id":"ce4bhlp2rcd13ifvqgjg","pricing_plan_id":"cebpf4jnsgd1na2vs0mg"},{"bike_id":"a589bf84-5e5c-4ff0-819d-b09734427918","system_id":"levelo_inurba_marseille","lat":43.2872,"lon":5.37936,"is_reserved":false,"is_disabled":false,"rental_uris":{"android":"levelo://app?vid=a589bf84-5e5c-4ff0-819d-b09734427918","ios":"levelo://app?vid=a589bf84-5e5c-4ff0-819d-b09734427918"},"vehicle_type_id":"4","last_reported":1729969553,"current_range_meters":19200,"station_id":"ce4bh9p2rcd13ifvqec0","pricing_plan_id":"cebpf4jnsgd1na2vs0mg"},{"bike_id":"f0b16241-0892-42ab-bba0-863ceaeb44f2","system_id":"levelo_inurba_marseille","lat":43.29572,"lon":5.39972,"is_reserved":false,"is_disabled":false,"rental_uris":{"android":"levelo://app?vid=f0b16241-0892-42ab-bba0-863ceaeb44f2","ios":"levelo://app?vid=f0b16241-0892-42ab-bba0-863ceaeb44f2"},"vehicle_type_id":"4","last_reported":1729969553,"current_range_meters":38000,"station_id":"ce4bh312rcd13ifvqdj0","pricing_plan_id":"cebpf4jnsgd1na2vs0mg"},{"bike_id":"1d1486ac-b582-4105-8e78-b87f875c9823","system_id":"levelo_inurba_marseille","lat":43.28712,"lon":5.37927,"is_reserved":false,"is_disabled":false,"rental_uris":{"android":"levelo://app?vid=1d1486ac-b582-4105-8e78-b87f875c9823","ios":"levelo://app?vid=1d1486ac-b582-4105-8e78-b87f875c9823"},"vehicle_type_id":"4","last_reported":1729969553,"current_range_meters":33600,"station_id":"ce4bh9p2rcd13ifvqec0","pricing_plan_id":"cebpf4jnsgd1na2vs0mg"},{"bike_id":"8c0c2fa1-37f9-48f1-b246-0c1a1c47fbb2","system_id":"levelo_inurba_marseille","lat":43.265664,"lon":5.390074,"is_reserved":false,"is_disabled":false,"rental_uris":{"android":"levelo://app?vid=8c0c2fa1-37f9-48f1-b246-0c1a1c47fbb2","ios":"levelo://app?vid=8c0c2fa1-37f9-48f1-b246-0c1a1c47fbb2"},"vehicle_type_id":"4","last_reported":1729969553,"current_range_meters":8400,"station_id":"ce4bhe12rcd13ifvqf30","pricing_plan_id":"cebpf4jnsgd1na2vs0mg"},{"bike_id":"b4c1c861-a75e-46c9-86c7-2e2349bb876d","system_id":"levelo_inurba_marseille","lat":43.25581,"lon":5.38239,"is_reserved":false,"is_disabled":false,"rental_uris":{"android":"levelo://app?vid=b4c1c861-a75e-46c9-86c7-2e2349bb876d","ios":"levelo://app?vid=b4c1c861-a75e-46c9-86c7-2e2349bb876d"},"vehicle_type_id":"4","last_reported":1729969553,"current_range_meters":27600,"station_id":"ce4bhih2rcd13ifvqfs0","pricing_plan_id":"cebpf4jnsgd1na2vs0mg"},{"bike_id":"0197a995-14d6-405e-84ea-a3fa0187e008","system_id":"levelo_inurba_marseille","lat":43.26942,"lon":5.40263,"is_reserved":false,"is_disabled":false,"rental_uris":{"android":"levelo://app?vid=0197a995-14d6-405e-84ea-a3fa0187e008","ios":"levelo://app?vid=0197a995-14d6-405e-84ea-a3fa0187e008"},"vehicle_type_id":"4","last_reported":1729969553,"current_range_meters":38800,"station_id":"cjm6bp8fraef2m0cb0m0","pricing_plan_id":"cebpf4jnsgd1na2vs0mg"},{"bike_id":"328639bc-6d3b-466e-a1c6-4ac2ea2fce3b","system_id":"levelo_inurba_marseille","lat":43.30085,"lon":5.39089,"is_reserved":false,"is_disabled":false,"rental_uris":{"android":"levelo://app?vid=328639bc-6d3b-466e-a1c6-4ac2ea2fce3b","ios":"levelo://app?vid=328639bc-6d3b-466e-a1c6-4ac2ea2fce3b"},"vehicle_type_id":"4","last_reported":1729969553,"current_range_meters":39200,"station_id":"ce4bh192rcd13ifvqdb0","pricing_plan_id":"cebpf4jnsgd1na2vs0mg"},{"bike_id":"ffa2a59a-9ef7-45e9-b043-0070963392db","system_id":"levelo_inurba_marseille","lat":43.29105,"lon":5.38138,"is_reserved":false,"is_disabled":false,"rental_uris":{"android":"levelo://app?vid=ffa2a59a-9ef7-45e9-b043-0070963392db","ios":"levelo://app?vid=ffa2a59a-9ef7-45e9-b043-0070963392db"},"vehicle_type_id":"4","last_reported":1729969553,"current_range_meters":38800,"station_id":"ce4bh512rcd13ifvqe2g","pricing_plan_id":"cebpf4jnsgd1na2vs0mg"},{"bike_id":"e6d3bcb8-2f97-4379-9ffc-70495f1bd10c","system_id":"levelo_inurba_marseille","lat":43.27314,"lon":5.39093,"is_reserved":false,"is_disabled":false,"rental_uris":{"android":"levelo://app?vid=e6d3bcb8-2f97-4379-9ffc-70495f1bd10c","ios":"levelo://app?vid=e6d3bcb8-2f97-4379-9ffc-70495f1bd10c"},"vehicle_type_id":"4","last_reported":1729969553,"current_range_meters":17200,"station_id":"ce4bhgp2rcd13ifvqfe0","pricing_plan_id":"cebpf4jnsgd1na2vs0mg"},{"bike_id":"98a02e0f-62b7-486f-a6d5-7bee8514776c","system_id":"levelo_inurba_marseille","lat":43.2968,"lon":5.3729,"is_reserved":false,"is_disabled":false,"rental_uris":{"android":"levelo://app?vid=98a02e0f-62b7-486f-a6d5-7bee8514776c","ios":"levelo://app?vid=98a02e0f-62b7-486f-a6d5-7bee8514776c"},"vehicle_type_id":"4","last_reported":1729969553,"current_range_meters":26000,"station_id":"ce4bgk12rcd13ifvqbj0","pricing_plan_id":"cebpf4jnsgd1na2vs0mg"},{"bike_id":"bdebca23-d953-4046-be99-bf6c27ec1b5d","system_id":"levelo_inurba_marseille","lat":43.29967,"lon":5.41318,"is_reserved":false,"is_disabled":false,"rental_uris":{"android":"levelo://app?vid=bdebca23-d953-4046-be99-bf6c27ec1b5d","ios":"levelo://app?vid=bdebca23-d953-4046-be99-bf6c27ec1b5d"},"vehicle_type_id":"4","last_reported":1729969553,"current_range_meters":31200,"station_id":"ce4bhp12rcd13ifvqh9g","pricing_plan_id":"cebpf4jnsgd1na2vs0mg"},{"bike_id":"5de0a329-7698-4bce-b772-88bd5818048d","system_id":"levelo_inurba_marseille","lat":43.26065,"lon":5.39392,"is_reserved":false,"is_disabled":false,"rental_uris":{"android":"levelo://app?vid=5de0a329-7698-4bce-b772-88bd5818048d","ios":"levelo://app?vid=5de0a329-7698-4bce-b772-88bd5818048d"},"vehicle_type_id":"4","last_reported":1729969553,"current_range_meters":36800,"station_id":"ce4bhh92rcd13ifvqfj0","pricing_plan_id":"cebpf4jnsgd1na2vs0mg"},{"bike_id":"373beb12-0cb8-4203-a7f1-f364e7fa360d","system_id":"levelo_inurba_marseille","lat":43.25586,"lon":5.38235,"is_reserved":false,"is_disabled":false,"rental_uris":{"android":"levelo://app?vid=373beb12-0cb8-4203-a7f1-f364e7fa360d","ios":"levelo://app?vid=373beb12-0cb8-4203-a7f1-f364e7fa360d"},"vehicle_type_id":"4","last_reported":1729969553,"current_range_meters":39200,"station_id":"ce4bhih2rcd13ifvqfs0","pricing_plan_id":"cebpf4jnsgd1na2vs0mg"},{"bike_id":"c25d9b60-5434-4e6f-b007-7ec2e900a21f","system_id":"levelo_inurba_marseille","lat":43.29313,"lon":5.37173,"is_reserved":false,"is_disabled":false,"rental_uris":{"android":"levelo://app?vid=c25d9b60-5434-4e6f-b007-7ec2e900a21f","ios":"levelo://app?vid=c25d9b60-5434-4e6f-b007-7ec2e900a21f"},"vehicle_type_id":"4","last_reported":1729969553,"current_range_meters":37600,"station_id":"ce4bgh92rcd13ifvqb40","pricing_plan_id":"cebpf4jnsgd1na2vs0mg"},{"bike_id":"27f39214-437b-402f-ba70-e8fd46f4e41b","system_id":"levelo_inurba_marseille","lat":43.284867,"lon":5.36934,"is_reserved":false,"is_disabled":false,"rental_uris":{"android":"levelo://app?vid=27f39214-437b-402f-ba70-e8fd46f4e41b","ios":"levelo://app?vid=27f39214-437b-402f-ba70-e8fd46f4e41b"},"vehicle_type_id":"4","last_reported":1729969553,"current_range_meters":24000,"station_id":"","pricing_plan_id":"cebpf4jnsgd1na2vs0mg"},{"bike_id":"f9037bee-8f49-46b6-a280-991e84e20686","system_id":"levelo_inurba_marseille","lat":43.28716,"lon":5.37936,"is_reserved":false,"is_disabled":false,"rental_uris":{"android":"levelo://app?vid=f9037bee-8f49-46b6-a280-991e84e20686","ios":"levelo://app?vid=f9037bee-8f49-46b6-a280-991e84e20686"},"vehicle_type_id":"4","last_reported":1729969553,"current_range_meters":38800,"station_id":"ce4bh9p2rcd13ifvqec0","pricing_plan_id":"cebpf4jnsgd1na2vs0mg"},{"bike_id":"9af8ba72-6e5c-4bec-865b-57ddfca3bd51","system_id":"levelo_inurba_marseille","lat":43.29042,"lon":5.35914,"is_reserved":false,"is_disabled":false,"rental_uris":{"android":"levelo://app?vid=9af8ba72-6e5c-4bec-865b-57ddfca3bd51","ios":"levelo://app?vid=9af8ba72-6e5c-4bec-865b-57ddfca3bd51"},"vehicle_type_id":"4","last_reported":1729969553,"current_range_meters":38800,"station_id":"ce4bha92rcd13ifvqeg0","pricing_plan_id":"cebpf4jnsgd1na2vs0mg"},{"bike_id":"e7360508-6978-487a-a79b-5e2dad5d0ea3","system_id":"levelo_inurba_marseille","lat":43.22936,"lon":5.35375,"is_reserved":false,"is_disabled":false,"rental_uris":{"android":"levelo://app?vid=e7360508-6978-487a-a79b-5e2dad5d0ea3","ios":"levelo://app?vid=e7360508-6978-487a-a79b-5e2dad5d0ea3"},"vehicle_type_id":"4","last_reported":1729969553,"current_range_meters":28800,"station_id":"cpo3532slgdg3j2ikp40","pricing_plan_id":"cebpf4jnsgd1na2vs0mg"},{"bike_id":"3e4eca9d-e8da-460d-848c-da8903838821","system_id":"levelo_inurba_marseille","lat":43.26192,"lon":5.37446,"is_reserved":false,"is_disabled":false,"rental_uris":{"android":"levelo://app?vid=3e4eca9d-e8da-460d-848c-da8903838821","ios":"levelo://app?vid=3e4eca9d-e8da-460d-848c-da8903838821"},"vehicle_type_id":"4","last_reported":1729969553,"current_range_meters":37600,"station_id":"ce4bhgp2rcd13ifvqfc0","pricing_plan_id":"cebpf4jnsgd1na2vs0mg"},{"bike_id":"697c0c8e-ccfe-4f85-8113-0e9655f941d2","system_id":"levelo_inurba_marseille","lat":43.29258,"lon":5.3844,"is_reserved":false,"is_disabled":false,"rental_uris":{"android":"levelo://app?vid=697c0c8e-ccfe-4f85-8113-0e9655f941d2","ios":"levelo://app?vid=697c0c8e-ccfe-4f85-8113-0e9655f941d2"},"vehicle_type_id":"4","last_reported":1729969553,"current_range_meters":29600,"station_id":"ce4bh692rcd13ifvqea0","pricing_plan_id":"cebpf4jnsgd1na2vs0mg"},{"bike_id":"3c74d177-f7d5-46aa-be7b-aa6de483a411","system_id":"levelo_inurba_marseille","lat":43.29985,"lon":5.37184,"is_reserved":false,"is_disabled":false,"rental_uris":{"android":"levelo://app?vid=3c74d177-f7d5-46aa-be7b-aa6de483a411","ios":"levelo://app?vid=3c74d177-f7d5-46aa-be7b-aa6de483a411"},"vehicle_type_id":"4","last_reported":1729969553,"current_range_meters":22800,"station_id":"ce4bgr92rcd13ifvqc7g","pricing_plan_id":"cebpf4jnsgd1na2vs0mg"},{"bike_id":"9ea7cd8c-52d6-4fde-853f-7b775b1c3f7f","system_id":"levelo_inurba_marseille","lat":43.32289,"lon":5.3828,"is_reserved":false,"is_disabled":false,"rental_uris":{"android":"levelo://app?vid=9ea7cd8c-52d6-4fde-853f-7b775b1c3f7f","ios":"levelo://app?vid=9ea7cd8c-52d6-4fde-853f-7b775b1c3f7f"},"vehicle_type_id":"4","last_reported":1729969553,"current_range_meters":24000,"station_id":"ce4bhr12rcd13ifvqhqg","pricing_plan_id":"cebpf4jnsgd1na2vs0mg"},{"bike_id":"34c0b19e-e327-425b-bf09-25bec92dd9c4","system_id":"levelo_inurba_marseille","lat":43.2933,"lon":5.45481,"is_reserved":false,"is_disabled":false,"rental_uris":{"android":"levelo://app?vid=34c0b19e-e327-425b-bf09-25bec92dd9c4","ios":"levelo://app?vid=34c0b19e-e327-425b-bf09-25bec92dd9c4"},"vehicle_type_id":"4","last_reported":1729969553,"current_range_meters":13600,"station_id":"","pricing_plan_id":"cebpf4jnsgd1na2vs0mg"},{"bike_id":"ba0625f3-7924-48c0-90ab-d464284023ba","system_id":"levelo_inurba_marseille","lat":43.25117,"lon":5.40321,"is_reserved":false,"is_disabled":false,"rental_uris":{"android":"levelo://app?vid=ba0625f3-7924-48c0-90ab-d464284023ba","ios":"levelo://app?vid=ba0625f3-7924-48c0-90ab-d464284023ba"},"vehicle_type_id":"4","last_reported":1729969553,"current_range_meters":24400,"station_id":"ce4bhlh2rcd13ifvqgig","pricing_plan_id":"cebpf4jnsgd1na2vs0mg"},{"bike_id":"4e1b89e2-f965-455a-b9ce-8fa933558641","system_id":"levelo_inurba_marseille","lat":43.2465,"lon":5.38902,"is_reserved":false,"is_disabled":false,"rental_uris":{"android":"levelo://app?vid=4e1b89e2-f965-455a-b9ce-8fa933558641","ios":"levelo://app?vid=4e1b89e2-f965-455a-b9ce-8fa933558641"},"vehicle_type_id":"4","last_reported":1729969553,"current_range_meters":38800,"station_id":"ce4bhg12rcd13ifvqf60","pricing_plan_id":"cebpf4jnsgd1na2vs0mg"},{"bike_id":"22335ec6-59ab-49f8-8e21-b973dbc0eea9","system_id":"levelo_inurba_marseille","lat":43.299377,"lon":5.385284,"is_reserved":false,"is_disabled":false,"rental_uris":{"android":"levelo://app?vid=22335ec6-59ab-49f8-8e21-b973dbc0eea9","ios":"levelo://app?vid=22335ec6-59ab-49f8-8e21-b973dbc0eea9"},"vehicle_type_id":"4","last_reported":1729969553,"current_range_meters":26800,"station_id":"ce4bgj92rcd13ifvqbd0","pricing_plan_id":"cebpf4jnsgd1na2vs0mg"},{"bike_id":"77855bdf-cc39-4e1c-a9fb-d3dae6291a46","system_id":"levelo_inurba_marseille","lat":43.29554,"lon":5.42281,"is_reserved":false,"is_disabled":false,"rental_uris":{"android":"levelo://app?vid=77855bdf-cc39-4e1c-a9fb-d3dae6291a46","ios":"levelo://app?vid=77855bdf-cc39-4e1c-a9fb-d3dae6291a46"},"vehicle_type_id":"4","last_reported":1729969553,"current_range_meters":38800,"station_id":"ce4bhph2rcd13ifvqhdg","pricing_plan_id":"cebpf4jnsgd1na2vs0mg"},{"bike_id":"5063f4af-2df5-4a8d-971c-2e45b710db02","system_id":"levelo_inurba_marseille","lat":43.25584,"lon":5.3824,"is_reserved":false,"is_disabled":false,"rental_uris":{"android":"levelo://app?vid=5063f4af-2df5-4a8d-971c-2e45b710db02","ios":"levelo://app?vid=5063f4af-2df5-4a8d-971c-2e45b710db02"},"vehicle_type_id":"4","last_reported":1729969553,"current_range_meters":36400,"station_id":"ce4bhih2rcd13ifvqfs0","pricing_plan_id":"cebpf4jnsgd1na2vs0mg"},{"bike_id":"e16ba0fb-c8f9-4074-a1c8-ad626ad5602f","system_id":"levelo_inurba_marseille","lat":43.26942,"lon":5.40258,"is_reserved":false,"is_disabled":false,"rental_uris":{"android":"levelo://app?vid=e16ba0fb-c8f9-4074-a1c8-ad626ad5602f","ios":"levelo://app?vid=e16ba0fb-c8f9-4074-a1c8-ad626ad5602f"},"vehicle_type_id":"4","last_reported":1729969553,"current_range_meters":39200,"station_id":"cjm6bp8fraef2m0cb0m0","pricing_plan_id":"cebpf4jnsgd1na2vs0mg"},{"bike_id":"fad42251-2e99-4f0e-8106-075fc5b792cd","system_id":"levelo_inurba_marseille","lat":43.26194,"lon":5.37446,"is_reserved":false,"is_disabled":false,"rental_uris":{"android":"levelo://app?vid=fad42251-2e99-4f0e-8106-075fc5b792cd","ios":"levelo://app?vid=fad42251-2e99-4f0e-8106-075fc5b792cd"},"vehicle_type_id":"4","last_reported":1729969553,"current_range_meters":38000,"station_id":"ce4bhgp2rcd13ifvqfc0","pricing_plan_id":"cebpf4jnsgd1na2vs0mg"},{"bike_id":"88df8c0c-9a89-4e55-b550-469c6e487724","system_id":"levelo_inurba_marseille","lat":43.29805,"lon":5.3809,"is_reserved":false,"is_disabled":false,"rental_uris":{"android":"levelo://app?vid=88df8c0c-9a89-4e55-b550-469c6e487724","ios":"levelo://app?vid=88df8c0c-9a89-4e55-b550-469c6e487724"},"vehicle_type_id":"4","last_reported":1729969553,"current_range_meters":25600,"station_id":"ce4bgip2rcd13ifvqbb0","pricing_plan_id":"cebpf4jnsgd1na2vs0mg"},{"bike_id":"2f1e8b88-4956-4f6f-be91-64feef03b362","system_id":"levelo_inurba_marseille","lat":43.28414,"lon":5.34977,"is_reserved":false,"is_disabled":false,"rental_uris":{"android":"levelo://app?vid=2f1e8b88-4956-4f6f-be91-64feef03b362","ios":"levelo://app?vid=2f1e8b88-4956-4f6f-be91-64feef03b362"},"vehicle_type_id":"4","last_reported":1729969553,"current_range_meters":34800,"station_id":"ce4bhbh2rcd13ifvqepg","pricing_plan_id":"cebpf4jnsgd1na2vs0mg"},{"bike_id":"43650981-6b24-4a34-b5e2-fd816b5645ae","system_id":"levelo_inurba_marseille","lat":43.29262,"lon":5.38442,"is_reserved":false,"is_disabled":false,"rental_uris":{"android":"levelo://app?vid=43650981-6b24-4a34-b5e2-fd816b5645ae","ios":"levelo://app?vid=43650981-6b24-4a34-b5e2-fd816b5645ae"},"vehicle_type_id":"4","last_reported":1729969553,"current_range_meters":37600,"station_id":"ce4bh692rcd13ifvqea0","pricing_plan_id":"cebpf4jnsgd1na2vs0mg"},{"bike_id":"6875a1a6-32b9-4783-93f5-84a3a0c85f67","system_id":"levelo_inurba_marseille","lat":43.23065,"lon":5.35492,"is_reserved":false,"is_disabled":false,"rental_uris":{"android":"levelo://app?vid=6875a1a6-32b9-4783-93f5-84a3a0c85f67","ios":"levelo://app?vid=6875a1a6-32b9-4783-93f5-84a3a0c85f67"},"vehicle_type_id":"4","last_reported":1729969553,"current_range_meters":28800,"station_id":"cpo3342slgdg3j2ifvpg","pricing_plan_id":"cebpf4jnsgd1na2vs0mg"},{"bike_id":"4d119be0-f244-48af-924a-f5cd3481568e","system_id":"levelo_inurba_marseille","lat":43.30143,"lon":5.37422,"is_reserved":false,"is_disabled":false,"rental_uris":{"android":"levelo://app?vid=4d119be0-f244-48af-924a-f5cd3481568e","ios":"levelo://app?vid=4d119be0-f244-48af-924a-f5cd3481568e"},"vehicle_type_id":"4","last_reported":1729969553,"current_range_meters":9600,"station_id":"ce4bgs92rcd13ifvqcc0","pricing_plan_id":"cebpf4jnsgd1na2vs0mg"},{"bike_id":"6e3ac822-40c5-4ef0-8923-ff38f3a100d2","system_id":"levelo_inurba_marseille","lat":43.29849,"lon":5.36285,"is_reserved":false,"is_disabled":false,"rental_uris":{"android":"levelo://app?vid=6e3ac822-40c5-4ef0-8923-ff38f3a100d2","ios":"levelo://app?vid=6e3ac822-40c5-4ef0-8923-ff38f3a100d2"},"vehicle_type_id":"4","last_reported":1729969553,"current_range_meters":22800,"station_id":"ce4bgpp2rcd13ifvqc3g","pricing_plan_id":"cebpf4jnsgd1na2vs0mg"},{"bike_id":"ab6e0c73-a016-475e-bf1f-0032a04a6853","system_id":"levelo_inurba_marseille","lat":43.28156,"lon":5.42641,"is_reserved":false,"is_disabled":false,"rental_uris":{"android":"levelo://app?vid=ab6e0c73-a016-475e-bf1f-0032a04a6853","ios":"levelo://app?vid=ab6e0c73-a016-475e-bf1f-0032a04a6853"},"vehicle_type_id":"4","last_reported":1729969553,"current_range_meters":30000,"station_id":"ce4bhnh2rcd13ifvqgug","pricing_plan_id":"cebpf4jnsgd1na2vs0mg"},{"bike_id":"c448e113-adc8-4d15-ac18-267c02c0f060","system_id":"levelo_inurba_marseille","lat":43.29619,"lon":5.37159,"is_reserved":false,"is_disabled":false,"rental_uris":{"android":"levelo://app?vid=c448e113-adc8-4d15-ac18-267c02c0f060","ios":"levelo://app?vid=c448e113-adc8-4d15-ac18-267c02c0f060"},"vehicle_type_id":"4","last_reported":1729969553,"current_range_meters":28000,"station_id":"ce4bgnh2rcd13ifvqc0g","pricing_plan_id":"cebpf4jnsgd1na2vs0mg"},{"bike_id":"3a9bfb16-0c1d-4441-a397-be908d793bb9","system_id":"levelo_inurba_marseille","lat":43.2549,"lon":5.37649,"is_reserved":false,"is_disabled":false,"rental_uris":{"android":"levelo://app?vid=3a9bfb16-0c1d-4441-a397-be908d793bb9","ios":"levelo://app?vid=3a9bfb16-0c1d-4441-a397-be908d793bb9"},"vehicle_type_id":"4","last_reported":1729969553,"current_range_meters":29600,"station_id":"ce4bhh12rcd13ifvqff0","pricing_plan_id":"cebpf4jnsgd1na2vs0mg"},{"bike_id":"e7c3cdd3-4d3d-4e9b-8811-9ef2a4ce7fde","system_id":"levelo_inurba_marseille","lat":43.29262,"lon":5.38446,"is_reserved":false,"is_disabled":false,"rental_uris":{"android":"levelo://app?vid=e7c3cdd3-4d3d-4e9b-8811-9ef2a4ce7fde","ios":"levelo://app?vid=e7c3cdd3-4d3d-4e9b-8811-9ef2a4ce7fde"},"vehicle_type_id":"4","last_reported":1729969553,"current_range_meters":28800,"station_id":"ce4bh692rcd13ifvqea0","pricing_plan_id":"cebpf4jnsgd1na2vs0mg"},{"bike_id":"c4a17f65-5753-41b6-b0b5-214b06ec99a6","system_id":"levelo_inurba_marseille","lat":43.30933,"lon":5.40143,"is_reserved":false,"is_disabled":false,"rental_uris":{"android":"levelo://app?vid=c4a17f65-5753-41b6-b0b5-214b06ec99a6","ios":"levelo://app?vid=c4a17f65-5753-41b6-b0b5-214b06ec99a6"},"vehicle_type_id":"4","last_reported":1729969553,"current_range_meters":39200,"station_id":"ce4bgvp2rcd13ifvqct0","pricing_plan_id":"cebpf4jnsgd1na2vs0mg"},{"bike_id":"9a05ef16-6af9-4bc7-aa9c-fa563d6e0e66","system_id":"levelo_inurba_marseille","lat":43.32046,"lon":5.41545,"is_reserved":false,"is_disabled":false,"rental_uris":{"android":"levelo://app?vid=9a05ef16-6af9-4bc7-aa9c-fa563d6e0e66","ios":"levelo://app?vid=9a05ef16-6af9-4bc7-aa9c-fa563d6e0e66"},"vehicle_type_id":"4","last_reported":1729969553,"current_range_meters":33200,"station_id":"ce4bhq92rcd13ifvqhkg","pricing_plan_id":"cebpf4jnsgd1na2vs0mg"},{"bike_id":"22c6ef2e-877b-4547-93e4-edbdf191d353","system_id":"levelo_inurba_marseille","lat":43.24393,"lon":5.37057,"is_reserved":false,"is_disabled":false,"rental_uris":{"android":"levelo://app?vid=22c6ef2e-877b-4547-93e4-edbdf191d353","ios":"levelo://app?vid=22c6ef2e-877b-4547-93e4-edbdf191d353"},"vehicle_type_id":"4","last_reported":1729969553,"current_range_meters":12400,"station_id":"ce4bhhh2rcd13ifvqfk0","pricing_plan_id":"cebpf4jnsgd1na2vs0mg"},{"bike_id":"5f5bacfe-e6de-4d3a-bafe-09a58fe9fdff","system_id":"levelo_inurba_marseille","lat":43.31489,"lon":5.37311,"is_reserved":false,"is_disabled":false,"rental_uris":{"android":"levelo://app?vid=5f5bacfe-e6de-4d3a-bafe-09a58fe9fdff","ios":"levelo://app?vid=5f5bacfe-e6de-4d3a-bafe-09a58fe9fdff"},"vehicle_type_id":"4","last_reported":1729969553,"current_range_meters":34000,"station_id":"ce4bgt12rcd13ifvqcd0","pricing_plan_id":"cebpf4jnsgd1na2vs0mg"},{"bike_id":"272108ab-c66d-4277-b942-346fbf20d819","system_id":"levelo_inurba_marseille","lat":43.30351,"lon":5.4188,"is_reserved":false,"is_disabled":false,"rental_uris":{"android":"levelo://app?vid=272108ab-c66d-4277-b942-346fbf20d819","ios":"levelo://app?vid=272108ab-c66d-4277-b942-346fbf20d819"},"vehicle_type_id":"4","last_reported":1729969553,"current_range_meters":10800,"station_id":"ce4bhop2rcd13ifvqh7g","pricing_plan_id":"cebpf4jnsgd1na2vs0mg"},{"bike_id":"8fbb3d87-cdca-4c4a-859f-e70dea3485a5","system_id":"levelo_inurba_marseille","lat":43.27489,"lon":5.4246,"is_reserved":false,"is_disabled":false,"rental_uris":{"android":"levelo://app?vid=8fbb3d87-cdca-4c4a-859f-e70dea3485a5","ios":"levelo://app?vid=8fbb3d87-cdca-4c4a-859f-e70dea3485a5"},"vehicle_type_id":"4","last_reported":1729969553,"current_range_meters":37600,"station_id":"ce4bhn92rcd13ifvqgrg","pricing_plan_id":"cebpf4jnsgd1na2vs0mg"},{"bike_id":"d4dbb103-b4d9-4e96-8ae8-a3fef8c9dbdf","system_id":"levelo_inurba_marseille","lat":43.31757,"lon":5.3902,"is_reserved":false,"is_disabled":false,"rental_uris":{"android":"levelo://app?vid=d4dbb103-b4d9-4e96-8ae8-a3fef8c9dbdf","ios":"levelo://app?vid=d4dbb103-b4d9-4e96-8ae8-a3fef8c9dbdf"},"vehicle_type_id":"4","last_reported":1729969553,"current_range_meters":14800,"station_id":"ce4bhqp2rcd13ifvqhng","pricing_plan_id":"cebpf4jnsgd1na2vs0mg"},{"bike_id":"67a147b6-8bef-4f9f-a430-fa7afc5945dd","system_id":"levelo_inurba_marseille","lat":43.31263,"lon":5.40173,"is_reserved":false,"is_disabled":false,"rental_uris":{"android":"levelo://app?vid=67a147b6-8bef-4f9f-a430-fa7afc5945dd","ios":"levelo://app?vid=67a147b6-8bef-4f9f-a430-fa7afc5945dd"},"vehicle_type_id":"4","last_reported":1729969553,"current_range_meters":25200,"station_id":"ce4bh092rcd13ifvqd30","pricing_plan_id":"cebpf4jnsgd1na2vs0mg"},{"bike_id":"893183fd-ad6f-457c-8bc4-9448179e9b7c","system_id":"levelo_inurba_marseille","lat":43.31268,"lon":5.40168,"is_reserved":false,"is_disabled":false,"rental_uris":{"android":"levelo://app?vid=893183fd-ad6f-457c-8bc4-9448179e9b7c","ios":"levelo://app?vid=893183fd-ad6f-457c-8bc4-9448179e9b7c"},"vehicle_type_id":"4","last_reported":1729969553,"current_range_meters":38800,"station_id":"ce4bh092rcd13ifvqd30","pricing_plan_id":"cebpf4jnsgd1na2vs0mg"},{"bike_id":"03c3662f-d9b5-485a-8a89-75c166e95f18","system_id":"levelo_inurba_marseille","lat":43.3016,"lon":5.38084,"is_reserved":false,"is_disabled":false,"rental_uris":{"android":"levelo://app?vid=03c3662f-d9b5-485a-8a89-75c166e95f18","ios":"levelo://app?vid=03c3662f-d9b5-485a-8a89-75c166e95f18"},"vehicle_type_id":"4","last_reported":1729969553,"current_range_meters":26000,"station_id":"ce4bgjp2rcd13ifvqbh0","pricing_plan_id":"cebpf4jnsgd1na2vs0mg"},{"bike_id":"3035b77c-f0af-4479-9d1c-ce2eb4364541","system_id":"levelo_inurba_marseille","lat":43.25117,"lon":5.4032,"is_reserved":false,"is_disabled":false,"rental_uris":{"android":"levelo://app?vid=3035b77c-f0af-4479-9d1c-ce2eb4364541","ios":"levelo://app?vid=3035b77c-f0af-4479-9d1c-ce2eb4364541"},"vehicle_type_id":"4","last_reported":1729969553,"current_range_meters":30000,"station_id":"ce4bhlh2rcd13ifvqgig","pricing_plan_id":"cebpf4jnsgd1na2vs0mg"},{"bike_id":"5af9e1ec-be16-4573-a266-0bc868b78b27","system_id":"levelo_inurba_marseille","lat":43.23184,"lon":5.39982,"is_reserved":false,"is_disabled":false,"rental_uris":{"android":"levelo://app?vid=5af9e1ec-be16-4573-a266-0bc868b78b27","ios":"levelo://app?vid=5af9e1ec-be16-4573-a266-0bc868b78b27"},"vehicle_type_id":"4","last_reported":1729969553,"current_range_meters":28800,"station_id":"ce4bhn12rcd13ifvqgqg","pricing_plan_id":"cebpf4jnsgd1na2vs0mg"},{"bike_id":"309e4ea2-65c4-4529-b8bf-7e204c89e391","system_id":"levelo_inurba_marseille","lat":43.28466,"lon":5.38417,"is_reserved":false,"is_disabled":false,"rental_uris":{"android":"levelo://app?vid=309e4ea2-65c4-4529-b8bf-7e204c89e391","ios":"levelo://app?vid=309e4ea2-65c4-4529-b8bf-7e204c89e391"},"vehicle_type_id":"4","last_reported":1729969553,"current_range_meters":27200,"station_id":"ce4bh512rcd13ifvqe3g","pricing_plan_id":"cebpf4jnsgd1na2vs0mg"},{"bike_id":"cae5512b-eeb1-4b21-8d8f-d8841b2677f3","system_id":"levelo_inurba_marseille","lat":43.24185,"lon":5.39728,"is_reserved":false,"is_disabled":false,"rental_uris":{"android":"levelo://app?vid=cae5512b-eeb1-4b21-8d8f-d8841b2677f3","ios":"levelo://app?vid=cae5512b-eeb1-4b21-8d8f-d8841b2677f3"},"vehicle_type_id":"4","last_reported":1729969553,"current_range_meters":25200,"station_id":"ce4bhn12rcd13ifvqgpg","pricing_plan_id":"cebpf4jnsgd1na2vs0mg"},{"bike_id":"f9a19eaf-dbe5-429a-b0dc-e77c1523293f","system_id":"levelo_inurba_marseille","lat":43.30262,"lon":5.40088,"is_reserved":false,"is_disabled":false,"rental_uris":{"android":"levelo://app?vid=f9a19eaf-dbe5-429a-b0dc-e77c1523293f","ios":"levelo://app?vid=f9a19eaf-dbe5-429a-b0dc-e77c1523293f"},"vehicle_type_id":"4","last_reported":1729969553,"current_range_meters":38800,"station_id":"ce4bgvh2rcd13ifvqcs0","pricing_plan_id":"cebpf4jnsgd1na2vs0mg"},{"bike_id":"832f0903-6431-4f26-8854-1dbf5ae6f445","system_id":"levelo_inurba_marseille","lat":43.29026,"lon":5.38648,"is_reserved":false,"is_disabled":false,"rental_uris":{"android":"levelo://app?vid=832f0903-6431-4f26-8854-1dbf5ae6f445","ios":"levelo://app?vid=832f0903-6431-4f26-8854-1dbf5ae6f445"},"vehicle_type_id":"4","last_reported":1729969553,"current_range_meters":29600,"station_id":"ce4bh4p2rcd13ifvqe0g","pricing_plan_id":"cebpf4jnsgd1na2vs0mg"},{"bike_id":"b3507332-daf4-46b8-b043-cb8c84be67ff","system_id":"levelo_inurba_marseille","lat":43.284781,"lon":5.384147,"is_reserved":false,"is_disabled":false,"rental_uris":{"android":"levelo://app?vid=b3507332-daf4-46b8-b043-cb8c84be67ff","ios":"levelo://app?vid=b3507332-daf4-46b8-b043-cb8c84be67ff"},"vehicle_type_id":"4","last_reported":1729969553,"current_range_meters":33200,"station_id":"ce4bh512rcd13ifvqe3g","pricing_plan_id":"cebpf4jnsgd1na2vs0mg"},{"bike_id":"79545944-3897-4a14-accc-cc2b52771322","system_id":"levelo_inurba_marseille","lat":43.25715,"lon":5.41119,"is_reserved":false,"is_disabled":false,"rental_uris":{"android":"levelo://app?vid=79545944-3897-4a14-accc-cc2b52771322","ios":"levelo://app?vid=79545944-3897-4a14-accc-cc2b52771322"},"vehicle_type_id":"4","last_reported":1729969553,"current_range_meters":38000,"station_id":"ce4bhkp2rcd13ifvqgd0","pricing_plan_id":"cebpf4jnsgd1na2vs0mg"},{"bike_id":"ff1366e7-ee36-4e8f-bee4-6da896860a5a","system_id":"levelo_inurba_marseille","lat":43.31117,"lon":5.3777,"is_reserved":false,"is_disabled":false,"rental_uris":{"android":"levelo://app?vid=ff1366e7-ee36-4e8f-bee4-6da896860a5a","ios":"levelo://app?vid=ff1366e7-ee36-4e8f-bee4-6da896860a5a"},"vehicle_type_id":"4","last_reported":1729969553,"current_range_meters":20400,"station_id":"ce4bgt92rcd13ifvqcg0","pricing_plan_id":"cebpf4jnsgd1na2vs0mg"},{"bike_id":"ef136fa5-257b-4ee5-bd73-f0de7405e6ba","system_id":"levelo_inurba_marseille","lat":43.24536,"lon":5.39527,"is_reserved":false,"is_disabled":false,"rental_uris":{"android":"levelo://app?vid=ef136fa5-257b-4ee5-bd73-f0de7405e6ba","ios":"levelo://app?vid=ef136fa5-257b-4ee5-bd73-f0de7405e6ba"},"vehicle_type_id":"4","last_reported":1729969553,"current_range_meters":28400,"station_id":"ce4bhlp2rcd13ifvqgjg","pricing_plan_id":"cebpf4jnsgd1na2vs0mg"},{"bike_id":"10cf296e-79f7-40cc-86cc-e7320813f6d7","system_id":"levelo_inurba_marseille","lat":43.29167,"lon":5.37158,"is_reserved":false,"is_disabled":false,"rental_uris":{"android":"levelo://app?vid=10cf296e-79f7-40cc-86cc-e7320813f6d7","ios":"levelo://app?vid=10cf296e-79f7-40cc-86cc-e7320813f6d7"},"vehicle_type_id":"4","last_reported":1729969553,"current_range_meters":38800,"station_id":"ce4bha92rcd13ifvqeh0","pricing_plan_id":"cebpf4jnsgd1na2vs0mg"},{"bike_id":"78d2bb20-e78a-4a61-aa5a-2b34d78f8b19","system_id":"levelo_inurba_marseille","lat":43.29801,"lon":5.38089,"is_reserved":false,"is_disabled":false,"rental_uris":{"android":"levelo://app?vid=78d2bb20-e78a-4a61-aa5a-2b34d78f8b19","ios":"levelo://app?vid=78d2bb20-e78a-4a61-aa5a-2b34d78f8b19"},"vehicle_type_id":"4","last_reported":1729969553,"current_range_meters":38800,"station_id":"ce4bgip2rcd13ifvqbb0","pricing_plan_id":"cebpf4jnsgd1na2vs0mg"},{"bike_id":"8e252ee9-0bae-4643-99ae-ee2abe7b1a22","system_id":"levelo_inurba_marseille","lat":43.27176,"lon":5.40995,"is_reserved":false,"is_disabled":false,"rental_uris":{"android":"levelo://app?vid=8e252ee9-0bae-4643-99ae-ee2abe7b1a22","ios":"levelo://app?vid=8e252ee9-0bae-4643-99ae-ee2abe7b1a22"},"vehicle_type_id":"4","last_reported":1729969553,"current_range_meters":38800,"station_id":"ce4bhl12rcd13ifvqgf0","pricing_plan_id":"cebpf4jnsgd1na2vs0mg"},{"bike_id":"9488ca84-aa5e-4311-bde9-38d634703444","system_id":"levelo_inurba_marseille","lat":43.32487,"lon":5.3656,"is_reserved":false,"is_disabled":false,"rental_uris":{"android":"levelo://app?vid=9488ca84-aa5e-4311-bde9-38d634703444","ios":"levelo://app?vid=9488ca84-aa5e-4311-bde9-38d634703444"},"vehicle_type_id":"4","last_reported":1729969553,"current_range_meters":38800,"station_id":"ce4bhs12rcd13ifvqhvg","pricing_plan_id":"cebpf4jnsgd1na2vs0mg"},{"bike_id":"e4a3a049-80a0-4aed-b2a8-36931fad107c","system_id":"levelo_inurba_marseille","lat":43.32039,"lon":5.41544,"is_reserved":false,"is_disabled":false,"rental_uris":{"android":"levelo://app?vid=e4a3a049-80a0-4aed-b2a8-36931fad107c","ios":"levelo://app?vid=e4a3a049-80a0-4aed-b2a8-36931fad107c"},"vehicle_type_id":"4","last_reported":1729969553,"current_range_meters":37600,"station_id":"ce4bhq92rcd13ifvqhkg","pricing_plan_id":"cebpf4jnsgd1na2vs0mg"},{"bike_id":"e5e817e3-05ee-42a0-97b8-792b18b2b2d7","system_id":"levelo_inurba_marseille","lat":43.32486,"lon":5.36566,"is_reserved":false,"is_disabled":false,"rental_uris":{"android":"levelo://app?vid=e5e817e3-05ee-42a0-97b8-792b18b2b2d7","ios":"levelo://app?vid=e5e817e3-05ee-42a0-97b8-792b18b2b2d7"},"vehicle_type_id":"4","last_reported":1729969553,"current_range_meters":30000,"station_id":"ce4bhs12rcd13ifvqhvg","pricing_plan_id":"cebpf4jnsgd1na2vs0mg"},{"bike_id":"2a7d1c8e-45f6-4d4c-a5a0-d13b77050262","system_id":"levelo_inurba_marseille","lat":43.27057,"lon":5.40266,"is_reserved":false,"is_disabled":false,"rental_uris":{"android":"levelo://app?vid=2a7d1c8e-45f6-4d4c-a5a0-d13b77050262","ios":"levelo://app?vid=2a7d1c8e-45f6-4d4c-a5a0-d13b77050262"},"vehicle_type_id":"4","last_reported":1729969553,"current_range_meters":29600,"station_id":"ce4bhk92rcd13ifvqgc0","pricing_plan_id":"cebpf4jnsgd1na2vs0mg"},{"bike_id":"219fe6aa-4100-4acc-ad13-c7a6986eb6b3","system_id":"levelo_inurba_marseille","lat":43.3171,"lon":5.37751,"is_reserved":false,"is_disabled":false,"rental_uris":{"android":"levelo://app?vid=219fe6aa-4100-4acc-ad13-c7a6986eb6b3","ios":"levelo://app?vid=219fe6aa-4100-4acc-ad13-c7a6986eb6b3"},"vehicle_type_id":"4","last_reported":1729969553,"current_range_meters":15200,"station_id":"ce4bgth2rcd13ifvqch0","pricing_plan_id":"cebpf4jnsgd1na2vs0mg"},{"bike_id":"601916c5-3274-4e01-863c-d96df39ce3b1","system_id":"levelo_inurba_marseille","lat":43.26563,"lon":5.39028,"is_reserved":false,"is_disabled":false,"rental_uris":{"android":"levelo://app?vid=601916c5-3274-4e01-863c-d96df39ce3b1","ios":"levelo://app?vid=601916c5-3274-4e01-863c-d96df39ce3b1"},"vehicle_type_id":"4","last_reported":1729969553,"current_range_meters":38800,"station_id":"ce4bhe12rcd13ifvqf30","pricing_plan_id":"cebpf4jnsgd1na2vs0mg"},{"bike_id":"c5cdeede-69d4-47e6-ad58-c5dd0d05960b","system_id":"levelo_inurba_marseille","lat":43.28459,"lon":5.3589,"is_reserved":false,"is_disabled":false,"rental_uris":{"android":"levelo://app?vid=c5cdeede-69d4-47e6-ad58-c5dd0d05960b","ios":"levelo://app?vid=c5cdeede-69d4-47e6-ad58-c5dd0d05960b"},"vehicle_type_id":"4","last_reported":1729969553,"current_range_meters":16000,"station_id":"ce4bhah2rcd13ifvqei0","pricing_plan_id":"cebpf4jnsgd1na2vs0mg"},{"bike_id":"b84d8488-7d66-4802-b9d0-4b80e20805ad","system_id":"levelo_inurba_marseille","lat":43.26579,"lon":5.39013,"is_reserved":false,"is_disabled":false,"rental_uris":{"android":"levelo://app?vid=b84d8488-7d66-4802-b9d0-4b80e20805ad","ios":"levelo://app?vid=b84d8488-7d66-4802-b9d0-4b80e20805ad"},"vehicle_type_id":"4","last_reported":1729969553,"current_range_meters":8800,"station_id":"ce4bhe12rcd13ifvqf30","pricing_plan_id":"cebpf4jnsgd1na2vs0mg"},{"bike_id":"1fafbe93-2ba4-4077-bfcf-7b3992b30a25","system_id":"levelo_inurba_marseille","lat":43.29555,"lon":5.4228,"is_reserved":false,"is_disabled":false,"rental_uris":{"android":"levelo://app?vid=1fafbe93-2ba4-4077-bfcf-7b3992b30a25","ios":"levelo://app?vid=1fafbe93-2ba4-4077-bfcf-7b3992b30a25"},"vehicle_type_id":"4","last_reported":1729969553,"current_range_meters":38800,"station_id":"ce4bhph2rcd13ifvqhdg","pricing_plan_id":"cebpf4jnsgd1na2vs0mg"},{"bike_id":"7b9bb9f6-2747-4f5c-a936-06f552492e45","system_id":"levelo_inurba_marseille","lat":43.31724,"lon":5.42405,"is_reserved":false,"is_disabled":false,"rental_uris":{"android":"levelo://app?vid=7b9bb9f6-2747-4f5c-a936-06f552492e45","ios":"levelo://app?vid=7b9bb9f6-2747-4f5c-a936-06f552492e45"},"vehicle_type_id":"4","last_reported":1729969553,"current_range_meters":38800,"station_id":"ce4bhp92rcd13ifvqhbg","pricing_plan_id":"cebpf4jnsgd1na2vs0mg"},{"bike_id":"4bafa726-86cb-40fe-9c0c-25741165ee73","system_id":"levelo_inurba_marseille","lat":43.29957,"lon":5.41319,"is_reserved":false,"is_disabled":false,"rental_uris":{"android":"levelo://app?vid=4bafa726-86cb-40fe-9c0c-25741165ee73","ios":"levelo://app?vid=4bafa726-86cb-40fe-9c0c-25741165ee73"},"vehicle_type_id":"4","last_reported":1729969553,"current_range_meters":16400,"station_id":"ce4bhp12rcd13ifvqh9g","pricing_plan_id":"cebpf4jnsgd1na2vs0mg"},{"bike_id":"8a55373d-8f54-4890-9729-5db301ba9fa0","system_id":"levelo_inurba_marseille","lat":43.25006,"lon":5.38912,"is_reserved":false,"is_disabled":false,"rental_uris":{"android":"levelo://app?vid=8a55373d-8f54-4890-9729-5db301ba9fa0","ios":"levelo://app?vid=8a55373d-8f54-4890-9729-5db301ba9fa0"},"vehicle_type_id":"4","last_reported":1729969553,"current_range_meters":36400,"station_id":"ce4bhgp2rcd13ifvqfd0","pricing_plan_id":"cebpf4jnsgd1na2vs0mg"},{"bike_id":"28f59e59-24c5-40d6-b927-cef8b2e6328d","system_id":"levelo_inurba_marseille","lat":43.29307,"lon":5.37182,"is_reserved":false,"is_disabled":false,"rental_uris":{"android":"levelo://app?vid=28f59e59-24c5-40d6-b927-cef8b2e6328d","ios":"levelo://app?vid=28f59e59-24c5-40d6-b927-cef8b2e6328d"},"vehicle_type_id":"4","last_reported":1729969553,"current_range_meters":18800,"station_id":"ce4bgh92rcd13ifvqb40","pricing_plan_id":"cebpf4jnsgd1na2vs0mg"},{"bike_id":"217b6992-770c-4501-bf46-01eca14ab494","system_id":"levelo_inurba_marseille","lat":43.29003,"lon":5.35613,"is_reserved":false,"is_disabled":false,"rental_uris":{"android":"levelo://app?vid=217b6992-770c-4501-bf46-01eca14ab494","ios":"levelo://app?vid=217b6992-770c-4501-bf46-01eca14ab494"},"vehicle_type_id":"4","last_reported":1729969553,"current_range_meters":38800,"station_id":"ce4bhb92rcd13ifvqen0","pricing_plan_id":"cebpf4jnsgd1na2vs0mg"},{"bike_id":"27c1e877-1a32-4c88-bee8-e9391ea13d39","system_id":"levelo_inurba_marseille","lat":43.31073,"lon":5.3835,"is_reserved":false,"is_disabled":false,"rental_uris":{"android":"levelo://app?vid=27c1e877-1a32-4c88-bee8-e9391ea13d39","ios":"levelo://app?vid=27c1e877-1a32-4c88-bee8-e9391ea13d39"},"vehicle_type_id":"4","last_reported":1729969553,"current_range_meters":38800,"station_id":"ce4bgv92rcd13ifvqcr0","pricing_plan_id":"cebpf4jnsgd1na2vs0mg"},{"bike_id":"b0c7ce4f-cf48-4b13-99b1-24dbbfafc315","system_id":"levelo_inurba_marseille","lat":43.27818,"lon":5.40717,"is_reserved":false,"is_disabled":false,"rental_uris":{"android":"levelo://app?vid=b0c7ce4f-cf48-4b13-99b1-24dbbfafc315","ios":"levelo://app?vid=b0c7ce4f-cf48-4b13-99b1-24dbbfafc315"},"vehicle_type_id":"4","last_reported":1729969553,"current_range_meters":32000,"station_id":"ce4bhnh2rcd13ifvqgtg","pricing_plan_id":"cebpf4jnsgd1na2vs0mg"},{"bike_id":"e113f747-4daa-44f7-a218-9e030daa2565","system_id":"levelo_inurba_marseille","lat":43.32103,"lon":5.36778,"is_reserved":false,"is_disabled":false,"rental_uris":{"android":"levelo://app?vid=e113f747-4daa-44f7-a218-9e030daa2565","ios":"levelo://app?vid=e113f747-4daa-44f7-a218-9e030daa2565"},"vehicle_type_id":"4","last_reported":1729969553,"current_range_meters":29600,"station_id":"ce4bhrh2rcd13ifvqhug","pricing_plan_id":"cebpf4jnsgd1na2vs0mg"},{"bike_id":"d824071b-a0d8-4c18-b7de-ef04381f0405","system_id":"levelo_inurba_marseille","lat":43.30952,"lon":5.3903,"is_reserved":false,"is_disabled":false,"rental_uris":{"android":"levelo://app?vid=d824071b-a0d8-4c18-b7de-ef04381f0405","ios":"levelo://app?vid=d824071b-a0d8-4c18-b7de-ef04381f0405"},"vehicle_type_id":"4","last_reported":1729969553,"current_range_meters":25600,"station_id":"ce4bgup2rcd13ifvqco0","pricing_plan_id":"cebpf4jnsgd1na2vs0mg"},{"bike_id":"7569b810-af8d-4c95-be87-76834cbad9fe","system_id":"levelo_inurba_marseille","lat":43.27316,"lon":5.39112,"is_reserved":false,"is_disabled":false,"rental_uris":{"android":"levelo://app?vid=7569b810-af8d-4c95-be87-76834cbad9fe","ios":"levelo://app?vid=7569b810-af8d-4c95-be87-76834cbad9fe"},"vehicle_type_id":"4","last_reported":1729969553,"current_range_meters":23200,"station_id":"ce4bhgp2rcd13ifvqfe0","pricing_plan_id":"cebpf4jnsgd1na2vs0mg"},{"bike_id":"f7f625b6-73f9-498a-a60d-5b72d6826be8","system_id":"levelo_inurba_marseille","lat":43.28697,"lon":5.39976,"is_reserved":false,"is_disabled":false,"rental_uris":{"android":"levelo://app?vid=f7f625b6-73f9-498a-a60d-5b72d6826be8","ios":"levelo://app?vid=f7f625b6-73f9-498a-a60d-5b72d6826be8"},"vehicle_type_id":"4","last_reported":1729969553,"current_range_meters":10800,"station_id":"ce4bho92rcd13ifvqh3g","pricing_plan_id":"cebpf4jnsgd1na2vs0mg"},{"bike_id":"c5342152-eaa7-4487-b5ac-2c3245f2bd54","system_id":"levelo_inurba_marseille","lat":43.284872,"lon":5.384246,"is_reserved":false,"is_disabled":false,"rental_uris":{"android":"levelo://app?vid=c5342152-eaa7-4487-b5ac-2c3245f2bd54","ios":"levelo://app?vid=c5342152-eaa7-4487-b5ac-2c3245f2bd54"},"vehicle_type_id":"4","last_reported":1729969553,"current_range_meters":17200,"station_id":"ce4bh512rcd13ifvqe3g","pricing_plan_id":"cebpf4jnsgd1na2vs0mg"},{"bike_id":"4cb54fe2-6aa3-4b51-89f9-1a40a399762b","system_id":"levelo_inurba_marseille","lat":43.29618,"lon":5.37162,"is_reserved":false,"is_disabled":false,"rental_uris":{"android":"levelo://app?vid=4cb54fe2-6aa3-4b51-89f9-1a40a399762b","ios":"levelo://app?vid=4cb54fe2-6aa3-4b51-89f9-1a40a399762b"},"vehicle_type_id":"4","last_reported":1729969553,"current_range_meters":22800,"station_id":"ce4bgnh2rcd13ifvqc0g","pricing_plan_id":"cebpf4jnsgd1na2vs0mg"},{"bike_id":"9fd56fad-5f3d-42b4-b491-7b57b76bc0cf","system_id":"levelo_inurba_marseille","lat":43.27823,"lon":5.40724,"is_reserved":false,"is_disabled":false,"rental_uris":{"android":"levelo://app?vid=9fd56fad-5f3d-42b4-b491-7b57b76bc0cf","ios":"levelo://app?vid=9fd56fad-5f3d-42b4-b491-7b57b76bc0cf"},"vehicle_type_id":"4","last_reported":1729969553,"current_range_meters":26000,"station_id":"ce4bhnh2rcd13ifvqgtg","pricing_plan_id":"cebpf4jnsgd1na2vs0mg"},{"bike_id":"bf291e7e-22e0-40c3-9fbf-804e4d125b27","system_id":"levelo_inurba_marseille","lat":43.25573,"lon":5.38238,"is_reserved":false,"is_disabled":false,"rental_uris":{"android":"levelo://app?vid=bf291e7e-22e0-40c3-9fbf-804e4d125b27","ios":"levelo://app?vid=bf291e7e-22e0-40c3-9fbf-804e4d125b27"},"vehicle_type_id":"4","last_reported":1729969553,"current_range_meters":19600,"station_id":"ce4bhih2rcd13ifvqfs0","pricing_plan_id":"cebpf4jnsgd1na2vs0mg"},{"bike_id":"704ff70b-3044-4cc0-a1b3-72bc6b15acdb","system_id":"levelo_inurba_marseille","lat":43.28475,"lon":5.38538,"is_reserved":false,"is_disabled":false,"rental_uris":{"android":"levelo://app?vid=704ff70b-3044-4cc0-a1b3-72bc6b15acdb","ios":"levelo://app?vid=704ff70b-3044-4cc0-a1b3-72bc6b15acdb"},"vehicle_type_id":"4","last_reported":1729969553,"current_range_meters":36400,"station_id":"ce4bh8p2rcd13ifvqeb0","pricing_plan_id":"cebpf4jnsgd1na2vs0mg"},{"bike_id":"cb176300-6569-4931-a7b5-26a3947ac35d","system_id":"levelo_inurba_marseille","lat":43.25007,"lon":5.38919,"is_reserved":false,"is_disabled":false,"rental_uris":{"android":"levelo://app?vid=cb176300-6569-4931-a7b5-26a3947ac35d","ios":"levelo://app?vid=cb176300-6569-4931-a7b5-26a3947ac35d"},"vehicle_type_id":"4","last_reported":1729969553,"current_range_meters":35600,"station_id":"ce4bhgp2rcd13ifvqfd0","pricing_plan_id":"cebpf4jnsgd1na2vs0mg"},{"bike_id":"5aa6733e-ab85-4872-8628-93fb3f9980b6","system_id":"levelo_inurba_marseille","lat":43.30538,"lon":5.36701,"is_reserved":false,"is_disabled":false,"rental_uris":{"android":"levelo://app?vid=5aa6733e-ab85-4872-8628-93fb3f9980b6","ios":"levelo://app?vid=5aa6733e-ab85-4872-8628-93fb3f9980b6"},"vehicle_type_id":"4","last_reported":1729969553,"current_range_meters":12000,"station_id":"ce4bgrp2rcd13ifvqc9g","pricing_plan_id":"cebpf4jnsgd1na2vs0mg"},{"bike_id":"b6b081ec-485a-4913-9c54-bf6a5ea14ae2","system_id":"levelo_inurba_marseille","lat":43.30933,"lon":5.40148,"is_reserved":false,"is_disabled":false,"rental_uris":{"android":"levelo://app?vid=b6b081ec-485a-4913-9c54-bf6a5ea14ae2","ios":"levelo://app?vid=b6b081ec-485a-4913-9c54-bf6a5ea14ae2"},"vehicle_type_id":"4","last_reported":1729969553,"current_range_meters":5600,"station_id":"ce4bgvp2rcd13ifvqct0","pricing_plan_id":"cebpf4jnsgd1na2vs0mg"},{"bike_id":"ac7e2427-8eec-4c8b-8366-33a9acca2ac7","system_id":"levelo_inurba_marseille","lat":43.25829,"lon":5.39434,"is_reserved":false,"is_disabled":false,"rental_uris":{"android":"levelo://app?vid=ac7e2427-8eec-4c8b-8366-33a9acca2ac7","ios":"levelo://app?vid=ac7e2427-8eec-4c8b-8366-33a9acca2ac7"},"vehicle_type_id":"4","last_reported":1729969553,"current_range_meters":14800,"station_id":"ce4bhip2rcd13ifvqft0","pricing_plan_id":"cebpf4jnsgd1na2vs0mg"},{"bike_id":"fec85ac5-8b84-4326-8f6c-7942d7ab0cc0","system_id":"levelo_inurba_marseille","lat":43.29534,"lon":5.37503,"is_reserved":false,"is_disabled":false,"rental_uris":{"android":"levelo://app?vid=fec85ac5-8b84-4326-8f6c-7942d7ab0cc0","ios":"levelo://app?vid=fec85ac5-8b84-4326-8f6c-7942d7ab0cc0"},"vehicle_type_id":"4","last_reported":1729969553,"current_range_meters":38800,"station_id":"ce4bgkp2rcd13ifvqbmg","pricing_plan_id":"cebpf4jnsgd1na2vs0mg"},{"bike_id":"cbbd3d16-7bc0-4695-8a2f-55b6812f95d0","system_id":"levelo_inurba_marseille","lat":43.308841,"lon":5.396611,"is_reserved":false,"is_disabled":false,"rental_uris":{"android":"levelo://app?vid=cbbd3d16-7bc0-4695-8a2f-55b6812f95d0","ios":"levelo://app?vid=cbbd3d16-7bc0-4695-8a2f-55b6812f95d0"},"vehicle_type_id":"4","last_reported":1729969553,"current_range_meters":32000,"station_id":"ce4bhop2rcd13ifvqh8g","pricing_plan_id":"cebpf4jnsgd1na2vs0mg"},{"bike_id":"a4cdb9e2-dcee-478e-b833-1e72009d3ae3","system_id":"levelo_inurba_marseille","lat":43.30412,"lon":5.41286,"is_reserved":false,"is_disabled":false,"rental_uris":{"android":"levelo://app?vid=a4cdb9e2-dcee-478e-b833-1e72009d3ae3","ios":"levelo://app?vid=a4cdb9e2-dcee-478e-b833-1e72009d3ae3"},"vehicle_type_id":"4","last_reported":1729969553,"current_range_meters":4800,"station_id":"ce4bhop2rcd13ifvqh8g","pricing_plan_id":"cebpf4jnsgd1na2vs0mg"},{"bike_id":"bc53a2bf-7061-4c55-b364-13afaab5401f","system_id":"levelo_inurba_marseille","lat":43.29264,"lon":5.38443,"is_reserved":false,"is_disabled":false,"rental_uris":{"android":"levelo://app?vid=bc53a2bf-7061-4c55-b364-13afaab5401f","ios":"levelo://app?vid=bc53a2bf-7061-4c55-b364-13afaab5401f"},"vehicle_type_id":"4","last_reported":1729969553,"current_range_meters":36400,"station_id":"ce4bh692rcd13ifvqea0","pricing_plan_id":"cebpf4jnsgd1na2vs0mg"},{"bike_id":"05a96471-11d7-4fa1-a5f4-2d0c760f3225","system_id":"levelo_inurba_marseille","lat":43.2979,"lon":5.37106,"is_reserved":false,"is_disabled":false,"rental_uris":{"android":"levelo://app?vid=05a96471-11d7-4fa1-a5f4-2d0c760f3225","ios":"levelo://app?vid=05a96471-11d7-4fa1-a5f4-2d0c760f3225"},"vehicle_type_id":"4","last_reported":1729969553,"current_range_meters":38800,"station_id":"ce4bgop2rcd13ifvqc1g","pricing_plan_id":"cebpf4jnsgd1na2vs0mg"},{"bike_id":"c65417d6-6622-4395-b76f-feb2f4595473","system_id":"levelo_inurba_marseille","lat":43.25721,"lon":5.41108,"is_reserved":false,"is_disabled":false,"rental_uris":{"android":"levelo://app?vid=c65417d6-6622-4395-b76f-feb2f4595473","ios":"levelo://app?vid=c65417d6-6622-4395-b76f-feb2f4595473"},"vehicle_type_id":"4","last_reported":1729969553,"current_range_meters":11600,"station_id":"ce4bhkp2rcd13ifvqgd0","pricing_plan_id":"cebpf4jnsgd1na2vs0mg"},{"bike_id":"75bc418d-5fa4-4111-819c-79228dcd39de","system_id":"levelo_inurba_marseille","lat":43.2606,"lon":5.39401,"is_reserved":false,"is_disabled":false,"rental_uris":{"android":"levelo://app?vid=75bc418d-5fa4-4111-819c-79228dcd39de","ios":"levelo://app?vid=75bc418d-5fa4-4111-819c-79228dcd39de"},"vehicle_type_id":"4","last_reported":1729969553,"current_range_meters":12800,"station_id":"ce4bhh92rcd13ifvqfj0","pricing_plan_id":"cebpf4jnsgd1na2vs0mg"},{"bike_id":"d7ff7165-6d5c-4f76-865c-b2ea1a2a3c7a","system_id":"levelo_inurba_marseille","lat":43.27496,"lon":5.42464,"is_reserved":false,"is_disabled":false,"rental_uris":{"android":"levelo://app?vid=d7ff7165-6d5c-4f76-865c-b2ea1a2a3c7a","ios":"levelo://app?vid=d7ff7165-6d5c-4f76-865c-b2ea1a2a3c7a"},"vehicle_type_id":"4","last_reported":1729969553,"current_range_meters":9200,"station_id":"ce4bhn92rcd13ifvqgrg","pricing_plan_id":"cebpf4jnsgd1na2vs0mg"},{"bike_id":"3032951f-b623-4cd7-a740-e5bdb3b4d146","system_id":"levelo_inurba_marseille","lat":43.29912,"lon":5.37474,"is_reserved":false,"is_disabled":false,"rental_uris":{"android":"levelo://app?vid=3032951f-b623-4cd7-a740-e5bdb3b4d146","ios":"levelo://app?vid=3032951f-b623-4cd7-a740-e5bdb3b4d146"},"vehicle_type_id":"4","last_reported":1729969553,"current_range_meters":38800,"station_id":"ce4bgjh2rcd13ifvqbg0","pricing_plan_id":"cebpf4jnsgd1na2vs0mg"},{"bike_id":"1523497e-4d2e-4c8d-9640-3812c210f56e","system_id":"levelo_inurba_marseille","lat":43.31085,"lon":5.42435,"is_reserved":false,"is_disabled":false,"rental_uris":{"android":"levelo://app?vid=1523497e-4d2e-4c8d-9640-3812c210f56e","ios":"levelo://app?vid=1523497e-4d2e-4c8d-9640-3812c210f56e"},"vehicle_type_id":"4","last_reported":1729969553,"current_range_meters":37600,"station_id":"ce4bhp92rcd13ifvqhag","pricing_plan_id":"cebpf4jnsgd1na2vs0mg"},{"bike_id":"d13cfe8d-6bc1-49c8-b259-26c297560ecd","system_id":"levelo_inurba_marseille","lat":43.29785,"lon":5.38097,"is_reserved":false,"is_disabled":false,"rental_uris":{"android":"levelo://app?vid=d13cfe8d-6bc1-49c8-b259-26c297560ecd","ios":"levelo://app?vid=d13cfe8d-6bc1-49c8-b259-26c297560ecd"},"vehicle_type_id":"4","last_reported":1729969553,"current_range_meters":40000,"station_id":"ce4bgip2rcd13ifvqbb0","pricing_plan_id":"cebpf4jnsgd1na2vs0mg"},{"bike_id":"8001b44d-9ab0-46f5-80ea-c34d9f92effc","system_id":"levelo_inurba_marseille","lat":43.26944,"lon":5.40258,"is_reserved":false,"is_disabled":false,"rental_uris":{"android":"levelo://app?vid=8001b44d-9ab0-46f5-80ea-c34d9f92effc","ios":"levelo://app?vid=8001b44d-9ab0-46f5-80ea-c34d9f92effc"},"vehicle_type_id":"4","last_reported":1729969553,"current_range_meters":39200,"station_id":"cjm6bp8fraef2m0cb0m0","pricing_plan_id":"cebpf4jnsgd1na2vs0mg"},{"bike_id":"ec1ef2fd-0187-4063-a08a-f08e31fd67e9","system_id":"levelo_inurba_marseille","lat":43.25002,"lon":5.38916,"is_reserved":false,"is_disabled":false,"rental_uris":{"android":"levelo://app?vid=ec1ef2fd-0187-4063-a08a-f08e31fd67e9","ios":"levelo://app?vid=ec1ef2fd-0187-4063-a08a-f08e31fd67e9"},"vehicle_type_id":"4","last_reported":1729969553,"current_range_meters":35200,"station_id":"ce4bhgp2rcd13ifvqfd0","pricing_plan_id":"cebpf4jnsgd1na2vs0mg"},{"bike_id":"613a72fc-125e-4267-95fb-a3509384f756","system_id":"levelo_inurba_marseille","lat":43.29026,"lon":5.3814,"is_reserved":false,"is_disabled":false,"rental_uris":{"android":"levelo://app?vid=613a72fc-125e-4267-95fb-a3509384f756","ios":"levelo://app?vid=613a72fc-125e-4267-95fb-a3509384f756"},"vehicle_type_id":"4","last_reported":1729969553,"current_range_meters":32400,"station_id":"ce4bh4p2rcd13ifvqe1g","pricing_plan_id":"cebpf4jnsgd1na2vs0mg"},{"bike_id":"31554b55-47d7-43b1-ad82-9d997bccc8c1","system_id":"levelo_inurba_marseille","lat":43.30094,"lon":5.39094,"is_reserved":false,"is_disabled":false,"rental_uris":{"android":"levelo://app?vid=31554b55-47d7-43b1-ad82-9d997bccc8c1","ios":"levelo://app?vid=31554b55-47d7-43b1-ad82-9d997bccc8c1"},"vehicle_type_id":"4","last_reported":1729969553,"current_range_meters":26800,"station_id":"ce4bh192rcd13ifvqdb0","pricing_plan_id":"cebpf4jnsgd1na2vs0mg"},{"bike_id":"19928214-403a-46e9-8732-4207aee3502e","system_id":"levelo_inurba_marseille","lat":43.27963,"lon":5.38715,"is_reserved":false,"is_disabled":false,"rental_uris":{"android":"levelo://app?vid=19928214-403a-46e9-8732-4207aee3502e","ios":"levelo://app?vid=19928214-403a-46e9-8732-4207aee3502e"},"vehicle_type_id":"4","last_reported":1729969553,"current_range_meters":36400,"station_id":"ce4bhg12rcd13ifvqf80","pricing_plan_id":"cebpf4jnsgd1na2vs0mg"},{"bike_id":"a440d0bc-256a-4039-9afd-92ef8a4385b8","system_id":"levelo_inurba_marseille","lat":43.29564,"lon":5.39979,"is_reserved":false,"is_disabled":false,"rental_uris":{"android":"levelo://app?vid=a440d0bc-256a-4039-9afd-92ef8a4385b8","ios":"levelo://app?vid=a440d0bc-256a-4039-9afd-92ef8a4385b8"},"vehicle_type_id":"4","last_reported":1729969553,"current_range_meters":36000,"station_id":"ce4bh312rcd13ifvqdj0","pricing_plan_id":"cebpf4jnsgd1na2vs0mg"},{"bike_id":"3ccabff9-281a-40ae-ba03-c512e05c2828","system_id":"levelo_inurba_marseille","lat":43.29261,"lon":5.38457,"is_reserved":false,"is_disabled":false,"rental_uris":{"android":"levelo://app?vid=3ccabff9-281a-40ae-ba03-c512e05c2828","ios":"levelo://app?vid=3ccabff9-281a-40ae-ba03-c512e05c2828"},"vehicle_type_id":"4","last_reported":1729969553,"current_range_meters":26800,"station_id":"ce4bh692rcd13ifvqea0","pricing_plan_id":"cebpf4jnsgd1na2vs0mg"},{"bike_id":"45a320ad-9a82-4983-a620-c3628d089749","system_id":"levelo_inurba_marseille","lat":43.28105,"lon":5.37844,"is_reserved":false,"is_disabled":false,"rental_uris":{"android":"levelo://app?vid=45a320ad-9a82-4983-a620-c3628d089749","ios":"levelo://app?vid=45a320ad-9a82-4983-a620-c3628d089749"},"vehicle_type_id":"4","last_reported":1729969553,"current_range_meters":32800,"station_id":"ce4bha12rcd13ifvqee0","pricing_plan_id":"cebpf4jnsgd1na2vs0mg"},{"bike_id":"356a8e33-4ab0-42f2-95a5-274f32429f87","system_id":"levelo_inurba_marseille","lat":43.30146,"lon":5.3809,"is_reserved":false,"is_disabled":false,"rental_uris":{"android":"levelo://app?vid=356a8e33-4ab0-42f2-95a5-274f32429f87","ios":"levelo://app?vid=356a8e33-4ab0-42f2-95a5-274f32429f87"},"vehicle_type_id":"4","last_reported":1729969553,"current_range_meters":16800,"station_id":"ce4bgjp2rcd13ifvqbh0","pricing_plan_id":"cebpf4jnsgd1na2vs0mg"},{"bike_id":"f9dd0103-b045-4d3e-97f0-feaf4a2d3923","system_id":"levelo_inurba_marseille","lat":43.25007,"lon":5.38918,"is_reserved":false,"is_disabled":false,"rental_uris":{"android":"levelo://app?vid=f9dd0103-b045-4d3e-97f0-feaf4a2d3923","ios":"levelo://app?vid=f9dd0103-b045-4d3e-97f0-feaf4a2d3923"},"vehicle_type_id":"4","last_reported":1729969553,"current_range_meters":8400,"station_id":"ce4bhgp2rcd13ifvqfd0","pricing_plan_id":"cebpf4jnsgd1na2vs0mg"},{"bike_id":"c1ff30c9-765a-4012-87b1-c5b239bd55a6","system_id":"levelo_inurba_marseille","lat":43.29187,"lon":5.35803,"is_reserved":false,"is_disabled":false,"rental_uris":{"android":"levelo://app?vid=c1ff30c9-765a-4012-87b1-c5b239bd55a6","ios":"levelo://app?vid=c1ff30c9-765a-4012-87b1-c5b239bd55a6"},"vehicle_type_id":"4","last_reported":1729969553,"current_range_meters":38800,"station_id":"ce4bhb12rcd13ifvqel0","pricing_plan_id":"cebpf4jnsgd1na2vs0mg"},{"bike_id":"8143e608-d262-449d-856e-3d74048159e6","system_id":"levelo_inurba_marseille","lat":43.3234,"lon":5.40626,"is_reserved":false,"is_disabled":false,"rental_uris":{"android":"levelo://app?vid=8143e608-d262-449d-856e-3d74048159e6","ios":"levelo://app?vid=8143e608-d262-449d-856e-3d74048159e6"},"vehicle_type_id":"4","last_reported":1729969553,"current_range_meters":38800,"station_id":"ce4bhq92rcd13ifvqhjg","pricing_plan_id":"cebpf4jnsgd1na2vs0mg"},{"bike_id":"f35bff84-2694-4e18-9465-7d2a42e494d5","system_id":"levelo_inurba_marseille","lat":43.30632,"lon":5.40082,"is_reserved":false,"is_disabled":false,"rental_uris":{"android":"levelo://app?vid=f35bff84-2694-4e18-9465-7d2a42e494d5","ios":"levelo://app?vid=f35bff84-2694-4e18-9465-7d2a42e494d5"},"vehicle_type_id":"4","last_reported":1729969553,"current_range_meters":24800,"station_id":"ce4bh112rcd13ifvqda0","pricing_plan_id":"cebpf4jnsgd1na2vs0mg"},{"bike_id":"77ff59a8-6602-4c14-b363-2f0c3ded9ffb","system_id":"levelo_inurba_marseille","lat":43.29527,"lon":5.3855,"is_reserved":false,"is_disabled":false,"rental_uris":{"android":"levelo://app?vid=77ff59a8-6602-4c14-b363-2f0c3ded9ffb","ios":"levelo://app?vid=77ff59a8-6602-4c14-b363-2f0c3ded9ffb"},"vehicle_type_id":"4","last_reported":1729969553,"current_range_meters":12000,"station_id":"ce4bgih2rcd13ifvqba0","pricing_plan_id":"cebpf4jnsgd1na2vs0mg"},{"bike_id":"6ac10959-8eb2-45e6-ad18-f41cdf25e740","system_id":"levelo_inurba_marseille","lat":43.27951,"lon":5.41045,"is_reserved":false,"is_disabled":false,"rental_uris":{"android":"levelo://app?vid=6ac10959-8eb2-45e6-ad18-f41cdf25e740","ios":"levelo://app?vid=6ac10959-8eb2-45e6-ad18-f41cdf25e740"},"vehicle_type_id":"4","last_reported":1729969553,"current_range_meters":8800,"station_id":"ce4bhnp2rcd13ifvqh0g","pricing_plan_id":"cebpf4jnsgd1na2vs0mg"},{"bike_id":"c7493202-7ba4-4657-a88f-5b1ffe0cc379","system_id":"levelo_inurba_marseille","lat":43.25727,"lon":5.41103,"is_reserved":false,"is_disabled":false,"rental_uris":{"android":"levelo://app?vid=c7493202-7ba4-4657-a88f-5b1ffe0cc379","ios":"levelo://app?vid=c7493202-7ba4-4657-a88f-5b1ffe0cc379"},"vehicle_type_id":"4","last_reported":1729969553,"current_range_meters":9200,"station_id":"ce4bhkp2rcd13ifvqgd0","pricing_plan_id":"cebpf4jnsgd1na2vs0mg"},{"bike_id":"2502b547-1537-4acc-b38a-ccb5e750204d","system_id":"levelo_inurba_marseille","lat":43.28845,"lon":5.35848,"is_reserved":false,"is_disabled":false,"rental_uris":{"android":"levelo://app?vid=2502b547-1537-4acc-b38a-ccb5e750204d","ios":"levelo://app?vid=2502b547-1537-4acc-b38a-ccb5e750204d"},"vehicle_type_id":"4","last_reported":1729969553,"current_range_meters":38800,"station_id":"ce4bhb12rcd13ifvqem0","pricing_plan_id":"cebpf4jnsgd1na2vs0mg"},{"bike_id":"fbabd65a-eb4c-4079-98ce-24263a2a8430","system_id":"levelo_inurba_marseille","lat":43.24659,"lon":5.38903,"is_reserved":false,"is_disabled":false,"rental_uris":{"android":"levelo://app?vid=fbabd65a-eb4c-4079-98ce-24263a2a8430","ios":"levelo://app?vid=fbabd65a-eb4c-4079-98ce-24263a2a8430"},"vehicle_type_id":"4","last_reported":1729969553,"current_range_meters":38800,"station_id":"ce4bhg12rcd13ifvqf60","pricing_plan_id":"cebpf4jnsgd1na2vs0mg"},{"bike_id":"98e33aa4-2131-4227-b5ee-7452ffb51601","system_id":"levelo_inurba_marseille","lat":43.30306,"lon":5.36906,"is_reserved":false,"is_disabled":false,"rental_uris":{"android":"levelo://app?vid=98e33aa4-2131-4227-b5ee-7452ffb51601","ios":"levelo://app?vid=98e33aa4-2131-4227-b5ee-7452ffb51601"},"vehicle_type_id":"4","last_reported":1729969553,"current_range_meters":37600,"station_id":"ce4bgqh2rcd13ifvqc5g","pricing_plan_id":"cebpf4jnsgd1na2vs0mg"},{"bike_id":"8e05c1c9-c561-470b-83c7-44b67333075d","system_id":"levelo_inurba_marseille","lat":43.29262,"lon":5.38445,"is_reserved":false,"is_disabled":false,"rental_uris":{"android":"levelo://app?vid=8e05c1c9-c561-470b-83c7-44b67333075d","ios":"levelo://app?vid=8e05c1c9-c561-470b-83c7-44b67333075d"},"vehicle_type_id":"4","last_reported":1729969553,"current_range_meters":38800,"station_id":"ce4bh692rcd13ifvqea0","pricing_plan_id":"cebpf4jnsgd1na2vs0mg"},{"bike_id":"b3b80d53-4198-4a51-a57d-a6ff1e361e88","system_id":"levelo_inurba_marseille","lat":43.28159,"lon":5.42652,"is_reserved":false,"is_disabled":false,"rental_uris":{"android":"levelo://app?vid=b3b80d53-4198-4a51-a57d-a6ff1e361e88","ios":"levelo://app?vid=b3b80d53-4198-4a51-a57d-a6ff1e361e88"},"vehicle_type_id":"4","last_reported":1729969553,"current_range_meters":34000,"station_id":"ce4bhnh2rcd13ifvqgug","pricing_plan_id":"cebpf4jnsgd1na2vs0mg"},{"bike_id":"0ecf5e07-d4ac-4f2c-bd1b-3acf9f99ddc6","system_id":"levelo_inurba_marseille","lat":43.2602,"lon":5.37554,"is_reserved":false,"is_disabled":false,"rental_uris":{"android":"levelo://app?vid=0ecf5e07-d4ac-4f2c-bd1b-3acf9f99ddc6","ios":"levelo://app?vid=0ecf5e07-d4ac-4f2c-bd1b-3acf9f99ddc6"},"vehicle_type_id":"4","last_reported":1729969553,"current_range_meters":38800,"station_id":"ce4bhgh2rcd13ifvqfa0","pricing_plan_id":"cebpf4jnsgd1na2vs0mg"},{"bike_id":"957b322f-52e1-499d-a22e-48822d7e0212","system_id":"levelo_inurba_marseille","lat":43.24664,"lon":5.38163,"is_reserved":false,"is_disabled":false,"rental_uris":{"android":"levelo://app?vid=957b322f-52e1-499d-a22e-48822d7e0212","ios":"levelo://app?vid=957b322f-52e1-499d-a22e-48822d7e0212"},"vehicle_type_id":"4","last_reported":1729969553,"current_range_meters":25600,"station_id":"ce4bhih2rcd13ifvqfr0","pricing_plan_id":"cebpf4jnsgd1na2vs0mg"},{"bike_id":"74cde24f-8305-4324-834a-3bd8b42b2d67","system_id":"levelo_inurba_marseille","lat":43.292653,"lon":5.384481,"is_reserved":false,"is_disabled":false,"rental_uris":{"android":"levelo://app?vid=74cde24f-8305-4324-834a-3bd8b42b2d67","ios":"levelo://app?vid=74cde24f-8305-4324-834a-3bd8b42b2d67"},"vehicle_type_id":"4","last_reported":1729969553,"current_range_meters":16000,"station_id":"ce4bh692rcd13ifvqea0","pricing_plan_id":"cebpf4jnsgd1na2vs0mg"},{"bike_id":"3440d9b5-3e68-45f4-98be-6b0e41381653","system_id":"levelo_inurba_marseille","lat":43.28445,"lon":5.39183,"is_reserved":false,"is_disabled":false,"rental_uris":{"android":"levelo://app?vid=3440d9b5-3e68-45f4-98be-6b0e41381653","ios":"levelo://app?vid=3440d9b5-3e68-45f4-98be-6b0e41381653"},"vehicle_type_id":"4","last_reported":1729969553,"current_range_meters":25600,"station_id":"ce4bhoh2rcd13ifvqh5g","pricing_plan_id":"cebpf4jnsgd1na2vs0mg"},{"bike_id":"f6a5ef30-cd45-4f33-acc1-40cc262286be","system_id":"levelo_inurba_marseille","lat":43.26941,"lon":5.40254,"is_reserved":false,"is_disabled":false,"rental_uris":{"android":"levelo://app?vid=f6a5ef30-cd45-4f33-acc1-40cc262286be","ios":"levelo://app?vid=f6a5ef30-cd45-4f33-acc1-40cc262286be"},"vehicle_type_id":"4","last_reported":1729969553,"current_range_meters":38800,"station_id":"cjm6bp8fraef2m0cb0m0","pricing_plan_id":"cebpf4jnsgd1na2vs0mg"},{"bike_id":"76b1c74f-ce11-4b70-a47e-64f486289740","system_id":"levelo_inurba_marseille","lat":43.28361,"lon":5.3863,"is_reserved":false,"is_disabled":false,"rental_uris":{"android":"levelo://app?vid=76b1c74f-ce11-4b70-a47e-64f486289740","ios":"levelo://app?vid=76b1c74f-ce11-4b70-a47e-64f486289740"},"vehicle_type_id":"4","last_reported":1729969553,"current_range_meters":16400,"station_id":"ce4bh492rcd13ifvqdvg","pricing_plan_id":"cebpf4jnsgd1na2vs0mg"},{"bike_id":"c4f16691-f8e1-494d-b2b9-e447f16bf18a","system_id":"levelo_inurba_marseille","lat":43.25824,"lon":5.39441,"is_reserved":false,"is_disabled":false,"rental_uris":{"android":"levelo://app?vid=c4f16691-f8e1-494d-b2b9-e447f16bf18a","ios":"levelo://app?vid=c4f16691-f8e1-494d-b2b9-e447f16bf18a"},"vehicle_type_id":"4","last_reported":1729969553,"current_range_meters":24400,"station_id":"ce4bhip2rcd13ifvqft0","pricing_plan_id":"cebpf4jnsgd1na2vs0mg"},{"bike_id":"1fb78a65-e34f-4d92-85da-98df38c1c777","system_id":"levelo_inurba_marseille","lat":43.28926,"lon":5.38387,"is_reserved":false,"is_disabled":false,"rental_uris":{"android":"levelo://app?vid=1fb78a65-e34f-4d92-85da-98df38c1c777","ios":"levelo://app?vid=1fb78a65-e34f-4d92-85da-98df38c1c777"},"vehicle_type_id":"4","last_reported":1729969553,"current_range_meters":39200,"station_id":"ce4bh612rcd13ifvqe6g","pricing_plan_id":"cebpf4jnsgd1na2vs0mg"},{"bike_id":"3684fa82-583f-4291-a354-ebce826ceb75","system_id":"levelo_inurba_marseille","lat":43.27567,"lon":5.38435,"is_reserved":false,"is_disabled":false,"rental_uris":{"android":"levelo://app?vid=3684fa82-583f-4291-a354-ebce826ceb75","ios":"levelo://app?vid=3684fa82-583f-4291-a354-ebce826ceb75"},"vehicle_type_id":"4","last_reported":1729969553,"current_range_meters":28000,"station_id":"ce4bhh92rcd13ifvqfi0","pricing_plan_id":"cebpf4jnsgd1na2vs0mg"},{"bike_id":"9befed88-9f8c-464c-b07b-093bd97066bb","system_id":"levelo_inurba_marseille","lat":43.29805,"lon":5.37136,"is_reserved":false,"is_disabled":false,"rental_uris":{"android":"levelo://app?vid=9befed88-9f8c-464c-b07b-093bd97066bb","ios":"levelo://app?vid=9befed88-9f8c-464c-b07b-093bd97066bb"},"vehicle_type_id":"4","last_reported":1729969553,"current_range_meters":22800,"station_id":"","pricing_plan_id":"cebpf4jnsgd1na2vs0mg"},{"bike_id":"f37e3b02-a49c-4c4e-b112-f9c8c24edf90","system_id":"levelo_inurba_marseille","lat":43.23187,"lon":5.35559,"is_reserved":false,"is_disabled":false,"rental_uris":{"android":"levelo://app?vid=f37e3b02-a49c-4c4e-b112-f9c8c24edf90","ios":"levelo://app?vid=f37e3b02-a49c-4c4e-b112-f9c8c24edf90"},"vehicle_type_id":"4","last_reported":1729969553,"current_range_meters":20400,"station_id":"ce4bhu92rcd13ifvqi70","pricing_plan_id":"cebpf4jnsgd1na2vs0mg"},{"bike_id":"5fa39193-f34b-44bf-b2f1-c77993a7fee5","system_id":"levelo_inurba_marseille","lat":43.29564,"lon":5.37512,"is_reserved":false,"is_disabled":false,"rental_uris":{"android":"levelo://app?vid=5fa39193-f34b-44bf-b2f1-c77993a7fee5","ios":"levelo://app?vid=5fa39193-f34b-44bf-b2f1-c77993a7fee5"},"vehicle_type_id":"4","last_reported":1729969553,"current_range_meters":30000,"station_id":"ce4bgh92rcd13ifvqb50","pricing_plan_id":"cebpf4jnsgd1na2vs0mg"},{"bike_id":"255a2418-109b-4781-b416-07f7ae7b39cc","system_id":"levelo_inurba_marseille","lat":43.30205,"lon":5.39454,"is_reserved":false,"is_disabled":false,"rental_uris":{"android":"levelo://app?vid=255a2418-109b-4781-b416-07f7ae7b39cc","ios":"levelo://app?vid=255a2418-109b-4781-b416-07f7ae7b39cc"},"vehicle_type_id":"4","last_reported":1729969553,"current_range_meters":36800,"station_id":"ce4bh0p2rcd13ifvqd70","pricing_plan_id":"cebpf4jnsgd1na2vs0mg"},{"bike_id":"e8f7756b-9b3c-46b3-ab7c-fb2ca8edfd78","system_id":"levelo_inurba_marseille","lat":43.30595,"lon":5.39359,"is_reserved":false,"is_disabled":false,"rental_uris":{"android":"levelo://app?vid=e8f7756b-9b3c-46b3-ab7c-fb2ca8edfd78","ios":"levelo://app?vid=e8f7756b-9b3c-46b3-ab7c-fb2ca8edfd78"},"vehicle_type_id":"4","last_reported":1729969553,"current_range_meters":28400,"station_id":"ce4bh0p2rcd13ifvqd80","pricing_plan_id":"cebpf4jnsgd1na2vs0mg"},{"bike_id":"a4d2aac1-98f7-4ee9-bb54-2720ee698eac","system_id":"levelo_inurba_marseille","lat":43.25573,"lon":5.38239,"is_reserved":false,"is_disabled":false,"rental_uris":{"android":"levelo://app?vid=a4d2aac1-98f7-4ee9-bb54-2720ee698eac","ios":"levelo://app?vid=a4d2aac1-98f7-4ee9-bb54-2720ee698eac"},"vehicle_type_id":"4","last_reported":1729969553,"current_range_meters":35200,"station_id":"ce4bhih2rcd13ifvqfs0","pricing_plan_id":"cebpf4jnsgd1na2vs0mg"},{"bike_id":"dad2718b-ffdf-4024-8a84-70e058921ae1","system_id":"levelo_inurba_marseille","lat":43.26056,"lon":5.39395,"is_reserved":false,"is_disabled":false,"rental_uris":{"android":"levelo://app?vid=dad2718b-ffdf-4024-8a84-70e058921ae1","ios":"levelo://app?vid=dad2718b-ffdf-4024-8a84-70e058921ae1"},"vehicle_type_id":"4","last_reported":1729969553,"current_range_meters":32000,"station_id":"ce4bhh92rcd13ifvqfj0","pricing_plan_id":"cebpf4jnsgd1na2vs0mg"},{"bike_id":"5c8d47df-cace-44d5-9922-d4ea86fc841f","system_id":"levelo_inurba_marseille","lat":43.23962,"lon":5.36634,"is_reserved":false,"is_disabled":false,"rental_uris":{"android":"levelo://app?vid=5c8d47df-cace-44d5-9922-d4ea86fc841f","ios":"levelo://app?vid=5c8d47df-cace-44d5-9922-d4ea86fc841f"},"vehicle_type_id":"4","last_reported":1729969553,"current_range_meters":39200,"station_id":"ce4bhi12rcd13ifvqfp0","pricing_plan_id":"cebpf4jnsgd1na2vs0mg"},{"bike_id":"b8fbf6cb-4344-49f0-aa51-6bf07fd511fe","system_id":"levelo_inurba_marseille","lat":43.2549,"lon":5.37646,"is_reserved":false,"is_disabled":false,"rental_uris":{"android":"levelo://app?vid=b8fbf6cb-4344-49f0-aa51-6bf07fd511fe","ios":"levelo://app?vid=b8fbf6cb-4344-49f0-aa51-6bf07fd511fe"},"vehicle_type_id":"4","last_reported":1729969553,"current_range_meters":26800,"station_id":"ce4bhh12rcd13ifvqff0","pricing_plan_id":"cebpf4jnsgd1na2vs0mg"},{"bike_id":"ee6b2608-9027-41b7-a594-abeda6889556","system_id":"levelo_inurba_marseille","lat":43.27501,"lon":5.42452,"is_reserved":false,"is_disabled":false,"rental_uris":{"android":"levelo://app?vid=ee6b2608-9027-41b7-a594-abeda6889556","ios":"levelo://app?vid=ee6b2608-9027-41b7-a594-abeda6889556"},"vehicle_type_id":"4","last_reported":1729969553,"current_range_meters":28400,"station_id":"ce4bhn92rcd13ifvqgrg","pricing_plan_id":"cebpf4jnsgd1na2vs0mg"},{"bike_id":"51195846-2f5b-4a2e-a314-37864cea1b78","system_id":"levelo_inurba_marseille","lat":43.2998,"lon":5.38492,"is_reserved":false,"is_disabled":false,"rental_uris":{"android":"levelo://app?vid=51195846-2f5b-4a2e-a314-37864cea1b78","ios":"levelo://app?vid=51195846-2f5b-4a2e-a314-37864cea1b78"},"vehicle_type_id":"4","last_reported":1729969553,"current_range_meters":36800,"station_id":"ce4bgj92rcd13ifvqbd0","pricing_plan_id":"cebpf4jnsgd1na2vs0mg"},{"bike_id":"634fa0ef-e7c5-4411-ba71-8fc084888fcb","system_id":"levelo_inurba_marseille","lat":43.27494,"lon":5.42458,"is_reserved":false,"is_disabled":false,"rental_uris":{"android":"levelo://app?vid=634fa0ef-e7c5-4411-ba71-8fc084888fcb","ios":"levelo://app?vid=634fa0ef-e7c5-4411-ba71-8fc084888fcb"},"vehicle_type_id":"4","last_reported":1729969553,"current_range_meters":30400,"station_id":"ce4bhn92rcd13ifvqgrg","pricing_plan_id":"cebpf4jnsgd1na2vs0mg"},{"bike_id":"63dffe58-b321-4992-b66b-9f28a3e3e3b4","system_id":"levelo_inurba_marseille","lat":43.299595,"lon":5.413194,"is_reserved":false,"is_disabled":false,"rental_uris":{"android":"levelo://app?vid=63dffe58-b321-4992-b66b-9f28a3e3e3b4","ios":"levelo://app?vid=63dffe58-b321-4992-b66b-9f28a3e3e3b4"},"vehicle_type_id":"4","last_reported":1729969553,"current_range_meters":39200,"station_id":"ce4bhp12rcd13ifvqh9g","pricing_plan_id":"cebpf4jnsgd1na2vs0mg"},{"bike_id":"82dc1f1b-b051-4ee1-aad3-502860e6265f","system_id":"levelo_inurba_marseille","lat":43.29625,"lon":5.37169,"is_reserved":false,"is_disabled":false,"rental_uris":{"android":"levelo://app?vid=82dc1f1b-b051-4ee1-aad3-502860e6265f","ios":"levelo://app?vid=82dc1f1b-b051-4ee1-aad3-502860e6265f"},"vehicle_type_id":"4","last_reported":1729969553,"current_range_meters":8000,"station_id":"ce4bgnh2rcd13ifvqc0g","pricing_plan_id":"cebpf4jnsgd1na2vs0mg"},{"bike_id":"031a4275-c9ab-4687-a540-a5ecee5d6b37","system_id":"levelo_inurba_marseille","lat":43.308,"lon":5.3816,"is_reserved":false,"is_disabled":false,"rental_uris":{"android":"levelo://app?vid=031a4275-c9ab-4687-a540-a5ecee5d6b37","ios":"levelo://app?vid=031a4275-c9ab-4687-a540-a5ecee5d6b37"},"vehicle_type_id":"4","last_reported":1729969553,"current_range_meters":37600,"station_id":"ce4bgt12rcd13ifvqce0","pricing_plan_id":"cebpf4jnsgd1na2vs0mg"},{"bike_id":"d4a063d0-710a-490f-9214-5d9a82ceb523","system_id":"levelo_inurba_marseille","lat":43.2871,"lon":5.37383,"is_reserved":false,"is_disabled":false,"rental_uris":{"android":"levelo://app?vid=d4a063d0-710a-490f-9214-5d9a82ceb523","ios":"levelo://app?vid=d4a063d0-710a-490f-9214-5d9a82ceb523"},"vehicle_type_id":"4","last_reported":1729969553,"current_range_meters":38800,"station_id":"ce4bh3p2rcd13ifvqdq0","pricing_plan_id":"cebpf4jnsgd1na2vs0mg"},{"bike_id":"aca2b33f-b66e-4b8a-ba0d-029f32887f02","system_id":"levelo_inurba_marseille","lat":43.29266,"lon":5.38438,"is_reserved":false,"is_disabled":false,"rental_uris":{"android":"levelo://app?vid=aca2b33f-b66e-4b8a-ba0d-029f32887f02","ios":"levelo://app?vid=aca2b33f-b66e-4b8a-ba0d-029f32887f02"},"vehicle_type_id":"4","last_reported":1729969553,"current_range_meters":22800,"station_id":"ce4bh692rcd13ifvqea0","pricing_plan_id":"cebpf4jnsgd1na2vs0mg"},{"bike_id":"75f3b427-9a19-499b-b03f-3a72a2bc01b2","system_id":"levelo_inurba_marseille","lat":43.30327,"lon":5.40447,"is_reserved":false,"is_disabled":false,"rental_uris":{"android":"levelo://app?vid=75f3b427-9a19-499b-b03f-3a72a2bc01b2","ios":"levelo://app?vid=75f3b427-9a19-499b-b03f-3a72a2bc01b2"},"vehicle_type_id":"4","last_reported":1729969553,"current_range_meters":32000,"station_id":"ce4bh012rcd13ifvqd10","pricing_plan_id":"cebpf4jnsgd1na2vs0mg"},{"bike_id":"c88b1700-452c-431d-b61c-02401769d4a0","system_id":"levelo_inurba_marseille","lat":43.29425,"lon":5.38624,"is_reserved":false,"is_disabled":false,"rental_uris":{"android":"levelo://app?vid=c88b1700-452c-431d-b61c-02401769d4a0","ios":"levelo://app?vid=c88b1700-452c-431d-b61c-02401769d4a0"},"vehicle_type_id":"4","last_reported":1729969553,"current_range_meters":30800,"station_id":"ce4bh2h2rcd13ifvqdh0","pricing_plan_id":"cebpf4jnsgd1na2vs0mg"},{"bike_id":"e68806bb-1703-4502-b0f5-0e73a895871d","system_id":"levelo_inurba_marseille","lat":43.29569,"lon":5.3998,"is_reserved":false,"is_disabled":false,"rental_uris":{"android":"levelo://app?vid=e68806bb-1703-4502-b0f5-0e73a895871d","ios":"levelo://app?vid=e68806bb-1703-4502-b0f5-0e73a895871d"},"vehicle_type_id":"4","last_reported":1729969553,"current_range_meters":39200,"station_id":"ce4bh312rcd13ifvqdj0","pricing_plan_id":"cebpf4jnsgd1na2vs0mg"},{"bike_id":"1b532e93-6dee-485b-a0f6-9cdc54e2e977","system_id":"levelo_inurba_marseille","lat":43.290185,"lon":5.38146,"is_reserved":false,"is_disabled":false,"rental_uris":{"android":"levelo://app?vid=1b532e93-6dee-485b-a0f6-9cdc54e2e977","ios":"levelo://app?vid=1b532e93-6dee-485b-a0f6-9cdc54e2e977"},"vehicle_type_id":"4","last_reported":1729969553,"current_range_meters":38800,"station_id":"ce4bh4p2rcd13ifvqe1g","pricing_plan_id":"cebpf4jnsgd1na2vs0mg"},{"bike_id":"4b4abbaa-dc31-4371-b345-c2f80e3c6bfa","system_id":"levelo_inurba_marseille","lat":43.30932,"lon":5.40144,"is_reserved":false,"is_disabled":false,"rental_uris":{"android":"levelo://app?vid=4b4abbaa-dc31-4371-b345-c2f80e3c6bfa","ios":"levelo://app?vid=4b4abbaa-dc31-4371-b345-c2f80e3c6bfa"},"vehicle_type_id":"4","last_reported":1729969553,"current_range_meters":24800,"station_id":"ce4bgvp2rcd13ifvqct0","pricing_plan_id":"cebpf4jnsgd1na2vs0mg"},{"bike_id":"b425a53a-2ca1-45d6-9375-1a007f59f76d","system_id":"levelo_inurba_marseille","lat":43.2742,"lon":5.39415,"is_reserved":false,"is_disabled":false,"rental_uris":{"android":"levelo://app?vid=b425a53a-2ca1-45d6-9375-1a007f59f76d","ios":"levelo://app?vid=b425a53a-2ca1-45d6-9375-1a007f59f76d"},"vehicle_type_id":"4","last_reported":1729969553,"current_range_meters":18000,"station_id":"ce4bhdp2rcd13ifvqf20","pricing_plan_id":"cebpf4jnsgd1na2vs0mg"},{"bike_id":"cc4f98a7-65b4-4fb8-a4e1-76db513d94fa","system_id":"levelo_inurba_marseille","lat":43.29291,"lon":5.37468,"is_reserved":false,"is_disabled":false,"rental_uris":{"android":"levelo://app?vid=cc4f98a7-65b4-4fb8-a4e1-76db513d94fa","ios":"levelo://app?vid=cc4f98a7-65b4-4fb8-a4e1-76db513d94fa"},"vehicle_type_id":"4","last_reported":1729969553,"current_range_meters":36000,"station_id":"ce4bgi12rcd13ifvqb70","pricing_plan_id":"cebpf4jnsgd1na2vs0mg"},{"bike_id":"a1b80174-51e4-493d-96af-04d40eab308b","system_id":"levelo_inurba_marseille","lat":43.28078,"lon":5.39654,"is_reserved":false,"is_disabled":false,"rental_uris":{"android":"levelo://app?vid=a1b80174-51e4-493d-96af-04d40eab308b","ios":"levelo://app?vid=a1b80174-51e4-493d-96af-04d40eab308b"},"vehicle_type_id":"4","last_reported":1729969553,"current_range_meters":36400,"station_id":"ce4bho12rcd13ifvqh2g","pricing_plan_id":"cebpf4jnsgd1na2vs0mg"},{"bike_id":"2fdd8efd-807f-43c0-a5f8-acb8d352d834","system_id":"levelo_inurba_marseille","lat":43.32367,"lon":5.38885,"is_reserved":false,"is_disabled":false,"rental_uris":{"android":"levelo://app?vid=2fdd8efd-807f-43c0-a5f8-acb8d352d834","ios":"levelo://app?vid=2fdd8efd-807f-43c0-a5f8-acb8d352d834"},"vehicle_type_id":"4","last_reported":1729969553,"current_range_meters":8000,"station_id":"ce4bhqp2rcd13ifvqhog","pricing_plan_id":"cebpf4jnsgd1na2vs0mg"},{"bike_id":"cda4e669-bff4-47ce-b9f1-0b2fd51049cf","system_id":"levelo_inurba_marseille","lat":43.29582,"lon":5.36739,"is_reserved":false,"is_disabled":false,"rental_uris":{"android":"levelo://app?vid=cda4e669-bff4-47ce-b9f1-0b2fd51049cf","ios":"levelo://app?vid=cda4e669-bff4-47ce-b9f1-0b2fd51049cf"},"vehicle_type_id":"4","last_reported":1729969553,"current_range_meters":33200,"station_id":"ce4bgph2rcd13ifvqc2g","pricing_plan_id":"cebpf4jnsgd1na2vs0mg"},{"bike_id":"43df6f01-ce4c-441f-bf0c-95fe2920d7eb","system_id":"levelo_inurba_marseille","lat":43.26574,"lon":5.39006,"is_reserved":false,"is_disabled":false,"rental_uris":{"android":"levelo://app?vid=43df6f01-ce4c-441f-bf0c-95fe2920d7eb","ios":"levelo://app?vid=43df6f01-ce4c-441f-bf0c-95fe2920d7eb"},"vehicle_type_id":"4","last_reported":1729969553,"current_range_meters":31200,"station_id":"ce4bhe12rcd13ifvqf30","pricing_plan_id":"cebpf4jnsgd1na2vs0mg"},{"bike_id":"b3be71f1-cb8f-4ae1-ae1c-c6022e6f867e","system_id":"levelo_inurba_marseille","lat":43.27177,"lon":5.4099,"is_reserved":false,"is_disabled":false,"rental_uris":{"android":"levelo://app?vid=b3be71f1-cb8f-4ae1-ae1c-c6022e6f867e","ios":"levelo://app?vid=b3be71f1-cb8f-4ae1-ae1c-c6022e6f867e"},"vehicle_type_id":"4","last_reported":1729969553,"current_range_meters":39200,"station_id":"ce4bhl12rcd13ifvqgf0","pricing_plan_id":"cebpf4jnsgd1na2vs0mg"},{"bike_id":"f6649fef-74ef-44b8-ae1c-5cfa1d8c598a","system_id":"levelo_inurba_marseille","lat":43.2606,"lon":5.39397,"is_reserved":false,"is_disabled":false,"rental_uris":{"android":"levelo://app?vid=f6649fef-74ef-44b8-ae1c-5cfa1d8c598a","ios":"levelo://app?vid=f6649fef-74ef-44b8-ae1c-5cfa1d8c598a"},"vehicle_type_id":"4","last_reported":1729969553,"current_range_meters":9200,"station_id":"ce4bhh92rcd13ifvqfj0","pricing_plan_id":"cebpf4jnsgd1na2vs0mg"},{"bike_id":"15db73b0-1d6d-44e8-90b8-473b9bae228b","system_id":"levelo_inurba_marseille","lat":43.3136,"lon":5.38496,"is_reserved":false,"is_disabled":false,"rental_uris":{"android":"levelo://app?vid=15db73b0-1d6d-44e8-90b8-473b9bae228b","ios":"levelo://app?vid=15db73b0-1d6d-44e8-90b8-473b9bae228b"},"vehicle_type_id":"4","last_reported":1729969553,"current_range_meters":38800,"station_id":"ce4bgt92rcd13ifvqcf0","pricing_plan_id":"cebpf4jnsgd1na2vs0mg"},{"bike_id":"c47ee273-d152-426c-939b-6002a5dfd2a9","system_id":"levelo_inurba_marseille","lat":43.28479,"lon":5.3841,"is_reserved":false,"is_disabled":false,"rental_uris":{"android":"levelo://app?vid=c47ee273-d152-426c-939b-6002a5dfd2a9","ios":"levelo://app?vid=c47ee273-d152-426c-939b-6002a5dfd2a9"},"vehicle_type_id":"4","last_reported":1729969553,"current_range_meters":15200,"station_id":"ce4bh512rcd13ifvqe3g","pricing_plan_id":"cebpf4jnsgd1na2vs0mg"},{"bike_id":"e9704958-873e-48eb-bb05-a4a16227b47f","system_id":"levelo_inurba_marseille","lat":43.27061,"lon":5.40252,"is_reserved":false,"is_disabled":false,"rental_uris":{"android":"levelo://app?vid=e9704958-873e-48eb-bb05-a4a16227b47f","ios":"levelo://app?vid=e9704958-873e-48eb-bb05-a4a16227b47f"},"vehicle_type_id":"4","last_reported":1729969553,"current_range_meters":22000,"station_id":"ce4bhk92rcd13ifvqgc0","pricing_plan_id":"cebpf4jnsgd1na2vs0mg"},{"bike_id":"2af71ce4-fa0f-4052-806b-9c030df3d161","system_id":"levelo_inurba_marseille","lat":43.29258,"lon":5.40899,"is_reserved":false,"is_disabled":false,"rental_uris":{"android":"levelo://app?vid=2af71ce4-fa0f-4052-806b-9c030df3d161","ios":"levelo://app?vid=2af71ce4-fa0f-4052-806b-9c030df3d161"},"vehicle_type_id":"4","last_reported":1729969553,"current_range_meters":30000,"station_id":"ce4bh192rcd13ifvqdc0","pricing_plan_id":"cebpf4jnsgd1na2vs0mg"},{"bike_id":"360a7583-721e-4f83-9f34-71533cc263bf","system_id":"levelo_inurba_marseille","lat":43.3122,"lon":5.36874,"is_reserved":false,"is_disabled":false,"rental_uris":{"android":"levelo://app?vid=360a7583-721e-4f83-9f34-71533cc263bf","ios":"levelo://app?vid=360a7583-721e-4f83-9f34-71533cc263bf"},"vehicle_type_id":"4","last_reported":1729969553,"current_range_meters":8800,"station_id":"ce4bgl92rcd13ifvqbq0","pricing_plan_id":"cebpf4jnsgd1na2vs0mg"},{"bike_id":"f67d08b7-bf04-49ab-a611-b82d369ca098","system_id":"levelo_inurba_marseille","lat":43.28906,"lon":5.38356,"is_reserved":false,"is_disabled":false,"rental_uris":{"android":"levelo://app?vid=f67d08b7-bf04-49ab-a611-b82d369ca098","ios":"levelo://app?vid=f67d08b7-bf04-49ab-a611-b82d369ca098"},"vehicle_type_id":"4","last_reported":1729969553,"current_range_meters":38800,"station_id":"ce4bh612rcd13ifvqe6g","pricing_plan_id":"cebpf4jnsgd1na2vs0mg"},{"bike_id":"d4b0d68a-ae82-42a1-b0da-b39254ee1044","system_id":"levelo_inurba_marseille","lat":43.23201,"lon":5.3555,"is_reserved":false,"is_disabled":false,"rental_uris":{"android":"levelo://app?vid=d4b0d68a-ae82-42a1-b0da-b39254ee1044","ios":"levelo://app?vid=d4b0d68a-ae82-42a1-b0da-b39254ee1044"},"vehicle_type_id":"4","last_reported":1729969553,"current_range_meters":16000,"station_id":"ce4bhu92rcd13ifvqi70","pricing_plan_id":"cebpf4jnsgd1na2vs0mg"},{"bike_id":"4eb43e4c-bae9-475c-a854-ff5ca1e267b5","system_id":"levelo_inurba_marseille","lat":43.2903,"lon":5.37575,"is_reserved":false,"is_disabled":false,"rental_uris":{"android":"levelo://app?vid=4eb43e4c-bae9-475c-a854-ff5ca1e267b5","ios":"levelo://app?vid=4eb43e4c-bae9-475c-a854-ff5ca1e267b5"},"vehicle_type_id":"4","last_reported":1729969553,"current_range_meters":24400,"station_id":"ce4bh692rcd13ifvqe90","pricing_plan_id":"cebpf4jnsgd1na2vs0mg"},{"bike_id":"b36635ec-777f-460b-8fc4-683b4e7937dc","system_id":"levelo_inurba_marseille","lat":43.23964,"lon":5.36637,"is_reserved":false,"is_disabled":false,"rental_uris":{"android":"levelo://app?vid=b36635ec-777f-460b-8fc4-683b4e7937dc","ios":"levelo://app?vid=b36635ec-777f-460b-8fc4-683b4e7937dc"},"vehicle_type_id":"4","last_reported":1729969553,"current_range_meters":20400,"station_id":"ce4bhi12rcd13ifvqfp0","pricing_plan_id":"cebpf4jnsgd1na2vs0mg"},{"bike_id":"3e1205ab-0bc6-479c-9e06-2c971082cf74","system_id":"levelo_inurba_marseille","lat":43.32059,"lon":5.41545,"is_reserved":false,"is_disabled":false,"rental_uris":{"android":"levelo://app?vid=3e1205ab-0bc6-479c-9e06-2c971082cf74","ios":"levelo://app?vid=3e1205ab-0bc6-479c-9e06-2c971082cf74"},"vehicle_type_id":"4","last_reported":1729969553,"current_range_meters":16400,"station_id":"ce4bhq92rcd13ifvqhkg","pricing_plan_id":"cebpf4jnsgd1na2vs0mg"},{"bike_id":"8a7ea3b3-7c19-4f13-a31a-07202c98e2c3","system_id":"levelo_inurba_marseille","lat":43.32486,"lon":5.36562,"is_reserved":false,"is_disabled":false,"rental_uris":{"android":"levelo://app?vid=8a7ea3b3-7c19-4f13-a31a-07202c98e2c3","ios":"levelo://app?vid=8a7ea3b3-7c19-4f13-a31a-07202c98e2c3"},"vehicle_type_id":"4","last_reported":1729969553,"current_range_meters":25200,"station_id":"ce4bhs12rcd13ifvqhvg","pricing_plan_id":"cebpf4jnsgd1na2vs0mg"},{"bike_id":"04518ea9-c53f-40a3-80da-3e58bba4a32f","system_id":"levelo_inurba_marseille","lat":43.22928,"lon":5.35376,"is_reserved":false,"is_disabled":false,"rental_uris":{"android":"levelo://app?vid=04518ea9-c53f-40a3-80da-3e58bba4a32f","ios":"levelo://app?vid=04518ea9-c53f-40a3-80da-3e58bba4a32f"},"vehicle_type_id":"4","last_reported":1729969553,"current_range_meters":30800,"station_id":"cpo3532slgdg3j2ikp40","pricing_plan_id":"cebpf4jnsgd1na2vs0mg"},{"bike_id":"3d537944-7a77-435d-8e52-b9b7b4261932","system_id":"levelo_inurba_marseille","lat":43.29622,"lon":5.37154,"is_reserved":false,"is_disabled":false,"rental_uris":{"android":"levelo://app?vid=3d537944-7a77-435d-8e52-b9b7b4261932","ios":"levelo://app?vid=3d537944-7a77-435d-8e52-b9b7b4261932"},"vehicle_type_id":"4","last_reported":1729969553,"current_range_meters":39200,"station_id":"ce4bgnh2rcd13ifvqc0g","pricing_plan_id":"cebpf4jnsgd1na2vs0mg"},{"bike_id":"d328d0f7-b32c-4f33-a39d-db6233bde0c7","system_id":"levelo_inurba_marseille","lat":43.27314,"lon":5.39097,"is_reserved":false,"is_disabled":false,"rental_uris":{"android":"levelo://app?vid=d328d0f7-b32c-4f33-a39d-db6233bde0c7","ios":"levelo://app?vid=d328d0f7-b32c-4f33-a39d-db6233bde0c7"},"vehicle_type_id":"4","last_reported":1729969553,"current_range_meters":18800,"station_id":"ce4bhgp2rcd13ifvqfe0","pricing_plan_id":"cebpf4jnsgd1na2vs0mg"},{"bike_id":"f85fbfcf-945c-45c7-91a8-0ae032705e91","system_id":"levelo_inurba_marseille","lat":43.31695,"lon":5.3775,"is_reserved":false,"is_disabled":false,"rental_uris":{"android":"levelo://app?vid=f85fbfcf-945c-45c7-91a8-0ae032705e91","ios":"levelo://app?vid=f85fbfcf-945c-45c7-91a8-0ae032705e91"},"vehicle_type_id":"4","last_reported":1729969553,"current_range_meters":6000,"station_id":"ce4bgth2rcd13ifvqch0","pricing_plan_id":"cebpf4jnsgd1na2vs0mg"},{"bike_id":"29908cde-ca37-4b88-9b19-9eae7dcf09ff","system_id":"levelo_inurba_marseille","lat":43.23146,"lon":5.43716,"is_reserved":false,"is_disabled":false,"rental_uris":{"android":"levelo://app?vid=29908cde-ca37-4b88-9b19-9eae7dcf09ff","ios":"levelo://app?vid=29908cde-ca37-4b88-9b19-9eae7dcf09ff"},"vehicle_type_id":"4","last_reported":1729969553,"current_range_meters":2800,"station_id":"ce4bhmp2rcd13ifvqgog","pricing_plan_id":"cebpf4jnsgd1na2vs0mg"},{"bike_id":"c99defe0-8efc-4702-86ff-f4db4c3ca963","system_id":"levelo_inurba_marseille","lat":43.27427,"lon":5.39418,"is_reserved":false,"is_disabled":false,"rental_uris":{"android":"levelo://app?vid=c99defe0-8efc-4702-86ff-f4db4c3ca963","ios":"levelo://app?vid=c99defe0-8efc-4702-86ff-f4db4c3ca963"},"vehicle_type_id":"4","last_reported":1729969553,"current_range_meters":28800,"station_id":"ce4bhdp2rcd13ifvqf20","pricing_plan_id":"cebpf4jnsgd1na2vs0mg"},{"bike_id":"e32a6d39-5469-470c-8ad7-a983766b2a3c","system_id":"levelo_inurba_marseille","lat":43.290328,"lon":5.386462,"is_reserved":false,"is_disabled":false,"rental_uris":{"android":"levelo://app?vid=e32a6d39-5469-470c-8ad7-a983766b2a3c","ios":"levelo://app?vid=e32a6d39-5469-470c-8ad7-a983766b2a3c"},"vehicle_type_id":"4","last_reported":1729969553,"current_range_meters":34000,"station_id":"ce4bgt12rcd13ifvqcd0","pricing_plan_id":"cebpf4jnsgd1na2vs0mg"},{"bike_id":"8988391b-f532-43f8-a65d-a15e4c3c5b54","system_id":"levelo_inurba_marseille","lat":43.29511,"lon":5.39412,"is_reserved":false,"is_disabled":false,"rental_uris":{"android":"levelo://app?vid=8988391b-f532-43f8-a65d-a15e4c3c5b54","ios":"levelo://app?vid=8988391b-f532-43f8-a65d-a15e4c3c5b54"},"vehicle_type_id":"4","last_reported":1729969553,"current_range_meters":14800,"station_id":"ce4bh292rcd13ifvqdf0","pricing_plan_id":"cebpf4jnsgd1na2vs0mg"},{"bike_id":"960c25fd-a513-4486-9205-28e40f919a67","system_id":"levelo_inurba_marseille","lat":43.28445,"lon":5.39192,"is_reserved":false,"is_disabled":false,"rental_uris":{"android":"levelo://app?vid=960c25fd-a513-4486-9205-28e40f919a67","ios":"levelo://app?vid=960c25fd-a513-4486-9205-28e40f919a67"},"vehicle_type_id":"4","last_reported":1729969553,"current_range_meters":30000,"station_id":"ce4bhoh2rcd13ifvqh5g","pricing_plan_id":"cebpf4jnsgd1na2vs0mg"},{"bike_id":"c0380dbd-32a3-4b24-b556-7e9373e2d123","system_id":"levelo_inurba_marseille","lat":43.30149,"lon":5.38089,"is_reserved":false,"is_disabled":false,"rental_uris":{"android":"levelo://app?vid=c0380dbd-32a3-4b24-b556-7e9373e2d123","ios":"levelo://app?vid=c0380dbd-32a3-4b24-b556-7e9373e2d123"},