{"last_updated":1713006320,"ttl":30,"version":"2.2","data":{"bikes":[{"bike_id":"9014127d-9fb2-4128-bd03-16451975da87","system_id":"levelo_inurba_marseille","lat":43.313391,"lon":5.36706,"is_reserved":false,"is_disabled":false,"rental_uris":{"android":"levelo://app?vid=9014127d-9fb2-4128-bd03-16451975da87","ios":"levelo://app?vid=9014127d-9fb2-4128-bd03-16451975da87"},"vehicle_type_id":"4","last_reported":1713006321,"current_range_meters":27600,"station_id":"ce4bgr92rcd13ifvqc6g","pricing_plan_id":"cebpf4jnsgd1na2vs0mg"},{"bike_id":"428e197d-1bd2-4dc3-b1f2-157b5842d953","system_id":"levelo_inurba_marseille","lat":43.309076,"lon":5.368465,"is_reserved":false,"is_disabled":false,"rental_uris":{"android":"levelo://app?vid=428e197d-1bd2-4dc3-b1f2-157b5842d953","ios":"levelo://app?vid=428e197d-1bd2-4dc3-b1f2-157b5842d953"},"vehicle_type_id":"4","last_reported":1713006321,"current_range_meters":25200,"station_id":"ce4bgn92rcd13ifvqbvg","pricing_plan_id":"cebpf4jnsgd1na2vs0mg"},{"bike_id":"bd164953-6eaf-4d7b-a4ea-1968c441cefb","system_id":"levelo_inurba_marseille","lat":43.309076,"lon":5.368465,"is_reserved":false,"is_disabled":false,"rental_uris":{"android":"levelo://app?vid=bd164953-6eaf-4d7b-a4ea-1968c441cefb","ios":"levelo://app?vid=bd164953-6eaf-4d7b-a4ea-1968c441cefb"},"vehicle_type_id":"4","last_reported":1713006321,"current_range_meters":31600,"station_id":"ce4bgn92rcd13ifvqbvg","pricing_plan_id":"cebpf4jnsgd1na2vs0mg"},{"bike_id":"a1bbb6df-c774-4cc3-b857-f38b34319a6b","system_id":"levelo_inurba_marseille","lat":43.314811,"lon":5.373103,"is_reserved":false,"is_disabled":false,"rental_uris":{"android":"levelo://app?vid=a1bbb6df-c774-4cc3-b857-f38b34319a6b","ios":"levelo://app?vid=a1bbb6df-c774-4cc3-b857-f38b34319a6b"},"vehicle_type_id":"4","last_reported":1713006321,"current_range_meters":26000,"station_id":"ce4bgt12rcd13ifvqcd0","pricing_plan_id":"cebpf4jnsgd1na2vs0mg"},{"bike_id":"fc46b45f-37cd-404b-a327-e9942a93164d","system_id":"levelo_inurba_marseille","lat":43.314811,"lon":5.373103,"is_reserved":false,"is_disabled":false,"rental_uris":{"android":"levelo://app?vid=fc46b45f-37cd-404b-a327-e9942a93164d","ios":"levelo://app?vid=fc46b45f-37cd-404b-a327-e9942a93164d"},"vehicle_type_id":"4","last_reported":1713006321,"current_range_meters":3600,"station_id":"ce4bgt12rcd13ifvqcd0","pricing_plan_id":"cebpf4jnsgd1na2vs0mg"},{"bike_id":"eac8cf2c-20a2-45c5-a71a-43d6986f3adc","system_id":"levelo_inurba_marseille","lat":43.314811,"lon":5.373103,"is_reserved":false,"is_disabled":false,"rental_uris":{"android":"levelo://app?vid=eac8cf2c-20a2-45c5-a71a-43d6986f3adc","ios":"levelo://app?vid=eac8cf2c-20a2-45c5-a71a-43d6986f3adc"},"vehicle_type_id":"4","last_reported":1713006321,"current_range_meters":23200,"station_id":"ce4bgt12rcd13ifvqcd0","pricing_plan_id":"cebpf4jnsgd1na2vs0mg"},{"bike_id":"91e019c9-5d9a-4dd9-ba99-e596e43b140c","system_id":"levelo_inurba_marseille","lat":43.314811,"lon":5.373103,"is_reserved":false,"is_disabled":false,"rental_uris":{"android":"levelo://app?vid=91e019c9-5d9a-4dd9-ba99-e596e43b140c","ios":"levelo://app?vid=91e019c9-5d9a-4dd9-ba99-e596e43b140c"},"vehicle_type_id":"4","last_reported":1713006321,"current_range_meters":22800,"station_id":"ce4bgt12rcd13ifvqcd0","pricing_plan_id":"cebpf4jnsgd1na2vs0mg"},{"bike_id":"cc0c50fa-2703-4e99-8bf5-f6eabaef6c5b","system_id":"levelo_inurba_marseille","lat":43.314811,"lon":5.373103,"is_reserved":false,"is_disabled":false,"rental_uris":{"android":"levelo://app?vid=cc0c50fa-2703-4e99-8bf5-f6eabaef6c5b","ios":"levelo://app?vid=cc0c50fa-2703-4e99-8bf5-f6eabaef6c5b"},"vehicle_type_id":"4","last_reported":1713006321,"current_range_meters":18400,"station_id":"ce4bgt12rcd13ifvqcd0","pricing_plan_id":"cebpf4jnsgd1na2vs0mg"},{"bike_id":"5116f921-1951-43ac-92bf-d778a8ae3f4f","system_id":"levelo_inurba_marseille","lat":43.314811,"lon":5.373103,"is_reserved":false,"is_disabled":false,"rental_uris":{"android":"levelo://app?vid=5116f921-1951-43ac-92bf-d778a8ae3f4f","ios":"levelo://app?vid=5116f921-1951-43ac-92bf-d778a8ae3f4f"},"vehicle_type_id":"4","last_reported":1713006321,"current_range_meters":22400,"station_id":"ce4bgt12rcd13ifvqcd0","pricing_plan_id":"cebpf4jnsgd1na2vs0mg"},{"bike_id":"6e48bde9-7012-4d3b-8d2d-06cba378f414","system_id":"levelo_inurba_marseille","lat":43.309034,"lon":5.371783,"is_reserved":false,"is_disabled":false,"rental_uris":{"android":"levelo://app?vid=6e48bde9-7012-4d3b-8d2d-06cba378f414","ios":"levelo://app?vid=6e48bde9-7012-4d3b-8d2d-06cba378f414"},"vehicle_type_id":"4","last_reported":1713006321,"current_range_meters":6800,"station_id":"ce4bguh2rcd13ifvqckg","pricing_plan_id":"cebpf4jnsgd1na2vs0mg"},{"bike_id":"78520feb-8765-4dc8-9137-327f237169ba","system_id":"levelo_inurba_marseille","lat":43.309034,"lon":5.371783,"is_reserved":false,"is_disabled":false,"rental_uris":{"android":"levelo://app?vid=78520feb-8765-4dc8-9137-327f237169ba","ios":"levelo://app?vid=78520feb-8765-4dc8-9137-327f237169ba"},"vehicle_type_id":"4","last_reported":1713006321,"current_range_meters":28800,"station_id":"ce4bguh2rcd13ifvqckg","pricing_plan_id":"cebpf4jnsgd1na2vs0mg"},{"bike_id":"a96b7e65-11ad-4a9e-a9fb-e7c90f25523f","system_id":"levelo_inurba_marseille","lat":43.30537,"lon":5.367345,"is_reserved":false,"is_disabled":false,"rental_uris":{"android":"levelo://app?vid=a96b7e65-11ad-4a9e-a9fb-e7c90f25523f","ios":"levelo://app?vid=a96b7e65-11ad-4a9e-a9fb-e7c90f25523f"},"vehicle_type_id":"4","last_reported":1713006321,"current_range_meters":18400,"station_id":"ce4bgrp2rcd13ifvqc9g","pricing_plan_id":"cebpf4jnsgd1na2vs0mg"},{"bike_id":"041c6048-40b3-49c5-aacf-c458cc212c82","system_id":"levelo_inurba_marseille","lat":43.30537,"lon":5.367345,"is_reserved":false,"is_disabled":false,"rental_uris":{"android":"levelo://app?vid=041c6048-40b3-49c5-aacf-c458cc212c82","ios":"levelo://app?vid=041c6048-40b3-49c5-aacf-c458cc212c82"},"vehicle_type_id":"4","last_reported":1713006321,"current_range_meters":20400,"station_id":"ce4bgrp2rcd13ifvqc9g","pricing_plan_id":"cebpf4jnsgd1na2vs0mg"},{"bike_id":"3c2692e8-cbd8-41f9-837a-3725c9cb13e9","system_id":"levelo_inurba_marseille","lat":43.305712,"lon":5.365641,"is_reserved":false,"is_disabled":false,"rental_uris":{"android":"levelo://app?vid=3c2692e8-cbd8-41f9-837a-3725c9cb13e9","ios":"levelo://app?vid=3c2692e8-cbd8-41f9-837a-3725c9cb13e9"},"vehicle_type_id":"4","last_reported":1713006321,"current_range_meters":19200,"station_id":"ce4bgs12rcd13ifvqcag","pricing_plan_id":"cebpf4jnsgd1na2vs0mg"},{"bike_id":"3657fa16-ade2-4a6a-864b-344c7c8af092","system_id":"levelo_inurba_marseille","lat":43.305368,"lon":5.367343,"is_reserved":false,"is_disabled":false,"rental_uris":{"android":"levelo://app?vid=3657fa16-ade2-4a6a-864b-344c7c8af092","ios":"levelo://app?vid=3657fa16-ade2-4a6a-864b-344c7c8af092"},"vehicle_type_id":"4","last_reported":1713006321,"current_range_meters":23200,"station_id":"ce4bgrp2rcd13ifvqc9g","pricing_plan_id":"cebpf4jnsgd1na2vs0mg"},{"bike_id":"4fa1c776-15c9-42b9-a73f-19cc98621ff8","system_id":"levelo_inurba_marseille","lat":43.305368,"lon":5.367343,"is_reserved":false,"is_disabled":false,"rental_uris":{"android":"levelo://app?vid=4fa1c776-15c9-42b9-a73f-19cc98621ff8","ios":"levelo://app?vid=4fa1c776-15c9-42b9-a73f-19cc98621ff8"},"vehicle_type_id":"4","last_reported":1713006321,"current_range_meters":17600,"station_id":"ce4bgrp2rcd13ifvqc9g","pricing_plan_id":"cebpf4jnsgd1na2vs0mg"},{"bike_id":"33885086-20b3-427f-8e36-bd0dbbffed94","system_id":"levelo_inurba_marseille","lat":43.30537,"lon":5.367345,"is_reserved":false,"is_disabled":false,"rental_uris":{"android":"levelo://app?vid=33885086-20b3-427f-8e36-bd0dbbffed94","ios":"levelo://app?vid=33885086-20b3-427f-8e36-bd0dbbffed94"},"vehicle_type_id":"4","last_reported":1713006321,"current_range_meters":23200,"station_id":"ce4bgrp2rcd13ifvqc9g","pricing_plan_id":"cebpf4jnsgd1na2vs0mg"},{"bike_id":"bf44524d-8e36-4b4c-b116-c658b9a166fb","system_id":"levelo_inurba_marseille","lat":43.305714,"lon":5.365633,"is_reserved":false,"is_disabled":false,"rental_uris":{"android":"levelo://app?vid=bf44524d-8e36-4b4c-b116-c658b9a166fb","ios":"levelo://app?vid=bf44524d-8e36-4b4c-b116-c658b9a166fb"},"vehicle_type_id":"4","last_reported":1713006321,"current_range_meters":30000,"station_id":"ce4bgs12rcd13ifvqcag","pricing_plan_id":"cebpf4jnsgd1na2vs0mg"},{"bike_id":"835f99de-6d9d-4bd3-94bd-aa74699bc477","system_id":"levelo_inurba_marseille","lat":43.305714,"lon":5.365633,"is_reserved":false,"is_disabled":false,"rental_uris":{"android":"levelo://app?vid=835f99de-6d9d-4bd3-94bd-aa74699bc477","ios":"levelo://app?vid=835f99de-6d9d-4bd3-94bd-aa74699bc477"},"vehicle_type_id":"4","last_reported":1713006321,"current_range_meters":20800,"station_id":"ce4bgs12rcd13ifvqcag","pricing_plan_id":"cebpf4jnsgd1na2vs0mg"},{"bike_id":"f8f5cf45-f72a-4d6e-8f69-41ee817660a6","system_id":"levelo_inurba_marseille","lat":43.305368,"lon":5.367343,"is_reserved":false,"is_disabled":false,"rental_uris":{"android":"levelo://app?vid=f8f5cf45-f72a-4d6e-8f69-41ee817660a6","ios":"levelo://app?vid=f8f5cf45-f72a-4d6e-8f69-41ee817660a6"},"vehicle_type_id":"4","last_reported":1713006321,"current_range_meters":32000,"station_id":"ce4bgrp2rcd13ifvqc9g","pricing_plan_id":"cebpf4jnsgd1na2vs0mg"},{"bike_id":"dbebeb24-0107-4322-8e2e-6af481e613ea","system_id":"levelo_inurba_marseille","lat":43.305368,"lon":5.367343,"is_reserved":false,"is_disabled":false,"rental_uris":{"android":"levelo://app?vid=dbebeb24-0107-4322-8e2e-6af481e613ea","ios":"levelo://app?vid=dbebeb24-0107-4322-8e2e-6af481e613ea"},"vehicle_type_id":"4","last_reported":1713006321,"current_range_meters":8400,"station_id":"ce4bgrp2rcd13ifvqc9g","pricing_plan_id":"cebpf4jnsgd1na2vs0mg"},{"bike_id":"e81247a0-3d3b-4aac-8bb6-05c945df1d8a","system_id":"levelo_inurba_marseille","lat":43.305712,"lon":5.365641,"is_reserved":false,"is_disabled":false,"rental_uris":{"android":"levelo://app?vid=e81247a0-3d3b-4aac-8bb6-05c945df1d8a","ios":"levelo://app?vid=e81247a0-3d3b-4aac-8bb6-05c945df1d8a"},"vehicle_type_id":"4","last_reported":1713006321,"current_range_meters":400,"station_id":"ce4bgs12rcd13ifvqcag","pricing_plan_id":"cebpf4jnsgd1na2vs0mg"},{"bike_id":"42ea0c21-7062-4ca8-886c-5d7447e5990d","system_id":"levelo_inurba_marseille","lat":43.305714,"lon":5.365633,"is_reserved":false,"is_disabled":false,"rental_uris":{"android":"levelo://app?vid=42ea0c21-7062-4ca8-886c-5d7447e5990d","ios":"levelo://app?vid=42ea0c21-7062-4ca8-886c-5d7447e5990d"},"vehicle_type_id":"4","last_reported":1713006321,"current_range_meters":28000,"station_id":"ce4bgs12rcd13ifvqcag","pricing_plan_id":"cebpf4jnsgd1na2vs0mg"},{"bike_id":"942be061-7fa9-48d7-aae1-d3e1f883f954","system_id":"levelo_inurba_marseille","lat":43.30539,"lon":5.3654,"is_reserved":false,"is_disabled":false,"rental_uris":{"android":"levelo://app?vid=942be061-7fa9-48d7-aae1-d3e1f883f954","ios":"levelo://app?vid=942be061-7fa9-48d7-aae1-d3e1f883f954"},"vehicle_type_id":"4","last_reported":1713006321,"current_range_meters":23200,"station_id":"ce4bgs12rcd13ifvqcag","pricing_plan_id":"cebpf4jnsgd1na2vs0mg"},{"bike_id":"c790a179-c732-4107-afb9-03fb1007e24a","system_id":"levelo_inurba_marseille","lat":43.30535,"lon":5.36534,"is_reserved":false,"is_disabled":false,"rental_uris":{"android":"levelo://app?vid=c790a179-c732-4107-afb9-03fb1007e24a","ios":"levelo://app?vid=c790a179-c732-4107-afb9-03fb1007e24a"},"vehicle_type_id":"4","last_reported":1713006321,"current_range_meters":10400,"station_id":"ce4bgs12rcd13ifvqcag","pricing_plan_id":"cebpf4jnsgd1na2vs0mg"},{"bike_id":"6413cfd8-eb2a-4d9f-97af-45b9c109e887","system_id":"levelo_inurba_marseille","lat":43.305714,"lon":5.365633,"is_reserved":false,"is_disabled":false,"rental_uris":{"android":"levelo://app?vid=6413cfd8-eb2a-4d9f-97af-45b9c109e887","ios":"levelo://app?vid=6413cfd8-eb2a-4d9f-97af-45b9c109e887"},"vehicle_type_id":"4","last_reported":1713006321,"current_range_meters":31600,"station_id":"ce4bgs12rcd13ifvqcag","pricing_plan_id":"cebpf4jnsgd1na2vs0mg"},{"bike_id":"cbd29b39-8278-4d38-8fec-453375b354ab","system_id":"levelo_inurba_marseille","lat":43.305706,"lon":5.365654,"is_reserved":false,"is_disabled":false,"rental_uris":{"android":"levelo://app?vid=cbd29b39-8278-4d38-8fec-453375b354ab","ios":"levelo://app?vid=cbd29b39-8278-4d38-8fec-453375b354ab"},"vehicle_type_id":"4","last_reported":1713006321,"current_range_meters":31200,"station_id":"ce4bgs12rcd13ifvqcag","pricing_plan_id":"cebpf4jnsgd1na2vs0mg"},{"bike_id":"3d0cade6-4130-4c4d-bce3-6018b6fb0d7d","system_id":"levelo_inurba_marseille","lat":43.305706,"lon":5.365654,"is_reserved":false,"is_disabled":false,"rental_uris":{"android":"levelo://app?vid=3d0cade6-4130-4c4d-bce3-6018b6fb0d7d","ios":"levelo://app?vid=3d0cade6-4130-4c4d-bce3-6018b6fb0d7d"},"vehicle_type_id":"4","last_reported":1713006321,"current_range_meters":20800,"station_id":"ce4bgs12rcd13ifvqcag","pricing_plan_id":"cebpf4jnsgd1na2vs0mg"},{"bike_id":"624ad146-15a5-4e0a-823b-88ece5a96f29","system_id":"levelo_inurba_marseille","lat":43.303046,"lon":5.368981,"is_reserved":false,"is_disabled":false,"rental_uris":{"android":"levelo://app?vid=624ad146-15a5-4e0a-823b-88ece5a96f29","ios":"levelo://app?vid=624ad146-15a5-4e0a-823b-88ece5a96f29"},"vehicle_type_id":"4","last_reported":1713006321,"current_range_meters":17200,"station_id":"ce4bgqh2rcd13ifvqc5g","pricing_plan_id":"cebpf4jnsgd1na2vs0mg"},{"bike_id":"c449180b-b6e3-4c69-bcd6-31ac5712229e","system_id":"levelo_inurba_marseille","lat":43.305989,"lon":5.37225,"is_reserved":false,"is_disabled":false,"rental_uris":{"android":"levelo://app?vid=c449180b-b6e3-4c69-bcd6-31ac5712229e","ios":"levelo://app?vid=c449180b-b6e3-4c69-bcd6-31ac5712229e"},"vehicle_type_id":"4","last_reported":1713006321,"current_range_meters":1600,"station_id":"ce4bgqh2rcd13ifvqc4g","pricing_plan_id":"cebpf4jnsgd1na2vs0mg"},{"bike_id":"c1ca9525-d02e-421f-923d-d00df0dcf186","system_id":"levelo_inurba_marseille","lat":43.311221,"lon":5.377678,"is_reserved":false,"is_disabled":false,"rental_uris":{"android":"levelo://app?vid=c1ca9525-d02e-421f-923d-d00df0dcf186","ios":"levelo://app?vid=c1ca9525-d02e-421f-923d-d00df0dcf186"},"vehicle_type_id":"4","last_reported":1713006321,"current_range_meters":17600,"station_id":"ce4bgt92rcd13ifvqcg0","pricing_plan_id":"cebpf4jnsgd1na2vs0mg"},{"bike_id":"a6685f81-c6c5-44b5-b49b-bda370fee5b7","system_id":"levelo_inurba_marseille","lat":43.30785,"lon":5.37639,"is_reserved":false,"is_disabled":false,"rental_uris":{"android":"levelo://app?vid=a6685f81-c6c5-44b5-b49b-bda370fee5b7","ios":"levelo://app?vid=a6685f81-c6c5-44b5-b49b-bda370fee5b7"},"vehicle_type_id":"4","last_reported":1713006321,"current_range_meters":4400,"station_id":"ce4bgv92rcd13ifvqcq0","pricing_plan_id":"cebpf4jnsgd1na2vs0mg"},{"bike_id":"d4d0f110-d49f-4fce-a16a-d6ffc53b7685","system_id":"levelo_inurba_marseille","lat":43.317075,"lon":5.377367,"is_reserved":false,"is_disabled":false,"rental_uris":{"android":"levelo://app?vid=d4d0f110-d49f-4fce-a16a-d6ffc53b7685","ios":"levelo://app?vid=d4d0f110-d49f-4fce-a16a-d6ffc53b7685"},"vehicle_type_id":"4","last_reported":1713006321,"current_range_meters":22400,"station_id":"ce4bgth2rcd13ifvqch0","pricing_plan_id":"cebpf4jnsgd1na2vs0mg"},{"bike_id":"daf0894c-9061-43f7-92be-3a87fd8b0350","system_id":"levelo_inurba_marseille","lat":43.303046,"lon":5.368981,"is_reserved":false,"is_disabled":false,"rental_uris":{"android":"levelo://app?vid=daf0894c-9061-43f7-92be-3a87fd8b0350","ios":"levelo://app?vid=daf0894c-9061-43f7-92be-3a87fd8b0350"},"vehicle_type_id":"4","last_reported":1713006321,"current_range_meters":14800,"station_id":"ce4bgqh2rcd13ifvqc5g","pricing_plan_id":"cebpf4jnsgd1na2vs0mg"},{"bike_id":"9486c488-c485-44d2-9dfd-20716db2790b","system_id":"levelo_inurba_marseille","lat":43.303046,"lon":5.368981,"is_reserved":false,"is_disabled":false,"rental_uris":{"android":"levelo://app?vid=9486c488-c485-44d2-9dfd-20716db2790b","ios":"levelo://app?vid=9486c488-c485-44d2-9dfd-20716db2790b"},"vehicle_type_id":"4","last_reported":1713006321,"current_range_meters":4000,"station_id":"ce4bgqh2rcd13ifvqc5g","pricing_plan_id":"cebpf4jnsgd1na2vs0mg"},{"bike_id":"c973c696-6cf3-4ef6-9922-20142626237f","system_id":"levelo_inurba_marseille","lat":43.30282,"lon":5.37259,"is_reserved":false,"is_disabled":false,"rental_uris":{"android":"levelo://app?vid=c973c696-6cf3-4ef6-9922-20142626237f","ios":"levelo://app?vid=c973c696-6cf3-4ef6-9922-20142626237f"},"vehicle_type_id":"4","last_reported":1713006321,"current_range_meters":15600,"station_id":"","pricing_plan_id":"cebpf4jnsgd1na2vs0mg"},{"bike_id":"6928296a-2eaa-44b8-bd51-89dbd66be23f","system_id":"levelo_inurba_marseille","lat":43.301989,"lon":5.366459,"is_reserved":false,"is_disabled":false,"rental_uris":{"android":"levelo://app?vid=6928296a-2eaa-44b8-bd51-89dbd66be23f","ios":"levelo://app?vid=6928296a-2eaa-44b8-bd51-89dbd66be23f"},"vehicle_type_id":"4","last_reported":1713006321,"current_range_meters":15200,"station_id":"ce4bgrh2rcd13ifvqc8g","pricing_plan_id":"cebpf4jnsgd1na2vs0mg"},{"bike_id":"be7de7db-5137-4faa-bb51-57c7bc5f54a0","system_id":"levelo_inurba_marseille","lat":43.301959,"lon":5.366057,"is_reserved":false,"is_disabled":false,"rental_uris":{"android":"levelo://app?vid=be7de7db-5137-4faa-bb51-57c7bc5f54a0","ios":"levelo://app?vid=be7de7db-5137-4faa-bb51-57c7bc5f54a0"},"vehicle_type_id":"4","last_reported":1713006321,"current_range_meters":5600,"station_id":"ce4bgrh2rcd13ifvqc8g","pricing_plan_id":"cebpf4jnsgd1na2vs0mg"},{"bike_id":"9da3edee-80d1-4894-a219-7cd956af5984","system_id":"levelo_inurba_marseille","lat":43.30192,"lon":5.36603,"is_reserved":false,"is_disabled":false,"rental_uris":{"android":"levelo://app?vid=9da3edee-80d1-4894-a219-7cd956af5984","ios":"levelo://app?vid=9da3edee-80d1-4894-a219-7cd956af5984"},"vehicle_type_id":"4","last_reported":1713006321,"current_range_meters":2000,"station_id":"ce4bgrh2rcd13ifvqc8g","pricing_plan_id":"cebpf4jnsgd1na2vs0mg"},{"bike_id":"6f392b72-a615-4d51-966b-bb522edf74f6","system_id":"levelo_inurba_marseille","lat":43.301939,"lon":5.366286,"is_reserved":false,"is_disabled":false,"rental_uris":{"android":"levelo://app?vid=6f392b72-a615-4d51-966b-bb522edf74f6","ios":"levelo://app?vid=6f392b72-a615-4d51-966b-bb522edf74f6"},"vehicle_type_id":"4","last_reported":1713006321,"current_range_meters":26800,"station_id":"ce4bgrh2rcd13ifvqc8g","pricing_plan_id":"cebpf4jnsgd1na2vs0mg"},{"bike_id":"75a0a93c-2298-491c-8970-4a207e335576","system_id":"levelo_inurba_marseille","lat":43.301939,"lon":5.366286,"is_reserved":false,"is_disabled":false,"rental_uris":{"android":"levelo://app?vid=75a0a93c-2298-491c-8970-4a207e335576","ios":"levelo://app?vid=75a0a93c-2298-491c-8970-4a207e335576"},"vehicle_type_id":"4","last_reported":1713006321,"current_range_meters":24400,"station_id":"ce4bgrh2rcd13ifvqc8g","pricing_plan_id":"cebpf4jnsgd1na2vs0mg"},{"bike_id":"df4e639c-9c9c-4af9-a155-04c8772bdaf4","system_id":"levelo_inurba_marseille","lat":43.30465,"lon":5.37894,"is_reserved":false,"is_disabled":false,"rental_uris":{"android":"levelo://app?vid=df4e639c-9c9c-4af9-a155-04c8772bdaf4","ios":"levelo://app?vid=df4e639c-9c9c-4af9-a155-04c8772bdaf4"},"vehicle_type_id":"4","last_reported":1713006321,"current_range_meters":28800,"station_id":"ce4bgup2rcd13ifvqcn0","pricing_plan_id":"cebpf4jnsgd1na2vs0mg"},{"bike_id":"7ba549b5-538a-4f42-971e-ed1227937ce9","system_id":"levelo_inurba_marseille","lat":43.305712,"lon":5.365641,"is_reserved":false,"is_disabled":false,"rental_uris":{"android":"levelo://app?vid=7ba549b5-538a-4f42-971e-ed1227937ce9","ios":"levelo://app?vid=7ba549b5-538a-4f42-971e-ed1227937ce9"},"vehicle_type_id":"4","last_reported":1713006321,"current_range_meters":10400,"station_id":"ce4bgs12rcd13ifvqcag","pricing_plan_id":"cebpf4jnsgd1na2vs0mg"},{"bike_id":"c5a4e3e9-2cca-4b63-99b3-5246fa285fcb","system_id":"levelo_inurba_marseille","lat":43.324771,"lon":5.36557,"is_reserved":false,"is_disabled":false,"rental_uris":{"android":"levelo://app?vid=c5a4e3e9-2cca-4b63-99b3-5246fa285fcb","ios":"levelo://app?vid=c5a4e3e9-2cca-4b63-99b3-5246fa285fcb"},"vehicle_type_id":"4","last_reported":1713006321,"current_range_meters":8800,"station_id":"ce4bhs12rcd13ifvqhvg","pricing_plan_id":"cebpf4jnsgd1na2vs0mg"},{"bike_id":"aaef1d7d-f60a-4385-a432-8ff93bd10500","system_id":"levelo_inurba_marseille","lat":43.324771,"lon":5.36557,"is_reserved":false,"is_disabled":false,"rental_uris":{"android":"levelo://app?vid=aaef1d7d-f60a-4385-a432-8ff93bd10500","ios":"levelo://app?vid=aaef1d7d-f60a-4385-a432-8ff93bd10500"},"vehicle_type_id":"4","last_reported":1713006321,"current_range_meters":14800,"station_id":"ce4bhs12rcd13ifvqhvg","pricing_plan_id":"cebpf4jnsgd1na2vs0mg"},{"bike_id":"202a9b96-5a4b-4cb8-b6ff-747a9ee90db5","system_id":"levelo_inurba_marseille","lat":43.324771,"lon":5.36557,"is_reserved":false,"is_disabled":false,"rental_uris":{"android":"levelo://app?vid=202a9b96-5a4b-4cb8-b6ff-747a9ee90db5","ios":"levelo://app?vid=202a9b96-5a4b-4cb8-b6ff-747a9ee90db5"},"vehicle_type_id":"4","last_reported":1713006321,"current_range_meters":27600,"station_id":"ce4bhs12rcd13ifvqhvg","pricing_plan_id":"cebpf4jnsgd1na2vs0mg"},{"bike_id":"02e4c1c7-4904-4133-88ad-cd32d9a77485","system_id":"levelo_inurba_marseille","lat":43.296263,"lon":5.377094,"is_reserved":false,"is_disabled":false,"rental_uris":{"android":"levelo://app?vid=02e4c1c7-4904-4133-88ad-cd32d9a77485","ios":"levelo://app?vid=02e4c1c7-4904-4133-88ad-cd32d9a77485"},"vehicle_type_id":"4","last_reported":1713006321,"current_range_meters":16400,"station_id":"ce4bgi92rcd13ifvqb90","pricing_plan_id":"cebpf4jnsgd1na2vs0mg"},{"bike_id":"6bd30c09-c007-4c03-a14e-53bb25dc6171","system_id":"levelo_inurba_marseille","lat":43.324771,"lon":5.36557,"is_reserved":false,"is_disabled":false,"rental_uris":{"android":"levelo://app?vid=6bd30c09-c007-4c03-a14e-53bb25dc6171","ios":"levelo://app?vid=6bd30c09-c007-4c03-a14e-53bb25dc6171"},"vehicle_type_id":"4","last_reported":1713006321,"current_range_meters":26000,"station_id":"ce4bhs12rcd13ifvqhvg","pricing_plan_id":"cebpf4jnsgd1na2vs0mg"},{"bike_id":"bc6cc588-e5bf-4915-9975-685403001528","system_id":"levelo_inurba_marseille","lat":43.324771,"lon":5.36557,"is_reserved":false,"is_disabled":false,"rental_uris":{"android":"levelo://app?vid=bc6cc588-e5bf-4915-9975-685403001528","ios":"levelo://app?vid=bc6cc588-e5bf-4915-9975-685403001528"},"vehicle_type_id":"4","last_reported":1713006321,"current_range_meters":18400,"station_id":"ce4bhs12rcd13ifvqhvg","pricing_plan_id":"cebpf4jnsgd1na2vs0mg"},{"bike_id":"5eec5bb5-301e-4c9c-8319-f9768b7bfa9c","system_id":"levelo_inurba_marseille","lat":43.310804,"lon":5.38359,"is_reserved":false,"is_disabled":false,"rental_uris":{"android":"levelo://app?vid=5eec5bb5-301e-4c9c-8319-f9768b7bfa9c","ios":"levelo://app?vid=5eec5bb5-301e-4c9c-8319-f9768b7bfa9c"},"vehicle_type_id":"4","last_reported":1713006321,"current_range_meters":6800,"station_id":"ce4bgv92rcd13ifvqcr0","pricing_plan_id":"cebpf4jnsgd1na2vs0mg"},{"bike_id":"c57f9149-3887-495a-abc0-dd83895953de","system_id":"levelo_inurba_marseille","lat":43.30143,"lon":5.37413,"is_reserved":false,"is_disabled":false,"rental_uris":{"android":"levelo://app?vid=c57f9149-3887-495a-abc0-dd83895953de","ios":"levelo://app?vid=c57f9149-3887-495a-abc0-dd83895953de"},"vehicle_type_id":"4","last_reported":1713006321,"current_range_meters":20000,"station_id":"ce4bgs92rcd13ifvqcc0","pricing_plan_id":"cebpf4jnsgd1na2vs0mg"},{"bike_id":"169f3843-23ec-444b-996e-21a07f8b4e1d","system_id":"levelo_inurba_marseille","lat":43.301429,"lon":5.37413,"is_reserved":false,"is_disabled":false,"rental_uris":{"android":"levelo://app?vid=169f3843-23ec-444b-996e-21a07f8b4e1d","ios":"levelo://app?vid=169f3843-23ec-444b-996e-21a07f8b4e1d"},"vehicle_type_id":"4","last_reported":1713006321,"current_range_meters":10800,"station_id":"ce4bgs92rcd13ifvqcc0","pricing_plan_id":"cebpf4jnsgd1na2vs0mg"},{"bike_id":"50624844-3c39-479b-8b6c-4c069556b1e3","system_id":"levelo_inurba_marseille","lat":43.319935,"lon":5.381699,"is_reserved":false,"is_disabled":false,"rental_uris":{"android":"levelo://app?vid=50624844-3c39-479b-8b6c-4c069556b1e3","ios":"levelo://app?vid=50624844-3c39-479b-8b6c-4c069556b1e3"},"vehicle_type_id":"4","last_reported":1713006321,"current_range_meters":1200,"station_id":"ce4bhr12rcd13ifvqhpg","pricing_plan_id":"cebpf4jnsgd1na2vs0mg"},{"bike_id":"53e1f5f6-61b5-4997-acf9-a1168c90623f","system_id":"levelo_inurba_marseille","lat":43.319935,"lon":5.381699,"is_reserved":false,"is_disabled":false,"rental_uris":{"android":"levelo://app?vid=53e1f5f6-61b5-4997-acf9-a1168c90623f","ios":"levelo://app?vid=53e1f5f6-61b5-4997-acf9-a1168c90623f"},"vehicle_type_id":"4","last_reported":1713006321,"current_range_meters":16800,"station_id":"ce4bhr12rcd13ifvqhpg","pricing_plan_id":"cebpf4jnsgd1na2vs0mg"},{"bike_id":"16c3e297-fa09-4139-a88d-4ae44abb0ac7","system_id":"levelo_inurba_marseille","lat":43.319935,"lon":5.381699,"is_reserved":false,"is_disabled":false,"rental_uris":{"android":"levelo://app?vid=16c3e297-fa09-4139-a88d-4ae44abb0ac7","ios":"levelo://app?vid=16c3e297-fa09-4139-a88d-4ae44abb0ac7"},"vehicle_type_id":"4","last_reported":1713006321,"current_range_meters":1200,"station_id":"ce4bhr12rcd13ifvqhpg","pricing_plan_id":"cebpf4jnsgd1na2vs0mg"},{"bike_id":"62a9f40f-375f-4bbf-a052-d021e72cb8f9","system_id":"levelo_inurba_marseille","lat":43.313571,"lon":5.384829,"is_reserved":false,"is_disabled":false,"rental_uris":{"android":"levelo://app?vid=62a9f40f-375f-4bbf-a052-d021e72cb8f9","ios":"levelo://app?vid=62a9f40f-375f-4bbf-a052-d021e72cb8f9"},"vehicle_type_id":"4","last_reported":1713006321,"current_range_meters":30000,"station_id":"ce4bgt92rcd13ifvqcf0","pricing_plan_id":"cebpf4jnsgd1na2vs0mg"},{"bike_id":"db73fd74-4fd1-45e4-bb92-2db641476d01","system_id":"levelo_inurba_marseille","lat":43.299724,"lon":5.371829,"is_reserved":false,"is_disabled":false,"rental_uris":{"android":"levelo://app?vid=db73fd74-4fd1-45e4-bb92-2db641476d01","ios":"levelo://app?vid=db73fd74-4fd1-45e4-bb92-2db641476d01"},"vehicle_type_id":"4","last_reported":1713006321,"current_range_meters":16000,"station_id":"ce4bgr92rcd13ifvqc7g","pricing_plan_id":"cebpf4jnsgd1na2vs0mg"},{"bike_id":"461898e6-361e-473a-a55c-60cba6b610c8","system_id":"levelo_inurba_marseille","lat":43.299724,"lon":5.371829,"is_reserved":false,"is_disabled":false,"rental_uris":{"android":"levelo://app?vid=461898e6-361e-473a-a55c-60cba6b610c8","ios":"levelo://app?vid=461898e6-361e-473a-a55c-60cba6b610c8"},"vehicle_type_id":"4","last_reported":1713006321,"current_range_meters":25600,"station_id":"ce4bgr92rcd13ifvqc7g","pricing_plan_id":"cebpf4jnsgd1na2vs0mg"},{"bike_id":"869e3910-ab9e-4732-883b-1574c92eeccf","system_id":"levelo_inurba_marseille","lat":43.29967,"lon":5.371723,"is_reserved":false,"is_disabled":false,"rental_uris":{"android":"levelo://app?vid=869e3910-ab9e-4732-883b-1574c92eeccf","ios":"levelo://app?vid=869e3910-ab9e-4732-883b-1574c92eeccf"},"vehicle_type_id":"4","last_reported":1713006321,"current_range_meters":8000,"station_id":"ce4bhbh2rcd13ifvqepg","pricing_plan_id":"cebpf4jnsgd1na2vs0mg"},{"bike_id":"fcd99758-b44b-4ddd-b284-bbd8d999b08a","system_id":"levelo_inurba_marseille","lat":43.2985,"lon":5.36287,"is_reserved":false,"is_disabled":false,"rental_uris":{"android":"levelo://app?vid=fcd99758-b44b-4ddd-b284-bbd8d999b08a","ios":"levelo://app?vid=fcd99758-b44b-4ddd-b284-bbd8d999b08a"},"vehicle_type_id":"4","last_reported":1713006321,"current_range_meters":26000,"station_id":"ce4bgpp2rcd13ifvqc3g","pricing_plan_id":"cebpf4jnsgd1na2vs0mg"},{"bike_id":"27374583-3ab7-4bc2-84c6-0ca924d9e96a","system_id":"levelo_inurba_marseille","lat":43.2985,"lon":5.36283,"is_reserved":false,"is_disabled":false,"rental_uris":{"android":"levelo://app?vid=27374583-3ab7-4bc2-84c6-0ca924d9e96a","ios":"levelo://app?vid=27374583-3ab7-4bc2-84c6-0ca924d9e96a"},"vehicle_type_id":"4","last_reported":1713006321,"current_range_meters":9200,"station_id":"ce4bgpp2rcd13ifvqc3g","pricing_plan_id":"cebpf4jnsgd1na2vs0mg"},{"bike_id":"7e31f298-48d7-442c-a575-6af69f6ffabe","system_id":"levelo_inurba_marseille","lat":43.29848,"lon":5.36283,"is_reserved":false,"is_disabled":false,"rental_uris":{"android":"levelo://app?vid=7e31f298-48d7-442c-a575-6af69f6ffabe","ios":"levelo://app?vid=7e31f298-48d7-442c-a575-6af69f6ffabe"},"vehicle_type_id":"4","last_reported":1713006321,"current_range_meters":31200,"station_id":"ce4bgpp2rcd13ifvqc3g","pricing_plan_id":"cebpf4jnsgd1na2vs0mg"},{"bike_id":"615e9c63-793d-4476-b607-ce449819fffa","system_id":"levelo_inurba_marseille","lat":43.298433,"lon":5.362774,"is_reserved":false,"is_disabled":false,"rental_uris":{"android":"levelo://app?vid=615e9c63-793d-4476-b607-ce449819fffa","ios":"levelo://app?vid=615e9c63-793d-4476-b607-ce449819fffa"},"vehicle_type_id":"4","last_reported":1713006321,"current_range_meters":1200,"station_id":"ce4bgpp2rcd13ifvqc3g","pricing_plan_id":"cebpf4jnsgd1na2vs0mg"},{"bike_id":"540d22e2-e517-485c-b3bf-1f87f60e78ad","system_id":"levelo_inurba_marseille","lat":43.305343,"lon":5.384235,"is_reserved":false,"is_disabled":false,"rental_uris":{"android":"levelo://app?vid=540d22e2-e517-485c-b3bf-1f87f60e78ad","ios":"levelo://app?vid=540d22e2-e517-485c-b3bf-1f87f60e78ad"},"vehicle_type_id":"4","last_reported":1713006321,"current_range_meters":26000,"station_id":"ce4bgg92rcd13ifvqb30","pricing_plan_id":"cebpf4jnsgd1na2vs0mg"},{"bike_id":"ab89c531-7621-4205-a122-1a3b0444bc54","system_id":"levelo_inurba_marseille","lat":43.298433,"lon":5.362774,"is_reserved":false,"is_disabled":false,"rental_uris":{"android":"levelo://app?vid=ab89c531-7621-4205-a122-1a3b0444bc54","ios":"levelo://app?vid=ab89c531-7621-4205-a122-1a3b0444bc54"},"vehicle_type_id":"4","last_reported":1713006321,"current_range_meters":24800,"station_id":"ce4bgpp2rcd13ifvqc3g","pricing_plan_id":"cebpf4jnsgd1na2vs0mg"},{"bike_id":"ec7a6237-48e1-4e07-9935-34588e362d27","system_id":"levelo_inurba_marseille","lat":43.299243,"lon":5.374807,"is_reserved":false,"is_disabled":false,"rental_uris":{"android":"levelo://app?vid=ec7a6237-48e1-4e07-9935-34588e362d27","ios":"levelo://app?vid=ec7a6237-48e1-4e07-9935-34588e362d27"},"vehicle_type_id":"4","last_reported":1713006321,"current_range_meters":24400,"station_id":"ce4bgjh2rcd13ifvqbg0","pricing_plan_id":"cebpf4jnsgd1na2vs0mg"},{"bike_id":"d8d27c65-016b-48d6-ab58-348d2ff6c5f2","system_id":"levelo_inurba_marseille","lat":43.297794,"lon":5.370888,"is_reserved":false,"is_disabled":false,"rental_uris":{"android":"levelo://app?vid=d8d27c65-016b-48d6-ab58-348d2ff6c5f2","ios":"levelo://app?vid=d8d27c65-016b-48d6-ab58-348d2ff6c5f2"},"vehicle_type_id":"4","last_reported":1713006321,"current_range_meters":28000,"station_id":"ce4bgop2rcd13ifvqc1g","pricing_plan_id":"cebpf4jnsgd1na2vs0mg"},{"bike_id":"1f5d6675-00f5-4def-b4dd-b2c2bc13963c","system_id":"levelo_inurba_marseille","lat":43.29785,"lon":5.37101,"is_reserved":false,"is_disabled":false,"rental_uris":{"android":"levelo://app?vid=1f5d6675-00f5-4def-b4dd-b2c2bc13963c","ios":"levelo://app?vid=1f5d6675-00f5-4def-b4dd-b2c2bc13963c"},"vehicle_type_id":"4","last_reported":1713006321,"current_range_meters":22000,"station_id":"ce4bgop2rcd13ifvqc1g","pricing_plan_id":"cebpf4jnsgd1na2vs0mg"},{"bike_id":"beac286e-8263-4084-a12b-338438b031ab","system_id":"levelo_inurba_marseille","lat":43.297774,"lon":5.370875,"is_reserved":false,"is_disabled":false,"rental_uris":{"android":"levelo://app?vid=beac286e-8263-4084-a12b-338438b031ab","ios":"levelo://app?vid=beac286e-8263-4084-a12b-338438b031ab"},"vehicle_type_id":"4","last_reported":1713006321,"current_range_meters":21200,"station_id":"ce4bgop2rcd13ifvqc1g","pricing_plan_id":"cebpf4jnsgd1na2vs0mg"},{"bike_id":"c74eb970-001e-421d-9d4f-506b86f1bbcc","system_id":"levelo_inurba_marseille","lat":43.297794,"lon":5.370888,"is_reserved":false,"is_disabled":false,"rental_uris":{"android":"levelo://app?vid=c74eb970-001e-421d-9d4f-506b86f1bbcc","ios":"levelo://app?vid=c74eb970-001e-421d-9d4f-506b86f1bbcc"},"vehicle_type_id":"4","last_reported":1713006321,"current_range_meters":31600,"station_id":"ce4bgop2rcd13ifvqc1g","pricing_plan_id":"cebpf4jnsgd1na2vs0mg"},{"bike_id":"4838f2f3-d4bd-4209-8114-32b3e855297a","system_id":"levelo_inurba_marseille","lat":43.297794,"lon":5.370888,"is_reserved":false,"is_disabled":false,"rental_uris":{"android":"levelo://app?vid=4838f2f3-d4bd-4209-8114-32b3e855297a","ios":"levelo://app?vid=4838f2f3-d4bd-4209-8114-32b3e855297a"},"vehicle_type_id":"4","last_reported":1713006321,"current_range_meters":28800,"station_id":"ce4bgop2rcd13ifvqc1g","pricing_plan_id":"cebpf4jnsgd1na2vs0mg"},{"bike_id":"167eb2bd-a67e-47ee-844b-c0c3aeddd530","system_id":"levelo_inurba_marseille","lat":43.29703,"lon":5.36598,"is_reserved":false,"is_disabled":false,"rental_uris":{"android":"levelo://app?vid=167eb2bd-a67e-47ee-844b-c0c3aeddd530","ios":"levelo://app?vid=167eb2bd-a67e-47ee-844b-c0c3aeddd530"},"vehicle_type_id":"4","last_reported":1713006321,"current_range_meters":14400,"station_id":"","pricing_plan_id":"cebpf4jnsgd1na2vs0mg"},{"bike_id":"362aa85c-6621-4455-b3e9-ddcf97b7b15c","system_id":"levelo_inurba_marseille","lat":43.297163,"lon":5.365866,"is_reserved":false,"is_disabled":false,"rental_uris":{"android":"levelo://app?vid=362aa85c-6621-4455-b3e9-ddcf97b7b15c","ios":"levelo://app?vid=362aa85c-6621-4455-b3e9-ddcf97b7b15c"},"vehicle_type_id":"4","last_reported":1713006321,"current_range_meters":29600,"station_id":"ce4bgn12rcd13ifvqbt0","pricing_plan_id":"cebpf4jnsgd1na2vs0mg"},{"bike_id":"3a1251ef-7f94-49c7-bf75-0ca0669b186b","system_id":"levelo_inurba_marseille","lat":43.2968,"lon":5.37291,"is_reserved":false,"is_disabled":false,"rental_uris":{"android":"levelo://app?vid=3a1251ef-7f94-49c7-bf75-0ca0669b186b","ios":"levelo://app?vid=3a1251ef-7f94-49c7-bf75-0ca0669b186b"},"vehicle_type_id":"4","last_reported":1713006321,"current_range_meters":29200,"station_id":"ce4bgk12rcd13ifvqbj0","pricing_plan_id":"cebpf4jnsgd1na2vs0mg"},{"bike_id":"046465df-3bec-48a5-9dd8-9587ac127881","system_id":"levelo_inurba_marseille","lat":43.2968,"lon":5.37291,"is_reserved":false,"is_disabled":false,"rental_uris":{"android":"levelo://app?vid=046465df-3bec-48a5-9dd8-9587ac127881","ios":"levelo://app?vid=046465df-3bec-48a5-9dd8-9587ac127881"},"vehicle_type_id":"4","last_reported":1713006321,"current_range_meters":28400,"station_id":"ce4bgk12rcd13ifvqbj0","pricing_plan_id":"cebpf4jnsgd1na2vs0mg"},{"bike_id":"f1ff41b6-bc29-4070-945b-d70a2ab6b740","system_id":"levelo_inurba_marseille","lat":43.297794,"lon":5.370888,"is_reserved":false,"is_disabled":false,"rental_uris":{"android":"levelo://app?vid=f1ff41b6-bc29-4070-945b-d70a2ab6b740","ios":"levelo://app?vid=f1ff41b6-bc29-4070-945b-d70a2ab6b740"},"vehicle_type_id":"4","last_reported":1713006321,"current_range_meters":2800,"station_id":"ce4bgop2rcd13ifvqc1g","pricing_plan_id":"cebpf4jnsgd1na2vs0mg"},{"bike_id":"4f3648c7-9a20-4088-8de1-3df71e20b126","system_id":"levelo_inurba_marseille","lat":43.29573,"lon":5.367355,"is_reserved":false,"is_disabled":false,"rental_uris":{"android":"levelo://app?vid=4f3648c7-9a20-4088-8de1-3df71e20b126","ios":"levelo://app?vid=4f3648c7-9a20-4088-8de1-3df71e20b126"},"vehicle_type_id":"4","last_reported":1713006321,"current_range_meters":13600,"station_id":"ce4bgph2rcd13ifvqc2g","pricing_plan_id":"cebpf4jnsgd1na2vs0mg"},{"bike_id":"e0be890f-7697-45db-9cda-dfeffd00df3c","system_id":"levelo_inurba_marseille","lat":43.296129,"lon":5.370777,"is_reserved":false,"is_disabled":false,"rental_uris":{"android":"levelo://app?vid=e0be890f-7697-45db-9cda-dfeffd00df3c","ios":"levelo://app?vid=e0be890f-7697-45db-9cda-dfeffd00df3c"},"vehicle_type_id":"4","last_reported":1713006321,"current_range_meters":11200,"station_id":"ce4bgnh2rcd13ifvqc0g","pricing_plan_id":"cebpf4jnsgd1na2vs0mg"},{"bike_id":"82d26f00-1290-472a-8ec0-9f464e46cd77","system_id":"levelo_inurba_marseille","lat":43.29573,"lon":5.367355,"is_reserved":false,"is_disabled":false,"rental_uris":{"android":"levelo://app?vid=82d26f00-1290-472a-8ec0-9f464e46cd77","ios":"levelo://app?vid=82d26f00-1290-472a-8ec0-9f464e46cd77"},"vehicle_type_id":"4","last_reported":1713006321,"current_range_meters":24800,"station_id":"ce4bgph2rcd13ifvqc2g","pricing_plan_id":"cebpf4jnsgd1na2vs0mg"},{"bike_id":"9954a9af-d8ad-49ee-8730-64c8ce664a3c","system_id":"levelo_inurba_marseille","lat":43.29573,"lon":5.367355,"is_reserved":false,"is_disabled":false,"rental_uris":{"android":"levelo://app?vid=9954a9af-d8ad-49ee-8730-64c8ce664a3c","ios":"levelo://app?vid=9954a9af-d8ad-49ee-8730-64c8ce664a3c"},"vehicle_type_id":"4","last_reported":1713006321,"current_range_meters":16000,"station_id":"ce4bgph2rcd13ifvqc2g","pricing_plan_id":"cebpf4jnsgd1na2vs0mg"},{"bike_id":"1e412965-6309-4fa5-a28c-84daba097267","system_id":"levelo_inurba_marseille","lat":43.29573,"lon":5.367355,"is_reserved":false,"is_disabled":false,"rental_uris":{"android":"levelo://app?vid=1e412965-6309-4fa5-a28c-84daba097267","ios":"levelo://app?vid=1e412965-6309-4fa5-a28c-84daba097267"},"vehicle_type_id":"4","last_reported":1713006321,"current_range_meters":19200,"station_id":"ce4bgph2rcd13ifvqc2g","pricing_plan_id":"cebpf4jnsgd1na2vs0mg"},{"bike_id":"f0884618-662d-4222-96e8-0e23e53fa4b6","system_id":"levelo_inurba_marseille","lat":43.296935,"lon":5.376544,"is_reserved":false,"is_disabled":false,"rental_uris":{"android":"levelo://app?vid=f0884618-662d-4222-96e8-0e23e53fa4b6","ios":"levelo://app?vid=f0884618-662d-4222-96e8-0e23e53fa4b6"},"vehicle_type_id":"4","last_reported":1713006321,"current_range_meters":21200,"station_id":"ce4bgkh2rcd13ifvqbl0","pricing_plan_id":"cebpf4jnsgd1na2vs0mg"},{"bike_id":"ae8a422b-3a56-41a1-9358-f92a47574fc4","system_id":"levelo_inurba_marseille","lat":43.296131,"lon":5.370791,"is_reserved":false,"is_disabled":false,"rental_uris":{"android":"levelo://app?vid=ae8a422b-3a56-41a1-9358-f92a47574fc4","ios":"levelo://app?vid=ae8a422b-3a56-41a1-9358-f92a47574fc4"},"vehicle_type_id":"4","last_reported":1713006321,"current_range_meters":22400,"station_id":"ce4bgnh2rcd13ifvqc0g","pricing_plan_id":"cebpf4jnsgd1na2vs0mg"},{"bike_id":"efd38878-1f26-4c79-87e4-6ce375f637fa","system_id":"levelo_inurba_marseille","lat":43.29711,"lon":5.37696,"is_reserved":false,"is_disabled":false,"rental_uris":{"android":"levelo://app?vid=efd38878-1f26-4c79-87e4-6ce375f637fa","ios":"levelo://app?vid=efd38878-1f26-4c79-87e4-6ce375f637fa"},"vehicle_type_id":"4","last_reported":1713006321,"current_range_meters":24000,"station_id":"","pricing_plan_id":"cebpf4jnsgd1na2vs0mg"},{"bike_id":"5f07e9a8-e7f2-446a-b225-58a5ce273341","system_id":"levelo_inurba_marseille","lat":43.309589,"lon":5.390258,"is_reserved":false,"is_disabled":false,"rental_uris":{"android":"levelo://app?vid=5f07e9a8-e7f2-446a-b225-58a5ce273341","ios":"levelo://app?vid=5f07e9a8-e7f2-446a-b225-58a5ce273341"},"vehicle_type_id":"4","last_reported":1713006321,"current_range_meters":25200,"station_id":"ce4bgup2rcd13ifvqco0","pricing_plan_id":"cebpf4jnsgd1na2vs0mg"},{"bike_id":"f4bd90e6-d97b-4483-8fa2-7d3673f020b7","system_id":"levelo_inurba_marseille","lat":43.304278,"lon":5.388868,"is_reserved":false,"is_disabled":false,"rental_uris":{"android":"levelo://app?vid=f4bd90e6-d97b-4483-8fa2-7d3673f020b7","ios":"levelo://app?vid=f4bd90e6-d97b-4483-8fa2-7d3673f020b7"},"vehicle_type_id":"4","last_reported":1713006321,"current_range_meters":6400,"station_id":"ce4bgk12rcd13ifvqbi0","pricing_plan_id":"cebpf4jnsgd1na2vs0mg"},{"bike_id":"a2bcbf0f-b5dc-4189-b9ec-4c985d4deef0","system_id":"levelo_inurba_marseille","lat":43.317557,"lon":5.390173,"is_reserved":false,"is_disabled":false,"rental_uris":{"android":"levelo://app?vid=a2bcbf0f-b5dc-4189-b9ec-4c985d4deef0","ios":"levelo://app?vid=a2bcbf0f-b5dc-4189-b9ec-4c985d4deef0"},"vehicle_type_id":"4","last_reported":1713006321,"current_range_meters":20800,"station_id":"ce4bhqp2rcd13ifvqhng","pricing_plan_id":"cebpf4jnsgd1na2vs0mg"},{"bike_id":"5ce6bd84-d573-426e-a0c6-62fe96397a2c","system_id":"levelo_inurba_marseille","lat":43.31759,"lon":5.39012,"is_reserved":false,"is_disabled":false,"rental_uris":{"android":"levelo://app?vid=5ce6bd84-d573-426e-a0c6-62fe96397a2c","ios":"levelo://app?vid=5ce6bd84-d573-426e-a0c6-62fe96397a2c"},"vehicle_type_id":"4","last_reported":1713006321,"current_range_meters":17200,"station_id":"ce4bhqp2rcd13ifvqhng","pricing_plan_id":"cebpf4jnsgd1na2vs0mg"},{"bike_id":"0b63be31-ec95-47c3-8de2-8435e9f50d9e","system_id":"levelo_inurba_marseille","lat":43.317557,"lon":5.390173,"is_reserved":false,"is_disabled":false,"rental_uris":{"android":"levelo://app?vid=0b63be31-ec95-47c3-8de2-8435e9f50d9e","ios":"levelo://app?vid=0b63be31-ec95-47c3-8de2-8435e9f50d9e"},"vehicle_type_id":"4","last_reported":1713006321,"current_range_meters":14800,"station_id":"ce4bhqp2rcd13ifvqhng","pricing_plan_id":"cebpf4jnsgd1na2vs0mg"},{"bike_id":"4950c8b7-53e0-4dc4-a4fa-51af59e78156","system_id":"levelo_inurba_marseille","lat":43.296657,"lon":5.376651,"is_reserved":false,"is_disabled":false,"rental_uris":{"android":"levelo://app?vid=4950c8b7-53e0-4dc4-a4fa-51af59e78156","ios":"levelo://app?vid=4950c8b7-53e0-4dc4-a4fa-51af59e78156"},"vehicle_type_id":"4","last_reported":1713006321,"current_range_meters":7200,"station_id":"ce4bgkh2rcd13ifvqbl0","pricing_plan_id":"cebpf4jnsgd1na2vs0mg"},{"bike_id":"d6c3a8d2-8410-44b4-8e4d-0fa1606c80ce","system_id":"levelo_inurba_marseille","lat":43.317557,"lon":5.390173,"is_reserved":false,"is_disabled":false,"rental_uris":{"android":"levelo://app?vid=d6c3a8d2-8410-44b4-8e4d-0fa1606c80ce","ios":"levelo://app?vid=d6c3a8d2-8410-44b4-8e4d-0fa1606c80ce"},"vehicle_type_id":"4","last_reported":1713006321,"current_range_meters":14400,"station_id":"ce4bhqp2rcd13ifvqhng","pricing_plan_id":"cebpf4jnsgd1na2vs0mg"},{"bike_id":"d212ff25-bba9-48ee-b5ec-bde6c9e32a53","system_id":"levelo_inurba_marseille","lat":43.304274,"lon":5.388873,"is_reserved":false,"is_disabled":false,"rental_uris":{"android":"levelo://app?vid=d212ff25-bba9-48ee-b5ec-bde6c9e32a53","ios":"levelo://app?vid=d212ff25-bba9-48ee-b5ec-bde6c9e32a53"},"vehicle_type_id":"4","last_reported":1713006321,"current_range_meters":19600,"station_id":"ce4bgk12rcd13ifvqbi0","pricing_plan_id":"cebpf4jnsgd1na2vs0mg"},{"bike_id":"37946fd5-6236-457b-8fa9-f8819367c902","system_id":"levelo_inurba_marseille","lat":43.298037,"lon":5.381066,"is_reserved":false,"is_disabled":false,"rental_uris":{"android":"levelo://app?vid=37946fd5-6236-457b-8fa9-f8819367c902","ios":"levelo://app?vid=37946fd5-6236-457b-8fa9-f8819367c902"},"vehicle_type_id":"4","last_reported":1713006321,"current_range_meters":30800,"station_id":"ce4bgip2rcd13ifvqbb0","pricing_plan_id":"cebpf4jnsgd1na2vs0mg"},{"bike_id":"150c3d25-c582-43c4-a79b-6f15befcdece","system_id":"levelo_inurba_marseille","lat":43.298037,"lon":5.381066,"is_reserved":false,"is_disabled":false,"rental_uris":{"android":"levelo://app?vid=150c3d25-c582-43c4-a79b-6f15befcdece","ios":"levelo://app?vid=150c3d25-c582-43c4-a79b-6f15befcdece"},"vehicle_type_id":"4","last_reported":1713006321,"current_range_meters":31600,"station_id":"ce4bgip2rcd13ifvqbb0","pricing_plan_id":"cebpf4jnsgd1na2vs0mg"},{"bike_id":"bf9f7234-2434-43f3-88e7-8481e633efcf","system_id":"levelo_inurba_marseille","lat":43.304274,"lon":5.388873,"is_reserved":false,"is_disabled":false,"rental_uris":{"android":"levelo://app?vid=bf9f7234-2434-43f3-88e7-8481e633efcf","ios":"levelo://app?vid=bf9f7234-2434-43f3-88e7-8481e633efcf"},"vehicle_type_id":"4","last_reported":1713006321,"current_range_meters":26800,"station_id":"ce4bgk12rcd13ifvqbi0","pricing_plan_id":"cebpf4jnsgd1na2vs0mg"},{"bike_id":"59ddeee5-0088-4394-a0ec-b486b34cf833","system_id":"levelo_inurba_marseille","lat":43.30429,"lon":5.38894,"is_reserved":false,"is_disabled":false,"rental_uris":{"android":"levelo://app?vid=59ddeee5-0088-4394-a0ec-b486b34cf833","ios":"levelo://app?vid=59ddeee5-0088-4394-a0ec-b486b34cf833"},"vehicle_type_id":"4","last_reported":1713006321,"current_range_meters":30800,"station_id":"ce4bgk12rcd13ifvqbi0","pricing_plan_id":"cebpf4jnsgd1na2vs0mg"},{"bike_id":"5770a1e6-0637-489a-b27e-45a6a0d868e8","system_id":"levelo_inurba_marseille","lat":43.296263,"lon":5.377094,"is_reserved":false,"is_disabled":false,"rental_uris":{"android":"levelo://app?vid=5770a1e6-0637-489a-b27e-45a6a0d868e8","ios":"levelo://app?vid=5770a1e6-0637-489a-b27e-45a6a0d868e8"},"vehicle_type_id":"4","last_reported":1713006321,"current_range_meters":14800,"station_id":"ce4bgi92rcd13ifvqb90","pricing_plan_id":"cebpf4jnsgd1na2vs0mg"},{"bike_id":"c97d6a91-7fa8-4a3a-a731-6351f45e25aa","system_id":"levelo_inurba_marseille","lat":43.295748,"lon":5.37522,"is_reserved":false,"is_disabled":false,"rental_uris":{"android":"levelo://app?vid=c97d6a91-7fa8-4a3a-a731-6351f45e25aa","ios":"levelo://app?vid=c97d6a91-7fa8-4a3a-a731-6351f45e25aa"},"vehicle_type_id":"4","last_reported":1713006321,"current_range_meters":22400,"station_id":"ce4bgh92rcd13ifvqb50","pricing_plan_id":"cebpf4jnsgd1na2vs0mg"},{"bike_id":"ef579f69-9ea1-40ce-a685-bb96c10337b3","system_id":"levelo_inurba_marseille","lat":43.296277,"lon":5.377108,"is_reserved":false,"is_disabled":false,"rental_uris":{"android":"levelo://app?vid=ef579f69-9ea1-40ce-a685-bb96c10337b3","ios":"levelo://app?vid=ef579f69-9ea1-40ce-a685-bb96c10337b3"},"vehicle_type_id":"4","last_reported":1713006321,"current_range_meters":22400,"station_id":"ce4bgi92rcd13ifvqb90","pricing_plan_id":"cebpf4jnsgd1na2vs0mg"},{"bike_id":"f92879e8-6d15-46d6-a097-d8e8ae205312","system_id":"levelo_inurba_marseille","lat":43.32359,"lon":5.388841,"is_reserved":false,"is_disabled":false,"rental_uris":{"android":"levelo://app?vid=f92879e8-6d15-46d6-a097-d8e8ae205312","ios":"levelo://app?vid=f92879e8-6d15-46d6-a097-d8e8ae205312"},"vehicle_type_id":"4","last_reported":1713006321,"current_range_meters":800,"station_id":"ce4bhqp2rcd13ifvqhog","pricing_plan_id":"cebpf4jnsgd1na2vs0mg"},{"bike_id":"fe02a49c-c55e-40d0-a225-4ae35f043698","system_id":"levelo_inurba_marseille","lat":43.32367,"lon":5.388836,"is_reserved":false,"is_disabled":false,"rental_uris":{"android":"levelo://app?vid=fe02a49c-c55e-40d0-a225-4ae35f043698","ios":"levelo://app?vid=fe02a49c-c55e-40d0-a225-4ae35f043698"},"vehicle_type_id":"4","last_reported":1713006321,"current_range_meters":29600,"station_id":"ce4bhqp2rcd13ifvqhog","pricing_plan_id":"cebpf4jnsgd1na2vs0mg"},{"bike_id":"505dc0ba-6b98-4990-a00b-e8d73d59d325","system_id":"levelo_inurba_marseille","lat":43.32367,"lon":5.388836,"is_reserved":false,"is_disabled":false,"rental_uris":{"android":"levelo://app?vid=505dc0ba-6b98-4990-a00b-e8d73d59d325","ios":"levelo://app?vid=505dc0ba-6b98-4990-a00b-e8d73d59d325"},"vehicle_type_id":"4","last_reported":1713006321,"current_range_meters":22000,"station_id":"ce4bhqp2rcd13ifvqhog","pricing_plan_id":"cebpf4jnsgd1na2vs0mg"},{"bike_id":"51bef885-7315-4ec3-8e2a-083ede2bffa5","system_id":"levelo_inurba_marseille","lat":43.32367,"lon":5.388836,"is_reserved":false,"is_disabled":false,"rental_uris":{"android":"levelo://app?vid=51bef885-7315-4ec3-8e2a-083ede2bffa5","ios":"levelo://app?vid=51bef885-7315-4ec3-8e2a-083ede2bffa5"},"vehicle_type_id":"4","last_reported":1713006321,"current_range_meters":1600,"station_id":"ce4bhqp2rcd13ifvqhog","pricing_plan_id":"cebpf4jnsgd1na2vs0mg"},{"bike_id":"f0083183-aa67-4f44-b52e-f362ddb8b093","system_id":"levelo_inurba_marseille","lat":43.29602,"lon":5.381084,"is_reserved":false,"is_disabled":false,"rental_uris":{"android":"levelo://app?vid=f0083183-aa67-4f44-b52e-f362ddb8b093","ios":"levelo://app?vid=f0083183-aa67-4f44-b52e-f362ddb8b093"},"vehicle_type_id":"4","last_reported":1713006321,"current_range_meters":15200,"station_id":"ce4bgl12rcd13ifvqbo0","pricing_plan_id":"cebpf4jnsgd1na2vs0mg"},{"bike_id":"f2c7f811-f09c-46ff-bed4-7d0826dfc70d","system_id":"levelo_inurba_marseille","lat":43.29602,"lon":5.381084,"is_reserved":false,"is_disabled":false,"rental_uris":{"android":"levelo://app?vid=f2c7f811-f09c-46ff-bed4-7d0826dfc70d","ios":"levelo://app?vid=f2c7f811-f09c-46ff-bed4-7d0826dfc70d"},"vehicle_type_id":"4","last_reported":1713006321,"current_range_meters":12400,"station_id":"ce4bgl12rcd13ifvqbo0","pricing_plan_id":"cebpf4jnsgd1na2vs0mg"},{"bike_id":"8b50f980-f522-439a-98f8-35ae5f9c6b68","system_id":"levelo_inurba_marseille","lat":43.29602,"lon":5.381084,"is_reserved":false,"is_disabled":false,"rental_uris":{"android":"levelo://app?vid=8b50f980-f522-439a-98f8-35ae5f9c6b68","ios":"levelo://app?vid=8b50f980-f522-439a-98f8-35ae5f9c6b68"},"vehicle_type_id":"4","last_reported":1713006321,"current_range_meters":28400,"station_id":"ce4bgl12rcd13ifvqbo0","pricing_plan_id":"cebpf4jnsgd1na2vs0mg"},{"bike_id":"e41e281a-747d-411e-8fce-17c6540cda99","system_id":"levelo_inurba_marseille","lat":43.293259,"lon":5.371586,"is_reserved":false,"is_disabled":false,"rental_uris":{"android":"levelo://app?vid=e41e281a-747d-411e-8fce-17c6540cda99","ios":"levelo://app?vid=e41e281a-747d-411e-8fce-17c6540cda99"},"vehicle_type_id":"4","last_reported":1713006321,"current_range_meters":22800,"station_id":"ce4bgh92rcd13ifvqb40","pricing_plan_id":"cebpf4jnsgd1na2vs0mg"},{"bike_id":"ff520363-6a07-4265-9897-54c13ac3a631","system_id":"levelo_inurba_marseille","lat":43.29303,"lon":5.37167,"is_reserved":false,"is_disabled":false,"rental_uris":{"android":"levelo://app?vid=ff520363-6a07-4265-9897-54c13ac3a631","ios":"levelo://app?vid=ff520363-6a07-4265-9897-54c13ac3a631"},"vehicle_type_id":"4","last_reported":1713006321,"current_range_meters":2400,"station_id":"ce4bhch2rcd13ifvqeug","pricing_plan_id":"cebpf4jnsgd1na2vs0mg"},{"bike_id":"42ecc208-e423-41e7-a015-d30aa9fc5935","system_id":"levelo_inurba_marseille","lat":43.29302,"lon":5.37173,"is_reserved":false,"is_disabled":false,"rental_uris":{"android":"levelo://app?vid=42ecc208-e423-41e7-a015-d30aa9fc5935","ios":"levelo://app?vid=42ecc208-e423-41e7-a015-d30aa9fc5935"},"vehicle_type_id":"4","last_reported":1713006321,"current_range_meters":21200,"station_id":"ce4bgh92rcd13ifvqb40","pricing_plan_id":"cebpf4jnsgd1na2vs0mg"},{"bike_id":"b8973892-a528-4fb5-987b-e8d2fdea7982","system_id":"levelo_inurba_marseille","lat":43.29301,"lon":5.37166,"is_reserved":false,"is_disabled":false,"rental_uris":{"android":"levelo://app?vid=b8973892-a528-4fb5-987b-e8d2fdea7982","ios":"levelo://app?vid=b8973892-a528-4fb5-987b-e8d2fdea7982"},"vehicle_type_id":"4","last_reported":1713006321,"current_range_meters":11200,"station_id":"ce4bgh92rcd13ifvqb40","pricing_plan_id":"cebpf4jnsgd1na2vs0mg"},{"bike_id":"6c2ff19f-39dd-4631-a047-c6e6cdd75750","system_id":"levelo_inurba_marseille","lat":43.292693,"lon":5.368423,"is_reserved":false,"is_disabled":false,"rental_uris":{"android":"levelo://app?vid=6c2ff19f-39dd-4631-a047-c6e6cdd75750","ios":"levelo://app?vid=6c2ff19f-39dd-4631-a047-c6e6cdd75750"},"vehicle_type_id":"4","last_reported":1713006321,"current_range_meters":30400,"station_id":"ce4bhbp2rcd13ifvqesg","pricing_plan_id":"cebpf4jnsgd1na2vs0mg"},{"bike_id":"acfdf80b-b5da-4fbb-91e6-10453e32f78f","system_id":"levelo_inurba_marseille","lat":43.293009,"lon":5.374584,"is_reserved":false,"is_disabled":false,"rental_uris":{"android":"levelo://app?vid=acfdf80b-b5da-4fbb-91e6-10453e32f78f","ios":"levelo://app?vid=acfdf80b-b5da-4fbb-91e6-10453e32f78f"},"vehicle_type_id":"4","last_reported":1713006321,"current_range_meters":12400,"station_id":"ce4bgi12rcd13ifvqb70","pricing_plan_id":"cebpf4jnsgd1na2vs0mg"},{"bike_id":"6542004c-f44b-47f7-9c3b-5f706d994ffb","system_id":"levelo_inurba_marseille","lat":43.303002,"lon":5.392142,"is_reserved":false,"is_disabled":false,"rental_uris":{"android":"levelo://app?vid=6542004c-f44b-47f7-9c3b-5f706d994ffb","ios":"levelo://app?vid=6542004c-f44b-47f7-9c3b-5f706d994ffb"},"vehicle_type_id":"4","last_reported":1713006321,"current_range_meters":4400,"station_id":"ce4bgkh2rcd13ifvqbk0","pricing_plan_id":"cebpf4jnsgd1na2vs0mg"},{"bike_id":"74db0c7c-06ae-4009-b39c-91ac05b18423","system_id":"levelo_inurba_marseille","lat":43.303002,"lon":5.392142,"is_reserved":false,"is_disabled":false,"rental_uris":{"android":"levelo://app?vid=74db0c7c-06ae-4009-b39c-91ac05b18423","ios":"levelo://app?vid=74db0c7c-06ae-4009-b39c-91ac05b18423"},"vehicle_type_id":"4","last_reported":1713006321,"current_range_meters":24000,"station_id":"ce4bgkh2rcd13ifvqbk0","pricing_plan_id":"cebpf4jnsgd1na2vs0mg"},{"bike_id":"7ef98c15-5d37-4798-8658-cac6920be9c7","system_id":"levelo_inurba_marseille","lat":43.302992,"lon":5.392136,"is_reserved":false,"is_disabled":false,"rental_uris":{"android":"levelo://app?vid=7ef98c15-5d37-4798-8658-cac6920be9c7","ios":"levelo://app?vid=7ef98c15-5d37-4798-8658-cac6920be9c7"},"vehicle_type_id":"4","last_reported":1713006321,"current_range_meters":1200,"station_id":"ce4bgkh2rcd13ifvqbk0","pricing_plan_id":"cebpf4jnsgd1na2vs0mg"},{"bike_id":"c0bb08d9-7d7e-439f-99a8-a5f26f546339","system_id":"levelo_inurba_marseille","lat":43.300852,"lon":5.390859,"is_reserved":false,"is_disabled":false,"rental_uris":{"android":"levelo://app?vid=c0bb08d9-7d7e-439f-99a8-a5f26f546339","ios":"levelo://app?vid=c0bb08d9-7d7e-439f-99a8-a5f26f546339"},"vehicle_type_id":"4","last_reported":1713006321,"current_range_meters":28400,"station_id":"ce4bh192rcd13ifvqdb0","pricing_plan_id":"cebpf4jnsgd1na2vs0mg"},{"bike_id":"3435b89d-2c18-4dcc-98d5-4993c464e849","system_id":"levelo_inurba_marseille","lat":43.291994,"lon":5.357886,"is_reserved":false,"is_disabled":false,"rental_uris":{"android":"levelo://app?vid=3435b89d-2c18-4dcc-98d5-4993c464e849","ios":"levelo://app?vid=3435b89d-2c18-4dcc-98d5-4993c464e849"},"vehicle_type_id":"4","last_reported":1713006321,"current_range_meters":9200,"station_id":"ce4bhb12rcd13ifvqel0","pricing_plan_id":"cebpf4jnsgd1na2vs0mg"},{"bike_id":"c4d16ec1-1aaf-4ff0-966d-a21e0785a9bb","system_id":"levelo_inurba_marseille","lat":43.298764,"lon":5.388973,"is_reserved":false,"is_disabled":false,"rental_uris":{"android":"levelo://app?vid=c4d16ec1-1aaf-4ff0-966d-a21e0785a9bb","ios":"levelo://app?vid=c4d16ec1-1aaf-4ff0-966d-a21e0785a9bb"},"vehicle_type_id":"4","last_reported":1713006321,"current_range_meters":1200,"station_id":"ce4bh392rcd13ifvqdl0","pricing_plan_id":"cebpf4jnsgd1na2vs0mg"},{"bike_id":"c64239b5-6c13-4ca2-8e20-dc70b1208d65","system_id":"levelo_inurba_marseille","lat":43.292005,"lon":5.357875,"is_reserved":false,"is_disabled":false,"rental_uris":{"android":"levelo://app?vid=c64239b5-6c13-4ca2-8e20-dc70b1208d65","ios":"levelo://app?vid=c64239b5-6c13-4ca2-8e20-dc70b1208d65"},"vehicle_type_id":"4","last_reported":1713006321,"current_range_meters":23600,"station_id":"ce4bhb12rcd13ifvqel0","pricing_plan_id":"cebpf4jnsgd1na2vs0mg"},{"bike_id":"4ee7482c-8829-4669-bcfb-275cb6158046","system_id":"levelo_inurba_marseille","lat":43.313254,"lon":5.39692,"is_reserved":false,"is_disabled":false,"rental_uris":{"android":"levelo://app?vid=4ee7482c-8829-4669-bcfb-275cb6158046","ios":"levelo://app?vid=4ee7482c-8829-4669-bcfb-275cb6158046"},"vehicle_type_id":"4","last_reported":1713006321,"current_range_meters":800,"station_id":"ce4bgvp2rcd13ifvqcu0","pricing_plan_id":"cebpf4jnsgd1na2vs0mg"},{"bike_id":"c05d2961-5d7e-4530-906f-97599e025453","system_id":"levelo_inurba_marseille","lat":43.313291,"lon":5.396838,"is_reserved":false,"is_disabled":false,"rental_uris":{"android":"levelo://app?vid=c05d2961-5d7e-4530-906f-97599e025453","ios":"levelo://app?vid=c05d2961-5d7e-4530-906f-97599e025453"},"vehicle_type_id":"4","last_reported":1713006321,"current_range_meters":26400,"station_id":"ce4bgvp2rcd13ifvqcu0","pricing_plan_id":"cebpf4jnsgd1na2vs0mg"},{"bike_id":"125db598-bd00-4997-9a6f-bbe978ef9b57","system_id":"levelo_inurba_marseille","lat":43.313291,"lon":5.396838,"is_reserved":false,"is_disabled":false,"rental_uris":{"android":"levelo://app?vid=125db598-bd00-4997-9a6f-bbe978ef9b57","ios":"levelo://app?vid=125db598-bd00-4997-9a6f-bbe978ef9b57"},"vehicle_type_id":"4","last_reported":1713006321,"current_range_meters":14400,"station_id":"ce4bgvp2rcd13ifvqcu0","pricing_plan_id":"cebpf4jnsgd1na2vs0mg"},{"bike_id":"791eb02e-4f49-4821-820b-4fdc48096b36","system_id":"levelo_inurba_marseille","lat":43.287184,"lon":5.37937,"is_reserved":false,"is_disabled":false,"rental_uris":{"android":"levelo://app?vid=791eb02e-4f49-4821-820b-4fdc48096b36","ios":"levelo://app?vid=791eb02e-4f49-4821-820b-4fdc48096b36"},"vehicle_type_id":"4","last_reported":1713006321,"current_range_meters":10400,"station_id":"ce4bh9p2rcd13ifvqec0","pricing_plan_id":"cebpf4jnsgd1na2vs0mg"},{"bike_id":"963c667c-8add-495d-afe2-7beb53fc679b","system_id":"levelo_inurba_marseille","lat":43.290779,"lon":5.371482,"is_reserved":false,"is_disabled":false,"rental_uris":{"android":"levelo://app?vid=963c667c-8add-495d-afe2-7beb53fc679b","ios":"levelo://app?vid=963c667c-8add-495d-afe2-7beb53fc679b"},"vehicle_type_id":"4","last_reported":1713006321,"current_range_meters":25200,"station_id":"ce4bh5p2rcd13ifvqe4g","pricing_plan_id":"cebpf4jnsgd1na2vs0mg"},{"bike_id":"2b6369e5-18fb-4fe8-9533-4c50e3d99332","system_id":"levelo_inurba_marseille","lat":43.290624,"lon":5.359245,"is_reserved":false,"is_disabled":false,"rental_uris":{"android":"levelo://app?vid=2b6369e5-18fb-4fe8-9533-4c50e3d99332","ios":"levelo://app?vid=2b6369e5-18fb-4fe8-9533-4c50e3d99332"},"vehicle_type_id":"4","last_reported":1713006321,"current_range_meters":800,"station_id":"ce4bha92rcd13ifvqeg0","pricing_plan_id":"cebpf4jnsgd1na2vs0mg"},{"bike_id":"ce480999-bec3-4e55-bf5b-642f622008fe","system_id":"levelo_inurba_marseille","lat":43.290624,"lon":5.359245,"is_reserved":false,"is_disabled":false,"rental_uris":{"android":"levelo://app?vid=ce480999-bec3-4e55-bf5b-642f622008fe","ios":"levelo://app?vid=ce480999-bec3-4e55-bf5b-642f622008fe"},"vehicle_type_id":"4","last_reported":1713006321,"current_range_meters":0,"station_id":"ce4bha92rcd13ifvqeg0","pricing_plan_id":"cebpf4jnsgd1na2vs0mg"},{"bike_id":"c415d3b4-a1a3-4db6-8271-2e54dbe40ab3","system_id":"levelo_inurba_marseille","lat":43.290631,"lon":5.359244,"is_reserved":false,"is_disabled":false,"rental_uris":{"android":"levelo://app?vid=c415d3b4-a1a3-4db6-8271-2e54dbe40ab3","ios":"levelo://app?vid=c415d3b4-a1a3-4db6-8271-2e54dbe40ab3"},"vehicle_type_id":"4","last_reported":1713006321,"current_range_meters":25200,"station_id":"ce4bha92rcd13ifvqeg0","pricing_plan_id":"cebpf4jnsgd1na2vs0mg"},{"bike_id":"5a1261e1-b234-4f23-8281-b39e8c145bf7","system_id":"levelo_inurba_marseille","lat":43.289184,"lon":5.366408,"is_reserved":false,"is_disabled":false,"rental_uris":{"android":"levelo://app?vid=5a1261e1-b234-4f23-8281-b39e8c145bf7","ios":"levelo://app?vid=5a1261e1-b234-4f23-8281-b39e8c145bf7"},"vehicle_type_id":"4","last_reported":1713006321,"current_range_meters":25600,"station_id":"ce4bhap2rcd13ifvqek0","pricing_plan_id":"cebpf4jnsgd1na2vs0mg"},{"bike_id":"ecb12f8a-43e0-475c-9981-5d07baba790f","system_id":"levelo_inurba_marseille","lat":43.289468,"lon":5.363719,"is_reserved":false,"is_disabled":false,"rental_uris":{"android":"levelo://app?vid=ecb12f8a-43e0-475c-9981-5d07baba790f","ios":"levelo://app?vid=ecb12f8a-43e0-475c-9981-5d07baba790f"},"vehicle_type_id":"4","last_reported":1713006321,"current_range_meters":800,"station_id":"ce4bhc92rcd13ifvqetg","pricing_plan_id":"cebpf4jnsgd1na2vs0mg"},{"bike_id":"3309a050-e044-47f9-b346-5e04b1602a3e","system_id":"levelo_inurba_marseille","lat":43.292644,"lon":5.384257,"is_reserved":false,"is_disabled":false,"rental_uris":{"android":"levelo://app?vid=3309a050-e044-47f9-b346-5e04b1602a3e","ios":"levelo://app?vid=3309a050-e044-47f9-b346-5e04b1602a3e"},"vehicle_type_id":"4","last_reported":1713006321,"current_range_meters":26800,"station_id":"ce4bh692rcd13ifvqea0","pricing_plan_id":"cebpf4jnsgd1na2vs0mg"},{"bike_id":"d44518e5-07ef-4e63-ac7b-4c801aa9c398","system_id":"levelo_inurba_marseille","lat":43.289468,"lon":5.363719,"is_reserved":false,"is_disabled":false,"rental_uris":{"android":"levelo://app?vid=d44518e5-07ef-4e63-ac7b-4c801aa9c398","ios":"levelo://app?vid=d44518e5-07ef-4e63-ac7b-4c801aa9c398"},"vehicle_type_id":"4","last_reported":1713006321,"current_range_meters":24400,"station_id":"ce4bhc92rcd13ifvqetg","pricing_plan_id":"cebpf4jnsgd1na2vs0mg"},{"bike_id":"aea86d44-e129-4408-973a-292c843e4a71","system_id":"levelo_inurba_marseille","lat":43.292644,"lon":5.384257,"is_reserved":false,"is_disabled":false,"rental_uris":{"android":"levelo://app?vid=aea86d44-e129-4408-973a-292c843e4a71","ios":"levelo://app?vid=aea86d44-e129-4408-973a-292c843e4a71"},"vehicle_type_id":"4","last_reported":1713006321,"current_range_meters":0,"station_id":"ce4bh692rcd13ifvqea0","pricing_plan_id":"cebpf4jnsgd1na2vs0mg"},{"bike_id":"80388a53-9a43-4243-b47c-19d2d421d942","system_id":"levelo_inurba_marseille","lat":43.292644,"lon":5.384257,"is_reserved":false,"is_disabled":false,"rental_uris":{"android":"levelo://app?vid=80388a53-9a43-4243-b47c-19d2d421d942","ios":"levelo://app?vid=80388a53-9a43-4243-b47c-19d2d421d942"},"vehicle_type_id":"4","last_reported":1713006321,"current_range_meters":28000,"station_id":"ce4bh692rcd13ifvqea0","pricing_plan_id":"cebpf4jnsgd1na2vs0mg"},{"bike_id":"07b30039-11a2-4e7b-87b8-65723435b3a3","system_id":"levelo_inurba_marseille","lat":43.276179,"lon":5.361009,"is_reserved":false,"is_disabled":false,"rental_uris":{"android":"levelo://app?vid=07b30039-11a2-4e7b-87b8-65723435b3a3","ios":"levelo://app?vid=07b30039-11a2-4e7b-87b8-65723435b3a3"},"vehicle_type_id":"4","last_reported":1713006321,"current_range_meters":17600,"station_id":"ce4bgj92rcd13ifvqbe0","pricing_plan_id":"cebpf4jnsgd1na2vs0mg"},{"bike_id":"d48cf99b-6a33-4f69-9478-fc662634cded","system_id":"levelo_inurba_marseille","lat":43.292644,"lon":5.384257,"is_reserved":false,"is_disabled":false,"rental_uris":{"android":"levelo://app?vid=d48cf99b-6a33-4f69-9478-fc662634cded","ios":"levelo://app?vid=d48cf99b-6a33-4f69-9478-fc662634cded"},"vehicle_type_id":"4","last_reported":1713006321,"current_range_meters":25600,"station_id":"ce4bh692rcd13ifvqea0","pricing_plan_id":"cebpf4jnsgd1na2vs0mg"},{"bike_id":"bad8f68a-78bf-482c-95c9-a4acccbfe072","system_id":"levelo_inurba_marseille","lat":43.292644,"lon":5.384257,"is_reserved":false,"is_disabled":false,"rental_uris":{"android":"levelo://app?vid=bad8f68a-78bf-482c-95c9-a4acccbfe072","ios":"levelo://app?vid=bad8f68a-78bf-482c-95c9-a4acccbfe072"},"vehicle_type_id":"4","last_reported":1713006321,"current_range_meters":0,"station_id":"ce4bh692rcd13ifvqea0","pricing_plan_id":"cebpf4jnsgd1na2vs0mg"},{"bike_id":"22992ee8-4e7a-454c-91e3-689c46db405b","system_id":"levelo_inurba_marseille","lat":43.29004,"lon":5.3561,"is_reserved":false,"is_disabled":false,"rental_uris":{"android":"levelo://app?vid=22992ee8-4e7a-454c-91e3-689c46db405b","ios":"levelo://app?vid=22992ee8-4e7a-454c-91e3-689c46db405b"},"vehicle_type_id":"4","last_reported":1713006321,"current_range_meters":4800,"station_id":"ce4bhbp2rcd13ifvqesg","pricing_plan_id":"cebpf4jnsgd1na2vs0mg"},{"bike_id":"d66311d5-e764-4de3-8caa-4c279d3a1721","system_id":"levelo_inurba_marseille","lat":43.297774,"lon":5.370875,"is_reserved":false,"is_disabled":false,"rental_uris":{"android":"levelo://app?vid=d66311d5-e764-4de3-8caa-4c279d3a1721","ios":"levelo://app?vid=d66311d5-e764-4de3-8caa-4c279d3a1721"},"vehicle_type_id":"4","last_reported":1713006321,"current_range_meters":14000,"station_id":"ce4bgop2rcd13ifvqc1g","pricing_plan_id":"cebpf4jnsgd1na2vs0mg"},{"bike_id":"16a8c782-0c4d-4970-a99a-63f99d54f55b","system_id":"levelo_inurba_marseille","lat":43.295169,"lon":5.390426,"is_reserved":false,"is_disabled":false,"rental_uris":{"android":"levelo://app?vid=16a8c782-0c4d-4970-a99a-63f99d54f55b","ios":"levelo://app?vid=16a8c782-0c4d-4970-a99a-63f99d54f55b"},"vehicle_type_id":"4","last_reported":1713006321,"current_range_meters":1200,"station_id":"ce4bh3p2rcd13ifvqdp0","pricing_plan_id":"cebpf4jnsgd1na2vs0mg"},{"bike_id":"e2a6b740-89b4-4a32-8bc4-3cee6be3d6b0","system_id":"levelo_inurba_marseille","lat":43.33019,"lon":5.39039,"is_reserved":false,"is_disabled":false,"rental_uris":{"android":"levelo://app?vid=e2a6b740-89b4-4a32-8bc4-3cee6be3d6b0","ios":"levelo://app?vid=e2a6b740-89b4-4a32-8bc4-3cee6be3d6b0"},"vehicle_type_id":"4","last_reported":1713006321,"current_range_meters":31200,"station_id":"ce4bhr92rcd13ifvqhrg","pricing_plan_id":"cebpf4jnsgd1na2vs0mg"},{"bike_id":"d916c1c7-2490-4630-98d5-b7e236d617e6","system_id":"levelo_inurba_marseille","lat":43.295169,"lon":5.390426,"is_reserved":false,"is_disabled":false,"rental_uris":{"android":"levelo://app?vid=d916c1c7-2490-4630-98d5-b7e236d617e6","ios":"levelo://app?vid=d916c1c7-2490-4630-98d5-b7e236d617e6"},"vehicle_type_id":"4","last_reported":1713006321,"current_range_meters":12800,"station_id":"ce4bh3p2rcd13ifvqdp0","pricing_plan_id":"cebpf4jnsgd1na2vs0mg"},{"bike_id":"60cbcb3c-c52a-4335-aea2-10b3da9e4bd9","system_id":"levelo_inurba_marseille","lat":43.289741,"lon":5.378306,"is_reserved":false,"is_disabled":false,"rental_uris":{"android":"levelo://app?vid=60cbcb3c-c52a-4335-aea2-10b3da9e4bd9","ios":"levelo://app?vid=60cbcb3c-c52a-4335-aea2-10b3da9e4bd9"},"vehicle_type_id":"4","last_reported":1713006321,"current_range_meters":0,"station_id":"ce4bh9p2rcd13ifvqed0","pricing_plan_id":"cebpf4jnsgd1na2vs0mg"},{"bike_id":"0af539f6-ab12-4274-918b-349bc20c445d","system_id":"levelo_inurba_marseille","lat":43.295169,"lon":5.390426,"is_reserved":false,"is_disabled":false,"rental_uris":{"android":"levelo://app?vid=0af539f6-ab12-4274-918b-349bc20c445d","ios":"levelo://app?vid=0af539f6-ab12-4274-918b-349bc20c445d"},"vehicle_type_id":"4","last_reported":1713006321,"current_range_meters":1600,"station_id":"ce4bh3p2rcd13ifvqdp0","pricing_plan_id":"cebpf4jnsgd1na2vs0mg"},{"bike_id":"36950d4e-11d6-46db-988b-366f9adb8e94","system_id":"levelo_inurba_marseille","lat":43.28856,"lon":5.358371,"is_reserved":false,"is_disabled":false,"rental_uris":{"android":"levelo://app?vid=36950d4e-11d6-46db-988b-366f9adb8e94","ios":"levelo://app?vid=36950d4e-11d6-46db-988b-366f9adb8e94"},"vehicle_type_id":"4","last_reported":1713006321,"current_range_meters":12000,"station_id":"ce4bhb12rcd13ifvqem0","pricing_plan_id":"cebpf4jnsgd1na2vs0mg"},{"bike_id":"0be0cf62-632e-4c9a-bff3-8dd1e501bcbe","system_id":"levelo_inurba_marseille","lat":43.296263,"lon":5.377094,"is_reserved":false,"is_disabled":false,"rental_uris":{"android":"levelo://app?vid=0be0cf62-632e-4c9a-bff3-8dd1e501bcbe","ios":"levelo://app?vid=0be0cf62-632e-4c9a-bff3-8dd1e501bcbe"},"vehicle_type_id":"4","last_reported":1713006321,"current_range_meters":17200,"station_id":"ce4bgi92rcd13ifvqb90","pricing_plan_id":"cebpf4jnsgd1na2vs0mg"},{"bike_id":"111ca911-4ab2-43ec-b70f-d89ce72c240a","system_id":"levelo_inurba_marseille","lat":43.312609,"lon":5.401662,"is_reserved":false,"is_disabled":false,"rental_uris":{"android":"levelo://app?vid=111ca911-4ab2-43ec-b70f-d89ce72c240a","ios":"levelo://app?vid=111ca911-4ab2-43ec-b70f-d89ce72c240a"},"vehicle_type_id":"4","last_reported":1713006321,"current_range_meters":31600,"station_id":"ce4bh092rcd13ifvqd30","pricing_plan_id":"cebpf4jnsgd1na2vs0mg"},{"bike_id":"cf69d69d-58f3-4428-86a0-179c0fb30412","system_id":"levelo_inurba_marseille","lat":43.312863,"lon":5.40176,"is_reserved":false,"is_disabled":false,"rental_uris":{"android":"levelo://app?vid=cf69d69d-58f3-4428-86a0-179c0fb30412","ios":"levelo://app?vid=cf69d69d-58f3-4428-86a0-179c0fb30412"},"vehicle_type_id":"4","last_reported":1713006321,"current_range_meters":0,"station_id":"ce4bh092rcd13ifvqd30","pricing_plan_id":"cebpf4jnsgd1na2vs0mg"},{"bike_id":"d3ea26f4-7d4d-45b7-8172-0133ecd9329b","system_id":"levelo_inurba_marseille","lat":43.337499,"lon":5.374577,"is_reserved":false,"is_disabled":false,"rental_uris":{"android":"levelo://app?vid=d3ea26f4-7d4d-45b7-8172-0133ecd9329b","ios":"levelo://app?vid=d3ea26f4-7d4d-45b7-8172-0133ecd9329b"},"vehicle_type_id":"4","last_reported":1713006321,"current_range_meters":26000,"station_id":"","pricing_plan_id":"cebpf4jnsgd1na2vs0mg"},{"bike_id":"774f6500-6424-427c-8133-e4987961144c","system_id":"levelo_inurba_marseille","lat":43.33754,"lon":5.374806,"is_reserved":false,"is_disabled":false,"rental_uris":{"android":"levelo://app?vid=774f6500-6424-427c-8133-e4987961144c","ios":"levelo://app?vid=774f6500-6424-427c-8133-e4987961144c"},"vehicle_type_id":"4","last_reported":1713006321,"current_range_meters":0,"station_id":"","pricing_plan_id":"cebpf4jnsgd1na2vs0mg"},{"bike_id":"10a970f4-5a71-4e13-9b77-a9b2a847dfdb","system_id":"levelo_inurba_marseille","lat":43.301117,"lon":5.398795,"is_reserved":false,"is_disabled":false,"rental_uris":{"android":"levelo://app?vid=10a970f4-5a71-4e13-9b77-a9b2a847dfdb","ios":"levelo://app?vid=10a970f4-5a71-4e13-9b77-a9b2a847dfdb"},"vehicle_type_id":"4","last_reported":1713006321,"current_range_meters":16800,"station_id":"ce4bh0h2rcd13ifvqd40","pricing_plan_id":"cebpf4jnsgd1na2vs0mg"},{"bike_id":"dfc34693-a0e6-4099-a9cb-ffd6cd1f0e4e","system_id":"levelo_inurba_marseille","lat":43.28727,"lon":5.36078,"is_reserved":false,"is_disabled":false,"rental_uris":{"android":"levelo://app?vid=dfc34693-a0e6-4099-a9cb-ffd6cd1f0e4e","ios":"levelo://app?vid=dfc34693-a0e6-4099-a9cb-ffd6cd1f0e4e"},"vehicle_type_id":"4","last_reported":1713006321,"current_range_meters":26800,"station_id":"cki0cbj6b192h4jlfktg","pricing_plan_id":"cebpf4jnsgd1na2vs0mg"},{"bike_id":"4d81ffc8-86aa-4210-a7e1-b48343a1e190","system_id":"levelo_inurba_marseille","lat":43.28727,"lon":5.36078,"is_reserved":false,"is_disabled":false,"rental_uris":{"android":"levelo://app?vid=4d81ffc8-86aa-4210-a7e1-b48343a1e190","ios":"levelo://app?vid=4d81ffc8-86aa-4210-a7e1-b48343a1e190"},"vehicle_type_id":"4","last_reported":1713006321,"current_range_meters":10400,"station_id":"cki0cbj6b192h4jlfktg","pricing_plan_id":"cebpf4jnsgd1na2vs0mg"},{"bike_id":"473fe9bb-25df-420b-b14c-334bce7bf40d","system_id":"levelo_inurba_marseille","lat":43.286591,"lon":5.363346,"is_reserved":false,"is_disabled":false,"rental_uris":{"android":"levelo://app?vid=473fe9bb-25df-420b-b14c-334bce7bf40d","ios":"levelo://app?vid=473fe9bb-25df-420b-b14c-334bce7bf40d"},"vehicle_type_id":"4","last_reported":1713006321,"current_range_meters":10400,"station_id":"ce4bhah2rcd13ifvqej0","pricing_plan_id":"cebpf4jnsgd1na2vs0mg"},{"bike_id":"8fa83fa5-75dc-4401-892b-c3cfd423a587","system_id":"levelo_inurba_marseille","lat":43.295194,"lon":5.39397,"is_reserved":false,"is_disabled":false,"rental_uris":{"android":"levelo://app?vid=8fa83fa5-75dc-4401-892b-c3cfd423a587","ios":"levelo://app?vid=8fa83fa5-75dc-4401-892b-c3cfd423a587"},"vehicle_type_id":"4","last_reported":1713006321,"current_range_meters":14800,"station_id":"ce4bh292rcd13ifvqdf0","pricing_plan_id":"cebpf4jnsgd1na2vs0mg"},{"bike_id":"75196c8f-bdf5-4208-88b5-a1adf29a5c9d","system_id":"levelo_inurba_marseille","lat":43.309371,"lon":5.401449,"is_reserved":false,"is_disabled":false,"rental_uris":{"android":"levelo://app?vid=75196c8f-bdf5-4208-88b5-a1adf29a5c9d","ios":"levelo://app?vid=75196c8f-bdf5-4208-88b5-a1adf29a5c9d"},"vehicle_type_id":"4","last_reported":1713006321,"current_range_meters":26000,"station_id":"ce4bgvp2rcd13ifvqct0","pricing_plan_id":"cebpf4jnsgd1na2vs0mg"},{"bike_id":"7cf51372-94ca-4240-89ca-da32ccf82823","system_id":"levelo_inurba_marseille","lat":43.302759,"lon":5.400793,"is_reserved":false,"is_disabled":false,"rental_uris":{"android":"levelo://app?vid=7cf51372-94ca-4240-89ca-da32ccf82823","ios":"levelo://app?vid=7cf51372-94ca-4240-89ca-da32ccf82823"},"vehicle_type_id":"4","last_reported":1713006321,"current_range_meters":15600,"station_id":"ce4bgvh2rcd13ifvqcs0","pricing_plan_id":"cebpf4jnsgd1na2vs0mg"},{"bike_id":"236aeeaa-3073-4ec5-8700-56fb821befbf","system_id":"levelo_inurba_marseille","lat":43.286039,"lon":5.370679,"is_reserved":false,"is_disabled":false,"rental_uris":{"android":"levelo://app?vid=236aeeaa-3073-4ec5-8700-56fb821befbf","ios":"levelo://app?vid=236aeeaa-3073-4ec5-8700-56fb821befbf"},"vehicle_type_id":"4","last_reported":1713006321,"current_range_meters":16400,"station_id":"ce4bht12rcd13ifvqi60","pricing_plan_id":"cebpf4jnsgd1na2vs0mg"},{"bike_id":"f2483f87-33a1-4569-a761-a4c7bb787e4c","system_id":"levelo_inurba_marseille","lat":43.302759,"lon":5.400793,"is_reserved":false,"is_disabled":false,"rental_uris":{"android":"levelo://app?vid=f2483f87-33a1-4569-a761-a4c7bb787e4c","ios":"levelo://app?vid=f2483f87-33a1-4569-a761-a4c7bb787e4c"},"vehicle_type_id":"4","last_reported":1713006321,"current_range_meters":28400,"station_id":"ce4bgvh2rcd13ifvqcs0","pricing_plan_id":"cebpf4jnsgd1na2vs0mg"},{"bike_id":"48b75905-24e7-49d8-a9b1-6abbad3a3f00","system_id":"levelo_inurba_marseille","lat":43.286039,"lon":5.370681,"is_reserved":false,"is_disabled":false,"rental_uris":{"android":"levelo://app?vid=48b75905-24e7-49d8-a9b1-6abbad3a3f00","ios":"levelo://app?vid=48b75905-24e7-49d8-a9b1-6abbad3a3f00"},"vehicle_type_id":"4","last_reported":1713006321,"current_range_meters":15200,"station_id":"ce4bht12rcd13ifvqi60","pricing_plan_id":"cebpf4jnsgd1na2vs0mg"},{"bike_id":"47797cb9-48c4-4ba3-b169-8519fb086a20","system_id":"levelo_inurba_marseille","lat":43.286039,"lon":5.370679,"is_reserved":false,"is_disabled":false,"rental_uris":{"android":"levelo://app?vid=47797cb9-48c4-4ba3-b169-8519fb086a20","ios":"levelo://app?vid=47797cb9-48c4-4ba3-b169-8519fb086a20"},"vehicle_type_id":"4","last_reported":1713006321,"current_range_meters":27600,"station_id":"ce4bht12rcd13ifvqi60","pricing_plan_id":"cebpf4jnsgd1na2vs0mg"},{"bike_id":"e2ca4275-b96f-4500-9c4d-eba1c894cbf5","system_id":"levelo_inurba_marseille","lat":43.286039,"lon":5.370681,"is_reserved":false,"is_disabled":false,"rental_uris":{"android":"levelo://app?vid=e2ca4275-b96f-4500-9c4d-eba1c894cbf5","ios":"levelo://app?vid=e2ca4275-b96f-4500-9c4d-eba1c894cbf5"},"vehicle_type_id":"4","last_reported":1713006321,"current_range_meters":9600,"station_id":"ce4bht12rcd13ifvqi60","pricing_plan_id":"cebpf4jnsgd1na2vs0mg"},{"bike_id":"d10b2470-227f-4af9-91d8-bebf51609b73","system_id":"levelo_inurba_marseille","lat":43.286039,"lon":5.370681,"is_reserved":false,"is_disabled":false,"rental_uris":{"android":"levelo://app?vid=d10b2470-227f-4af9-91d8-bebf51609b73","ios":"levelo://app?vid=d10b2470-227f-4af9-91d8-bebf51609b73"},"vehicle_type_id":"4","last_reported":1713006321,"current_range_meters":8400,"station_id":"ce4bht12rcd13ifvqi60","pricing_plan_id":"cebpf4jnsgd1na2vs0mg"},{"bike_id":"8be32b63-b00d-426f-9067-24aba2d85aab","system_id":"levelo_inurba_marseille","lat":43.287185,"lon":5.379373,"is_reserved":false,"is_disabled":false,"rental_uris":{"android":"levelo://app?vid=8be32b63-b00d-426f-9067-24aba2d85aab","ios":"levelo://app?vid=8be32b63-b00d-426f-9067-24aba2d85aab"},"vehicle_type_id":"4","last_reported":1713006321,"current_range_meters":5600,"station_id":"ce4bh9p2rcd13ifvqec0","pricing_plan_id":"cebpf4jnsgd1na2vs0mg"},{"bike_id":"95372f4d-7a15-4d1a-ba83-365c09ad1de2","system_id":"levelo_inurba_marseille","lat":43.287185,"lon":5.379373,"is_reserved":false,"is_disabled":false,"rental_uris":{"android":"levelo://app?vid=95372f4d-7a15-4d1a-ba83-365c09ad1de2","ios":"levelo://app?vid=95372f4d-7a15-4d1a-ba83-365c09ad1de2"},"vehicle_type_id":"4","last_reported":1713006321,"current_range_meters":0,"station_id":"ce4bh9p2rcd13ifvqec0","pricing_plan_id":"cebpf4jnsgd1na2vs0mg"},{"bike_id":"5b408d00-bdfd-4a67-9d5e-e3566d9df031","system_id":"levelo_inurba_marseille","lat":43.302759,"lon":5.400793,"is_reserved":false,"is_disabled":false,"rental_uris":{"android":"levelo://app?vid=5b408d00-bdfd-4a67-9d5e-e3566d9df031","ios":"levelo://app?vid=5b408d00-bdfd-4a67-9d5e-e3566d9df031"},"vehicle_type_id":"4","last_reported":1713006321,"current_range_meters":24800,"station_id":"ce4bgvh2rcd13ifvqcs0","pricing_plan_id":"cebpf4jnsgd1na2vs0mg"},{"bike_id":"3b17df3c-69f7-4783-9392-9485e3d25349","system_id":"levelo_inurba_marseille","lat":43.29041,"lon":5.38937,"is_reserved":false,"is_disabled":false,"rental_uris":{"android":"levelo://app?vid=3b17df3c-69f7-4783-9392-9485e3d25349","ios":"levelo://app?vid=3b17df3c-69f7-4783-9392-9485e3d25349"},"vehicle_type_id":"4","last_reported":1713006321,"current_range_meters":13200,"station_id":"ce4bhbp2rcd13ifvqerg","pricing_plan_id":"cebpf4jnsgd1na2vs0mg"},{"bike_id":"58a8b7b4-d7f1-4485-96c2-45951bdc75d2","system_id":"levelo_inurba_marseille","lat":43.31691,"lon":5.4047,"is_reserved":false,"is_disabled":false,"rental_uris":{"android":"levelo://app?vid=58a8b7b4-d7f1-4485-96c2-45951bdc75d2","ios":"levelo://app?vid=58a8b7b4-d7f1-4485-96c2-45951bdc75d2"},"vehicle_type_id":"4","last_reported":1713006321,"current_range_meters":6000,"station_id":"ce4bh012rcd13ifvqd00","pricing_plan_id":"cebpf4jnsgd1na2vs0mg"},{"bike_id":"deadc4b5-6386-49a1-8ff1-5fe37095b89c","system_id":"levelo_inurba_marseille","lat":43.286875,"lon":5.351755,"is_reserved":false,"is_disabled":false,"rental_uris":{"android":"levelo://app?vid=deadc4b5-6386-49a1-8ff1-5fe37095b89c","ios":"levelo://app?vid=deadc4b5-6386-49a1-8ff1-5fe37095b89c"},"vehicle_type_id":"4","last_reported":1713006321,"current_range_meters":19200,"station_id":"ce4bhch2rcd13ifvqeug","pricing_plan_id":"cebpf4jnsgd1na2vs0mg"},{"bike_id":"9e5f892d-60d4-4148-8f2e-a06590b5ec4f","system_id":"levelo_inurba_marseille","lat":43.291994,"lon":5.392907,"is_reserved":false,"is_disabled":false,"rental_uris":{"android":"levelo://app?vid=9e5f892d-60d4-4148-8f2e-a06590b5ec4f","ios":"levelo://app?vid=9e5f892d-60d4-4148-8f2e-a06590b5ec4f"},"vehicle_type_id":"4","last_reported":1713006321,"current_range_meters":29600,"station_id":"ce4bh192rcd13ifvqdd0","pricing_plan_id":"cebpf4jnsgd1na2vs0mg"},{"bike_id":"68a760ad-01c9-4cc6-bc52-55225a4834b3","system_id":"levelo_inurba_marseille","lat":43.293009,"lon":5.374584,"is_reserved":false,"is_disabled":false,"rental_uris":{"android":"levelo://app?vid=68a760ad-01c9-4cc6-bc52-55225a4834b3","ios":"levelo://app?vid=68a760ad-01c9-4cc6-bc52-55225a4834b3"},"vehicle_type_id":"4","last_reported":1713006321,"current_range_meters":4400,"station_id":"ce4bgi12rcd13ifvqb70","pricing_plan_id":"cebpf4jnsgd1na2vs0mg"},{"bike_id":"51d45a9c-b752-4d2d-86fb-b6287eea28c2","system_id":"levelo_inurba_marseille","lat":43.291994,"lon":5.392907,"is_reserved":false,"is_disabled":false,"rental_uris":{"android":"levelo://app?vid=51d45a9c-b752-4d2d-86fb-b6287eea28c2","ios":"levelo://app?vid=51d45a9c-b752-4d2d-86fb-b6287eea28c2"},"vehicle_type_id":"4","last_reported":1713006321,"current_range_meters":10800,"station_id":"ce4bh192rcd13ifvqdd0","pricing_plan_id":"cebpf4jnsgd1na2vs0mg"},{"bike_id":"fe8788fc-0632-4c0c-bdcf-c79112420b76","system_id":"levelo_inurba_marseille","lat":43.284538,"lon":5.358657,"is_reserved":false,"is_disabled":false,"rental_uris":{"android":"levelo://app?vid=fe8788fc-0632-4c0c-bdcf-c79112420b76","ios":"levelo://app?vid=fe8788fc-0632-4c0c-bdcf-c79112420b76"},"vehicle_type_id":"4","last_reported":1713006321,"current_range_meters":30000,"station_id":"ce4bhah2rcd13ifvqei0","pricing_plan_id":"cebpf4jnsgd1na2vs0mg"},{"bike_id":"89f66b3a-84e2-4f23-8570-6665637f76a8","system_id":"levelo_inurba_marseille","lat":43.284538,"lon":5.358657,"is_reserved":false,"is_disabled":false,"rental_uris":{"android":"levelo://app?vid=89f66b3a-84e2-4f23-8570-6665637f76a8","ios":"levelo://app?vid=89f66b3a-84e2-4f23-8570-6665637f76a8"},"vehicle_type_id":"4","last_reported":1713006321,"current_range_meters":0,"station_id":"ce4bhah2rcd13ifvqei0","pricing_plan_id":"cebpf4jnsgd1na2vs0mg"},{"bike_id":"75e5c6f8-c322-4343-b14b-fa2a7b2affdf","system_id":"levelo_inurba_marseille","lat":43.284538,"lon":5.358657,"is_reserved":false,"is_disabled":false,"rental_uris":{"android":"levelo://app?vid=75e5c6f8-c322-4343-b14b-fa2a7b2affdf","ios":"levelo://app?vid=75e5c6f8-c322-4343-b14b-fa2a7b2affdf"},"vehicle_type_id":"4","last_reported":1713006321,"current_range_meters":24400,"station_id":"ce4bhah2rcd13ifvqei0","pricing_plan_id":"cebpf4jnsgd1na2vs0mg"},{"bike_id":"e3e47d49-27ae-4442-8206-726760315db4","system_id":"levelo_inurba_marseille","lat":43.284217,"lon":5.349697,"is_reserved":false,"is_disabled":false,"rental_uris":{"android":"levelo://app?vid=e3e47d49-27ae-4442-8206-726760315db4","ios":"levelo://app?vid=e3e47d49-27ae-4442-8206-726760315db4"},"vehicle_type_id":"4","last_reported":1713006321,"current_range_meters":26400,"station_id":"ce4bhbh2rcd13ifvqepg","pricing_plan_id":"cebpf4jnsgd1na2vs0mg"},{"bike_id":"80b653eb-2241-4b9b-9f91-c89ad7e84cc6","system_id":"levelo_inurba_marseille","lat":43.298037,"lon":5.381066,"is_reserved":false,"is_disabled":false,"rental_uris":{"android":"levelo://app?vid=80b653eb-2241-4b9b-9f91-c89ad7e84cc6","ios":"levelo://app?vid=80b653eb-2241-4b9b-9f91-c89ad7e84cc6"},"vehicle_type_id":"4","last_reported":1713006321,"current_range_meters":24800,"station_id":"ce4bgip2rcd13ifvqbb0","pricing_plan_id":"cebpf4jnsgd1na2vs0mg"},{"bike_id":"50796890-ef55-4506-98a4-5a8967302fb2","system_id":"levelo_inurba_marseille","lat":43.28622,"lon":5.3511,"is_reserved":false,"is_disabled":false,"rental_uris":{"android":"levelo://app?vid=50796890-ef55-4506-98a4-5a8967302fb2","ios":"levelo://app?vid=50796890-ef55-4506-98a4-5a8967302fb2"},"vehicle_type_id":"4","last_reported":1713006321,"current_range_meters":29200,"station_id":"ce4bhch2rcd13ifvqeug","pricing_plan_id":"cebpf4jnsgd1na2vs0mg"},{"bike_id":"70ce1eb1-9c4b-4063-8a66-66fd1575de4f","system_id":"levelo_inurba_marseille","lat":43.28619,"lon":5.35111,"is_reserved":false,"is_disabled":false,"rental_uris":{"android":"levelo://app?vid=70ce1eb1-9c4b-4063-8a66-66fd1575de4f","ios":"levelo://app?vid=70ce1eb1-9c4b-4063-8a66-66fd1575de4f"},"vehicle_type_id":"4","last_reported":1713006321,"current_range_meters":0,"station_id":"ce4bhch2rcd13ifvqeug","pricing_plan_id":"cebpf4jnsgd1na2vs0mg"},{"bike_id":"c22d795d-d323-47ce-866f-9285341f5f25","system_id":"levelo_inurba_marseille","lat":43.294314,"lon":5.397498,"is_reserved":false,"is_disabled":false,"rental_uris":{"android":"levelo://app?vid=c22d795d-d323-47ce-866f-9285341f5f25","ios":"levelo://app?vid=c22d795d-d323-47ce-866f-9285341f5f25"},"vehicle_type_id":"4","last_reported":1713006321,"current_range_meters":23200,"station_id":"ce4bh3h2rcd13ifvqdo0","pricing_plan_id":"cebpf4jnsgd1na2vs0mg"},{"bike_id":"90f1be9a-fb6c-4b75-b4d0-757893ff4c12","system_id":"levelo_inurba_marseille","lat":43.28621,"lon":5.35101,"is_reserved":false,"is_disabled":false,"rental_uris":{"android":"levelo://app?vid=90f1be9a-fb6c-4b75-b4d0-757893ff4c12","ios":"levelo://app?vid=90f1be9a-fb6c-4b75-b4d0-757893ff4c12"},"vehicle_type_id":"4","last_reported":1713006321,"current_range_meters":19600,"station_id":"ce4bhch2rcd13ifvqeug","pricing_plan_id":"cebpf4jnsgd1na2vs0mg"},{"bike_id":"06a1ba1b-792f-47be-b962-0f3092dd02a4","system_id":"levelo_inurba_marseille","lat":43.28618,"lon":5.35107,"is_reserved":false,"is_disabled":false,"rental_uris":{"android":"levelo://app?vid=06a1ba1b-792f-47be-b962-0f3092dd02a4","ios":"levelo://app?vid=06a1ba1b-792f-47be-b962-0f3092dd02a4"},"vehicle_type_id":"4","last_reported":1713006321,"current_range_meters":10400,"station_id":"ce4bhch2rcd13ifvqeug","pricing_plan_id":"cebpf4jnsgd1na2vs0mg"},{"bike_id":"1d9544cc-0817-4a81-a9b5-e4aca6c83410","system_id":"levelo_inurba_marseille","lat":43.2862,"lon":5.351,"is_reserved":false,"is_disabled":false,"rental_uris":{"android":"levelo://app?vid=1d9544cc-0817-4a81-a9b5-e4aca6c83410","ios":"levelo://app?vid=1d9544cc-0817-4a81-a9b5-e4aca6c83410"},"vehicle_type_id":"4","last_reported":1713006321,"current_range_meters":26400,"station_id":"ce4bhch2rcd13ifvqeug","pricing_plan_id":"cebpf4jnsgd1na2vs0mg"},{"bike_id":"cf299e30-bb7b-48eb-b5bf-806bcdbb29d8","system_id":"levelo_inurba_marseille","lat":43.28616,"lon":5.35111,"is_reserved":false,"is_disabled":false,"rental_uris":{"android":"levelo://app?vid=cf299e30-bb7b-48eb-b5bf-806bcdbb29d8","ios":"levelo://app?vid=cf299e30-bb7b-48eb-b5bf-806bcdbb29d8"},"vehicle_type_id":"4","last_reported":1713006321,"current_range_meters":13200,"station_id":"ce4bhch2rcd13ifvqeug","pricing_plan_id":"cebpf4jnsgd1na2vs0mg"},{"bike_id":"94e3cb81-012a-4875-bb5c-e81b0846b437","system_id":"levelo_inurba_marseille","lat":43.28616,"lon":5.3511,"is_reserved":false,"is_disabled":false,"rental_uris":{"android":"levelo://app?vid=94e3cb81-012a-4875-bb5c-e81b0846b437","ios":"levelo://app?vid=94e3cb81-012a-4875-bb5c-e81b0846b437"},"vehicle_type_id":"4","last_reported":1713006321,"current_range_meters":26400,"station_id":"ce4bhch2rcd13ifvqeug","pricing_plan_id":"cebpf4jnsgd1na2vs0mg"},{"bike_id":"2b5ff7f6-82e3-436d-ba92-c212f139c310","system_id":"levelo_inurba_marseille","lat":43.28615,"lon":5.3511,"is_reserved":false,"is_disabled":false,"rental_uris":{"android":"levelo://app?vid=2b5ff7f6-82e3-436d-ba92-c212f139c310","ios":"levelo://app?vid=2b5ff7f6-82e3-436d-ba92-c212f139c310"},"vehicle_type_id":"4","last_reported":1713006321,"current_range_meters":16800,"station_id":"ce4bhch2rcd13ifvqeug","pricing_plan_id":"cebpf4jnsgd1na2vs0mg"},{"bike_id":"58d4be0e-0a71-4665-a64a-80ab3211ce3d","system_id":"levelo_inurba_marseille","lat":43.28615,"lon":5.35109,"is_reserved":false,"is_disabled":false,"rental_uris":{"android":"levelo://app?vid=58d4be0e-0a71-4665-a64a-80ab3211ce3d","ios":"levelo://app?vid=58d4be0e-0a71-4665-a64a-80ab3211ce3d"},"vehicle_type_id":"4","last_reported":1713006321,"current_range_meters":27600,"station_id":"ce4bhch2rcd13ifvqeug","pricing_plan_id":"cebpf4jnsgd1na2vs0mg"},{"bike_id":"008e6a37-2e35-4a6d-b923-2c96aa04fbb4","system_id":"levelo_inurba_marseille","lat":43.28614,"lon":5.35108,"is_reserved":false,"is_disabled":false,"rental_uris":{"android":"levelo://app?vid=008e6a37-2e35-4a6d-b923-2c96aa04fbb4","ios":"levelo://app?vid=008e6a37-2e35-4a6d-b923-2c96aa04fbb4"},"vehicle_type_id":"4","last_reported":1713006321,"current_range_meters":0,"station_id":"ce4bhch2rcd13ifvqeug","pricing_plan_id":"cebpf4jnsgd1na2vs0mg"},{"bike_id":"3a480ddb-ee4c-4b9d-b703-0a215a8b5f4c","system_id":"levelo_inurba_marseille","lat":43.28616,"lon":5.351,"is_reserved":false,"is_disabled":false,"rental_uris":{"android":"levelo://app?vid=3a480ddb-ee4c-4b9d-b703-0a215a8b5f4c","ios":"levelo://app?vid=3a480ddb-ee4c-4b9d-b703-0a215a8b5f4c"},"vehicle_type_id":"4","last_reported":1713006321,"current_range_meters":22400,"station_id":"ce4bhch2rcd13ifvqeug","pricing_plan_id":"cebpf4jnsgd1na2vs0mg"},{"bike_id":"96d7966d-e786-4b2a-a529-2b2a018ba586","system_id":"levelo_inurba_marseille","lat":43.28615,"lon":5.35103,"is_reserved":false,"is_disabled":false,"rental_uris":{"android":"levelo://app?vid=96d7966d-e786-4b2a-a529-2b2a018ba586","ios":"levelo://app?vid=96d7966d-e786-4b2a-a529-2b2a018ba586"},"vehicle_type_id":"4","last_reported":1713006321,"current_range_meters":24800,"station_id":"ce4bhch2rcd13ifvqeug","pricing_plan_id":"cebpf4jnsgd1na2vs0mg"},{"bike_id":"ec361d13-ddcb-4c77-9243-da2e01975ab8","system_id":"levelo_inurba_marseille","lat":43.285848,"lon":5.350787,"is_reserved":false,"is_disabled":false,"rental_uris":{"android":"levelo://app?vid=ec361d13-ddcb-4c77-9243-da2e01975ab8","ios":"levelo://app?vid=ec361d13-ddcb-4c77-9243-da2e01975ab8"},"vehicle_type_id":"4","last_reported":1713006321,"current_range_meters":31200,"station_id":"ce4bhch2rcd13ifvqeug","pricing_plan_id":"cebpf4jnsgd1na2vs0mg"},{"bike_id":"e2ae832b-3787-480e-8128-88ec8cce5d23","system_id":"levelo_inurba_marseille","lat":43.28614,"lon":5.35105,"is_reserved":false,"is_disabled":false,"rental_uris":{"android":"levelo://app?vid=e2ae832b-3787-480e-8128-88ec8cce5d23","ios":"levelo://app?vid=e2ae832b-3787-480e-8128-88ec8cce5d23"},"vehicle_type_id":"4","last_reported":1713006321,"current_range_meters":18800,"station_id":"ce4bhch2rcd13ifvqeug","pricing_plan_id":"cebpf4jnsgd1na2vs0mg"},{"bike_id":"a415a34a-b8db-4d44-864c-68b3123f5cfc","system_id":"levelo_inurba_marseille","lat":43.28614,"lon":5.35104,"is_reserved":false,"is_disabled":false,"rental_uris":{"android":"levelo://app?vid=a415a34a-b8db-4d44-864c-68b3123f5cfc","ios":"levelo://app?vid=a415a34a-b8db-4d44-864c-68b3123f5cfc"},"vehicle_type_id":"4","last_reported":1713006321,"current_range_meters":18800,"station_id":"ce4bhch2rcd13ifvqeug","pricing_plan_id":"cebpf4jnsgd1na2vs0mg"},{"bike_id":"08753d02-1634-4ff0-8a03-a49579df3b38","system_id":"levelo_inurba_marseille","lat":43.28613,"lon":5.35106,"is_reserved":false,"is_disabled":false,"rental_uris":{"android":"levelo://app?vid=08753d02-1634-4ff0-8a03-a49579df3b38","ios":"levelo://app?vid=08753d02-1634-4ff0-8a03-a49579df3b38"},"vehicle_type_id":"4","last_reported":1713006321,"current_range_meters":22000,"station_id":"ce4bhch2rcd13ifvqeug","pricing_plan_id":"cebpf4jnsgd1na2vs0mg"},{"bike_id":"bdd78db0-fd7d-4d3f-8324-f61493dd2a1c","system_id":"levelo_inurba_marseille","lat":43.28614,"lon":5.35102,"is_reserved":false,"is_disabled":false,"rental_uris":{"android":"levelo://app?vid=bdd78db0-fd7d-4d3f-8324-f61493dd2a1c","ios":"levelo://app?vid=bdd78db0-fd7d-4d3f-8324-f61493dd2a1c"},"vehicle_type_id":"4","last_reported":1713006321,"current_range_meters":16800,"station_id":"ce4bhch2rcd13ifvqeug","pricing_plan_id":"cebpf4jnsgd1na2vs0mg"},{"bike_id":"03b0c6eb-1b5b-4df3-b523-587918a676d0","system_id":"levelo_inurba_marseille","lat":43.28615,"lon":5.35098,"is_reserved":false,"is_disabled":false,"rental_uris":{"android":"levelo://app?vid=03b0c6eb-1b5b-4df3-b523-587918a676d0","ios":"levelo://app?vid=03b0c6eb-1b5b-4df3-b523-587918a676d0"},"vehicle_type_id":"4","last_reported":1713006321,"current_range_meters":9600,"station_id":"ce4bhch2rcd13ifvqeug","pricing_plan_id":"cebpf4jnsgd1na2vs0mg"},{"bike_id":"98884514-9a15-430d-9dab-edc65e0c5439","system_id":"levelo_inurba_marseille","lat":43.28614,"lon":5.35101,"is_reserved":false,"is_disabled":false,"rental_uris":{"android":"levelo://app?vid=98884514-9a15-430d-9dab-edc65e0c5439","ios":"levelo://app?vid=98884514-9a15-430d-9dab-edc65e0c5439"},"vehicle_type_id":"4","last_reported":1713006321,"current_range_meters":16400,"station_id":"ce4bhch2rcd13ifvqeug","pricing_plan_id":"cebpf4jnsgd1na2vs0mg"},{"bike_id":"fabc0c67-6d99-4612-a383-8bdc2b75edbd","system_id":"levelo_inurba_marseille","lat":43.28613,"lon":5.35097,"is_reserved":false,"is_disabled":false,"rental_uris":{"android":"levelo://app?vid=fabc0c67-6d99-4612-a383-8bdc2b75edbd","ios":"levelo://app?vid=fabc0c67-6d99-4612-a383-8bdc2b75edbd"},"vehicle_type_id":"4","last_reported":1713006321,"current_range_meters":0,"station_id":"ce4bhch2rcd13ifvqeug","pricing_plan_id":"cebpf4jnsgd1na2vs0mg"},{"bike_id":"243177a4-5c14-4592-a746-d5a2fcb8f72b","system_id":"levelo_inurba_marseille","lat":43.28612,"lon":5.35098,"is_reserved":false,"is_disabled":false,"rental_uris":{"android":"levelo://app?vid=243177a4-5c14-4592-a746-d5a2fcb8f72b","ios":"levelo://app?vid=243177a4-5c14-4592-a746-d5a2fcb8f72b"},"vehicle_type_id":"4","last_reported":1713006321,"current_range_meters":4000,"station_id":"ce4bhch2rcd13ifvqeug","pricing_plan_id":"cebpf4jnsgd1na2vs0mg"},{"bike_id":"52e3046e-4ec9-49cf-9613-11a0e9b901d3","system_id":"levelo_inurba_marseille","lat":43.286078,"lon":5.351089,"is_reserved":false,"is_disabled":false,"rental_uris":{"android":"levelo://app?vid=52e3046e-4ec9-49cf-9613-11a0e9b901d3","ios":"levelo://app?vid=52e3046e-4ec9-49cf-9613-11a0e9b901d3"},"vehicle_type_id":"4","last_reported":1713006321,"current_range_meters":31200,"station_id":"ce4bhch2rcd13ifvqeug","pricing_plan_id":"cebpf4jnsgd1na2vs0mg"},{"bike_id":"1d997641-25e3-48f7-8b15-1192857056f4","system_id":"levelo_inurba_marseille","lat":43.28608,"lon":5.35106,"is_reserved":false,"is_disabled":false,"rental_uris":{"android":"levelo://app?vid=1d997641-25e3-48f7-8b15-1192857056f4","ios":"levelo://app?vid=1d997641-25e3-48f7-8b15-1192857056f4"},"vehicle_type_id":"4","last_reported":1713006321,"current_range_meters":12000,"station_id":"ce4bhch2rcd13ifvqeug","pricing_plan_id":"cebpf4jnsgd1na2vs0mg"},{"bike_id":"702a2e0f-ee4b-4ef9-bfdf-e151ddfb3cbd","system_id":"levelo_inurba_marseille","lat":43.286099,"lon":5.350991,"is_reserved":false,"is_disabled":false,"rental_uris":{"android":"levelo://app?vid=702a2e0f-ee4b-4ef9-bfdf-e151ddfb3cbd","ios":"levelo://app?vid=702a2e0f-ee4b-4ef9-bfdf-e151ddfb3cbd"},"vehicle_type_id":"4","last_reported":1713006321,"current_range_meters":3200,"station_id":"ce4bhch2rcd13ifvqeug","pricing_plan_id":"cebpf4jnsgd1na2vs0mg"},{"bike_id":"efc9ec35-7851-4a15-8343-3a0dd58b2000","system_id":"levelo_inurba_marseille","lat":43.285856,"lon":5.350771,"is_reserved":false,"is_disabled":false,"rental_uris":{"android":"levelo://app?vid=efc9ec35-7851-4a15-8343-3a0dd58b2000","ios":"levelo://app?vid=efc9ec35-7851-4a15-8343-3a0dd58b2000"},"vehicle_type_id":"4","last_reported":1713006321,"current_range_meters":22400,"station_id":"ce4bhch2rcd13ifvqeug","pricing_plan_id":"cebpf4jnsgd1na2vs0mg"},{"bike_id":"5f18cb3a-bba7-492b-8bf2-89b1abb457ba","system_id":"levelo_inurba_marseille","lat":43.286595,"lon":5.386795,"is_reserved":false,"is_disabled":false,"rental_uris":{"android":"levelo://app?vid=5f18cb3a-bba7-492b-8bf2-89b1abb457ba","ios":"levelo://app?vid=5f18cb3a-bba7-492b-8bf2-89b1abb457ba"},"vehicle_type_id":"4","last_reported":1713006321,"current_range_meters":17600,"station_id":"ce4bh492rcd13ifvqdug","pricing_plan_id":"cebpf4jnsgd1na2vs0mg"},{"bike_id":"e9a2b7a6-2175-496d-a818-b872c4f05be4","system_id":"levelo_inurba_marseille","lat":43.28528,"lon":5.38383,"is_reserved":false,"is_disabled":false,"rental_uris":{"android":"levelo://app?vid=e9a2b7a6-2175-496d-a818-b872c4f05be4","ios":"levelo://app?vid=e9a2b7a6-2175-496d-a818-b872c4f05be4"},"vehicle_type_id":"4","last_reported":1713006321,"current_range_meters":14400,"station_id":"","pricing_plan_id":"cebpf4jnsgd1na2vs0mg"},{"bike_id":"21f73696-4c4f-40fe-b8e8-7048394cb6a2","system_id":"levelo_inurba_marseille","lat":43.337163,"lon":5.39181,"is_reserved":false,"is_disabled":false,"rental_uris":{"android":"levelo://app?vid=21f73696-4c4f-40fe-b8e8-7048394cb6a2","ios":"levelo://app?vid=21f73696-4c4f-40fe-b8e8-7048394cb6a2"},"vehicle_type_id":"4","last_reported":1713006321,"current_range_meters":10800,"station_id":"ce4bhr92rcd13ifvqhsg","pricing_plan_id":"cebpf4jnsgd1na2vs0mg"},{"bike_id":"5ff9c081-5ce3-4b73-a561-fc37bee356b3","system_id":"levelo_inurba_marseille","lat":43.33722,"lon":5.39177,"is_reserved":false,"is_disabled":false,"rental_uris":{"android":"levelo://app?vid=5ff9c081-5ce3-4b73-a561-fc37bee356b3","ios":"levelo://app?vid=5ff9c081-5ce3-4b73-a561-fc37bee356b3"},"vehicle_type_id":"4","last_reported":1713006321,"current_range_meters":21600,"station_id":"ce4bhr92rcd13ifvqhsg","pricing_plan_id":"cebpf4jnsgd1na2vs0mg"},{"bike_id":"48768494-ea7e-4fd0-a730-d33b81b8d18f","system_id":"levelo_inurba_marseille","lat":43.33717,"lon":5.391857,"is_reserved":false,"is_disabled":false,"rental_uris":{"android":"levelo://app?vid=48768494-ea7e-4fd0-a730-d33b81b8d18f","ios":"levelo://app?vid=48768494-ea7e-4fd0-a730-d33b81b8d18f"},"vehicle_type_id":"4","last_reported":1713006321,"current_range_meters":29600,"station_id":"ce4bhr92rcd13ifvqhsg","pricing_plan_id":"cebpf4jnsgd1na2vs0mg"},{"bike_id":"494b8c86-fd7c-4152-951e-41536c8e8b41","system_id":"levelo_inurba_marseille","lat":43.337168,"lon":5.391825,"is_reserved":false,"is_disabled":false,"rental_uris":{"android":"levelo://app?vid=494b8c86-fd7c-4152-951e-41536c8e8b41","ios":"levelo://app?vid=494b8c86-fd7c-4152-951e-41536c8e8b41"},"vehicle_type_id":"4","last_reported":1713006321,"current_range_meters":32000,"station_id":"ce4bhr92rcd13ifvqhsg","pricing_plan_id":"cebpf4jnsgd1na2vs0mg"},{"bike_id":"d3d900d6-93e2-4c8c-9212-40e7b67ddede","system_id":"levelo_inurba_marseille","lat":43.32338,"lon":5.40615,"is_reserved":false,"is_disabled":false,"rental_uris":{"android":"levelo://app?vid=d3d900d6-93e2-4c8c-9212-40e7b67ddede","ios":"levelo://app?vid=d3d900d6-93e2-4c8c-9212-40e7b67ddede"},"vehicle_type_id":"4","last_reported":1713006321,"current_range_meters":0,"station_id":"ce4bhq92rcd13ifvqhjg","pricing_plan_id":"cebpf4jnsgd1na2vs0mg"},{"bike_id":"c8e5d4e6-8c32-493a-b590-ab337f951482","system_id":"levelo_inurba_marseille","lat":43.337168,"lon":5.391825,"is_reserved":false,"is_disabled":false,"rental_uris":{"android":"levelo://app?vid=c8e5d4e6-8c32-493a-b590-ab337f951482","ios":"levelo://app?vid=c8e5d4e6-8c32-493a-b590-ab337f951482"},"vehicle_type_id":"4","last_reported":1713006321,"current_range_meters":15200,"station_id":"ce4bhr92rcd13ifvqhsg","pricing_plan_id":"cebpf4jnsgd1na2vs0mg"},{"bike_id":"4231e44f-6e64-47d9-802b-1946e9c53ecf","system_id":"levelo_inurba_marseille","lat":43.32532,"lon":5.40558,"is_reserved":false,"is_disabled":false,"rental_uris":{"android":"levelo://app?vid=4231e44f-6e64-47d9-802b-1946e9c53ecf","ios":"levelo://app?vid=4231e44f-6e64-47d9-802b-1946e9c53ecf"},"vehicle_type_id":"4","last_reported":1713006321,"current_range_meters":5600,"station_id":"","pricing_plan_id":"cebpf4jnsgd1na2vs0mg"},{"bike_id":"d9ca1156-ced6-4c3a-8439-a241fabfb770","system_id":"levelo_inurba_marseille","lat":43.32533,"lon":5.40562,"is_reserved":false,"is_disabled":false,"rental_uris":{"android":"levelo://app?vid=d9ca1156-ced6-4c3a-8439-a241fabfb770","ios":"levelo://app?vid=d9ca1156-ced6-4c3a-8439-a241fabfb770"},"vehicle_type_id":"4","last_reported":1713006321,"current_range_meters":9600,"station_id":"","pricing_plan_id":"cebpf4jnsgd1na2vs0mg"},{"bike_id":"16354239-de35-43ca-875c-92bb4a5ace82","system_id":"levelo_inurba_marseille","lat":43.32534,"lon":5.40567,"is_reserved":false,"is_disabled":false,"rental_uris":{"android":"levelo://app?vid=16354239-de35-43ca-875c-92bb4a5ace82","ios":"levelo://app?vid=16354239-de35-43ca-875c-92bb4a5ace82"},"vehicle_type_id":"4","last_reported":1713006321,"current_range_meters":24800,"station_id":"","pricing_plan_id":"cebpf4jnsgd1na2vs0mg"},{"bike_id":"8c0a1a38-9047-4afd-b28f-8d565cf0c498","system_id":"levelo_inurba_marseille","lat":43.288497,"lon":5.393089,"is_reserved":false,"is_disabled":false,"rental_uris":{"android":"levelo://app?vid=8c0a1a38-9047-4afd-b28f-8d565cf0c498","ios":"levelo://app?vid=8c0a1a38-9047-4afd-b28f-8d565cf0c498"},"vehicle_type_id":"4","last_reported":1713006321,"current_range_meters":10000,"station_id":"ce4bh2p2rcd13ifvqdi0","pricing_plan_id":"cebpf4jnsgd1na2vs0mg"},{"bike_id":"d98de919-3898-4e64-8c1f-f6c7b53a3ea5","system_id":"levelo_inurba_marseille","lat":43.284214,"lon":5.349706,"is_reserved":false,"is_disabled":false,"rental_uris":{"android":"levelo://app?vid=d98de919-3898-4e64-8c1f-f6c7b53a3ea5","ios":"levelo://app?vid=d98de919-3898-4e64-8c1f-f6c7b53a3ea5"},"vehicle_type_id":"4","last_reported":1713006321,"current_range_meters":22000,"station_id":"ce4bhbh2rcd13ifvqepg","pricing_plan_id":"cebpf4jnsgd1na2vs0mg"},{"bike_id":"ecf7b19d-cc86-415a-957f-8aeebe0b55f1","system_id":"levelo_inurba_marseille","lat":43.283494,"lon":5.380945,"is_reserved":false,"is_disabled":false,"rental_uris":{"android":"levelo://app?vid=ecf7b19d-cc86-415a-957f-8aeebe0b55f1","ios":"levelo://app?vid=ecf7b19d-cc86-415a-957f-8aeebe0b55f1"},"vehicle_type_id":"4","last_reported":1713006321,"current_range_meters":13600,"station_id":"ce4bh412rcd13ifvqdr0","pricing_plan_id":"cebpf4jnsgd1na2vs0mg"},{"bike_id":"472dcc7b-43d9-4626-b4d9-a1b1b2a77731","system_id":"levelo_inurba_marseille","lat":43.284414,"lon":5.349727,"is_reserved":false,"is_disabled":false,"rental_uris":{"android":"levelo://app?vid=472dcc7b-43d9-4626-b4d9-a1b1b2a77731","ios":"levelo://app?vid=472dcc7b-43d9-4626-b4d9-a1b1b2a77731"},"vehicle_type_id":"4","last_reported":1713006321,"current_range_meters":7200,"station_id":"ce4bhbp2rcd13ifvqerg","pricing_plan_id":"cebpf4jnsgd1na2vs0mg"},{"bike_id":"aff5e926-c37f-4e72-a049-0744922fe2b6","system_id":"levelo_inurba_marseille","lat":43.283494,"lon":5.380945,"is_reserved":false,"is_disabled":false,"rental_uris":{"android":"levelo://app?vid=aff5e926-c37f-4e72-a049-0744922fe2b6","ios":"levelo://app?vid=aff5e926-c37f-4e72-a049-0744922fe2b6"},"vehicle_type_id":"4","last_reported":1713006321,"current_range_meters":4400,"station_id":"ce4bh412rcd13ifvqdr0","pricing_plan_id":"cebpf4jnsgd1na2vs0mg"},