{"last_updated":1730185780,"ttl":60,"version":"2.2","data":{"bikes":[{"bike_id":"1a5400bf-5362-468a-b5b2-117e0131c47b","system_id":"levelo_inurba_marseille","lat":43.26682,"lon":5.38268,"is_reserved":false,"is_disabled":false,"rental_uris":{"android":"levelo://app?vid=1a5400bf-5362-468a-b5b2-117e0131c47b","ios":"levelo://app?vid=1a5400bf-5362-468a-b5b2-117e0131c47b"},"vehicle_type_id":"4","last_reported":1730185780,"current_range_meters":17200,"station_id":"ce4bhg92rcd13ifvqf90","pricing_plan_id":"cebpf4jnsgd1na2vs0mg"},{"bike_id":"5b6da0fb-5d65-41eb-8aa7-edd3cba55e1e","system_id":"levelo_inurba_marseille","lat":43.30359,"lon":5.41885,"is_reserved":false,"is_disabled":false,"rental_uris":{"android":"levelo://app?vid=5b6da0fb-5d65-41eb-8aa7-edd3cba55e1e","ios":"levelo://app?vid=5b6da0fb-5d65-41eb-8aa7-edd3cba55e1e"},"vehicle_type_id":"4","last_reported":1730185780,"current_range_meters":38400,"station_id":"ce4bhop2rcd13ifvqh7g","pricing_plan_id":"cebpf4jnsgd1na2vs0mg"},{"bike_id":"5aef8b8d-a1c0-4d83-a273-c6b671bedd61","system_id":"levelo_inurba_marseille","lat":43.27179,"lon":5.40995,"is_reserved":false,"is_disabled":false,"rental_uris":{"android":"levelo://app?vid=5aef8b8d-a1c0-4d83-a273-c6b671bedd61","ios":"levelo://app?vid=5aef8b8d-a1c0-4d83-a273-c6b671bedd61"},"vehicle_type_id":"4","last_reported":1730185780,"current_range_meters":8400,"station_id":"ce4bhl12rcd13ifvqgf0","pricing_plan_id":"cebpf4jnsgd1na2vs0mg"},{"bike_id":"68fb4f18-f8e3-4888-ad74-cdb4024540a7","system_id":"levelo_inurba_marseille","lat":43.29891,"lon":5.43655,"is_reserved":false,"is_disabled":false,"rental_uris":{"android":"levelo://app?vid=68fb4f18-f8e3-4888-ad74-cdb4024540a7","ios":"levelo://app?vid=68fb4f18-f8e3-4888-ad74-cdb4024540a7"},"vehicle_type_id":"4","last_reported":1730185780,"current_range_meters":39200,"station_id":"ce4bhpp2rcd13ifvqhfg","pricing_plan_id":"cebpf4jnsgd1na2vs0mg"},{"bike_id":"83f7db1f-5175-4f37-854b-cde355acc9c6","system_id":"levelo_inurba_marseille","lat":43.322916,"lon":5.382806,"is_reserved":false,"is_disabled":false,"rental_uris":{"android":"levelo://app?vid=83f7db1f-5175-4f37-854b-cde355acc9c6","ios":"levelo://app?vid=83f7db1f-5175-4f37-854b-cde355acc9c6"},"vehicle_type_id":"4","last_reported":1730185780,"current_range_meters":38800,"station_id":"ce4bhr12rcd13ifvqhqg","pricing_plan_id":"cebpf4jnsgd1na2vs0mg"},{"bike_id":"757e1bf6-7257-4b5e-a96d-1ad356a8ebf5","system_id":"levelo_inurba_marseille","lat":43.24385,"lon":5.37056,"is_reserved":false,"is_disabled":false,"rental_uris":{"android":"levelo://app?vid=757e1bf6-7257-4b5e-a96d-1ad356a8ebf5","ios":"levelo://app?vid=757e1bf6-7257-4b5e-a96d-1ad356a8ebf5"},"vehicle_type_id":"4","last_reported":1730185780,"current_range_meters":30800,"station_id":"ce4bhhh2rcd13ifvqfk0","pricing_plan_id":"cebpf4jnsgd1na2vs0mg"},{"bike_id":"8691266c-b078-424b-a387-0bb56f925da9","system_id":"levelo_inurba_marseille","lat":43.304247,"lon":5.397499,"is_reserved":false,"is_disabled":false,"rental_uris":{"android":"levelo://app?vid=8691266c-b078-424b-a387-0bb56f925da9","ios":"levelo://app?vid=8691266c-b078-424b-a387-0bb56f925da9"},"vehicle_type_id":"4","last_reported":1730185780,"current_range_meters":36000,"station_id":"ce4bh092rcd13ifvqd20","pricing_plan_id":"cebpf4jnsgd1na2vs0mg"},{"bike_id":"3ed2d413-9b58-487f-8ca1-65ce6fd24762","system_id":"levelo_inurba_marseille","lat":43.3015,"lon":5.38081,"is_reserved":false,"is_disabled":false,"rental_uris":{"android":"levelo://app?vid=3ed2d413-9b58-487f-8ca1-65ce6fd24762","ios":"levelo://app?vid=3ed2d413-9b58-487f-8ca1-65ce6fd24762"},"vehicle_type_id":"4","last_reported":1730185780,"current_range_meters":26000,"station_id":"ce4bgjp2rcd13ifvqbh0","pricing_plan_id":"cebpf4jnsgd1na2vs0mg"},{"bike_id":"019b962b-8843-460e-9c06-a6b1b6d4d439","system_id":"levelo_inurba_marseille","lat":43.26958,"lon":5.3863,"is_reserved":false,"is_disabled":false,"rental_uris":{"android":"levelo://app?vid=019b962b-8843-460e-9c06-a6b1b6d4d439","ios":"levelo://app?vid=019b962b-8843-460e-9c06-a6b1b6d4d439"},"vehicle_type_id":"4","last_reported":1730185780,"current_range_meters":30000,"station_id":"ce4bhh92rcd13ifvqfh0","pricing_plan_id":"cebpf4jnsgd1na2vs0mg"},{"bike_id":"79962e24-45d6-4bc1-ae9c-33ce3d4cfd10","system_id":"levelo_inurba_marseille","lat":43.30083,"lon":5.39095,"is_reserved":false,"is_disabled":false,"rental_uris":{"android":"levelo://app?vid=79962e24-45d6-4bc1-ae9c-33ce3d4cfd10","ios":"levelo://app?vid=79962e24-45d6-4bc1-ae9c-33ce3d4cfd10"},"vehicle_type_id":"4","last_reported":1730185780,"current_range_meters":32000,"station_id":"ce4bh192rcd13ifvqdb0","pricing_plan_id":"cebpf4jnsgd1na2vs0mg"},{"bike_id":"979f0f1a-b96f-4580-b40d-344e5bd215ad","system_id":"levelo_inurba_marseille","lat":43.27367,"lon":5.36264,"is_reserved":false,"is_disabled":false,"rental_uris":{"android":"levelo://app?vid=979f0f1a-b96f-4580-b40d-344e5bd215ad","ios":"levelo://app?vid=979f0f1a-b96f-4580-b40d-344e5bd215ad"},"vehicle_type_id":"4","last_reported":1730185780,"current_range_meters":21600,"station_id":"ce4bhbh2rcd13ifvqeo0","pricing_plan_id":"cebpf4jnsgd1na2vs0mg"},{"bike_id":"0dd0ccc2-f1bf-42cd-a425-db2be977a4df","system_id":"levelo_inurba_marseille","lat":43.25584,"lon":5.38231,"is_reserved":false,"is_disabled":false,"rental_uris":{"android":"levelo://app?vid=0dd0ccc2-f1bf-42cd-a425-db2be977a4df","ios":"levelo://app?vid=0dd0ccc2-f1bf-42cd-a425-db2be977a4df"},"vehicle_type_id":"4","last_reported":1730185780,"current_range_meters":38800,"station_id":"ce4bhih2rcd13ifvqfs0","pricing_plan_id":"cebpf4jnsgd1na2vs0mg"},{"bike_id":"62b5614c-5f33-4953-a27e-e0c821552090","system_id":"levelo_inurba_marseille","lat":43.23196,"lon":5.35544,"is_reserved":false,"is_disabled":false,"rental_uris":{"android":"levelo://app?vid=62b5614c-5f33-4953-a27e-e0c821552090","ios":"levelo://app?vid=62b5614c-5f33-4953-a27e-e0c821552090"},"vehicle_type_id":"4","last_reported":1730185780,"current_range_meters":37600,"station_id":"ce4bhu92rcd13ifvqi70","pricing_plan_id":"cebpf4jnsgd1na2vs0mg"},{"bike_id":"67909534-5d2b-4e3d-b735-978adeea462c","system_id":"levelo_inurba_marseille","lat":43.32482,"lon":5.36564,"is_reserved":false,"is_disabled":false,"rental_uris":{"android":"levelo://app?vid=67909534-5d2b-4e3d-b735-978adeea462c","ios":"levelo://app?vid=67909534-5d2b-4e3d-b735-978adeea462c"},"vehicle_type_id":"4","last_reported":1730185780,"current_range_meters":30400,"station_id":"ce4bhs12rcd13ifvqhvg","pricing_plan_id":"cebpf4jnsgd1na2vs0mg"},{"bike_id":"bc1da436-2a2e-45da-b2a5-32f7806ffa51","system_id":"levelo_inurba_marseille","lat":43.30417,"lon":5.39747,"is_reserved":false,"is_disabled":false,"rental_uris":{"android":"levelo://app?vid=bc1da436-2a2e-45da-b2a5-32f7806ffa51","ios":"levelo://app?vid=bc1da436-2a2e-45da-b2a5-32f7806ffa51"},"vehicle_type_id":"4","last_reported":1730185780,"current_range_meters":38800,"station_id":"ce4bh092rcd13ifvqd20","pricing_plan_id":"cebpf4jnsgd1na2vs0mg"},{"bike_id":"77868dea-5cf2-414b-bf97-ccde2042cefd","system_id":"levelo_inurba_marseille","lat":43.27995,"lon":5.4002,"is_reserved":false,"is_disabled":false,"rental_uris":{"android":"levelo://app?vid=77868dea-5cf2-414b-bf97-ccde2042cefd","ios":"levelo://app?vid=77868dea-5cf2-414b-bf97-ccde2042cefd"},"vehicle_type_id":"4","last_reported":1730185780,"current_range_meters":38400,"station_id":"ce4bho92rcd13ifvqh4g","pricing_plan_id":"cebpf4jnsgd1na2vs0mg"},{"bike_id":"39c65ec2-b79c-4711-ba54-2958bac9ea59","system_id":"levelo_inurba_marseille","lat":43.28709,"lon":5.39983,"is_reserved":false,"is_disabled":false,"rental_uris":{"android":"levelo://app?vid=39c65ec2-b79c-4711-ba54-2958bac9ea59","ios":"levelo://app?vid=39c65ec2-b79c-4711-ba54-2958bac9ea59"},"vehicle_type_id":"4","last_reported":1730185780,"current_range_meters":20800,"station_id":"ce4bho92rcd13ifvqh3g","pricing_plan_id":"cebpf4jnsgd1na2vs0mg"},{"bike_id":"f03c0344-9c04-4fad-895b-ea47e8889e0d","system_id":"levelo_inurba_marseille","lat":43.28702,"lon":5.3999,"is_reserved":false,"is_disabled":false,"rental_uris":{"android":"levelo://app?vid=f03c0344-9c04-4fad-895b-ea47e8889e0d","ios":"levelo://app?vid=f03c0344-9c04-4fad-895b-ea47e8889e0d"},"vehicle_type_id":"4","last_reported":1730185780,"current_range_meters":38800,"station_id":"ce4bho92rcd13ifvqh3g","pricing_plan_id":"cebpf4jnsgd1na2vs0mg"},{"bike_id":"367a3e4f-9e38-4426-b26a-d202f9b9e24a","system_id":"levelo_inurba_marseille","lat":43.30463,"lon":5.37908,"is_reserved":false,"is_disabled":false,"rental_uris":{"android":"levelo://app?vid=367a3e4f-9e38-4426-b26a-d202f9b9e24a","ios":"levelo://app?vid=367a3e4f-9e38-4426-b26a-d202f9b9e24a"},"vehicle_type_id":"4","last_reported":1730185780,"current_range_meters":7200,"station_id":"ce4bgup2rcd13ifvqcn0","pricing_plan_id":"cebpf4jnsgd1na2vs0mg"},{"bike_id":"74ce0f25-afa3-4f3f-afa0-7dcd368ef12f","system_id":"levelo_inurba_marseille","lat":43.27901,"lon":5.38006,"is_reserved":false,"is_disabled":false,"rental_uris":{"android":"levelo://app?vid=74ce0f25-afa3-4f3f-afa0-7dcd368ef12f","ios":"levelo://app?vid=74ce0f25-afa3-4f3f-afa0-7dcd368ef12f"},"vehicle_type_id":"4","last_reported":1730185780,"current_range_meters":38400,"station_id":"ce4bhf92rcd13ifvqf50","pricing_plan_id":"cebpf4jnsgd1na2vs0mg"},{"bike_id":"0415be9b-88d6-4d85-9d1e-3930b85f0223","system_id":"levelo_inurba_marseille","lat":43.30423,"lon":5.39752,"is_reserved":false,"is_disabled":false,"rental_uris":{"android":"levelo://app?vid=0415be9b-88d6-4d85-9d1e-3930b85f0223","ios":"levelo://app?vid=0415be9b-88d6-4d85-9d1e-3930b85f0223"},"vehicle_type_id":"4","last_reported":1730185780,"current_range_meters":38400,"station_id":"ce4bh092rcd13ifvqd20","pricing_plan_id":"cebpf4jnsgd1na2vs0mg"},{"bike_id":"8d191566-d8a6-44ba-bebe-2a9d6ff01fde","system_id":"levelo_inurba_marseille","lat":43.27248,"lon":5.38698,"is_reserved":false,"is_disabled":false,"rental_uris":{"android":"levelo://app?vid=8d191566-d8a6-44ba-bebe-2a9d6ff01fde","ios":"levelo://app?vid=8d191566-d8a6-44ba-bebe-2a9d6ff01fde"},"vehicle_type_id":"4","last_reported":1730185780,"current_range_meters":24800,"station_id":"","pricing_plan_id":"cebpf4jnsgd1na2vs0mg"},{"bike_id":"88178ef7-7899-45b1-94df-1c9a1840a5a7","system_id":"levelo_inurba_marseille","lat":43.289368,"lon":5.36317,"is_reserved":false,"is_disabled":false,"rental_uris":{"android":"levelo://app?vid=88178ef7-7899-45b1-94df-1c9a1840a5a7","ios":"levelo://app?vid=88178ef7-7899-45b1-94df-1c9a1840a5a7"},"vehicle_type_id":"4","last_reported":1730185780,"current_range_meters":35200,"station_id":"ce4bhc92rcd13ifvqetg","pricing_plan_id":"cebpf4jnsgd1na2vs0mg"},{"bike_id":"39644737-83b6-49fd-b812-7f74aa3544c8","system_id":"levelo_inurba_marseille","lat":43.25108,"lon":5.40322,"is_reserved":false,"is_disabled":false,"rental_uris":{"android":"levelo://app?vid=39644737-83b6-49fd-b812-7f74aa3544c8","ios":"levelo://app?vid=39644737-83b6-49fd-b812-7f74aa3544c8"},"vehicle_type_id":"4","last_reported":1730185780,"current_range_meters":21600,"station_id":"ce4bhlh2rcd13ifvqgig","pricing_plan_id":"cebpf4jnsgd1na2vs0mg"},{"bike_id":"18d073cb-83b6-4a56-b36c-f24538a0e583","system_id":"levelo_inurba_marseille","lat":43.23173,"lon":5.39986,"is_reserved":false,"is_disabled":false,"rental_uris":{"android":"levelo://app?vid=18d073cb-83b6-4a56-b36c-f24538a0e583","ios":"levelo://app?vid=18d073cb-83b6-4a56-b36c-f24538a0e583"},"vehicle_type_id":"4","last_reported":1730185780,"current_range_meters":38800,"station_id":"ce4bhn12rcd13ifvqgqg","pricing_plan_id":"cebpf4jnsgd1na2vs0mg"},{"bike_id":"012c2ee5-d9ed-4efb-8323-b37e2b97ac55","system_id":"levelo_inurba_marseille","lat":43.231819,"lon":5.399857,"is_reserved":false,"is_disabled":false,"rental_uris":{"android":"levelo://app?vid=012c2ee5-d9ed-4efb-8323-b37e2b97ac55","ios":"levelo://app?vid=012c2ee5-d9ed-4efb-8323-b37e2b97ac55"},"vehicle_type_id":"4","last_reported":1730185780,"current_range_meters":25200,"station_id":"ce4bhn12rcd13ifvqgqg","pricing_plan_id":"cebpf4jnsgd1na2vs0mg"},{"bike_id":"b24b17ee-eec5-4357-a377-55485ac219c9","system_id":"levelo_inurba_marseille","lat":43.30155,"lon":5.38077,"is_reserved":false,"is_disabled":false,"rental_uris":{"android":"levelo://app?vid=b24b17ee-eec5-4357-a377-55485ac219c9","ios":"levelo://app?vid=b24b17ee-eec5-4357-a377-55485ac219c9"},"vehicle_type_id":"4","last_reported":1730185780,"current_range_meters":38000,"station_id":"ce4bgjp2rcd13ifvqbh0","pricing_plan_id":"cebpf4jnsgd1na2vs0mg"},{"bike_id":"9a5187c7-3023-4374-9d07-6eeb0bb6cf9b","system_id":"levelo_inurba_marseille","lat":43.29735,"lon":5.37679,"is_reserved":false,"is_disabled":false,"rental_uris":{"android":"levelo://app?vid=9a5187c7-3023-4374-9d07-6eeb0bb6cf9b","ios":"levelo://app?vid=9a5187c7-3023-4374-9d07-6eeb0bb6cf9b"},"vehicle_type_id":"4","last_reported":1730185780,"current_range_meters":38400,"station_id":"ce4bgkh2rcd13ifvqbl0","pricing_plan_id":"cebpf4jnsgd1na2vs0mg"},{"bike_id":"5ad31ad7-174f-412e-87d5-b57faa5d4787","system_id":"levelo_inurba_marseille","lat":43.28149,"lon":5.42636,"is_reserved":false,"is_disabled":false,"rental_uris":{"android":"levelo://app?vid=5ad31ad7-174f-412e-87d5-b57faa5d4787","ios":"levelo://app?vid=5ad31ad7-174f-412e-87d5-b57faa5d4787"},"vehicle_type_id":"4","last_reported":1730185780,"current_range_meters":3600,"station_id":"ce4bhnh2rcd13ifvqgug","pricing_plan_id":"cebpf4jnsgd1na2vs0mg"},{"bike_id":"3d806605-1fa5-47c0-8dae-80c571d31131","system_id":"levelo_inurba_marseille","lat":43.27317,"lon":5.39072,"is_reserved":false,"is_disabled":false,"rental_uris":{"android":"levelo://app?vid=3d806605-1fa5-47c0-8dae-80c571d31131","ios":"levelo://app?vid=3d806605-1fa5-47c0-8dae-80c571d31131"},"vehicle_type_id":"4","last_reported":1730185780,"current_range_meters":20400,"station_id":"ce4bhgp2rcd13ifvqfe0","pricing_plan_id":"cebpf4jnsgd1na2vs0mg"},{"bike_id":"a7474daa-a2e6-40c2-b4a5-e90645d44a6b","system_id":"levelo_inurba_marseille","lat":43.3046,"lon":5.37912,"is_reserved":false,"is_disabled":false,"rental_uris":{"android":"levelo://app?vid=a7474daa-a2e6-40c2-b4a5-e90645d44a6b","ios":"levelo://app?vid=a7474daa-a2e6-40c2-b4a5-e90645d44a6b"},"vehicle_type_id":"4","last_reported":1730185780,"current_range_meters":29600,"station_id":"ce4bgup2rcd13ifvqcn0","pricing_plan_id":"cebpf4jnsgd1na2vs0mg"},{"bike_id":"8d680d29-738c-4dc0-9d5b-00fc14aa115d","system_id":"levelo_inurba_marseille","lat":43.28704,"lon":5.39984,"is_reserved":false,"is_disabled":false,"rental_uris":{"android":"levelo://app?vid=8d680d29-738c-4dc0-9d5b-00fc14aa115d","ios":"levelo://app?vid=8d680d29-738c-4dc0-9d5b-00fc14aa115d"},"vehicle_type_id":"4","last_reported":1730185780,"current_range_meters":28000,"station_id":"ce4bho92rcd13ifvqh3g","pricing_plan_id":"cebpf4jnsgd1na2vs0mg"},{"bike_id":"bd8baaec-45d2-4e43-93df-f9f2bae82e2e","system_id":"levelo_inurba_marseille","lat":43.30414,"lon":5.39753,"is_reserved":false,"is_disabled":false,"rental_uris":{"android":"levelo://app?vid=bd8baaec-45d2-4e43-93df-f9f2bae82e2e","ios":"levelo://app?vid=bd8baaec-45d2-4e43-93df-f9f2bae82e2e"},"vehicle_type_id":"4","last_reported":1730185780,"current_range_meters":37600,"station_id":"ce4bh092rcd13ifvqd20","pricing_plan_id":"cebpf4jnsgd1na2vs0mg"},{"bike_id":"559e0993-d3ec-4994-8a4d-edbc5593d328","system_id":"levelo_inurba_marseille","lat":43.22926,"lon":5.35379,"is_reserved":false,"is_disabled":false,"rental_uris":{"android":"levelo://app?vid=559e0993-d3ec-4994-8a4d-edbc5593d328","ios":"levelo://app?vid=559e0993-d3ec-4994-8a4d-edbc5593d328"},"vehicle_type_id":"4","last_reported":1730185780,"current_range_meters":38400,"station_id":"cpo3532slgdg3j2ikp40","pricing_plan_id":"cebpf4jnsgd1na2vs0mg"},{"bike_id":"99fe5e83-97a7-45f7-b773-27540820dca8","system_id":"levelo_inurba_marseille","lat":43.25938,"lon":5.409,"is_reserved":false,"is_disabled":false,"rental_uris":{"android":"levelo://app?vid=99fe5e83-97a7-45f7-b773-27540820dca8","ios":"levelo://app?vid=99fe5e83-97a7-45f7-b773-27540820dca8"},"vehicle_type_id":"4","last_reported":1730185780,"current_range_meters":21600,"station_id":"ce4bhm92rcd13ifvqglg","pricing_plan_id":"cebpf4jnsgd1na2vs0mg"},{"bike_id":"c25c6934-e626-496d-8891-6f5db0cd46e2","system_id":"levelo_inurba_marseille","lat":43.25904,"lon":5.40883,"is_reserved":false,"is_disabled":false,"rental_uris":{"android":"levelo://app?vid=c25c6934-e626-496d-8891-6f5db0cd46e2","ios":"levelo://app?vid=c25c6934-e626-496d-8891-6f5db0cd46e2"},"vehicle_type_id":"4","last_reported":1730185780,"current_range_meters":32800,"station_id":"ce4bhm92rcd13ifvqglg","pricing_plan_id":"cebpf4jnsgd1na2vs0mg"},{"bike_id":"d1dacee6-8f47-4ca5-823b-a2ea6c3413e8","system_id":"levelo_inurba_marseille","lat":43.23192,"lon":5.35556,"is_reserved":false,"is_disabled":false,"rental_uris":{"android":"levelo://app?vid=d1dacee6-8f47-4ca5-823b-a2ea6c3413e8","ios":"levelo://app?vid=d1dacee6-8f47-4ca5-823b-a2ea6c3413e8"},"vehicle_type_id":"4","last_reported":1730185780,"current_range_meters":38800,"station_id":"ce4bhu92rcd13ifvqi70","pricing_plan_id":"cebpf4jnsgd1na2vs0mg"},{"bike_id":"dd47474c-f051-4ed5-99ff-a7c32250f749","system_id":"levelo_inurba_marseille","lat":43.27956,"lon":5.41043,"is_reserved":false,"is_disabled":false,"rental_uris":{"android":"levelo://app?vid=dd47474c-f051-4ed5-99ff-a7c32250f749","ios":"levelo://app?vid=dd47474c-f051-4ed5-99ff-a7c32250f749"},"vehicle_type_id":"4","last_reported":1730185780,"current_range_meters":25600,"station_id":"ce4bhnp2rcd13ifvqh0g","pricing_plan_id":"cebpf4jnsgd1na2vs0mg"},{"bike_id":"05f53b43-7435-42bd-8666-896fcfaabd69","system_id":"levelo_inurba_marseille","lat":43.27042,"lon":5.40269,"is_reserved":false,"is_disabled":false,"rental_uris":{"android":"levelo://app?vid=05f53b43-7435-42bd-8666-896fcfaabd69","ios":"levelo://app?vid=05f53b43-7435-42bd-8666-896fcfaabd69"},"vehicle_type_id":"4","last_reported":1730185780,"current_range_meters":36800,"station_id":"ce4bhk92rcd13ifvqgc0","pricing_plan_id":"cebpf4jnsgd1na2vs0mg"},{"bike_id":"64a6f5fb-0409-46e0-b4cd-18785f02bade","system_id":"levelo_inurba_marseille","lat":43.287,"lon":5.3998,"is_reserved":false,"is_disabled":false,"rental_uris":{"android":"levelo://app?vid=64a6f5fb-0409-46e0-b4cd-18785f02bade","ios":"levelo://app?vid=64a6f5fb-0409-46e0-b4cd-18785f02bade"},"vehicle_type_id":"4","last_reported":1730185780,"current_range_meters":38400,"station_id":"ce4bho92rcd13ifvqh3g","pricing_plan_id":"cebpf4jnsgd1na2vs0mg"},{"bike_id":"54399a13-f8cb-435f-8b52-6878bec0e3bf","system_id":"levelo_inurba_marseille","lat":43.28153,"lon":5.42648,"is_reserved":false,"is_disabled":false,"rental_uris":{"android":"levelo://app?vid=54399a13-f8cb-435f-8b52-6878bec0e3bf","ios":"levelo://app?vid=54399a13-f8cb-435f-8b52-6878bec0e3bf"},"vehicle_type_id":"4","last_reported":1730185780,"current_range_meters":36400,"station_id":"ce4bhnh2rcd13ifvqgug","pricing_plan_id":"cebpf4jnsgd1na2vs0mg"},{"bike_id":"bed983b0-4dd0-4343-8c2b-f9433485f5af","system_id":"levelo_inurba_marseille","lat":43.30154,"lon":5.38097,"is_reserved":false,"is_disabled":false,"rental_uris":{"android":"levelo://app?vid=bed983b0-4dd0-4343-8c2b-f9433485f5af","ios":"levelo://app?vid=bed983b0-4dd0-4343-8c2b-f9433485f5af"},"vehicle_type_id":"4","last_reported":1730185780,"current_range_meters":28400,"station_id":"ce4bgjp2rcd13ifvqbh0","pricing_plan_id":"cebpf4jnsgd1na2vs0mg"},{"bike_id":"47b98d2f-07e1-4c21-b0d2-a7fef571c542","system_id":"levelo_inurba_marseille","lat":43.3089,"lon":5.37201,"is_reserved":false,"is_disabled":false,"rental_uris":{"android":"levelo://app?vid=47b98d2f-07e1-4c21-b0d2-a7fef571c542","ios":"levelo://app?vid=47b98d2f-07e1-4c21-b0d2-a7fef571c542"},"vehicle_type_id":"4","last_reported":1730185780,"current_range_meters":20800,"station_id":"ce4bguh2rcd13ifvqckg","pricing_plan_id":"cebpf4jnsgd1na2vs0mg"},{"bike_id":"04dbda2e-1521-4ce1-bb27-237d13a9a293","system_id":"levelo_inurba_marseille","lat":43.30894,"lon":5.37192,"is_reserved":false,"is_disabled":false,"rental_uris":{"android":"levelo://app?vid=04dbda2e-1521-4ce1-bb27-237d13a9a293","ios":"levelo://app?vid=04dbda2e-1521-4ce1-bb27-237d13a9a293"},"vehicle_type_id":"4","last_reported":1730185780,"current_range_meters":36800,"station_id":"ce4bguh2rcd13ifvqckg","pricing_plan_id":"cebpf4jnsgd1na2vs0mg"},{"bike_id":"77bda5e6-f055-4c3a-9927-55ea8f7365ab","system_id":"levelo_inurba_marseille","lat":43.25931,"lon":5.40907,"is_reserved":false,"is_disabled":false,"rental_uris":{"android":"levelo://app?vid=77bda5e6-f055-4c3a-9927-55ea8f7365ab","ios":"levelo://app?vid=77bda5e6-f055-4c3a-9927-55ea8f7365ab"},"vehicle_type_id":"4","last_reported":1730185780,"current_range_meters":25200,"station_id":"ce4bhm92rcd13ifvqglg","pricing_plan_id":"cebpf4jnsgd1na2vs0mg"},{"bike_id":"4b1f45ca-5ba1-42a7-87e4-e9967261b64c","system_id":"levelo_inurba_marseille","lat":43.31085,"lon":5.42431,"is_reserved":false,"is_disabled":false,"rental_uris":{"android":"levelo://app?vid=4b1f45ca-5ba1-42a7-87e4-e9967261b64c","ios":"levelo://app?vid=4b1f45ca-5ba1-42a7-87e4-e9967261b64c"},"vehicle_type_id":"4","last_reported":1730185780,"current_range_meters":38800,"station_id":"ce4bhp92rcd13ifvqhag","pricing_plan_id":"cebpf4jnsgd1na2vs0mg"},{"bike_id":"71a81f53-60b2-49be-89f2-329fe5bcab0f","system_id":"levelo_inurba_marseille","lat":43.28941,"lon":5.36632,"is_reserved":false,"is_disabled":false,"rental_uris":{"android":"levelo://app?vid=71a81f53-60b2-49be-89f2-329fe5bcab0f","ios":"levelo://app?vid=71a81f53-60b2-49be-89f2-329fe5bcab0f"},"vehicle_type_id":"4","last_reported":1730185780,"current_range_meters":38800,"station_id":"ce4bhap2rcd13ifvqek0","pricing_plan_id":"cebpf4jnsgd1na2vs0mg"},{"bike_id":"6ba0d615-0222-46f5-8696-2eb2af680f21","system_id":"levelo_inurba_marseille","lat":43.29415,"lon":5.3863,"is_reserved":false,"is_disabled":false,"rental_uris":{"android":"levelo://app?vid=6ba0d615-0222-46f5-8696-2eb2af680f21","ios":"levelo://app?vid=6ba0d615-0222-46f5-8696-2eb2af680f21"},"vehicle_type_id":"4","last_reported":1730185780,"current_range_meters":25600,"station_id":"ce4bh2h2rcd13ifvqdh0","pricing_plan_id":"cebpf4jnsgd1na2vs0mg"},{"bike_id":"29b97861-e650-49bd-9e4c-e37584d59fac","system_id":"levelo_inurba_marseille","lat":43.30463,"lon":5.37909,"is_reserved":false,"is_disabled":false,"rental_uris":{"android":"levelo://app?vid=29b97861-e650-49bd-9e4c-e37584d59fac","ios":"levelo://app?vid=29b97861-e650-49bd-9e4c-e37584d59fac"},"vehicle_type_id":"4","last_reported":1730185780,"current_range_meters":39200,"station_id":"ce4bgup2rcd13ifvqcn0","pricing_plan_id":"cebpf4jnsgd1na2vs0mg"},{"bike_id":"14fa7ab4-3d26-47e0-af42-b940b3c853b8","system_id":"levelo_inurba_marseille","lat":43.27181,"lon":5.40993,"is_reserved":false,"is_disabled":false,"rental_uris":{"android":"levelo://app?vid=14fa7ab4-3d26-47e0-af42-b940b3c853b8","ios":"levelo://app?vid=14fa7ab4-3d26-47e0-af42-b940b3c853b8"},"vehicle_type_id":"4","last_reported":1730185780,"current_range_meters":16400,"station_id":"ce4bhl12rcd13ifvqgf0","pricing_plan_id":"cebpf4jnsgd1na2vs0mg"},{"bike_id":"9f422c91-7c0f-4548-8513-8523cc1662dd","system_id":"levelo_inurba_marseille","lat":43.23064,"lon":5.35489,"is_reserved":false,"is_disabled":false,"rental_uris":{"android":"levelo://app?vid=9f422c91-7c0f-4548-8513-8523cc1662dd","ios":"levelo://app?vid=9f422c91-7c0f-4548-8513-8523cc1662dd"},"vehicle_type_id":"4","last_reported":1730185780,"current_range_meters":20400,"station_id":"cpo3342slgdg3j2ifvpg","pricing_plan_id":"cebpf4jnsgd1na2vs0mg"},{"bike_id":"c5aed74c-2556-4499-81a2-61e56f0ad7bb","system_id":"levelo_inurba_marseille","lat":43.311169,"lon":5.377706,"is_reserved":false,"is_disabled":false,"rental_uris":{"android":"levelo://app?vid=c5aed74c-2556-4499-81a2-61e56f0ad7bb","ios":"levelo://app?vid=c5aed74c-2556-4499-81a2-61e56f0ad7bb"},"vehicle_type_id":"4","last_reported":1730185780,"current_range_meters":26800,"station_id":"ce4bgt92rcd13ifvqcg0","pricing_plan_id":"cebpf4jnsgd1na2vs0mg"},{"bike_id":"64df0b22-11d7-4411-9223-8037b97126e5","system_id":"levelo_inurba_marseille","lat":43.31532,"lon":5.38037,"is_reserved":false,"is_disabled":false,"rental_uris":{"android":"levelo://app?vid=64df0b22-11d7-4411-9223-8037b97126e5","ios":"levelo://app?vid=64df0b22-11d7-4411-9223-8037b97126e5"},"vehicle_type_id":"4","last_reported":1730185780,"current_range_meters":34000,"station_id":"ce4bhsp2rcd13ifvqi50","pricing_plan_id":"cebpf4jnsgd1na2vs0mg"},{"bike_id":"2eb33259-06bf-49ce-85cb-5256124b5f12","system_id":"levelo_inurba_marseille","lat":43.30158,"lon":5.38084,"is_reserved":false,"is_disabled":false,"rental_uris":{"android":"levelo://app?vid=2eb33259-06bf-49ce-85cb-5256124b5f12","ios":"levelo://app?vid=2eb33259-06bf-49ce-85cb-5256124b5f12"},"vehicle_type_id":"4","last_reported":1730185780,"current_range_meters":38800,"station_id":"ce4bgjp2rcd13ifvqbh0","pricing_plan_id":"cebpf4jnsgd1na2vs0mg"},{"bike_id":"edee228c-76f1-4f9d-b4f7-5773b8a0b850","system_id":"levelo_inurba_marseille","lat":43.23196,"lon":5.35557,"is_reserved":false,"is_disabled":false,"rental_uris":{"android":"levelo://app?vid=edee228c-76f1-4f9d-b4f7-5773b8a0b850","ios":"levelo://app?vid=edee228c-76f1-4f9d-b4f7-5773b8a0b850"},"vehicle_type_id":"4","last_reported":1730185780,"current_range_meters":20400,"station_id":"ce4bhu92rcd13ifvqi70","pricing_plan_id":"cebpf4jnsgd1na2vs0mg"},{"bike_id":"de64aefc-2736-480f-8f17-3a77ec3af0e8","system_id":"levelo_inurba_marseille","lat":43.255807,"lon":5.382415,"is_reserved":false,"is_disabled":false,"rental_uris":{"android":"levelo://app?vid=de64aefc-2736-480f-8f17-3a77ec3af0e8","ios":"levelo://app?vid=de64aefc-2736-480f-8f17-3a77ec3af0e8"},"vehicle_type_id":"4","last_reported":1730185780,"current_range_meters":38400,"station_id":"ce4bhih2rcd13ifvqfs0","pricing_plan_id":"cebpf4jnsgd1na2vs0mg"},{"bike_id":"186ce089-32d5-439b-b76c-8a146c9531e6","system_id":"levelo_inurba_marseille","lat":43.30422,"lon":5.39751,"is_reserved":false,"is_disabled":false,"rental_uris":{"android":"levelo://app?vid=186ce089-32d5-439b-b76c-8a146c9531e6","ios":"levelo://app?vid=186ce089-32d5-439b-b76c-8a146c9531e6"},"vehicle_type_id":"4","last_reported":1730185780,"current_range_meters":24400,"station_id":"ce4bh092rcd13ifvqd20","pricing_plan_id":"cebpf4jnsgd1na2vs0mg"},{"bike_id":"f1d28690-8d1c-42fa-b08d-87588ecf9fea","system_id":"levelo_inurba_marseille","lat":43.30611,"lon":5.3724,"is_reserved":false,"is_disabled":false,"rental_uris":{"android":"levelo://app?vid=f1d28690-8d1c-42fa-b08d-87588ecf9fea","ios":"levelo://app?vid=f1d28690-8d1c-42fa-b08d-87588ecf9fea"},"vehicle_type_id":"4","last_reported":1730185780,"current_range_meters":30000,"station_id":"ce4bgqh2rcd13ifvqc4g","pricing_plan_id":"cebpf4jnsgd1na2vs0mg"},{"bike_id":"e3d27640-a7eb-4407-a3ae-d168fb29106a","system_id":"levelo_inurba_marseille","lat":43.31751,"lon":5.39025,"is_reserved":false,"is_disabled":false,"rental_uris":{"android":"levelo://app?vid=e3d27640-a7eb-4407-a3ae-d168fb29106a","ios":"levelo://app?vid=e3d27640-a7eb-4407-a3ae-d168fb29106a"},"vehicle_type_id":"4","last_reported":1730185780,"current_range_meters":38800,"station_id":"ce4bhqp2rcd13ifvqhng","pricing_plan_id":"cebpf4jnsgd1na2vs0mg"},{"bike_id":"7fe02373-565f-4946-8bd8-dfaaa40708d0","system_id":"levelo_inurba_marseille","lat":43.31756,"lon":5.39016,"is_reserved":false,"is_disabled":false,"rental_uris":{"android":"levelo://app?vid=7fe02373-565f-4946-8bd8-dfaaa40708d0","ios":"levelo://app?vid=7fe02373-565f-4946-8bd8-dfaaa40708d0"},"vehicle_type_id":"4","last_reported":1730185780,"current_range_meters":29600,"station_id":"ce4bhqp2rcd13ifvqhng","pricing_plan_id":"cebpf4jnsgd1na2vs0mg"},{"bike_id":"957a64d5-dc06-4596-bfdd-a07c8df77f23","system_id":"levelo_inurba_marseille","lat":43.29277,"lon":5.40118,"is_reserved":false,"is_disabled":false,"rental_uris":{"android":"levelo://app?vid=957a64d5-dc06-4596-bfdd-a07c8df77f23","ios":"levelo://app?vid=957a64d5-dc06-4596-bfdd-a07c8df77f23"},"vehicle_type_id":"4","last_reported":1730185780,"current_range_meters":32800,"station_id":"ce4bh312rcd13ifvqdk0","pricing_plan_id":"cebpf4jnsgd1na2vs0mg"},{"bike_id":"bb7b2e12-e84a-4f99-b2f4-03540a10399d","system_id":"levelo_inurba_marseille","lat":43.29631,"lon":5.40599,"is_reserved":false,"is_disabled":false,"rental_uris":{"android":"levelo://app?vid=bb7b2e12-e84a-4f99-b2f4-03540a10399d","ios":"levelo://app?vid=bb7b2e12-e84a-4f99-b2f4-03540a10399d"},"vehicle_type_id":"4","last_reported":1730185780,"current_range_meters":38000,"station_id":"ce4bh0h2rcd13ifvqd60","pricing_plan_id":"cebpf4jnsgd1na2vs0mg"},{"bike_id":"a4bd1b09-3edc-4fce-b512-1d15634d85d8","system_id":"levelo_inurba_marseille","lat":43.28372,"lon":5.38643,"is_reserved":false,"is_disabled":false,"rental_uris":{"android":"levelo://app?vid=a4bd1b09-3edc-4fce-b512-1d15634d85d8","ios":"levelo://app?vid=a4bd1b09-3edc-4fce-b512-1d15634d85d8"},"vehicle_type_id":"4","last_reported":1730185780,"current_range_meters":31200,"station_id":"ce4bh492rcd13ifvqdvg","pricing_plan_id":"cebpf4jnsgd1na2vs0mg"},{"bike_id":"994752ab-ba55-48bd-a323-f7270dcbb60a","system_id":"levelo_inurba_marseille","lat":43.318892,"lon":5.407412,"is_reserved":false,"is_disabled":false,"rental_uris":{"android":"levelo://app?vid=994752ab-ba55-48bd-a323-f7270dcbb60a","ios":"levelo://app?vid=994752ab-ba55-48bd-a323-f7270dcbb60a"},"vehicle_type_id":"4","last_reported":1730185780,"current_range_meters":38000,"station_id":"ce4bhq12rcd13ifvqhig","pricing_plan_id":"cebpf4jnsgd1na2vs0mg"},{"bike_id":"2f921f60-1890-404a-898c-6dae28d2ff64","system_id":"levelo_inurba_marseille","lat":43.32109,"lon":5.36778,"is_reserved":false,"is_disabled":false,"rental_uris":{"android":"levelo://app?vid=2f921f60-1890-404a-898c-6dae28d2ff64","ios":"levelo://app?vid=2f921f60-1890-404a-898c-6dae28d2ff64"},"vehicle_type_id":"4","last_reported":1730185780,"current_range_meters":37600,"station_id":"ce4bhrh2rcd13ifvqhug","pricing_plan_id":"cebpf4jnsgd1na2vs0mg"},{"bike_id":"62af7ca4-4cf3-4fb0-a87a-35ab433166a8","system_id":"levelo_inurba_marseille","lat":43.26561,"lon":5.39019,"is_reserved":false,"is_disabled":false,"rental_uris":{"android":"levelo://app?vid=62af7ca4-4cf3-4fb0-a87a-35ab433166a8","ios":"levelo://app?vid=62af7ca4-4cf3-4fb0-a87a-35ab433166a8"},"vehicle_type_id":"4","last_reported":1730185780,"current_range_meters":37600,"station_id":"ce4bhe12rcd13ifvqf30","pricing_plan_id":"cebpf4jnsgd1na2vs0mg"},{"bike_id":"e0564415-2096-494d-a66c-842ec5dc9e1a","system_id":"levelo_inurba_marseille","lat":43.30427,"lon":5.39759,"is_reserved":false,"is_disabled":false,"rental_uris":{"android":"levelo://app?vid=e0564415-2096-494d-a66c-842ec5dc9e1a","ios":"levelo://app?vid=e0564415-2096-494d-a66c-842ec5dc9e1a"},"vehicle_type_id":"4","last_reported":1730185780,"current_range_meters":32800,"station_id":"ce4bh092rcd13ifvqd20","pricing_plan_id":"cebpf4jnsgd1na2vs0mg"},{"bike_id":"e7c28416-4a7f-4d06-99c7-70505e487027","system_id":"levelo_inurba_marseille","lat":43.29275,"lon":5.36835,"is_reserved":false,"is_disabled":false,"rental_uris":{"android":"levelo://app?vid=e7c28416-4a7f-4d06-99c7-70505e487027","ios":"levelo://app?vid=e7c28416-4a7f-4d06-99c7-70505e487027"},"vehicle_type_id":"4","last_reported":1730185780,"current_range_meters":37600,"station_id":"ce4bhbp2rcd13ifvqesg","pricing_plan_id":"cebpf4jnsgd1na2vs0mg"},{"bike_id":"7cf2e0f2-60e3-49a9-820f-8e501cd707ec","system_id":"levelo_inurba_marseille","lat":43.30289,"lon":5.37421,"is_reserved":false,"is_disabled":false,"rental_uris":{"android":"levelo://app?vid=7cf2e0f2-60e3-49a9-820f-8e501cd707ec","ios":"levelo://app?vid=7cf2e0f2-60e3-49a9-820f-8e501cd707ec"},"vehicle_type_id":"4","last_reported":1730185780,"current_range_meters":30400,"station_id":"ce4bguh2rcd13ifvqckg","pricing_plan_id":"cebpf4jnsgd1na2vs0mg"},{"bike_id":"9989b398-ea1f-43b4-92f6-cb3a0e8d8247","system_id":"levelo_inurba_marseille","lat":43.31332,"lon":5.39694,"is_reserved":false,"is_disabled":false,"rental_uris":{"android":"levelo://app?vid=9989b398-ea1f-43b4-92f6-cb3a0e8d8247","ios":"levelo://app?vid=9989b398-ea1f-43b4-92f6-cb3a0e8d8247"},"vehicle_type_id":"4","last_reported":1730185780,"current_range_meters":38000,"station_id":"ce4bgvp2rcd13ifvqcu0","pricing_plan_id":"cebpf4jnsgd1na2vs0mg"},{"bike_id":"7f470a7c-9aff-4127-979b-7b9711bdf44a","system_id":"levelo_inurba_marseille","lat":43.29047,"lon":5.39949,"is_reserved":false,"is_disabled":false,"rental_uris":{"android":"levelo://app?vid=7f470a7c-9aff-4127-979b-7b9711bdf44a","ios":"levelo://app?vid=7f470a7c-9aff-4127-979b-7b9711bdf44a"},"vehicle_type_id":"4","last_reported":1730185780,"current_range_meters":12800,"station_id":"ce4bh392rcd13ifvqdm0","pricing_plan_id":"cebpf4jnsgd1na2vs0mg"},{"bike_id":"adcee44e-aff8-4933-88fe-bae99cafa494","system_id":"levelo_inurba_marseille","lat":43.23965,"lon":5.3663,"is_reserved":false,"is_disabled":false,"rental_uris":{"android":"levelo://app?vid=adcee44e-aff8-4933-88fe-bae99cafa494","ios":"levelo://app?vid=adcee44e-aff8-4933-88fe-bae99cafa494"},"vehicle_type_id":"4","last_reported":1730185780,"current_range_meters":32000,"station_id":"ce4bhi12rcd13ifvqfp0","pricing_plan_id":"cebpf4jnsgd1na2vs0mg"},{"bike_id":"41bd2f4b-6e07-4e59-be85-116c85272c52","system_id":"levelo_inurba_marseille","lat":43.32657,"lon":5.40987,"is_reserved":false,"is_disabled":false,"rental_uris":{"android":"levelo://app?vid=41bd2f4b-6e07-4e59-be85-116c85272c52","ios":"levelo://app?vid=41bd2f4b-6e07-4e59-be85-116c85272c52"},"vehicle_type_id":"4","last_reported":1730185780,"current_range_meters":29600,"station_id":"ce4bhpp2rcd13ifvqhgg","pricing_plan_id":"cebpf4jnsgd1na2vs0mg"},{"bike_id":"3c083404-e2d9-48d5-a2d9-71da6b37319f","system_id":"levelo_inurba_marseille","lat":43.2815,"lon":5.42643,"is_reserved":false,"is_disabled":false,"rental_uris":{"android":"levelo://app?vid=3c083404-e2d9-48d5-a2d9-71da6b37319f","ios":"levelo://app?vid=3c083404-e2d9-48d5-a2d9-71da6b37319f"},"vehicle_type_id":"4","last_reported":1730185780,"current_range_meters":39200,"station_id":"ce4bhnh2rcd13ifvqgug","pricing_plan_id":"cebpf4jnsgd1na2vs0mg"},{"bike_id":"93c70b4c-2c7b-476a-80b1-8b7f62b84820","system_id":"levelo_inurba_marseille","lat":43.2731,"lon":5.39081,"is_reserved":false,"is_disabled":false,"rental_uris":{"android":"levelo://app?vid=93c70b4c-2c7b-476a-80b1-8b7f62b84820","ios":"levelo://app?vid=93c70b4c-2c7b-476a-80b1-8b7f62b84820"},"vehicle_type_id":"4","last_reported":1730185780,"current_range_meters":38000,"station_id":"ce4bhgp2rcd13ifvqfe0","pricing_plan_id":"cebpf4jnsgd1na2vs0mg"},{"bike_id":"84bbe571-2e38-4312-8a4b-77d79e0da718","system_id":"levelo_inurba_marseille","lat":43.29228,"lon":5.36072,"is_reserved":false,"is_disabled":false,"rental_uris":{"android":"levelo://app?vid=84bbe571-2e38-4312-8a4b-77d79e0da718","ios":"levelo://app?vid=84bbe571-2e38-4312-8a4b-77d79e0da718"},"vehicle_type_id":"4","last_reported":1730185780,"current_range_meters":20000,"station_id":"ce4bhbh2rcd13ifvqeqg","pricing_plan_id":"cebpf4jnsgd1na2vs0mg"},{"bike_id":"4f4bf255-9d1a-4a0e-9a11-a04474ca4160","system_id":"levelo_inurba_marseille","lat":43.271824,"lon":5.409867,"is_reserved":false,"is_disabled":false,"rental_uris":{"android":"levelo://app?vid=4f4bf255-9d1a-4a0e-9a11-a04474ca4160","ios":"levelo://app?vid=4f4bf255-9d1a-4a0e-9a11-a04474ca4160"},"vehicle_type_id":"4","last_reported":1730185780,"current_range_meters":38800,"station_id":"ce4bhl12rcd13ifvqgf0","pricing_plan_id":"cebpf4jnsgd1na2vs0mg"},{"bike_id":"d9d4a298-8acd-4d1c-8825-3408f5f02c5a","system_id":"levelo_inurba_marseille","lat":43.308,"lon":5.43526,"is_reserved":false,"is_disabled":false,"rental_uris":{"android":"levelo://app?vid=d9d4a298-8acd-4d1c-8825-3408f5f02c5a","ios":"levelo://app?vid=d9d4a298-8acd-4d1c-8825-3408f5f02c5a"},"vehicle_type_id":"4","last_reported":1730185780,"current_range_meters":38400,"station_id":"ce4bhph2rcd13ifvqheg","pricing_plan_id":"cebpf4jnsgd1na2vs0mg"},{"bike_id":"195cf9cd-fc62-41bb-a8ff-ccfeecd4327b","system_id":"levelo_inurba_marseille","lat":43.29607,"lon":5.3773,"is_reserved":false,"is_disabled":false,"rental_uris":{"android":"levelo://app?vid=195cf9cd-fc62-41bb-a8ff-ccfeecd4327b","ios":"levelo://app?vid=195cf9cd-fc62-41bb-a8ff-ccfeecd4327b"},"vehicle_type_id":"4","last_reported":1730185780,"current_range_meters":36800,"station_id":"ce4bgi92rcd13ifvqb90","pricing_plan_id":"cebpf4jnsgd1na2vs0mg"},{"bike_id":"3596a464-c770-4ebd-b1e2-e40084414ba9","system_id":"levelo_inurba_marseille","lat":43.23183,"lon":5.3999,"is_reserved":false,"is_disabled":false,"rental_uris":{"android":"levelo://app?vid=3596a464-c770-4ebd-b1e2-e40084414ba9","ios":"levelo://app?vid=3596a464-c770-4ebd-b1e2-e40084414ba9"},"vehicle_type_id":"4","last_reported":1730185780,"current_range_meters":38400,"station_id":"ce4bhn12rcd13ifvqgqg","pricing_plan_id":"cebpf4jnsgd1na2vs0mg"},{"bike_id":"df61b96c-b629-4fb1-8a4b-d3354e3de566","system_id":"levelo_inurba_marseille","lat":43.28272,"lon":5.35072,"is_reserved":false,"is_disabled":false,"rental_uris":{"android":"levelo://app?vid=df61b96c-b629-4fb1-8a4b-d3354e3de566","ios":"levelo://app?vid=df61b96c-b629-4fb1-8a4b-d3354e3de566"},"vehicle_type_id":"4","last_reported":1730185780,"current_range_meters":38000,"station_id":"ce4bhbp2rcd13ifvqerg","pricing_plan_id":"cebpf4jnsgd1na2vs0mg"},{"bike_id":"decbebf5-cf31-4112-844d-fdc7de716673","system_id":"levelo_inurba_marseille","lat":43.29828,"lon":5.37084,"is_reserved":false,"is_disabled":false,"rental_uris":{"android":"levelo://app?vid=decbebf5-cf31-4112-844d-fdc7de716673","ios":"levelo://app?vid=decbebf5-cf31-4112-844d-fdc7de716673"},"vehicle_type_id":"4","last_reported":1730185780,"current_range_meters":22800,"station_id":"","pricing_plan_id":"cebpf4jnsgd1na2vs0mg"},{"bike_id":"468aa9c7-6f8e-48c3-85e9-d3d7a1cdcc52","system_id":"levelo_inurba_marseille","lat":43.27108,"lon":5.40309,"is_reserved":false,"is_disabled":false,"rental_uris":{"android":"levelo://app?vid=468aa9c7-6f8e-48c3-85e9-d3d7a1cdcc52","ios":"levelo://app?vid=468aa9c7-6f8e-48c3-85e9-d3d7a1cdcc52"},"vehicle_type_id":"4","last_reported":1730185780,"current_range_meters":30400,"station_id":"","pricing_plan_id":"cebpf4jnsgd1na2vs0mg"},{"bike_id":"b890057b-5455-4fed-a346-a30140dbf239","system_id":"levelo_inurba_marseille","lat":43.30535,"lon":5.36553,"is_reserved":false,"is_disabled":false,"rental_uris":{"android":"levelo://app?vid=b890057b-5455-4fed-a346-a30140dbf239","ios":"levelo://app?vid=b890057b-5455-4fed-a346-a30140dbf239"},"vehicle_type_id":"4","last_reported":1730185780,"current_range_meters":35200,"station_id":"ce4bgs12rcd13ifvqcag","pricing_plan_id":"cebpf4jnsgd1na2vs0mg"},{"bike_id":"8107a8d0-709d-4632-b364-a62acb854625","system_id":"levelo_inurba_marseille","lat":43.30909,"lon":5.36836,"is_reserved":false,"is_disabled":false,"rental_uris":{"android":"levelo://app?vid=8107a8d0-709d-4632-b364-a62acb854625","ios":"levelo://app?vid=8107a8d0-709d-4632-b364-a62acb854625"},"vehicle_type_id":"4","last_reported":1730185780,"current_range_meters":32000,"station_id":"ce4bgn92rcd13ifvqbvg","pricing_plan_id":"cebpf4jnsgd1na2vs0mg"},{"bike_id":"9a061509-ab8e-4f69-bbb3-d3345ac56b82","system_id":"levelo_inurba_marseille","lat":43.3014,"lon":5.37422,"is_reserved":false,"is_disabled":false,"rental_uris":{"android":"levelo://app?vid=9a061509-ab8e-4f69-bbb3-d3345ac56b82","ios":"levelo://app?vid=9a061509-ab8e-4f69-bbb3-d3345ac56b82"},"vehicle_type_id":"4","last_reported":1730185780,"current_range_meters":27600,"station_id":"ce4bgs92rcd13ifvqcc0","pricing_plan_id":"cebpf4jnsgd1na2vs0mg"},{"bike_id":"77cb55b9-befc-4438-9ba0-92a2678dd5ea","system_id":"levelo_inurba_marseille","lat":43.28457,"lon":5.35892,"is_reserved":false,"is_disabled":false,"rental_uris":{"android":"levelo://app?vid=77cb55b9-befc-4438-9ba0-92a2678dd5ea","ios":"levelo://app?vid=77cb55b9-befc-4438-9ba0-92a2678dd5ea"},"vehicle_type_id":"4","last_reported":1730185780,"current_range_meters":24400,"station_id":"ce4bhah2rcd13ifvqei0","pricing_plan_id":"cebpf4jnsgd1na2vs0mg"},{"bike_id":"d9efa6f9-66ca-497a-9e9a-3444833a99c2","system_id":"levelo_inurba_marseille","lat":43.29189,"lon":5.35802,"is_reserved":false,"is_disabled":false,"rental_uris":{"android":"levelo://app?vid=d9efa6f9-66ca-497a-9e9a-3444833a99c2","ios":"levelo://app?vid=d9efa6f9-66ca-497a-9e9a-3444833a99c2"},"vehicle_type_id":"4","last_reported":1730185780,"current_range_meters":26000,"station_id":"ce4bhb12rcd13ifvqel0","pricing_plan_id":"cebpf4jnsgd1na2vs0mg"},{"bike_id":"fe0f4ad9-8221-48ed-be5d-c64547a2f47a","system_id":"levelo_inurba_marseille","lat":43.28632,"lon":5.38352,"is_reserved":false,"is_disabled":false,"rental_uris":{"android":"levelo://app?vid=fe0f4ad9-8221-48ed-be5d-c64547a2f47a","ios":"levelo://app?vid=fe0f4ad9-8221-48ed-be5d-c64547a2f47a"},"vehicle_type_id":"4","last_reported":1730185780,"current_range_meters":17200,"station_id":"ce4bh4p2rcd13ifvqe1g","pricing_plan_id":"cebpf4jnsgd1na2vs0mg"},{"bike_id":"4a543a88-f9a6-4c6c-aa83-d0d61cd1ec1a","system_id":"levelo_inurba_marseille","lat":43.29839,"lon":5.36266,"is_reserved":false,"is_disabled":false,"rental_uris":{"android":"levelo://app?vid=4a543a88-f9a6-4c6c-aa83-d0d61cd1ec1a","ios":"levelo://app?vid=4a543a88-f9a6-4c6c-aa83-d0d61cd1ec1a"},"vehicle_type_id":"4","last_reported":1730185780,"current_range_meters":36800,"station_id":"ce4bgpp2rcd13ifvqc3g","pricing_plan_id":"cebpf4jnsgd1na2vs0mg"},{"bike_id":"95a0b55b-c5e7-457d-a4e9-41be027a3aeb","system_id":"levelo_inurba_marseille","lat":43.27179,"lon":5.40999,"is_reserved":false,"is_disabled":false,"rental_uris":{"android":"levelo://app?vid=95a0b55b-c5e7-457d-a4e9-41be027a3aeb","ios":"levelo://app?vid=95a0b55b-c5e7-457d-a4e9-41be027a3aeb"},"vehicle_type_id":"4","last_reported":1730185780,"current_range_meters":37600,"station_id":"ce4bhl12rcd13ifvqgf0","pricing_plan_id":"cebpf4jnsgd1na2vs0mg"},{"bike_id":"6161ee4d-3bd9-4b36-a4d7-867c052bdc22","system_id":"levelo_inurba_marseille","lat":43.32053,"lon":5.41557,"is_reserved":false,"is_disabled":false,"rental_uris":{"android":"levelo://app?vid=6161ee4d-3bd9-4b36-a4d7-867c052bdc22","ios":"levelo://app?vid=6161ee4d-3bd9-4b36-a4d7-867c052bdc22"},"vehicle_type_id":"4","last_reported":1730185780,"current_range_meters":38800,"station_id":"ce4bhq92rcd13ifvqhkg","pricing_plan_id":"cebpf4jnsgd1na2vs0mg"},{"bike_id":"d18297d7-3304-49c0-b695-fc1cb19f0751","system_id":"levelo_inurba_marseille","lat":43.28406,"lon":5.3752,"is_reserved":false,"is_disabled":false,"rental_uris":{"android":"levelo://app?vid=d18297d7-3304-49c0-b695-fc1cb19f0751","ios":"levelo://app?vid=d18297d7-3304-49c0-b695-fc1cb19f0751"},"vehicle_type_id":"4","last_reported":1730185780,"current_range_meters":26000,"station_id":"ce4bh412rcd13ifvqds0","pricing_plan_id":"cebpf4jnsgd1na2vs0mg"},{"bike_id":"ff981985-ad01-47f4-a825-0d9211cc89ce","system_id":"levelo_inurba_marseille","lat":43.28939,"lon":5.39622,"is_reserved":false,"is_disabled":false,"rental_uris":{"android":"levelo://app?vid=ff981985-ad01-47f4-a825-0d9211cc89ce","ios":"levelo://app?vid=ff981985-ad01-47f4-a825-0d9211cc89ce"},"vehicle_type_id":"4","last_reported":1730185780,"current_range_meters":30400,"station_id":"ce4bh3h2rcd13ifvqdn0","pricing_plan_id":"cebpf4jnsgd1na2vs0mg"},{"bike_id":"c103f3cf-a699-4d79-9cc1-df1ab22121e9","system_id":"levelo_inurba_marseille","lat":43.28654,"lon":5.36346,"is_reserved":false,"is_disabled":false,"rental_uris":{"android":"levelo://app?vid=c103f3cf-a699-4d79-9cc1-df1ab22121e9","ios":"levelo://app?vid=c103f3cf-a699-4d79-9cc1-df1ab22121e9"},"vehicle_type_id":"4","last_reported":1730185780,"current_range_meters":33200,"station_id":"ce4bhah2rcd13ifvqej0","pricing_plan_id":"cebpf4jnsgd1na2vs0mg"},{"bike_id":"21b0d405-022c-4046-9483-b0c711fb60b5","system_id":"levelo_inurba_marseille","lat":43.29552,"lon":5.42285,"is_reserved":false,"is_disabled":false,"rental_uris":{"android":"levelo://app?vid=21b0d405-022c-4046-9483-b0c711fb60b5","ios":"levelo://app?vid=21b0d405-022c-4046-9483-b0c711fb60b5"},"vehicle_type_id":"4","last_reported":1730185780,"current_range_meters":38800,"station_id":"ce4bhph2rcd13ifvqhdg","pricing_plan_id":"cebpf4jnsgd1na2vs0mg"},{"bike_id":"56313702-8d29-41f8-9a65-7fe8d8a2d151","system_id":"levelo_inurba_marseille","lat":43.29984,"lon":5.3737,"is_reserved":false,"is_disabled":false,"rental_uris":{"android":"levelo://app?vid=56313702-8d29-41f8-9a65-7fe8d8a2d151","ios":"levelo://app?vid=56313702-8d29-41f8-9a65-7fe8d8a2d151"},"vehicle_type_id":"4","last_reported":1730185780,"current_range_meters":36800,"station_id":"","pricing_plan_id":"cebpf4jnsgd1na2vs0mg"},{"bike_id":"b3c95314-deff-4948-8213-391859cbe57d","system_id":"levelo_inurba_marseille","lat":43.29567,"lon":5.39977,"is_reserved":false,"is_disabled":false,"rental_uris":{"android":"levelo://app?vid=b3c95314-deff-4948-8213-391859cbe57d","ios":"levelo://app?vid=b3c95314-deff-4948-8213-391859cbe57d"},"vehicle_type_id":"4","last_reported":1730185780,"current_range_meters":38000,"station_id":"ce4bh312rcd13ifvqdj0","pricing_plan_id":"cebpf4jnsgd1na2vs0mg"},{"bike_id":"133acd97-0649-4b1c-9d4d-f00ef10062a4","system_id":"levelo_inurba_marseille","lat":43.30153,"lon":5.38082,"is_reserved":false,"is_disabled":false,"rental_uris":{"android":"levelo://app?vid=133acd97-0649-4b1c-9d4d-f00ef10062a4","ios":"levelo://app?vid=133acd97-0649-4b1c-9d4d-f00ef10062a4"},"vehicle_type_id":"4","last_reported":1730185780,"current_range_meters":36000,"station_id":"ce4bgjp2rcd13ifvqbh0","pricing_plan_id":"cebpf4jnsgd1na2vs0mg"},{"bike_id":"3f218860-2066-43e2-aa51-ec73febafd27","system_id":"levelo_inurba_marseille","lat":43.32054,"lon":5.41531,"is_reserved":false,"is_disabled":false,"rental_uris":{"android":"levelo://app?vid=3f218860-2066-43e2-aa51-ec73febafd27","ios":"levelo://app?vid=3f218860-2066-43e2-aa51-ec73febafd27"},"vehicle_type_id":"4","last_reported":1730185780,"current_range_meters":38800,"station_id":"ce4bhq92rcd13ifvqhkg","pricing_plan_id":"cebpf4jnsgd1na2vs0mg"},{"bike_id":"060718a6-cfff-4f0f-bceb-cd33f18eee3d","system_id":"levelo_inurba_marseille","lat":43.24384,"lon":5.37055,"is_reserved":false,"is_disabled":false,"rental_uris":{"android":"levelo://app?vid=060718a6-cfff-4f0f-bceb-cd33f18eee3d","ios":"levelo://app?vid=060718a6-cfff-4f0f-bceb-cd33f18eee3d"},"vehicle_type_id":"4","last_reported":1730185780,"current_range_meters":37600,"station_id":"ce4bhhh2rcd13ifvqfk0","pricing_plan_id":"cebpf4jnsgd1na2vs0mg"},{"bike_id":"76f2154f-aca9-4400-9712-31e97cca02c3","system_id":"levelo_inurba_marseille","lat":43.28145,"lon":5.42649,"is_reserved":false,"is_disabled":false,"rental_uris":{"android":"levelo://app?vid=76f2154f-aca9-4400-9712-31e97cca02c3","ios":"levelo://app?vid=76f2154f-aca9-4400-9712-31e97cca02c3"},"vehicle_type_id":"4","last_reported":1730185780,"current_range_meters":39200,"station_id":"ce4bhnh2rcd13ifvqgug","pricing_plan_id":"cebpf4jnsgd1na2vs0mg"},{"bike_id":"7edaf7fe-1abb-43ad-bf45-23e93d3c6287","system_id":"levelo_inurba_marseille","lat":43.25817,"lon":5.39425,"is_reserved":false,"is_disabled":false,"rental_uris":{"android":"levelo://app?vid=7edaf7fe-1abb-43ad-bf45-23e93d3c6287","ios":"levelo://app?vid=7edaf7fe-1abb-43ad-bf45-23e93d3c6287"},"vehicle_type_id":"4","last_reported":1730185780,"current_range_meters":38400,"station_id":"ce4bhip2rcd13ifvqft0","pricing_plan_id":"cebpf4jnsgd1na2vs0mg"},{"bike_id":"a53c049f-6f82-47cf-8dbf-2be4ba325c3b","system_id":"levelo_inurba_marseille","lat":43.281511,"lon":5.42645,"is_reserved":false,"is_disabled":false,"rental_uris":{"android":"levelo://app?vid=a53c049f-6f82-47cf-8dbf-2be4ba325c3b","ios":"levelo://app?vid=a53c049f-6f82-47cf-8dbf-2be4ba325c3b"},"vehicle_type_id":"4","last_reported":1730185780,"current_range_meters":38000,"station_id":"ce4bhnh2rcd13ifvqgug","pricing_plan_id":"cebpf4jnsgd1na2vs0mg"},{"bike_id":"e5eeca8e-eae6-4ded-8e97-461d735497ca","system_id":"levelo_inurba_marseille","lat":43.30156,"lon":5.38088,"is_reserved":false,"is_disabled":false,"rental_uris":{"android":"levelo://app?vid=e5eeca8e-eae6-4ded-8e97-461d735497ca","ios":"levelo://app?vid=e5eeca8e-eae6-4ded-8e97-461d735497ca"},"vehicle_type_id":"4","last_reported":1730185780,"current_range_meters":31200,"station_id":"ce4bgjp2rcd13ifvqbh0","pricing_plan_id":"cebpf4jnsgd1na2vs0mg"},{"bike_id":"14e6571f-cd8e-4f85-a4d5-47e960874d17","system_id":"levelo_inurba_marseille","lat":43.259766,"lon":5.394042,"is_reserved":false,"is_disabled":false,"rental_uris":{"android":"levelo://app?vid=14e6571f-cd8e-4f85-a4d5-47e960874d17","ios":"levelo://app?vid=14e6571f-cd8e-4f85-a4d5-47e960874d17"},"vehicle_type_id":"4","last_reported":1730185780,"current_range_meters":28000,"station_id":"ce4bhip2rcd13ifvqft0","pricing_plan_id":"cebpf4jnsgd1na2vs0mg"},{"bike_id":"c83bf92a-895e-4031-90cc-0a4806604b3f","system_id":"levelo_inurba_marseille","lat":43.23054,"lon":5.35494,"is_reserved":false,"is_disabled":false,"rental_uris":{"android":"levelo://app?vid=c83bf92a-895e-4031-90cc-0a4806604b3f","ios":"levelo://app?vid=c83bf92a-895e-4031-90cc-0a4806604b3f"},"vehicle_type_id":"4","last_reported":1730185780,"current_range_meters":33200,"station_id":"cpo3342slgdg3j2ifvpg","pricing_plan_id":"cebpf4jnsgd1na2vs0mg"},{"bike_id":"e65a07c9-739d-441d-83e2-45b8a6caa16d","system_id":"levelo_inurba_marseille","lat":43.29274,"lon":5.36843,"is_reserved":false,"is_disabled":false,"rental_uris":{"android":"levelo://app?vid=e65a07c9-739d-441d-83e2-45b8a6caa16d","ios":"levelo://app?vid=e65a07c9-739d-441d-83e2-45b8a6caa16d"},"vehicle_type_id":"4","last_reported":1730185780,"current_range_meters":37600,"station_id":"ce4bhbp2rcd13ifvqesg","pricing_plan_id":"cebpf4jnsgd1na2vs0mg"},{"bike_id":"3f4e9f7d-d364-447b-b7a3-5938ab5df8c4","system_id":"levelo_inurba_marseille","lat":43.32478,"lon":5.36561,"is_reserved":false,"is_disabled":false,"rental_uris":{"android":"levelo://app?vid=3f4e9f7d-d364-447b-b7a3-5938ab5df8c4","ios":"levelo://app?vid=3f4e9f7d-d364-447b-b7a3-5938ab5df8c4"},"vehicle_type_id":"4","last_reported":1730185780,"current_range_meters":38800,"station_id":"ce4bhs12rcd13ifvqhvg","pricing_plan_id":"cebpf4jnsgd1na2vs0mg"},{"bike_id":"9fd56fad-5f3d-42b4-b491-7b57b76bc0cf","system_id":"levelo_inurba_marseille","lat":43.27808,"lon":5.40715,"is_reserved":false,"is_disabled":false,"rental_uris":{"android":"levelo://app?vid=9fd56fad-5f3d-42b4-b491-7b57b76bc0cf","ios":"levelo://app?vid=9fd56fad-5f3d-42b4-b491-7b57b76bc0cf"},"vehicle_type_id":"4","last_reported":1730185780,"current_range_meters":11600,"station_id":"ce4bhnh2rcd13ifvqgtg","pricing_plan_id":"cebpf4jnsgd1na2vs0mg"},{"bike_id":"29e730b5-77d0-469f-aebb-f8f3daf3000c","system_id":"levelo_inurba_marseille","lat":43.24661,"lon":5.38157,"is_reserved":false,"is_disabled":false,"rental_uris":{"android":"levelo://app?vid=29e730b5-77d0-469f-aebb-f8f3daf3000c","ios":"levelo://app?vid=29e730b5-77d0-469f-aebb-f8f3daf3000c"},"vehicle_type_id":"4","last_reported":1730185780,"current_range_meters":23200,"station_id":"ce4bhih2rcd13ifvqfr0","pricing_plan_id":"cebpf4jnsgd1na2vs0mg"},{"bike_id":"d223370f-7cb9-467f-bd3e-fc947a59a2c5","system_id":"levelo_inurba_marseille","lat":43.27943,"lon":5.41048,"is_reserved":false,"is_disabled":false,"rental_uris":{"android":"levelo://app?vid=d223370f-7cb9-467f-bd3e-fc947a59a2c5","ios":"levelo://app?vid=d223370f-7cb9-467f-bd3e-fc947a59a2c5"},"vehicle_type_id":"4","last_reported":1730185780,"current_range_meters":38400,"station_id":"ce4bhnp2rcd13ifvqh0g","pricing_plan_id":"cebpf4jnsgd1na2vs0mg"},{"bike_id":"be140c2c-9e9f-4116-823c-bebf1b666941","system_id":"levelo_inurba_marseille","lat":43.27903,"lon":5.38007,"is_reserved":false,"is_disabled":false,"rental_uris":{"android":"levelo://app?vid=be140c2c-9e9f-4116-823c-bebf1b666941","ios":"levelo://app?vid=be140c2c-9e9f-4116-823c-bebf1b666941"},"vehicle_type_id":"4","last_reported":1730185780,"current_range_meters":38800,"station_id":"ce4bhf92rcd13ifvqf50","pricing_plan_id":"cebpf4jnsgd1na2vs0mg"},{"bike_id":"4d0afaed-40df-4176-86e2-9618783b2643","system_id":"levelo_inurba_marseille","lat":43.29632,"lon":5.406,"is_reserved":false,"is_disabled":false,"rental_uris":{"android":"levelo://app?vid=4d0afaed-40df-4176-86e2-9618783b2643","ios":"levelo://app?vid=4d0afaed-40df-4176-86e2-9618783b2643"},"vehicle_type_id":"4","last_reported":1730185780,"current_range_meters":38800,"station_id":"ce4bh0h2rcd13ifvqd60","pricing_plan_id":"cebpf4jnsgd1na2vs0mg"},{"bike_id":"84fb256a-a8e2-4be8-a18b-9ab2318d1bb4","system_id":"levelo_inurba_marseille","lat":43.26206,"lon":5.37446,"is_reserved":false,"is_disabled":false,"rental_uris":{"android":"levelo://app?vid=84fb256a-a8e2-4be8-a18b-9ab2318d1bb4","ios":"levelo://app?vid=84fb256a-a8e2-4be8-a18b-9ab2318d1bb4"},"vehicle_type_id":"4","last_reported":1730185780,"current_range_meters":23200,"station_id":"ce4bhgp2rcd13ifvqfc0","pricing_plan_id":"cebpf4jnsgd1na2vs0mg"},{"bike_id":"88ccc8fa-7cb9-45ca-9121-dbcf779c5cac","system_id":"levelo_inurba_marseille","lat":43.31171,"lon":5.38708,"is_reserved":false,"is_disabled":false,"rental_uris":{"android":"levelo://app?vid=88ccc8fa-7cb9-45ca-9121-dbcf779c5cac","ios":"levelo://app?vid=88ccc8fa-7cb9-45ca-9121-dbcf779c5cac"},"vehicle_type_id":"4","last_reported":1730185780,"current_range_meters":36800,"station_id":"ce4bgv12rcd13ifvqcp0","pricing_plan_id":"cebpf4jnsgd1na2vs0mg"},{"bike_id":"2aa747f4-2815-4a3e-80ef-62b5d775fd2a","system_id":"levelo_inurba_marseille","lat":43.27183,"lon":5.41001,"is_reserved":false,"is_disabled":false,"rental_uris":{"android":"levelo://app?vid=2aa747f4-2815-4a3e-80ef-62b5d775fd2a","ios":"levelo://app?vid=2aa747f4-2815-4a3e-80ef-62b5d775fd2a"},"vehicle_type_id":"4","last_reported":1730185780,"current_range_meters":38400,"station_id":"ce4bhl12rcd13ifvqgf0","pricing_plan_id":"cebpf4jnsgd1na2vs0mg"},{"bike_id":"ae1d1928-be54-494e-8385-f53d8397a507","system_id":"levelo_inurba_marseille","lat":43.30146,"lon":5.38081,"is_reserved":false,"is_disabled":false,"rental_uris":{"android":"levelo://app?vid=ae1d1928-be54-494e-8385-f53d8397a507","ios":"levelo://app?vid=ae1d1928-be54-494e-8385-f53d8397a507"},"vehicle_type_id":"4","last_reported":1730185780,"current_range_meters":34000,"station_id":"ce4bgjp2rcd13ifvqbh0","pricing_plan_id":"cebpf4jnsgd1na2vs0mg"},{"bike_id":"4f2a33cb-fa61-44dc-a8e5-a08fae1f9a3e","system_id":"levelo_inurba_marseille","lat":43.29194,"lon":5.35803,"is_reserved":false,"is_disabled":false,"rental_uris":{"android":"levelo://app?vid=4f2a33cb-fa61-44dc-a8e5-a08fae1f9a3e","ios":"levelo://app?vid=4f2a33cb-fa61-44dc-a8e5-a08fae1f9a3e"},"vehicle_type_id":"4","last_reported":1730185780,"current_range_meters":35600,"station_id":"ce4bhb12rcd13ifvqel0","pricing_plan_id":"cebpf4jnsgd1na2vs0mg"},{"bike_id":"3f8626e1-e8a4-4f10-9a3b-b01695500b9e","system_id":"levelo_inurba_marseille","lat":43.2926,"lon":5.40902,"is_reserved":false,"is_disabled":false,"rental_uris":{"android":"levelo://app?vid=3f8626e1-e8a4-4f10-9a3b-b01695500b9e","ios":"levelo://app?vid=3f8626e1-e8a4-4f10-9a3b-b01695500b9e"},"vehicle_type_id":"4","last_reported":1730185780,"current_range_meters":38000,"station_id":"ce4bh192rcd13ifvqdc0","pricing_plan_id":"cebpf4jnsgd1na2vs0mg"},{"bike_id":"30da2a55-abfc-46da-a190-6a4d288386aa","system_id":"levelo_inurba_marseille","lat":43.299594,"lon":5.413452,"is_reserved":false,"is_disabled":false,"rental_uris":{"android":"levelo://app?vid=30da2a55-abfc-46da-a190-6a4d288386aa","ios":"levelo://app?vid=30da2a55-abfc-46da-a190-6a4d288386aa"},"vehicle_type_id":"4","last_reported":1730185780,"current_range_meters":22000,"station_id":"ce4bhp12rcd13ifvqh9g","pricing_plan_id":"cebpf4jnsgd1na2vs0mg"},{"bike_id":"d7130213-5f63-4734-a5d3-ec784fc960ee","system_id":"levelo_inurba_marseille","lat":43.28438,"lon":5.36059,"is_reserved":false,"is_disabled":false,"rental_uris":{"android":"levelo://app?vid=d7130213-5f63-4734-a5d3-ec784fc960ee","ios":"levelo://app?vid=d7130213-5f63-4734-a5d3-ec784fc960ee"},"vehicle_type_id":"4","last_reported":1730185780,"current_range_meters":10000,"station_id":"","pricing_plan_id":"cebpf4jnsgd1na2vs0mg"},{"bike_id":"9392ce40-a24d-4085-b8e5-c2a14c6a57c0","system_id":"levelo_inurba_marseille","lat":43.25351,"lon":5.401847,"is_reserved":false,"is_disabled":false,"rental_uris":{"android":"levelo://app?vid=9392ce40-a24d-4085-b8e5-c2a14c6a57c0","ios":"levelo://app?vid=9392ce40-a24d-4085-b8e5-c2a14c6a57c0"},"vehicle_type_id":"4","last_reported":1730185780,"current_range_meters":36400,"station_id":"ce4bhlh2rcd13ifvqgig","pricing_plan_id":"cebpf4jnsgd1na2vs0mg"},{"bike_id":"23672e5b-050f-4837-a454-e50245d17695","system_id":"levelo_inurba_marseille","lat":43.31707,"lon":5.37754,"is_reserved":false,"is_disabled":false,"rental_uris":{"android":"levelo://app?vid=23672e5b-050f-4837-a454-e50245d17695","ios":"levelo://app?vid=23672e5b-050f-4837-a454-e50245d17695"},"vehicle_type_id":"4","last_reported":1730185780,"current_range_meters":38800,"station_id":"ce4bgth2rcd13ifvqch0","pricing_plan_id":"cebpf4jnsgd1na2vs0mg"},{"bike_id":"7d448865-89d6-47db-9acc-4a303dfc59b2","system_id":"levelo_inurba_marseille","lat":43.30276,"lon":5.37707,"is_reserved":false,"is_disabled":false,"rental_uris":{"android":"levelo://app?vid=7d448865-89d6-47db-9acc-4a303dfc59b2","ios":"levelo://app?vid=7d448865-89d6-47db-9acc-4a303dfc59b2"},"vehicle_type_id":"4","last_reported":1730185780,"current_range_meters":34000,"station_id":"ce4bguh2rcd13ifvqcj0","pricing_plan_id":"cebpf4jnsgd1na2vs0mg"},{"bike_id":"d868f3f0-cf27-49d5-8f8c-0755c399ba13","system_id":"levelo_inurba_marseille","lat":43.304185,"lon":5.412853,"is_reserved":false,"is_disabled":false,"rental_uris":{"android":"levelo://app?vid=d868f3f0-cf27-49d5-8f8c-0755c399ba13","ios":"levelo://app?vid=d868f3f0-cf27-49d5-8f8c-0755c399ba13"},"vehicle_type_id":"4","last_reported":1730185780,"current_range_meters":29600,"station_id":"ce4bhop2rcd13ifvqh8g","pricing_plan_id":"cebpf4jnsgd1na2vs0mg"},{"bike_id":"a4dc97ac-9c75-4171-ac9b-7a9de19c8a6c","system_id":"levelo_inurba_marseille","lat":43.31485,"lon":5.37295,"is_reserved":false,"is_disabled":false,"rental_uris":{"android":"levelo://app?vid=a4dc97ac-9c75-4171-ac9b-7a9de19c8a6c","ios":"levelo://app?vid=a4dc97ac-9c75-4171-ac9b-7a9de19c8a6c"},"vehicle_type_id":"4","last_reported":1730185780,"current_range_meters":28400,"station_id":"ce4bgt12rcd13ifvqcd0","pricing_plan_id":"cebpf4jnsgd1na2vs0mg"},{"bike_id":"df951adf-e6c9-46a7-a012-af0d884c05f9","system_id":"levelo_inurba_marseille","lat":43.26683,"lon":5.38272,"is_reserved":false,"is_disabled":false,"rental_uris":{"android":"levelo://app?vid=df951adf-e6c9-46a7-a012-af0d884c05f9","ios":"levelo://app?vid=df951adf-e6c9-46a7-a012-af0d884c05f9"},"vehicle_type_id":"4","last_reported":1730185780,"current_range_meters":32800,"station_id":"ce4bhg92rcd13ifvqf90","pricing_plan_id":"cebpf4jnsgd1na2vs0mg"},{"bike_id":"0767fba8-2acc-437e-85a2-d8e45257d9b6","system_id":"levelo_inurba_marseille","lat":43.31329,"lon":5.39698,"is_reserved":false,"is_disabled":false,"rental_uris":{"android":"levelo://app?vid=0767fba8-2acc-437e-85a2-d8e45257d9b6","ios":"levelo://app?vid=0767fba8-2acc-437e-85a2-d8e45257d9b6"},"vehicle_type_id":"4","last_reported":1730185780,"current_range_meters":37600,"station_id":"ce4bgvp2rcd13ifvqcu0","pricing_plan_id":"cebpf4jnsgd1na2vs0mg"},{"bike_id":"c10b7c2c-215b-42b7-bf6f-5707822b2d61","system_id":"levelo_inurba_marseille","lat":43.25933,"lon":5.40914,"is_reserved":false,"is_disabled":false,"rental_uris":{"android":"levelo://app?vid=c10b7c2c-215b-42b7-bf6f-5707822b2d61","ios":"levelo://app?vid=c10b7c2c-215b-42b7-bf6f-5707822b2d61"},"vehicle_type_id":"4","last_reported":1730185780,"current_range_meters":29600,"station_id":"ce4bhm92rcd13ifvqglg","pricing_plan_id":"cebpf4jnsgd1na2vs0mg"},{"bike_id":"b1f81418-f03e-460d-ba36-6db2cbc70627","system_id":"levelo_inurba_marseille","lat":43.2958,"lon":5.36736,"is_reserved":false,"is_disabled":false,"rental_uris":{"android":"levelo://app?vid=b1f81418-f03e-460d-ba36-6db2cbc70627","ios":"levelo://app?vid=b1f81418-f03e-460d-ba36-6db2cbc70627"},"vehicle_type_id":"4","last_reported":1730185780,"current_range_meters":38000,"station_id":"ce4bgph2rcd13ifvqc2g","pricing_plan_id":"cebpf4jnsgd1na2vs0mg"},{"bike_id":"f7a50275-88a4-4be4-ac33-5cce1242cfaa","system_id":"levelo_inurba_marseille","lat":43.31657,"lon":5.37687,"is_reserved":false,"is_disabled":false,"rental_uris":{"android":"levelo://app?vid=f7a50275-88a4-4be4-ac33-5cce1242cfaa","ios":"levelo://app?vid=f7a50275-88a4-4be4-ac33-5cce1242cfaa"},"vehicle_type_id":"4","last_reported":1730185780,"current_range_meters":35600,"station_id":"","pricing_plan_id":"cebpf4jnsgd1na2vs0mg"},{"bike_id":"69d3a6e2-3f07-40ef-bdf0-53e5bd3677a3","system_id":"levelo_inurba_marseille","lat":43.28699,"lon":5.39981,"is_reserved":false,"is_disabled":false,"rental_uris":{"android":"levelo://app?vid=69d3a6e2-3f07-40ef-bdf0-53e5bd3677a3","ios":"levelo://app?vid=69d3a6e2-3f07-40ef-bdf0-53e5bd3677a3"},"vehicle_type_id":"4","last_reported":1730185780,"current_range_meters":38800,"station_id":"ce4bho92rcd13ifvqh3g","pricing_plan_id":"cebpf4jnsgd1na2vs0mg"},{"bike_id":"23084cca-de0d-4f37-80ab-37ba6326d16d","system_id":"levelo_inurba_marseille","lat":43.28403,"lon":5.37512,"is_reserved":false,"is_disabled":false,"rental_uris":{"android":"levelo://app?vid=23084cca-de0d-4f37-80ab-37ba6326d16d","ios":"levelo://app?vid=23084cca-de0d-4f37-80ab-37ba6326d16d"},"vehicle_type_id":"4","last_reported":1730185780,"current_range_meters":36000,"station_id":"ce4bh412rcd13ifvqds0","pricing_plan_id":"cebpf4jnsgd1na2vs0mg"},{"bike_id":"3ae749c1-46ed-4d6f-8a2b-05668312da6a","system_id":"levelo_inurba_marseille","lat":43.25105,"lon":5.40327,"is_reserved":false,"is_disabled":false,"rental_uris":{"android":"levelo://app?vid=3ae749c1-46ed-4d6f-8a2b-05668312da6a","ios":"levelo://app?vid=3ae749c1-46ed-4d6f-8a2b-05668312da6a"},"vehicle_type_id":"4","last_reported":1730185780,"current_range_meters":16400,"station_id":"ce4bhlh2rcd13ifvqgig","pricing_plan_id":"cebpf4jnsgd1na2vs0mg"},{"bike_id":"95048e77-936d-4acd-84b5-3f8fd209ed9a","system_id":"levelo_inurba_marseille","lat":43.30312,"lon":5.36897,"is_reserved":false,"is_disabled":false,"rental_uris":{"android":"levelo://app?vid=95048e77-936d-4acd-84b5-3f8fd209ed9a","ios":"levelo://app?vid=95048e77-936d-4acd-84b5-3f8fd209ed9a"},"vehicle_type_id":"4","last_reported":1730185780,"current_range_meters":38400,"station_id":"ce4bgqh2rcd13ifvqc5g","pricing_plan_id":"cebpf4jnsgd1na2vs0mg"},{"bike_id":"4a7d2e78-51b9-46d2-bf89-98a48709d13a","system_id":"levelo_inurba_marseille","lat":43.31719,"lon":5.42404,"is_reserved":false,"is_disabled":false,"rental_uris":{"android":"levelo://app?vid=4a7d2e78-51b9-46d2-bf89-98a48709d13a","ios":"levelo://app?vid=4a7d2e78-51b9-46d2-bf89-98a48709d13a"},"vehicle_type_id":"4","last_reported":1730185780,"current_range_meters":38800,"station_id":"ce4bhp92rcd13ifvqhbg","pricing_plan_id":"cebpf4jnsgd1na2vs0mg"},{"bike_id":"bdad40da-4714-4179-a84e-4bbe5a2c808e","system_id":"levelo_inurba_marseille","lat":43.30151,"lon":5.38083,"is_reserved":false,"is_disabled":false,"rental_uris":{"android":"levelo://app?vid=bdad40da-4714-4179-a84e-4bbe5a2c808e","ios":"levelo://app?vid=bdad40da-4714-4179-a84e-4bbe5a2c808e"},"vehicle_type_id":"4","last_reported":1730185780,"current_range_meters":20800,"station_id":"","pricing_plan_id":"cebpf4jnsgd1na2vs0mg"},{"bike_id":"f99bccd3-d3a6-4026-8c96-f3f15e63c7d1","system_id":"levelo_inurba_marseille","lat":43.31217,"lon":5.3685,"is_reserved":false,"is_disabled":false,"rental_uris":{"android":"levelo://app?vid=f99bccd3-d3a6-4026-8c96-f3f15e63c7d1","ios":"levelo://app?vid=f99bccd3-d3a6-4026-8c96-f3f15e63c7d1"},"vehicle_type_id":"4","last_reported":1730185780,"current_range_meters":38800,"station_id":"ce4bgl92rcd13ifvqbq0","pricing_plan_id":"cebpf4jnsgd1na2vs0mg"},{"bike_id":"0c53382f-83fb-45ec-871d-d4e880c7383e","system_id":"levelo_inurba_marseille","lat":43.27997,"lon":5.40017,"is_reserved":false,"is_disabled":false,"rental_uris":{"android":"levelo://app?vid=0c53382f-83fb-45ec-871d-d4e880c7383e","ios":"levelo://app?vid=0c53382f-83fb-45ec-871d-d4e880c7383e"},"vehicle_type_id":"4","last_reported":1730185780,"current_range_meters":10800,"station_id":"ce4bho92rcd13ifvqh4g","pricing_plan_id":"cebpf4jnsgd1na2vs0mg"},{"bike_id":"fbc27b08-f101-4599-8f6b-beb812780993","system_id":"levelo_inurba_marseille","lat":43.29896,"lon":5.43666,"is_reserved":false,"is_disabled":false,"rental_uris":{"android":"levelo://app?vid=fbc27b08-f101-4599-8f6b-beb812780993","ios":"levelo://app?vid=fbc27b08-f101-4599-8f6b-beb812780993"},"vehicle_type_id":"4","last_reported":1730185780,"current_range_meters":39200,"station_id":"ce4bhpp2rcd13ifvqhfg","pricing_plan_id":"cebpf4jnsgd1na2vs0mg"},{"bike_id":"6f487d93-ed54-4bc3-8917-f0af52bd63dd","system_id":"levelo_inurba_marseille","lat":43.27912,"lon":5.39586,"is_reserved":false,"is_disabled":false,"rental_uris":{"android":"levelo://app?vid=6f487d93-ed54-4bc3-8917-f0af52bd63dd","ios":"levelo://app?vid=6f487d93-ed54-4bc3-8917-f0af52bd63dd"},"vehicle_type_id":"4","last_reported":1730185780,"current_range_meters":5600,"station_id":"ce4bhf92rcd13ifvqf40","pricing_plan_id":"cebpf4jnsgd1na2vs0mg"},{"bike_id":"eadfee46-9822-40ad-8cda-cc07633b3b78","system_id":"levelo_inurba_marseille","lat":43.278973,"lon":5.380069,"is_reserved":false,"is_disabled":false,"rental_uris":{"android":"levelo://app?vid=eadfee46-9822-40ad-8cda-cc07633b3b78","ios":"levelo://app?vid=eadfee46-9822-40ad-8cda-cc07633b3b78"},"vehicle_type_id":"4","last_reported":1730185780,"current_range_meters":38000,"station_id":"ce4bhf92rcd13ifvqf50","pricing_plan_id":"cebpf4jnsgd1na2vs0mg"},{"bike_id":"9befed88-9f8c-464c-b07b-093bd97066bb","system_id":"levelo_inurba_marseille","lat":43.29805,"lon":5.37136,"is_reserved":false,"is_disabled":false,"rental_uris":{"android":"levelo://app?vid=9befed88-9f8c-464c-b07b-093bd97066bb","ios":"levelo://app?vid=9befed88-9f8c-464c-b07b-093bd97066bb"},"vehicle_type_id":"4","last_reported":1730185780,"current_range_meters":11600,"station_id":"","pricing_plan_id":"cebpf4jnsgd1na2vs0mg"},{"bike_id":"c8a92740-2b09-4ca5-9043-1ba83935e34d","system_id":"levelo_inurba_marseille","lat":43.24391,"lon":5.37065,"is_reserved":false,"is_disabled":false,"rental_uris":{"android":"levelo://app?vid=c8a92740-2b09-4ca5-9043-1ba83935e34d","ios":"levelo://app?vid=c8a92740-2b09-4ca5-9043-1ba83935e34d"},"vehicle_type_id":"4","last_reported":1730185780,"current_range_meters":38400,"station_id":"ce4bhhh2rcd13ifvqfk0","pricing_plan_id":"cebpf4jnsgd1na2vs0mg"},{"bike_id":"f9b128ce-498f-42c7-bec6-83e99e8e3eaa","system_id":"levelo_inurba_marseille","lat":43.25732,"lon":5.41109,"is_reserved":false,"is_disabled":false,"rental_uris":{"android":"levelo://app?vid=f9b128ce-498f-42c7-bec6-83e99e8e3eaa","ios":"levelo://app?vid=f9b128ce-498f-42c7-bec6-83e99e8e3eaa"},"vehicle_type_id":"4","last_reported":1730185780,"current_range_meters":38400,"station_id":"ce4bhkp2rcd13ifvqgd0","pricing_plan_id":"cebpf4jnsgd1na2vs0mg"},{"bike_id":"d89738db-46f7-4419-afe9-5c262921f5df","system_id":"levelo_inurba_marseille","lat":43.262109,"lon":5.374381,"is_reserved":false,"is_disabled":false,"rental_uris":{"android":"levelo://app?vid=d89738db-46f7-4419-afe9-5c262921f5df","ios":"levelo://app?vid=d89738db-46f7-4419-afe9-5c262921f5df"},"vehicle_type_id":"4","last_reported":1730185780,"current_range_meters":28400,"station_id":"ce4bhgp2rcd13ifvqfc0","pricing_plan_id":"cebpf4jnsgd1na2vs0mg"},{"bike_id":"2939a545-bf49-4ac9-84eb-69dd8138616a","system_id":"levelo_inurba_marseille","lat":43.27171,"lon":5.40999,"is_reserved":false,"is_disabled":false,"rental_uris":{"android":"levelo://app?vid=2939a545-bf49-4ac9-84eb-69dd8138616a","ios":"levelo://app?vid=2939a545-bf49-4ac9-84eb-69dd8138616a"},"vehicle_type_id":"4","last_reported":1730185780,"current_range_meters":38800,"station_id":"ce4bhl12rcd13ifvqgf0","pricing_plan_id":"cebpf4jnsgd1na2vs0mg"},{"bike_id":"e1e9b6d7-e4eb-4e70-88b3-b39e28dc2b3d","system_id":"levelo_inurba_marseille","lat":43.28939,"lon":5.39624,"is_reserved":false,"is_disabled":false,"rental_uris":{"android":"levelo://app?vid=e1e9b6d7-e4eb-4e70-88b3-b39e28dc2b3d","ios":"levelo://app?vid=e1e9b6d7-e4eb-4e70-88b3-b39e28dc2b3d"},"vehicle_type_id":"4","last_reported":1730185780,"current_range_meters":38800,"station_id":"ce4bh3h2rcd13ifvqdn0","pricing_plan_id":"cebpf4jnsgd1na2vs0mg"},{"bike_id":"f9a2aa18-615d-43f8-9a19-eb948e242e45","system_id":"levelo_inurba_marseille","lat":43.24999,"lon":5.38919,"is_reserved":false,"is_disabled":false,"rental_uris":{"android":"levelo://app?vid=f9a2aa18-615d-43f8-9a19-eb948e242e45","ios":"levelo://app?vid=f9a2aa18-615d-43f8-9a19-eb948e242e45"},"vehicle_type_id":"4","last_reported":1730185780,"current_range_meters":38400,"station_id":"ce4bhgp2rcd13ifvqfd0","pricing_plan_id":"cebpf4jnsgd1na2vs0mg"},{"bike_id":"1641e2d9-e39a-4f2a-a551-3a59775f9162","system_id":"levelo_inurba_marseille","lat":43.32481,"lon":5.3657,"is_reserved":false,"is_disabled":false,"rental_uris":{"android":"levelo://app?vid=1641e2d9-e39a-4f2a-a551-3a59775f9162","ios":"levelo://app?vid=1641e2d9-e39a-4f2a-a551-3a59775f9162"},"vehicle_type_id":"4","last_reported":1730185780,"current_range_meters":12400,"station_id":"ce4bhs12rcd13ifvqhvg","pricing_plan_id":"cebpf4jnsgd1na2vs0mg"},{"bike_id":"ee48cd8f-5c0d-46b3-9c8e-479f0af1ef6d","system_id":"levelo_inurba_marseille","lat":43.334259,"lon":5.41035,"is_reserved":false,"is_disabled":false,"rental_uris":{"android":"levelo://app?vid=ee48cd8f-5c0d-46b3-9c8e-479f0af1ef6d","ios":"levelo://app?vid=ee48cd8f-5c0d-46b3-9c8e-479f0af1ef6d"},"vehicle_type_id":"4","last_reported":1730185780,"current_range_meters":27200,"station_id":"ce4bhqh2rcd13ifvqhmg","pricing_plan_id":"cebpf4jnsgd1na2vs0mg"},{"bike_id":"99be546e-23a0-4a8f-897d-f4ebd4b3bc15","system_id":"levelo_inurba_marseille","lat":43.27377,"lon":5.36258,"is_reserved":false,"is_disabled":false,"rental_uris":{"android":"levelo://app?vid=99be546e-23a0-4a8f-897d-f4ebd4b3bc15","ios":"levelo://app?vid=99be546e-23a0-4a8f-897d-f4ebd4b3bc15"},"vehicle_type_id":"4","last_reported":1730185780,"current_range_meters":38000,"station_id":"ce4bhbh2rcd13ifvqeo0","pricing_plan_id":"cebpf4jnsgd1na2vs0mg"},{"bike_id":"7fa4e6bb-4309-458d-a37c-7fded8f16b44","system_id":"levelo_inurba_marseille","lat":43.31261,"lon":5.36678,"is_reserved":false,"is_disabled":false,"rental_uris":{"android":"levelo://app?vid=7fa4e6bb-4309-458d-a37c-7fded8f16b44","ios":"levelo://app?vid=7fa4e6bb-4309-458d-a37c-7fded8f16b44"},"vehicle_type_id":"4","last_reported":1730185780,"current_range_meters":16400,"station_id":"","pricing_plan_id":"cebpf4jnsgd1na2vs0mg"},{"bike_id":"844023ff-6d0b-454c-9110-ed149a7ecdf3","system_id":"levelo_inurba_marseille","lat":43.33613,"lon":5.41028,"is_reserved":false,"is_disabled":false,"rental_uris":{"android":"levelo://app?vid=844023ff-6d0b-454c-9110-ed149a7ecdf3","ios":"levelo://app?vid=844023ff-6d0b-454c-9110-ed149a7ecdf3"},"vehicle_type_id":"4","last_reported":1730185780,"current_range_meters":17600,"station_id":"ce4bhqh2rcd13ifvqhmg","pricing_plan_id":"cebpf4jnsgd1na2vs0mg"},{"bike_id":"6967ff5b-04da-439b-aacc-0ed05cc002bb","system_id":"levelo_inurba_marseille","lat":43.28573,"lon":5.39501,"is_reserved":false,"is_disabled":false,"rental_uris":{"android":"levelo://app?vid=6967ff5b-04da-439b-aacc-0ed05cc002bb","ios":"levelo://app?vid=6967ff5b-04da-439b-aacc-0ed05cc002bb"},"vehicle_type_id":"4","last_reported":1730185780,"current_range_meters":38800,"station_id":"ce4bh292rcd13ifvqdg0","pricing_plan_id":"cebpf4jnsgd1na2vs0mg"},{"bike_id":"fb1b1a6c-a24e-4b48-918d-880a58c80d58","system_id":"levelo_inurba_marseille","lat":43.25004,"lon":5.3892,"is_reserved":false,"is_disabled":false,"rental_uris":{"android":"levelo://app?vid=fb1b1a6c-a24e-4b48-918d-880a58c80d58","ios":"levelo://app?vid=fb1b1a6c-a24e-4b48-918d-880a58c80d58"},"vehicle_type_id":"4","last_reported":1730185780,"current_range_meters":14000,"station_id":"ce4bhgp2rcd13ifvqfd0","pricing_plan_id":"cebpf4jnsgd1na2vs0mg"},{"bike_id":"1b0fd3f0-29d5-4908-8ab9-1a00b8883aba","system_id":"levelo_inurba_marseille","lat":43.308851,"lon":5.396441,"is_reserved":false,"is_disabled":false,"rental_uris":{"android":"levelo://app?vid=1b0fd3f0-29d5-4908-8ab9-1a00b8883aba","ios":"levelo://app?vid=1b0fd3f0-29d5-4908-8ab9-1a00b8883aba"},"vehicle_type_id":"4","last_reported":1730185780,"current_range_meters":38400,"station_id":"ce4bh012rcd13ifvqcv0","pricing_plan_id":"cebpf4jnsgd1na2vs0mg"},{"bike_id":"2d12c957-3c21-49fc-84ec-80691e697d95","system_id":"levelo_inurba_marseille","lat":43.29729,"lon":5.37676,"is_reserved":false,"is_disabled":false,"rental_uris":{"android":"levelo://app?vid=2d12c957-3c21-49fc-84ec-80691e697d95","ios":"levelo://app?vid=2d12c957-3c21-49fc-84ec-80691e697d95"},"vehicle_type_id":"4","last_reported":1730185780,"current_range_meters":38800,"station_id":"ce4bgkh2rcd13ifvqbl0","pricing_plan_id":"cebpf4jnsgd1na2vs0mg"},{"bike_id":"165cc2e4-d790-4475-9ee2-3ae177cdb235","system_id":"levelo_inurba_marseille","lat":43.27953,"lon":5.41049,"is_reserved":false,"is_disabled":false,"rental_uris":{"android":"levelo://app?vid=165cc2e4-d790-4475-9ee2-3ae177cdb235","ios":"levelo://app?vid=165cc2e4-d790-4475-9ee2-3ae177cdb235"},"vehicle_type_id":"4","last_reported":1730185780,"current_range_meters":36800,"station_id":"ce4bhnp2rcd13ifvqh0g","pricing_plan_id":"cebpf4jnsgd1na2vs0mg"},{"bike_id":"8a6265c5-55bd-4caa-b4ca-76fa64e5ac08","system_id":"levelo_inurba_marseille","lat":43.30889,"lon":5.37184,"is_reserved":false,"is_disabled":false,"rental_uris":{"android":"levelo://app?vid=8a6265c5-55bd-4caa-b4ca-76fa64e5ac08","ios":"levelo://app?vid=8a6265c5-55bd-4caa-b4ca-76fa64e5ac08"},"vehicle_type_id":"4","last_reported":1730185780,"current_range_meters":38800,"station_id":"ce4bguh2rcd13ifvqckg","pricing_plan_id":"cebpf4jnsgd1na2vs0mg"},{"bike_id":"8ca3b236-77ff-4de9-96b1-2bfd5e26d196","system_id":"levelo_inurba_marseille","lat":43.32338,"lon":5.40623,"is_reserved":false,"is_disabled":false,"rental_uris":{"android":"levelo://app?vid=8ca3b236-77ff-4de9-96b1-2bfd5e26d196","ios":"levelo://app?vid=8ca3b236-77ff-4de9-96b1-2bfd5e26d196"},"vehicle_type_id":"4","last_reported":1730185780,"current_range_meters":34000,"station_id":"ce4bhq92rcd13ifvqhjg","pricing_plan_id":"cebpf4jnsgd1na2vs0mg"},{"bike_id":"e31650d1-6313-4c09-96ff-bc5a7403b852","system_id":"levelo_inurba_marseille","lat":43.323303,"lon":5.406317,"is_reserved":false,"is_disabled":false,"rental_uris":{"android":"levelo://app?vid=e31650d1-6313-4c09-96ff-bc5a7403b852","ios":"levelo://app?vid=e31650d1-6313-4c09-96ff-bc5a7403b852"},"vehicle_type_id":"4","last_reported":1730185780,"current_range_meters":36400,"station_id":"ce4bhq92rcd13ifvqhjg","pricing_plan_id":"cebpf4jnsgd1na2vs0mg"},{"bike_id":"aefac986-b0c6-43dd-b63b-a00cd751d12d","system_id":"levelo_inurba_marseille","lat":43.31998,"lon":5.38152,"is_reserved":false,"is_disabled":false,"rental_uris":{"android":"levelo://app?vid=aefac986-b0c6-43dd-b63b-a00cd751d12d","ios":"levelo://app?vid=aefac986-b0c6-43dd-b63b-a00cd751d12d"},"vehicle_type_id":"4","last_reported":1730185780,"current_range_meters":38800,"station_id":"ce4bhr12rcd13ifvqhpg","pricing_plan_id":"cebpf4jnsgd1na2vs0mg"},{"bike_id":"f581e29b-f342-4b13-9690-dc98c45a898a","system_id":"levelo_inurba_marseille","lat":43.2866,"lon":5.36362,"is_reserved":false,"is_disabled":false,"rental_uris":{"android":"levelo://app?vid=f581e29b-f342-4b13-9690-dc98c45a898a","ios":"levelo://app?vid=f581e29b-f342-4b13-9690-dc98c45a898a"},"vehicle_type_id":"4","last_reported":1730185780,"current_range_meters":39200,"station_id":"ce4bhah2rcd13ifvqej0","pricing_plan_id":"cebpf4jnsgd1na2vs0mg"},{"bike_id":"35181493-5177-48df-a63d-55d3e2261bc4","system_id":"levelo_inurba_marseille","lat":43.29565,"lon":5.39972,"is_reserved":false,"is_disabled":false,"rental_uris":{"android":"levelo://app?vid=35181493-5177-48df-a63d-55d3e2261bc4","ios":"levelo://app?vid=35181493-5177-48df-a63d-55d3e2261bc4"},"vehicle_type_id":"4","last_reported":1730185780,"current_range_meters":37600,"station_id":"ce4bh312rcd13ifvqdj0","pricing_plan_id":"cebpf4jnsgd1na2vs0mg"},{"bike_id":"dde6c269-c2ce-43c3-9739-e79cccd4a649","system_id":"levelo_inurba_marseille","lat":43.295558,"lon":5.38465,"is_reserved":false,"is_disabled":false,"rental_uris":{"android":"levelo://app?vid=dde6c269-c2ce-43c3-9739-e79cccd4a649","ios":"levelo://app?vid=dde6c269-c2ce-43c3-9739-e79cccd4a649"},"vehicle_type_id":"4","last_reported":1730185780,"current_range_meters":14000,"station_id":"ce4bhq92rcd13ifvqhjg","pricing_plan_id":"cebpf4jnsgd1na2vs0mg"},{"bike_id":"2c39eed2-0a71-400b-a5c2-19872a108009","system_id":"levelo_inurba_marseille","lat":43.28377,"lon":5.38636,"is_reserved":false,"is_disabled":false,"rental_uris":{"android":"levelo://app?vid=2c39eed2-0a71-400b-a5c2-19872a108009","ios":"levelo://app?vid=2c39eed2-0a71-400b-a5c2-19872a108009"},"vehicle_type_id":"4","last_reported":1730185780,"current_range_meters":33200,"station_id":"ce4bh492rcd13ifvqdvg","pricing_plan_id":"cebpf4jnsgd1na2vs0mg"},{"bike_id":"bd81ee41-2de2-4744-be15-9d7546618337","system_id":"levelo_inurba_marseille","lat":43.33759,"lon":5.37487,"is_reserved":false,"is_disabled":false,"rental_uris":{"android":"levelo://app?vid=bd81ee41-2de2-4744-be15-9d7546618337","ios":"levelo://app?vid=bd81ee41-2de2-4744-be15-9d7546618337"},"vehicle_type_id":"4","last_reported":1730185780,"current_range_meters":38400,"station_id":"","pricing_plan_id":"cebpf4jnsgd1na2vs0mg"},{"bike_id":"b91d7a27-9eb1-454a-a2ad-40eacde2d76d","system_id":"levelo_inurba_marseille","lat":43.28892,"lon":5.39486,"is_reserved":false,"is_disabled":false,"rental_uris":{"android":"levelo://app?vid=b91d7a27-9eb1-454a-a2ad-40eacde2d76d","ios":"levelo://app?vid=b91d7a27-9eb1-454a-a2ad-40eacde2d76d"},"vehicle_type_id":"4","last_reported":1730185780,"current_range_meters":19600,"station_id":"","pricing_plan_id":"cebpf4jnsgd1na2vs0mg"},{"bike_id":"a115272b-d982-443a-87c0-8ebb7cafe252","system_id":"levelo_inurba_marseille","lat":43.24075,"lon":5.37756,"is_reserved":false,"is_disabled":false,"rental_uris":{"android":"levelo://app?vid=a115272b-d982-443a-87c0-8ebb7cafe252","ios":"levelo://app?vid=a115272b-d982-443a-87c0-8ebb7cafe252"},"vehicle_type_id":"4","last_reported":1730185780,"current_range_meters":11200,"station_id":"ce4bhnp2rcd13ifvqgvg","pricing_plan_id":"cebpf4jnsgd1na2vs0mg"},{"bike_id":"6e02245b-3fe7-4986-b229-7be88c6f2495","system_id":"levelo_inurba_marseille","lat":43.31274,"lon":5.40167,"is_reserved":false,"is_disabled":false,"rental_uris":{"android":"levelo://app?vid=6e02245b-3fe7-4986-b229-7be88c6f2495","ios":"levelo://app?vid=6e02245b-3fe7-4986-b229-7be88c6f2495"},"vehicle_type_id":"4","last_reported":1730185780,"current_range_meters":27600,"station_id":"ce4bh092rcd13ifvqd30","pricing_plan_id":"cebpf4jnsgd1na2vs0mg"},{"bike_id":"bb262cd5-c250-4a1e-a9f8-fad4aff00477","system_id":"levelo_inurba_marseille","lat":43.296343,"lon":5.405998,"is_reserved":false,"is_disabled":false,"rental_uris":{"android":"levelo://app?vid=bb262cd5-c250-4a1e-a9f8-fad4aff00477","ios":"levelo://app?vid=bb262cd5-c250-4a1e-a9f8-fad4aff00477"},"vehicle_type_id":"4","last_reported":1730185780,"current_range_meters":22000,"station_id":"ce4bh012rcd13ifvqcv0","pricing_plan_id":"cebpf4jnsgd1na2vs0mg"},{"bike_id":"a32b8776-e5e5-411d-aaec-7bebc920abbd","system_id":"levelo_inurba_marseille","lat":43.30471,"lon":5.37912,"is_reserved":false,"is_disabled":false,"rental_uris":{"android":"levelo://app?vid=a32b8776-e5e5-411d-aaec-7bebc920abbd","ios":"levelo://app?vid=a32b8776-e5e5-411d-aaec-7bebc920abbd"},"vehicle_type_id":"4","last_reported":1730185780,"current_range_meters":6000,"station_id":"ce4bgup2rcd13ifvqcn0","pricing_plan_id":"cebpf4jnsgd1na2vs0mg"},{"bike_id":"f802e4cc-0bef-4d2d-8508-91a733c70390","system_id":"levelo_inurba_marseille","lat":43.296409,"lon":5.405963,"is_reserved":false,"is_disabled":false,"rental_uris":{"android":"levelo://app?vid=f802e4cc-0bef-4d2d-8508-91a733c70390","ios":"levelo://app?vid=f802e4cc-0bef-4d2d-8508-91a733c70390"},"vehicle_type_id":"4","last_reported":1730185780,"current_range_meters":38800,"station_id":"ce4bh0h2rcd13ifvqd60","pricing_plan_id":"cebpf4jnsgd1na2vs0mg"},{"bike_id":"7e30e268-ecec-4fd2-be52-8b3863ce97d7","system_id":"levelo_inurba_marseille","lat":43.30472,"lon":5.37112,"is_reserved":false,"is_disabled":false,"rental_uris":{"android":"levelo://app?vid=7e30e268-ecec-4fd2-be52-8b3863ce97d7","ios":"levelo://app?vid=7e30e268-ecec-4fd2-be52-8b3863ce97d7"},"vehicle_type_id":"4","last_reported":1730185780,"current_range_meters":14400,"station_id":"","pricing_plan_id":"cebpf4jnsgd1na2vs0mg"},{"bike_id":"7916da69-8b74-454d-a0f5-3a95897ca1c6","system_id":"levelo_inurba_marseille","lat":43.29514,"lon":5.39406,"is_reserved":false,"is_disabled":false,"rental_uris":{"android":"levelo://app?vid=7916da69-8b74-454d-a0f5-3a95897ca1c6","ios":"levelo://app?vid=7916da69-8b74-454d-a0f5-3a95897ca1c6"},"vehicle_type_id":"4","last_reported":1730185780,"current_range_meters":37600,"station_id":"ce4bh292rcd13ifvqdf0","pricing_plan_id":"cebpf4jnsgd1na2vs0mg"},{"bike_id":"5e8d14ee-2315-43fa-8700-b6be28f01fe7","system_id":"levelo_inurba_marseille","lat":43.29047,"lon":5.39959,"is_reserved":false,"is_disabled":false,"rental_uris":{"android":"levelo://app?vid=5e8d14ee-2315-43fa-8700-b6be28f01fe7","ios":"levelo://app?vid=5e8d14ee-2315-43fa-8700-b6be28f01fe7"},"vehicle_type_id":"4","last_reported":1730185780,"current_range_meters":32400,"station_id":"ce4bh392rcd13ifvqdm0","pricing_plan_id":"cebpf4jnsgd1na2vs0mg"},{"bike_id":"26db72ba-d1a0-4313-94db-fa981a8608f5","system_id":"levelo_inurba_marseille","lat":43.32045,"lon":5.41543,"is_reserved":false,"is_disabled":false,"rental_uris":{"android":"levelo://app?vid=26db72ba-d1a0-4313-94db-fa981a8608f5","ios":"levelo://app?vid=26db72ba-d1a0-4313-94db-fa981a8608f5"},"vehicle_type_id":"4","last_reported":1730185780,"current_range_meters":38000,"station_id":"ce4bhq92rcd13ifvqhkg","pricing_plan_id":"cebpf4jnsgd1na2vs0mg"},{"bike_id":"c6bb2fc0-af9a-4ce6-afe6-3e4d0533b82f","system_id":"levelo_inurba_marseille","lat":43.2782,"lon":5.40715,"is_reserved":false,"is_disabled":false,"rental_uris":{"android":"levelo://app?vid=c6bb2fc0-af9a-4ce6-afe6-3e4d0533b82f","ios":"levelo://app?vid=c6bb2fc0-af9a-4ce6-afe6-3e4d0533b82f"},"vehicle_type_id":"4","last_reported":1730185780,"current_range_meters":26000,"station_id":"ce4bhnh2rcd13ifvqgtg","pricing_plan_id":"cebpf4jnsgd1na2vs0mg"},{"bike_id":"d15d36db-1b3e-40bc-bfad-6ca2ace78469","system_id":"levelo_inurba_marseille","lat":43.29444,"lon":5.39751,"is_reserved":false,"is_disabled":false,"rental_uris":{"android":"levelo://app?vid=d15d36db-1b3e-40bc-bfad-6ca2ace78469","ios":"levelo://app?vid=d15d36db-1b3e-40bc-bfad-6ca2ace78469"},"vehicle_type_id":"4","last_reported":1730185780,"current_range_meters":38800,"station_id":"ce4bh3h2rcd13ifvqdo0","pricing_plan_id":"cebpf4jnsgd1na2vs0mg"},{"bike_id":"aab128fc-e233-4d2a-af14-745db0624ca0","system_id":"levelo_inurba_marseille","lat":43.27991,"lon":5.40018,"is_reserved":false,"is_disabled":false,"rental_uris":{"android":"levelo://app?vid=aab128fc-e233-4d2a-af14-745db0624ca0","ios":"levelo://app?vid=aab128fc-e233-4d2a-af14-745db0624ca0"},"vehicle_type_id":"4","last_reported":1730185780,"current_range_meters":35600,"station_id":"ce4bho92rcd13ifvqh4g","pricing_plan_id":"cebpf4jnsgd1na2vs0mg"},{"bike_id":"6107793e-b27b-4885-844a-927445616c6f","system_id":"levelo_inurba_marseille","lat":43.279327,"lon":5.41047,"is_reserved":false,"is_disabled":false,"rental_uris":{"android":"levelo://app?vid=6107793e-b27b-4885-844a-927445616c6f","ios":"levelo://app?vid=6107793e-b27b-4885-844a-927445616c6f"},"vehicle_type_id":"4","last_reported":1730185780,"current_range_meters":23200,"station_id":"ce4bhnp2rcd13ifvqh0g","pricing_plan_id":"cebpf4jnsgd1na2vs0mg"},{"bike_id":"b16ea274-24cd-4295-9bf5-10bc67878eff","system_id":"levelo_inurba_marseille","lat":43.33105,"lon":5.38242,"is_reserved":false,"is_disabled":false,"rental_uris":{"android":"levelo://app?vid=b16ea274-24cd-4295-9bf5-10bc67878eff","ios":"levelo://app?vid=b16ea274-24cd-4295-9bf5-10bc67878eff"},"vehicle_type_id":"4","last_reported":1730185780,"current_range_meters":6000,"station_id":"","pricing_plan_id":"cebpf4jnsgd1na2vs0mg"},{"bike_id":"43966cb7-6f2e-496d-bfcf-055444b3f859","system_id":"levelo_inurba_marseille","lat":43.27995,"lon":5.41658,"is_reserved":false,"is_disabled":false,"rental_uris":{"android":"levelo://app?vid=43966cb7-6f2e-496d-bfcf-055444b3f859","ios":"levelo://app?vid=43966cb7-6f2e-496d-bfcf-055444b3f859"},"vehicle_type_id":"4","last_reported":1730185780,"current_range_meters":32800,"station_id":"ce4bho12rcd13ifvqh1g","pricing_plan_id":"cebpf4jnsgd1na2vs0mg"},{"bike_id":"59a50482-cb1e-4ca9-8514-d5b201b306ed","system_id":"levelo_inurba_marseille","lat":43.30149,"lon":5.38082,"is_reserved":false,"is_disabled":false,"rental_uris":{"android":"levelo://app?vid=59a50482-cb1e-4ca9-8514-d5b201b306ed","ios":"levelo://app?vid=59a50482-cb1e-4ca9-8514-d5b201b306ed"},"vehicle_type_id":"4","last_reported":1730185780,"current_range_meters":29600,"station_id":"ce4bgjp2rcd13ifvqbh0","pricing_plan_id":"cebpf4jnsgd1na2vs0mg"},{"bike_id":"37826609-4af6-46f7-8542-a437b23f499b","system_id":"levelo_inurba_marseille","lat":43.29045,"lon":5.39964,"is_reserved":false,"is_disabled":false,"rental_uris":{"android":"levelo://app?vid=37826609-4af6-46f7-8542-a437b23f499b","ios":"levelo://app?vid=37826609-4af6-46f7-8542-a437b23f499b"},"vehicle_type_id":"4","last_reported":1730185780,"current_range_meters":28400,"station_id":"ce4bh392rcd13ifvqdm0","pricing_plan_id":"cebpf4jnsgd1na2vs0mg"},{"bike_id":"a0f43164-83c5-42a1-8e8a-feadc8022d2b","system_id":"levelo_inurba_marseille","lat":43.31351,"lon":5.36697,"is_reserved":false,"is_disabled":false,"rental_uris":{"android":"levelo://app?vid=a0f43164-83c5-42a1-8e8a-feadc8022d2b","ios":"levelo://app?vid=a0f43164-83c5-42a1-8e8a-feadc8022d2b"},"vehicle_type_id":"4","last_reported":1730185780,"current_range_meters":38800,"station_id":"ce4bgr92rcd13ifvqc6g","pricing_plan_id":"cebpf4jnsgd1na2vs0mg"},{"bike_id":"0f688df2-cab8-4b41-9a9c-44159492aa5e","system_id":"levelo_inurba_marseille","lat":43.30311,"lon":5.36898,"is_reserved":false,"is_disabled":false,"rental_uris":{"android":"levelo://app?vid=0f688df2-cab8-4b41-9a9c-44159492aa5e","ios":"levelo://app?vid=0f688df2-cab8-4b41-9a9c-44159492aa5e"},"vehicle_type_id":"4","last_reported":1730185780,"current_range_meters":26000,"station_id":"ce4bgqh2rcd13ifvqc5g","pricing_plan_id":"cebpf4jnsgd1na2vs0mg"},{"bike_id":"bd801bbe-605a-44d5-aa84-a87dae5a750a","system_id":"levelo_inurba_marseille","lat":43.24072,"lon":5.37762,"is_reserved":false,"is_disabled":false,"rental_uris":{"android":"levelo://app?vid=bd801bbe-605a-44d5-aa84-a87dae5a750a","ios":"levelo://app?vid=bd801bbe-605a-44d5-aa84-a87dae5a750a"},"vehicle_type_id":"4","last_reported":1730185780,"current_range_meters":32000,"station_id":"ce4bhnp2rcd13ifvqgvg","pricing_plan_id":"cebpf4jnsgd1na2vs0mg"},{"bike_id":"49645c5a-1ea3-40d3-916a-81ee133604ef","system_id":"levelo_inurba_marseille","lat":43.32289,"lon":5.38279,"is_reserved":false,"is_disabled":false,"rental_uris":{"android":"levelo://app?vid=49645c5a-1ea3-40d3-916a-81ee133604ef","ios":"levelo://app?vid=49645c5a-1ea3-40d3-916a-81ee133604ef"},"vehicle_type_id":"4","last_reported":1730185780,"current_range_meters":34000,"station_id":"ce4bhr12rcd13ifvqhqg","pricing_plan_id":"cebpf4jnsgd1na2vs0mg"},{"bike_id":"c2c7c082-2cb9-401c-8364-1529560be533","system_id":"levelo_inurba_marseille","lat":43.30894,"lon":5.39645,"is_reserved":false,"is_disabled":false,"rental_uris":{"android":"levelo://app?vid=c2c7c082-2cb9-401c-8364-1529560be533","ios":"levelo://app?vid=c2c7c082-2cb9-401c-8364-1529560be533"},"vehicle_type_id":"4","last_reported":1730185780,"current_range_meters":39200,"station_id":"ce4bh012rcd13ifvqcv0","pricing_plan_id":"cebpf4jnsgd1na2vs0mg"},{"bike_id":"e79de953-afab-425a-84d5-0be4c9734950","system_id":"levelo_inurba_marseille","lat":43.28151,"lon":5.42638,"is_reserved":false,"is_disabled":false,"rental_uris":{"android":"levelo://app?vid=e79de953-afab-425a-84d5-0be4c9734950","ios":"levelo://app?vid=e79de953-afab-425a-84d5-0be4c9734950"},"vehicle_type_id":"4","last_reported":1730185780,"current_range_meters":38800,"station_id":"ce4bhnh2rcd13ifvqgug","pricing_plan_id":"cebpf4jnsgd1na2vs0mg"},{"bike_id":"13eedc94-5383-407f-aa7d-2f0686a1f47f","system_id":"levelo_inurba_marseille","lat":43.30781,"lon":5.37656,"is_reserved":false,"is_disabled":false,"rental_uris":{"android":"levelo://app?vid=13eedc94-5383-407f-aa7d-2f0686a1f47f","ios":"levelo://app?vid=13eedc94-5383-407f-aa7d-2f0686a1f47f"},"vehicle_type_id":"4","last_reported":1730185780,"current_range_meters":29600,"station_id":"ce4bgv92rcd13ifvqcq0","pricing_plan_id":"cebpf4jnsgd1na2vs0mg"},{"bike_id":"5a343c2c-b013-4634-aadf-9e6e4e37fb46","system_id":"levelo_inurba_marseille","lat":43.31496,"lon":5.37297,"is_reserved":false,"is_disabled":false,"rental_uris":{"android":"levelo://app?vid=5a343c2c-b013-4634-aadf-9e6e4e37fb46","ios":"levelo://app?vid=5a343c2c-b013-4634-aadf-9e6e4e37fb46"},"vehicle_type_id":"4","last_reported":1730185780,"current_range_meters":38400,"station_id":"ce4bgt12rcd13ifvqcd0","pricing_plan_id":"cebpf4jnsgd1na2vs0mg"},{"bike_id":"65770b90-35e8-46a7-bcfa-b54197a105c1","system_id":"levelo_inurba_marseille","lat":43.29036,"lon":5.39958,"is_reserved":false,"is_disabled":false,"rental_uris":{"android":"levelo://app?vid=65770b90-35e8-46a7-bcfa-b54197a105c1","ios":"levelo://app?vid=65770b90-35e8-46a7-bcfa-b54197a105c1"},"vehicle_type_id":"4","last_reported":1730185780,"current_range_meters":8000,"station_id":"ce4bh392rcd13ifvqdm0","pricing_plan_id":"cebpf4jnsgd1na2vs0mg"},{"bike_id":"c05a3932-7bb0-40aa-9439-464fbea6684e","system_id":"levelo_inurba_marseille","lat":43.30152,"lon":5.38081,"is_reserved":false,"is_disabled":false,"rental_uris":{"android":"levelo://app?vid=c05a3932-7bb0-40aa-9439-464fbea6684e","ios":"levelo://app?vid=c05a3932-7bb0-40aa-9439-464fbea6684e"},"vehicle_type_id":"4","last_reported":1730185780,"current_range_meters":30000,"station_id":"ce4bgjp2rcd13ifvqbh0","pricing_plan_id":"cebpf4jnsgd1na2vs0mg"},{"bike_id":"43301d51-2b2c-4ea0-84a3-28e32f47550e","system_id":"levelo_inurba_marseille","lat":43.27072,"lon":5.42281,"is_reserved":false,"is_disabled":false,"rental_uris":{"android":"levelo://app?vid=43301d51-2b2c-4ea0-84a3-28e32f47550e","ios":"levelo://app?vid=43301d51-2b2c-4ea0-84a3-28e32f47550e"},"vehicle_type_id":"4","last_reported":1730185780,"current_range_meters":38800,"station_id":"ce4bhk92rcd13ifvqgb0","pricing_plan_id":"cebpf4jnsgd1na2vs0mg"},{"bike_id":"33c97bc3-55de-47a3-9d49-02ddce2071b7","system_id":"levelo_inurba_marseille","lat":43.30146,"lon":5.3808,"is_reserved":false,"is_disabled":false,"rental_uris":{"android":"levelo://app?vid=33c97bc3-55de-47a3-9d49-02ddce2071b7","ios":"levelo://app?vid=33c97bc3-55de-47a3-9d49-02ddce2071b7"},"vehicle_type_id":"4","last_reported":1730185780,"current_range_meters":34800,"station_id":"ce4bgjp2rcd13ifvqbh0","pricing_plan_id":"cebpf4jnsgd1na2vs0mg"},{"bike_id":"286a1ad0-de56-404d-b964-bab8becdd08e","system_id":"levelo_inurba_marseille","lat":43.29635,"lon":5.406,"is_reserved":false,"is_disabled":false,"rental_uris":{"android":"levelo://app?vid=286a1ad0-de56-404d-b964-bab8becdd08e","ios":"levelo://app?vid=286a1ad0-de56-404d-b964-bab8becdd08e"},"vehicle_type_id":"4","last_reported":1730185780,"current_range_meters":39200,"station_id":"ce4bh0h2rcd13ifvqd60","pricing_plan_id":"cebpf4jnsgd1na2vs0mg"},{"bike_id":"e94be738-1f81-4ef2-8919-b6162fbe12c8","system_id":"levelo_inurba_marseille","lat":43.32367,"lon":5.38881,"is_reserved":false,"is_disabled":false,"rental_uris":{"android":"levelo://app?vid=e94be738-1f81-4ef2-8919-b6162fbe12c8","ios":"levelo://app?vid=e94be738-1f81-4ef2-8919-b6162fbe12c8"},"vehicle_type_id":"4","last_reported":1730185780,"current_range_meters":28800,"station_id":"ce4bhqp2rcd13ifvqhog","pricing_plan_id":"cebpf4jnsgd1na2vs0mg"},{"bike_id":"b85cd5ad-130c-4b24-9a66-7d32a9c42f2d","system_id":"levelo_inurba_marseille","lat":43.31362,"lon":5.38507,"is_reserved":false,"is_disabled":false,"rental_uris":{"android":"levelo://app?vid=b85cd5ad-130c-4b24-9a66-7d32a9c42f2d","ios":"levelo://app?vid=b85cd5ad-130c-4b24-9a66-7d32a9c42f2d"},"vehicle_type_id":"4","last_reported":1730185780,"current_range_meters":30400,"station_id":"ce4bgt92rcd13ifvqcf0","pricing_plan_id":"cebpf4jnsgd1na2vs0mg"},{"bike_id":"7fda42aa-28d7-4fc7-858b-960ce986865c","system_id":"levelo_inurba_marseille","lat":43.23193,"lon":5.35548,"is_reserved":false,"is_disabled":false,"rental_uris":{"android":"levelo://app?vid=7fda42aa-28d7-4fc7-858b-960ce986865c","ios":"levelo://app?vid=7fda42aa-28d7-4fc7-858b-960ce986865c"},"vehicle_type_id":"4","last_reported":1730185780,"current_range_meters":17600,"station_id":"ce4bhu92rcd13ifvqi70","pricing_plan_id":"cebpf4jnsgd1na2vs0mg"},{"bike_id":"8dd1b695-c9be-4eba-bb44-3fa82f36515c","system_id":"levelo_inurba_marseille","lat":43.289819,"lon":5.378335,"is_reserved":false,"is_disabled":false,"rental_uris":{"android":"levelo://app?vid=8dd1b695-c9be-4eba-bb44-3fa82f36515c","ios":"levelo://app?vid=8dd1b695-c9be-4eba-bb44-3fa82f36515c"},"vehicle_type_id":"4","last_reported":1730185780,"current_range_meters":36800,"station_id":"ce4bh9p2rcd13ifvqed0","pricing_plan_id":"cebpf4jnsgd1na2vs0mg"},{"bike_id":"f1ecc8fe-1676-45c1-aa76-d29ae3fa8fd9","system_id":"levelo_inurba_marseille","lat":43.28001,"lon":5.40024,"is_reserved":false,"is_disabled":false,"rental_uris":{"android":"levelo://app?vid=f1ecc8fe-1676-45c1-aa76-d29ae3fa8fd9","ios":"levelo://app?vid=f1ecc8fe-1676-45c1-aa76-d29ae3fa8fd9"},"vehicle_type_id":"4","last_reported":1730185780,"current_range_meters":30000,"station_id":"ce4bho92rcd13ifvqh4g","pricing_plan_id":"cebpf4jnsgd1na2vs0mg"},{"bike_id":"143e8bf9-2521-4f5d-b14f-c75dc6912edb","system_id":"levelo_inurba_marseille","lat":43.2795,"lon":5.41046,"is_reserved":false,"is_disabled":false,"rental_uris":{"android":"levelo://app?vid=143e8bf9-2521-4f5d-b14f-c75dc6912edb","ios":"levelo://app?vid=143e8bf9-2521-4f5d-b14f-c75dc6912edb"},"vehicle_type_id":"4","last_reported":1730185780,"current_range_meters":35600,"station_id":"ce4bhnp2rcd13ifvqh0g","pricing_plan_id":"cebpf4jnsgd1na2vs0mg"},{"bike_id":"ca50e836-bc6b-4760-ba49-390a7f2e8e06","system_id":"levelo_inurba_marseille","lat":43.31079,"lon":5.42437,"is_reserved":false,"is_disabled":false,"rental_uris":{"android":"levelo://app?vid=ca50e836-bc6b-4760-ba49-390a7f2e8e06","ios":"levelo://app?vid=ca50e836-bc6b-4760-ba49-390a7f2e8e06"},"vehicle_type_id":"4","last_reported":1730185780,"current_range_meters":37600,"station_id":"ce4bhp92rcd13ifvqhag","pricing_plan_id":"cebpf4jnsgd1na2vs0mg"},{"bike_id":"49f32741-11bd-4708-beba-7f7f852ef140","system_id":"levelo_inurba_marseille","lat":43.31364,"lon":5.38505,"is_reserved":false,"is_disabled":false,"rental_uris":{"android":"levelo://app?vid=49f32741-11bd-4708-beba-7f7f852ef140","ios":"levelo://app?vid=49f32741-11bd-4708-beba-7f7f852ef140"},"vehicle_type_id":"4","last_reported":1730185780,"current_range_meters":38800,"station_id":"ce4bgt92rcd13ifvqcf0","pricing_plan_id":"cebpf4jnsgd1na2vs0mg"},{"bike_id":"cf7e6558-3551-4e04-b42d-9ddce72c2b12","system_id":"levelo_inurba_marseille","lat":43.27379,"lon":5.36252,"is_reserved":false,"is_disabled":false,"rental_uris":{"android":"levelo://app?vid=cf7e6558-3551-4e04-b42d-9ddce72c2b12","ios":"levelo://app?vid=cf7e6558-3551-4e04-b42d-9ddce72c2b12"},"vehicle_type_id":"4","last_reported":1730185780,"current_range_meters":29600,"station_id":"ce4bhbh2rcd13ifvqeo0","pricing_plan_id":"cebpf4jnsgd1na2vs0mg"},{"bike_id":"dede7c80-5969-491a-b121-7a9d000dc80e","system_id":"levelo_inurba_marseille","lat":43.279952,"lon":5.399949,"is_reserved":false,"is_disabled":false,"rental_uris":{"android":"levelo://app?vid=dede7c80-5969-491a-b121-7a9d000dc80e","ios":"levelo://app?vid=dede7c80-5969-491a-b121-7a9d000dc80e"},"vehicle_type_id":"4","last_reported":1730185780,"current_range_meters":38000,"station_id":"ce4bho92rcd13ifvqh4g","pricing_plan_id":"cebpf4jnsgd1na2vs0mg"},{"bike_id":"dcd98ba9-c8cc-4340-a071-62f2c6f4e9dc","system_id":"levelo_inurba_marseille","lat":43.30884,"lon":5.37214,"is_reserved":false,"is_disabled":false,"rental_uris":{"android":"levelo://app?vid=dcd98ba9-c8cc-4340-a071-62f2c6f4e9dc","ios":"levelo://app?vid=dcd98ba9-c8cc-4340-a071-62f2c6f4e9dc"},"vehicle_type_id":"4","last_reported":1730185780,"current_range_meters":38400,"station_id":"ce4bguh2rcd13ifvqckg","pricing_plan_id":"cebpf4jnsgd1na2vs0mg"},{"bike_id":"69cc0129-5e0b-43cb-a071-0d21d414b5d3","system_id":"levelo_inurba_marseille","lat":43.32185,"lon":5.3816,"is_reserved":false,"is_disabled":false,"rental_uris":{"android":"levelo://app?vid=69cc0129-5e0b-43cb-a071-0d21d414b5d3","ios":"levelo://app?vid=69cc0129-5e0b-43cb-a071-0d21d414b5d3"},"vehicle_type_id":"4","last_reported":1730185780,"current_range_meters":38400,"station_id":"","pricing_plan_id":"cebpf4jnsgd1na2vs0mg"},{"bike_id":"d3063937-ed66-4b12-a97b-346bfdfece97","system_id":"levelo_inurba_marseille","lat":43.26552,"lon":5.37287,"is_reserved":false,"is_disabled":false,"rental_uris":{"android":"levelo://app?vid=d3063937-ed66-4b12-a97b-346bfdfece97","ios":"levelo://app?vid=d3063937-ed66-4b12-a97b-346bfdfece97"},"vehicle_type_id":"4","last_reported":1730185780,"current_range_meters":38000,"station_id":"ce4bhg12rcd13ifvqf70","pricing_plan_id":"cebpf4jnsgd1na2vs0mg"},{"bike_id":"1a84b4d1-8439-4895-8b00-5da5a3861707","system_id":"levelo_inurba_marseille","lat":43.24666,"lon":5.38157,"is_reserved":false,"is_disabled":false,"rental_uris":{"android":"levelo://app?vid=1a84b4d1-8439-4895-8b00-5da5a3861707","ios":"levelo://app?vid=1a84b4d1-8439-4895-8b00-5da5a3861707"},"vehicle_type_id":"4","last_reported":1730185780,"current_range_meters":16800,"station_id":"ce4bhih2rcd13ifvqfr0","pricing_plan_id":"cebpf4jnsgd1na2vs0mg"},{"bike_id":"5c05f131-a563-4378-9457-751dbcbf2546","system_id":"levelo_inurba_marseille","lat":43.28855,"lon":5.35837,"is_reserved":false,"is_disabled":false,"rental_uris":{"android":"levelo://app?vid=5c05f131-a563-4378-9457-751dbcbf2546","ios":"levelo://app?vid=5c05f131-a563-4378-9457-751dbcbf2546"},"vehicle_type_id":"4","last_reported":1730185780,"current_range_meters":38800,"station_id":"ce4bhb12rcd13ifvqem0","pricing_plan_id":"cebpf4jnsgd1na2vs0mg"},{"bike_id":"a409998e-584f-46f0-bca6-d1318914b9d0","system_id":"levelo_inurba_marseille","lat":43.28979,"lon":5.37834,"is_reserved":false,"is_disabled":false,"rental_uris":{"android":"levelo://app?vid=a409998e-584f-46f0-bca6-d1318914b9d0","ios":"levelo://app?vid=a409998e-584f-46f0-bca6-d1318914b9d0"},"vehicle_type_id":"4","last_reported":1730185780,"current_range_meters":38000,"station_id":"ce4bh9p2rcd13ifvqed0","pricing_plan_id":"cebpf4jnsgd1na2vs0mg"},{"bike_id":"1e40f07f-f4eb-4eae-b5aa-e1bd923e3be3","system_id":"levelo_inurba_marseille","lat":43.30541,"lon":5.3655,"is_reserved":false,"is_disabled":false,"rental_uris":{"android":"levelo://app?vid=1e40f07f-f4eb-4eae-b5aa-e1bd923e3be3","ios":"levelo://app?vid=1e40f07f-f4eb-4eae-b5aa-e1bd923e3be3"},"vehicle_type_id":"4","last_reported":1730185780,"current_range_meters":36800,"station_id":"ce4bgs12rcd13ifvqcag","pricing_plan_id":"cebpf4jnsgd1na2vs0mg"},{"bike_id":"afa749fe-3631-4313-9d85-5dce49d4d6cb","system_id":"levelo_inurba_marseille","lat":43.25867,"lon":5.398954,"is_reserved":false,"is_disabled":false,"rental_uris":{"android":"levelo://app?vid=afa749fe-3631-4313-9d85-5dce49d4d6cb","ios":"levelo://app?vid=afa749fe-3631-4313-9d85-5dce49d4d6cb"},"vehicle_type_id":"4","last_reported":1730185780,"current_range_meters":38800,"station_id":"ce4bhl92rcd13ifvqghg","pricing_plan_id":"cebpf4jnsgd1na2vs0mg"},{"bike_id":"f3a22ccf-66cf-4842-a411-06528005da98","system_id":"levelo_inurba_marseille","lat":43.23185,"lon":5.39987,"is_reserved":false,"is_disabled":false,"rental_uris":{"android":"levelo://app?vid=f3a22ccf-66cf-4842-a411-06528005da98","ios":"levelo://app?vid=f3a22ccf-66cf-4842-a411-06528005da98"},"vehicle_type_id":"4","last_reported":1730185780,"current_range_meters":18000,"station_id":"ce4bhn12rcd13ifvqgqg","pricing_plan_id":"cebpf4jnsgd1na2vs0mg"},