{"last_updated":1731877646,"ttl":60,"version":"2.2","data":{"bikes":[{"bike_id":"73806b4b-3409-4fe7-9bac-cc9da7355bda","system_id":"levelo_inurba_marseille","lat":43.3103,"lon":5.4,"is_reserved":false,"is_disabled":false,"rental_uris":{"android":"levelo://app?vid=73806b4b-3409-4fe7-9bac-cc9da7355bda","ios":"levelo://app?vid=73806b4b-3409-4fe7-9bac-cc9da7355bda"},"vehicle_type_id":"4","last_reported":1731877647,"current_range_meters":27600,"station_id":"","pricing_plan_id":"cebpf4jnsgd1na2vs0mg"},{"bike_id":"5a5cda28-413a-466c-b416-640a2c5260a6","system_id":"levelo_inurba_marseille","lat":43.29791,"lon":5.39349,"is_reserved":false,"is_disabled":false,"rental_uris":{"android":"levelo://app?vid=5a5cda28-413a-466c-b416-640a2c5260a6","ios":"levelo://app?vid=5a5cda28-413a-466c-b416-640a2c5260a6"},"vehicle_type_id":"4","last_reported":1731877647,"current_range_meters":25600,"station_id":"chh1huq6cuj3fo74tm60","pricing_plan_id":"cebpf4jnsgd1na2vs0mg"},{"bike_id":"db2b91a4-d5c9-49a3-9079-d94c82ff95d7","system_id":"levelo_inurba_marseille","lat":43.30032,"lon":5.40929,"is_reserved":false,"is_disabled":false,"rental_uris":{"android":"levelo://app?vid=db2b91a4-d5c9-49a3-9079-d94c82ff95d7","ios":"levelo://app?vid=db2b91a4-d5c9-49a3-9079-d94c82ff95d7"},"vehicle_type_id":"4","last_reported":1731877647,"current_range_meters":8800,"station_id":"","pricing_plan_id":"cebpf4jnsgd1na2vs0mg"},{"bike_id":"07f44c2d-6d0b-41f2-ba11-0031c4dea411","system_id":"levelo_inurba_marseille","lat":43.24669,"lon":5.38152,"is_reserved":false,"is_disabled":false,"rental_uris":{"android":"levelo://app?vid=07f44c2d-6d0b-41f2-ba11-0031c4dea411","ios":"levelo://app?vid=07f44c2d-6d0b-41f2-ba11-0031c4dea411"},"vehicle_type_id":"4","last_reported":1731877647,"current_range_meters":9600,"station_id":"ce4bhih2rcd13ifvqfr0","pricing_plan_id":"cebpf4jnsgd1na2vs0mg"},{"bike_id":"21b61ede-e062-4fe8-a6bc-6c449d2ab9c7","system_id":"levelo_inurba_marseille","lat":43.30252,"lon":5.40055,"is_reserved":false,"is_disabled":false,"rental_uris":{"android":"levelo://app?vid=21b61ede-e062-4fe8-a6bc-6c449d2ab9c7","ios":"levelo://app?vid=21b61ede-e062-4fe8-a6bc-6c449d2ab9c7"},"vehicle_type_id":"4","last_reported":1731877647,"current_range_meters":13600,"station_id":"ce4bgvh2rcd13ifvqcs0","pricing_plan_id":"cebpf4jnsgd1na2vs0mg"},{"bike_id":"fad73c42-e2fc-475b-9b9e-9534244a9228","system_id":"levelo_inurba_marseille","lat":43.29786,"lon":5.37098,"is_reserved":false,"is_disabled":false,"rental_uris":{"android":"levelo://app?vid=fad73c42-e2fc-475b-9b9e-9534244a9228","ios":"levelo://app?vid=fad73c42-e2fc-475b-9b9e-9534244a9228"},"vehicle_type_id":"4","last_reported":1731877647,"current_range_meters":8800,"station_id":"ce4bgop2rcd13ifvqc1g","pricing_plan_id":"cebpf4jnsgd1na2vs0mg"},{"bike_id":"9196a10b-4329-4cc1-8f2d-fbffd30cb04c","system_id":"levelo_inurba_marseille","lat":43.31325,"lon":5.39693,"is_reserved":false,"is_disabled":false,"rental_uris":{"android":"levelo://app?vid=9196a10b-4329-4cc1-8f2d-fbffd30cb04c","ios":"levelo://app?vid=9196a10b-4329-4cc1-8f2d-fbffd30cb04c"},"vehicle_type_id":"4","last_reported":1731877647,"current_range_meters":27600,"station_id":"ce4bgvp2rcd13ifvqcu0","pricing_plan_id":"cebpf4jnsgd1na2vs0mg"},{"bike_id":"0672d165-d197-4474-bbec-2df95543fd2f","system_id":"levelo_inurba_marseille","lat":43.299,"lon":5.43662,"is_reserved":false,"is_disabled":false,"rental_uris":{"android":"levelo://app?vid=0672d165-d197-4474-bbec-2df95543fd2f","ios":"levelo://app?vid=0672d165-d197-4474-bbec-2df95543fd2f"},"vehicle_type_id":"4","last_reported":1731877647,"current_range_meters":6400,"station_id":"ce4bhpp2rcd13ifvqhfg","pricing_plan_id":"cebpf4jnsgd1na2vs0mg"},{"bike_id":"0abafd50-d6f0-4ae1-8b2e-e1936ed5039b","system_id":"levelo_inurba_marseille","lat":43.29672,"lon":5.40415,"is_reserved":false,"is_disabled":false,"rental_uris":{"android":"levelo://app?vid=0abafd50-d6f0-4ae1-8b2e-e1936ed5039b","ios":"levelo://app?vid=0abafd50-d6f0-4ae1-8b2e-e1936ed5039b"},"vehicle_type_id":"4","last_reported":1731877647,"current_range_meters":13600,"station_id":"","pricing_plan_id":"cebpf4jnsgd1na2vs0mg"},{"bike_id":"9f9eff5e-4633-4f86-8cdc-5509372a6217","system_id":"levelo_inurba_marseille","lat":43.27985,"lon":5.38747,"is_reserved":false,"is_disabled":false,"rental_uris":{"android":"levelo://app?vid=9f9eff5e-4633-4f86-8cdc-5509372a6217","ios":"levelo://app?vid=9f9eff5e-4633-4f86-8cdc-5509372a6217"},"vehicle_type_id":"4","last_reported":1731877647,"current_range_meters":14000,"station_id":"ce4bhg12rcd13ifvqf80","pricing_plan_id":"cebpf4jnsgd1na2vs0mg"},{"bike_id":"03d9df66-3c8d-4d79-987b-6509fc7f9ddc","system_id":"levelo_inurba_marseille","lat":43.30636,"lon":5.40093,"is_reserved":false,"is_disabled":false,"rental_uris":{"android":"levelo://app?vid=03d9df66-3c8d-4d79-987b-6509fc7f9ddc","ios":"levelo://app?vid=03d9df66-3c8d-4d79-987b-6509fc7f9ddc"},"vehicle_type_id":"4","last_reported":1731877647,"current_range_meters":24400,"station_id":"ce4bh112rcd13ifvqda0","pricing_plan_id":"cebpf4jnsgd1na2vs0mg"},{"bike_id":"bd187281-d318-4ef3-a751-fcd35f67a3e2","system_id":"levelo_inurba_marseille","lat":43.28843,"lon":5.35854,"is_reserved":false,"is_disabled":false,"rental_uris":{"android":"levelo://app?vid=bd187281-d318-4ef3-a751-fcd35f67a3e2","ios":"levelo://app?vid=bd187281-d318-4ef3-a751-fcd35f67a3e2"},"vehicle_type_id":"4","last_reported":1731877647,"current_range_meters":27200,"station_id":"ce4bhb12rcd13ifvqem0","pricing_plan_id":"cebpf4jnsgd1na2vs0mg"},{"bike_id":"c54ace73-7fe9-4545-948e-f93a958c6393","system_id":"levelo_inurba_marseille","lat":43.284673,"lon":5.358727,"is_reserved":false,"is_disabled":false,"rental_uris":{"android":"levelo://app?vid=c54ace73-7fe9-4545-948e-f93a958c6393","ios":"levelo://app?vid=c54ace73-7fe9-4545-948e-f93a958c6393"},"vehicle_type_id":"4","last_reported":1731877647,"current_range_meters":27600,"station_id":"ce4bhah2rcd13ifvqei0","pricing_plan_id":"cebpf4jnsgd1na2vs0mg"},{"bike_id":"4c167bc3-2964-4625-adc0-c92e539ad80f","system_id":"levelo_inurba_marseille","lat":43.28294,"lon":5.40785,"is_reserved":false,"is_disabled":false,"rental_uris":{"android":"levelo://app?vid=4c167bc3-2964-4625-adc0-c92e539ad80f","ios":"levelo://app?vid=4c167bc3-2964-4625-adc0-c92e539ad80f"},"vehicle_type_id":"4","last_reported":1731877647,"current_range_meters":32800,"station_id":"","pricing_plan_id":"cebpf4jnsgd1na2vs0mg"},{"bike_id":"3203c545-8816-47a4-ae40-21487a89e084","system_id":"levelo_inurba_marseille","lat":43.30599,"lon":5.37213,"is_reserved":false,"is_disabled":false,"rental_uris":{"android":"levelo://app?vid=3203c545-8816-47a4-ae40-21487a89e084","ios":"levelo://app?vid=3203c545-8816-47a4-ae40-21487a89e084"},"vehicle_type_id":"4","last_reported":1731877647,"current_range_meters":36000,"station_id":"ce4bgqh2rcd13ifvqc4g","pricing_plan_id":"cebpf4jnsgd1na2vs0mg"},{"bike_id":"44b25c15-ef60-455f-b9c3-fd3a7fea965f","system_id":"levelo_inurba_marseille","lat":43.3248,"lon":5.36574,"is_reserved":false,"is_disabled":false,"rental_uris":{"android":"levelo://app?vid=44b25c15-ef60-455f-b9c3-fd3a7fea965f","ios":"levelo://app?vid=44b25c15-ef60-455f-b9c3-fd3a7fea965f"},"vehicle_type_id":"4","last_reported":1731877647,"current_range_meters":32000,"station_id":"ce4bhs12rcd13ifvqhvg","pricing_plan_id":"cebpf4jnsgd1na2vs0mg"},{"bike_id":"853a1166-61cc-42b2-9e7f-3b747ea4f57f","system_id":"levelo_inurba_marseille","lat":43.295523,"lon":5.422608,"is_reserved":false,"is_disabled":false,"rental_uris":{"android":"levelo://app?vid=853a1166-61cc-42b2-9e7f-3b747ea4f57f","ios":"levelo://app?vid=853a1166-61cc-42b2-9e7f-3b747ea4f57f"},"vehicle_type_id":"4","last_reported":1731877647,"current_range_meters":39200,"station_id":"ce4bhph2rcd13ifvqhdg","pricing_plan_id":"cebpf4jnsgd1na2vs0mg"},{"bike_id":"75bfa6f0-bc2f-42ef-9dfd-fdb2f50e5301","system_id":"levelo_inurba_marseille","lat":43.29573,"lon":5.39981,"is_reserved":false,"is_disabled":false,"rental_uris":{"android":"levelo://app?vid=75bfa6f0-bc2f-42ef-9dfd-fdb2f50e5301","ios":"levelo://app?vid=75bfa6f0-bc2f-42ef-9dfd-fdb2f50e5301"},"vehicle_type_id":"4","last_reported":1731877647,"current_range_meters":28400,"station_id":"ce4bh312rcd13ifvqdj0","pricing_plan_id":"cebpf4jnsgd1na2vs0mg"},{"bike_id":"6b0ea79e-cb12-4a50-9845-e4686b3cacc8","system_id":"levelo_inurba_marseille","lat":43.295751,"lon":5.399791,"is_reserved":false,"is_disabled":false,"rental_uris":{"android":"levelo://app?vid=6b0ea79e-cb12-4a50-9845-e4686b3cacc8","ios":"levelo://app?vid=6b0ea79e-cb12-4a50-9845-e4686b3cacc8"},"vehicle_type_id":"4","last_reported":1731877647,"current_range_meters":8400,"station_id":"","pricing_plan_id":"cebpf4jnsgd1na2vs0mg"},{"bike_id":"ea3d944e-f11f-4ab9-8501-f3bfef0e9fa6","system_id":"levelo_inurba_marseille","lat":43.29605,"lon":5.38144,"is_reserved":false,"is_disabled":false,"rental_uris":{"android":"levelo://app?vid=ea3d944e-f11f-4ab9-8501-f3bfef0e9fa6","ios":"levelo://app?vid=ea3d944e-f11f-4ab9-8501-f3bfef0e9fa6"},"vehicle_type_id":"4","last_reported":1731877647,"current_range_meters":21600,"station_id":"ce4bgl12rcd13ifvqbo0","pricing_plan_id":"cebpf4jnsgd1na2vs0mg"},{"bike_id":"225566f2-8521-4eac-bc8f-0baee111d8d3","system_id":"levelo_inurba_marseille","lat":43.3065,"lon":5.40079,"is_reserved":false,"is_disabled":false,"rental_uris":{"android":"levelo://app?vid=225566f2-8521-4eac-bc8f-0baee111d8d3","ios":"levelo://app?vid=225566f2-8521-4eac-bc8f-0baee111d8d3"},"vehicle_type_id":"4","last_reported":1731877647,"current_range_meters":16000,"station_id":"ce4bh112rcd13ifvqda0","pricing_plan_id":"cebpf4jnsgd1na2vs0mg"},{"bike_id":"e0b967c0-b35f-4934-9248-f55c41b4f08b","system_id":"levelo_inurba_marseille","lat":43.28147,"lon":5.44215,"is_reserved":false,"is_disabled":false,"rental_uris":{"android":"levelo://app?vid=e0b967c0-b35f-4934-9248-f55c41b4f08b","ios":"levelo://app?vid=e0b967c0-b35f-4934-9248-f55c41b4f08b"},"vehicle_type_id":"4","last_reported":1731877647,"current_range_meters":6800,"station_id":"","pricing_plan_id":"cebpf4jnsgd1na2vs0mg"},{"bike_id":"d61c8a52-528d-46d9-b1fb-db8c6ca71e05","system_id":"levelo_inurba_marseille","lat":43.24167,"lon":5.36392,"is_reserved":false,"is_disabled":false,"rental_uris":{"android":"levelo://app?vid=d61c8a52-528d-46d9-b1fb-db8c6ca71e05","ios":"levelo://app?vid=d61c8a52-528d-46d9-b1fb-db8c6ca71e05"},"vehicle_type_id":"4","last_reported":1731877647,"current_range_meters":20000,"station_id":"cpo36qri1sfpv3e86is0","pricing_plan_id":"cebpf4jnsgd1na2vs0mg"},{"bike_id":"fd5dd092-f218-4ee9-8566-83eb35688117","system_id":"levelo_inurba_marseille","lat":43.30419,"lon":5.41287,"is_reserved":false,"is_disabled":false,"rental_uris":{"android":"levelo://app?vid=fd5dd092-f218-4ee9-8566-83eb35688117","ios":"levelo://app?vid=fd5dd092-f218-4ee9-8566-83eb35688117"},"vehicle_type_id":"4","last_reported":1731877647,"current_range_meters":26000,"station_id":"ce4bhop2rcd13ifvqh8g","pricing_plan_id":"cebpf4jnsgd1na2vs0mg"},{"bike_id":"0e1d2e7a-8318-45fe-af1b-31857eb1aac8","system_id":"levelo_inurba_marseille","lat":43.23967,"lon":5.36621,"is_reserved":false,"is_disabled":false,"rental_uris":{"android":"levelo://app?vid=0e1d2e7a-8318-45fe-af1b-31857eb1aac8","ios":"levelo://app?vid=0e1d2e7a-8318-45fe-af1b-31857eb1aac8"},"vehicle_type_id":"4","last_reported":1731877647,"current_range_meters":22400,"station_id":"ce4bhi12rcd13ifvqfp0","pricing_plan_id":"cebpf4jnsgd1na2vs0mg"},{"bike_id":"4305c1d1-ca62-4e47-ac96-b9970d6e957d","system_id":"levelo_inurba_marseille","lat":43.23196,"lon":5.35551,"is_reserved":false,"is_disabled":false,"rental_uris":{"android":"levelo://app?vid=4305c1d1-ca62-4e47-ac96-b9970d6e957d","ios":"levelo://app?vid=4305c1d1-ca62-4e47-ac96-b9970d6e957d"},"vehicle_type_id":"4","last_reported":1731877647,"current_range_meters":22800,"station_id":"ce4bhu92rcd13ifvqi70","pricing_plan_id":"cebpf4jnsgd1na2vs0mg"},{"bike_id":"2bd3ae1c-22d2-4b0f-9fd7-42d6b84fc3a3","system_id":"levelo_inurba_marseille","lat":43.33599,"lon":5.41036,"is_reserved":false,"is_disabled":false,"rental_uris":{"android":"levelo://app?vid=2bd3ae1c-22d2-4b0f-9fd7-42d6b84fc3a3","ios":"levelo://app?vid=2bd3ae1c-22d2-4b0f-9fd7-42d6b84fc3a3"},"vehicle_type_id":"4","last_reported":1731877647,"current_range_meters":16400,"station_id":"ce4bhqh2rcd13ifvqhmg","pricing_plan_id":"cebpf4jnsgd1na2vs0mg"},{"bike_id":"79b76398-f4aa-422b-b325-2360d07a8784","system_id":"levelo_inurba_marseille","lat":43.33726,"lon":5.3918,"is_reserved":false,"is_disabled":false,"rental_uris":{"android":"levelo://app?vid=79b76398-f4aa-422b-b325-2360d07a8784","ios":"levelo://app?vid=79b76398-f4aa-422b-b325-2360d07a8784"},"vehicle_type_id":"4","last_reported":1731877647,"current_range_meters":38800,"station_id":"ce4bhr92rcd13ifvqhsg","pricing_plan_id":"cebpf4jnsgd1na2vs0mg"},{"bike_id":"a7081911-a624-4ede-9084-31328e822934","system_id":"levelo_inurba_marseille","lat":43.28464,"lon":5.35894,"is_reserved":false,"is_disabled":false,"rental_uris":{"android":"levelo://app?vid=a7081911-a624-4ede-9084-31328e822934","ios":"levelo://app?vid=a7081911-a624-4ede-9084-31328e822934"},"vehicle_type_id":"4","last_reported":1731877647,"current_range_meters":24400,"station_id":"ce4bhah2rcd13ifvqei0","pricing_plan_id":"cebpf4jnsgd1na2vs0mg"},{"bike_id":"edae6a89-7eeb-45ca-8d9c-aa9e188b3601","system_id":"levelo_inurba_marseille","lat":43.25121,"lon":5.40316,"is_reserved":false,"is_disabled":false,"rental_uris":{"android":"levelo://app?vid=edae6a89-7eeb-45ca-8d9c-aa9e188b3601","ios":"levelo://app?vid=edae6a89-7eeb-45ca-8d9c-aa9e188b3601"},"vehicle_type_id":"4","last_reported":1731877647,"current_range_meters":4000,"station_id":"ce4bhlh2rcd13ifvqgig","pricing_plan_id":"cebpf4jnsgd1na2vs0mg"},{"bike_id":"e5a40c09-f3b5-4397-915d-91914292716d","system_id":"levelo_inurba_marseille","lat":43.31074,"lon":5.38351,"is_reserved":false,"is_disabled":false,"rental_uris":{"android":"levelo://app?vid=e5a40c09-f3b5-4397-915d-91914292716d","ios":"levelo://app?vid=e5a40c09-f3b5-4397-915d-91914292716d"},"vehicle_type_id":"4","last_reported":1731877647,"current_range_meters":3600,"station_id":"ce4bgv92rcd13ifvqcr0","pricing_plan_id":"cebpf4jnsgd1na2vs0mg"},{"bike_id":"100937a9-9046-4fa5-80a9-fe089467ae94","system_id":"levelo_inurba_marseille","lat":43.2623,"lon":5.39326,"is_reserved":false,"is_disabled":false,"rental_uris":{"android":"levelo://app?vid=100937a9-9046-4fa5-80a9-fe089467ae94","ios":"levelo://app?vid=100937a9-9046-4fa5-80a9-fe089467ae94"},"vehicle_type_id":"4","last_reported":1731877647,"current_range_meters":20400,"station_id":"ce4bhl92rcd13ifvqghg","pricing_plan_id":"cebpf4jnsgd1na2vs0mg"},{"bike_id":"f0b15f24-1d6a-46a1-a02a-0bb1b749c9ac","system_id":"levelo_inurba_marseille","lat":43.28705,"lon":5.37391,"is_reserved":false,"is_disabled":false,"rental_uris":{"android":"levelo://app?vid=f0b15f24-1d6a-46a1-a02a-0bb1b749c9ac","ios":"levelo://app?vid=f0b15f24-1d6a-46a1-a02a-0bb1b749c9ac"},"vehicle_type_id":"4","last_reported":1731877647,"current_range_meters":38800,"station_id":"ce4bh3p2rcd13ifvqdq0","pricing_plan_id":"cebpf4jnsgd1na2vs0mg"},{"bike_id":"6e000560-3094-4389-8ca5-fea3f83cab13","system_id":"levelo_inurba_marseille","lat":43.26684,"lon":5.38268,"is_reserved":false,"is_disabled":false,"rental_uris":{"android":"levelo://app?vid=6e000560-3094-4389-8ca5-fea3f83cab13","ios":"levelo://app?vid=6e000560-3094-4389-8ca5-fea3f83cab13"},"vehicle_type_id":"4","last_reported":1731877647,"current_range_meters":38000,"station_id":"ce4bhg92rcd13ifvqf90","pricing_plan_id":"cebpf4jnsgd1na2vs0mg"},{"bike_id":"cafc8ba8-d30a-40df-b38b-fdc1fb11dbe2","system_id":"levelo_inurba_marseille","lat":43.250763,"lon":5.403242,"is_reserved":false,"is_disabled":false,"rental_uris":{"android":"levelo://app?vid=cafc8ba8-d30a-40df-b38b-fdc1fb11dbe2","ios":"levelo://app?vid=cafc8ba8-d30a-40df-b38b-fdc1fb11dbe2"},"vehicle_type_id":"4","last_reported":1731877647,"current_range_meters":7200,"station_id":"ce4bhlh2rcd13ifvqgig","pricing_plan_id":"cebpf4jnsgd1na2vs0mg"},{"bike_id":"6d963061-1c58-4842-a70f-52b352d49730","system_id":"levelo_inurba_marseille","lat":43.25112,"lon":5.40322,"is_reserved":false,"is_disabled":false,"rental_uris":{"android":"levelo://app?vid=6d963061-1c58-4842-a70f-52b352d49730","ios":"levelo://app?vid=6d963061-1c58-4842-a70f-52b352d49730"},"vehicle_type_id":"4","last_reported":1731877647,"current_range_meters":31200,"station_id":"ce4bhlh2rcd13ifvqgig","pricing_plan_id":"cebpf4jnsgd1na2vs0mg"},{"bike_id":"9a8deacf-94c3-4f35-b4f7-2b656c66bda7","system_id":"levelo_inurba_marseille","lat":43.29024,"lon":5.38649,"is_reserved":false,"is_disabled":false,"rental_uris":{"android":"levelo://app?vid=9a8deacf-94c3-4f35-b4f7-2b656c66bda7","ios":"levelo://app?vid=9a8deacf-94c3-4f35-b4f7-2b656c66bda7"},"vehicle_type_id":"4","last_reported":1731877647,"current_range_meters":24800,"station_id":"ce4bh4p2rcd13ifvqe0g","pricing_plan_id":"cebpf4jnsgd1na2vs0mg"},{"bike_id":"fba520cc-f329-4810-9165-4d26d33cbe71","system_id":"levelo_inurba_marseille","lat":43.2866,"lon":5.3635,"is_reserved":false,"is_disabled":false,"rental_uris":{"android":"levelo://app?vid=fba520cc-f329-4810-9165-4d26d33cbe71","ios":"levelo://app?vid=fba520cc-f329-4810-9165-4d26d33cbe71"},"vehicle_type_id":"4","last_reported":1731877647,"current_range_meters":38800,"station_id":"ce4bhah2rcd13ifvqej0","pricing_plan_id":"cebpf4jnsgd1na2vs0mg"},{"bike_id":"e1a897fe-74e8-49ba-9092-db608567bc2e","system_id":"levelo_inurba_marseille","lat":43.29661,"lon":5.378203,"is_reserved":false,"is_disabled":false,"rental_uris":{"android":"levelo://app?vid=e1a897fe-74e8-49ba-9092-db608567bc2e","ios":"levelo://app?vid=e1a897fe-74e8-49ba-9092-db608567bc2e"},"vehicle_type_id":"4","last_reported":1731877647,"current_range_meters":26000,"station_id":"ce4bgkh2rcd13ifvqbl0","pricing_plan_id":"cebpf4jnsgd1na2vs0mg"},{"bike_id":"2459f503-6e83-43a2-8e1d-8dc2645bc27d","system_id":"levelo_inurba_marseille","lat":43.30885,"lon":5.39636,"is_reserved":false,"is_disabled":false,"rental_uris":{"android":"levelo://app?vid=2459f503-6e83-43a2-8e1d-8dc2645bc27d","ios":"levelo://app?vid=2459f503-6e83-43a2-8e1d-8dc2645bc27d"},"vehicle_type_id":"4","last_reported":1731877647,"current_range_meters":30800,"station_id":"ce4bh012rcd13ifvqcv0","pricing_plan_id":"cebpf4jnsgd1na2vs0mg"},{"bike_id":"d2fe990b-e82c-427d-8072-64d25cdb2c73","system_id":"levelo_inurba_marseille","lat":43.30647,"lon":5.40083,"is_reserved":false,"is_disabled":false,"rental_uris":{"android":"levelo://app?vid=d2fe990b-e82c-427d-8072-64d25cdb2c73","ios":"levelo://app?vid=d2fe990b-e82c-427d-8072-64d25cdb2c73"},"vehicle_type_id":"4","last_reported":1731877647,"current_range_meters":19200,"station_id":"ce4bh112rcd13ifvqda0","pricing_plan_id":"cebpf4jnsgd1na2vs0mg"},{"bike_id":"f5b2070b-8f71-4a57-b6cf-471f549984d2","system_id":"levelo_inurba_marseille","lat":43.28722,"lon":5.37944,"is_reserved":false,"is_disabled":false,"rental_uris":{"android":"levelo://app?vid=f5b2070b-8f71-4a57-b6cf-471f549984d2","ios":"levelo://app?vid=f5b2070b-8f71-4a57-b6cf-471f549984d2"},"vehicle_type_id":"4","last_reported":1731877647,"current_range_meters":14800,"station_id":"ce4bh9p2rcd13ifvqec0","pricing_plan_id":"cebpf4jnsgd1na2vs0mg"},{"bike_id":"e931d18a-2896-47ae-a846-0e467d20bb34","system_id":"levelo_inurba_marseille","lat":43.28344,"lon":5.38104,"is_reserved":false,"is_disabled":false,"rental_uris":{"android":"levelo://app?vid=e931d18a-2896-47ae-a846-0e467d20bb34","ios":"levelo://app?vid=e931d18a-2896-47ae-a846-0e467d20bb34"},"vehicle_type_id":"4","last_reported":1731877647,"current_range_meters":27600,"station_id":"ce4bh412rcd13ifvqdr0","pricing_plan_id":"cebpf4jnsgd1na2vs0mg"},{"bike_id":"8a9f823e-baf2-4d03-b304-e7d0af967984","system_id":"levelo_inurba_marseille","lat":43.279091,"lon":5.380029,"is_reserved":false,"is_disabled":false,"rental_uris":{"android":"levelo://app?vid=8a9f823e-baf2-4d03-b304-e7d0af967984","ios":"levelo://app?vid=8a9f823e-baf2-4d03-b304-e7d0af967984"},"vehicle_type_id":"4","last_reported":1731877647,"current_range_meters":3600,"station_id":"ce4bhf92rcd13ifvqf50","pricing_plan_id":"cebpf4jnsgd1na2vs0mg"},{"bike_id":"a8564ab8-45dd-44af-a2ae-f304d3814047","system_id":"levelo_inurba_marseille","lat":43.32663,"lon":5.40988,"is_reserved":false,"is_disabled":false,"rental_uris":{"android":"levelo://app?vid=a8564ab8-45dd-44af-a2ae-f304d3814047","ios":"levelo://app?vid=a8564ab8-45dd-44af-a2ae-f304d3814047"},"vehicle_type_id":"4","last_reported":1731877647,"current_range_meters":36400,"station_id":"ce4bhpp2rcd13ifvqhgg","pricing_plan_id":"cebpf4jnsgd1na2vs0mg"},{"bike_id":"74c37457-d54d-454c-848d-3e859a50fe09","system_id":"levelo_inurba_marseille","lat":43.30425,"lon":5.39757,"is_reserved":false,"is_disabled":false,"rental_uris":{"android":"levelo://app?vid=74c37457-d54d-454c-848d-3e859a50fe09","ios":"levelo://app?vid=74c37457-d54d-454c-848d-3e859a50fe09"},"vehicle_type_id":"4","last_reported":1731877647,"current_range_meters":38400,"station_id":"ce4bh092rcd13ifvqd20","pricing_plan_id":"cebpf4jnsgd1na2vs0mg"},{"bike_id":"0b1b1a56-d86d-40f1-af42-c826bd38a215","system_id":"levelo_inurba_marseille","lat":43.31764,"lon":5.39016,"is_reserved":false,"is_disabled":false,"rental_uris":{"android":"levelo://app?vid=0b1b1a56-d86d-40f1-af42-c826bd38a215","ios":"levelo://app?vid=0b1b1a56-d86d-40f1-af42-c826bd38a215"},"vehicle_type_id":"4","last_reported":1731877647,"current_range_meters":22000,"station_id":"ce4bhqp2rcd13ifvqhng","pricing_plan_id":"cebpf4jnsgd1na2vs0mg"},{"bike_id":"0777fa14-82ef-4160-971f-e65af9fff72b","system_id":"levelo_inurba_marseille","lat":43.28462,"lon":5.35896,"is_reserved":false,"is_disabled":false,"rental_uris":{"android":"levelo://app?vid=0777fa14-82ef-4160-971f-e65af9fff72b","ios":"levelo://app?vid=0777fa14-82ef-4160-971f-e65af9fff72b"},"vehicle_type_id":"4","last_reported":1731877647,"current_range_meters":32000,"station_id":"ce4bhah2rcd13ifvqei0","pricing_plan_id":"cebpf4jnsgd1na2vs0mg"},{"bike_id":"449ad6af-8dda-49da-bd92-112f0e899ac4","system_id":"levelo_inurba_marseille","lat":43.31333,"lon":5.39698,"is_reserved":false,"is_disabled":false,"rental_uris":{"android":"levelo://app?vid=449ad6af-8dda-49da-bd92-112f0e899ac4","ios":"levelo://app?vid=449ad6af-8dda-49da-bd92-112f0e899ac4"},"vehicle_type_id":"4","last_reported":1731877647,"current_range_meters":39200,"station_id":"ce4bgvp2rcd13ifvqcu0","pricing_plan_id":"cebpf4jnsgd1na2vs0mg"},{"bike_id":"47ee270a-95b0-49a5-b582-56ae6b70c978","system_id":"levelo_inurba_marseille","lat":43.29561,"lon":5.37526,"is_reserved":false,"is_disabled":false,"rental_uris":{"android":"levelo://app?vid=47ee270a-95b0-49a5-b582-56ae6b70c978","ios":"levelo://app?vid=47ee270a-95b0-49a5-b582-56ae6b70c978"},"vehicle_type_id":"4","last_reported":1731877647,"current_range_meters":19200,"station_id":"ce4bgh92rcd13ifvqb50","pricing_plan_id":"cebpf4jnsgd1na2vs0mg"},{"bike_id":"2ec1af66-e169-44bc-a010-344e103ae32b","system_id":"levelo_inurba_marseille","lat":43.2784,"lon":5.39221,"is_reserved":false,"is_disabled":false,"rental_uris":{"android":"levelo://app?vid=2ec1af66-e169-44bc-a010-344e103ae32b","ios":"levelo://app?vid=2ec1af66-e169-44bc-a010-344e103ae32b"},"vehicle_type_id":"4","last_reported":1731877647,"current_range_meters":38800,"station_id":"ce4bhjp2rcd13ifvqga0","pricing_plan_id":"cebpf4jnsgd1na2vs0mg"},{"bike_id":"eef859fe-6cbe-43db-9bd6-dedd68a5d4ff","system_id":"levelo_inurba_marseille","lat":43.27071,"lon":5.42276,"is_reserved":false,"is_disabled":false,"rental_uris":{"android":"levelo://app?vid=eef859fe-6cbe-43db-9bd6-dedd68a5d4ff","ios":"levelo://app?vid=eef859fe-6cbe-43db-9bd6-dedd68a5d4ff"},"vehicle_type_id":"4","last_reported":1731877647,"current_range_meters":38800,"station_id":"ce4bhk92rcd13ifvqgb0","pricing_plan_id":"cebpf4jnsgd1na2vs0mg"},{"bike_id":"d08b579f-cc06-47e8-b265-2217085d22d5","system_id":"levelo_inurba_marseille","lat":43.28979,"lon":5.37843,"is_reserved":false,"is_disabled":false,"rental_uris":{"android":"levelo://app?vid=d08b579f-cc06-47e8-b265-2217085d22d5","ios":"levelo://app?vid=d08b579f-cc06-47e8-b265-2217085d22d5"},"vehicle_type_id":"4","last_reported":1731877647,"current_range_meters":10800,"station_id":"ce4bh9p2rcd13ifvqed0","pricing_plan_id":"cebpf4jnsgd1na2vs0mg"},{"bike_id":"0ce3c42e-a8b6-4365-a23a-7e3e3036ddac","system_id":"levelo_inurba_marseille","lat":43.25115,"lon":5.40321,"is_reserved":false,"is_disabled":false,"rental_uris":{"android":"levelo://app?vid=0ce3c42e-a8b6-4365-a23a-7e3e3036ddac","ios":"levelo://app?vid=0ce3c42e-a8b6-4365-a23a-7e3e3036ddac"},"vehicle_type_id":"4","last_reported":1731877647,"current_range_meters":33200,"station_id":"ce4bhlh2rcd13ifvqgig","pricing_plan_id":"cebpf4jnsgd1na2vs0mg"},{"bike_id":"cd7e3420-4506-40b3-8f82-5b3bd525fcbd","system_id":"levelo_inurba_marseille","lat":43.28695,"lon":5.39984,"is_reserved":false,"is_disabled":false,"rental_uris":{"android":"levelo://app?vid=cd7e3420-4506-40b3-8f82-5b3bd525fcbd","ios":"levelo://app?vid=cd7e3420-4506-40b3-8f82-5b3bd525fcbd"},"vehicle_type_id":"4","last_reported":1731877647,"current_range_meters":38000,"station_id":"ce4bho92rcd13ifvqh3g","pricing_plan_id":"cebpf4jnsgd1na2vs0mg"},{"bike_id":"b651c1a1-4876-4b4a-95e3-202eeee791d1","system_id":"levelo_inurba_marseille","lat":43.29257,"lon":5.40918,"is_reserved":false,"is_disabled":false,"rental_uris":{"android":"levelo://app?vid=b651c1a1-4876-4b4a-95e3-202eeee791d1","ios":"levelo://app?vid=b651c1a1-4876-4b4a-95e3-202eeee791d1"},"vehicle_type_id":"4","last_reported":1731877647,"current_range_meters":25200,"station_id":"ce4bh192rcd13ifvqdc0","pricing_plan_id":"cebpf4jnsgd1na2vs0mg"},{"bike_id":"e1cbbc39-b3d6-45a9-b7e5-8900bdc53898","system_id":"levelo_inurba_marseille","lat":43.27931,"lon":5.39553,"is_reserved":false,"is_disabled":false,"rental_uris":{"android":"levelo://app?vid=e1cbbc39-b3d6-45a9-b7e5-8900bdc53898","ios":"levelo://app?vid=e1cbbc39-b3d6-45a9-b7e5-8900bdc53898"},"vehicle_type_id":"4","last_reported":1731877647,"current_range_meters":31200,"station_id":"ce4bhf92rcd13ifvqf40","pricing_plan_id":"cebpf4jnsgd1na2vs0mg"},{"bike_id":"01272bd5-a2c0-44b6-b76e-87cd305d9451","system_id":"levelo_inurba_marseille","lat":43.33023,"lon":5.39047,"is_reserved":false,"is_disabled":false,"rental_uris":{"android":"levelo://app?vid=01272bd5-a2c0-44b6-b76e-87cd305d9451","ios":"levelo://app?vid=01272bd5-a2c0-44b6-b76e-87cd305d9451"},"vehicle_type_id":"4","last_reported":1731877647,"current_range_meters":12800,"station_id":"ce4bhr92rcd13ifvqhrg","pricing_plan_id":"cebpf4jnsgd1na2vs0mg"},{"bike_id":"e1f6415b-e101-43e7-9b1b-480b213c11b4","system_id":"levelo_inurba_marseille","lat":43.29522,"lon":5.39403,"is_reserved":false,"is_disabled":false,"rental_uris":{"android":"levelo://app?vid=e1f6415b-e101-43e7-9b1b-480b213c11b4","ios":"levelo://app?vid=e1f6415b-e101-43e7-9b1b-480b213c11b4"},"vehicle_type_id":"4","last_reported":1731877647,"current_range_meters":28800,"station_id":"ce4bh292rcd13ifvqdf0","pricing_plan_id":"cebpf4jnsgd1na2vs0mg"},{"bike_id":"7694d120-882b-4df8-9318-0f76e5aee323","system_id":"levelo_inurba_marseille","lat":43.29811,"lon":5.37734,"is_reserved":false,"is_disabled":false,"rental_uris":{"android":"levelo://app?vid=7694d120-882b-4df8-9318-0f76e5aee323","ios":"levelo://app?vid=7694d120-882b-4df8-9318-0f76e5aee323"},"vehicle_type_id":"4","last_reported":1731877647,"current_range_meters":33600,"station_id":"","pricing_plan_id":"cebpf4jnsgd1na2vs0mg"},{"bike_id":"b3daf5c5-2c70-4b50-b0c0-26454236441d","system_id":"levelo_inurba_marseille","lat":43.25729,"lon":5.41111,"is_reserved":false,"is_disabled":false,"rental_uris":{"android":"levelo://app?vid=b3daf5c5-2c70-4b50-b0c0-26454236441d","ios":"levelo://app?vid=b3daf5c5-2c70-4b50-b0c0-26454236441d"},"vehicle_type_id":"4","last_reported":1731877647,"current_range_meters":16800,"station_id":"ce4bhkp2rcd13ifvqgd0","pricing_plan_id":"cebpf4jnsgd1na2vs0mg"},{"bike_id":"8300deb3-1fed-4359-9d2f-62192a22298f","system_id":"levelo_inurba_marseille","lat":43.30188,"lon":5.38792,"is_reserved":false,"is_disabled":false,"rental_uris":{"android":"levelo://app?vid=8300deb3-1fed-4359-9d2f-62192a22298f","ios":"levelo://app?vid=8300deb3-1fed-4359-9d2f-62192a22298f"},"vehicle_type_id":"4","last_reported":1731877647,"current_range_meters":30400,"station_id":"ce4bht12rcd13ifvqi60","pricing_plan_id":"cebpf4jnsgd1na2vs0mg"},{"bike_id":"b219a1c1-2cb4-4ae1-8e3f-102f1db645df","system_id":"levelo_inurba_marseille","lat":43.30878,"lon":5.39632,"is_reserved":false,"is_disabled":false,"rental_uris":{"android":"levelo://app?vid=b219a1c1-2cb4-4ae1-8e3f-102f1db645df","ios":"levelo://app?vid=b219a1c1-2cb4-4ae1-8e3f-102f1db645df"},"vehicle_type_id":"4","last_reported":1731877647,"current_range_meters":39200,"station_id":"ce4bh012rcd13ifvqcv0","pricing_plan_id":"cebpf4jnsgd1na2vs0mg"},{"bike_id":"c643aca0-e63e-4182-a0fd-bd45566e373b","system_id":"levelo_inurba_marseille","lat":43.28844,"lon":5.35854,"is_reserved":false,"is_disabled":false,"rental_uris":{"android":"levelo://app?vid=c643aca0-e63e-4182-a0fd-bd45566e373b","ios":"levelo://app?vid=c643aca0-e63e-4182-a0fd-bd45566e373b"},"vehicle_type_id":"4","last_reported":1731877647,"current_range_meters":27200,"station_id":"ce4bhb12rcd13ifvqem0","pricing_plan_id":"cebpf4jnsgd1na2vs0mg"},{"bike_id":"cb3165b9-4890-480d-ae63-784fba188dfc","system_id":"levelo_inurba_marseille","lat":43.27069,"lon":5.42277,"is_reserved":false,"is_disabled":false,"rental_uris":{"android":"levelo://app?vid=cb3165b9-4890-480d-ae63-784fba188dfc","ios":"levelo://app?vid=cb3165b9-4890-480d-ae63-784fba188dfc"},"vehicle_type_id":"4","last_reported":1731877647,"current_range_meters":39200,"station_id":"ce4bhk92rcd13ifvqgb0","pricing_plan_id":"cebpf4jnsgd1na2vs0mg"},{"bike_id":"e255a41c-fb0d-4289-92d3-782765fbd7ee","system_id":"levelo_inurba_marseille","lat":43.31531,"lon":5.38025,"is_reserved":false,"is_disabled":false,"rental_uris":{"android":"levelo://app?vid=e255a41c-fb0d-4289-92d3-782765fbd7ee","ios":"levelo://app?vid=e255a41c-fb0d-4289-92d3-782765fbd7ee"},"vehicle_type_id":"4","last_reported":1731877647,"current_range_meters":12800,"station_id":"ce4bhsp2rcd13ifvqi50","pricing_plan_id":"cebpf4jnsgd1na2vs0mg"},{"bike_id":"5938f129-0be9-4612-acac-86791f6673ad","system_id":"levelo_inurba_marseille","lat":43.28208,"lon":5.44375,"is_reserved":false,"is_disabled":false,"rental_uris":{"android":"levelo://app?vid=5938f129-0be9-4612-acac-86791f6673ad","ios":"levelo://app?vid=5938f129-0be9-4612-acac-86791f6673ad"},"vehicle_type_id":"4","last_reported":1731877647,"current_range_meters":11200,"station_id":"","pricing_plan_id":"cebpf4jnsgd1na2vs0mg"},{"bike_id":"fd179809-e6fa-4118-bc5c-b276cfa9228c","system_id":"levelo_inurba_marseille","lat":43.27618,"lon":5.36112,"is_reserved":false,"is_disabled":false,"rental_uris":{"android":"levelo://app?vid=fd179809-e6fa-4118-bc5c-b276cfa9228c","ios":"levelo://app?vid=fd179809-e6fa-4118-bc5c-b276cfa9228c"},"vehicle_type_id":"4","last_reported":1731877647,"current_range_meters":26800,"station_id":"ce4bgj92rcd13ifvqbe0","pricing_plan_id":"cebpf4jnsgd1na2vs0mg"},{"bike_id":"e9c95dd5-afb3-4df6-8ea4-96bbc6bd78de","system_id":"levelo_inurba_marseille","lat":43.33024,"lon":5.39041,"is_reserved":false,"is_disabled":false,"rental_uris":{"android":"levelo://app?vid=e9c95dd5-afb3-4df6-8ea4-96bbc6bd78de","ios":"levelo://app?vid=e9c95dd5-afb3-4df6-8ea4-96bbc6bd78de"},"vehicle_type_id":"4","last_reported":1731877647,"current_range_meters":36800,"station_id":"ce4bhr92rcd13ifvqhrg","pricing_plan_id":"cebpf4jnsgd1na2vs0mg"},{"bike_id":"dacc01ce-d86e-4a8a-a658-ce5d17d88878","system_id":"levelo_inurba_marseille","lat":43.2694,"lon":5.40253,"is_reserved":false,"is_disabled":false,"rental_uris":{"android":"levelo://app?vid=dacc01ce-d86e-4a8a-a658-ce5d17d88878","ios":"levelo://app?vid=dacc01ce-d86e-4a8a-a658-ce5d17d88878"},"vehicle_type_id":"4","last_reported":1731877647,"current_range_meters":38800,"station_id":"cjm6bp8fraef2m0cb0m0","pricing_plan_id":"cebpf4jnsgd1na2vs0mg"},{"bike_id":"eda5f5d6-66aa-4b3a-bca5-bf9d1afb6cce","system_id":"levelo_inurba_marseille","lat":43.304255,"lon":5.397465,"is_reserved":false,"is_disabled":false,"rental_uris":{"android":"levelo://app?vid=eda5f5d6-66aa-4b3a-bca5-bf9d1afb6cce","ios":"levelo://app?vid=eda5f5d6-66aa-4b3a-bca5-bf9d1afb6cce"},"vehicle_type_id":"4","last_reported":1731877647,"current_range_meters":38400,"station_id":"ce4bh092rcd13ifvqd20","pricing_plan_id":"cebpf4jnsgd1na2vs0mg"},{"bike_id":"3de61345-366f-4f92-b607-4e5e6f7dd6dc","system_id":"levelo_inurba_marseille","lat":43.25106,"lon":5.40324,"is_reserved":false,"is_disabled":false,"rental_uris":{"android":"levelo://app?vid=3de61345-366f-4f92-b607-4e5e6f7dd6dc","ios":"levelo://app?vid=3de61345-366f-4f92-b607-4e5e6f7dd6dc"},"vehicle_type_id":"4","last_reported":1731877647,"current_range_meters":34000,"station_id":"ce4bhlh2rcd13ifvqgig","pricing_plan_id":"cebpf4jnsgd1na2vs0mg"},{"bike_id":"f8ef6b70-bca5-41bb-9db3-c4fb7cb45255","system_id":"levelo_inurba_marseille","lat":43.29021,"lon":5.38152,"is_reserved":false,"is_disabled":false,"rental_uris":{"android":"levelo://app?vid=f8ef6b70-bca5-41bb-9db3-c4fb7cb45255","ios":"levelo://app?vid=f8ef6b70-bca5-41bb-9db3-c4fb7cb45255"},"vehicle_type_id":"4","last_reported":1731877647,"current_range_meters":36800,"station_id":"ce4bh4p2rcd13ifvqe1g","pricing_plan_id":"cebpf4jnsgd1na2vs0mg"},{"bike_id":"7e5e4156-b916-4bcd-846f-c8b6b85bec0d","system_id":"levelo_inurba_marseille","lat":43.285034,"lon":5.3503,"is_reserved":false,"is_disabled":false,"rental_uris":{"android":"levelo://app?vid=7e5e4156-b916-4bcd-846f-c8b6b85bec0d","ios":"levelo://app?vid=7e5e4156-b916-4bcd-846f-c8b6b85bec0d"},"vehicle_type_id":"4","last_reported":1731877647,"current_range_meters":34800,"station_id":"ce4bhap2rcd13ifvqek0","pricing_plan_id":"cebpf4jnsgd1na2vs0mg"},{"bike_id":"12867844-fa2a-41b2-8d74-706d4ef15909","system_id":"levelo_inurba_marseille","lat":43.33756,"lon":5.3743,"is_reserved":false,"is_disabled":false,"rental_uris":{"android":"levelo://app?vid=12867844-fa2a-41b2-8d74-706d4ef15909","ios":"levelo://app?vid=12867844-fa2a-41b2-8d74-706d4ef15909"},"vehicle_type_id":"4","last_reported":1731877647,"current_range_meters":31200,"station_id":"","pricing_plan_id":"cebpf4jnsgd1na2vs0mg"},{"bike_id":"08bebddc-2f83-4060-9f6d-3a473ed2bb45","system_id":"levelo_inurba_marseille","lat":43.30534,"lon":5.38439,"is_reserved":false,"is_disabled":false,"rental_uris":{"android":"levelo://app?vid=08bebddc-2f83-4060-9f6d-3a473ed2bb45","ios":"levelo://app?vid=08bebddc-2f83-4060-9f6d-3a473ed2bb45"},"vehicle_type_id":"4","last_reported":1731877647,"current_range_meters":33200,"station_id":"ce4bgg92rcd13ifvqb30","pricing_plan_id":"cebpf4jnsgd1na2vs0mg"},{"bike_id":"a336ee14-58f3-4199-a15a-797b15af1e0f","system_id":"levelo_inurba_marseille","lat":43.30412,"lon":5.41301,"is_reserved":false,"is_disabled":false,"rental_uris":{"android":"levelo://app?vid=a336ee14-58f3-4199-a15a-797b15af1e0f","ios":"levelo://app?vid=a336ee14-58f3-4199-a15a-797b15af1e0f"},"vehicle_type_id":"4","last_reported":1731877647,"current_range_meters":28400,"station_id":"ce4bhop2rcd13ifvqh8g","pricing_plan_id":"cebpf4jnsgd1na2vs0mg"},{"bike_id":"23f7e7bd-3c70-44bb-943b-2505231e7297","system_id":"levelo_inurba_marseille","lat":43.28464,"lon":5.35892,"is_reserved":false,"is_disabled":false,"rental_uris":{"android":"levelo://app?vid=23f7e7bd-3c70-44bb-943b-2505231e7297","ios":"levelo://app?vid=23f7e7bd-3c70-44bb-943b-2505231e7297"},"vehicle_type_id":"4","last_reported":1731877647,"current_range_meters":39200,"station_id":"ce4bhah2rcd13ifvqei0","pricing_plan_id":"cebpf4jnsgd1na2vs0mg"},{"bike_id":"5a9704f3-fb36-482c-9b5e-70977a2c766e","system_id":"levelo_inurba_marseille","lat":43.30782,"lon":5.37637,"is_reserved":false,"is_disabled":false,"rental_uris":{"android":"levelo://app?vid=5a9704f3-fb36-482c-9b5e-70977a2c766e","ios":"levelo://app?vid=5a9704f3-fb36-482c-9b5e-70977a2c766e"},"vehicle_type_id":"4","last_reported":1731877647,"current_range_meters":27600,"station_id":"ce4bgv92rcd13ifvqcq0","pricing_plan_id":"cebpf4jnsgd1na2vs0mg"},{"bike_id":"29805b00-7c0a-4e6a-9e25-4043a0fff472","system_id":"levelo_inurba_marseille","lat":43.31278,"lon":5.40161,"is_reserved":false,"is_disabled":false,"rental_uris":{"android":"levelo://app?vid=29805b00-7c0a-4e6a-9e25-4043a0fff472","ios":"levelo://app?vid=29805b00-7c0a-4e6a-9e25-4043a0fff472"},"vehicle_type_id":"4","last_reported":1731877647,"current_range_meters":28400,"station_id":"ce4bh092rcd13ifvqd30","pricing_plan_id":"cebpf4jnsgd1na2vs0mg"},{"bike_id":"a109cab4-dd15-4272-aadf-b248e07d7d4a","system_id":"levelo_inurba_marseille","lat":43.303795,"lon":5.397076,"is_reserved":false,"is_disabled":false,"rental_uris":{"android":"levelo://app?vid=a109cab4-dd15-4272-aadf-b248e07d7d4a","ios":"levelo://app?vid=a109cab4-dd15-4272-aadf-b248e07d7d4a"},"vehicle_type_id":"4","last_reported":1731877647,"current_range_meters":27600,"station_id":"ce4bh092rcd13ifvqd20","pricing_plan_id":"cebpf4jnsgd1na2vs0mg"},{"bike_id":"7df5f898-8d4f-441d-b3e8-1bdbdaca6d1a","system_id":"levelo_inurba_marseille","lat":43.29519,"lon":5.39402,"is_reserved":false,"is_disabled":false,"rental_uris":{"android":"levelo://app?vid=7df5f898-8d4f-441d-b3e8-1bdbdaca6d1a","ios":"levelo://app?vid=7df5f898-8d4f-441d-b3e8-1bdbdaca6d1a"},"vehicle_type_id":"4","last_reported":1731877647,"current_range_meters":38800,"station_id":"ce4bh292rcd13ifvqdf0","pricing_plan_id":"cebpf4jnsgd1na2vs0mg"},{"bike_id":"10808265-c82e-4663-ad34-00454e769817","system_id":"levelo_inurba_marseille","lat":43.23189,"lon":5.39994,"is_reserved":false,"is_disabled":false,"rental_uris":{"android":"levelo://app?vid=10808265-c82e-4663-ad34-00454e769817","ios":"levelo://app?vid=10808265-c82e-4663-ad34-00454e769817"},"vehicle_type_id":"4","last_reported":1731877647,"current_range_meters":29600,"station_id":"ce4bhn12rcd13ifvqgqg","pricing_plan_id":"cebpf4jnsgd1na2vs0mg"},{"bike_id":"8bcea2eb-873a-48a8-83fc-0ac9c052e180","system_id":"levelo_inurba_marseille","lat":43.32337,"lon":5.40624,"is_reserved":false,"is_disabled":false,"rental_uris":{"android":"levelo://app?vid=8bcea2eb-873a-48a8-83fc-0ac9c052e180","ios":"levelo://app?vid=8bcea2eb-873a-48a8-83fc-0ac9c052e180"},"vehicle_type_id":"4","last_reported":1731877647,"current_range_meters":34800,"station_id":"ce4bhq92rcd13ifvqhjg","pricing_plan_id":"cebpf4jnsgd1na2vs0mg"},{"bike_id":"f86d1405-ab23-4ac0-85a6-f6aed059b230","system_id":"levelo_inurba_marseille","lat":43.30663,"lon":5.40071,"is_reserved":false,"is_disabled":false,"rental_uris":{"android":"levelo://app?vid=f86d1405-ab23-4ac0-85a6-f6aed059b230","ios":"levelo://app?vid=f86d1405-ab23-4ac0-85a6-f6aed059b230"},"vehicle_type_id":"4","last_reported":1731877647,"current_range_meters":16000,"station_id":"ce4bh112rcd13ifvqda0","pricing_plan_id":"cebpf4jnsgd1na2vs0mg"},{"bike_id":"3088cdcc-b656-4f4c-b071-0bd948bae3ca","system_id":"levelo_inurba_marseille","lat":43.31327,"lon":5.39687,"is_reserved":false,"is_disabled":false,"rental_uris":{"android":"levelo://app?vid=3088cdcc-b656-4f4c-b071-0bd948bae3ca","ios":"levelo://app?vid=3088cdcc-b656-4f4c-b071-0bd948bae3ca"},"vehicle_type_id":"4","last_reported":1731877647,"current_range_meters":24400,"station_id":"ce4bgvp2rcd13ifvqcu0","pricing_plan_id":"cebpf4jnsgd1na2vs0mg"},{"bike_id":"8f019a78-c493-4f9d-a72d-a75fc0e36210","system_id":"levelo_inurba_marseille","lat":43.2407,"lon":5.37764,"is_reserved":false,"is_disabled":false,"rental_uris":{"android":"levelo://app?vid=8f019a78-c493-4f9d-a72d-a75fc0e36210","ios":"levelo://app?vid=8f019a78-c493-4f9d-a72d-a75fc0e36210"},"vehicle_type_id":"4","last_reported":1731877647,"current_range_meters":29600,"station_id":"ce4bhnp2rcd13ifvqgvg","pricing_plan_id":"cebpf4jnsgd1na2vs0mg"},{"bike_id":"6cd218c9-4ddf-48c0-9806-336b71a616a5","system_id":"levelo_inurba_marseille","lat":43.31228,"lon":5.36866,"is_reserved":false,"is_disabled":false,"rental_uris":{"android":"levelo://app?vid=6cd218c9-4ddf-48c0-9806-336b71a616a5","ios":"levelo://app?vid=6cd218c9-4ddf-48c0-9806-336b71a616a5"},"vehicle_type_id":"4","last_reported":1731877647,"current_range_meters":38400,"station_id":"ce4bgl92rcd13ifvqbq0","pricing_plan_id":"cebpf4jnsgd1na2vs0mg"},{"bike_id":"3e34e7e6-72a2-4f4b-8cb0-d31781678d93","system_id":"levelo_inurba_marseille","lat":43.3064,"lon":5.40106,"is_reserved":false,"is_disabled":false,"rental_uris":{"android":"levelo://app?vid=3e34e7e6-72a2-4f4b-8cb0-d31781678d93","ios":"levelo://app?vid=3e34e7e6-72a2-4f4b-8cb0-d31781678d93"},"vehicle_type_id":"4","last_reported":1731877647,"current_range_meters":27600,"station_id":"ce4bh112rcd13ifvqda0","pricing_plan_id":"cebpf4jnsgd1na2vs0mg"},{"bike_id":"d71f75d9-74a3-482d-b92e-14976a4ffea0","system_id":"levelo_inurba_marseille","lat":43.28727,"lon":5.37935,"is_reserved":false,"is_disabled":false,"rental_uris":{"android":"levelo://app?vid=d71f75d9-74a3-482d-b92e-14976a4ffea0","ios":"levelo://app?vid=d71f75d9-74a3-482d-b92e-14976a4ffea0"},"vehicle_type_id":"4","last_reported":1731877647,"current_range_meters":11600,"station_id":"ce4bh9p2rcd13ifvqec0","pricing_plan_id":"cebpf4jnsgd1na2vs0mg"},{"bike_id":"bec56b94-4d7b-4994-859b-bb682d5c422a","system_id":"levelo_inurba_marseille","lat":43.30593,"lon":5.39361,"is_reserved":false,"is_disabled":false,"rental_uris":{"android":"levelo://app?vid=bec56b94-4d7b-4994-859b-bb682d5c422a","ios":"levelo://app?vid=bec56b94-4d7b-4994-859b-bb682d5c422a"},"vehicle_type_id":"4","last_reported":1731877647,"current_range_meters":33200,"station_id":"ce4bh0p2rcd13ifvqd80","pricing_plan_id":"cebpf4jnsgd1na2vs0mg"},{"bike_id":"a3a50842-12fb-436f-a1a6-082e2b162372","system_id":"levelo_inurba_marseille","lat":43.292,"lon":5.39316,"is_reserved":false,"is_disabled":false,"rental_uris":{"android":"levelo://app?vid=a3a50842-12fb-436f-a1a6-082e2b162372","ios":"levelo://app?vid=a3a50842-12fb-436f-a1a6-082e2b162372"},"vehicle_type_id":"4","last_reported":1731877647,"current_range_meters":16000,"station_id":"ce4bh192rcd13ifvqdd0","pricing_plan_id":"cebpf4jnsgd1na2vs0mg"},{"bike_id":"304847a3-3e07-4fb8-955c-861fbc7ac28f","system_id":"levelo_inurba_marseille","lat":43.25726,"lon":5.41116,"is_reserved":false,"is_disabled":false,"rental_uris":{"android":"levelo://app?vid=304847a3-3e07-4fb8-955c-861fbc7ac28f","ios":"levelo://app?vid=304847a3-3e07-4fb8-955c-861fbc7ac28f"},"vehicle_type_id":"4","last_reported":1731877647,"current_range_meters":38800,"station_id":"ce4bhkp2rcd13ifvqgd0","pricing_plan_id":"cebpf4jnsgd1na2vs0mg"},{"bike_id":"2557ed8f-3867-4350-b6d5-b00629f71d38","system_id":"levelo_inurba_marseille","lat":43.27895,"lon":5.38008,"is_reserved":false,"is_disabled":false,"rental_uris":{"android":"levelo://app?vid=2557ed8f-3867-4350-b6d5-b00629f71d38","ios":"levelo://app?vid=2557ed8f-3867-4350-b6d5-b00629f71d38"},"vehicle_type_id":"4","last_reported":1731877647,"current_range_meters":38800,"station_id":"ce4bhf92rcd13ifvqf50","pricing_plan_id":"cebpf4jnsgd1na2vs0mg"},{"bike_id":"b3438d49-0eeb-4193-9fa0-67f2e7f4a0ce","system_id":"levelo_inurba_marseille","lat":43.26806,"lon":5.4027,"is_reserved":false,"is_disabled":false,"rental_uris":{"android":"levelo://app?vid=b3438d49-0eeb-4193-9fa0-67f2e7f4a0ce","ios":"levelo://app?vid=b3438d49-0eeb-4193-9fa0-67f2e7f4a0ce"},"vehicle_type_id":"4","last_reported":1731877647,"current_range_meters":32400,"station_id":"ce501612rcd8frsf0b60","pricing_plan_id":"cebpf4jnsgd1na2vs0mg"},{"bike_id":"5beb460c-cb62-4082-94e6-4a63e11a79a2","system_id":"levelo_inurba_marseille","lat":43.29303,"lon":5.40994,"is_reserved":false,"is_disabled":false,"rental_uris":{"android":"levelo://app?vid=5beb460c-cb62-4082-94e6-4a63e11a79a2","ios":"levelo://app?vid=5beb460c-cb62-4082-94e6-4a63e11a79a2"},"vehicle_type_id":"4","last_reported":1731877647,"current_range_meters":9200,"station_id":"ce4bgvp2rcd13ifvqct0","pricing_plan_id":"cebpf4jnsgd1na2vs0mg"},{"bike_id":"2b754c48-bf72-4e88-a569-49c168e62a76","system_id":"levelo_inurba_marseille","lat":43.28075,"lon":5.3966,"is_reserved":false,"is_disabled":false,"rental_uris":{"android":"levelo://app?vid=2b754c48-bf72-4e88-a569-49c168e62a76","ios":"levelo://app?vid=2b754c48-bf72-4e88-a569-49c168e62a76"},"vehicle_type_id":"4","last_reported":1731877647,"current_range_meters":36000,"station_id":"ce4bho12rcd13ifvqh2g","pricing_plan_id":"cebpf4jnsgd1na2vs0mg"},{"bike_id":"a3471b01-d347-453f-9107-802a928d4193","system_id":"levelo_inurba_marseille","lat":43.2846,"lon":5.35898,"is_reserved":false,"is_disabled":false,"rental_uris":{"android":"levelo://app?vid=a3471b01-d347-453f-9107-802a928d4193","ios":"levelo://app?vid=a3471b01-d347-453f-9107-802a928d4193"},"vehicle_type_id":"4","last_reported":1731877647,"current_range_meters":39200,"station_id":"ce4bhah2rcd13ifvqei0","pricing_plan_id":"cebpf4jnsgd1na2vs0mg"},{"bike_id":"e05e1457-2f6d-4bcd-91c4-bf68c794eddb","system_id":"levelo_inurba_marseille","lat":43.29883,"lon":5.39736,"is_reserved":false,"is_disabled":false,"rental_uris":{"android":"levelo://app?vid=e05e1457-2f6d-4bcd-91c4-bf68c794eddb","ios":"levelo://app?vid=e05e1457-2f6d-4bcd-91c4-bf68c794eddb"},"vehicle_type_id":"4","last_reported":1731877647,"current_range_meters":18000,"station_id":"ce4bh0h2rcd13ifvqd50","pricing_plan_id":"cebpf4jnsgd1na2vs0mg"},{"bike_id":"cf945979-904b-41b5-8482-198035004c2e","system_id":"levelo_inurba_marseille","lat":43.33022,"lon":5.39037,"is_reserved":false,"is_disabled":false,"rental_uris":{"android":"levelo://app?vid=cf945979-904b-41b5-8482-198035004c2e","ios":"levelo://app?vid=cf945979-904b-41b5-8482-198035004c2e"},"vehicle_type_id":"4","last_reported":1731877647,"current_range_meters":24400,"station_id":"ce4bhr92rcd13ifvqhrg","pricing_plan_id":"cebpf4jnsgd1na2vs0mg"},{"bike_id":"fc9ffa41-3ad0-472d-8cbd-b06e4af7cd1e","system_id":"levelo_inurba_marseille","lat":43.28407,"lon":5.37522,"is_reserved":false,"is_disabled":false,"rental_uris":{"android":"levelo://app?vid=fc9ffa41-3ad0-472d-8cbd-b06e4af7cd1e","ios":"levelo://app?vid=fc9ffa41-3ad0-472d-8cbd-b06e4af7cd1e"},"vehicle_type_id":"4","last_reported":1731877647,"current_range_meters":38800,"station_id":"ce4bh412rcd13ifvqds0","pricing_plan_id":"cebpf4jnsgd1na2vs0mg"},{"bike_id":"29a15cda-49bd-4aca-b31c-170aa64a2fc5","system_id":"levelo_inurba_marseille","lat":43.30309,"lon":5.36903,"is_reserved":false,"is_disabled":false,"rental_uris":{"android":"levelo://app?vid=29a15cda-49bd-4aca-b31c-170aa64a2fc5","ios":"levelo://app?vid=29a15cda-49bd-4aca-b31c-170aa64a2fc5"},"vehicle_type_id":"4","last_reported":1731877647,"current_range_meters":28400,"station_id":"ce4bgqh2rcd13ifvqc5g","pricing_plan_id":"cebpf4jnsgd1na2vs0mg"},{"bike_id":"8cdbbb9d-e54c-4963-8b6c-ba5d001805cc","system_id":"levelo_inurba_marseille","lat":43.28148,"lon":5.44223,"is_reserved":false,"is_disabled":false,"rental_uris":{"android":"levelo://app?vid=8cdbbb9d-e54c-4963-8b6c-ba5d001805cc","ios":"levelo://app?vid=8cdbbb9d-e54c-4963-8b6c-ba5d001805cc"},"vehicle_type_id":"4","last_reported":1731877647,"current_range_meters":34000,"station_id":"","pricing_plan_id":"cebpf4jnsgd1na2vs0mg"},{"bike_id":"88fbcddc-fc1e-4412-b0ae-ec12ac073173","system_id":"levelo_inurba_marseille","lat":43.28076,"lon":5.39659,"is_reserved":false,"is_disabled":false,"rental_uris":{"android":"levelo://app?vid=88fbcddc-fc1e-4412-b0ae-ec12ac073173","ios":"levelo://app?vid=88fbcddc-fc1e-4412-b0ae-ec12ac073173"},"vehicle_type_id":"4","last_reported":1731877647,"current_range_meters":39200,"station_id":"ce4bho12rcd13ifvqh2g","pricing_plan_id":"cebpf4jnsgd1na2vs0mg"},{"bike_id":"74a3a804-a3ea-476b-85cf-2f8424715fca","system_id":"levelo_inurba_marseille","lat":43.30944,"lon":5.39031,"is_reserved":false,"is_disabled":false,"rental_uris":{"android":"levelo://app?vid=74a3a804-a3ea-476b-85cf-2f8424715fca","ios":"levelo://app?vid=74a3a804-a3ea-476b-85cf-2f8424715fca"},"vehicle_type_id":"4","last_reported":1731877647,"current_range_meters":30000,"station_id":"ce4bgup2rcd13ifvqco0","pricing_plan_id":"cebpf4jnsgd1na2vs0mg"},{"bike_id":"b5ff0f25-c5aa-4dd0-9022-63d731c1cb70","system_id":"levelo_inurba_marseille","lat":43.28845,"lon":5.39319,"is_reserved":false,"is_disabled":false,"rental_uris":{"android":"levelo://app?vid=b5ff0f25-c5aa-4dd0-9022-63d731c1cb70","ios":"levelo://app?vid=b5ff0f25-c5aa-4dd0-9022-63d731c1cb70"},"vehicle_type_id":"4","last_reported":1731877647,"current_range_meters":38800,"station_id":"ce4bh2p2rcd13ifvqdi0","pricing_plan_id":"cebpf4jnsgd1na2vs0mg"},{"bike_id":"7001912d-a8ae-438b-a540-0bebebae2cfd","system_id":"levelo_inurba_marseille","lat":43.29301,"lon":5.37457,"is_reserved":false,"is_disabled":false,"rental_uris":{"android":"levelo://app?vid=7001912d-a8ae-438b-a540-0bebebae2cfd","ios":"levelo://app?vid=7001912d-a8ae-438b-a540-0bebebae2cfd"},"vehicle_type_id":"4","last_reported":1731877647,"current_range_meters":36000,"station_id":"ce4bgi12rcd13ifvqb70","pricing_plan_id":"cebpf4jnsgd1na2vs0mg"},{"bike_id":"7d0bf556-b439-4329-b8e1-42fa55daaee9","system_id":"levelo_inurba_marseille","lat":43.30881,"lon":5.39643,"is_reserved":false,"is_disabled":false,"rental_uris":{"android":"levelo://app?vid=7d0bf556-b439-4329-b8e1-42fa55daaee9","ios":"levelo://app?vid=7d0bf556-b439-4329-b8e1-42fa55daaee9"},"vehicle_type_id":"4","last_reported":1731877647,"current_range_meters":4800,"station_id":"ce4bh012rcd13ifvqcv0","pricing_plan_id":"cebpf4jnsgd1na2vs0mg"},{"bike_id":"c789f843-6a8e-473f-8e7e-4886ff8f1b02","system_id":"levelo_inurba_marseille","lat":43.23184,"lon":5.3998,"is_reserved":false,"is_disabled":false,"rental_uris":{"android":"levelo://app?vid=c789f843-6a8e-473f-8e7e-4886ff8f1b02","ios":"levelo://app?vid=c789f843-6a8e-473f-8e7e-4886ff8f1b02"},"vehicle_type_id":"4","last_reported":1731877647,"current_range_meters":39200,"station_id":"ce4bhn12rcd13ifvqgqg","pricing_plan_id":"cebpf4jnsgd1na2vs0mg"},{"bike_id":"76f17f04-f739-43db-843c-2a9c5eb70c12","system_id":"levelo_inurba_marseille","lat":43.31121,"lon":5.37761,"is_reserved":false,"is_disabled":false,"rental_uris":{"android":"levelo://app?vid=76f17f04-f739-43db-843c-2a9c5eb70c12","ios":"levelo://app?vid=76f17f04-f739-43db-843c-2a9c5eb70c12"},"vehicle_type_id":"4","last_reported":1731877647,"current_range_meters":38800,"station_id":"ce4bgt92rcd13ifvqcg0","pricing_plan_id":"cebpf4jnsgd1na2vs0mg"},{"bike_id":"25e8af85-9a67-438e-bf92-99314951acd2","system_id":"levelo_inurba_marseille","lat":43.30104,"lon":5.39105,"is_reserved":false,"is_disabled":false,"rental_uris":{"android":"levelo://app?vid=25e8af85-9a67-438e-bf92-99314951acd2","ios":"levelo://app?vid=25e8af85-9a67-438e-bf92-99314951acd2"},"vehicle_type_id":"4","last_reported":1731877647,"current_range_meters":31200,"station_id":"ce4bh192rcd13ifvqdb0","pricing_plan_id":"cebpf4jnsgd1na2vs0mg"},{"bike_id":"2340cb86-c374-404b-8be0-bf4efc611cee","system_id":"levelo_inurba_marseille","lat":43.33605,"lon":5.4104,"is_reserved":false,"is_disabled":false,"rental_uris":{"android":"levelo://app?vid=2340cb86-c374-404b-8be0-bf4efc611cee","ios":"levelo://app?vid=2340cb86-c374-404b-8be0-bf4efc611cee"},"vehicle_type_id":"4","last_reported":1731877647,"current_range_meters":16800,"station_id":"ce4bhqh2rcd13ifvqhmg","pricing_plan_id":"cebpf4jnsgd1na2vs0mg"},{"bike_id":"6544d345-32fa-47a7-a827-79b43947b8d4","system_id":"levelo_inurba_marseille","lat":43.26493,"lon":5.395455,"is_reserved":false,"is_disabled":false,"rental_uris":{"android":"levelo://app?vid=6544d345-32fa-47a7-a827-79b43947b8d4","ios":"levelo://app?vid=6544d345-32fa-47a7-a827-79b43947b8d4"},"vehicle_type_id":"4","last_reported":1731877647,"current_range_meters":16800,"station_id":"ce4bhi12rcd13ifvqfq0","pricing_plan_id":"cebpf4jnsgd1na2vs0mg"},{"bike_id":"4f01fa73-c9c0-4fc0-986b-b2a94d270e4a","system_id":"levelo_inurba_marseille","lat":43.302519,"lon":5.400883,"is_reserved":false,"is_disabled":false,"rental_uris":{"android":"levelo://app?vid=4f01fa73-c9c0-4fc0-986b-b2a94d270e4a","ios":"levelo://app?vid=4f01fa73-c9c0-4fc0-986b-b2a94d270e4a"},"vehicle_type_id":"4","last_reported":1731877647,"current_range_meters":8400,"station_id":"ce4bgvh2rcd13ifvqcs0","pricing_plan_id":"cebpf4jnsgd1na2vs0mg"},{"bike_id":"6d757fef-4f26-43f9-ac2c-ffab39bf7dae","system_id":"levelo_inurba_marseille","lat":43.32249,"lon":5.36901,"is_reserved":false,"is_disabled":false,"rental_uris":{"android":"levelo://app?vid=6d757fef-4f26-43f9-ac2c-ffab39bf7dae","ios":"levelo://app?vid=6d757fef-4f26-43f9-ac2c-ffab39bf7dae"},"vehicle_type_id":"4","last_reported":1731877647,"current_range_meters":13600,"station_id":"","pricing_plan_id":"cebpf4jnsgd1na2vs0mg"},{"bike_id":"d14c1b93-5193-4c76-88bb-4329772f8656","system_id":"levelo_inurba_marseille","lat":43.28457,"lon":5.35896,"is_reserved":false,"is_disabled":false,"rental_uris":{"android":"levelo://app?vid=d14c1b93-5193-4c76-88bb-4329772f8656","ios":"levelo://app?vid=d14c1b93-5193-4c76-88bb-4329772f8656"},"vehicle_type_id":"4","last_reported":1731877647,"current_range_meters":31200,"station_id":"ce4bhah2rcd13ifvqei0","pricing_plan_id":"cebpf4jnsgd1na2vs0mg"},{"bike_id":"4a851098-0d4c-481f-8ec2-d29f76466c9e","system_id":"levelo_inurba_marseille","lat":43.31712,"lon":5.37759,"is_reserved":false,"is_disabled":false,"rental_uris":{"android":"levelo://app?vid=4a851098-0d4c-481f-8ec2-d29f76466c9e","ios":"levelo://app?vid=4a851098-0d4c-481f-8ec2-d29f76466c9e"},"vehicle_type_id":"4","last_reported":1731877647,"current_range_meters":39200,"station_id":"ce4bgth2rcd13ifvqch0","pricing_plan_id":"cebpf4jnsgd1na2vs0mg"},{"bike_id":"250baacc-16ca-4248-a285-691ee29a779c","system_id":"levelo_inurba_marseille","lat":43.28152,"lon":5.42648,"is_reserved":false,"is_disabled":false,"rental_uris":{"android":"levelo://app?vid=250baacc-16ca-4248-a285-691ee29a779c","ios":"levelo://app?vid=250baacc-16ca-4248-a285-691ee29a779c"},"vehicle_type_id":"4","last_reported":1731877647,"current_range_meters":25600,"station_id":"ce4bhnh2rcd13ifvqgug","pricing_plan_id":"cebpf4jnsgd1na2vs0mg"},{"bike_id":"d2f42cf5-8801-43db-acf5-b3c9c3015ac2","system_id":"levelo_inurba_marseille","lat":43.27915,"lon":5.39578,"is_reserved":false,"is_disabled":false,"rental_uris":{"android":"levelo://app?vid=d2f42cf5-8801-43db-acf5-b3c9c3015ac2","ios":"levelo://app?vid=d2f42cf5-8801-43db-acf5-b3c9c3015ac2"},"vehicle_type_id":"4","last_reported":1731877647,"current_range_meters":31200,"station_id":"ce4bhf92rcd13ifvqf40","pricing_plan_id":"cebpf4jnsgd1na2vs0mg"},{"bike_id":"2c94fbee-bde0-42b9-a65a-07b92e2a675f","system_id":"levelo_inurba_marseille","lat":43.28568,"lon":5.385004,"is_reserved":false,"is_disabled":false,"rental_uris":{"android":"levelo://app?vid=2c94fbee-bde0-42b9-a65a-07b92e2a675f","ios":"levelo://app?vid=2c94fbee-bde0-42b9-a65a-07b92e2a675f"},"vehicle_type_id":"4","last_reported":1731877647,"current_range_meters":36400,"station_id":"ce4bh8p2rcd13ifvqeb0","pricing_plan_id":"cebpf4jnsgd1na2vs0mg"},{"bike_id":"b9fc396b-fc8a-4bf2-950a-0f536c8cb697","system_id":"levelo_inurba_marseille","lat":43.29513,"lon":5.39405,"is_reserved":false,"is_disabled":false,"rental_uris":{"android":"levelo://app?vid=b9fc396b-fc8a-4bf2-950a-0f536c8cb697","ios":"levelo://app?vid=b9fc396b-fc8a-4bf2-950a-0f536c8cb697"},"vehicle_type_id":"4","last_reported":1731877647,"current_range_meters":33600,"station_id":"ce4bh292rcd13ifvqdf0","pricing_plan_id":"cebpf4jnsgd1na2vs0mg"},{"bike_id":"0915b3ed-9c74-407d-8c35-25f6d5470718","system_id":"levelo_inurba_marseille","lat":43.25721,"lon":5.41116,"is_reserved":false,"is_disabled":false,"rental_uris":{"android":"levelo://app?vid=0915b3ed-9c74-407d-8c35-25f6d5470718","ios":"levelo://app?vid=0915b3ed-9c74-407d-8c35-25f6d5470718"},"vehicle_type_id":"4","last_reported":1731877647,"current_range_meters":38800,"station_id":"ce4bhkp2rcd13ifvqgd0","pricing_plan_id":"cebpf4jnsgd1na2vs0mg"},{"bike_id":"87c41b04-0f90-457a-b3fc-37e9ffccd964","system_id":"levelo_inurba_marseille","lat":43.30286,"lon":5.37707,"is_reserved":false,"is_disabled":false,"rental_uris":{"android":"levelo://app?vid=87c41b04-0f90-457a-b3fc-37e9ffccd964","ios":"levelo://app?vid=87c41b04-0f90-457a-b3fc-37e9ffccd964"},"vehicle_type_id":"4","last_reported":1731877647,"current_range_meters":36800,"station_id":"ce4bh612rcd13ifvqe6g","pricing_plan_id":"cebpf4jnsgd1na2vs0mg"},{"bike_id":"f9e50a29-65aa-464d-89e3-9f7ac82c689d","system_id":"levelo_inurba_marseille","lat":43.29252,"lon":5.40913,"is_reserved":false,"is_disabled":false,"rental_uris":{"android":"levelo://app?vid=f9e50a29-65aa-464d-89e3-9f7ac82c689d","ios":"levelo://app?vid=f9e50a29-65aa-464d-89e3-9f7ac82c689d"},"vehicle_type_id":"4","last_reported":1731877647,"current_range_meters":38000,"station_id":"ce4bh192rcd13ifvqdc0","pricing_plan_id":"cebpf4jnsgd1na2vs0mg"},{"bike_id":"65117ac2-3858-4ac9-82ee-bf7c29a75fc3","system_id":"levelo_inurba_marseille","lat":43.29188,"lon":5.39321,"is_reserved":false,"is_disabled":false,"rental_uris":{"android":"levelo://app?vid=65117ac2-3858-4ac9-82ee-bf7c29a75fc3","ios":"levelo://app?vid=65117ac2-3858-4ac9-82ee-bf7c29a75fc3"},"vehicle_type_id":"4","last_reported":1731877647,"current_range_meters":12800,"station_id":"ce4bh192rcd13ifvqdd0","pricing_plan_id":"cebpf4jnsgd1na2vs0mg"},{"bike_id":"5a3d0082-86fd-40c8-8b30-daf8825692a0","system_id":"levelo_inurba_marseille","lat":43.30421,"lon":5.39755,"is_reserved":false,"is_disabled":false,"rental_uris":{"android":"levelo://app?vid=5a3d0082-86fd-40c8-8b30-daf8825692a0","ios":"levelo://app?vid=5a3d0082-86fd-40c8-8b30-daf8825692a0"},"vehicle_type_id":"4","last_reported":1731877647,"current_range_meters":27200,"station_id":"ce4bh092rcd13ifvqd20","pricing_plan_id":"cebpf4jnsgd1na2vs0mg"},{"bike_id":"76b5d3f9-4460-41dd-a229-7e3bfd975144","system_id":"levelo_inurba_marseille","lat":43.27215,"lon":5.39186,"is_reserved":false,"is_disabled":false,"rental_uris":{"android":"levelo://app?vid=76b5d3f9-4460-41dd-a229-7e3bfd975144","ios":"levelo://app?vid=76b5d3f9-4460-41dd-a229-7e3bfd975144"},"vehicle_type_id":"4","last_reported":1731877647,"current_range_meters":39200,"station_id":"ce4bhhp2rcd13ifvqfm0","pricing_plan_id":"cebpf4jnsgd1na2vs0mg"},{"bike_id":"a337ef6e-fe9c-4e21-a11c-6b699778dd56","system_id":"levelo_inurba_marseille","lat":43.31064,"lon":5.38358,"is_reserved":false,"is_disabled":false,"rental_uris":{"android":"levelo://app?vid=a337ef6e-fe9c-4e21-a11c-6b699778dd56","ios":"levelo://app?vid=a337ef6e-fe9c-4e21-a11c-6b699778dd56"},"vehicle_type_id":"4","last_reported":1731877647,"current_range_meters":27600,"station_id":"ce4bgv92rcd13ifvqcr0","pricing_plan_id":"cebpf4jnsgd1na2vs0mg"},{"bike_id":"65ad3404-ca16-4ff6-a3da-345d3f802f80","system_id":"levelo_inurba_marseille","lat":43.24176,"lon":5.3973,"is_reserved":false,"is_disabled":false,"rental_uris":{"android":"levelo://app?vid=65ad3404-ca16-4ff6-a3da-345d3f802f80","ios":"levelo://app?vid=65ad3404-ca16-4ff6-a3da-345d3f802f80"},"vehicle_type_id":"4","last_reported":1731877647,"current_range_meters":30400,"station_id":"ce4bhn12rcd13ifvqgpg","pricing_plan_id":"cebpf4jnsgd1na2vs0mg"},{"bike_id":"560057b5-38ed-41d2-8363-c423745ab422","system_id":"levelo_inurba_marseille","lat":43.28155,"lon":5.4263,"is_reserved":false,"is_disabled":false,"rental_uris":{"android":"levelo://app?vid=560057b5-38ed-41d2-8363-c423745ab422","ios":"levelo://app?vid=560057b5-38ed-41d2-8363-c423745ab422"},"vehicle_type_id":"4","last_reported":1731877647,"current_range_meters":38800,"station_id":"ce4bhnh2rcd13ifvqgug","pricing_plan_id":"cebpf4jnsgd1na2vs0mg"},{"bike_id":"58f5ca90-571f-4d9d-9054-205e588fba78","system_id":"levelo_inurba_marseille","lat":43.27203,"lon":5.39196,"is_reserved":false,"is_disabled":false,"rental_uris":{"android":"levelo://app?vid=58f5ca90-571f-4d9d-9054-205e588fba78","ios":"levelo://app?vid=58f5ca90-571f-4d9d-9054-205e588fba78"},"vehicle_type_id":"4","last_reported":1731877647,"current_range_meters":38400,"station_id":"ce4bhhp2rcd13ifvqfm0","pricing_plan_id":"cebpf4jnsgd1na2vs0mg"},{"bike_id":"93b28b0d-4448-49b0-a659-1076ec8f95aa","system_id":"levelo_inurba_marseille","lat":43.31073,"lon":5.38354,"is_reserved":false,"is_disabled":false,"rental_uris":{"android":"levelo://app?vid=93b28b0d-4448-49b0-a659-1076ec8f95aa","ios":"levelo://app?vid=93b28b0d-4448-49b0-a659-1076ec8f95aa"},"vehicle_type_id":"4","last_reported":1731877647,"current_range_meters":9600,"station_id":"ce4bgv92rcd13ifvqcr0","pricing_plan_id":"cebpf4jnsgd1na2vs0mg"},{"bike_id":"50724d84-cbbf-4983-8dc9-3198d8be10d6","system_id":"levelo_inurba_marseille","lat":43.31486,"lon":5.37311,"is_reserved":false,"is_disabled":false,"rental_uris":{"android":"levelo://app?vid=50724d84-cbbf-4983-8dc9-3198d8be10d6","ios":"levelo://app?vid=50724d84-cbbf-4983-8dc9-3198d8be10d6"},"vehicle_type_id":"4","last_reported":1731877647,"current_range_meters":38800,"station_id":"ce4bgt12rcd13ifvqcd0","pricing_plan_id":"cebpf4jnsgd1na2vs0mg"},{"bike_id":"756e6efe-a3c3-44a4-afb4-9b895a088a93","system_id":"levelo_inurba_marseille","lat":43.30797,"lon":5.43527,"is_reserved":false,"is_disabled":false,"rental_uris":{"android":"levelo://app?vid=756e6efe-a3c3-44a4-afb4-9b895a088a93","ios":"levelo://app?vid=756e6efe-a3c3-44a4-afb4-9b895a088a93"},"vehicle_type_id":"4","last_reported":1731877647,"current_range_meters":37600,"station_id":"ce4bhph2rcd13ifvqheg","pricing_plan_id":"cebpf4jnsgd1na2vs0mg"},{"bike_id":"2ed17fb3-d4dc-4d23-86b8-87846dc96e6f","system_id":"levelo_inurba_marseille","lat":43.30594,"lon":5.39363,"is_reserved":false,"is_disabled":false,"rental_uris":{"android":"levelo://app?vid=2ed17fb3-d4dc-4d23-86b8-87846dc96e6f","ios":"levelo://app?vid=2ed17fb3-d4dc-4d23-86b8-87846dc96e6f"},"vehicle_type_id":"4","last_reported":1731877647,"current_range_meters":36000,"station_id":"ce4bh0p2rcd13ifvqd80","pricing_plan_id":"cebpf4jnsgd1na2vs0mg"},{"bike_id":"7c4762ad-f49d-4eef-9d08-9dfd4b66a9ca","system_id":"levelo_inurba_marseille","lat":43.28946,"lon":5.36631,"is_reserved":false,"is_disabled":false,"rental_uris":{"android":"levelo://app?vid=7c4762ad-f49d-4eef-9d08-9dfd4b66a9ca","ios":"levelo://app?vid=7c4762ad-f49d-4eef-9d08-9dfd4b66a9ca"},"vehicle_type_id":"4","last_reported":1731877647,"current_range_meters":29600,"station_id":"ce4bhap2rcd13ifvqek0","pricing_plan_id":"cebpf4jnsgd1na2vs0mg"},{"bike_id":"ad982bfa-78ad-414d-a23f-0f0b04b06fc8","system_id":"levelo_inurba_marseille","lat":43.31764,"lon":5.39015,"is_reserved":false,"is_disabled":false,"rental_uris":{"android":"levelo://app?vid=ad982bfa-78ad-414d-a23f-0f0b04b06fc8","ios":"levelo://app?vid=ad982bfa-78ad-414d-a23f-0f0b04b06fc8"},"vehicle_type_id":"4","last_reported":1731877647,"current_range_meters":39200,"station_id":"ce4bhqp2rcd13ifvqhng","pricing_plan_id":"cebpf4jnsgd1na2vs0mg"},{"bike_id":"3188bb0a-f569-4b99-911a-c4f8931a5d08","system_id":"levelo_inurba_marseille","lat":43.28459,"lon":5.35892,"is_reserved":false,"is_disabled":false,"rental_uris":{"android":"levelo://app?vid=3188bb0a-f569-4b99-911a-c4f8931a5d08","ios":"levelo://app?vid=3188bb0a-f569-4b99-911a-c4f8931a5d08"},"vehicle_type_id":"4","last_reported":1731877647,"current_range_meters":22400,"station_id":"ce4bhah2rcd13ifvqei0","pricing_plan_id":"cebpf4jnsgd1na2vs0mg"},{"bike_id":"0be92811-2ea3-4ef7-9959-f0d40183d31b","system_id":"levelo_inurba_marseille","lat":43.28938,"lon":5.39635,"is_reserved":false,"is_disabled":false,"rental_uris":{"android":"levelo://app?vid=0be92811-2ea3-4ef7-9959-f0d40183d31b","ios":"levelo://app?vid=0be92811-2ea3-4ef7-9959-f0d40183d31b"},"vehicle_type_id":"4","last_reported":1731877647,"current_range_meters":30000,"station_id":"ce4bh3h2rcd13ifvqdn0","pricing_plan_id":"cebpf4jnsgd1na2vs0mg"},{"bike_id":"aedf0c89-1e5d-42d2-9af3-32999bc8bda5","system_id":"levelo_inurba_marseille","lat":43.29878,"lon":5.39737,"is_reserved":false,"is_disabled":false,"rental_uris":{"android":"levelo://app?vid=aedf0c89-1e5d-42d2-9af3-32999bc8bda5","ios":"levelo://app?vid=aedf0c89-1e5d-42d2-9af3-32999bc8bda5"},"vehicle_type_id":"4","last_reported":1731877647,"current_range_meters":40000,"station_id":"ce4bh0h2rcd13ifvqd50","pricing_plan_id":"cebpf4jnsgd1na2vs0mg"},{"bike_id":"7c98e0a9-8a05-4c51-84e1-8e2ad06176a0","system_id":"levelo_inurba_marseille","lat":43.32543,"lon":5.41428,"is_reserved":false,"is_disabled":false,"rental_uris":{"android":"levelo://app?vid=7c98e0a9-8a05-4c51-84e1-8e2ad06176a0","ios":"levelo://app?vid=7c98e0a9-8a05-4c51-84e1-8e2ad06176a0"},"vehicle_type_id":"4","last_reported":1731877647,"current_range_meters":4000,"station_id":"ce4bhq12rcd13ifvqhhg","pricing_plan_id":"cebpf4jnsgd1na2vs0mg"},{"bike_id":"cdfc78e3-0d7a-42a8-a81c-3a6e816d2c3c","system_id":"levelo_inurba_marseille","lat":43.30881,"lon":5.39639,"is_reserved":false,"is_disabled":false,"rental_uris":{"android":"levelo://app?vid=cdfc78e3-0d7a-42a8-a81c-3a6e816d2c3c","ios":"levelo://app?vid=cdfc78e3-0d7a-42a8-a81c-3a6e816d2c3c"},"vehicle_type_id":"4","last_reported":1731877647,"current_range_meters":36000,"station_id":"ce4bh012rcd13ifvqcv0","pricing_plan_id":"cebpf4jnsgd1na2vs0mg"},{"bike_id":"dbf4a046-ec4b-42a2-89d2-1a2f6e4b54e9","system_id":"levelo_inurba_marseille","lat":43.31291,"lon":5.40161,"is_reserved":false,"is_disabled":false,"rental_uris":{"android":"levelo://app?vid=dbf4a046-ec4b-42a2-89d2-1a2f6e4b54e9","ios":"levelo://app?vid=dbf4a046-ec4b-42a2-89d2-1a2f6e4b54e9"},"vehicle_type_id":"4","last_reported":1731877647,"current_range_meters":39200,"station_id":"ce4bh092rcd13ifvqd30","pricing_plan_id":"cebpf4jnsgd1na2vs0mg"},{"bike_id":"1df51f2b-5127-4202-ba3d-7d9979942409","system_id":"levelo_inurba_marseille","lat":43.31069,"lon":5.38337,"is_reserved":false,"is_disabled":false,"rental_uris":{"android":"levelo://app?vid=1df51f2b-5127-4202-ba3d-7d9979942409","ios":"levelo://app?vid=1df51f2b-5127-4202-ba3d-7d9979942409"},"vehicle_type_id":"4","last_reported":1731877647,"current_range_meters":38800,"station_id":"ce4bgv92rcd13ifvqcr0","pricing_plan_id":"cebpf4jnsgd1na2vs0mg"},{"bike_id":"adba1b3c-6bab-4b09-9e8e-9992e2e12fa1","system_id":"levelo_inurba_marseille","lat":43.30437,"lon":5.38889,"is_reserved":false,"is_disabled":false,"rental_uris":{"android":"levelo://app?vid=adba1b3c-6bab-4b09-9e8e-9992e2e12fa1","ios":"levelo://app?vid=adba1b3c-6bab-4b09-9e8e-9992e2e12fa1"},"vehicle_type_id":"4","last_reported":1731877647,"current_range_meters":39200,"station_id":"ce4bgk12rcd13ifvqbi0","pricing_plan_id":"cebpf4jnsgd1na2vs0mg"},{"bike_id":"eb9a84f5-6092-4dc4-a3c0-a07efb437c77","system_id":"levelo_inurba_marseille","lat":43.33776,"lon":5.37421,"is_reserved":false,"is_disabled":false,"rental_uris":{"android":"levelo://app?vid=eb9a84f5-6092-4dc4-a3c0-a07efb437c77","ios":"levelo://app?vid=eb9a84f5-6092-4dc4-a3c0-a07efb437c77"},"vehicle_type_id":"4","last_reported":1731877647,"current_range_meters":4000,"station_id":"","pricing_plan_id":"cebpf4jnsgd1na2vs0mg"},{"bike_id":"f602493f-fef0-409f-98c8-a46fcedbfcf3","system_id":"levelo_inurba_marseille","lat":43.32338,"lon":5.40621,"is_reserved":false,"is_disabled":false,"rental_uris":{"android":"levelo://app?vid=f602493f-fef0-409f-98c8-a46fcedbfcf3","ios":"levelo://app?vid=f602493f-fef0-409f-98c8-a46fcedbfcf3"},"vehicle_type_id":"4","last_reported":1731877647,"current_range_meters":32800,"station_id":"ce4bhq92rcd13ifvqhjg","pricing_plan_id":"cebpf4jnsgd1na2vs0mg"},{"bike_id":"4476c238-863e-4579-84d1-8569a100e887","system_id":"levelo_inurba_marseille","lat":43.31259,"lon":5.36912,"is_reserved":false,"is_disabled":false,"rental_uris":{"android":"levelo://app?vid=4476c238-863e-4579-84d1-8569a100e887","ios":"levelo://app?vid=4476c238-863e-4579-84d1-8569a100e887"},"vehicle_type_id":"4","last_reported":1731877647,"current_range_meters":38800,"station_id":"ce4bgl92rcd13ifvqbq0","pricing_plan_id":"cebpf4jnsgd1na2vs0mg"},{"bike_id":"994c35dc-f204-4d83-994b-70d480689a86","system_id":"levelo_inurba_marseille","lat":43.29279,"lon":5.40124,"is_reserved":false,"is_disabled":false,"rental_uris":{"android":"levelo://app?vid=994c35dc-f204-4d83-994b-70d480689a86","ios":"levelo://app?vid=994c35dc-f204-4d83-994b-70d480689a86"},"vehicle_type_id":"4","last_reported":1731877647,"current_range_meters":35200,"station_id":"ce4bh312rcd13ifvqdk0","pricing_plan_id":"cebpf4jnsgd1na2vs0mg"},{"bike_id":"22ea48db-755d-43c3-a7d2-0beff01815d8","system_id":"levelo_inurba_marseille","lat":43.33755,"lon":5.37433,"is_reserved":false,"is_disabled":false,"rental_uris":{"android":"levelo://app?vid=22ea48db-755d-43c3-a7d2-0beff01815d8","ios":"levelo://app?vid=22ea48db-755d-43c3-a7d2-0beff01815d8"},"vehicle_type_id":"4","last_reported":1731877647,"current_range_meters":7200,"station_id":"","pricing_plan_id":"cebpf4jnsgd1na2vs0mg"},{"bike_id":"15fcc8f8-48f4-4ee0-b8d1-4b8952c9848d","system_id":"levelo_inurba_marseille","lat":43.2885,"lon":5.35859,"is_reserved":false,"is_disabled":false,"rental_uris":{"android":"levelo://app?vid=15fcc8f8-48f4-4ee0-b8d1-4b8952c9848d","ios":"levelo://app?vid=15fcc8f8-48f4-4ee0-b8d1-4b8952c9848d"},"vehicle_type_id":"4","last_reported":1731877647,"current_range_meters":24400,"station_id":"ce4bhb12rcd13ifvqem0","pricing_plan_id":"cebpf4jnsgd1na2vs0mg"},{"bike_id":"69389903-cad3-402a-9053-96379c6cff07","system_id":"levelo_inurba_marseille","lat":43.30809,"lon":5.38159,"is_reserved":false,"is_disabled":false,"rental_uris":{"android":"levelo://app?vid=69389903-cad3-402a-9053-96379c6cff07","ios":"levelo://app?vid=69389903-cad3-402a-9053-96379c6cff07"},"vehicle_type_id":"4","last_reported":1731877647,"current_range_meters":18800,"station_id":"ce4bgt12rcd13ifvqce0","pricing_plan_id":"cebpf4jnsgd1na2vs0mg"},{"bike_id":"f1bde73f-d4a0-4638-b576-2d712be40fe5","system_id":"levelo_inurba_marseille","lat":43.30442,"lon":5.38891,"is_reserved":false,"is_disabled":false,"rental_uris":{"android":"levelo://app?vid=f1bde73f-d4a0-4638-b576-2d712be40fe5","ios":"levelo://app?vid=f1bde73f-d4a0-4638-b576-2d712be40fe5"},"vehicle_type_id":"4","last_reported":1731877647,"current_range_meters":38800,"station_id":"ce4bgk12rcd13ifvqbi0","pricing_plan_id":"cebpf4jnsgd1na2vs0mg"},{"bike_id":"afb02f26-d4fb-42e6-ba22-385a408e0fb1","system_id":"levelo_inurba_marseille","lat":43.30647,"lon":5.40066,"is_reserved":false,"is_disabled":false,"rental_uris":{"android":"levelo://app?vid=afb02f26-d4fb-42e6-ba22-385a408e0fb1","ios":"levelo://app?vid=afb02f26-d4fb-42e6-ba22-385a408e0fb1"},"vehicle_type_id":"4","last_reported":1731877647,"current_range_meters":16400,"station_id":"ce4bh112rcd13ifvqda0","pricing_plan_id":"cebpf4jnsgd1na2vs0mg"},{"bike_id":"ca655f3b-8380-4045-b3f8-8acaa0e83ede","system_id":"levelo_inurba_marseille","lat":43.33739,"lon":5.37423,"is_reserved":false,"is_disabled":false,"rental_uris":{"android":"levelo://app?vid=ca655f3b-8380-4045-b3f8-8acaa0e83ede","ios":"levelo://app?vid=ca655f3b-8380-4045-b3f8-8acaa0e83ede"},"vehicle_type_id":"4","last_reported":1731877647,"current_range_meters":31200,"station_id":"","pricing_plan_id":"cebpf4jnsgd1na2vs0mg"},{"bike_id":"5f4a3ad8-dd77-4a7e-89b6-bb792badcc22","system_id":"levelo_inurba_marseille","lat":43.31334,"lon":5.39697,"is_reserved":false,"is_disabled":false,"rental_uris":{"android":"levelo://app?vid=5f4a3ad8-dd77-4a7e-89b6-bb792badcc22","ios":"levelo://app?vid=5f4a3ad8-dd77-4a7e-89b6-bb792badcc22"},"vehicle_type_id":"4","last_reported":1731877647,"current_range_meters":22000,"station_id":"ce4bgvp2rcd13ifvqcu0","pricing_plan_id":"cebpf4jnsgd1na2vs0mg"},{"bike_id":"bfcd3afd-435f-4d8f-9734-2a0e9ce62ac0","system_id":"levelo_inurba_marseille","lat":43.304373,"lon":5.388837,"is_reserved":false,"is_disabled":false,"rental_uris":{"android":"levelo://app?vid=bfcd3afd-435f-4d8f-9734-2a0e9ce62ac0","ios":"levelo://app?vid=bfcd3afd-435f-4d8f-9734-2a0e9ce62ac0"},"vehicle_type_id":"4","last_reported":1731877647,"current_range_meters":36400,"station_id":"ce4bgk12rcd13ifvqbi0","pricing_plan_id":"cebpf4jnsgd1na2vs0mg"},{"bike_id":"a6b8c285-acc9-4039-9531-1aae39136a33","system_id":"levelo_inurba_marseille","lat":43.312042,"lon":5.367348,"is_reserved":false,"is_disabled":false,"rental_uris":{"android":"levelo://app?vid=a6b8c285-acc9-4039-9531-1aae39136a33","ios":"levelo://app?vid=a6b8c285-acc9-4039-9531-1aae39136a33"},"vehicle_type_id":"4","last_reported":1731877647,"current_range_meters":8800,"station_id":"","pricing_plan_id":"cebpf4jnsgd1na2vs0mg"},{"bike_id":"8732dc48-0ead-4fbf-abd3-bc444cb9a620","system_id":"levelo_inurba_marseille","lat":43.32111,"lon":5.3677,"is_reserved":false,"is_disabled":false,"rental_uris":{"android":"levelo://app?vid=8732dc48-0ead-4fbf-abd3-bc444cb9a620","ios":"levelo://app?vid=8732dc48-0ead-4fbf-abd3-bc444cb9a620"},"vehicle_type_id":"4","last_reported":1731877647,"current_range_meters":38800,"station_id":"ce4bhrh2rcd13ifvqhug","pricing_plan_id":"cebpf4jnsgd1na2vs0mg"},{"bike_id":"6c7173dc-f348-4f7f-a701-bb5f0e890cee","system_id":"levelo_inurba_marseille","lat":43.23959,"lon":5.3664,"is_reserved":false,"is_disabled":false,"rental_uris":{"android":"levelo://app?vid=6c7173dc-f348-4f7f-a701-bb5f0e890cee","ios":"levelo://app?vid=6c7173dc-f348-4f7f-a701-bb5f0e890cee"},"vehicle_type_id":"4","last_reported":1731877647,"current_range_meters":17600,"station_id":"ce4bhi12rcd13ifvqfp0","pricing_plan_id":"cebpf4jnsgd1na2vs0mg"},{"bike_id":"4bd27c08-a147-407e-adf1-13a0b0271287","system_id":"levelo_inurba_marseille","lat":43.28442,"lon":5.39197,"is_reserved":false,"is_disabled":false,"rental_uris":{"android":"levelo://app?vid=4bd27c08-a147-407e-adf1-13a0b0271287","ios":"levelo://app?vid=4bd27c08-a147-407e-adf1-13a0b0271287"},"vehicle_type_id":"4","last_reported":1731877647,"current_range_meters":38800,"station_id":"ce4bhoh2rcd13ifvqh5g","pricing_plan_id":"cebpf4jnsgd1na2vs0mg"},{"bike_id":"3e8f8de7-3ee6-4a31-b72b-08490f801121","system_id":"levelo_inurba_marseille","lat":43.27815,"lon":5.40715,"is_reserved":false,"is_disabled":false,"rental_uris":{"android":"levelo://app?vid=3e8f8de7-3ee6-4a31-b72b-08490f801121","ios":"levelo://app?vid=3e8f8de7-3ee6-4a31-b72b-08490f801121"},"vehicle_type_id":"4","last_reported":1731877647,"current_range_meters":38400,"station_id":"ce4bhnh2rcd13ifvqgtg","pricing_plan_id":"cebpf4jnsgd1na2vs0mg"},{"bike_id":"9af3cdec-4f63-4439-b320-1cf5e6351989","system_id":"levelo_inurba_marseille","lat":43.26303,"lon":5.37394,"is_reserved":false,"is_disabled":false,"rental_uris":{"android":"levelo://app?vid=9af3cdec-4f63-4439-b320-1cf5e6351989","ios":"levelo://app?vid=9af3cdec-4f63-4439-b320-1cf5e6351989"},"vehicle_type_id":"4","last_reported":1731877647,"current_range_meters":28800,"station_id":"","pricing_plan_id":"cebpf4jnsgd1na2vs0mg"},{"bike_id":"8c19b2d4-a3cd-45ab-a3d3-1f5f9c12afc6","system_id":"levelo_inurba_marseille","lat":43.30337,"lon":5.38603,"is_reserved":false,"is_disabled":false,"rental_uris":{"android":"levelo://app?vid=8c19b2d4-a3cd-45ab-a3d3-1f5f9c12afc6","ios":"levelo://app?vid=8c19b2d4-a3cd-45ab-a3d3-1f5f9c12afc6"},"vehicle_type_id":"4","last_reported":1731877647,"current_range_meters":36800,"station_id":"","pricing_plan_id":"cebpf4jnsgd1na2vs0mg"},{"bike_id":"de7343c2-973c-4525-a649-403a680a16c5","system_id":"levelo_inurba_marseille","lat":43.30098,"lon":5.39084,"is_reserved":false,"is_disabled":false,"rental_uris":{"android":"levelo://app?vid=de7343c2-973c-4525-a649-403a680a16c5","ios":"levelo://app?vid=de7343c2-973c-4525-a649-403a680a16c5"},"vehicle_type_id":"4","last_reported":1731877647,"current_range_meters":19200,"station_id":"ce4bh192rcd13ifvqdb0","pricing_plan_id":"cebpf4jnsgd1na2vs0mg"},{"bike_id":"05ccbef7-43cf-4daa-af4c-483d919c0c14","system_id":"levelo_inurba_marseille","lat":43.24172,"lon":5.36399,"is_reserved":false,"is_disabled":false,"rental_uris":{"android":"levelo://app?vid=05ccbef7-43cf-4daa-af4c-483d919c0c14","ios":"levelo://app?vid=05ccbef7-43cf-4daa-af4c-483d919c0c14"},"vehicle_type_id":"4","last_reported":1731877647,"current_range_meters":35200,"station_id":"cpo36qri1sfpv3e86is0","pricing_plan_id":"cebpf4jnsgd1na2vs0mg"},{"bike_id":"8a81a93a-5c4e-41e4-83b8-6e66fa684195","system_id":"levelo_inurba_marseille","lat":43.289195,"lon":5.366502,"is_reserved":false,"is_disabled":false,"rental_uris":{"android":"levelo://app?vid=8a81a93a-5c4e-41e4-83b8-6e66fa684195","ios":"levelo://app?vid=8a81a93a-5c4e-41e4-83b8-6e66fa684195"},"vehicle_type_id":"4","last_reported":1731877647,"current_range_meters":35200,"station_id":"ce4bhap2rcd13ifvqek0","pricing_plan_id":"cebpf4jnsgd1na2vs0mg"},{"bike_id":"493b2083-a7a4-46d2-bc93-1724c5bd01cb","system_id":"levelo_inurba_marseille","lat":43.30639,"lon":5.40082,"is_reserved":false,"is_disabled":false,"rental_uris":{"android":"levelo://app?vid=493b2083-a7a4-46d2-bc93-1724c5bd01cb","ios":"levelo://app?vid=493b2083-a7a4-46d2-bc93-1724c5bd01cb"},"vehicle_type_id":"4","last_reported":1731877647,"current_range_meters":21600,"station_id":"ce4bh112rcd13ifvqda0","pricing_plan_id":"cebpf4jnsgd1na2vs0mg"},{"bike_id":"92ac4858-87d6-4ceb-8f6e-004635a816a8","system_id":"levelo_inurba_marseille","lat":43.27787,"lon":5.40739,"is_reserved":false,"is_disabled":false,"rental_uris":{"android":"levelo://app?vid=92ac4858-87d6-4ceb-8f6e-004635a816a8","ios":"levelo://app?vid=92ac4858-87d6-4ceb-8f6e-004635a816a8"},"vehicle_type_id":"4","last_reported":1731877647,"current_range_meters":25600,"station_id":"ce4bhnh2rcd13ifvqgtg","pricing_plan_id":"cebpf4jnsgd1na2vs0mg"},{"bike_id":"2b0ff95a-3fbc-4264-9c8f-0a3734e035cc","system_id":"levelo_inurba_marseille","lat":43.317548,"lon":5.390181,"is_reserved":false,"is_disabled":false,"rental_uris":{"android":"levelo://app?vid=2b0ff95a-3fbc-4264-9c8f-0a3734e035cc","ios":"levelo://app?vid=2b0ff95a-3fbc-4264-9c8f-0a3734e035cc"},"vehicle_type_id":"4","last_reported":1731877647,"current_range_meters":39200,"station_id":"ce4bhqp2rcd13ifvqhng","pricing_plan_id":"cebpf4jnsgd1na2vs0mg"},{"bike_id":"25a9be2d-adf9-4893-a334-7b3ca0d1fec3","system_id":"levelo_inurba_marseille","lat":43.30646,"lon":5.40073,"is_reserved":false,"is_disabled":false,"rental_uris":{"android":"levelo://app?vid=25a9be2d-adf9-4893-a334-7b3ca0d1fec3","ios":"levelo://app?vid=25a9be2d-adf9-4893-a334-7b3ca0d1fec3"},"vehicle_type_id":"4","last_reported":1731877647,"current_range_meters":38000,"station_id":"ce4bh112rcd13ifvqda0","pricing_plan_id":"cebpf4jnsgd1na2vs0mg"},{"bike_id":"d7ea65f4-c363-4361-bca9-7b8470b6547a","system_id":"levelo_inurba_marseille","lat":43.24648,"lon":5.38892,"is_reserved":false,"is_disabled":false,"rental_uris":{"android":"levelo://app?vid=d7ea65f4-c363-4361-bca9-7b8470b6547a","ios":"levelo://app?vid=d7ea65f4-c363-4361-bca9-7b8470b6547a"},"vehicle_type_id":"4","last_reported":1731877647,"current_range_meters":34800,"station_id":"ce4bhg12rcd13ifvqf60","pricing_plan_id":"cebpf4jnsgd1na2vs0mg"},{"bike_id":"143df917-e46c-4ede-ace7-3394b01236b7","system_id":"levelo_inurba_marseille","lat":43.3127,"lon":5.40162,"is_reserved":false,"is_disabled":false,"rental_uris":{"android":"levelo://app?vid=143df917-e46c-4ede-ace7-3394b01236b7","ios":"levelo://app?vid=143df917-e46c-4ede-ace7-3394b01236b7"},"vehicle_type_id":"4","last_reported":1731877647,"current_range_meters":13600,"station_id":"ce4bh092rcd13ifvqd30","pricing_plan_id":"cebpf4jnsgd1na2vs0mg"},{"bike_id":"4d95d7d5-cf64-4669-a821-05f5597e1d87","system_id":"levelo_inurba_marseille","lat":43.27576,"lon":5.38421,"is_reserved":false,"is_disabled":false,"rental_uris":{"android":"levelo://app?vid=4d95d7d5-cf64-4669-a821-05f5597e1d87","ios":"levelo://app?vid=4d95d7d5-cf64-4669-a821-05f5597e1d87"},"vehicle_type_id":"4","last_reported":1731877647,"current_range_meters":24800,"station_id":"ce4bhh92rcd13ifvqfi0","pricing_plan_id":"cebpf4jnsgd1na2vs0mg"},{"bike_id":"31dddf60-0702-4f9f-8219-0ef701219338","system_id":"levelo_inurba_marseille","lat":43.31269,"lon":5.40172,"is_reserved":false,"is_disabled":false,"rental_uris":{"android":"levelo://app?vid=31dddf60-0702-4f9f-8219-0ef701219338","ios":"levelo://app?vid=31dddf60-0702-4f9f-8219-0ef701219338"},"vehicle_type_id":"4","last_reported":1731877647,"current_range_meters":10800,"station_id":"ce4bh092rcd13ifvqd30","pricing_plan_id":"cebpf4jnsgd1na2vs0mg"},{"bike_id":"5fedca86-e29c-4bf6-9bb0-d4f0123cca24","system_id":"levelo_inurba_marseille","lat":43.28592,"lon":5.37071,"is_reserved":false,"is_disabled":false,"rental_uris":{"android":"levelo://app?vid=5fedca86-e29c-4bf6-9bb0-d4f0123cca24","ios":"levelo://app?vid=5fedca86-e29c-4bf6-9bb0-d4f0123cca24"},"vehicle_type_id":"4","last_reported":1731877647,"current_range_meters":17600,"station_id":"ce4bha12rcd13ifvqee0","pricing_plan_id":"cebpf4jnsgd1na2vs0mg"},{"bike_id":"7465bc4b-7341-47ef-959d-45c0a1d37e4c","system_id":"levelo_inurba_marseille","lat":43.24082,"lon":5.3774,"is_reserved":false,"is_disabled":false,"rental_uris":{"android":"levelo://app?vid=7465bc4b-7341-47ef-959d-45c0a1d37e4c","ios":"levelo://app?vid=7465bc4b-7341-47ef-959d-45c0a1d37e4c"},"vehicle_type_id":"4","last_reported":1731877647,"current_range_meters":27600,"station_id":"ce4bhnp2rcd13ifvqgvg","pricing_plan_id":"cebpf4jnsgd1na2vs0mg"},{"bike_id":"ed47ee70-605c-4ebe-b492-11cf3d5ceed1","system_id":"levelo_inurba_marseille","lat":43.31714,"lon":5.43703,"is_reserved":false,"is_disabled":false,"rental_uris":{"android":"levelo://app?vid=ed47ee70-605c-4ebe-b492-11cf3d5ceed1","ios":"levelo://app?vid=ed47ee70-605c-4ebe-b492-11cf3d5ceed1"},"vehicle_type_id":"4","last_reported":1731877647,"current_range_meters":23200,"station_id":"ce4bhp92rcd13ifvqhcg","pricing_plan_id":"cebpf4jnsgd1na2vs0mg"},{"bike_id":"a84f5389-258d-4508-9c0f-32ee5d326b43","system_id":"levelo_inurba_marseille","lat":43.33767,"lon":5.37475,"is_reserved":false,"is_disabled":false,"rental_uris":{"android":"levelo://app?vid=a84f5389-258d-4508-9c0f-32ee5d326b43","ios":"levelo://app?vid=a84f5389-258d-4508-9c0f-32ee5d326b43"},"vehicle_type_id":"4","last_reported":1731877647,"current_range_meters":28000,"station_id":"","pricing_plan_id":"cebpf4jnsgd1na2vs0mg"},{"bike_id":"d7581bdc-1067-4621-8fe2-daf34c28df75","system_id":"levelo_inurba_marseille","lat":43.24544,"lon":5.39529,"is_reserved":false,"is_disabled":false,"rental_uris":{"android":"levelo://app?vid=d7581bdc-1067-4621-8fe2-daf34c28df75","ios":"levelo://app?vid=d7581bdc-1067-4621-8fe2-daf34c28df75"},"vehicle_type_id":"4","last_reported":1731877647,"current_range_meters":28000,"station_id":"ce4bhlp2rcd13ifvqgjg","pricing_plan_id":"cebpf4jnsgd1na2vs0mg"},{"bike_id":"04158c1a-fd46-49c3-a56e-df452be93304","system_id":"levelo_inurba_marseille","lat":43.29524,"lon":5.39397,"is_reserved":false,"is_disabled":false,"rental_uris":{"android":"levelo://app?vid=04158c1a-fd46-49c3-a56e-df452be93304","ios":"levelo://app?vid=04158c1a-fd46-49c3-a56e-df452be93304"},"vehicle_type_id":"4","last_reported":1731877647,"current_range_meters":35200,"station_id":"ce4bh292rcd13ifvqdf0","pricing_plan_id":"cebpf4jnsgd1na2vs0mg"},{"bike_id":"8f426890-14c3-4f84-af0e-ede85f28b7aa","system_id":"levelo_inurba_marseille","lat":43.23149,"lon":5.43726,"is_reserved":false,"is_disabled":false,"rental_uris":{"android":"levelo://app?vid=8f426890-14c3-4f84-af0e-ede85f28b7aa","ios":"levelo://app?vid=8f426890-14c3-4f84-af0e-ede85f28b7aa"},"vehicle_type_id":"4","last_reported":1731877647,"current_range_meters":22400,"station_id":"ce4bhmp2rcd13ifvqgog","pricing_plan_id":"cebpf4jnsgd1na2vs0mg"},{"bike_id":"6f6400ab-6f89-4384-9ff4-62d49a8fb391","system_id":"levelo_inurba_marseille","lat":43.28705,"lon":5.39988,"is_reserved":false,"is_disabled":false,"rental_uris":{"android":"levelo://app?vid=6f6400ab-6f89-4384-9ff4-62d49a8fb391","ios":"levelo://app?vid=6f6400ab-6f89-4384-9ff4-62d49a8fb391"},"vehicle_type_id":"4","last_reported":1731877647,"current_range_meters":23200,"station_id":"ce4bho92rcd13ifvqh3g","pricing_plan_id":"cebpf4jnsgd1na2vs0mg"},{"bike_id":"719862df-eb31-4da6-8f57-20e84f6c29b5","system_id":"levelo_inurba_marseille","lat":43.32368,"lon":5.38885,"is_reserved":false,"is_disabled":false,"rental_uris":{"android":"levelo://app?vid=719862df-eb31-4da6-8f57-20e84f6c29b5","ios":"levelo://app?vid=719862df-eb31-4da6-8f57-20e84f6c29b5"},"vehicle_type_id":"4","last_reported":1731877647,"current_range_meters":8800,"station_id":"ce4bhqp2rcd13ifvqhog","pricing_plan_id":"cebpf4jnsgd1na2vs0mg"},{"bike_id":"ba4cfa6b-d262-4c5f-ad80-f1c569b77562","system_id":"levelo_inurba_marseille","lat":43.25719,"lon":5.41116,"is_reserved":false,"is_disabled":false,"rental_uris":{"android":"levelo://app?vid=ba4cfa6b-d262-4c5f-ad80-f1c569b77562","ios":"levelo://app?vid=ba4cfa6b-d262-4c5f-ad80-f1c569b77562"},"vehicle_type_id":"4","last_reported":1731877647,"current_range_meters":38800,"station_id":"ce4bhkp2rcd13ifvqgd0","pricing_plan_id":"cebpf4jnsgd1na2vs0mg"},{"bike_id":"7fa8621d-8d64-4c75-9c6a-58b9f11bfc18","system_id":"levelo_inurba_marseille","lat":43.27807,"lon":5.40707,"is_reserved":false,"is_disabled":false,"rental_uris":{"android":"levelo://app?vid=7fa8621d-8d64-4c75-9c6a-58b9f11bfc18","ios":"levelo://app?vid=7fa8621d-8d64-4c75-9c6a-58b9f11bfc18"},"vehicle_type_id":"4","last_reported":1731877647,"current_range_meters":26800,"station_id":"ce4bhnh2rcd13ifvqgtg","pricing_plan_id":"cebpf4jnsgd1na2vs0mg"},{"bike_id":"95b7222f-eb18-4b6a-8fe7-103e91bfc300","system_id":"levelo_inurba_marseille","lat":43.32657,"lon":5.40997,"is_reserved":false,"is_disabled":false,"rental_uris":{"android":"levelo://app?vid=95b7222f-eb18-4b6a-8fe7-103e91bfc300","ios":"levelo://app?vid=95b7222f-eb18-4b6a-8fe7-103e91bfc300"},"vehicle_type_id":"4","last_reported":1731877647,"current_range_meters":29600,"station_id":"ce4bhpp2rcd13ifvqhgg","pricing_plan_id":"cebpf4jnsgd1na2vs0mg"},{"bike_id":"2278ff27-67f2-4840-a242-2d6ee755536b","system_id":"levelo_inurba_marseille","lat":43.32476,"lon":5.36579,"is_reserved":false,"is_disabled":false,"rental_uris":{"android":"levelo://app?vid=2278ff27-67f2-4840-a242-2d6ee755536b","ios":"levelo://app?vid=2278ff27-67f2-4840-a242-2d6ee755536b"},"vehicle_type_id":"4","last_reported":1731877647,"current_range_meters":17200,"station_id":"ce4bhs12rcd13ifvqhvg","pricing_plan_id":"cebpf4jnsgd1na2vs0mg"},{"bike_id":"70bce780-771f-4c17-812f-060c6d1434d0","system_id":"levelo_inurba_marseille","lat":43.32653,"lon":5.40986,"is_reserved":false,"is_disabled":false,"rental_uris":{"android":"levelo://app?vid=70bce780-771f-4c17-812f-060c6d1434d0","ios":"levelo://app?vid=70bce780-771f-4c17-812f-060c6d1434d0"},"vehicle_type_id":"4","last_reported":1731877647,"current_range_meters":38800,"station_id":"ce4bhpp2rcd13ifvqhgg","pricing_plan_id":"cebpf4jnsgd1na2vs0mg"},{"bike_id":"7c0a99b0-2291-4a5e-b431-d5d68272736a","system_id":"levelo_inurba_marseille","lat":43.24069,"lon":5.37758,"is_reserved":false,"is_disabled":false,"rental_uris":{"android":"levelo://app?vid=7c0a99b0-2291-4a5e-b431-d5d68272736a","ios":"levelo://app?vid=7c0a99b0-2291-4a5e-b431-d5d68272736a"},"vehicle_type_id":"4","last_reported":1731877647,"current_range_meters":19200,"station_id":"ce4bhnp2rcd13ifvqgvg","pricing_plan_id":"cebpf4jnsgd1na2vs0mg"},{"bike_id":"2d0c69ee-5bbd-4523-995a-0e315f06df51","system_id":"levelo_inurba_marseille","lat":43.30882,"lon":5.39637,"is_reserved":false,"is_disabled":false,"rental_uris":{"android":"levelo://app?vid=2d0c69ee-5bbd-4523-995a-0e315f06df51","ios":"levelo://app?vid=2d0c69ee-5bbd-4523-995a-0e315f06df51"},"vehicle_type_id":"4","last_reported":1731877647,"current_range_meters":39200,"station_id":"ce4bh012rcd13ifvqcv0","pricing_plan_id":"cebpf4jnsgd1na2vs0mg"},{"bike_id":"498a83d1-df7d-4476-a188-5723275135d1","system_id":"levelo_inurba_marseille","lat":43.23186,"lon":5.39977,"is_reserved":false,"is_disabled":false,"rental_uris":{"android":"levelo://app?vid=498a83d1-df7d-4476-a188-5723275135d1","ios":"levelo://app?vid=498a83d1-df7d-4476-a188-5723275135d1"},"vehicle_type_id":"4","last_reported":1731877647,"current_range_meters":38800,"station_id":"ce4bhn12rcd13ifvqgqg","pricing_plan_id":"cebpf4jnsgd1na2vs0mg"},{"bike_id":"fdf215e7-1bcb-42ff-a0ad-7cf067638477","system_id":"levelo_inurba_marseille","lat":43.3128,"lon":5.40153,"is_reserved":false,"is_disabled":false,"rental_uris":{"android":"levelo://app?vid=fdf215e7-1bcb-42ff-a0ad-7cf067638477","ios":"levelo://app?vid=fdf215e7-1bcb-42ff-a0ad-7cf067638477"},"vehicle_type_id":"4","last_reported":1731877647,"current_range_meters":5600,"station_id":"ce4bh092rcd13ifvqd30","pricing_plan_id":"cebpf4jnsgd1na2vs0mg"},{"bike_id":"522e9503-b872-48f2-8fb5-d8348a9df819","system_id":"levelo_inurba_marseille","lat":43.31689,"lon":5.40467,"is_reserved":false,"is_disabled":false,"rental_uris":{"android":"levelo://app?vid=522e9503-b872-48f2-8fb5-d8348a9df819","ios":"levelo://app?vid=522e9503-b872-48f2-8fb5-d8348a9df819"},"vehicle_type_id":"4","last_reported":1731877647,"current_range_meters":27600,"station_id":"ce4bh012rcd13ifvqd00","pricing_plan_id":"cebpf4jnsgd1na2vs0mg"},{"bike_id":"4613b1e7-5d1e-4f96-a8f8-a72d771306c2","system_id":"levelo_inurba_marseille","lat":43.28717,"lon":5.37942,"is_reserved":false,"is_disabled":false,"rental_uris":{"android":"levelo://app?vid=4613b1e7-5d1e-4f96-a8f8-a72d771306c2","ios":"levelo://app?vid=4613b1e7-5d1e-4f96-a8f8-a72d771306c2"},"vehicle_type_id":"4","last_reported":1731877647,"current_range_meters":27200,"station_id":"ce4bh9p2rcd13ifvqec0","pricing_plan_id":"cebpf4jnsgd1na2vs0mg"},{"bike_id":"ba50291b-d645-48f9-8257-e05ca76851b0","system_id":"levelo_inurba_marseille","lat":43.27177,"lon":5.40994,"is_reserved":false,"is_disabled":false,"rental_uris":{"android":"levelo://app?vid=ba50291b-d645-48f9-8257-e05ca76851b0","ios":"levelo://app?vid=ba50291b-d645-48f9-8257-e05ca76851b0"},"vehicle_type_id":"4","last_reported":1731877647,"current_range_meters":30800,"station_id":"ce4bhl12rcd13ifvqgf0","pricing_plan_id":"cebpf4jnsgd1na2vs0mg"},{"bike_id":"57eff8be-4cd3-4378-9c07-d24b3136b3a2","system_id":"levelo_inurba_marseille","lat":43.30453,"lon":5.38888,"is_reserved":false,"is_disabled":false,"rental_uris":{"android":"levelo://app?vid=57eff8be-4cd3-4378-9c07-d24b3136b3a2","ios":"levelo://app?vid=57eff8be-4cd3-4378-9c07-d24b3136b3a2"},"vehicle_type_id":"4","last_reported":1731877647,"current_range_meters":38000,"station_id":"ce4bgk12rcd13ifvqbi0","pricing_plan_id":"cebpf4jnsgd1na2vs0mg"},{"bike_id":"75c940bb-8f3b-4138-8bf1-e4d9d9772f24","system_id":"levelo_inurba_marseille","lat":43.31374,"lon":5.38491,"is_reserved":false,"is_disabled":false,"rental_uris":{"android":"levelo://app?vid=75c940bb-8f3b-4138-8bf1-e4d9d9772f24","ios":"levelo://app?vid=75c940bb-8f3b-4138-8bf1-e4d9d9772f24"},"vehicle_type_id":"4","last_reported":1731877647,"current_range_meters":19600,"station_id":"ce4bgt92rcd13ifvqcf0","pricing_plan_id":"cebpf4jnsgd1na2vs0mg"},{"bike_id":"eefbbc11-0cd0-4b14-84cb-111fddd0715f","system_id":"levelo_inurba_marseille","lat":43.30437,"lon":5.38892,"is_reserved":false,"is_disabled":false,"rental_uris":{"android":"levelo://app?vid=eefbbc11-0cd0-4b14-84cb-111fddd0715f","ios":"levelo://app?vid=eefbbc11-0cd0-4b14-84cb-111fddd0715f"},"vehicle_type_id":"4","last_reported":1731877647,"current_range_meters":39200,"station_id":"ce4bgk12rcd13ifvqbi0","pricing_plan_id":"cebpf4jnsgd1na2vs0mg"},{"bike_id":"c5462199-7932-4eef-a617-53d36b699976","system_id":"levelo_inurba_marseille","lat":43.29523,"lon":5.39401,"is_reserved":false,"is_disabled":false,"rental_uris":{"android":"levelo://app?vid=c5462199-7932-4eef-a617-53d36b699976","ios":"levelo://app?vid=c5462199-7932-4eef-a617-53d36b699976"},"vehicle_type_id":"4","last_reported":1731877647,"current_range_meters":26800,"station_id":"ce4bh292rcd13ifvqdf0","pricing_plan_id":"cebpf4jnsgd1na2vs0mg"},{"bike_id":"f772544f-7ef4-4aa3-a920-7c3eddfd2b9c","system_id":"levelo_inurba_marseille","lat":43.26564,"lon":5.39009,"is_reserved":false,"is_disabled":false,"rental_uris":{"android":"levelo://app?vid=f772544f-7ef4-4aa3-a920-7c3eddfd2b9c","ios":"levelo://app?vid=f772544f-7ef4-4aa3-a920-7c3eddfd2b9c"},"vehicle_type_id":"4","last_reported":1731877647,"current_range_meters":12800,"station_id":"ce4bhe12rcd13ifvqf30","pricing_plan_id":"cebpf4jnsgd1na2vs0mg"},{"bike_id":"cb748eee-36fc-425b-bffb-e7ab2e92cba5","system_id":"levelo_inurba_marseille","lat":43.23184,"lon":5.39983,"is_reserved":false,"is_disabled":false,"rental_uris":{"android":"levelo://app?vid=cb748eee-36fc-425b-bffb-e7ab2e92cba5","ios":"levelo://app?vid=cb748eee-36fc-425b-bffb-e7ab2e92cba5"},"vehicle_type_id":"4","last_reported":1731877647,"current_range_meters":38800,"station_id":"ce4bhn12rcd13ifvqgqg","pricing_plan_id":"cebpf4jnsgd1na2vs0mg"},{"bike_id":"1748eac3-1fee-433d-a029-f79b143aa628","system_id":"levelo_inurba_marseille","lat":43.28968,"lon":5.39842,"is_reserved":false,"is_disabled":false,"rental_uris":{"android":"levelo://app?vid=1748eac3-1fee-433d-a029-f79b143aa628","ios":"levelo://app?vid=1748eac3-1fee-433d-a029-f79b143aa628"},"vehicle_type_id":"4","last_reported":1731877647,"current_range_meters":25600,"station_id":"ce4bh2p2rcd13ifvqdi0","pricing_plan_id":"cebpf4jnsgd1na2vs0mg"},{"bike_id":"6fe8590f-e391-4325-bdde-177e28f31a3e","system_id":"levelo_inurba_marseille","lat":43.3373,"lon":5.39188,"is_reserved":false,"is_disabled":false,"rental_uris":{"android":"levelo://app?vid=6fe8590f-e391-4325-bdde-177e28f31a3e","ios":"levelo://app?vid=6fe8590f-e391-4325-bdde-177e28f31a3e"},"vehicle_type_id":"4","last_reported":1731877647,"current_range_meters":38400,"station_id":"ce4bhr92rcd13ifvqhsg","pricing_plan_id":"cebpf4jnsgd1na2vs0mg"},{"bike_id":"66d4648c-c850-4362-8563-955b8bddab04","system_id":"levelo_inurba_marseille","lat":43.29577,"lon":5.36739,"is_reserved":false,"is_disabled":false,"rental_uris":{"android":"levelo://app?vid=66d4648c-c850-4362-8563-955b8bddab04","ios":"levelo://app?vid=66d4648c-c850-4362-8563-955b8bddab04"},"vehicle_type_id":"4","last_reported":1731877647,"current_range_meters":20400,"station_id":"ce4bgph2rcd13ifvqc2g","pricing_plan_id":"cebpf4jnsgd1na2vs0mg"},{"bike_id":"022f478e-da93-4eda-9d1b-2d0e36905c07","system_id":"levelo_inurba_marseille","lat":43.33763,"lon":5.37433,"is_reserved":false,"is_disabled":false,"rental_uris":{"android":"levelo://app?vid=022f478e-da93-4eda-9d1b-2d0e36905c07","ios":"levelo://app?vid=022f478e-da93-4eda-9d1b-2d0e36905c07"},"vehicle_type_id":"4","last_reported":1731877647,"current_range_meters":9200,"station_id":"","pricing_plan_id":"cebpf4jnsgd1na2vs0mg"},{"bike_id":"a8fcf094-5fe5-49b4-9267-632c49b4795f","system_id":"levelo_inurba_marseille","lat":43.24073,"lon":5.37759,"is_reserved":false,"is_disabled":false,"rental_uris":{"android":"levelo://app?vid=a8fcf094-5fe5-49b4-9267-632c49b4795f","ios":"levelo://app?vid=a8fcf094-5fe5-49b4-9267-632c49b4795f"},"vehicle_type_id":"4","last_reported":1731877647,"current_range_meters":22000,"station_id":"ce4bhnp2rcd13ifvqgvg","pricing_plan_id":"cebpf4jnsgd1na2vs0mg"},{"bike_id":"3c7108fb-85fe-43b6-95ce-e6a5e6d34b1a","system_id":"levelo_inurba_marseille","lat":43.33736,"lon":5.39162,"is_reserved":false,"is_disabled":false,"rental_uris":{"android":"levelo://app?vid=3c7108fb-85fe-43b6-95ce-e6a5e6d34b1a","ios":"levelo://app?vid=3c7108fb-85fe-43b6-95ce-e6a5e6d34b1a"},"vehicle_type_id":"4","last_reported":1731877647,"current_range_meters":27200,"station_id":"ce4bhr92rcd13ifvqhsg","pricing_plan_id":"cebpf4jnsgd1na2vs0mg"},{"bike_id":"a7f328e4-eb55-46d6-ae8b-6342b33c0ed5","system_id":"levelo_inurba_marseille","lat":43.29783,"lon":5.37102,"is_reserved":false,"is_disabled":false,"rental_uris":{"android":"levelo://app?vid=a7f328e4-eb55-46d6-ae8b-6342b33c0ed5","ios":"levelo://app?vid=a7f328e4-eb55-46d6-ae8b-6342b33c0ed5"},"vehicle_type_id":"4","last_reported":1731877647,"current_range_meters":16400,"station_id":"ce4bgop2rcd13ifvqc1g","pricing_plan_id":"cebpf4jnsgd1na2vs0mg"},{"bike_id":"78a4f916-4352-4494-9a72-b344d4c2650c","system_id":"levelo_inurba_marseille","lat":43.306427,"lon":5.400995,"is_reserved":false,"is_disabled":false,"rental_uris":{"android":"levelo://app?vid=78a4f916-4352-4494-9a72-b344d4c2650c","ios":"levelo://app?vid=78a4f916-4352-4494-9a72-b344d4c2650c"},"vehicle_type_id":"4","last_reported":1731877647,"current_range_meters":19600,"station_id":"ce4bh112rcd13ifvqda0","pricing_plan_id":"cebpf4jnsgd1na2vs0mg"},{"bike_id":"28a8a7b1-cb13-4ba5-b3f1-ca5771d31618","system_id":"levelo_inurba_marseille","lat":43.33608,"lon":5.4104,"is_reserved":false,"is_disabled":false,"rental_uris":{"android":"levelo://app?vid=28a8a7b1-cb13-4ba5-b3f1-ca5771d31618","ios":"levelo://app?vid=28a8a7b1-cb13-4ba5-b3f1-ca5771d31618"},"vehicle_type_id":"4","last_reported":1731877647,"current_range_meters":33600,"station_id":"ce4bhqh2rcd13ifvqhmg","pricing_plan_id":"cebpf4jnsgd1na2vs0mg"},{"bike_id":"4dc5054b-2700-49b0-8f46-0bfccd9b33e5","system_id":"levelo_inurba_marseille","lat":43.30495,"lon":5.38097,"is_reserved":false,"is_disabled":false,"rental_uris":{"android":"levelo://app?vid=4dc5054b-2700-49b0-8f46-0bfccd9b33e5","ios":"levelo://app?vid=4dc5054b-2700-49b0-8f46-0bfccd9b33e5"},"vehicle_type_id":"4","last_reported":1731877647,"current_range_meters":30800,"station_id":"","pricing_plan_id":"cebpf4jnsgd1na2vs0mg"},{"bike_id":"a6a9c2e2-aa61-41aa-8338-d750ed7fab85","system_id":"levelo_inurba_marseille","lat":43.23159,"lon":5.43708,"is_reserved":false,"is_disabled":false,"rental_uris":{"android":"levelo://app?vid=a6a9c2e2-aa61-41aa-8338-d750ed7fab85","ios":"levelo://app?vid=a6a9c2e2-aa61-41aa-8338-d750ed7fab85"},"vehicle_type_id":"4","last_reported":1731877647,"current_range_meters":38000,"station_id":"ce4bhmp2rcd13ifvqgog","pricing_plan_id":"cebpf4jnsgd1na2vs0mg"},{"bike_id":"43155b5a-94b8-41f8-b3fe-ed8339ffbcce","system_id":"levelo_inurba_marseille","lat":43.27491,"lon":5.42455,"is_reserved":false,"is_disabled":false,"rental_uris":{"android":"levelo://app?vid=43155b5a-94b8-41f8-b3fe-ed8339ffbcce","ios":"levelo://app?vid=43155b5a-94b8-41f8-b3fe-ed8339ffbcce"},"vehicle_type_id":"4","last_reported":1731877647,"current_range_meters":38800,"station_id":"ce4bhn92rcd13ifvqgrg","pricing_plan_id":"cebpf4jnsgd1na2vs0mg"},{"bike_id":"d4b5c8f0-f9a4-441a-9379-05efdc54de22","system_id":"levelo_inurba_marseille","lat":43.31331,"lon":5.39686,"is_reserved":false,"is_disabled":false,"rental_uris":{"android":"levelo://app?vid=d4b5c8f0-f9a4-441a-9379-05efdc54de22","ios":"levelo://app?vid=d4b5c8f0-f9a4-441a-9379-05efdc54de22"},"vehicle_type_id":"4","last_reported":1731877647,"current_range_meters":23200,"station_id":"ce4bgvp2rcd13ifvqcu0","pricing_plan_id":"cebpf4jnsgd1na2vs0mg"},{"bike_id":"929053e8-dc63-436c-8adf-41008625a734","system_id":"levelo_inurba_marseille","lat":43.30801,"lon":5.43528,"is_reserved":false,"is_disabled":false,"rental_uris":{"android":"levelo://app?vid=929053e8-dc63-436c-8adf-41008625a734","ios":"levelo://app?vid=929053e8-dc63-436c-8adf-41008625a734"},"vehicle_type_id":"4","last_reported":1731877647,"current_range_meters":27200,"station_id":"ce4bhph2rcd13ifvqheg","pricing_plan_id":"cebpf4jnsgd1na2vs0mg"},{"bike_id":"b44f7862-465d-4fc1-a233-80f90ec40d2b","system_id":"levelo_inurba_marseille","lat":43.30103,"lon":5.39085,"is_reserved":false,"is_disabled":false,"rental_uris":{"android":"levelo://app?vid=b44f7862-465d-4fc1-a233-80f90ec40d2b","ios":"levelo://app?vid=b44f7862-465d-4fc1-a233-80f90ec40d2b"},"vehicle_type_id":"4","last_reported":1731877647,"current_range_meters":38800,"station_id":"ce4bh192rcd13ifvqdb0","pricing_plan_id":"cebpf4jnsgd1na2vs0mg"},{"bike_id":"fc502a90-4e4d-4ada-a931-a16ddada1d14","system_id":"levelo_inurba_marseille","lat":43.24649,"lon":5.38897,"is_reserved":false,"is_disabled":false,"rental_uris":{"android":"levelo://app?vid=fc502a90-4e4d-4ada-a931-a16ddada1d14","ios":"levelo://app?vid=fc502a90-4e4d-4ada-a931-a16ddada1d14"},"vehicle_type_id":"4","last_reported":1731877647,"current_range_meters":6800,"station_id":"ce4bhg12rcd13ifvqf60","pricing_plan_id":"cebpf4jnsgd1na2vs0mg"},{"bike_id":"2671a138-6a99-4e6e-882d-6692ba14e754","system_id":"levelo_inurba_marseille","lat":43.29968,"lon":5.38496,"is_reserved":false,"is_disabled":false,"rental_uris":{"android":"levelo://app?vid=2671a138-6a99-4e6e-882d-6692ba14e754","ios":"levelo://app?vid=2671a138-6a99-4e6e-882d-6692ba14e754"},"vehicle_type_id":"4","last_reported":1731877647,"current_range_meters":6000,"station_id":"ce4bgj92rcd13ifvqbd0","pricing_plan_id":"cebpf4jnsgd1na2vs0mg"},