{"last_updated":1685358343,"ttl":30,"version":"2.2","data":{"bikes":[{"bike_id":"402ccca3-6035-40e5-adb3-51301963a9d6","system_id":"levelo_inurba_marseille","lat":43.31348,"lon":5.36698,"is_reserved":false,"is_disabled":false,"rental_uris":{"android":"levelo://app?vid=402ccca3-6035-40e5-adb3-51301963a9d6","ios":"levelo://app?vid=402ccca3-6035-40e5-adb3-51301963a9d6"},"vehicle_type_id":"4","last_reported":1685358343,"current_range_meters":30000,"station_id":"ce4bgr92rcd13ifvqc6g","pricing_plan_id":"free"},{"bike_id":"8c2c6a1f-bfcd-48a0-be6c-00b274b3cc94","system_id":"levelo_inurba_marseille","lat":43.31354,"lon":5.36699,"is_reserved":false,"is_disabled":false,"rental_uris":{"android":"levelo://app?vid=8c2c6a1f-bfcd-48a0-be6c-00b274b3cc94","ios":"levelo://app?vid=8c2c6a1f-bfcd-48a0-be6c-00b274b3cc94"},"vehicle_type_id":"4","last_reported":1685358343,"current_range_meters":29200,"station_id":"ce4bgr92rcd13ifvqc6g","pricing_plan_id":"free"},{"bike_id":"fc5df670-e00a-4882-86d6-57562b4778e7","system_id":"levelo_inurba_marseille","lat":43.31358,"lon":5.36701,"is_reserved":false,"is_disabled":false,"rental_uris":{"android":"levelo://app?vid=fc5df670-e00a-4882-86d6-57562b4778e7","ios":"levelo://app?vid=fc5df670-e00a-4882-86d6-57562b4778e7"},"vehicle_type_id":"4","last_reported":1685358343,"current_range_meters":29200,"station_id":"ce4bgr92rcd13ifvqc6g","pricing_plan_id":"free"},{"bike_id":"9325ecf4-ff47-40c3-bdbb-ecbdb9361211","system_id":"levelo_inurba_marseille","lat":43.312239,"lon":5.368562,"is_reserved":false,"is_disabled":false,"rental_uris":{"android":"levelo://app?vid=9325ecf4-ff47-40c3-bdbb-ecbdb9361211","ios":"levelo://app?vid=9325ecf4-ff47-40c3-bdbb-ecbdb9361211"},"vehicle_type_id":"4","last_reported":1685358343,"current_range_meters":31600,"station_id":"ce4bgl92rcd13ifvqbq0","pricing_plan_id":"free"},{"bike_id":"f5283d3b-cdd9-431d-b947-2400e1e55a44","system_id":"levelo_inurba_marseille","lat":43.312239,"lon":5.368562,"is_reserved":false,"is_disabled":false,"rental_uris":{"android":"levelo://app?vid=f5283d3b-cdd9-431d-b947-2400e1e55a44","ios":"levelo://app?vid=f5283d3b-cdd9-431d-b947-2400e1e55a44"},"vehicle_type_id":"4","last_reported":1685358343,"current_range_meters":26800,"station_id":"ce4bgl92rcd13ifvqbq0","pricing_plan_id":"free"},{"bike_id":"01597115-3ff6-48f6-a95f-5aa90ffcff55","system_id":"levelo_inurba_marseille","lat":43.312239,"lon":5.368562,"is_reserved":false,"is_disabled":false,"rental_uris":{"android":"levelo://app?vid=01597115-3ff6-48f6-a95f-5aa90ffcff55","ios":"levelo://app?vid=01597115-3ff6-48f6-a95f-5aa90ffcff55"},"vehicle_type_id":"4","last_reported":1685358343,"current_range_meters":27600,"station_id":"ce4bgl92rcd13ifvqbq0","pricing_plan_id":"free"},{"bike_id":"93fb35ce-5b65-47d0-98ec-af4bf7633058","system_id":"levelo_inurba_marseille","lat":43.31231,"lon":5.36869,"is_reserved":false,"is_disabled":false,"rental_uris":{"android":"levelo://app?vid=93fb35ce-5b65-47d0-98ec-af4bf7633058","ios":"levelo://app?vid=93fb35ce-5b65-47d0-98ec-af4bf7633058"},"vehicle_type_id":"4","last_reported":1685358343,"current_range_meters":30800,"station_id":"ce4bgl92rcd13ifvqbq0","pricing_plan_id":"free"},{"bike_id":"bde12189-5015-496c-ad9a-d34e59533c5b","system_id":"levelo_inurba_marseille","lat":43.312239,"lon":5.368562,"is_reserved":false,"is_disabled":false,"rental_uris":{"android":"levelo://app?vid=bde12189-5015-496c-ad9a-d34e59533c5b","ios":"levelo://app?vid=bde12189-5015-496c-ad9a-d34e59533c5b"},"vehicle_type_id":"4","last_reported":1685358343,"current_range_meters":21600,"station_id":"ce4bgl92rcd13ifvqbq0","pricing_plan_id":"free"},{"bike_id":"2ba23640-e1c1-4cc5-a881-a4ead8b840d9","system_id":"levelo_inurba_marseille","lat":43.314811,"lon":5.373103,"is_reserved":false,"is_disabled":false,"rental_uris":{"android":"levelo://app?vid=2ba23640-e1c1-4cc5-a881-a4ead8b840d9","ios":"levelo://app?vid=2ba23640-e1c1-4cc5-a881-a4ead8b840d9"},"vehicle_type_id":"4","last_reported":1685358343,"current_range_meters":30000,"station_id":"ce4bgt12rcd13ifvqcd0","pricing_plan_id":"free"},{"bike_id":"cafa39a6-151e-4b43-8798-0e078854a369","system_id":"levelo_inurba_marseille","lat":43.314811,"lon":5.373104,"is_reserved":false,"is_disabled":false,"rental_uris":{"android":"levelo://app?vid=cafa39a6-151e-4b43-8798-0e078854a369","ios":"levelo://app?vid=cafa39a6-151e-4b43-8798-0e078854a369"},"vehicle_type_id":"4","last_reported":1685358343,"current_range_meters":31200,"station_id":"ce4bgt12rcd13ifvqcd0","pricing_plan_id":"free"},{"bike_id":"fb845587-1cce-4283-8985-9fe21f142ed3","system_id":"levelo_inurba_marseille","lat":43.314811,"lon":5.373103,"is_reserved":false,"is_disabled":false,"rental_uris":{"android":"levelo://app?vid=fb845587-1cce-4283-8985-9fe21f142ed3","ios":"levelo://app?vid=fb845587-1cce-4283-8985-9fe21f142ed3"},"vehicle_type_id":"4","last_reported":1685358343,"current_range_meters":23200,"station_id":"ce4bgt12rcd13ifvqcd0","pricing_plan_id":"free"},{"bike_id":"1b8c490f-eb50-4714-80cd-ace89cfa16bd","system_id":"levelo_inurba_marseille","lat":43.314811,"lon":5.373104,"is_reserved":false,"is_disabled":false,"rental_uris":{"android":"levelo://app?vid=1b8c490f-eb50-4714-80cd-ace89cfa16bd","ios":"levelo://app?vid=1b8c490f-eb50-4714-80cd-ace89cfa16bd"},"vehicle_type_id":"4","last_reported":1685358343,"current_range_meters":24800,"station_id":"ce4bgt12rcd13ifvqcd0","pricing_plan_id":"free"},{"bike_id":"41ffa87d-a512-4f94-a2e8-70f21f89ce53","system_id":"levelo_inurba_marseille","lat":43.314811,"lon":5.373103,"is_reserved":false,"is_disabled":false,"rental_uris":{"android":"levelo://app?vid=41ffa87d-a512-4f94-a2e8-70f21f89ce53","ios":"levelo://app?vid=41ffa87d-a512-4f94-a2e8-70f21f89ce53"},"vehicle_type_id":"4","last_reported":1685358343,"current_range_meters":30400,"station_id":"ce4bgt12rcd13ifvqcd0","pricing_plan_id":"free"},{"bike_id":"a7bd5c53-347d-4acc-bfb5-2becadb15754","system_id":"levelo_inurba_marseille","lat":43.314811,"lon":5.373103,"is_reserved":false,"is_disabled":false,"rental_uris":{"android":"levelo://app?vid=a7bd5c53-347d-4acc-bfb5-2becadb15754","ios":"levelo://app?vid=a7bd5c53-347d-4acc-bfb5-2becadb15754"},"vehicle_type_id":"4","last_reported":1685358343,"current_range_meters":7200,"station_id":"ce4bgt12rcd13ifvqcd0","pricing_plan_id":"free"},{"bike_id":"d226e977-3f0b-4b0c-a0e0-157c44aec210","system_id":"levelo_inurba_marseille","lat":43.314811,"lon":5.373104,"is_reserved":false,"is_disabled":false,"rental_uris":{"android":"levelo://app?vid=d226e977-3f0b-4b0c-a0e0-157c44aec210","ios":"levelo://app?vid=d226e977-3f0b-4b0c-a0e0-157c44aec210"},"vehicle_type_id":"4","last_reported":1685358343,"current_range_meters":28400,"station_id":"ce4bgt12rcd13ifvqcd0","pricing_plan_id":"free"},{"bike_id":"a166aebb-1e35-4bf9-a906-18f0b913dd2b","system_id":"levelo_inurba_marseille","lat":43.305368,"lon":5.367343,"is_reserved":false,"is_disabled":false,"rental_uris":{"android":"levelo://app?vid=a166aebb-1e35-4bf9-a906-18f0b913dd2b","ios":"levelo://app?vid=a166aebb-1e35-4bf9-a906-18f0b913dd2b"},"vehicle_type_id":"4","last_reported":1685358343,"current_range_meters":8400,"station_id":"ce4bgrp2rcd13ifvqc9g","pricing_plan_id":"free"},{"bike_id":"23b18efb-ea05-418b-a97f-c634d85706bb","system_id":"levelo_inurba_marseille","lat":43.3056,"lon":5.36541,"is_reserved":false,"is_disabled":false,"rental_uris":{"android":"levelo://app?vid=23b18efb-ea05-418b-a97f-c634d85706bb","ios":"levelo://app?vid=23b18efb-ea05-418b-a97f-c634d85706bb"},"vehicle_type_id":"4","last_reported":1685358343,"current_range_meters":31200,"station_id":"ce4bgs12rcd13ifvqcag","pricing_plan_id":"free"},{"bike_id":"7cdc1277-605a-4271-af82-4af19abb6634","system_id":"levelo_inurba_marseille","lat":43.305368,"lon":5.367343,"is_reserved":false,"is_disabled":false,"rental_uris":{"android":"levelo://app?vid=7cdc1277-605a-4271-af82-4af19abb6634","ios":"levelo://app?vid=7cdc1277-605a-4271-af82-4af19abb6634"},"vehicle_type_id":"4","last_reported":1685358343,"current_range_meters":20000,"station_id":"ce4bgrp2rcd13ifvqc9g","pricing_plan_id":"free"},{"bike_id":"4c373154-4afe-4f52-8b48-57c423941a5b","system_id":"levelo_inurba_marseille","lat":43.305368,"lon":5.367343,"is_reserved":false,"is_disabled":false,"rental_uris":{"android":"levelo://app?vid=4c373154-4afe-4f52-8b48-57c423941a5b","ios":"levelo://app?vid=4c373154-4afe-4f52-8b48-57c423941a5b"},"vehicle_type_id":"4","last_reported":1685358343,"current_range_meters":23200,"station_id":"ce4bgrp2rcd13ifvqc9g","pricing_plan_id":"free"},{"bike_id":"179fa0fb-30d3-4734-8450-c9c4554ce768","system_id":"levelo_inurba_marseille","lat":43.305368,"lon":5.367343,"is_reserved":false,"is_disabled":false,"rental_uris":{"android":"levelo://app?vid=179fa0fb-30d3-4734-8450-c9c4554ce768","ios":"levelo://app?vid=179fa0fb-30d3-4734-8450-c9c4554ce768"},"vehicle_type_id":"4","last_reported":1685358343,"current_range_meters":16400,"station_id":"ce4bgrp2rcd13ifvqc9g","pricing_plan_id":"free"},{"bike_id":"a15574de-0b84-4e7e-8d3b-cd8b2d5f802a","system_id":"levelo_inurba_marseille","lat":43.305706,"lon":5.365654,"is_reserved":false,"is_disabled":false,"rental_uris":{"android":"levelo://app?vid=a15574de-0b84-4e7e-8d3b-cd8b2d5f802a","ios":"levelo://app?vid=a15574de-0b84-4e7e-8d3b-cd8b2d5f802a"},"vehicle_type_id":"4","last_reported":1685358343,"current_range_meters":17200,"station_id":"ce4bgs12rcd13ifvqcag","pricing_plan_id":"free"},{"bike_id":"af369f2c-31d1-4b30-a619-0df2ff58cda9","system_id":"levelo_inurba_marseille","lat":43.305368,"lon":5.367343,"is_reserved":false,"is_disabled":false,"rental_uris":{"android":"levelo://app?vid=af369f2c-31d1-4b30-a619-0df2ff58cda9","ios":"levelo://app?vid=af369f2c-31d1-4b30-a619-0df2ff58cda9"},"vehicle_type_id":"4","last_reported":1685358343,"current_range_meters":17600,"station_id":"ce4bgrp2rcd13ifvqc9g","pricing_plan_id":"free"},{"bike_id":"313e5b96-2631-4a33-ab7f-6f176202be1b","system_id":"levelo_inurba_marseille","lat":43.305706,"lon":5.365654,"is_reserved":false,"is_disabled":false,"rental_uris":{"android":"levelo://app?vid=313e5b96-2631-4a33-ab7f-6f176202be1b","ios":"levelo://app?vid=313e5b96-2631-4a33-ab7f-6f176202be1b"},"vehicle_type_id":"4","last_reported":1685358343,"current_range_meters":21600,"station_id":"ce4bgs12rcd13ifvqcag","pricing_plan_id":"free"},{"bike_id":"1fff1dc6-5439-42e1-a6a8-9a23cafe3ab7","system_id":"levelo_inurba_marseille","lat":43.305989,"lon":5.37225,"is_reserved":false,"is_disabled":false,"rental_uris":{"android":"levelo://app?vid=1fff1dc6-5439-42e1-a6a8-9a23cafe3ab7","ios":"levelo://app?vid=1fff1dc6-5439-42e1-a6a8-9a23cafe3ab7"},"vehicle_type_id":"4","last_reported":1685358343,"current_range_meters":26400,"station_id":"ce4bgqh2rcd13ifvqc4g","pricing_plan_id":"free"},{"bike_id":"9e6539e6-addd-4cb9-a871-ce0c5f834281","system_id":"levelo_inurba_marseille","lat":43.305989,"lon":5.37225,"is_reserved":false,"is_disabled":false,"rental_uris":{"android":"levelo://app?vid=9e6539e6-addd-4cb9-a871-ce0c5f834281","ios":"levelo://app?vid=9e6539e6-addd-4cb9-a871-ce0c5f834281"},"vehicle_type_id":"4","last_reported":1685358343,"current_range_meters":31200,"station_id":"ce4bgqh2rcd13ifvqc4g","pricing_plan_id":"free"},{"bike_id":"81007740-db29-49e9-bd38-e32ae7f829b6","system_id":"levelo_inurba_marseille","lat":43.305989,"lon":5.37225,"is_reserved":false,"is_disabled":false,"rental_uris":{"android":"levelo://app?vid=81007740-db29-49e9-bd38-e32ae7f829b6","ios":"levelo://app?vid=81007740-db29-49e9-bd38-e32ae7f829b6"},"vehicle_type_id":"4","last_reported":1685358343,"current_range_meters":23600,"station_id":"ce4bgqh2rcd13ifvqc4g","pricing_plan_id":"free"},{"bike_id":"1baa8182-01a4-494f-8c7c-6c54d62b76e8","system_id":"levelo_inurba_marseille","lat":43.305989,"lon":5.37225,"is_reserved":false,"is_disabled":false,"rental_uris":{"android":"levelo://app?vid=1baa8182-01a4-494f-8c7c-6c54d62b76e8","ios":"levelo://app?vid=1baa8182-01a4-494f-8c7c-6c54d62b76e8"},"vehicle_type_id":"4","last_reported":1685358343,"current_range_meters":29600,"station_id":"ce4bgqh2rcd13ifvqc4g","pricing_plan_id":"free"},{"bike_id":"93a13303-7edd-4529-8a45-d619b80bc0ff","system_id":"levelo_inurba_marseille","lat":43.30605,"lon":5.37231,"is_reserved":false,"is_disabled":false,"rental_uris":{"android":"levelo://app?vid=93a13303-7edd-4529-8a45-d619b80bc0ff","ios":"levelo://app?vid=93a13303-7edd-4529-8a45-d619b80bc0ff"},"vehicle_type_id":"4","last_reported":1685358343,"current_range_meters":25200,"station_id":"ce4bgqh2rcd13ifvqc4g","pricing_plan_id":"free"},{"bike_id":"00ff1957-d89a-409f-a388-9a018ba2d252","system_id":"levelo_inurba_marseille","lat":43.305989,"lon":5.37225,"is_reserved":false,"is_disabled":false,"rental_uris":{"android":"levelo://app?vid=00ff1957-d89a-409f-a388-9a018ba2d252","ios":"levelo://app?vid=00ff1957-d89a-409f-a388-9a018ba2d252"},"vehicle_type_id":"4","last_reported":1685358343,"current_range_meters":23200,"station_id":"ce4bgqh2rcd13ifvqc4g","pricing_plan_id":"free"},{"bike_id":"905e7d33-0b9b-4f08-be3e-eca23f570b4d","system_id":"levelo_inurba_marseille","lat":43.311125,"lon":5.377624,"is_reserved":false,"is_disabled":false,"rental_uris":{"android":"levelo://app?vid=905e7d33-0b9b-4f08-be3e-eca23f570b4d","ios":"levelo://app?vid=905e7d33-0b9b-4f08-be3e-eca23f570b4d"},"vehicle_type_id":"4","last_reported":1685358343,"current_range_meters":26800,"station_id":"ce4bgt92rcd13ifvqcg0","pricing_plan_id":"free"},{"bike_id":"cfe8b94b-e6f8-4730-bb47-d0b7129b7594","system_id":"levelo_inurba_marseille","lat":43.30907,"lon":5.37671,"is_reserved":false,"is_disabled":false,"rental_uris":{"android":"levelo://app?vid=cfe8b94b-e6f8-4730-bb47-d0b7129b7594","ios":"levelo://app?vid=cfe8b94b-e6f8-4730-bb47-d0b7129b7594"},"vehicle_type_id":"4","last_reported":1685358343,"current_range_meters":21200,"station_id":"","pricing_plan_id":"free"},{"bike_id":"bfdd1e9b-6280-49f7-b9b8-d698e08c570c","system_id":"levelo_inurba_marseille","lat":43.317075,"lon":5.377367,"is_reserved":false,"is_disabled":false,"rental_uris":{"android":"levelo://app?vid=bfdd1e9b-6280-49f7-b9b8-d698e08c570c","ios":"levelo://app?vid=bfdd1e9b-6280-49f7-b9b8-d698e08c570c"},"vehicle_type_id":"4","last_reported":1685358343,"current_range_meters":22000,"station_id":"ce4bgth2rcd13ifvqch0","pricing_plan_id":"free"},{"bike_id":"ac46bd21-4552-4c0d-9719-e4d4af40510d","system_id":"levelo_inurba_marseille","lat":43.317075,"lon":5.377367,"is_reserved":false,"is_disabled":false,"rental_uris":{"android":"levelo://app?vid=ac46bd21-4552-4c0d-9719-e4d4af40510d","ios":"levelo://app?vid=ac46bd21-4552-4c0d-9719-e4d4af40510d"},"vehicle_type_id":"4","last_reported":1685358343,"current_range_meters":23600,"station_id":"ce4bgth2rcd13ifvqch0","pricing_plan_id":"free"},{"bike_id":"9a7d1a88-7bc5-4bee-a909-7b1c07088442","system_id":"levelo_inurba_marseille","lat":43.315293,"lon":5.380349,"is_reserved":false,"is_disabled":false,"rental_uris":{"android":"levelo://app?vid=9a7d1a88-7bc5-4bee-a909-7b1c07088442","ios":"levelo://app?vid=9a7d1a88-7bc5-4bee-a909-7b1c07088442"},"vehicle_type_id":"4","last_reported":1685358343,"current_range_meters":24800,"station_id":"ce4bhsp2rcd13ifvqi50","pricing_plan_id":"free"},{"bike_id":"d03dfde3-848d-4a12-b8c5-302f4c16e8c3","system_id":"levelo_inurba_marseille","lat":43.315293,"lon":5.380349,"is_reserved":false,"is_disabled":false,"rental_uris":{"android":"levelo://app?vid=d03dfde3-848d-4a12-b8c5-302f4c16e8c3","ios":"levelo://app?vid=d03dfde3-848d-4a12-b8c5-302f4c16e8c3"},"vehicle_type_id":"4","last_reported":1685358343,"current_range_meters":18000,"station_id":"ce4bhsp2rcd13ifvqi50","pricing_plan_id":"free"},{"bike_id":"ed90af96-fc0a-4482-9adf-23144fbbb301","system_id":"levelo_inurba_marseille","lat":43.3046,"lon":5.37899,"is_reserved":false,"is_disabled":false,"rental_uris":{"android":"levelo://app?vid=ed90af96-fc0a-4482-9adf-23144fbbb301","ios":"levelo://app?vid=ed90af96-fc0a-4482-9adf-23144fbbb301"},"vehicle_type_id":"4","last_reported":1685358343,"current_range_meters":18800,"station_id":"ce4bgup2rcd13ifvqcn0","pricing_plan_id":"free"},{"bike_id":"80c97299-5542-4676-9e99-6f21d6f8f76a","system_id":"levelo_inurba_marseille","lat":43.304606,"lon":5.379026,"is_reserved":false,"is_disabled":false,"rental_uris":{"android":"levelo://app?vid=80c97299-5542-4676-9e99-6f21d6f8f76a","ios":"levelo://app?vid=80c97299-5542-4676-9e99-6f21d6f8f76a"},"vehicle_type_id":"4","last_reported":1685358343,"current_range_meters":23200,"station_id":"ce4bgup2rcd13ifvqcn0","pricing_plan_id":"free"},{"bike_id":"3b6423d4-5025-4fb7-a622-6bbc3a54ff2b","system_id":"levelo_inurba_marseille","lat":43.299222,"lon":5.365554,"is_reserved":false,"is_disabled":false,"rental_uris":{"android":"levelo://app?vid=3b6423d4-5025-4fb7-a622-6bbc3a54ff2b","ios":"levelo://app?vid=3b6423d4-5025-4fb7-a622-6bbc3a54ff2b"},"vehicle_type_id":"4","last_reported":1685358343,"current_range_meters":25600,"station_id":"ce4bgm92rcd13ifvqbr0","pricing_plan_id":"free"},{"bike_id":"cfbeaa0d-d5e1-4854-831f-55481f86303c","system_id":"levelo_inurba_marseille","lat":43.298433,"lon":5.362774,"is_reserved":false,"is_disabled":false,"rental_uris":{"android":"levelo://app?vid=cfbeaa0d-d5e1-4854-831f-55481f86303c","ios":"levelo://app?vid=cfbeaa0d-d5e1-4854-831f-55481f86303c"},"vehicle_type_id":"4","last_reported":1685358343,"current_range_meters":27600,"station_id":"ce4bgpp2rcd13ifvqc3g","pricing_plan_id":"free"},{"bike_id":"ed089b84-69da-415f-b552-a082d4027c9e","system_id":"levelo_inurba_marseille","lat":43.298433,"lon":5.362774,"is_reserved":false,"is_disabled":false,"rental_uris":{"android":"levelo://app?vid=ed089b84-69da-415f-b552-a082d4027c9e","ios":"levelo://app?vid=ed089b84-69da-415f-b552-a082d4027c9e"},"vehicle_type_id":"4","last_reported":1685358343,"current_range_meters":30400,"station_id":"ce4bgpp2rcd13ifvqc3g","pricing_plan_id":"free"},{"bike_id":"bb77bde5-926f-48cb-9302-4de2641e52d3","system_id":"levelo_inurba_marseille","lat":43.298433,"lon":5.362774,"is_reserved":false,"is_disabled":false,"rental_uris":{"android":"levelo://app?vid=bb77bde5-926f-48cb-9302-4de2641e52d3","ios":"levelo://app?vid=bb77bde5-926f-48cb-9302-4de2641e52d3"},"vehicle_type_id":"4","last_reported":1685358343,"current_range_meters":12400,"station_id":"ce4bgpp2rcd13ifvqc3g","pricing_plan_id":"free"},{"bike_id":"e15d0be6-369b-4bf0-9084-2907e33ad23f","system_id":"levelo_inurba_marseille","lat":43.298433,"lon":5.362774,"is_reserved":false,"is_disabled":false,"rental_uris":{"android":"levelo://app?vid=e15d0be6-369b-4bf0-9084-2907e33ad23f","ios":"levelo://app?vid=e15d0be6-369b-4bf0-9084-2907e33ad23f"},"vehicle_type_id":"4","last_reported":1685358343,"current_range_meters":31600,"station_id":"ce4bgpp2rcd13ifvqc3g","pricing_plan_id":"free"},{"bike_id":"936957ae-1140-4f5c-9809-7e628422a747","system_id":"levelo_inurba_marseille","lat":43.298433,"lon":5.362774,"is_reserved":false,"is_disabled":false,"rental_uris":{"android":"levelo://app?vid=936957ae-1140-4f5c-9809-7e628422a747","ios":"levelo://app?vid=936957ae-1140-4f5c-9809-7e628422a747"},"vehicle_type_id":"4","last_reported":1685358343,"current_range_meters":15200,"station_id":"ce4bgpp2rcd13ifvqc3g","pricing_plan_id":"free"},{"bike_id":"af8a7e6f-ff97-4cb2-acc2-ca7cb75722c7","system_id":"levelo_inurba_marseille","lat":43.298433,"lon":5.362774,"is_reserved":false,"is_disabled":false,"rental_uris":{"android":"levelo://app?vid=af8a7e6f-ff97-4cb2-acc2-ca7cb75722c7","ios":"levelo://app?vid=af8a7e6f-ff97-4cb2-acc2-ca7cb75722c7"},"vehicle_type_id":"4","last_reported":1685358343,"current_range_meters":19600,"station_id":"ce4bgpp2rcd13ifvqc3g","pricing_plan_id":"free"},{"bike_id":"81a2c496-206b-42db-91a2-88b5b3f3c6c4","system_id":"levelo_inurba_marseille","lat":43.298433,"lon":5.362774,"is_reserved":false,"is_disabled":false,"rental_uris":{"android":"levelo://app?vid=81a2c496-206b-42db-91a2-88b5b3f3c6c4","ios":"levelo://app?vid=81a2c496-206b-42db-91a2-88b5b3f3c6c4"},"vehicle_type_id":"4","last_reported":1685358343,"current_range_meters":20400,"station_id":"ce4bgpp2rcd13ifvqc3g","pricing_plan_id":"free"},{"bike_id":"a9a0077b-4461-4817-9067-c4c19fbe4e42","system_id":"levelo_inurba_marseille","lat":43.298433,"lon":5.362774,"is_reserved":false,"is_disabled":false,"rental_uris":{"android":"levelo://app?vid=a9a0077b-4461-4817-9067-c4c19fbe4e42","ios":"levelo://app?vid=a9a0077b-4461-4817-9067-c4c19fbe4e42"},"vehicle_type_id":"4","last_reported":1685358343,"current_range_meters":28800,"station_id":"ce4bgpp2rcd13ifvqc3g","pricing_plan_id":"free"},{"bike_id":"14f2d4ab-ef49-4fce-a47b-7cdf9b51c3ed","system_id":"levelo_inurba_marseille","lat":43.298433,"lon":5.362774,"is_reserved":false,"is_disabled":false,"rental_uris":{"android":"levelo://app?vid=14f2d4ab-ef49-4fce-a47b-7cdf9b51c3ed","ios":"levelo://app?vid=14f2d4ab-ef49-4fce-a47b-7cdf9b51c3ed"},"vehicle_type_id":"4","last_reported":1685358343,"current_range_meters":31600,"station_id":"ce4bgpp2rcd13ifvqc3g","pricing_plan_id":"free"},{"bike_id":"99a83d4a-6b12-4379-b8ee-383c670dc125","system_id":"levelo_inurba_marseille","lat":43.298433,"lon":5.362774,"is_reserved":false,"is_disabled":false,"rental_uris":{"android":"levelo://app?vid=99a83d4a-6b12-4379-b8ee-383c670dc125","ios":"levelo://app?vid=99a83d4a-6b12-4379-b8ee-383c670dc125"},"vehicle_type_id":"4","last_reported":1685358343,"current_range_meters":28400,"station_id":"ce4bgpp2rcd13ifvqc3g","pricing_plan_id":"free"},{"bike_id":"2f05bc16-17ef-42d6-a1ba-c66453858cbd","system_id":"levelo_inurba_marseille","lat":43.297794,"lon":5.370888,"is_reserved":false,"is_disabled":false,"rental_uris":{"android":"levelo://app?vid=2f05bc16-17ef-42d6-a1ba-c66453858cbd","ios":"levelo://app?vid=2f05bc16-17ef-42d6-a1ba-c66453858cbd"},"vehicle_type_id":"4","last_reported":1685358343,"current_range_meters":18000,"station_id":"ce4bgop2rcd13ifvqc1g","pricing_plan_id":"free"},{"bike_id":"33fd2c34-8746-49d1-89c5-4638a5de6ef5","system_id":"levelo_inurba_marseille","lat":43.297794,"lon":5.370888,"is_reserved":false,"is_disabled":false,"rental_uris":{"android":"levelo://app?vid=33fd2c34-8746-49d1-89c5-4638a5de6ef5","ios":"levelo://app?vid=33fd2c34-8746-49d1-89c5-4638a5de6ef5"},"vehicle_type_id":"4","last_reported":1685358343,"current_range_meters":30000,"station_id":"ce4bgop2rcd13ifvqc1g","pricing_plan_id":"free"},{"bike_id":"29558480-af09-40bb-98cf-77dadb2d034c","system_id":"levelo_inurba_marseille","lat":43.29787,"lon":5.37099,"is_reserved":false,"is_disabled":false,"rental_uris":{"android":"levelo://app?vid=29558480-af09-40bb-98cf-77dadb2d034c","ios":"levelo://app?vid=29558480-af09-40bb-98cf-77dadb2d034c"},"vehicle_type_id":"4","last_reported":1685358343,"current_range_meters":19200,"station_id":"ce4bgop2rcd13ifvqc1g","pricing_plan_id":"free"},{"bike_id":"227f1493-8c70-452a-be75-77cb1061c124","system_id":"levelo_inurba_marseille","lat":43.297794,"lon":5.370888,"is_reserved":false,"is_disabled":false,"rental_uris":{"android":"levelo://app?vid=227f1493-8c70-452a-be75-77cb1061c124","ios":"levelo://app?vid=227f1493-8c70-452a-be75-77cb1061c124"},"vehicle_type_id":"4","last_reported":1685358343,"current_range_meters":28000,"station_id":"ce4bgop2rcd13ifvqc1g","pricing_plan_id":"free"},{"bike_id":"88eba8cb-94f3-4f26-8cf6-335a55ad8dd0","system_id":"levelo_inurba_marseille","lat":43.297794,"lon":5.370888,"is_reserved":false,"is_disabled":false,"rental_uris":{"android":"levelo://app?vid=88eba8cb-94f3-4f26-8cf6-335a55ad8dd0","ios":"levelo://app?vid=88eba8cb-94f3-4f26-8cf6-335a55ad8dd0"},"vehicle_type_id":"4","last_reported":1685358343,"current_range_meters":16000,"station_id":"ce4bgop2rcd13ifvqc1g","pricing_plan_id":"free"},{"bike_id":"85bd337c-95b8-41c4-acad-eea10ed96e55","system_id":"levelo_inurba_marseille","lat":43.328371,"lon":5.366912,"is_reserved":false,"is_disabled":false,"rental_uris":{"android":"levelo://app?vid=85bd337c-95b8-41c4-acad-eea10ed96e55","ios":"levelo://app?vid=85bd337c-95b8-41c4-acad-eea10ed96e55"},"vehicle_type_id":"4","last_reported":1685358343,"current_range_meters":10400,"station_id":"ce4bhs92rcd13ifvqi0g","pricing_plan_id":"free"},{"bike_id":"eaaaca8a-5144-400c-a545-6580a399e6dc","system_id":"levelo_inurba_marseille","lat":43.328371,"lon":5.366912,"is_reserved":false,"is_disabled":false,"rental_uris":{"android":"levelo://app?vid=eaaaca8a-5144-400c-a545-6580a399e6dc","ios":"levelo://app?vid=eaaaca8a-5144-400c-a545-6580a399e6dc"},"vehicle_type_id":"4","last_reported":1685358343,"current_range_meters":16800,"station_id":"ce4bhs92rcd13ifvqi0g","pricing_plan_id":"free"},{"bike_id":"5895156f-f83a-4b54-a0b5-57f02c18ef1a","system_id":"levelo_inurba_marseille","lat":43.328371,"lon":5.366912,"is_reserved":false,"is_disabled":false,"rental_uris":{"android":"levelo://app?vid=5895156f-f83a-4b54-a0b5-57f02c18ef1a","ios":"levelo://app?vid=5895156f-f83a-4b54-a0b5-57f02c18ef1a"},"vehicle_type_id":"4","last_reported":1685358343,"current_range_meters":22800,"station_id":"ce4bhs92rcd13ifvqi0g","pricing_plan_id":"free"},{"bike_id":"39f0b63d-3425-4917-a4ec-6e10d4e34869","system_id":"levelo_inurba_marseille","lat":43.3283,"lon":5.36679,"is_reserved":false,"is_disabled":false,"rental_uris":{"android":"levelo://app?vid=39f0b63d-3425-4917-a4ec-6e10d4e34869","ios":"levelo://app?vid=39f0b63d-3425-4917-a4ec-6e10d4e34869"},"vehicle_type_id":"4","last_reported":1685358343,"current_range_meters":22800,"station_id":"ce4bhs92rcd13ifvqi0g","pricing_plan_id":"free"},{"bike_id":"d11da2d4-50ab-475d-a497-999f76f85bd5","system_id":"levelo_inurba_marseille","lat":43.32832,"lon":5.36682,"is_reserved":false,"is_disabled":false,"rental_uris":{"android":"levelo://app?vid=d11da2d4-50ab-475d-a497-999f76f85bd5","ios":"levelo://app?vid=d11da2d4-50ab-475d-a497-999f76f85bd5"},"vehicle_type_id":"4","last_reported":1685358343,"current_range_meters":22400,"station_id":"ce4bhs92rcd13ifvqi0g","pricing_plan_id":"free"},{"bike_id":"450e3cce-c604-4299-8daa-749739d3bfa4","system_id":"levelo_inurba_marseille","lat":43.328332,"lon":5.366961,"is_reserved":false,"is_disabled":false,"rental_uris":{"android":"levelo://app?vid=450e3cce-c604-4299-8daa-749739d3bfa4","ios":"levelo://app?vid=450e3cce-c604-4299-8daa-749739d3bfa4"},"vehicle_type_id":"4","last_reported":1685358343,"current_range_meters":16400,"station_id":"","pricing_plan_id":"free"},{"bike_id":"60edb3b2-d8e9-4c71-b2fa-9e940834a4e9","system_id":"levelo_inurba_marseille","lat":43.32835,"lon":5.36684,"is_reserved":false,"is_disabled":false,"rental_uris":{"android":"levelo://app?vid=60edb3b2-d8e9-4c71-b2fa-9e940834a4e9","ios":"levelo://app?vid=60edb3b2-d8e9-4c71-b2fa-9e940834a4e9"},"vehicle_type_id":"4","last_reported":1685358343,"current_range_meters":25200,"station_id":"ce4bhs92rcd13ifvqi0g","pricing_plan_id":"free"},{"bike_id":"bb02e8c4-7ece-4a76-841a-f5003b7fc8ba","system_id":"levelo_inurba_marseille","lat":43.29714,"lon":5.36605,"is_reserved":false,"is_disabled":false,"rental_uris":{"android":"levelo://app?vid=bb02e8c4-7ece-4a76-841a-f5003b7fc8ba","ios":"levelo://app?vid=bb02e8c4-7ece-4a76-841a-f5003b7fc8ba"},"vehicle_type_id":"4","last_reported":1685358343,"current_range_meters":10400,"station_id":"","pricing_plan_id":"free"},{"bike_id":"825cec05-a98a-4819-b9ec-c8b27e3b3519","system_id":"levelo_inurba_marseille","lat":43.2968,"lon":5.37291,"is_reserved":false,"is_disabled":false,"rental_uris":{"android":"levelo://app?vid=825cec05-a98a-4819-b9ec-c8b27e3b3519","ios":"levelo://app?vid=825cec05-a98a-4819-b9ec-c8b27e3b3519"},"vehicle_type_id":"4","last_reported":1685358343,"current_range_meters":14000,"station_id":"ce4bgk12rcd13ifvqbj0","pricing_plan_id":"free"},{"bike_id":"5b6b4e60-8c55-47b2-96a5-dd4d7bac6e59","system_id":"levelo_inurba_marseille","lat":43.29678,"lon":5.373,"is_reserved":false,"is_disabled":false,"rental_uris":{"android":"levelo://app?vid=5b6b4e60-8c55-47b2-96a5-dd4d7bac6e59","ios":"levelo://app?vid=5b6b4e60-8c55-47b2-96a5-dd4d7bac6e59"},"vehicle_type_id":"4","last_reported":1685358343,"current_range_meters":13200,"station_id":"ce4bgk12rcd13ifvqbj0","pricing_plan_id":"free"},{"bike_id":"82275e35-8b90-4fba-97d9-5c0d49d456aa","system_id":"levelo_inurba_marseille","lat":43.299028,"lon":5.381509,"is_reserved":false,"is_disabled":false,"rental_uris":{"android":"levelo://app?vid=82275e35-8b90-4fba-97d9-5c0d49d456aa","ios":"levelo://app?vid=82275e35-8b90-4fba-97d9-5c0d49d456aa"},"vehicle_type_id":"4","last_reported":1685358343,"current_range_meters":19200,"station_id":"ce4bgj12rcd13ifvqbc0","pricing_plan_id":"free"},{"bike_id":"e51a5053-29d6-4102-a0b6-da282c3a5d9f","system_id":"levelo_inurba_marseille","lat":43.299028,"lon":5.381509,"is_reserved":false,"is_disabled":false,"rental_uris":{"android":"levelo://app?vid=e51a5053-29d6-4102-a0b6-da282c3a5d9f","ios":"levelo://app?vid=e51a5053-29d6-4102-a0b6-da282c3a5d9f"},"vehicle_type_id":"4","last_reported":1685358343,"current_range_meters":31600,"station_id":"ce4bgj12rcd13ifvqbc0","pricing_plan_id":"free"},{"bike_id":"84ec45c1-2428-4410-914c-8eb1f5fe1f3d","system_id":"levelo_inurba_marseille","lat":43.299028,"lon":5.381509,"is_reserved":false,"is_disabled":false,"rental_uris":{"android":"levelo://app?vid=84ec45c1-2428-4410-914c-8eb1f5fe1f3d","ios":"levelo://app?vid=84ec45c1-2428-4410-914c-8eb1f5fe1f3d"},"vehicle_type_id":"4","last_reported":1685358343,"current_range_meters":31200,"station_id":"ce4bgj12rcd13ifvqbc0","pricing_plan_id":"free"},{"bike_id":"980ab29e-a672-4114-961c-0ac68e53271c","system_id":"levelo_inurba_marseille","lat":43.309589,"lon":5.390258,"is_reserved":false,"is_disabled":false,"rental_uris":{"android":"levelo://app?vid=980ab29e-a672-4114-961c-0ac68e53271c","ios":"levelo://app?vid=980ab29e-a672-4114-961c-0ac68e53271c"},"vehicle_type_id":"4","last_reported":1685358343,"current_range_meters":28800,"station_id":"ce4bgup2rcd13ifvqco0","pricing_plan_id":"free"},{"bike_id":"2e91c7f8-7504-4bd1-a5f1-ec605c11de1c","system_id":"levelo_inurba_marseille","lat":43.317557,"lon":5.390173,"is_reserved":false,"is_disabled":false,"rental_uris":{"android":"levelo://app?vid=2e91c7f8-7504-4bd1-a5f1-ec605c11de1c","ios":"levelo://app?vid=2e91c7f8-7504-4bd1-a5f1-ec605c11de1c"},"vehicle_type_id":"4","last_reported":1685358343,"current_range_meters":26000,"station_id":"ce4bhqp2rcd13ifvqhng","pricing_plan_id":"free"},{"bike_id":"b0d4e2ad-3549-4cdf-ba8e-845396640965","system_id":"levelo_inurba_marseille","lat":43.317557,"lon":5.390173,"is_reserved":false,"is_disabled":false,"rental_uris":{"android":"levelo://app?vid=b0d4e2ad-3549-4cdf-ba8e-845396640965","ios":"levelo://app?vid=b0d4e2ad-3549-4cdf-ba8e-845396640965"},"vehicle_type_id":"4","last_reported":1685358343,"current_range_meters":17200,"station_id":"ce4bhqp2rcd13ifvqhng","pricing_plan_id":"free"},{"bike_id":"138ec146-4c71-4860-b120-447204718390","system_id":"levelo_inurba_marseille","lat":43.317557,"lon":5.390173,"is_reserved":false,"is_disabled":false,"rental_uris":{"android":"levelo://app?vid=138ec146-4c71-4860-b120-447204718390","ios":"levelo://app?vid=138ec146-4c71-4860-b120-447204718390"},"vehicle_type_id":"4","last_reported":1685358343,"current_range_meters":30000,"station_id":"ce4bhqp2rcd13ifvqhng","pricing_plan_id":"free"},{"bike_id":"95e22908-ab59-414c-a6ee-a5a80833c5e3","system_id":"levelo_inurba_marseille","lat":43.298037,"lon":5.381066,"is_reserved":false,"is_disabled":false,"rental_uris":{"android":"levelo://app?vid=95e22908-ab59-414c-a6ee-a5a80833c5e3","ios":"levelo://app?vid=95e22908-ab59-414c-a6ee-a5a80833c5e3"},"vehicle_type_id":"4","last_reported":1685358343,"current_range_meters":26400,"station_id":"ce4bgip2rcd13ifvqbb0","pricing_plan_id":"free"},{"bike_id":"c409bb12-9ea4-41b3-885e-2a1f3c605eeb","system_id":"levelo_inurba_marseille","lat":43.304274,"lon":5.388873,"is_reserved":false,"is_disabled":false,"rental_uris":{"android":"levelo://app?vid=c409bb12-9ea4-41b3-885e-2a1f3c605eeb","ios":"levelo://app?vid=c409bb12-9ea4-41b3-885e-2a1f3c605eeb"},"vehicle_type_id":"4","last_reported":1685358343,"current_range_meters":17200,"station_id":"ce4bgk12rcd13ifvqbi0","pricing_plan_id":"free"},{"bike_id":"7dd606be-afba-4363-901b-a742644df9a4","system_id":"levelo_inurba_marseille","lat":43.304274,"lon":5.388873,"is_reserved":false,"is_disabled":false,"rental_uris":{"android":"levelo://app?vid=7dd606be-afba-4363-901b-a742644df9a4","ios":"levelo://app?vid=7dd606be-afba-4363-901b-a742644df9a4"},"vehicle_type_id":"4","last_reported":1685358343,"current_range_meters":1600,"station_id":"ce4bgk12rcd13ifvqbi0","pricing_plan_id":"free"},{"bike_id":"b36e825d-00f7-426c-ab93-12b231a196bf","system_id":"levelo_inurba_marseille","lat":43.304274,"lon":5.388873,"is_reserved":false,"is_disabled":false,"rental_uris":{"android":"levelo://app?vid=b36e825d-00f7-426c-ab93-12b231a196bf","ios":"levelo://app?vid=b36e825d-00f7-426c-ab93-12b231a196bf"},"vehicle_type_id":"4","last_reported":1685358343,"current_range_meters":25600,"station_id":"ce4bgk12rcd13ifvqbi0","pricing_plan_id":"free"},{"bike_id":"9f0f15e8-18be-4c25-a816-6d32d4079813","system_id":"levelo_inurba_marseille","lat":43.299707,"lon":5.384859,"is_reserved":false,"is_disabled":false,"rental_uris":{"android":"levelo://app?vid=9f0f15e8-18be-4c25-a816-6d32d4079813","ios":"levelo://app?vid=9f0f15e8-18be-4c25-a816-6d32d4079813"},"vehicle_type_id":"4","last_reported":1685358343,"current_range_meters":20000,"station_id":"ce4bgj92rcd13ifvqbd0","pricing_plan_id":"free"},{"bike_id":"98829955-27cd-4a08-ad86-cb38c4327640","system_id":"levelo_inurba_marseille","lat":43.295279,"lon":5.375048,"is_reserved":false,"is_disabled":false,"rental_uris":{"android":"levelo://app?vid=98829955-27cd-4a08-ad86-cb38c4327640","ios":"levelo://app?vid=98829955-27cd-4a08-ad86-cb38c4327640"},"vehicle_type_id":"4","last_reported":1685358343,"current_range_meters":14800,"station_id":"ce4bgkp2rcd13ifvqbmg","pricing_plan_id":"free"},{"bike_id":"33ca52cb-a9f2-4f2e-bda3-5479a2b939c4","system_id":"levelo_inurba_marseille","lat":43.299707,"lon":5.384859,"is_reserved":false,"is_disabled":false,"rental_uris":{"android":"levelo://app?vid=33ca52cb-a9f2-4f2e-bda3-5479a2b939c4","ios":"levelo://app?vid=33ca52cb-a9f2-4f2e-bda3-5479a2b939c4"},"vehicle_type_id":"4","last_reported":1685358343,"current_range_meters":12400,"station_id":"ce4bgj92rcd13ifvqbd0","pricing_plan_id":"free"},{"bike_id":"be2cc42d-3d09-48e3-8c56-0ea9b6afbec6","system_id":"levelo_inurba_marseille","lat":43.299717,"lon":5.384845,"is_reserved":false,"is_disabled":false,"rental_uris":{"android":"levelo://app?vid=be2cc42d-3d09-48e3-8c56-0ea9b6afbec6","ios":"levelo://app?vid=be2cc42d-3d09-48e3-8c56-0ea9b6afbec6"},"vehicle_type_id":"4","last_reported":1685358343,"current_range_meters":25200,"station_id":"ce4bgj92rcd13ifvqbd0","pricing_plan_id":"free"},{"bike_id":"03ebdc18-c6a8-4ff6-ba83-12b529cf6217","system_id":"levelo_inurba_marseille","lat":43.299724,"lon":5.384848,"is_reserved":false,"is_disabled":false,"rental_uris":{"android":"levelo://app?vid=03ebdc18-c6a8-4ff6-ba83-12b529cf6217","ios":"levelo://app?vid=03ebdc18-c6a8-4ff6-ba83-12b529cf6217"},"vehicle_type_id":"4","last_reported":1685358343,"current_range_meters":11200,"station_id":"ce4bgj92rcd13ifvqbd0","pricing_plan_id":"free"},{"bike_id":"63e00f38-aa1b-4a61-a4e6-8156c8c84d22","system_id":"levelo_inurba_marseille","lat":43.292749,"lon":5.368398,"is_reserved":false,"is_disabled":false,"rental_uris":{"android":"levelo://app?vid=63e00f38-aa1b-4a61-a4e6-8156c8c84d22","ios":"levelo://app?vid=63e00f38-aa1b-4a61-a4e6-8156c8c84d22"},"vehicle_type_id":"4","last_reported":1685358343,"current_range_meters":26000,"station_id":"ce4bhbp2rcd13ifvqesg","pricing_plan_id":"free"},{"bike_id":"89c9d6d1-659b-44a9-9314-7b55a7885be7","system_id":"levelo_inurba_marseille","lat":43.292749,"lon":5.368398,"is_reserved":false,"is_disabled":false,"rental_uris":{"android":"levelo://app?vid=89c9d6d1-659b-44a9-9314-7b55a7885be7","ios":"levelo://app?vid=89c9d6d1-659b-44a9-9314-7b55a7885be7"},"vehicle_type_id":"4","last_reported":1685358343,"current_range_meters":21200,"station_id":"ce4bhbp2rcd13ifvqesg","pricing_plan_id":"free"},{"bike_id":"5ada6cf3-15bb-42dc-88ba-c52e45820400","system_id":"levelo_inurba_marseille","lat":43.293,"lon":5.37174,"is_reserved":false,"is_disabled":false,"rental_uris":{"android":"levelo://app?vid=5ada6cf3-15bb-42dc-88ba-c52e45820400","ios":"levelo://app?vid=5ada6cf3-15bb-42dc-88ba-c52e45820400"},"vehicle_type_id":"4","last_reported":1685358343,"current_range_meters":14800,"station_id":"","pricing_plan_id":"free"},{"bike_id":"cfdd8a73-de2d-4701-ace4-73169f338fc6","system_id":"levelo_inurba_marseille","lat":43.293009,"lon":5.374584,"is_reserved":false,"is_disabled":false,"rental_uris":{"android":"levelo://app?vid=cfdd8a73-de2d-4701-ace4-73169f338fc6","ios":"levelo://app?vid=cfdd8a73-de2d-4701-ace4-73169f338fc6"},"vehicle_type_id":"4","last_reported":1685358343,"current_range_meters":24000,"station_id":"ce4bgi12rcd13ifvqb70","pricing_plan_id":"free"},{"bike_id":"a2b436ce-eba1-4d46-8d30-11a9185c54d5","system_id":"levelo_inurba_marseille","lat":43.303002,"lon":5.392142,"is_reserved":false,"is_disabled":false,"rental_uris":{"android":"levelo://app?vid=a2b436ce-eba1-4d46-8d30-11a9185c54d5","ios":"levelo://app?vid=a2b436ce-eba1-4d46-8d30-11a9185c54d5"},"vehicle_type_id":"4","last_reported":1685358343,"current_range_meters":18400,"station_id":"ce4bgkh2rcd13ifvqbk0","pricing_plan_id":"free"},{"bike_id":"b391719d-e608-46bd-a52c-0821ded0aa63","system_id":"levelo_inurba_marseille","lat":43.293009,"lon":5.374584,"is_reserved":false,"is_disabled":false,"rental_uris":{"android":"levelo://app?vid=b391719d-e608-46bd-a52c-0821ded0aa63","ios":"levelo://app?vid=b391719d-e608-46bd-a52c-0821ded0aa63"},"vehicle_type_id":"4","last_reported":1685358343,"current_range_meters":2800,"station_id":"ce4bgi12rcd13ifvqb70","pricing_plan_id":"free"},{"bike_id":"4063975b-b8fb-4290-9e7c-1eba82373ad3","system_id":"levelo_inurba_marseille","lat":43.303,"lon":5.39213,"is_reserved":false,"is_disabled":false,"rental_uris":{"android":"levelo://app?vid=4063975b-b8fb-4290-9e7c-1eba82373ad3","ios":"levelo://app?vid=4063975b-b8fb-4290-9e7c-1eba82373ad3"},"vehicle_type_id":"4","last_reported":1685358343,"current_range_meters":25200,"station_id":"ce4bgkh2rcd13ifvqbk0","pricing_plan_id":"free"},{"bike_id":"987f64dd-4599-4808-9836-660d3a1959af","system_id":"levelo_inurba_marseille","lat":43.2936,"lon":5.37835,"is_reserved":false,"is_disabled":false,"rental_uris":{"android":"levelo://app?vid=987f64dd-4599-4808-9836-660d3a1959af","ios":"levelo://app?vid=987f64dd-4599-4808-9836-660d3a1959af"},"vehicle_type_id":"4","last_reported":1685358343,"current_range_meters":26800,"station_id":"ce4bgjh2rcd13ifvqbf0","pricing_plan_id":"free"},{"bike_id":"6bc26d5c-092a-4772-bd2d-a143e7d6854c","system_id":"levelo_inurba_marseille","lat":43.2936,"lon":5.37835,"is_reserved":false,"is_disabled":false,"rental_uris":{"android":"levelo://app?vid=6bc26d5c-092a-4772-bd2d-a143e7d6854c","ios":"levelo://app?vid=6bc26d5c-092a-4772-bd2d-a143e7d6854c"},"vehicle_type_id":"4","last_reported":1685358343,"current_range_meters":18000,"station_id":"ce4bgjh2rcd13ifvqbf0","pricing_plan_id":"free"},{"bike_id":"cfecaf4c-71a9-4523-bbf6-8c7066a2395d","system_id":"levelo_inurba_marseille","lat":43.292311,"lon":5.360731,"is_reserved":false,"is_disabled":false,"rental_uris":{"android":"levelo://app?vid=cfecaf4c-71a9-4523-bbf6-8c7066a2395d","ios":"levelo://app?vid=cfecaf4c-71a9-4523-bbf6-8c7066a2395d"},"vehicle_type_id":"4","last_reported":1685358343,"current_range_meters":29600,"station_id":"ce4bhbh2rcd13ifvqeqg","pricing_plan_id":"free"},{"bike_id":"058e0582-dd26-473b-8b26-651dec15d205","system_id":"levelo_inurba_marseille","lat":43.29229,"lon":5.36065,"is_reserved":false,"is_disabled":false,"rental_uris":{"android":"levelo://app?vid=058e0582-dd26-473b-8b26-651dec15d205","ios":"levelo://app?vid=058e0582-dd26-473b-8b26-651dec15d205"},"vehicle_type_id":"4","last_reported":1685358343,"current_range_meters":24800,"station_id":"ce4bhbh2rcd13ifvqeqg","pricing_plan_id":"free"},{"bike_id":"4ef2f39a-e24a-42f0-9edf-92727fb78301","system_id":"levelo_inurba_marseille","lat":43.292311,"lon":5.360731,"is_reserved":false,"is_disabled":false,"rental_uris":{"android":"levelo://app?vid=4ef2f39a-e24a-42f0-9edf-92727fb78301","ios":"levelo://app?vid=4ef2f39a-e24a-42f0-9edf-92727fb78301"},"vehicle_type_id":"4","last_reported":1685358343,"current_range_meters":31200,"station_id":"ce4bhbh2rcd13ifvqeqg","pricing_plan_id":"free"},{"bike_id":"796a18e8-6528-470b-8983-7d523bfc7b2b","system_id":"levelo_inurba_marseille","lat":43.292311,"lon":5.360731,"is_reserved":false,"is_disabled":false,"rental_uris":{"android":"levelo://app?vid=796a18e8-6528-470b-8983-7d523bfc7b2b","ios":"levelo://app?vid=796a18e8-6528-470b-8983-7d523bfc7b2b"},"vehicle_type_id":"4","last_reported":1685358343,"current_range_meters":5200,"station_id":"ce4bhbh2rcd13ifvqeqg","pricing_plan_id":"free"},{"bike_id":"6d849d6e-0302-4356-be86-27e01ed84932","system_id":"levelo_inurba_marseille","lat":43.292663,"lon":5.376389,"is_reserved":false,"is_disabled":false,"rental_uris":{"android":"levelo://app?vid=6d849d6e-0302-4356-be86-27e01ed84932","ios":"levelo://app?vid=6d849d6e-0302-4356-be86-27e01ed84932"},"vehicle_type_id":"4","last_reported":1685358343,"current_range_meters":22400,"station_id":"ce4bgi12rcd13ifvqb80","pricing_plan_id":"free"},{"bike_id":"6e23f6f5-c110-444e-bed4-7593547c262b","system_id":"levelo_inurba_marseille","lat":43.292663,"lon":5.376389,"is_reserved":false,"is_disabled":false,"rental_uris":{"android":"levelo://app?vid=6e23f6f5-c110-444e-bed4-7593547c262b","ios":"levelo://app?vid=6e23f6f5-c110-444e-bed4-7593547c262b"},"vehicle_type_id":"4","last_reported":1685358343,"current_range_meters":22000,"station_id":"ce4bgi12rcd13ifvqb80","pricing_plan_id":"free"},{"bike_id":"45cce383-7957-4305-89d6-96a1f9cffe2e","system_id":"levelo_inurba_marseille","lat":43.292663,"lon":5.376389,"is_reserved":false,"is_disabled":false,"rental_uris":{"android":"levelo://app?vid=45cce383-7957-4305-89d6-96a1f9cffe2e","ios":"levelo://app?vid=45cce383-7957-4305-89d6-96a1f9cffe2e"},"vehicle_type_id":"4","last_reported":1685358343,"current_range_meters":28000,"station_id":"ce4bgi12rcd13ifvqb80","pricing_plan_id":"free"},{"bike_id":"60883c5b-4daa-4f2b-927c-eafb5a30e8ed","system_id":"levelo_inurba_marseille","lat":43.292663,"lon":5.376389,"is_reserved":false,"is_disabled":false,"rental_uris":{"android":"levelo://app?vid=60883c5b-4daa-4f2b-927c-eafb5a30e8ed","ios":"levelo://app?vid=60883c5b-4daa-4f2b-927c-eafb5a30e8ed"},"vehicle_type_id":"4","last_reported":1685358343,"current_range_meters":14800,"station_id":"ce4bgi12rcd13ifvqb80","pricing_plan_id":"free"},{"bike_id":"6840f96e-af0b-4dfc-af9d-710998a1d8c6","system_id":"levelo_inurba_marseille","lat":43.291994,"lon":5.357886,"is_reserved":false,"is_disabled":false,"rental_uris":{"android":"levelo://app?vid=6840f96e-af0b-4dfc-af9d-710998a1d8c6","ios":"levelo://app?vid=6840f96e-af0b-4dfc-af9d-710998a1d8c6"},"vehicle_type_id":"4","last_reported":1685358343,"current_range_meters":17200,"station_id":"ce4bhb12rcd13ifvqel0","pricing_plan_id":"free"},{"bike_id":"9ec42623-cb68-46ac-92aa-e712c3df043a","system_id":"levelo_inurba_marseille","lat":43.29201,"lon":5.35808,"is_reserved":false,"is_disabled":false,"rental_uris":{"android":"levelo://app?vid=9ec42623-cb68-46ac-92aa-e712c3df043a","ios":"levelo://app?vid=9ec42623-cb68-46ac-92aa-e712c3df043a"},"vehicle_type_id":"4","last_reported":1685358343,"current_range_meters":17600,"station_id":"ce4bhb12rcd13ifvqel0","pricing_plan_id":"free"},{"bike_id":"401a7c1a-7df9-42c2-96e4-3a0a7d98acc6","system_id":"levelo_inurba_marseille","lat":43.291994,"lon":5.357886,"is_reserved":false,"is_disabled":false,"rental_uris":{"android":"levelo://app?vid=401a7c1a-7df9-42c2-96e4-3a0a7d98acc6","ios":"levelo://app?vid=401a7c1a-7df9-42c2-96e4-3a0a7d98acc6"},"vehicle_type_id":"4","last_reported":1685358343,"current_range_meters":20400,"station_id":"ce4bhb12rcd13ifvqel0","pricing_plan_id":"free"},{"bike_id":"e16bef6e-f27e-44a7-8786-005cd44793b4","system_id":"levelo_inurba_marseille","lat":43.291994,"lon":5.357886,"is_reserved":false,"is_disabled":false,"rental_uris":{"android":"levelo://app?vid=e16bef6e-f27e-44a7-8786-005cd44793b4","ios":"levelo://app?vid=e16bef6e-f27e-44a7-8786-005cd44793b4"},"vehicle_type_id":"4","last_reported":1685358343,"current_range_meters":22000,"station_id":"ce4bhb12rcd13ifvqel0","pricing_plan_id":"free"},{"bike_id":"8987d41b-56a9-4bc3-b436-1c2f09a284a4","system_id":"levelo_inurba_marseille","lat":43.302008,"lon":5.394694,"is_reserved":false,"is_disabled":false,"rental_uris":{"android":"levelo://app?vid=8987d41b-56a9-4bc3-b436-1c2f09a284a4","ios":"levelo://app?vid=8987d41b-56a9-4bc3-b436-1c2f09a284a4"},"vehicle_type_id":"4","last_reported":1685358343,"current_range_meters":8400,"station_id":"ce4bh0p2rcd13ifvqd70","pricing_plan_id":"free"},{"bike_id":"d455f611-cf33-4445-9e7a-471526d23de0","system_id":"levelo_inurba_marseille","lat":43.302008,"lon":5.394694,"is_reserved":false,"is_disabled":false,"rental_uris":{"android":"levelo://app?vid=d455f611-cf33-4445-9e7a-471526d23de0","ios":"levelo://app?vid=d455f611-cf33-4445-9e7a-471526d23de0"},"vehicle_type_id":"4","last_reported":1685358343,"current_range_meters":0,"station_id":"ce4bh0p2rcd13ifvqd70","pricing_plan_id":"free"},{"bike_id":"4cf12d31-52e2-4d91-a816-13523755e574","system_id":"levelo_inurba_marseille","lat":43.294153,"lon":5.386305,"is_reserved":false,"is_disabled":false,"rental_uris":{"android":"levelo://app?vid=4cf12d31-52e2-4d91-a816-13523755e574","ios":"levelo://app?vid=4cf12d31-52e2-4d91-a816-13523755e574"},"vehicle_type_id":"4","last_reported":1685358343,"current_range_meters":18800,"station_id":"ce4bh2h2rcd13ifvqdh0","pricing_plan_id":"free"},{"bike_id":"4322112d-c1cc-4652-adc8-a2af43931945","system_id":"levelo_inurba_marseille","lat":43.29039,"lon":5.37563,"is_reserved":false,"is_disabled":false,"rental_uris":{"android":"levelo://app?vid=4322112d-c1cc-4652-adc8-a2af43931945","ios":"levelo://app?vid=4322112d-c1cc-4652-adc8-a2af43931945"},"vehicle_type_id":"4","last_reported":1685358343,"current_range_meters":29600,"station_id":"ce4bh692rcd13ifvqe90","pricing_plan_id":"free"},{"bike_id":"9fb30e72-47b9-4cd5-8463-eeabef8092b4","system_id":"levelo_inurba_marseille","lat":43.290357,"lon":5.375613,"is_reserved":false,"is_disabled":false,"rental_uris":{"android":"levelo://app?vid=9fb30e72-47b9-4cd5-8463-eeabef8092b4","ios":"levelo://app?vid=9fb30e72-47b9-4cd5-8463-eeabef8092b4"},"vehicle_type_id":"4","last_reported":1685358343,"current_range_meters":19200,"station_id":"","pricing_plan_id":"free"},{"bike_id":"3aa3965d-1756-4c94-95c0-26bb9ffcc0fb","system_id":"levelo_inurba_marseille","lat":43.29417,"lon":5.38628,"is_reserved":false,"is_disabled":false,"rental_uris":{"android":"levelo://app?vid=3aa3965d-1756-4c94-95c0-26bb9ffcc0fb","ios":"levelo://app?vid=3aa3965d-1756-4c94-95c0-26bb9ffcc0fb"},"vehicle_type_id":"4","last_reported":1685358343,"current_range_meters":22800,"station_id":"ce4bh2h2rcd13ifvqdh0","pricing_plan_id":"free"},{"bike_id":"2b6f985a-d1f7-41fe-94d1-c9962a8a8c3c","system_id":"levelo_inurba_marseille","lat":43.29269,"lon":5.38435,"is_reserved":false,"is_disabled":false,"rental_uris":{"android":"levelo://app?vid=2b6f985a-d1f7-41fe-94d1-c9962a8a8c3c","ios":"levelo://app?vid=2b6f985a-d1f7-41fe-94d1-c9962a8a8c3c"},"vehicle_type_id":"4","last_reported":1685358343,"current_range_meters":4000,"station_id":"ce4bh692rcd13ifvqea0","pricing_plan_id":"free"},{"bike_id":"48de1c9a-024f-4171-97fe-f1514cf31e4a","system_id":"levelo_inurba_marseille","lat":43.29269,"lon":5.38437,"is_reserved":false,"is_disabled":false,"rental_uris":{"android":"levelo://app?vid=48de1c9a-024f-4171-97fe-f1514cf31e4a","ios":"levelo://app?vid=48de1c9a-024f-4171-97fe-f1514cf31e4a"},"vehicle_type_id":"4","last_reported":1685358343,"current_range_meters":16000,"station_id":"ce4bh692rcd13ifvqea0","pricing_plan_id":"free"},{"bike_id":"0a0d47a2-bedb-453f-bd06-05120ea0af5b","system_id":"levelo_inurba_marseille","lat":43.304274,"lon":5.397513,"is_reserved":false,"is_disabled":false,"rental_uris":{"android":"levelo://app?vid=0a0d47a2-bedb-453f-bd06-05120ea0af5b","ios":"levelo://app?vid=0a0d47a2-bedb-453f-bd06-05120ea0af5b"},"vehicle_type_id":"4","last_reported":1685358343,"current_range_meters":27600,"station_id":"ce4bh092rcd13ifvqd20","pricing_plan_id":"free"},{"bike_id":"c7cbaa21-8706-48b7-a47b-8f33fa55a152","system_id":"levelo_inurba_marseille","lat":43.33041,"lon":5.38919,"is_reserved":false,"is_disabled":false,"rental_uris":{"android":"levelo://app?vid=c7cbaa21-8706-48b7-a47b-8f33fa55a152","ios":"levelo://app?vid=c7cbaa21-8706-48b7-a47b-8f33fa55a152"},"vehicle_type_id":"4","last_reported":1685358343,"current_range_meters":23200,"station_id":"ce4bhr92rcd13ifvqhrg","pricing_plan_id":"free"},{"bike_id":"81ac4ef6-594f-4d22-896f-7eab649c1a02","system_id":"levelo_inurba_marseille","lat":43.290104,"lon":5.356111,"is_reserved":false,"is_disabled":false,"rental_uris":{"android":"levelo://app?vid=81ac4ef6-594f-4d22-896f-7eab649c1a02","ios":"levelo://app?vid=81ac4ef6-594f-4d22-896f-7eab649c1a02"},"vehicle_type_id":"4","last_reported":1685358343,"current_range_meters":14000,"station_id":"ce4bhb92rcd13ifvqen0","pricing_plan_id":"free"},{"bike_id":"3432a8ff-bd0c-48d0-a4c7-03cd6f20ab76","system_id":"levelo_inurba_marseille","lat":43.290103,"lon":5.356114,"is_reserved":false,"is_disabled":false,"rental_uris":{"android":"levelo://app?vid=3432a8ff-bd0c-48d0-a4c7-03cd6f20ab76","ios":"levelo://app?vid=3432a8ff-bd0c-48d0-a4c7-03cd6f20ab76"},"vehicle_type_id":"4","last_reported":1685358343,"current_range_meters":27200,"station_id":"ce4bhb92rcd13ifvqen0","pricing_plan_id":"free"},{"bike_id":"4a561aba-6723-4c8c-a7af-3ea83a0ece4e","system_id":"levelo_inurba_marseille","lat":43.290995,"lon":5.381361,"is_reserved":false,"is_disabled":false,"rental_uris":{"android":"levelo://app?vid=4a561aba-6723-4c8c-a7af-3ea83a0ece4e","ios":"levelo://app?vid=4a561aba-6723-4c8c-a7af-3ea83a0ece4e"},"vehicle_type_id":"4","last_reported":1685358343,"current_range_meters":30800,"station_id":"ce4bh512rcd13ifvqe2g","pricing_plan_id":"free"},{"bike_id":"e82a8b6a-2893-488d-943d-655ca57f5727","system_id":"levelo_inurba_marseille","lat":43.29529,"lon":5.39031,"is_reserved":false,"is_disabled":false,"rental_uris":{"android":"levelo://app?vid=e82a8b6a-2893-488d-943d-655ca57f5727","ios":"levelo://app?vid=e82a8b6a-2893-488d-943d-655ca57f5727"},"vehicle_type_id":"4","last_reported":1685358343,"current_range_meters":24400,"station_id":"ce4bh3p2rcd13ifvqdp0","pricing_plan_id":"free"},{"bike_id":"28723b81-c1c2-4b6e-896c-c65e25ded3f3","system_id":"levelo_inurba_marseille","lat":43.2901,"lon":5.381269,"is_reserved":false,"is_disabled":false,"rental_uris":{"android":"levelo://app?vid=28723b81-c1c2-4b6e-896c-c65e25ded3f3","ios":"levelo://app?vid=28723b81-c1c2-4b6e-896c-c65e25ded3f3"},"vehicle_type_id":"4","last_reported":1685358343,"current_range_meters":31600,"station_id":"ce4bh4p2rcd13ifvqe1g","pricing_plan_id":"free"},{"bike_id":"0bcbd777-4880-4377-a225-72d25f53876f","system_id":"levelo_inurba_marseille","lat":43.28856,"lon":5.358371,"is_reserved":false,"is_disabled":false,"rental_uris":{"android":"levelo://app?vid=0bcbd777-4880-4377-a225-72d25f53876f","ios":"levelo://app?vid=0bcbd777-4880-4377-a225-72d25f53876f"},"vehicle_type_id":"4","last_reported":1685358343,"current_range_meters":22400,"station_id":"ce4bhb12rcd13ifvqem0","pricing_plan_id":"free"},{"bike_id":"ee86e337-a675-41ab-b8ec-7730cc973484","system_id":"levelo_inurba_marseille","lat":43.28856,"lon":5.358371,"is_reserved":false,"is_disabled":false,"rental_uris":{"android":"levelo://app?vid=ee86e337-a675-41ab-b8ec-7730cc973484","ios":"levelo://app?vid=ee86e337-a675-41ab-b8ec-7730cc973484"},"vehicle_type_id":"4","last_reported":1685358343,"current_range_meters":26800,"station_id":"ce4bhb12rcd13ifvqem0","pricing_plan_id":"free"},{"bike_id":"141c14ea-594b-43ee-894e-8c44af1dcd73","system_id":"levelo_inurba_marseille","lat":43.33739,"lon":5.37447,"is_reserved":false,"is_disabled":false,"rental_uris":{"android":"levelo://app?vid=141c14ea-594b-43ee-894e-8c44af1dcd73","ios":"levelo://app?vid=141c14ea-594b-43ee-894e-8c44af1dcd73"},"vehicle_type_id":"4","last_reported":1685358343,"current_range_meters":30400,"station_id":"","pricing_plan_id":"free"},{"bike_id":"493860ce-e063-4684-ab33-c360eaf64153","system_id":"levelo_inurba_marseille","lat":43.33744,"lon":5.37451,"is_reserved":false,"is_disabled":false,"rental_uris":{"android":"levelo://app?vid=493860ce-e063-4684-ab33-c360eaf64153","ios":"levelo://app?vid=493860ce-e063-4684-ab33-c360eaf64153"},"vehicle_type_id":"4","last_reported":1685358343,"current_range_meters":14800,"station_id":"","pricing_plan_id":"free"},{"bike_id":"c67b547c-3fcb-4384-8614-e15f558fec55","system_id":"levelo_inurba_marseille","lat":43.33744,"lon":5.37451,"is_reserved":false,"is_disabled":false,"rental_uris":{"android":"levelo://app?vid=c67b547c-3fcb-4384-8614-e15f558fec55","ios":"levelo://app?vid=c67b547c-3fcb-4384-8614-e15f558fec55"},"vehicle_type_id":"4","last_reported":1685358343,"current_range_meters":23600,"station_id":"","pricing_plan_id":"free"},{"bike_id":"556c6db1-2600-4c2b-9521-aae8453517c1","system_id":"levelo_inurba_marseille","lat":43.33756,"lon":5.37451,"is_reserved":false,"is_disabled":false,"rental_uris":{"android":"levelo://app?vid=556c6db1-2600-4c2b-9521-aae8453517c1","ios":"levelo://app?vid=556c6db1-2600-4c2b-9521-aae8453517c1"},"vehicle_type_id":"4","last_reported":1685358343,"current_range_meters":10400,"station_id":"","pricing_plan_id":"free"},{"bike_id":"88082252-2d00-4fd7-abd5-5c2572b70b6a","system_id":"levelo_inurba_marseille","lat":43.3376,"lon":5.37435,"is_reserved":false,"is_disabled":false,"rental_uris":{"android":"levelo://app?vid=88082252-2d00-4fd7-abd5-5c2572b70b6a","ios":"levelo://app?vid=88082252-2d00-4fd7-abd5-5c2572b70b6a"},"vehicle_type_id":"4","last_reported":1685358343,"current_range_meters":30000,"station_id":"","pricing_plan_id":"free"},{"bike_id":"7d9ce697-c49a-4b8c-860d-4a4a11bcc354","system_id":"levelo_inurba_marseille","lat":43.33767,"lon":5.3741,"is_reserved":false,"is_disabled":false,"rental_uris":{"android":"levelo://app?vid=7d9ce697-c49a-4b8c-860d-4a4a11bcc354","ios":"levelo://app?vid=7d9ce697-c49a-4b8c-860d-4a4a11bcc354"},"vehicle_type_id":"4","last_reported":1685358343,"current_range_meters":28400,"station_id":"","pricing_plan_id":"free"},{"bike_id":"eb12f086-6062-4eac-a369-73014a3e7da4","system_id":"levelo_inurba_marseille","lat":43.30642,"lon":5.401031,"is_reserved":false,"is_disabled":false,"rental_uris":{"android":"levelo://app?vid=eb12f086-6062-4eac-a369-73014a3e7da4","ios":"levelo://app?vid=eb12f086-6062-4eac-a369-73014a3e7da4"},"vehicle_type_id":"4","last_reported":1685358343,"current_range_meters":24400,"station_id":"ce4bh112rcd13ifvqda0","pricing_plan_id":"free"},{"bike_id":"5aaf445f-f097-4041-99e9-0b2edc8a39b1","system_id":"levelo_inurba_marseille","lat":43.33765,"lon":5.3744,"is_reserved":false,"is_disabled":false,"rental_uris":{"android":"levelo://app?vid=5aaf445f-f097-4041-99e9-0b2edc8a39b1","ios":"levelo://app?vid=5aaf445f-f097-4041-99e9-0b2edc8a39b1"},"vehicle_type_id":"4","last_reported":1685358343,"current_range_meters":30000,"station_id":"","pricing_plan_id":"free"},{"bike_id":"ca3b78e7-da7d-44ef-a75d-823eb602c33e","system_id":"levelo_inurba_marseille","lat":43.30642,"lon":5.401031,"is_reserved":false,"is_disabled":false,"rental_uris":{"android":"levelo://app?vid=ca3b78e7-da7d-44ef-a75d-823eb602c33e","ios":"levelo://app?vid=ca3b78e7-da7d-44ef-a75d-823eb602c33e"},"vehicle_type_id":"4","last_reported":1685358343,"current_range_meters":18000,"station_id":"ce4bh112rcd13ifvqda0","pricing_plan_id":"free"},{"bike_id":"977733d9-2e12-465a-98d9-c94fc2a4483f","system_id":"levelo_inurba_marseille","lat":43.28701,"lon":5.37387,"is_reserved":false,"is_disabled":false,"rental_uris":{"android":"levelo://app?vid=977733d9-2e12-465a-98d9-c94fc2a4483f","ios":"levelo://app?vid=977733d9-2e12-465a-98d9-c94fc2a4483f"},"vehicle_type_id":"4","last_reported":1685358343,"current_range_meters":6000,"station_id":"","pricing_plan_id":"free"},{"bike_id":"0962b93f-8f41-4169-9e25-43a52897d107","system_id":"levelo_inurba_marseille","lat":43.286593,"lon":5.363346,"is_reserved":false,"is_disabled":false,"rental_uris":{"android":"levelo://app?vid=0962b93f-8f41-4169-9e25-43a52897d107","ios":"levelo://app?vid=0962b93f-8f41-4169-9e25-43a52897d107"},"vehicle_type_id":"4","last_reported":1685358343,"current_range_meters":10400,"station_id":"ce4bhah2rcd13ifvqej0","pricing_plan_id":"free"},{"bike_id":"3d0cfd1a-6c53-4b99-bb06-b17cff1584c5","system_id":"levelo_inurba_marseille","lat":43.291994,"lon":5.392907,"is_reserved":false,"is_disabled":false,"rental_uris":{"android":"levelo://app?vid=3d0cfd1a-6c53-4b99-bb06-b17cff1584c5","ios":"levelo://app?vid=3d0cfd1a-6c53-4b99-bb06-b17cff1584c5"},"vehicle_type_id":"4","last_reported":1685358343,"current_range_meters":21200,"station_id":"ce4bh192rcd13ifvqdd0","pricing_plan_id":"free"},{"bike_id":"250a7466-1aa2-4085-8271-de65b16e5004","system_id":"levelo_inurba_marseille","lat":43.284534,"lon":5.358662,"is_reserved":false,"is_disabled":false,"rental_uris":{"android":"levelo://app?vid=250a7466-1aa2-4085-8271-de65b16e5004","ios":"levelo://app?vid=250a7466-1aa2-4085-8271-de65b16e5004"},"vehicle_type_id":"4","last_reported":1685358343,"current_range_meters":16000,"station_id":"ce4bhah2rcd13ifvqei0","pricing_plan_id":"free"},{"bike_id":"573714b0-62b5-4180-8604-f1ddfc298e6b","system_id":"levelo_inurba_marseille","lat":43.284534,"lon":5.358662,"is_reserved":false,"is_disabled":false,"rental_uris":{"android":"levelo://app?vid=573714b0-62b5-4180-8604-f1ddfc298e6b","ios":"levelo://app?vid=573714b0-62b5-4180-8604-f1ddfc298e6b"},"vehicle_type_id":"4","last_reported":1685358343,"current_range_meters":0,"station_id":"ce4bhah2rcd13ifvqei0","pricing_plan_id":"free"},{"bike_id":"54c05652-49de-43f6-b4c9-fbf1d6119344","system_id":"levelo_inurba_marseille","lat":43.28618,"lon":5.35103,"is_reserved":false,"is_disabled":false,"rental_uris":{"android":"levelo://app?vid=54c05652-49de-43f6-b4c9-fbf1d6119344","ios":"levelo://app?vid=54c05652-49de-43f6-b4c9-fbf1d6119344"},"vehicle_type_id":"4","last_reported":1685358343,"current_range_meters":29200,"station_id":"","pricing_plan_id":"free"},{"bike_id":"7d0ce5b7-7c22-4977-a515-21bdbacf9a39","system_id":"levelo_inurba_marseille","lat":43.2862,"lon":5.35096,"is_reserved":false,"is_disabled":false,"rental_uris":{"android":"levelo://app?vid=7d0ce5b7-7c22-4977-a515-21bdbacf9a39","ios":"levelo://app?vid=7d0ce5b7-7c22-4977-a515-21bdbacf9a39"},"vehicle_type_id":"4","last_reported":1685358343,"current_range_meters":10000,"station_id":"","pricing_plan_id":"free"},{"bike_id":"26c9141e-1e63-4741-9e6e-1d6a42ac54f0","system_id":"levelo_inurba_marseille","lat":43.285856,"lon":5.350771,"is_reserved":false,"is_disabled":false,"rental_uris":{"android":"levelo://app?vid=26c9141e-1e63-4741-9e6e-1d6a42ac54f0","ios":"levelo://app?vid=26c9141e-1e63-4741-9e6e-1d6a42ac54f0"},"vehicle_type_id":"4","last_reported":1685358343,"current_range_meters":20800,"station_id":"ce4bhch2rcd13ifvqeug","pricing_plan_id":"free"},{"bike_id":"315611b6-0de4-4557-ae14-aa4f56a40418","system_id":"levelo_inurba_marseille","lat":43.28615,"lon":5.35106,"is_reserved":false,"is_disabled":false,"rental_uris":{"android":"levelo://app?vid=315611b6-0de4-4557-ae14-aa4f56a40418","ios":"levelo://app?vid=315611b6-0de4-4557-ae14-aa4f56a40418"},"vehicle_type_id":"4","last_reported":1685358343,"current_range_meters":25200,"station_id":"","pricing_plan_id":"free"},{"bike_id":"401123a3-5c3b-4953-9cf4-c80dbbae5696","system_id":"levelo_inurba_marseille","lat":43.28615,"lon":5.351,"is_reserved":false,"is_disabled":false,"rental_uris":{"android":"levelo://app?vid=401123a3-5c3b-4953-9cf4-c80dbbae5696","ios":"levelo://app?vid=401123a3-5c3b-4953-9cf4-c80dbbae5696"},"vehicle_type_id":"4","last_reported":1685358343,"current_range_meters":31200,"station_id":"","pricing_plan_id":"free"},{"bike_id":"5851205b-55f1-41a3-af49-480741ab379f","system_id":"levelo_inurba_marseille","lat":43.28613,"lon":5.35103,"is_reserved":false,"is_disabled":false,"rental_uris":{"android":"levelo://app?vid=5851205b-55f1-41a3-af49-480741ab379f","ios":"levelo://app?vid=5851205b-55f1-41a3-af49-480741ab379f"},"vehicle_type_id":"4","last_reported":1685358343,"current_range_meters":15600,"station_id":"","pricing_plan_id":"free"},{"bike_id":"5def35d2-320b-4ffd-922c-4d28df7eed1f","system_id":"levelo_inurba_marseille","lat":43.28611,"lon":5.35104,"is_reserved":false,"is_disabled":false,"rental_uris":{"android":"levelo://app?vid=5def35d2-320b-4ffd-922c-4d28df7eed1f","ios":"levelo://app?vid=5def35d2-320b-4ffd-922c-4d28df7eed1f"},"vehicle_type_id":"4","last_reported":1685358343,"current_range_meters":29200,"station_id":"","pricing_plan_id":"free"},{"bike_id":"da9effe7-7220-4083-a1c7-40b812d48134","system_id":"levelo_inurba_marseille","lat":43.286595,"lon":5.386795,"is_reserved":false,"is_disabled":false,"rental_uris":{"android":"levelo://app?vid=da9effe7-7220-4083-a1c7-40b812d48134","ios":"levelo://app?vid=da9effe7-7220-4083-a1c7-40b812d48134"},"vehicle_type_id":"4","last_reported":1685358343,"current_range_meters":8000,"station_id":"ce4bh492rcd13ifvqdug","pricing_plan_id":"free"},{"bike_id":"be810c22-38ad-4976-abb6-d65d09b47e48","system_id":"levelo_inurba_marseille","lat":43.28476,"lon":5.38418,"is_reserved":false,"is_disabled":false,"rental_uris":{"android":"levelo://app?vid=be810c22-38ad-4976-abb6-d65d09b47e48","ios":"levelo://app?vid=be810c22-38ad-4976-abb6-d65d09b47e48"},"vehicle_type_id":"4","last_reported":1685358343,"current_range_meters":31200,"station_id":"","pricing_plan_id":"free"},{"bike_id":"7f26a831-ef87-4067-ae81-e01f335dc546","system_id":"levelo_inurba_marseille","lat":43.284219,"lon":5.3497,"is_reserved":false,"is_disabled":false,"rental_uris":{"android":"levelo://app?vid=7f26a831-ef87-4067-ae81-e01f335dc546","ios":"levelo://app?vid=7f26a831-ef87-4067-ae81-e01f335dc546"},"vehicle_type_id":"4","last_reported":1685358343,"current_range_meters":31200,"station_id":"ce4bhbh2rcd13ifvqepg","pricing_plan_id":"free"},{"bike_id":"4c366bb2-b002-4ae1-818e-6364d17b0af7","system_id":"levelo_inurba_marseille","lat":43.28424,"lon":5.35005,"is_reserved":false,"is_disabled":false,"rental_uris":{"android":"levelo://app?vid=4c366bb2-b002-4ae1-818e-6364d17b0af7","ios":"levelo://app?vid=4c366bb2-b002-4ae1-818e-6364d17b0af7"},"vehicle_type_id":"4","last_reported":1685358343,"current_range_meters":26000,"station_id":"ce4bhbh2rcd13ifvqepg","pricing_plan_id":"free"},{"bike_id":"ce429d90-d737-4307-a97c-9bef8896c4f3","system_id":"levelo_inurba_marseille","lat":43.284219,"lon":5.3497,"is_reserved":false,"is_disabled":false,"rental_uris":{"android":"levelo://app?vid=ce429d90-d737-4307-a97c-9bef8896c4f3","ios":"levelo://app?vid=ce429d90-d737-4307-a97c-9bef8896c4f3"},"vehicle_type_id":"4","last_reported":1685358343,"current_range_meters":31600,"station_id":"ce4bhbh2rcd13ifvqepg","pricing_plan_id":"free"},{"bike_id":"6aa63b05-16a0-4a87-a1fb-a3f95acee867","system_id":"levelo_inurba_marseille","lat":43.284219,"lon":5.3497,"is_reserved":false,"is_disabled":false,"rental_uris":{"android":"levelo://app?vid=6aa63b05-16a0-4a87-a1fb-a3f95acee867","ios":"levelo://app?vid=6aa63b05-16a0-4a87-a1fb-a3f95acee867"},"vehicle_type_id":"4","last_reported":1685358343,"current_range_meters":31600,"station_id":"ce4bhbh2rcd13ifvqepg","pricing_plan_id":"free"},{"bike_id":"5f581570-a5ac-49b3-a9ce-22540a19a64a","system_id":"levelo_inurba_marseille","lat":43.284219,"lon":5.3497,"is_reserved":false,"is_disabled":false,"rental_uris":{"android":"levelo://app?vid=5f581570-a5ac-49b3-a9ce-22540a19a64a","ios":"levelo://app?vid=5f581570-a5ac-49b3-a9ce-22540a19a64a"},"vehicle_type_id":"4","last_reported":1685358343,"current_range_meters":31600,"station_id":"ce4bhbh2rcd13ifvqepg","pricing_plan_id":"free"},{"bike_id":"997aad4a-7a02-4932-9d5e-12ffcda6a693","system_id":"levelo_inurba_marseille","lat":43.2842,"lon":5.34999,"is_reserved":false,"is_disabled":false,"rental_uris":{"android":"levelo://app?vid=997aad4a-7a02-4932-9d5e-12ffcda6a693","ios":"levelo://app?vid=997aad4a-7a02-4932-9d5e-12ffcda6a693"},"vehicle_type_id":"4","last_reported":1685358343,"current_range_meters":31200,"station_id":"ce4bhbh2rcd13ifvqepg","pricing_plan_id":"free"},{"bike_id":"2caacb22-a7eb-40bb-987f-cd0b70a54b54","system_id":"levelo_inurba_marseille","lat":43.28422,"lon":5.3499,"is_reserved":false,"is_disabled":false,"rental_uris":{"android":"levelo://app?vid=2caacb22-a7eb-40bb-987f-cd0b70a54b54","ios":"levelo://app?vid=2caacb22-a7eb-40bb-987f-cd0b70a54b54"},"vehicle_type_id":"4","last_reported":1685358343,"current_range_meters":26800,"station_id":"ce4bhbh2rcd13ifvqepg","pricing_plan_id":"free"},{"bike_id":"8814a642-7f18-4f8b-b81b-f4474527ccb2","system_id":"levelo_inurba_marseille","lat":43.284219,"lon":5.3497,"is_reserved":false,"is_disabled":false,"rental_uris":{"android":"levelo://app?vid=8814a642-7f18-4f8b-b81b-f4474527ccb2","ios":"levelo://app?vid=8814a642-7f18-4f8b-b81b-f4474527ccb2"},"vehicle_type_id":"4","last_reported":1685358343,"current_range_meters":26800,"station_id":"ce4bhbh2rcd13ifvqepg","pricing_plan_id":"free"},{"bike_id":"29d7446f-c944-45de-bdc4-3c5a2425a5f8","system_id":"levelo_inurba_marseille","lat":43.284219,"lon":5.3497,"is_reserved":false,"is_disabled":false,"rental_uris":{"android":"levelo://app?vid=29d7446f-c944-45de-bdc4-3c5a2425a5f8","ios":"levelo://app?vid=29d7446f-c944-45de-bdc4-3c5a2425a5f8"},"vehicle_type_id":"4","last_reported":1685358343,"current_range_meters":14400,"station_id":"ce4bhbh2rcd13ifvqepg","pricing_plan_id":"free"},{"bike_id":"c00bf755-034a-4160-914f-cd8a1035af91","system_id":"levelo_inurba_marseille","lat":43.284217,"lon":5.349697,"is_reserved":false,"is_disabled":false,"rental_uris":{"android":"levelo://app?vid=c00bf755-034a-4160-914f-cd8a1035af91","ios":"levelo://app?vid=c00bf755-034a-4160-914f-cd8a1035af91"},"vehicle_type_id":"4","last_reported":1685358343,"current_range_meters":31200,"station_id":"ce4bhbh2rcd13ifvqepg","pricing_plan_id":"free"},{"bike_id":"75028646-017f-4646-ad2f-729306ba47bb","system_id":"levelo_inurba_marseille","lat":43.28415,"lon":5.34994,"is_reserved":false,"is_disabled":false,"rental_uris":{"android":"levelo://app?vid=75028646-017f-4646-ad2f-729306ba47bb","ios":"levelo://app?vid=75028646-017f-4646-ad2f-729306ba47bb"},"vehicle_type_id":"4","last_reported":1685358343,"current_range_meters":22000,"station_id":"ce4bhbh2rcd13ifvqepg","pricing_plan_id":"free"},{"bike_id":"d2db65d7-9efb-48b5-b5a2-8b62a8020a82","system_id":"levelo_inurba_marseille","lat":43.284219,"lon":5.3497,"is_reserved":false,"is_disabled":false,"rental_uris":{"android":"levelo://app?vid=d2db65d7-9efb-48b5-b5a2-8b62a8020a82","ios":"levelo://app?vid=d2db65d7-9efb-48b5-b5a2-8b62a8020a82"},"vehicle_type_id":"4","last_reported":1685358343,"current_range_meters":22000,"station_id":"ce4bhbh2rcd13ifvqepg","pricing_plan_id":"free"},{"bike_id":"c3958a18-3025-47f7-97b0-e6656a98467c","system_id":"levelo_inurba_marseille","lat":43.28413,"lon":5.3499,"is_reserved":false,"is_disabled":false,"rental_uris":{"android":"levelo://app?vid=c3958a18-3025-47f7-97b0-e6656a98467c","ios":"levelo://app?vid=c3958a18-3025-47f7-97b0-e6656a98467c"},"vehicle_type_id":"4","last_reported":1685358343,"current_range_meters":25200,"station_id":"ce4bhbh2rcd13ifvqepg","pricing_plan_id":"free"},{"bike_id":"16bdcfa4-c26d-4e5e-b703-5bc1ece73311","system_id":"levelo_inurba_marseille","lat":43.284219,"lon":5.3497,"is_reserved":false,"is_disabled":false,"rental_uris":{"android":"levelo://app?vid=16bdcfa4-c26d-4e5e-b703-5bc1ece73311","ios":"levelo://app?vid=16bdcfa4-c26d-4e5e-b703-5bc1ece73311"},"vehicle_type_id":"4","last_reported":1685358343,"current_range_meters":28000,"station_id":"ce4bhbh2rcd13ifvqepg","pricing_plan_id":"free"},{"bike_id":"64732a70-fce7-4154-a8c9-9672eb72f483","system_id":"levelo_inurba_marseille","lat":43.284219,"lon":5.3497,"is_reserved":false,"is_disabled":false,"rental_uris":{"android":"levelo://app?vid=64732a70-fce7-4154-a8c9-9672eb72f483","ios":"levelo://app?vid=64732a70-fce7-4154-a8c9-9672eb72f483"},"vehicle_type_id":"4","last_reported":1685358343,"current_range_meters":28400,"station_id":"ce4bhbh2rcd13ifvqepg","pricing_plan_id":"free"},{"bike_id":"1fd8816e-300f-47eb-bcce-f832757e13a3","system_id":"levelo_inurba_marseille","lat":43.28415,"lon":5.34977,"is_reserved":false,"is_disabled":false,"rental_uris":{"android":"levelo://app?vid=1fd8816e-300f-47eb-bcce-f832757e13a3","ios":"levelo://app?vid=1fd8816e-300f-47eb-bcce-f832757e13a3"},"vehicle_type_id":"4","last_reported":1685358343,"current_range_meters":3200,"station_id":"ce4bhbh2rcd13ifvqepg","pricing_plan_id":"free"},{"bike_id":"9567ff1b-9bc2-4bce-9b64-21f1a40c1ccb","system_id":"levelo_inurba_marseille","lat":43.284085,"lon":5.349702,"is_reserved":false,"is_disabled":false,"rental_uris":{"android":"levelo://app?vid=9567ff1b-9bc2-4bce-9b64-21f1a40c1ccb","ios":"levelo://app?vid=9567ff1b-9bc2-4bce-9b64-21f1a40c1ccb"},"vehicle_type_id":"4","last_reported":1685358343,"current_range_meters":20400,"station_id":"ce4bhbh2rcd13ifvqepg","pricing_plan_id":"free"},{"bike_id":"9b300d98-8ed5-4cdd-9add-7f7d560da12f","system_id":"levelo_inurba_marseille","lat":43.28276,"lon":5.35078,"is_reserved":false,"is_disabled":false,"rental_uris":{"android":"levelo://app?vid=9b300d98-8ed5-4cdd-9add-7f7d560da12f","ios":"levelo://app?vid=9b300d98-8ed5-4cdd-9add-7f7d560da12f"},"vehicle_type_id":"4","last_reported":1685358343,"current_range_meters":24400,"station_id":"ce4bhbp2rcd13ifvqerg","pricing_plan_id":"free"},{"bike_id":"75e88883-2bf0-4415-bbe5-b6f4fffd92b4","system_id":"levelo_inurba_marseille","lat":43.28374,"lon":5.38624,"is_reserved":false,"is_disabled":false,"rental_uris":{"android":"levelo://app?vid=75e88883-2bf0-4415-bbe5-b6f4fffd92b4","ios":"levelo://app?vid=75e88883-2bf0-4415-bbe5-b6f4fffd92b4"},"vehicle_type_id":"4","last_reported":1685358343,"current_range_meters":14400,"station_id":"","pricing_plan_id":"free"},{"bike_id":"c6d1ac23-8830-41b5-b69a-7756f780af46","system_id":"levelo_inurba_marseille","lat":43.282754,"lon":5.350519,"is_reserved":false,"is_disabled":false,"rental_uris":{"android":"levelo://app?vid=c6d1ac23-8830-41b5-b69a-7756f780af46","ios":"levelo://app?vid=c6d1ac23-8830-41b5-b69a-7756f780af46"},"vehicle_type_id":"4","last_reported":1685358343,"current_range_meters":31200,"station_id":"ce4bhbp2rcd13ifvqerg","pricing_plan_id":"free"},{"bike_id":"fba8e799-9e67-4b20-b8a9-bbfb077563ab","system_id":"levelo_inurba_marseille","lat":43.2827,"lon":5.35071,"is_reserved":false,"is_disabled":false,"rental_uris":{"android":"levelo://app?vid=fba8e799-9e67-4b20-b8a9-bbfb077563ab","ios":"levelo://app?vid=fba8e799-9e67-4b20-b8a9-bbfb077563ab"},"vehicle_type_id":"4","last_reported":1685358343,"current_range_meters":31200,"station_id":"ce4bhbp2rcd13ifvqerg","pricing_plan_id":"free"},{"bike_id":"99172a0d-909f-44ef-a03a-dd2959fce7d4","system_id":"levelo_inurba_marseille","lat":43.28273,"lon":5.35057,"is_reserved":false,"is_disabled":false,"rental_uris":{"android":"levelo://app?vid=99172a0d-909f-44ef-a03a-dd2959fce7d4","ios":"levelo://app?vid=99172a0d-909f-44ef-a03a-dd2959fce7d4"},"vehicle_type_id":"4","last_reported":1685358343,"current_range_meters":25600,"station_id":"ce4bhbp2rcd13ifvqerg","pricing_plan_id":"free"},{"bike_id":"3491d796-e454-4825-affc-cc9f1f780252","system_id":"levelo_inurba_marseille","lat":43.2827,"lon":5.35064,"is_reserved":false,"is_disabled":false,"rental_uris":{"android":"levelo://app?vid=3491d796-e454-4825-affc-cc9f1f780252","ios":"levelo://app?vid=3491d796-e454-4825-affc-cc9f1f780252"},"vehicle_type_id":"4","last_reported":1685358343,"current_range_meters":24000,"station_id":"ce4bhbp2rcd13ifvqerg","pricing_plan_id":"free"},{"bike_id":"a0e3d4cb-6282-41ed-81cb-64ff6cdf8713","system_id":"levelo_inurba_marseille","lat":43.28268,"lon":5.35059,"is_reserved":false,"is_disabled":false,"rental_uris":{"android":"levelo://app?vid=a0e3d4cb-6282-41ed-81cb-64ff6cdf8713","ios":"levelo://app?vid=a0e3d4cb-6282-41ed-81cb-64ff6cdf8713"},"vehicle_type_id":"4","last_reported":1685358343,"current_range_meters":23200,"station_id":"ce4bhbp2rcd13ifvqerg","pricing_plan_id":"free"},{"bike_id":"824d221b-5588-4248-8630-185fa4112b0e","system_id":"levelo_inurba_marseille","lat":43.28263,"lon":5.35073,"is_reserved":false,"is_disabled":false,"rental_uris":{"android":"levelo://app?vid=824d221b-5588-4248-8630-185fa4112b0e","ios":"levelo://app?vid=824d221b-5588-4248-8630-185fa4112b0e"},"vehicle_type_id":"4","last_reported":1685358343,"current_range_meters":30000,"station_id":"ce4bhbp2rcd13ifvqerg","pricing_plan_id":"free"},{"bike_id":"bef69c1d-f08b-4654-b794-f59e431f22d2","system_id":"levelo_inurba_marseille","lat":43.28266,"lon":5.3506,"is_reserved":false,"is_disabled":false,"rental_uris":{"android":"levelo://app?vid=bef69c1d-f08b-4654-b794-f59e431f22d2","ios":"levelo://app?vid=bef69c1d-f08b-4654-b794-f59e431f22d2"},"vehicle_type_id":"4","last_reported":1685358343,"current_range_meters":24000,"station_id":"ce4bhbp2rcd13ifvqerg","pricing_plan_id":"free"},{"bike_id":"208895ae-5ff6-4c45-b47f-179bda42d2b4","system_id":"levelo_inurba_marseille","lat":43.28266,"lon":5.35059,"is_reserved":false,"is_disabled":false,"rental_uris":{"android":"levelo://app?vid=208895ae-5ff6-4c45-b47f-179bda42d2b4","ios":"levelo://app?vid=208895ae-5ff6-4c45-b47f-179bda42d2b4"},"vehicle_type_id":"4","last_reported":1685358343,"current_range_meters":22400,"station_id":"ce4bhbp2rcd13ifvqerg","pricing_plan_id":"free"},{"bike_id":"0651c420-0366-4590-a892-741f3c670c8e","system_id":"levelo_inurba_marseille","lat":43.28265,"lon":5.35061,"is_reserved":false,"is_disabled":false,"rental_uris":{"android":"levelo://app?vid=0651c420-0366-4590-a892-741f3c670c8e","ios":"levelo://app?vid=0651c420-0366-4590-a892-741f3c670c8e"},"vehicle_type_id":"4","last_reported":1685358343,"current_range_meters":22400,"station_id":"ce4bhbp2rcd13ifvqerg","pricing_plan_id":"free"},{"bike_id":"f8a827df-ec6d-4d2f-86af-1a28e82607d8","system_id":"levelo_inurba_marseille","lat":43.28264,"lon":5.35056,"is_reserved":false,"is_disabled":false,"rental_uris":{"android":"levelo://app?vid=f8a827df-ec6d-4d2f-86af-1a28e82607d8","ios":"levelo://app?vid=f8a827df-ec6d-4d2f-86af-1a28e82607d8"},"vehicle_type_id":"4","last_reported":1685358343,"current_range_meters":20800,"station_id":"ce4bhbp2rcd13ifvqerg","pricing_plan_id":"free"},{"bike_id":"f9356aab-1a6b-4fb2-8af9-d5fa4e5779aa","system_id":"levelo_inurba_marseille","lat":43.28261,"lon":5.35064,"is_reserved":false,"is_disabled":false,"rental_uris":{"android":"levelo://app?vid=f9356aab-1a6b-4fb2-8af9-d5fa4e5779aa","ios":"levelo://app?vid=f9356aab-1a6b-4fb2-8af9-d5fa4e5779aa"},"vehicle_type_id":"4","last_reported":1685358343,"current_range_meters":25600,"station_id":"ce4bhbp2rcd13ifvqerg","pricing_plan_id":"free"},{"bike_id":"2451d83c-e75f-4cef-a806-334f0568bd84","system_id":"levelo_inurba_marseille","lat":43.28039,"lon":5.369297,"is_reserved":false,"is_disabled":false,"rental_uris":{"android":"levelo://app?vid=2451d83c-e75f-4cef-a806-334f0568bd84","ios":"levelo://app?vid=2451d83c-e75f-4cef-a806-334f0568bd84"},"vehicle_type_id":"4","last_reported":1685358343,"current_range_meters":29600,"station_id":"ce4bha12rcd13ifvqef0","pricing_plan_id":"free"},{"bike_id":"e2faf8af-30d8-4411-930b-c57b5ba3a627","system_id":"levelo_inurba_marseille","lat":43.280382,"lon":5.369291,"is_reserved":false,"is_disabled":false,"rental_uris":{"android":"levelo://app?vid=e2faf8af-30d8-4411-930b-c57b5ba3a627","ios":"levelo://app?vid=e2faf8af-30d8-4411-930b-c57b5ba3a627"},"vehicle_type_id":"4","last_reported":1685358343,"current_range_meters":29200,"station_id":"ce4bha12rcd13ifvqef0","pricing_plan_id":"free"},{"bike_id":"1581c907-b004-4d66-aa36-b4cd1bf3efd9","system_id":"levelo_inurba_marseille","lat":43.283502,"lon":5.386471,"is_reserved":false,"is_disabled":false,"rental_uris":{"android":"levelo://app?vid=1581c907-b004-4d66-aa36-b4cd1bf3efd9","ios":"levelo://app?vid=1581c907-b004-4d66-aa36-b4cd1bf3efd9"},"vehicle_type_id":"4","last_reported":1685358343,"current_range_meters":22800,"station_id":"ce4bh492rcd13ifvqdvg","pricing_plan_id":"free"},{"bike_id":"129e45c8-3318-4193-9346-9f8fe9f2f996","system_id":"levelo_inurba_marseille","lat":43.280382,"lon":5.369291,"is_reserved":false,"is_disabled":false,"rental_uris":{"android":"levelo://app?vid=129e45c8-3318-4193-9346-9f8fe9f2f996","ios":"levelo://app?vid=129e45c8-3318-4193-9346-9f8fe9f2f996"},"vehicle_type_id":"4","last_reported":1685358343,"current_range_meters":24000,"station_id":"ce4bha12rcd13ifvqef0","pricing_plan_id":"free"},{"bike_id":"0975d2ad-0ddf-4929-9b43-cdf7704dd335","system_id":"levelo_inurba_marseille","lat":43.281044,"lon":5.378308,"is_reserved":false,"is_disabled":false,"rental_uris":{"android":"levelo://app?vid=0975d2ad-0ddf-4929-9b43-cdf7704dd335","ios":"levelo://app?vid=0975d2ad-0ddf-4929-9b43-cdf7704dd335"},"vehicle_type_id":"4","last_reported":1685358343,"current_range_meters":25200,"station_id":"ce4bha12rcd13ifvqee0","pricing_plan_id":"free"},{"bike_id":"28f3d92a-5152-4128-8264-90c8ad05d962","system_id":"levelo_inurba_marseille","lat":43.281044,"lon":5.378308,"is_reserved":false,"is_disabled":false,"rental_uris":{"android":"levelo://app?vid=28f3d92a-5152-4128-8264-90c8ad05d962","ios":"levelo://app?vid=28f3d92a-5152-4128-8264-90c8ad05d962"},"vehicle_type_id":"4","last_reported":1685358343,"current_range_meters":27200,"station_id":"ce4bha12rcd13ifvqee0","pricing_plan_id":"free"},{"bike_id":"468cfd49-a198-4a7e-b95b-adcb7e4dd43b","system_id":"levelo_inurba_marseille","lat":43.281044,"lon":5.378308,"is_reserved":false,"is_disabled":false,"rental_uris":{"android":"levelo://app?vid=468cfd49-a198-4a7e-b95b-adcb7e4dd43b","ios":"levelo://app?vid=468cfd49-a198-4a7e-b95b-adcb7e4dd43b"},"vehicle_type_id":"4","last_reported":1685358343,"current_range_meters":28400,"station_id":"ce4bha12rcd13ifvqee0","pricing_plan_id":"free"},{"bike_id":"b00caf07-e0f3-44e9-9aa4-0218f00a36e2","system_id":"levelo_inurba_marseille","lat":43.281044,"lon":5.378308,"is_reserved":false,"is_disabled":false,"rental_uris":{"android":"levelo://app?vid=b00caf07-e0f3-44e9-9aa4-0218f00a36e2","ios":"levelo://app?vid=b00caf07-e0f3-44e9-9aa4-0218f00a36e2"},"vehicle_type_id":"4","last_reported":1685358343,"current_range_meters":27200,"station_id":"ce4bha12rcd13ifvqee0","pricing_plan_id":"free"},{"bike_id":"3b67bc6e-8944-4253-814b-a2f19dde0459","system_id":"levelo_inurba_marseille","lat":43.281044,"lon":5.378308,"is_reserved":false,"is_disabled":false,"rental_uris":{"android":"levelo://app?vid=3b67bc6e-8944-4253-814b-a2f19dde0459","ios":"levelo://app?vid=3b67bc6e-8944-4253-814b-a2f19dde0459"},"vehicle_type_id":"4","last_reported":1685358343,"current_range_meters":30800,"station_id":"ce4bha12rcd13ifvqee0","pricing_plan_id":"free"},{"bike_id":"9648b7e1-43de-4672-8a76-acfceb6ad43c","system_id":"levelo_inurba_marseille","lat":43.281044,"lon":5.378308,"is_reserved":false,"is_disabled":false,"rental_uris":{"android":"levelo://app?vid=9648b7e1-43de-4672-8a76-acfceb6ad43c","ios":"levelo://app?vid=9648b7e1-43de-4672-8a76-acfceb6ad43c"},"vehicle_type_id":"4","last_reported":1685358343,"current_range_meters":20800,"station_id":"ce4bha12rcd13ifvqee0","pricing_plan_id":"free"},{"bike_id":"a12d4cc1-e9c8-42a9-8cd0-c364b314138d","system_id":"levelo_inurba_marseille","lat":43.281044,"lon":5.378308,"is_reserved":false,"is_disabled":false,"rental_uris":{"android":"levelo://app?vid=a12d4cc1-e9c8-42a9-8cd0-c364b314138d","ios":"levelo://app?vid=a12d4cc1-e9c8-42a9-8cd0-c364b314138d"},"vehicle_type_id":"4","last_reported":1685358343,"current_range_meters":30400,"station_id":"ce4bha12rcd13ifvqee0","pricing_plan_id":"free"},{"bike_id":"f3d1e93a-06bf-47f5-a90c-48fd1b22448e","system_id":"levelo_inurba_marseille","lat":43.284462,"lon":5.392121,"is_reserved":false,"is_disabled":false,"rental_uris":{"android":"levelo://app?vid=f3d1e93a-06bf-47f5-a90c-48fd1b22448e","ios":"levelo://app?vid=f3d1e93a-06bf-47f5-a90c-48fd1b22448e"},"vehicle_type_id":"4","last_reported":1685358343,"current_range_meters":23200,"station_id":"ce4bhoh2rcd13ifvqh5g","pricing_plan_id":"free"},{"bike_id":"9ce6a1d3-42eb-4a92-a2ca-9a0a9d3387a7","system_id":"levelo_inurba_marseille","lat":43.2607,"lon":5.393983,"is_reserved":false,"is_disabled":false,"rental_uris":{"android":"levelo://app?vid=9ce6a1d3-42eb-4a92-a2ca-9a0a9d3387a7","ios":"levelo://app?vid=9ce6a1d3-42eb-4a92-a2ca-9a0a9d3387a7"},"vehicle_type_id":"4","last_reported":1685358343,"current_range_meters":26400,"station_id":"ce4bhh92rcd13ifvqfj0","pricing_plan_id":"free"},{"bike_id":"eb0a6d80-b782-4924-aa9f-98051f180f59","system_id":"levelo_inurba_marseille","lat":43.287154,"lon":5.399979,"is_reserved":false,"is_disabled":false,"rental_uris":{"android":"levelo://app?vid=eb0a6d80-b782-4924-aa9f-98051f180f59","ios":"levelo://app?vid=eb0a6d80-b782-4924-aa9f-98051f180f59"},"vehicle_type_id":"4","last_reported":1685358343,"current_range_meters":29200,"station_id":"ce4bho92rcd13ifvqh3g","pricing_plan_id":"free"},{"bike_id":"53fb2c61-bda0-4988-a6ed-781fa5bf11f1","system_id":"levelo_inurba_marseille","lat":43.287154,"lon":5.399979,"is_reserved":false,"is_disabled":false,"rental_uris":{"android":"levelo://app?vid=53fb2c61-bda0-4988-a6ed-781fa5bf11f1","ios":"levelo://app?vid=53fb2c61-bda0-4988-a6ed-781fa5bf11f1"},"vehicle_type_id":"4","last_reported":1685358343,"current_range_meters":400,"station_id":"ce4bho92rcd13ifvqh3g","pricing_plan_id":"free"},{"bike_id":"db1489de-a7c4-4c0f-8abf-73d0898bb77a","system_id":"levelo_inurba_marseille","lat":43.28172,"lon":5.39172,"is_reserved":false,"is_disabled":false,"rental_uris":{"android":"levelo://app?vid=db1489de-a7c4-4c0f-8abf-73d0898bb77a","ios":"levelo://app?vid=db1489de-a7c4-4c0f-8abf-73d0898bb77a"},"vehicle_type_id":"4","last_reported":1685358343,"current_range_meters":14800,"station_id":"","pricing_plan_id":"free"},{"bike_id":"a2e9cbfa-4b2b-4934-a99d-91122d833ef6","system_id":"levelo_inurba_marseille","lat":43.27615,"lon":5.36114,"is_reserved":false,"is_disabled":false,"rental_uris":{"android":"levelo://app?vid=a2e9cbfa-4b2b-4934-a99d-91122d833ef6","ios":"levelo://app?vid=a2e9cbfa-4b2b-4934-a99d-91122d833ef6"},"vehicle_type_id":"4","last_reported":1685358343,"current_range_meters":28400,"station_id":"ce4bgj92rcd13ifvqbe0","pricing_plan_id":"free"},{"bike_id":"eca66c1d-ae2c-4bc5-ae81-3fed2c4309c4","system_id":"levelo_inurba_marseille","lat":43.27614,"lon":5.361,"is_reserved":false,"is_disabled":false,"rental_uris":{"android":"levelo://app?vid=eca66c1d-ae2c-4bc5-ae81-3fed2c4309c4","ios":"levelo://app?vid=eca66c1d-ae2c-4bc5-ae81-3fed2c4309c4"},"vehicle_type_id":"4","last_reported":1685358343,"current_range_meters":25200,"station_id":"ce4bgj92rcd13ifvqbe0","pricing_plan_id":"free"},{"bike_id":"004f8bed-ab50-46b6-907f-a5000d115a28","system_id":"levelo_inurba_marseille","lat":43.27613,"lon":5.3611,"is_reserved":false,"is_disabled":false,"rental_uris":{"android":"levelo://app?vid=004f8bed-ab50-46b6-907f-a5000d115a28","ios":"levelo://app?vid=004f8bed-ab50-46b6-907f-a5000d115a28"},"vehicle_type_id":"4","last_reported":1685358343,"current_range_meters":31200,"station_id":"ce4bgj92rcd13ifvqbe0","pricing_plan_id":"free"},{"bike_id":"3c23a1ba-2251-441d-bb72-cfe28ecee408","system_id":"levelo_inurba_marseille","lat":43.27612,"lon":5.36116,"is_reserved":false,"is_disabled":false,"rental_uris":{"android":"levelo://app?vid=3c23a1ba-2251-441d-bb72-cfe28ecee408","ios":"levelo://app?vid=3c23a1ba-2251-441d-bb72-cfe28ecee408"},"vehicle_type_id":"4","last_reported":1685358343,"current_range_meters":25200,"station_id":"ce4bgj92rcd13ifvqbe0","pricing_plan_id":"free"},{"bike_id":"ca6faf05-0f3b-4010-a2f1-8fb9acd54108","system_id":"levelo_inurba_marseille","lat":43.303837,"lon":5.418724,"is_reserved":false,"is_disabled":false,"rental_uris":{"android":"levelo://app?vid=ca6faf05-0f3b-4010-a2f1-8fb9acd54108","ios":"levelo://app?vid=ca6faf05-0f3b-4010-a2f1-8fb9acd54108"},"vehicle_type_id":"4","last_reported":1685358343,"current_range_meters":31200,"station_id":"ce4bhop2rcd13ifvqh7g","pricing_plan_id":"free"},{"bike_id":"cd50e38f-be01-4043-b35c-a9a528b15b22","system_id":"levelo_inurba_marseille","lat":43.27381,"lon":5.36253,"is_reserved":false,"is_disabled":false,"rental_uris":{"android":"levelo://app?vid=cd50e38f-be01-4043-b35c-a9a528b15b22","ios":"levelo://app?vid=cd50e38f-be01-4043-b35c-a9a528b15b22"},"vehicle_type_id":"4","last_reported":1685358343,"current_range_meters":21200,"station_id":"ce4bhbh2rcd13ifvqeo0","pricing_plan_id":"free"},{"bike_id":"4b518eea-3ade-417b-9f42-e5bc7ba9e638","system_id":"levelo_inurba_marseille","lat":43.273609,"lon":5.362708,"is_reserved":false,"is_disabled":false,"rental_uris":{"android":"levelo://app?vid=4b518eea-3ade-417b-9f42-e5bc7ba9e638","ios":"levelo://app?vid=4b518eea-3ade-417b-9f42-e5bc7ba9e638"},"vehicle_type_id":"4","last_reported":1685358343,"current_range_meters":31200,"station_id":"ce4bhbh2rcd13ifvqeo0","pricing_plan_id":"free"},{"bike_id":"6bac119f-7fdc-462a-b9aa-b2ea52a69389","system_id":"levelo_inurba_marseille","lat":43.2738,"lon":5.36254,"is_reserved":false,"is_disabled":false,"rental_uris":{"android":"levelo://app?vid=6bac119f-7fdc-462a-b9aa-b2ea52a69389","ios":"levelo://app?vid=6bac119f-7fdc-462a-b9aa-b2ea52a69389"},"vehicle_type_id":"4","last_reported":1685358343,"current_range_meters":22800,"station_id":"ce4bhbh2rcd13ifvqeo0","pricing_plan_id":"free"},{"bike_id":"97dbe8b9-b946-418b-ab88-f9014f8cda2a","system_id":"levelo_inurba_marseille","lat":43.273609,"lon":5.362708,"is_reserved":false,"is_disabled":false,"rental_uris":{"android":"levelo://app?vid=97dbe8b9-b946-418b-ab88-f9014f8cda2a","ios":"levelo://app?vid=97dbe8b9-b946-418b-ab88-f9014f8cda2a"},"vehicle_type_id":"4","last_reported":1685358343,"current_range_meters":12400,"station_id":"ce4bhbh2rcd13ifvqeo0","pricing_plan_id":"free"},{"bike_id":"5f8f222c-e693-48a6-8a92-dd5f7084e2f0","system_id":"levelo_inurba_marseille","lat":43.27377,"lon":5.36258,"is_reserved":false,"is_disabled":false,"rental_uris":{"android":"levelo://app?vid=5f8f222c-e693-48a6-8a92-dd5f7084e2f0","ios":"levelo://app?vid=5f8f222c-e693-48a6-8a92-dd5f7084e2f0"},"vehicle_type_id":"4","last_reported":1685358343,"current_range_meters":26000,"station_id":"ce4bhbh2rcd13ifvqeo0","pricing_plan_id":"free"},{"bike_id":"d5ef9f63-1c74-45bd-a165-7a5ea090c2c1","system_id":"levelo_inurba_marseille","lat":43.27377,"lon":5.36255,"is_reserved":false,"is_disabled":false,"rental_uris":{"android":"levelo://app?vid=d5ef9f63-1c74-45bd-a165-7a5ea090c2c1","ios":"levelo://app?vid=d5ef9f63-1c74-45bd-a165-7a5ea090c2c1"},"vehicle_type_id":"4","last_reported":1685358343,"current_range_meters":15200,"station_id":"ce4bhbh2rcd13ifvqeo0","pricing_plan_id":"free"},{"bike_id":"c8096ef5-1305-46e9-8a91-7bd6c46d8f8d","system_id":"levelo_inurba_marseille","lat":43.27376,"lon":5.36257,"is_reserved":false,"is_disabled":false,"rental_uris":{"android":"levelo://app?vid=c8096ef5-1305-46e9-8a91-7bd6c46d8f8d","ios":"levelo://app?vid=c8096ef5-1305-46e9-8a91-7bd6c46d8f8d"},"vehicle_type_id":"4","last_reported":1685358343,"current_range_meters":18400,"station_id":"ce4bhbh2rcd13ifvqeo0","pricing_plan_id":"free"},{"bike_id":"b17318f2-8ca9-44be-9033-bcc68967c998","system_id":"levelo_inurba_marseille","lat":43.27376,"lon":5.36246,"is_reserved":false,"is_disabled":false,"rental_uris":{"android":"levelo://app?vid=b17318f2-8ca9-44be-9033-bcc68967c998","ios":"levelo://app?vid=b17318f2-8ca9-44be-9033-bcc68967c998"},"vehicle_type_id":"4","last_reported":1685358343,"current_range_meters":25600,"station_id":"ce4bhbh2rcd13ifvqeo0","pricing_plan_id":"free"},{"bike_id":"90028714-f1a0-4dbd-8ede-050aa4b12b73","system_id":"levelo_inurba_marseille","lat":43.27375,"lon":5.36249,"is_reserved":false,"is_disabled":false,"rental_uris":{"android":"levelo://app?vid=90028714-f1a0-4dbd-8ede-050aa4b12b73","ios":"levelo://app?vid=90028714-f1a0-4dbd-8ede-050aa4b12b73"},"vehicle_type_id":"4","last_reported":1685358343,"current_range_meters":19600,"station_id":"ce4bhbh2rcd13ifvqeo0","pricing_plan_id":"free"},{"bike_id":"94023db1-6bb7-415c-8a3e-28a4f1a183de","system_id":"levelo_inurba_marseille","lat":43.27375,"lon":5.36245,"is_reserved":false,"is_disabled":false,"rental_uris":{"android":"levelo://app?vid=94023db1-6bb7-415c-8a3e-28a4f1a183de","ios":"levelo://app?vid=94023db1-6bb7-415c-8a3e-28a4f1a183de"},"vehicle_type_id":"4","last_reported":1685358343,"current_range_meters":20000,"station_id":"ce4bhbh2rcd13ifvqeo0","pricing_plan_id":"free"},{"bike_id":"c9479f6c-dd6a-43b7-86d1-59fddd68cfd8","system_id":"levelo_inurba_marseille","lat":43.27374,"lon":5.36252,"is_reserved":false,"is_disabled":false,"rental_uris":{"android":"levelo://app?vid=c9479f6c-dd6a-43b7-86d1-59fddd68cfd8","ios":"levelo://app?vid=c9479f6c-dd6a-43b7-86d1-59fddd68cfd8"},"vehicle_type_id":"4","last_reported":1685358343,"current_range_meters":28400,"station_id":"ce4bhbh2rcd13ifvqeo0","pricing_plan_id":"free"},{"bike_id":"cc916f88-18d3-47f7-bf5e-c1f2ba6bbdac","system_id":"levelo_inurba_marseille","lat":43.273609,"lon":5.362708,"is_reserved":false,"is_disabled":false,"rental_uris":{"android":"levelo://app?vid=cc916f88-18d3-47f7-bf5e-c1f2ba6bbdac","ios":"levelo://app?vid=cc916f88-18d3-47f7-bf5e-c1f2ba6bbdac"},"vehicle_type_id":"4","last_reported":1685358343,"current_range_meters":28400,"station_id":"ce4bhbh2rcd13ifvqeo0","pricing_plan_id":"free"},{"bike_id":"ff645cf7-de40-47c8-814d-b4e7df3d0296","system_id":"levelo_inurba_marseille","lat":43.273609,"lon":5.362708,"is_reserved":false,"is_disabled":false,"rental_uris":{"android":"levelo://app?vid=ff645cf7-de40-47c8-814d-b4e7df3d0296","ios":"levelo://app?vid=ff645cf7-de40-47c8-814d-b4e7df3d0296"},"vehicle_type_id":"4","last_reported":1685358343,"current_range_meters":31600,"station_id":"ce4bhbh2rcd13ifvqeo0","pricing_plan_id":"free"},{"bike_id":"85d6ab32-25ad-4a62-a946-120d0c3792d0","system_id":"levelo_inurba_marseille","lat":43.273609,"lon":5.362708,"is_reserved":false,"is_disabled":false,"rental_uris":{"android":"levelo://app?vid=85d6ab32-25ad-4a62-a946-120d0c3792d0","ios":"levelo://app?vid=85d6ab32-25ad-4a62-a946-120d0c3792d0"},"vehicle_type_id":"4","last_reported":1685358343,"current_range_meters":17200,"station_id":"ce4bhbh2rcd13ifvqeo0","pricing_plan_id":"free"},{"bike_id":"d054b701-a785-4512-9d2c-a2a2fd09829e","system_id":"levelo_inurba_marseille","lat":43.276771,"lon":5.388799,"is_reserved":false,"is_disabled":false,"rental_uris":{"android":"levelo://app?vid=d054b701-a785-4512-9d2c-a2a2fd09829e","ios":"levelo://app?vid=d054b701-a785-4512-9d2c-a2a2fd09829e"},"vehicle_type_id":"4","last_reported":1685358343,"current_range_meters":25600,"station_id":"ce4bhi12rcd13ifvqfo0","pricing_plan_id":"free"},{"bike_id":"91b49189-18df-431a-bbbf-f0b2350181de","system_id":"levelo_inurba_marseille","lat":43.2842,"lon":5.40802,"is_reserved":false,"is_disabled":false,"rental_uris":{"android":"levelo://app?vid=91b49189-18df-431a-bbbf-f0b2350181de","ios":"levelo://app?vid=91b49189-18df-431a-bbbf-f0b2350181de"},"vehicle_type_id":"4","last_reported":1685358343,"current_range_meters":3600,"station_id":"","pricing_plan_id":"free"},{"bike_id":"36248cfd-5559-4c03-b797-d1d0be3cf1df","system_id":"levelo_inurba_marseille","lat":43.317121,"lon":5.423936,"is_reserved":false,"is_disabled":false,"rental_uris":{"android":"levelo://app?vid=36248cfd-5559-4c03-b797-d1d0be3cf1df","ios":"levelo://app?vid=36248cfd-5559-4c03-b797-d1d0be3cf1df"},"vehicle_type_id":"4","last_reported":1685358343,"current_range_meters":8000,"station_id":"ce4bhp92rcd13ifvqhbg","pricing_plan_id":"free"},{"bike_id":"cc1cc54e-1a9a-49f4-a8bd-07697f28e60a","system_id":"levelo_inurba_marseille","lat":43.317121,"lon":5.423936,"is_reserved":false,"is_disabled":false,"rental_uris":{"android":"levelo://app?vid=cc1cc54e-1a9a-49f4-a8bd-07697f28e60a","ios":"levelo://app?vid=cc1cc54e-1a9a-49f4-a8bd-07697f28e60a"},"vehicle_type_id":"4","last_reported":1685358343,"current_range_meters":28400,"station_id":"ce4bhp92rcd13ifvqhbg","pricing_plan_id":"free"},{"bike_id":"6b586849-4cb2-4f0c-a6d8-7549b3a03b77","system_id":"levelo_inurba_marseille","lat":43.310785,"lon":5.424305,"is_reserved":false,"is_disabled":false,"rental_uris":{"android":"levelo://app?vid=6b586849-4cb2-4f0c-a6d8-7549b3a03b77","ios":"levelo://app?vid=6b586849-4cb2-4f0c-a6d8-7549b3a03b77"},"vehicle_type_id":"4","last_reported":1685358343,"current_range_meters":26000,"station_id":"ce4bhp92rcd13ifvqhag","pricing_plan_id":"free"},{"bike_id":"a6c5099f-fac0-4b23-86a2-4db6eeeb83ae","system_id":"levelo_inurba_marseille","lat":43.317121,"lon":5.423936,"is_reserved":false,"is_disabled":false,"rental_uris":{"android":"levelo://app?vid=a6c5099f-fac0-4b23-86a2-4db6eeeb83ae","ios":"levelo://app?vid=a6c5099f-fac0-4b23-86a2-4db6eeeb83ae"},"vehicle_type_id":"4","last_reported":1685358343,"current_range_meters":25200,"station_id":"ce4bhp92rcd13ifvqhbg","pricing_plan_id":"free"},{"bike_id":"1aa99106-6380-4167-a5ae-4a6e083874c9","system_id":"levelo_inurba_marseille","lat":43.310785,"lon":5.424305,"is_reserved":false,"is_disabled":false,"rental_uris":{"android":"levelo://app?vid=1aa99106-6380-4167-a5ae-4a6e083874c9","ios":"levelo://app?vid=1aa99106-6380-4167-a5ae-4a6e083874c9"},"vehicle_type_id":"4","last_reported":1685358343,"current_range_meters":26800,"station_id":"ce4bhp92rcd13ifvqhag","pricing_plan_id":"free"},{"bike_id":"b6fde87d-9380-4612-9856-6a4c15e474d5","system_id":"levelo_inurba_marseille","lat":43.310785,"lon":5.424305,"is_reserved":false,"is_disabled":false,"rental_uris":{"android":"levelo://app?vid=b6fde87d-9380-4612-9856-6a4c15e474d5","ios":"levelo://app?vid=b6fde87d-9380-4612-9856-6a4c15e474d5"},"vehicle_type_id":"4","last_reported":1685358343,"current_range_meters":30400,"station_id":"ce4bhp92rcd13ifvqhag","pricing_plan_id":"free"},{"bike_id":"872672c5-78e7-4a55-b0c6-4d682bfa5a42","system_id":"levelo_inurba_marseille","lat":43.27348,"lon":5.39071,"is_reserved":false,"is_disabled":false,"rental_uris":{"android":"levelo://app?vid=872672c5-78e7-4a55-b0c6-4d682bfa5a42","ios":"levelo://app?vid=872672c5-78e7-4a55-b0c6-4d682bfa5a42"},"vehicle_type_id":"4","last_reported":1685358343,"current_range_meters":14000,"station_id":"ce4bhi12rcd13ifvqfp0","pricing_plan_id":"free"},{"bike_id":"a836af40-09af-4eb0-8db9-1fc5b0f18843","system_id":"levelo_inurba_marseille","lat":43.27323,"lon":5.39095,"is_reserved":false,"is_disabled":false,"rental_uris":{"android":"levelo://app?vid=a836af40-09af-4eb0-8db9-1fc5b0f18843","ios":"levelo://app?vid=a836af40-09af-4eb0-8db9-1fc5b0f18843"},"vehicle_type_id":"4","last_reported":1685358343,"current_range_meters":0,"station_id":"ce4bhgp2rcd13ifvqfe0","pricing_plan_id":"free"},{"bike_id":"e0f428a4-3597-41e0-90dc-fa4ba8675ea8","system_id":"levelo_inurba_marseille","lat":43.304096,"lon":5.425385,"is_reserved":false,"is_disabled":false,"rental_uris":{"android":"levelo://app?vid=e0f428a4-3597-41e0-90dc-fa4ba8675ea8","ios":"levelo://app?vid=e0f428a4-3597-41e0-90dc-fa4ba8675ea8"},"vehicle_type_id":"4","last_reported":1685358343,"current_range_meters":7600,"station_id":"ce4bhoh2rcd13ifvqh6g","pricing_plan_id":"free"},{"bike_id":"d80e67f3-5599-493a-bad1-1f92ebef0b95","system_id":"levelo_inurba_marseille","lat":43.304096,"lon":5.425385,"is_reserved":false,"is_disabled":false,"rental_uris":{"android":"levelo://app?vid=d80e67f3-5599-493a-bad1-1f92ebef0b95","ios":"levelo://app?vid=d80e67f3-5599-493a-bad1-1f92ebef0b95"},"vehicle_type_id":"4","last_reported":1685358343,"current_range_meters":10400,"station_id":"ce4bhoh2rcd13ifvqh6g","pricing_plan_id":"free"},{"bike_id":"6390dd97-3f50-4160-bb3e-8286a27a0e7b","system_id":"levelo_inurba_marseille","lat":43.304096,"lon":5.425385,"is_reserved":false,"is_disabled":false,"rental_uris":{"android":"levelo://app?vid=6390dd97-3f50-4160-bb3e-8286a27a0e7b","ios":"levelo://app?vid=6390dd97-3f50-4160-bb3e-8286a27a0e7b"},"vehicle_type_id":"4","last_reported":1685358343,"current_range_meters":25600,"station_id":"ce4bhoh2rcd13ifvqh6g","pricing_plan_id":"free"},{"bike_id":"006b1477-59d9-4abf-bf30-fe468e8a0337","system_id":"levelo_inurba_marseille","lat":43.30448,"lon":5.42547,"is_reserved":false,"is_disabled":false,"rental_uris":{"android":"levelo://app?vid=006b1477-59d9-4abf-bf30-fe468e8a0337","ios":"levelo://app?vid=006b1477-59d9-4abf-bf30-fe468e8a0337"},"vehicle_type_id":"4","last_reported":1685358343,"current_range_meters":27200,"station_id":"","pricing_plan_id":"free"},{"bike_id":"4ccce2f7-ce49-4f2d-854c-e845debf3029","system_id":"levelo_inurba_marseille","lat":43.30412,"lon":5.42545,"is_reserved":false,"is_disabled":false,"rental_uris":{"android":"levelo://app?vid=4ccce2f7-ce49-4f2d-854c-e845debf3029","ios":"levelo://app?vid=4ccce2f7-ce49-4f2d-854c-e845debf3029"},"vehicle_type_id":"4","last_reported":1685358343,"current_range_meters":16800,"station_id":"ce4bhoh2rcd13ifvqh6g","pricing_plan_id":"free"},{"bike_id":"29dd7db9-268d-4e11-9de5-f9528bcd0c2c","system_id":"levelo_inurba_marseille","lat":43.295523,"lon":5.422926,"is_reserved":false,"is_disabled":false,"rental_uris":{"android":"levelo://app?vid=29dd7db9-268d-4e11-9de5-f9528bcd0c2c","ios":"levelo://app?vid=29dd7db9-268d-4e11-9de5-f9528bcd0c2c"},"vehicle_type_id":"4","last_reported":1685358343,"current_range_meters":30400,"station_id":"ce4bhph2rcd13ifvqhdg","pricing_plan_id":"free"},{"bike_id":"7dc1c128-1e89-4c9b-bca2-682b1166fb05","system_id":"levelo_inurba_marseille","lat":43.278128,"lon":5.407195,"is_reserved":false,"is_disabled":false,"rental_uris":{"android":"levelo://app?vid=7dc1c128-1e89-4c9b-bca2-682b1166fb05","ios":"levelo://app?vid=7dc1c128-1e89-4c9b-bca2-682b1166fb05"},"vehicle_type_id":"4","last_reported":1685358343,"current_range_meters":18400,"station_id":"ce4bhnh2rcd13ifvqgtg","pricing_plan_id":"free"},{"bike_id":"298c8487-1512-4392-ba33-430261caa2fd","system_id":"levelo_inurba_marseille","lat":43.278128,"lon":5.407195,"is_reserved":false,"is_disabled":false,"rental_uris":{"android":"levelo://app?vid=298c8487-1512-4392-ba33-430261caa2fd","ios":"levelo://app?vid=298c8487-1512-4392-ba33-430261caa2fd"},"vehicle_type_id":"4","last_reported":1685358343,"current_range_meters":26400,"station_id":"ce4bhnh2rcd13ifvqgtg","pricing_plan_id":"free"},{"bike_id":"06ce9c54-1cb3-457b-83cc-c9360e8adda6","system_id":"levelo_inurba_marseille","lat":43.278128,"lon":5.407195,"is_reserved":false,"is_disabled":false,"rental_uris":{"android":"levelo://app?vid=06ce9c54-1cb3-457b-83cc-c9360e8adda6","ios":"levelo://app?vid=06ce9c54-1cb3-457b-83cc-c9360e8adda6"},"vehicle_type_id":"4","last_reported":1685358343,"current_range_meters":28000,"station_id":"ce4bhnh2rcd13ifvqgtg","pricing_plan_id":"free"},{"bike_id":"7363acde-c065-466f-a008-016971c9c252","system_id":"levelo_inurba_marseille","lat":43.269319,"lon":5.389397,"is_reserved":false,"is_disabled":false,"rental_uris":{"android":"levelo://app?vid=7363acde-c065-466f-a008-016971c9c252","ios":"levelo://app?vid=7363acde-c065-466f-a008-016971c9c252"},"vehicle_type_id":"4","last_reported":1685358343,"current_range_meters":1200,"station_id":"ce4bhhh2rcd13ifvqfl0","pricing_plan_id":"free"},{"bike_id":"4f5caaf9-68fa-47db-b662-31176c21a741","system_id":"levelo_inurba_marseille","lat":43.26681,"lon":5.382694,"is_reserved":false,"is_disabled":false,"rental_uris":{"android":"levelo://app?vid=4f5caaf9-68fa-47db-b662-31176c21a741","ios":"levelo://app?vid=4f5caaf9-68fa-47db-b662-31176c21a741"},"vehicle_type_id":"4","last_reported":1685358343,"current_range_meters":31600,"station_id":"ce4bhg92rcd13ifvqf90","pricing_plan_id":"free"},{"bike_id":"3e871484-7aba-4242-a7d9-043cd5ebb41b","system_id":"levelo_inurba_marseille","lat":43.26688,"lon":5.38274,"is_reserved":false,"is_disabled":false,"rental_uris":{"android":"levelo://app?vid=3e871484-7aba-4242-a7d9-043cd5ebb41b","ios":"levelo://app?vid=3e871484-7aba-4242-a7d9-043cd5ebb41b"},"vehicle_type_id":"4","last_reported":1685358343,"current_range_meters":19600,"station_id":"ce4bhg92rcd13ifvqf90","pricing_plan_id":"free"},