{"last_updated":1701205605,"ttl":30,"version":"2.2","data":{"bikes":[{"bike_id":"2dcc70b3-aa46-44b9-98b9-ea9e47fa57fc","system_id":"levelo_inurba_marseille","lat":43.314811,"lon":5.373103,"is_reserved":false,"is_disabled":false,"rental_uris":{"android":"levelo://app?vid=2dcc70b3-aa46-44b9-98b9-ea9e47fa57fc","ios":"levelo://app?vid=2dcc70b3-aa46-44b9-98b9-ea9e47fa57fc"},"vehicle_type_id":"4","last_reported":1701205605,"current_range_meters":30000,"station_id":"ce4bgt12rcd13ifvqcd0","pricing_plan_id":"free"},{"bike_id":"e5930290-4de9-4592-b0ff-1380d2b4e48e","system_id":"levelo_inurba_marseille","lat":43.31346,"lon":5.37635,"is_reserved":false,"is_disabled":false,"rental_uris":{"android":"levelo://app?vid=e5930290-4de9-4592-b0ff-1380d2b4e48e","ios":"levelo://app?vid=e5930290-4de9-4592-b0ff-1380d2b4e48e"},"vehicle_type_id":"4","last_reported":1701205605,"current_range_meters":26000,"station_id":"","pricing_plan_id":"free"},{"bike_id":"1f3ac414-ce46-4010-b946-2357ae3ea287","system_id":"levelo_inurba_marseille","lat":43.305989,"lon":5.37225,"is_reserved":false,"is_disabled":false,"rental_uris":{"android":"levelo://app?vid=1f3ac414-ce46-4010-b946-2357ae3ea287","ios":"levelo://app?vid=1f3ac414-ce46-4010-b946-2357ae3ea287"},"vehicle_type_id":"4","last_reported":1701205605,"current_range_meters":11200,"station_id":"ce4bgqh2rcd13ifvqc4g","pricing_plan_id":"free"},{"bike_id":"a9589584-f17d-45b3-af4b-f41df50b74f6","system_id":"levelo_inurba_marseille","lat":43.31124,"lon":5.37752,"is_reserved":false,"is_disabled":false,"rental_uris":{"android":"levelo://app?vid=a9589584-f17d-45b3-af4b-f41df50b74f6","ios":"levelo://app?vid=a9589584-f17d-45b3-af4b-f41df50b74f6"},"vehicle_type_id":"4","last_reported":1701205605,"current_range_meters":18400,"station_id":"ce4bgt92rcd13ifvqcg0","pricing_plan_id":"free"},{"bike_id":"45b3ff23-a937-45d9-9f96-088c308c0189","system_id":"levelo_inurba_marseille","lat":43.308186,"lon":5.376591,"is_reserved":false,"is_disabled":false,"rental_uris":{"android":"levelo://app?vid=45b3ff23-a937-45d9-9f96-088c308c0189","ios":"levelo://app?vid=45b3ff23-a937-45d9-9f96-088c308c0189"},"vehicle_type_id":"4","last_reported":1701205605,"current_range_meters":12800,"station_id":"ce4bgv92rcd13ifvqcq0","pricing_plan_id":"free"},{"bike_id":"f427a2c3-6e4a-446b-ae2f-9be8aa7f4122","system_id":"levelo_inurba_marseille","lat":43.31719,"lon":5.376813,"is_reserved":false,"is_disabled":false,"rental_uris":{"android":"levelo://app?vid=f427a2c3-6e4a-446b-ae2f-9be8aa7f4122","ios":"levelo://app?vid=f427a2c3-6e4a-446b-ae2f-9be8aa7f4122"},"vehicle_type_id":"4","last_reported":1701205605,"current_range_meters":12000,"station_id":"ce4bgth2rcd13ifvqch0","pricing_plan_id":"free"},{"bike_id":"e913f328-1e31-4c22-bd87-f809ea246de4","system_id":"levelo_inurba_marseille","lat":43.317168,"lon":5.376883,"is_reserved":false,"is_disabled":false,"rental_uris":{"android":"levelo://app?vid=e913f328-1e31-4c22-bd87-f809ea246de4","ios":"levelo://app?vid=e913f328-1e31-4c22-bd87-f809ea246de4"},"vehicle_type_id":"4","last_reported":1701205605,"current_range_meters":14400,"station_id":"ce4bgth2rcd13ifvqch0","pricing_plan_id":"free"},{"bike_id":"0d1e985f-aeaa-4c9c-a475-da6e58cc5d60","system_id":"levelo_inurba_marseille","lat":43.307945,"lon":5.376487,"is_reserved":false,"is_disabled":false,"rental_uris":{"android":"levelo://app?vid=0d1e985f-aeaa-4c9c-a475-da6e58cc5d60","ios":"levelo://app?vid=0d1e985f-aeaa-4c9c-a475-da6e58cc5d60"},"vehicle_type_id":"4","last_reported":1701205605,"current_range_meters":23200,"station_id":"ce4bgv92rcd13ifvqcq0","pricing_plan_id":"free"},{"bike_id":"c58ecbba-5333-4140-88d3-702531661b97","system_id":"levelo_inurba_marseille","lat":43.30304,"lon":5.368987,"is_reserved":false,"is_disabled":false,"rental_uris":{"android":"levelo://app?vid=c58ecbba-5333-4140-88d3-702531661b97","ios":"levelo://app?vid=c58ecbba-5333-4140-88d3-702531661b97"},"vehicle_type_id":"4","last_reported":1701205605,"current_range_meters":29600,"station_id":"ce4bgqh2rcd13ifvqc5g","pricing_plan_id":"free"},{"bike_id":"3e09080e-9db5-4c48-951f-c5f672a60264","system_id":"levelo_inurba_marseille","lat":43.32166,"lon":5.374612,"is_reserved":false,"is_disabled":false,"rental_uris":{"android":"levelo://app?vid=3e09080e-9db5-4c48-951f-c5f672a60264","ios":"levelo://app?vid=3e09080e-9db5-4c48-951f-c5f672a60264"},"vehicle_type_id":"4","last_reported":1701205605,"current_range_meters":11600,"station_id":"","pricing_plan_id":"free"},{"bike_id":"135bc310-05f4-4c1f-b5c2-22133551af25","system_id":"levelo_inurba_marseille","lat":43.301939,"lon":5.366286,"is_reserved":false,"is_disabled":false,"rental_uris":{"android":"levelo://app?vid=135bc310-05f4-4c1f-b5c2-22133551af25","ios":"levelo://app?vid=135bc310-05f4-4c1f-b5c2-22133551af25"},"vehicle_type_id":"4","last_reported":1701205605,"current_range_meters":19200,"station_id":"ce4bgrh2rcd13ifvqc8g","pricing_plan_id":"free"},{"bike_id":"45e33b1d-03aa-497b-b1a8-bde88c91f6f8","system_id":"levelo_inurba_marseille","lat":43.308012,"lon":5.381511,"is_reserved":false,"is_disabled":false,"rental_uris":{"android":"levelo://app?vid=45e33b1d-03aa-497b-b1a8-bde88c91f6f8","ios":"levelo://app?vid=45e33b1d-03aa-497b-b1a8-bde88c91f6f8"},"vehicle_type_id":"4","last_reported":1701205605,"current_range_meters":16400,"station_id":"ce4bgt12rcd13ifvqce0","pricing_plan_id":"free"},{"bike_id":"affd89ff-8a62-4420-80cf-4139d187ca2b","system_id":"levelo_inurba_marseille","lat":43.308012,"lon":5.381511,"is_reserved":false,"is_disabled":false,"rental_uris":{"android":"levelo://app?vid=affd89ff-8a62-4420-80cf-4139d187ca2b","ios":"levelo://app?vid=affd89ff-8a62-4420-80cf-4139d187ca2b"},"vehicle_type_id":"4","last_reported":1701205605,"current_range_meters":27600,"station_id":"ce4bgt12rcd13ifvqce0","pricing_plan_id":"free"},{"bike_id":"3db94474-9c7e-45f0-b561-793e4e61e85a","system_id":"levelo_inurba_marseille","lat":43.304606,"lon":5.379026,"is_reserved":false,"is_disabled":false,"rental_uris":{"android":"levelo://app?vid=3db94474-9c7e-45f0-b561-793e4e61e85a","ios":"levelo://app?vid=3db94474-9c7e-45f0-b561-793e4e61e85a"},"vehicle_type_id":"4","last_reported":1701205605,"current_range_meters":30000,"station_id":"ce4bgup2rcd13ifvqcn0","pricing_plan_id":"free"},{"bike_id":"5715a9c8-9d8f-4eaf-82a9-ce48688f7ea1","system_id":"levelo_inurba_marseille","lat":43.324771,"lon":5.36557,"is_reserved":false,"is_disabled":false,"rental_uris":{"android":"levelo://app?vid=5715a9c8-9d8f-4eaf-82a9-ce48688f7ea1","ios":"levelo://app?vid=5715a9c8-9d8f-4eaf-82a9-ce48688f7ea1"},"vehicle_type_id":"4","last_reported":1701205605,"current_range_meters":23200,"station_id":"ce4bhs12rcd13ifvqhvg","pricing_plan_id":"free"},{"bike_id":"d68ff592-86e3-4859-947a-8e3e5c81913c","system_id":"levelo_inurba_marseille","lat":43.31998,"lon":5.38146,"is_reserved":false,"is_disabled":false,"rental_uris":{"android":"levelo://app?vid=d68ff592-86e3-4859-947a-8e3e5c81913c","ios":"levelo://app?vid=d68ff592-86e3-4859-947a-8e3e5c81913c"},"vehicle_type_id":"4","last_reported":1701205605,"current_range_meters":28000,"station_id":"ce4bhr12rcd13ifvqhpg","pricing_plan_id":"free"},{"bike_id":"fe400203-0e74-4ac8-be23-aae1cfb55c86","system_id":"levelo_inurba_marseille","lat":43.31997,"lon":5.38165,"is_reserved":false,"is_disabled":false,"rental_uris":{"android":"levelo://app?vid=fe400203-0e74-4ac8-be23-aae1cfb55c86","ios":"levelo://app?vid=fe400203-0e74-4ac8-be23-aae1cfb55c86"},"vehicle_type_id":"4","last_reported":1701205605,"current_range_meters":4000,"station_id":"ce4bhr12rcd13ifvqhpg","pricing_plan_id":"free"},{"bike_id":"c3add042-f7ec-4c84-9c66-c895e1a6e483","system_id":"levelo_inurba_marseille","lat":43.313571,"lon":5.384829,"is_reserved":false,"is_disabled":false,"rental_uris":{"android":"levelo://app?vid=c3add042-f7ec-4c84-9c66-c895e1a6e483","ios":"levelo://app?vid=c3add042-f7ec-4c84-9c66-c895e1a6e483"},"vehicle_type_id":"4","last_reported":1701205605,"current_range_meters":20400,"station_id":"ce4bgt92rcd13ifvqcf0","pricing_plan_id":"free"},{"bike_id":"4ef2de5b-130e-42dd-8287-b03daacbc3fc","system_id":"levelo_inurba_marseille","lat":43.313571,"lon":5.384829,"is_reserved":false,"is_disabled":false,"rental_uris":{"android":"levelo://app?vid=4ef2de5b-130e-42dd-8287-b03daacbc3fc","ios":"levelo://app?vid=4ef2de5b-130e-42dd-8287-b03daacbc3fc"},"vehicle_type_id":"4","last_reported":1701205605,"current_range_meters":20000,"station_id":"ce4bgt92rcd13ifvqcf0","pricing_plan_id":"free"},{"bike_id":"48a116e6-ed22-47cd-b8c6-45fd21f826c7","system_id":"levelo_inurba_marseille","lat":43.313571,"lon":5.384829,"is_reserved":false,"is_disabled":false,"rental_uris":{"android":"levelo://app?vid=48a116e6-ed22-47cd-b8c6-45fd21f826c7","ios":"levelo://app?vid=48a116e6-ed22-47cd-b8c6-45fd21f826c7"},"vehicle_type_id":"4","last_reported":1701205605,"current_range_meters":29200,"station_id":"ce4bgt92rcd13ifvqcf0","pricing_plan_id":"free"},{"bike_id":"68c5792c-3743-46b0-ba80-ead5661e1a6c","system_id":"levelo_inurba_marseille","lat":43.311722,"lon":5.387247,"is_reserved":false,"is_disabled":false,"rental_uris":{"android":"levelo://app?vid=68c5792c-3743-46b0-ba80-ead5661e1a6c","ios":"levelo://app?vid=68c5792c-3743-46b0-ba80-ead5661e1a6c"},"vehicle_type_id":"4","last_reported":1701205605,"current_range_meters":26400,"station_id":"ce4bgv12rcd13ifvqcp0","pricing_plan_id":"free"},{"bike_id":"9346bbfa-61ae-460c-bf8b-bd4460ad5997","system_id":"levelo_inurba_marseille","lat":43.299243,"lon":5.37481,"is_reserved":false,"is_disabled":false,"rental_uris":{"android":"levelo://app?vid=9346bbfa-61ae-460c-bf8b-bd4460ad5997","ios":"levelo://app?vid=9346bbfa-61ae-460c-bf8b-bd4460ad5997"},"vehicle_type_id":"4","last_reported":1701205605,"current_range_meters":17200,"station_id":"ce4bgjh2rcd13ifvqbg0","pricing_plan_id":"free"},{"bike_id":"9804742e-51ba-40e4-b6e4-2bc503553944","system_id":"levelo_inurba_marseille","lat":43.311722,"lon":5.387247,"is_reserved":false,"is_disabled":false,"rental_uris":{"android":"levelo://app?vid=9804742e-51ba-40e4-b6e4-2bc503553944","ios":"levelo://app?vid=9804742e-51ba-40e4-b6e4-2bc503553944"},"vehicle_type_id":"4","last_reported":1701205605,"current_range_meters":14400,"station_id":"ce4bgv12rcd13ifvqcp0","pricing_plan_id":"free"},{"bike_id":"a71b2f34-318b-4592-88f6-64cd41f77214","system_id":"levelo_inurba_marseille","lat":43.311722,"lon":5.387247,"is_reserved":false,"is_disabled":false,"rental_uris":{"android":"levelo://app?vid=a71b2f34-318b-4592-88f6-64cd41f77214","ios":"levelo://app?vid=a71b2f34-318b-4592-88f6-64cd41f77214"},"vehicle_type_id":"4","last_reported":1701205605,"current_range_meters":18400,"station_id":"ce4bgv12rcd13ifvqcp0","pricing_plan_id":"free"},{"bike_id":"e4a9c53c-a5c4-40f8-8bc7-660fa7ff6c7b","system_id":"levelo_inurba_marseille","lat":43.31164,"lon":5.38722,"is_reserved":false,"is_disabled":false,"rental_uris":{"android":"levelo://app?vid=e4a9c53c-a5c4-40f8-8bc7-660fa7ff6c7b","ios":"levelo://app?vid=e4a9c53c-a5c4-40f8-8bc7-660fa7ff6c7b"},"vehicle_type_id":"4","last_reported":1701205605,"current_range_meters":28400,"station_id":"ce4bgv12rcd13ifvqcp0","pricing_plan_id":"free"},{"bike_id":"f89c1227-8f76-44ce-9200-4881f1b223d0","system_id":"levelo_inurba_marseille","lat":43.29794,"lon":5.37109,"is_reserved":false,"is_disabled":false,"rental_uris":{"android":"levelo://app?vid=f89c1227-8f76-44ce-9200-4881f1b223d0","ios":"levelo://app?vid=f89c1227-8f76-44ce-9200-4881f1b223d0"},"vehicle_type_id":"4","last_reported":1701205605,"current_range_meters":0,"station_id":"ce4bgop2rcd13ifvqc1g","pricing_plan_id":"free"},{"bike_id":"8081422b-eb2a-4176-bcd7-b5a29f16164d","system_id":"levelo_inurba_marseille","lat":43.322872,"lon":5.382756,"is_reserved":false,"is_disabled":false,"rental_uris":{"android":"levelo://app?vid=8081422b-eb2a-4176-bcd7-b5a29f16164d","ios":"levelo://app?vid=8081422b-eb2a-4176-bcd7-b5a29f16164d"},"vehicle_type_id":"4","last_reported":1701205605,"current_range_meters":3600,"station_id":"ce4bhr12rcd13ifvqhqg","pricing_plan_id":"free"},{"bike_id":"94b9fcf4-bff4-4e4b-8723-06a10e1b050a","system_id":"levelo_inurba_marseille","lat":43.328371,"lon":5.366909,"is_reserved":false,"is_disabled":false,"rental_uris":{"android":"levelo://app?vid=94b9fcf4-bff4-4e4b-8723-06a10e1b050a","ios":"levelo://app?vid=94b9fcf4-bff4-4e4b-8723-06a10e1b050a"},"vehicle_type_id":"4","last_reported":1701205605,"current_range_meters":21600,"station_id":"ce4bhs92rcd13ifvqi0g","pricing_plan_id":"free"},{"bike_id":"cb54d4b8-7480-4085-b908-47a3fdf1a7c6","system_id":"levelo_inurba_marseille","lat":43.32832,"lon":5.36678,"is_reserved":false,"is_disabled":false,"rental_uris":{"android":"levelo://app?vid=cb54d4b8-7480-4085-b908-47a3fdf1a7c6","ios":"levelo://app?vid=cb54d4b8-7480-4085-b908-47a3fdf1a7c6"},"vehicle_type_id":"4","last_reported":1701205605,"current_range_meters":21200,"station_id":"ce4bhs92rcd13ifvqi0g","pricing_plan_id":"free"},{"bike_id":"f2edf904-6fb8-46c7-bcf0-2bb3f9741018","system_id":"levelo_inurba_marseille","lat":43.297163,"lon":5.365866,"is_reserved":false,"is_disabled":false,"rental_uris":{"android":"levelo://app?vid=f2edf904-6fb8-46c7-bcf0-2bb3f9741018","ios":"levelo://app?vid=f2edf904-6fb8-46c7-bcf0-2bb3f9741018"},"vehicle_type_id":"4","last_reported":1701205605,"current_range_meters":30800,"station_id":"ce4bgn12rcd13ifvqbt0","pricing_plan_id":"free"},{"bike_id":"1dcc2ec7-4594-4040-bc23-6e799cb21a38","system_id":"levelo_inurba_marseille","lat":43.308751,"lon":5.388841,"is_reserved":false,"is_disabled":false,"rental_uris":{"android":"levelo://app?vid=1dcc2ec7-4594-4040-bc23-6e799cb21a38","ios":"levelo://app?vid=1dcc2ec7-4594-4040-bc23-6e799cb21a38"},"vehicle_type_id":"4","last_reported":1701205605,"current_range_meters":0,"station_id":"ce4bgv12rcd13ifvqcp0","pricing_plan_id":"free"},{"bike_id":"9f0f067c-4570-4779-9fe7-642e24984182","system_id":"levelo_inurba_marseille","lat":43.29633,"lon":5.36545,"is_reserved":false,"is_disabled":false,"rental_uris":{"android":"levelo://app?vid=9f0f067c-4570-4779-9fe7-642e24984182","ios":"levelo://app?vid=9f0f067c-4570-4779-9fe7-642e24984182"},"vehicle_type_id":"4","last_reported":1701205605,"current_range_meters":18400,"station_id":"","pricing_plan_id":"free"},{"bike_id":"fe23aa38-58ce-4796-afb0-951db9fd75db","system_id":"levelo_inurba_marseille","lat":43.2968,"lon":5.37291,"is_reserved":false,"is_disabled":false,"rental_uris":{"android":"levelo://app?vid=fe23aa38-58ce-4796-afb0-951db9fd75db","ios":"levelo://app?vid=fe23aa38-58ce-4796-afb0-951db9fd75db"},"vehicle_type_id":"4","last_reported":1701205605,"current_range_meters":11600,"station_id":"ce4bgk12rcd13ifvqbj0","pricing_plan_id":"free"},{"bike_id":"a6f1295c-9587-4400-8f91-1ca806a0cbc6","system_id":"levelo_inurba_marseille","lat":43.295953,"lon":5.367907,"is_reserved":false,"is_disabled":false,"rental_uris":{"android":"levelo://app?vid=a6f1295c-9587-4400-8f91-1ca806a0cbc6","ios":"levelo://app?vid=a6f1295c-9587-4400-8f91-1ca806a0cbc6"},"vehicle_type_id":"4","last_reported":1701205605,"current_range_meters":13200,"station_id":"ce4bgph2rcd13ifvqc2g","pricing_plan_id":"free"},{"bike_id":"e14efa79-e933-4b26-9270-81100cc3b221","system_id":"levelo_inurba_marseille","lat":43.309589,"lon":5.390258,"is_reserved":false,"is_disabled":false,"rental_uris":{"android":"levelo://app?vid=e14efa79-e933-4b26-9270-81100cc3b221","ios":"levelo://app?vid=e14efa79-e933-4b26-9270-81100cc3b221"},"vehicle_type_id":"4","last_reported":1701205605,"current_range_meters":10800,"station_id":"ce4bgup2rcd13ifvqco0","pricing_plan_id":"free"},{"bike_id":"a4ae3bec-e25e-46a9-b2a7-6bd8fd58629c","system_id":"levelo_inurba_marseille","lat":43.309589,"lon":5.390258,"is_reserved":false,"is_disabled":false,"rental_uris":{"android":"levelo://app?vid=a4ae3bec-e25e-46a9-b2a7-6bd8fd58629c","ios":"levelo://app?vid=a4ae3bec-e25e-46a9-b2a7-6bd8fd58629c"},"vehicle_type_id":"4","last_reported":1701205605,"current_range_meters":16000,"station_id":"ce4bgup2rcd13ifvqco0","pricing_plan_id":"free"},{"bike_id":"deed4d43-28f2-4d1d-8bf8-dda5b349a92c","system_id":"levelo_inurba_marseille","lat":43.295373,"lon":5.374387,"is_reserved":false,"is_disabled":false,"rental_uris":{"android":"levelo://app?vid=deed4d43-28f2-4d1d-8bf8-dda5b349a92c","ios":"levelo://app?vid=deed4d43-28f2-4d1d-8bf8-dda5b349a92c"},"vehicle_type_id":"4","last_reported":1701205605,"current_range_meters":17200,"station_id":"","pricing_plan_id":"free"},{"bike_id":"1db2c07b-1c76-46e1-8254-9e56269c5dec","system_id":"levelo_inurba_marseille","lat":43.296263,"lon":5.377094,"is_reserved":false,"is_disabled":false,"rental_uris":{"android":"levelo://app?vid=1db2c07b-1c76-46e1-8254-9e56269c5dec","ios":"levelo://app?vid=1db2c07b-1c76-46e1-8254-9e56269c5dec"},"vehicle_type_id":"4","last_reported":1701205605,"current_range_meters":0,"station_id":"ce4bgi92rcd13ifvqb90","pricing_plan_id":"free"},{"bike_id":"3ff4f664-5ea2-4112-896c-4bdbe4073960","system_id":"levelo_inurba_marseille","lat":43.299717,"lon":5.384845,"is_reserved":false,"is_disabled":false,"rental_uris":{"android":"levelo://app?vid=3ff4f664-5ea2-4112-896c-4bdbe4073960","ios":"levelo://app?vid=3ff4f664-5ea2-4112-896c-4bdbe4073960"},"vehicle_type_id":"4","last_reported":1701205605,"current_range_meters":800,"station_id":"ce4bgj92rcd13ifvqbd0","pricing_plan_id":"free"},{"bike_id":"551f6248-50c8-47ab-8aa7-b1d8396edaa4","system_id":"levelo_inurba_marseille","lat":43.2997,"lon":5.38487,"is_reserved":false,"is_disabled":false,"rental_uris":{"android":"levelo://app?vid=551f6248-50c8-47ab-8aa7-b1d8396edaa4","ios":"levelo://app?vid=551f6248-50c8-47ab-8aa7-b1d8396edaa4"},"vehicle_type_id":"4","last_reported":1701205605,"current_range_meters":0,"station_id":"ce4bgj92rcd13ifvqbd0","pricing_plan_id":"free"},{"bike_id":"3d419e9d-b8c6-45cd-ab11-2df46924ca6f","system_id":"levelo_inurba_marseille","lat":43.295279,"lon":5.375048,"is_reserved":false,"is_disabled":false,"rental_uris":{"android":"levelo://app?vid=3d419e9d-b8c6-45cd-ab11-2df46924ca6f","ios":"levelo://app?vid=3d419e9d-b8c6-45cd-ab11-2df46924ca6f"},"vehicle_type_id":"4","last_reported":1701205605,"current_range_meters":12800,"station_id":"ce4bgkp2rcd13ifvqbmg","pricing_plan_id":"free"},{"bike_id":"5c72076a-1636-40ff-a2c9-94265f6a6940","system_id":"levelo_inurba_marseille","lat":43.295279,"lon":5.375048,"is_reserved":false,"is_disabled":false,"rental_uris":{"android":"levelo://app?vid=5c72076a-1636-40ff-a2c9-94265f6a6940","ios":"levelo://app?vid=5c72076a-1636-40ff-a2c9-94265f6a6940"},"vehicle_type_id":"4","last_reported":1701205605,"current_range_meters":24800,"station_id":"ce4bgkp2rcd13ifvqbmg","pricing_plan_id":"free"},{"bike_id":"74faea68-f3c8-4602-929b-b3a2fb6f8413","system_id":"levelo_inurba_marseille","lat":43.295279,"lon":5.375048,"is_reserved":false,"is_disabled":false,"rental_uris":{"android":"levelo://app?vid=74faea68-f3c8-4602-929b-b3a2fb6f8413","ios":"levelo://app?vid=74faea68-f3c8-4602-929b-b3a2fb6f8413"},"vehicle_type_id":"4","last_reported":1701205605,"current_range_meters":9600,"station_id":"ce4bgkp2rcd13ifvqbmg","pricing_plan_id":"free"},{"bike_id":"8594d1a8-199f-4d24-8206-4d82f1b1f75d","system_id":"levelo_inurba_marseille","lat":43.29369,"lon":5.37245,"is_reserved":false,"is_disabled":false,"rental_uris":{"android":"levelo://app?vid=8594d1a8-199f-4d24-8206-4d82f1b1f75d","ios":"levelo://app?vid=8594d1a8-199f-4d24-8206-4d82f1b1f75d"},"vehicle_type_id":"4","last_reported":1701205605,"current_range_meters":4800,"station_id":"ce4bgm92rcd13ifvqbr0","pricing_plan_id":"free"},{"bike_id":"c9864a09-4e20-4bb4-a1d7-73aacd94f84d","system_id":"levelo_inurba_marseille","lat":43.292749,"lon":5.368402,"is_reserved":false,"is_disabled":false,"rental_uris":{"android":"levelo://app?vid=c9864a09-4e20-4bb4-a1d7-73aacd94f84d","ios":"levelo://app?vid=c9864a09-4e20-4bb4-a1d7-73aacd94f84d"},"vehicle_type_id":"4","last_reported":1701205605,"current_range_meters":2000,"station_id":"ce4bhbp2rcd13ifvqesg","pricing_plan_id":"free"},{"bike_id":"64ab3bcf-72c9-4daa-8b0d-c0bfa843d3c3","system_id":"levelo_inurba_marseille","lat":43.292749,"lon":5.368402,"is_reserved":false,"is_disabled":false,"rental_uris":{"android":"levelo://app?vid=64ab3bcf-72c9-4daa-8b0d-c0bfa843d3c3","ios":"levelo://app?vid=64ab3bcf-72c9-4daa-8b0d-c0bfa843d3c3"},"vehicle_type_id":"4","last_reported":1701205605,"current_range_meters":10800,"station_id":"ce4bhbp2rcd13ifvqesg","pricing_plan_id":"free"},{"bike_id":"e6f55147-cc4f-4a0c-83d7-84f3c3fac6af","system_id":"levelo_inurba_marseille","lat":43.292749,"lon":5.368402,"is_reserved":false,"is_disabled":false,"rental_uris":{"android":"levelo://app?vid=e6f55147-cc4f-4a0c-83d7-84f3c3fac6af","ios":"levelo://app?vid=e6f55147-cc4f-4a0c-83d7-84f3c3fac6af"},"vehicle_type_id":"4","last_reported":1701205605,"current_range_meters":25200,"station_id":"ce4bhbp2rcd13ifvqesg","pricing_plan_id":"free"},{"bike_id":"e68c2bad-1084-4260-b1a3-d90e1f008f77","system_id":"levelo_inurba_marseille","lat":43.293009,"lon":5.374584,"is_reserved":false,"is_disabled":false,"rental_uris":{"android":"levelo://app?vid=e68c2bad-1084-4260-b1a3-d90e1f008f77","ios":"levelo://app?vid=e68c2bad-1084-4260-b1a3-d90e1f008f77"},"vehicle_type_id":"4","last_reported":1701205605,"current_range_meters":4000,"station_id":"ce4bgi12rcd13ifvqb70","pricing_plan_id":"free"},{"bike_id":"afbb38bb-49a2-470f-98ca-b5b03aaf0544","system_id":"levelo_inurba_marseille","lat":43.2936,"lon":5.37835,"is_reserved":false,"is_disabled":false,"rental_uris":{"android":"levelo://app?vid=afbb38bb-49a2-470f-98ca-b5b03aaf0544","ios":"levelo://app?vid=afbb38bb-49a2-470f-98ca-b5b03aaf0544"},"vehicle_type_id":"4","last_reported":1701205605,"current_range_meters":16800,"station_id":"ce4bgjh2rcd13ifvqbf0","pricing_plan_id":"free"},{"bike_id":"88157e01-9d9f-4641-8ceb-ae0ade278196","system_id":"levelo_inurba_marseille","lat":43.300852,"lon":5.390859,"is_reserved":false,"is_disabled":false,"rental_uris":{"android":"levelo://app?vid=88157e01-9d9f-4641-8ceb-ae0ade278196","ios":"levelo://app?vid=88157e01-9d9f-4641-8ceb-ae0ade278196"},"vehicle_type_id":"4","last_reported":1701205605,"current_range_meters":25200,"station_id":"ce4bh192rcd13ifvqdb0","pricing_plan_id":"free"},{"bike_id":"40389081-d4a4-4bca-8281-a39b3e88a068","system_id":"levelo_inurba_marseille","lat":43.298764,"lon":5.388973,"is_reserved":false,"is_disabled":false,"rental_uris":{"android":"levelo://app?vid=40389081-d4a4-4bca-8281-a39b3e88a068","ios":"levelo://app?vid=40389081-d4a4-4bca-8281-a39b3e88a068"},"vehicle_type_id":"4","last_reported":1701205605,"current_range_meters":14000,"station_id":"ce4bh392rcd13ifvqdl0","pricing_plan_id":"free"},{"bike_id":"8d55da18-4ec4-4e3f-a4c0-a6f6e72e0d2d","system_id":"levelo_inurba_marseille","lat":43.298764,"lon":5.388973,"is_reserved":false,"is_disabled":false,"rental_uris":{"android":"levelo://app?vid=8d55da18-4ec4-4e3f-a4c0-a6f6e72e0d2d","ios":"levelo://app?vid=8d55da18-4ec4-4e3f-a4c0-a6f6e72e0d2d"},"vehicle_type_id":"4","last_reported":1701205605,"current_range_meters":25600,"station_id":"ce4bh392rcd13ifvqdl0","pricing_plan_id":"free"},{"bike_id":"192f24b5-d688-48b4-a0ac-81a0c10f9f0e","system_id":"levelo_inurba_marseille","lat":43.308905,"lon":5.396325,"is_reserved":false,"is_disabled":false,"rental_uris":{"android":"levelo://app?vid=192f24b5-d688-48b4-a0ac-81a0c10f9f0e","ios":"levelo://app?vid=192f24b5-d688-48b4-a0ac-81a0c10f9f0e"},"vehicle_type_id":"4","last_reported":1701205605,"current_range_meters":31200,"station_id":"ce4bh012rcd13ifvqcv0","pricing_plan_id":"free"},{"bike_id":"de22a175-8d72-4272-9522-88c8b3371a0b","system_id":"levelo_inurba_marseille","lat":43.309047,"lon":5.396551,"is_reserved":false,"is_disabled":false,"rental_uris":{"android":"levelo://app?vid=de22a175-8d72-4272-9522-88c8b3371a0b","ios":"levelo://app?vid=de22a175-8d72-4272-9522-88c8b3371a0b"},"vehicle_type_id":"4","last_reported":1701205605,"current_range_meters":31200,"station_id":"ce4bh012rcd13ifvqcv0","pricing_plan_id":"free"},{"bike_id":"9ccbe679-5489-4a12-8575-469752b4dbd4","system_id":"levelo_inurba_marseille","lat":43.291994,"lon":5.357886,"is_reserved":false,"is_disabled":false,"rental_uris":{"android":"levelo://app?vid=9ccbe679-5489-4a12-8575-469752b4dbd4","ios":"levelo://app?vid=9ccbe679-5489-4a12-8575-469752b4dbd4"},"vehicle_type_id":"4","last_reported":1701205605,"current_range_meters":17600,"station_id":"ce4bhb12rcd13ifvqel0","pricing_plan_id":"free"},{"bike_id":"f44aac3d-c57b-4aa5-b8e1-495822828b73","system_id":"levelo_inurba_marseille","lat":43.291938,"lon":5.35803,"is_reserved":false,"is_disabled":false,"rental_uris":{"android":"levelo://app?vid=f44aac3d-c57b-4aa5-b8e1-495822828b73","ios":"levelo://app?vid=f44aac3d-c57b-4aa5-b8e1-495822828b73"},"vehicle_type_id":"4","last_reported":1701205605,"current_range_meters":28000,"station_id":"ce4bhb12rcd13ifvqel0","pricing_plan_id":"free"},{"bike_id":"00f782b6-4b18-433b-bc0a-644ef2fb3594","system_id":"levelo_inurba_marseille","lat":43.313291,"lon":5.396838,"is_reserved":false,"is_disabled":false,"rental_uris":{"android":"levelo://app?vid=00f782b6-4b18-433b-bc0a-644ef2fb3594","ios":"levelo://app?vid=00f782b6-4b18-433b-bc0a-644ef2fb3594"},"vehicle_type_id":"4","last_reported":1701205605,"current_range_meters":28800,"station_id":"ce4bgvp2rcd13ifvqcu0","pricing_plan_id":"free"},{"bike_id":"07dfef92-904f-4c33-8c14-53a178d7ae6f","system_id":"levelo_inurba_marseille","lat":43.31323,"lon":5.39692,"is_reserved":false,"is_disabled":false,"rental_uris":{"android":"levelo://app?vid=07dfef92-904f-4c33-8c14-53a178d7ae6f","ios":"levelo://app?vid=07dfef92-904f-4c33-8c14-53a178d7ae6f"},"vehicle_type_id":"4","last_reported":1701205605,"current_range_meters":28000,"station_id":"ce4bgvp2rcd13ifvqcu0","pricing_plan_id":"free"},{"bike_id":"8cdb4370-8586-4238-9b29-a3c35d971c39","system_id":"levelo_inurba_marseille","lat":43.308857,"lon":5.396456,"is_reserved":false,"is_disabled":false,"rental_uris":{"android":"levelo://app?vid=8cdb4370-8586-4238-9b29-a3c35d971c39","ios":"levelo://app?vid=8cdb4370-8586-4238-9b29-a3c35d971c39"},"vehicle_type_id":"4","last_reported":1701205605,"current_range_meters":31200,"station_id":"ce4bh012rcd13ifvqcv0","pricing_plan_id":"free"},{"bike_id":"a431f85e-aab0-4d1e-978a-1b1ee1d4e8ee","system_id":"levelo_inurba_marseille","lat":43.313291,"lon":5.396838,"is_reserved":false,"is_disabled":false,"rental_uris":{"android":"levelo://app?vid=a431f85e-aab0-4d1e-978a-1b1ee1d4e8ee","ios":"levelo://app?vid=a431f85e-aab0-4d1e-978a-1b1ee1d4e8ee"},"vehicle_type_id":"4","last_reported":1701205605,"current_range_meters":12000,"station_id":"ce4bgvp2rcd13ifvqcu0","pricing_plan_id":"free"},{"bike_id":"e9305fe5-70e7-41f7-9c5f-60b3b1782c29","system_id":"levelo_inurba_marseille","lat":43.30885,"lon":5.396497,"is_reserved":false,"is_disabled":false,"rental_uris":{"android":"levelo://app?vid=e9305fe5-70e7-41f7-9c5f-60b3b1782c29","ios":"levelo://app?vid=e9305fe5-70e7-41f7-9c5f-60b3b1782c29"},"vehicle_type_id":"4","last_reported":1701205605,"current_range_meters":21600,"station_id":"ce4bh012rcd13ifvqcv0","pricing_plan_id":"free"},{"bike_id":"48b098ef-f732-4e52-98f6-fb2279f59078","system_id":"levelo_inurba_marseille","lat":43.309047,"lon":5.396551,"is_reserved":false,"is_disabled":false,"rental_uris":{"android":"levelo://app?vid=48b098ef-f732-4e52-98f6-fb2279f59078","ios":"levelo://app?vid=48b098ef-f732-4e52-98f6-fb2279f59078"},"vehicle_type_id":"4","last_reported":1701205605,"current_range_meters":30000,"station_id":"ce4bh012rcd13ifvqcv0","pricing_plan_id":"free"},{"bike_id":"0f3db77d-e619-4bec-822b-52fedc7db269","system_id":"levelo_inurba_marseille","lat":43.291994,"lon":5.357886,"is_reserved":false,"is_disabled":false,"rental_uris":{"android":"levelo://app?vid=0f3db77d-e619-4bec-822b-52fedc7db269","ios":"levelo://app?vid=0f3db77d-e619-4bec-822b-52fedc7db269"},"vehicle_type_id":"4","last_reported":1701205605,"current_range_meters":16000,"station_id":"ce4bhb12rcd13ifvqel0","pricing_plan_id":"free"},{"bike_id":"3061db86-e3bc-4c09-b284-888a9af39789","system_id":"levelo_inurba_marseille","lat":43.30883,"lon":5.39652,"is_reserved":false,"is_disabled":false,"rental_uris":{"android":"levelo://app?vid=3061db86-e3bc-4c09-b284-888a9af39789","ios":"levelo://app?vid=3061db86-e3bc-4c09-b284-888a9af39789"},"vehicle_type_id":"4","last_reported":1701205605,"current_range_meters":30800,"station_id":"ce4bh012rcd13ifvqcv0","pricing_plan_id":"free"},{"bike_id":"77621d6b-8990-4544-be4b-ead551752d29","system_id":"levelo_inurba_marseille","lat":43.31327,"lon":5.39704,"is_reserved":false,"is_disabled":false,"rental_uris":{"android":"levelo://app?vid=77621d6b-8990-4544-be4b-ead551752d29","ios":"levelo://app?vid=77621d6b-8990-4544-be4b-ead551752d29"},"vehicle_type_id":"4","last_reported":1701205605,"current_range_meters":25200,"station_id":"ce4bgvp2rcd13ifvqcu0","pricing_plan_id":"free"},{"bike_id":"23f217b8-4673-4ccd-a620-4c93f05eb175","system_id":"levelo_inurba_marseille","lat":43.309047,"lon":5.396551,"is_reserved":false,"is_disabled":false,"rental_uris":{"android":"levelo://app?vid=23f217b8-4673-4ccd-a620-4c93f05eb175","ios":"levelo://app?vid=23f217b8-4673-4ccd-a620-4c93f05eb175"},"vehicle_type_id":"4","last_reported":1701205605,"current_range_meters":25600,"station_id":"ce4bh012rcd13ifvqcv0","pricing_plan_id":"free"},{"bike_id":"6add0ce9-bcf2-440f-8c48-b17dc87e6836","system_id":"levelo_inurba_marseille","lat":43.29529,"lon":5.385581,"is_reserved":false,"is_disabled":false,"rental_uris":{"android":"levelo://app?vid=6add0ce9-bcf2-440f-8c48-b17dc87e6836","ios":"levelo://app?vid=6add0ce9-bcf2-440f-8c48-b17dc87e6836"},"vehicle_type_id":"4","last_reported":1701205605,"current_range_meters":14800,"station_id":"ce4bgih2rcd13ifvqba0","pricing_plan_id":"free"},{"bike_id":"f82f798c-fdc7-42d4-b8d6-2777b713955c","system_id":"levelo_inurba_marseille","lat":43.290563,"lon":5.37154,"is_reserved":false,"is_disabled":false,"rental_uris":{"android":"levelo://app?vid=f82f798c-fdc7-42d4-b8d6-2777b713955c","ios":"levelo://app?vid=f82f798c-fdc7-42d4-b8d6-2777b713955c"},"vehicle_type_id":"4","last_reported":1701205605,"current_range_meters":22800,"station_id":"ce4bh5p2rcd13ifvqe4g","pricing_plan_id":"free"},{"bike_id":"6d682541-e303-48f1-a51f-1a3e63d669b4","system_id":"levelo_inurba_marseille","lat":43.329266,"lon":5.388199,"is_reserved":false,"is_disabled":false,"rental_uris":{"android":"levelo://app?vid=6d682541-e303-48f1-a51f-1a3e63d669b4","ios":"levelo://app?vid=6d682541-e303-48f1-a51f-1a3e63d669b4"},"vehicle_type_id":"4","last_reported":1701205605,"current_range_meters":26800,"station_id":"","pricing_plan_id":"free"},{"bike_id":"d330530f-c130-4105-aea7-8cef8d6635c7","system_id":"levelo_inurba_marseille","lat":43.290624,"lon":5.359245,"is_reserved":false,"is_disabled":false,"rental_uris":{"android":"levelo://app?vid=d330530f-c130-4105-aea7-8cef8d6635c7","ios":"levelo://app?vid=d330530f-c130-4105-aea7-8cef8d6635c7"},"vehicle_type_id":"4","last_reported":1701205605,"current_range_meters":27600,"station_id":"ce4bha92rcd13ifvqeg0","pricing_plan_id":"free"},{"bike_id":"90a72ae5-1ff7-4e8e-a79e-4efdc6795242","system_id":"levelo_inurba_marseille","lat":43.29133,"lon":5.38081,"is_reserved":false,"is_disabled":false,"rental_uris":{"android":"levelo://app?vid=90a72ae5-1ff7-4e8e-a79e-4efdc6795242","ios":"levelo://app?vid=90a72ae5-1ff7-4e8e-a79e-4efdc6795242"},"vehicle_type_id":"4","last_reported":1701205605,"current_range_meters":0,"station_id":"","pricing_plan_id":"free"},{"bike_id":"04bf2921-4e87-45c0-9bbd-3202969925c7","system_id":"levelo_inurba_marseille","lat":43.290104,"lon":5.356111,"is_reserved":false,"is_disabled":false,"rental_uris":{"android":"levelo://app?vid=04bf2921-4e87-45c0-9bbd-3202969925c7","ios":"levelo://app?vid=04bf2921-4e87-45c0-9bbd-3202969925c7"},"vehicle_type_id":"4","last_reported":1701205605,"current_range_meters":400,"station_id":"ce4bhb92rcd13ifvqen0","pricing_plan_id":"free"},{"bike_id":"67810528-fb28-41e8-a8bc-9f1e263f753e","system_id":"levelo_inurba_marseille","lat":43.290104,"lon":5.356111,"is_reserved":false,"is_disabled":false,"rental_uris":{"android":"levelo://app?vid=67810528-fb28-41e8-a8bc-9f1e263f753e","ios":"levelo://app?vid=67810528-fb28-41e8-a8bc-9f1e263f753e"},"vehicle_type_id":"4","last_reported":1701205605,"current_range_meters":29200,"station_id":"ce4bhb92rcd13ifvqen0","pricing_plan_id":"free"},{"bike_id":"fc8fcf9f-c687-4daa-87e8-dcdafa5fa665","system_id":"levelo_inurba_marseille","lat":43.29002,"lon":5.35615,"is_reserved":false,"is_disabled":false,"rental_uris":{"android":"levelo://app?vid=fc8fcf9f-c687-4daa-87e8-dcdafa5fa665","ios":"levelo://app?vid=fc8fcf9f-c687-4daa-87e8-dcdafa5fa665"},"vehicle_type_id":"4","last_reported":1701205605,"current_range_meters":31200,"station_id":"ce4bhb92rcd13ifvqen0","pricing_plan_id":"free"},{"bike_id":"e1c7750b-7867-475f-bc65-5c9e541c9931","system_id":"levelo_inurba_marseille","lat":43.29794,"lon":5.393327,"is_reserved":false,"is_disabled":false,"rental_uris":{"android":"levelo://app?vid=e1c7750b-7867-475f-bc65-5c9e541c9931","ios":"levelo://app?vid=e1c7750b-7867-475f-bc65-5c9e541c9931"},"vehicle_type_id":"4","last_reported":1701205605,"current_range_meters":10800,"station_id":"chh1huq6cuj3fo74tm60","pricing_plan_id":"free"},{"bike_id":"e07757d2-abd0-4722-a674-11ae5d0bb077","system_id":"levelo_inurba_marseille","lat":43.297815,"lon":5.393548,"is_reserved":false,"is_disabled":false,"rental_uris":{"android":"levelo://app?vid=e07757d2-abd0-4722-a674-11ae5d0bb077","ios":"levelo://app?vid=e07757d2-abd0-4722-a674-11ae5d0bb077"},"vehicle_type_id":"4","last_reported":1701205605,"current_range_meters":19600,"station_id":"chh1huq6cuj3fo74tm60","pricing_plan_id":"free"},{"bike_id":"e1ea4410-abaf-48c3-bfac-109caf57fcc9","system_id":"levelo_inurba_marseille","lat":43.28856,"lon":5.358371,"is_reserved":false,"is_disabled":false,"rental_uris":{"android":"levelo://app?vid=e1ea4410-abaf-48c3-bfac-109caf57fcc9","ios":"levelo://app?vid=e1ea4410-abaf-48c3-bfac-109caf57fcc9"},"vehicle_type_id":"4","last_reported":1701205605,"current_range_meters":25600,"station_id":"ce4bhb12rcd13ifvqem0","pricing_plan_id":"free"},{"bike_id":"77b088cb-35f9-460a-9f79-0c93b2db5ec1","system_id":"levelo_inurba_marseille","lat":43.28856,"lon":5.358371,"is_reserved":false,"is_disabled":false,"rental_uris":{"android":"levelo://app?vid=77b088cb-35f9-460a-9f79-0c93b2db5ec1","ios":"levelo://app?vid=77b088cb-35f9-460a-9f79-0c93b2db5ec1"},"vehicle_type_id":"4","last_reported":1701205605,"current_range_meters":10000,"station_id":"ce4bhb12rcd13ifvqem0","pricing_plan_id":"free"},{"bike_id":"ccf3a924-b88a-4ef9-ab2f-2b221c8e50b1","system_id":"levelo_inurba_marseille","lat":43.28856,"lon":5.358371,"is_reserved":false,"is_disabled":false,"rental_uris":{"android":"levelo://app?vid=ccf3a924-b88a-4ef9-ab2f-2b221c8e50b1","ios":"levelo://app?vid=ccf3a924-b88a-4ef9-ab2f-2b221c8e50b1"},"vehicle_type_id":"4","last_reported":1701205605,"current_range_meters":31200,"station_id":"ce4bhb12rcd13ifvqem0","pricing_plan_id":"free"},{"bike_id":"ddf26704-29af-4137-b10b-b42944575399","system_id":"levelo_inurba_marseille","lat":43.28856,"lon":5.358371,"is_reserved":false,"is_disabled":false,"rental_uris":{"android":"levelo://app?vid=ddf26704-29af-4137-b10b-b42944575399","ios":"levelo://app?vid=ddf26704-29af-4137-b10b-b42944575399"},"vehicle_type_id":"4","last_reported":1701205605,"current_range_meters":30400,"station_id":"ce4bhb12rcd13ifvqem0","pricing_plan_id":"free"},{"bike_id":"1c5cc5d7-140c-4712-84c3-eab4b233cdd7","system_id":"levelo_inurba_marseille","lat":43.312609,"lon":5.401662,"is_reserved":false,"is_disabled":false,"rental_uris":{"android":"levelo://app?vid=1c5cc5d7-140c-4712-84c3-eab4b233cdd7","ios":"levelo://app?vid=1c5cc5d7-140c-4712-84c3-eab4b233cdd7"},"vehicle_type_id":"4","last_reported":1701205605,"current_range_meters":11600,"station_id":"ce4bh092rcd13ifvqd30","pricing_plan_id":"free"},{"bike_id":"c676974d-3d90-40ba-80fe-f46a28fd0516","system_id":"levelo_inurba_marseille","lat":43.309371,"lon":5.401449,"is_reserved":false,"is_disabled":false,"rental_uris":{"android":"levelo://app?vid=c676974d-3d90-40ba-80fe-f46a28fd0516","ios":"levelo://app?vid=c676974d-3d90-40ba-80fe-f46a28fd0516"},"vehicle_type_id":"4","last_reported":1701205605,"current_range_meters":29600,"station_id":"ce4bgvp2rcd13ifvqct0","pricing_plan_id":"free"},{"bike_id":"1c3beea7-a8aa-4f52-a371-ccfdcddb15e1","system_id":"levelo_inurba_marseille","lat":43.33754,"lon":5.37464,"is_reserved":false,"is_disabled":false,"rental_uris":{"android":"levelo://app?vid=1c3beea7-a8aa-4f52-a371-ccfdcddb15e1","ios":"levelo://app?vid=1c3beea7-a8aa-4f52-a371-ccfdcddb15e1"},"vehicle_type_id":"4","last_reported":1701205605,"current_range_meters":23200,"station_id":"","pricing_plan_id":"free"},{"bike_id":"9342acb8-c439-4936-b729-a82e1f6c08f7","system_id":"levelo_inurba_marseille","lat":43.30642,"lon":5.401031,"is_reserved":false,"is_disabled":false,"rental_uris":{"android":"levelo://app?vid=9342acb8-c439-4936-b729-a82e1f6c08f7","ios":"levelo://app?vid=9342acb8-c439-4936-b729-a82e1f6c08f7"},"vehicle_type_id":"4","last_reported":1701205605,"current_range_meters":25200,"station_id":"ce4bh112rcd13ifvqda0","pricing_plan_id":"free"},{"bike_id":"50bada01-5851-437c-9dbf-0054c2a582d8","system_id":"levelo_inurba_marseille","lat":43.286724,"lon":5.363526,"is_reserved":false,"is_disabled":false,"rental_uris":{"android":"levelo://app?vid=50bada01-5851-437c-9dbf-0054c2a582d8","ios":"levelo://app?vid=50bada01-5851-437c-9dbf-0054c2a582d8"},"vehicle_type_id":"4","last_reported":1701205605,"current_range_meters":31200,"station_id":"ce4bhah2rcd13ifvqej0","pricing_plan_id":"free"},{"bike_id":"00badb3d-21f6-427b-a43c-c7e91b23a2b5","system_id":"levelo_inurba_marseille","lat":43.286961,"lon":5.373785,"is_reserved":false,"is_disabled":false,"rental_uris":{"android":"levelo://app?vid=00badb3d-21f6-427b-a43c-c7e91b23a2b5","ios":"levelo://app?vid=00badb3d-21f6-427b-a43c-c7e91b23a2b5"},"vehicle_type_id":"4","last_reported":1701205605,"current_range_meters":17600,"station_id":"ce4bh3p2rcd13ifvqdq0","pricing_plan_id":"free"},{"bike_id":"0835f735-fbc4-40ca-b02a-112ff61ff6d1","system_id":"levelo_inurba_marseille","lat":43.286591,"lon":5.363346,"is_reserved":false,"is_disabled":false,"rental_uris":{"android":"levelo://app?vid=0835f735-fbc4-40ca-b02a-112ff61ff6d1","ios":"levelo://app?vid=0835f735-fbc4-40ca-b02a-112ff61ff6d1"},"vehicle_type_id":"4","last_reported":1701205605,"current_range_meters":27200,"station_id":"ce4bhah2rcd13ifvqej0","pricing_plan_id":"free"},{"bike_id":"ccf8a658-8d23-44ae-bcfe-8ae5037717c5","system_id":"levelo_inurba_marseille","lat":43.286591,"lon":5.363346,"is_reserved":false,"is_disabled":false,"rental_uris":{"android":"levelo://app?vid=ccf8a658-8d23-44ae-bcfe-8ae5037717c5","ios":"levelo://app?vid=ccf8a658-8d23-44ae-bcfe-8ae5037717c5"},"vehicle_type_id":"4","last_reported":1701205605,"current_range_meters":21200,"station_id":"ce4bhah2rcd13ifvqej0","pricing_plan_id":"free"},{"bike_id":"3a445392-6308-45bc-b76b-15a63e619af3","system_id":"levelo_inurba_marseille","lat":43.286591,"lon":5.363346,"is_reserved":false,"is_disabled":false,"rental_uris":{"android":"levelo://app?vid=3a445392-6308-45bc-b76b-15a63e619af3","ios":"levelo://app?vid=3a445392-6308-45bc-b76b-15a63e619af3"},"vehicle_type_id":"4","last_reported":1701205605,"current_range_meters":18000,"station_id":"ce4bhah2rcd13ifvqej0","pricing_plan_id":"free"},{"bike_id":"c3a078ae-8dad-4093-86e2-7aafca424107","system_id":"levelo_inurba_marseille","lat":43.28663,"lon":5.36348,"is_reserved":false,"is_disabled":false,"rental_uris":{"android":"levelo://app?vid=c3a078ae-8dad-4093-86e2-7aafca424107","ios":"levelo://app?vid=c3a078ae-8dad-4093-86e2-7aafca424107"},"vehicle_type_id":"4","last_reported":1701205605,"current_range_meters":8000,"station_id":"ce4bhah2rcd13ifvqej0","pricing_plan_id":"free"},{"bike_id":"c07f0312-a415-4cc2-81a0-38436b7503c9","system_id":"levelo_inurba_marseille","lat":43.286593,"lon":5.363346,"is_reserved":false,"is_disabled":false,"rental_uris":{"android":"levelo://app?vid=c07f0312-a415-4cc2-81a0-38436b7503c9","ios":"levelo://app?vid=c07f0312-a415-4cc2-81a0-38436b7503c9"},"vehicle_type_id":"4","last_reported":1701205605,"current_range_meters":30800,"station_id":"ce4bhah2rcd13ifvqej0","pricing_plan_id":"free"},{"bike_id":"5f3a261a-b688-44e6-b5df-fc68fca49725","system_id":"levelo_inurba_marseille","lat":43.286961,"lon":5.373785,"is_reserved":false,"is_disabled":false,"rental_uris":{"android":"levelo://app?vid=5f3a261a-b688-44e6-b5df-fc68fca49725","ios":"levelo://app?vid=5f3a261a-b688-44e6-b5df-fc68fca49725"},"vehicle_type_id":"4","last_reported":1701205605,"current_range_meters":2400,"station_id":"ce4bh3p2rcd13ifvqdq0","pricing_plan_id":"free"},{"bike_id":"e5723a22-18b0-4bba-944e-f4d0788972cf","system_id":"levelo_inurba_marseille","lat":43.286591,"lon":5.363346,"is_reserved":false,"is_disabled":false,"rental_uris":{"android":"levelo://app?vid=e5723a22-18b0-4bba-944e-f4d0788972cf","ios":"levelo://app?vid=e5723a22-18b0-4bba-944e-f4d0788972cf"},"vehicle_type_id":"4","last_reported":1701205605,"current_range_meters":6400,"station_id":"ce4bhah2rcd13ifvqej0","pricing_plan_id":"free"},{"bike_id":"4c583723-ddf3-463d-afff-20205cc787f8","system_id":"levelo_inurba_marseille","lat":43.286591,"lon":5.363346,"is_reserved":false,"is_disabled":false,"rental_uris":{"android":"levelo://app?vid=4c583723-ddf3-463d-afff-20205cc787f8","ios":"levelo://app?vid=4c583723-ddf3-463d-afff-20205cc787f8"},"vehicle_type_id":"4","last_reported":1701205605,"current_range_meters":20400,"station_id":"ce4bhah2rcd13ifvqej0","pricing_plan_id":"free"},{"bike_id":"fe6119e7-c38b-40bb-9fc5-279548e896a2","system_id":"levelo_inurba_marseille","lat":43.286593,"lon":5.363346,"is_reserved":false,"is_disabled":false,"rental_uris":{"android":"levelo://app?vid=fe6119e7-c38b-40bb-9fc5-279548e896a2","ios":"levelo://app?vid=fe6119e7-c38b-40bb-9fc5-279548e896a2"},"vehicle_type_id":"4","last_reported":1701205605,"current_range_meters":30800,"station_id":"ce4bhah2rcd13ifvqej0","pricing_plan_id":"free"},{"bike_id":"485a242f-8a73-4a00-9661-2e1978e12d3a","system_id":"levelo_inurba_marseille","lat":43.295194,"lon":5.39397,"is_reserved":false,"is_disabled":false,"rental_uris":{"android":"levelo://app?vid=485a242f-8a73-4a00-9661-2e1978e12d3a","ios":"levelo://app?vid=485a242f-8a73-4a00-9661-2e1978e12d3a"},"vehicle_type_id":"4","last_reported":1701205605,"current_range_meters":22400,"station_id":"ce4bh292rcd13ifvqdf0","pricing_plan_id":"free"},{"bike_id":"deb7b72f-a2ee-43b9-88c7-954579d7e9fa","system_id":"levelo_inurba_marseille","lat":43.29032,"lon":5.38646,"is_reserved":false,"is_disabled":false,"rental_uris":{"android":"levelo://app?vid=deb7b72f-a2ee-43b9-88c7-954579d7e9fa","ios":"levelo://app?vid=deb7b72f-a2ee-43b9-88c7-954579d7e9fa"},"vehicle_type_id":"4","last_reported":1701205605,"current_range_meters":4800,"station_id":"ce4bh4p2rcd13ifvqe0g","pricing_plan_id":"free"},{"bike_id":"2f46a048-ec98-478d-a8c0-cc9dd878295d","system_id":"levelo_inurba_marseille","lat":43.29025,"lon":5.38634,"is_reserved":false,"is_disabled":false,"rental_uris":{"android":"levelo://app?vid=2f46a048-ec98-478d-a8c0-cc9dd878295d","ios":"levelo://app?vid=2f46a048-ec98-478d-a8c0-cc9dd878295d"},"vehicle_type_id":"4","last_reported":1701205605,"current_range_meters":400,"station_id":"","pricing_plan_id":"free"},{"bike_id":"910b0632-74d1-4458-bd82-5c82a3b73883","system_id":"levelo_inurba_marseille","lat":43.286593,"lon":5.363346,"is_reserved":false,"is_disabled":false,"rental_uris":{"android":"levelo://app?vid=910b0632-74d1-4458-bd82-5c82a3b73883","ios":"levelo://app?vid=910b0632-74d1-4458-bd82-5c82a3b73883"},"vehicle_type_id":"4","last_reported":1701205605,"current_range_meters":14800,"station_id":"ce4bhah2rcd13ifvqej0","pricing_plan_id":"free"},{"bike_id":"958459ca-880b-465e-8bb4-799b198f7041","system_id":"levelo_inurba_marseille","lat":43.29027,"lon":5.38649,"is_reserved":false,"is_disabled":false,"rental_uris":{"android":"levelo://app?vid=958459ca-880b-465e-8bb4-799b198f7041","ios":"levelo://app?vid=958459ca-880b-465e-8bb4-799b198f7041"},"vehicle_type_id":"4","last_reported":1701205605,"current_range_meters":0,"station_id":"","pricing_plan_id":"free"},{"bike_id":"9c170648-b835-4ed8-b22f-974e731efb3e","system_id":"levelo_inurba_marseille","lat":43.286039,"lon":5.370681,"is_reserved":false,"is_disabled":false,"rental_uris":{"android":"levelo://app?vid=9c170648-b835-4ed8-b22f-974e731efb3e","ios":"levelo://app?vid=9c170648-b835-4ed8-b22f-974e731efb3e"},"vehicle_type_id":"4","last_reported":1701205605,"current_range_meters":5600,"station_id":"ce4bht12rcd13ifvqi60","pricing_plan_id":"free"},{"bike_id":"387fd0ab-1deb-4aa2-aa50-de18a5320e1f","system_id":"levelo_inurba_marseille","lat":43.287184,"lon":5.37937,"is_reserved":false,"is_disabled":false,"rental_uris":{"android":"levelo://app?vid=387fd0ab-1deb-4aa2-aa50-de18a5320e1f","ios":"levelo://app?vid=387fd0ab-1deb-4aa2-aa50-de18a5320e1f"},"vehicle_type_id":"4","last_reported":1701205605,"current_range_meters":14400,"station_id":"ce4bh9p2rcd13ifvqec0","pricing_plan_id":"free"},{"bike_id":"31d72307-eaf2-4a82-b1d1-1612bc09eff0","system_id":"levelo_inurba_marseille","lat":43.287184,"lon":5.37937,"is_reserved":false,"is_disabled":false,"rental_uris":{"android":"levelo://app?vid=31d72307-eaf2-4a82-b1d1-1612bc09eff0","ios":"levelo://app?vid=31d72307-eaf2-4a82-b1d1-1612bc09eff0"},"vehicle_type_id":"4","last_reported":1701205605,"current_range_meters":3200,"station_id":"ce4bh9p2rcd13ifvqec0","pricing_plan_id":"free"},{"bike_id":"81d3b63b-88fb-4cdb-8673-0c781304c93a","system_id":"levelo_inurba_marseille","lat":43.28713,"lon":5.37941,"is_reserved":false,"is_disabled":false,"rental_uris":{"android":"levelo://app?vid=81d3b63b-88fb-4cdb-8673-0c781304c93a","ios":"levelo://app?vid=81d3b63b-88fb-4cdb-8673-0c781304c93a"},"vehicle_type_id":"4","last_reported":1701205605,"current_range_meters":27200,"station_id":"ce4bh9p2rcd13ifvqec0","pricing_plan_id":"free"},{"bike_id":"ce081f3b-e491-489a-8c29-9a61863eb164","system_id":"levelo_inurba_marseille","lat":43.316517,"lon":5.404375,"is_reserved":false,"is_disabled":false,"rental_uris":{"android":"levelo://app?vid=ce081f3b-e491-489a-8c29-9a61863eb164","ios":"levelo://app?vid=ce081f3b-e491-489a-8c29-9a61863eb164"},"vehicle_type_id":"4","last_reported":1701205605,"current_range_meters":2400,"station_id":"ce4bh012rcd13ifvqd00","pricing_plan_id":"free"},{"bike_id":"603f3427-5b96-40ca-a84e-d75f6c1caa46","system_id":"levelo_inurba_marseille","lat":43.291945,"lon":5.39324,"is_reserved":false,"is_disabled":false,"rental_uris":{"android":"levelo://app?vid=603f3427-5b96-40ca-a84e-d75f6c1caa46","ios":"levelo://app?vid=603f3427-5b96-40ca-a84e-d75f6c1caa46"},"vehicle_type_id":"4","last_reported":1701205605,"current_range_meters":16000,"station_id":"ce4bh192rcd13ifvqdd0","pricing_plan_id":"free"},{"bike_id":"cc8f81d7-030d-4bc6-bcba-0f5509f170e2","system_id":"levelo_inurba_marseille","lat":43.291994,"lon":5.392907,"is_reserved":false,"is_disabled":false,"rental_uris":{"android":"levelo://app?vid=cc8f81d7-030d-4bc6-bcba-0f5509f170e2","ios":"levelo://app?vid=cc8f81d7-030d-4bc6-bcba-0f5509f170e2"},"vehicle_type_id":"4","last_reported":1701205605,"current_range_meters":31200,"station_id":"ce4bh192rcd13ifvqdd0","pricing_plan_id":"free"},{"bike_id":"736457ac-9954-4414-85f7-0ffdab74d67f","system_id":"levelo_inurba_marseille","lat":43.28461,"lon":5.35893,"is_reserved":false,"is_disabled":false,"rental_uris":{"android":"levelo://app?vid=736457ac-9954-4414-85f7-0ffdab74d67f","ios":"levelo://app?vid=736457ac-9954-4414-85f7-0ffdab74d67f"},"vehicle_type_id":"4","last_reported":1701205605,"current_range_meters":31200,"station_id":"ce4bhah2rcd13ifvqei0","pricing_plan_id":"free"},{"bike_id":"5e43b6eb-37fc-481f-83f6-a4b4faa34f4f","system_id":"levelo_inurba_marseille","lat":43.284538,"lon":5.358657,"is_reserved":false,"is_disabled":false,"rental_uris":{"android":"levelo://app?vid=5e43b6eb-37fc-481f-83f6-a4b4faa34f4f","ios":"levelo://app?vid=5e43b6eb-37fc-481f-83f6-a4b4faa34f4f"},"vehicle_type_id":"4","last_reported":1701205605,"current_range_meters":30400,"station_id":"ce4bhah2rcd13ifvqei0","pricing_plan_id":"free"},{"bike_id":"be863781-d1a5-4037-b452-89ec03a9a1ab","system_id":"levelo_inurba_marseille","lat":43.284538,"lon":5.358657,"is_reserved":false,"is_disabled":false,"rental_uris":{"android":"levelo://app?vid=be863781-d1a5-4037-b452-89ec03a9a1ab","ios":"levelo://app?vid=be863781-d1a5-4037-b452-89ec03a9a1ab"},"vehicle_type_id":"4","last_reported":1701205605,"current_range_meters":29600,"station_id":"ce4bhah2rcd13ifvqei0","pricing_plan_id":"free"},{"bike_id":"38e20aee-0f2e-4b14-beaf-ebce34830f09","system_id":"levelo_inurba_marseille","lat":43.284538,"lon":5.358657,"is_reserved":false,"is_disabled":false,"rental_uris":{"android":"levelo://app?vid=38e20aee-0f2e-4b14-beaf-ebce34830f09","ios":"levelo://app?vid=38e20aee-0f2e-4b14-beaf-ebce34830f09"},"vehicle_type_id":"4","last_reported":1701205605,"current_range_meters":31200,"station_id":"ce4bhah2rcd13ifvqei0","pricing_plan_id":"free"},{"bike_id":"e4f5a648-844b-4fdf-adea-a3e6c94eb263","system_id":"levelo_inurba_marseille","lat":43.284534,"lon":5.358662,"is_reserved":false,"is_disabled":false,"rental_uris":{"android":"levelo://app?vid=e4f5a648-844b-4fdf-adea-a3e6c94eb263","ios":"levelo://app?vid=e4f5a648-844b-4fdf-adea-a3e6c94eb263"},"vehicle_type_id":"4","last_reported":1701205605,"current_range_meters":6800,"station_id":"ce4bhah2rcd13ifvqei0","pricing_plan_id":"free"},{"bike_id":"f9d317a2-ff24-41e6-9549-7f0d05f9ec1e","system_id":"levelo_inurba_marseille","lat":43.284534,"lon":5.358662,"is_reserved":false,"is_disabled":false,"rental_uris":{"android":"levelo://app?vid=f9d317a2-ff24-41e6-9549-7f0d05f9ec1e","ios":"levelo://app?vid=f9d317a2-ff24-41e6-9549-7f0d05f9ec1e"},"vehicle_type_id":"4","last_reported":1701205605,"current_range_meters":25200,"station_id":"ce4bhah2rcd13ifvqei0","pricing_plan_id":"free"},{"bike_id":"25c2ec6d-e178-4d2f-88d3-840244cb8ec0","system_id":"levelo_inurba_marseille","lat":43.284534,"lon":5.358662,"is_reserved":false,"is_disabled":false,"rental_uris":{"android":"levelo://app?vid=25c2ec6d-e178-4d2f-88d3-840244cb8ec0","ios":"levelo://app?vid=25c2ec6d-e178-4d2f-88d3-840244cb8ec0"},"vehicle_type_id":"4","last_reported":1701205605,"current_range_meters":31200,"station_id":"ce4bhah2rcd13ifvqei0","pricing_plan_id":"free"},{"bike_id":"1c2619ec-a39d-45c6-9881-487a969dd1ec","system_id":"levelo_inurba_marseille","lat":43.28628,"lon":5.35096,"is_reserved":false,"is_disabled":false,"rental_uris":{"android":"levelo://app?vid=1c2619ec-a39d-45c6-9881-487a969dd1ec","ios":"levelo://app?vid=1c2619ec-a39d-45c6-9881-487a969dd1ec"},"vehicle_type_id":"4","last_reported":1701205605,"current_range_meters":31200,"station_id":"ce4bhch2rcd13ifvqeug","pricing_plan_id":"free"},{"bike_id":"229f4719-7604-417f-9aee-6c36e0def1e9","system_id":"levelo_inurba_marseille","lat":43.28623,"lon":5.351053,"is_reserved":false,"is_disabled":false,"rental_uris":{"android":"levelo://app?vid=229f4719-7604-417f-9aee-6c36e0def1e9","ios":"levelo://app?vid=229f4719-7604-417f-9aee-6c36e0def1e9"},"vehicle_type_id":"4","last_reported":1701205605,"current_range_meters":25600,"station_id":"ce4bhch2rcd13ifvqeug","pricing_plan_id":"free"},{"bike_id":"4e3bf902-a43e-4c3e-aa91-f4c621c834b6","system_id":"levelo_inurba_marseille","lat":43.28619,"lon":5.35102,"is_reserved":false,"is_disabled":false,"rental_uris":{"android":"levelo://app?vid=4e3bf902-a43e-4c3e-aa91-f4c621c834b6","ios":"levelo://app?vid=4e3bf902-a43e-4c3e-aa91-f4c621c834b6"},"vehicle_type_id":"4","last_reported":1701205605,"current_range_meters":30800,"station_id":"ce4bhch2rcd13ifvqeug","pricing_plan_id":"free"},{"bike_id":"7c6f6130-0650-48a8-bfd8-e068140806bc","system_id":"levelo_inurba_marseille","lat":43.28615,"lon":5.35104,"is_reserved":false,"is_disabled":false,"rental_uris":{"android":"levelo://app?vid=7c6f6130-0650-48a8-bfd8-e068140806bc","ios":"levelo://app?vid=7c6f6130-0650-48a8-bfd8-e068140806bc"},"vehicle_type_id":"4","last_reported":1701205605,"current_range_meters":23600,"station_id":"ce4bhch2rcd13ifvqeug","pricing_plan_id":"free"},{"bike_id":"3a411332-de50-401f-b4fa-5b272c8b4bbf","system_id":"levelo_inurba_marseille","lat":43.285856,"lon":5.350771,"is_reserved":false,"is_disabled":false,"rental_uris":{"android":"levelo://app?vid=3a411332-de50-401f-b4fa-5b272c8b4bbf","ios":"levelo://app?vid=3a411332-de50-401f-b4fa-5b272c8b4bbf"},"vehicle_type_id":"4","last_reported":1701205605,"current_range_meters":30400,"station_id":"ce4bhch2rcd13ifvqeug","pricing_plan_id":"free"},{"bike_id":"f7be22e1-fe6a-463d-9f88-9741c460eeda","system_id":"levelo_inurba_marseille","lat":43.28614,"lon":5.35101,"is_reserved":false,"is_disabled":false,"rental_uris":{"android":"levelo://app?vid=f7be22e1-fe6a-463d-9f88-9741c460eeda","ios":"levelo://app?vid=f7be22e1-fe6a-463d-9f88-9741c460eeda"},"vehicle_type_id":"4","last_reported":1701205605,"current_range_meters":29200,"station_id":"ce4bhch2rcd13ifvqeug","pricing_plan_id":"free"},{"bike_id":"daf6b84b-3aad-43c3-bc21-d06f12203164","system_id":"levelo_inurba_marseille","lat":43.283998,"lon":5.375062,"is_reserved":false,"is_disabled":false,"rental_uris":{"android":"levelo://app?vid=daf6b84b-3aad-43c3-bc21-d06f12203164","ios":"levelo://app?vid=daf6b84b-3aad-43c3-bc21-d06f12203164"},"vehicle_type_id":"4","last_reported":1701205605,"current_range_meters":20800,"station_id":"ce4bh412rcd13ifvqds0","pricing_plan_id":"free"},{"bike_id":"54a0cfc3-0189-4d2f-9bf2-92e16374ced4","system_id":"levelo_inurba_marseille","lat":43.283998,"lon":5.375062,"is_reserved":false,"is_disabled":false,"rental_uris":{"android":"levelo://app?vid=54a0cfc3-0189-4d2f-9bf2-92e16374ced4","ios":"levelo://app?vid=54a0cfc3-0189-4d2f-9bf2-92e16374ced4"},"vehicle_type_id":"4","last_reported":1701205605,"current_range_meters":5600,"station_id":"ce4bh412rcd13ifvqds0","pricing_plan_id":"free"},{"bike_id":"bb08fba1-1d85-49f3-bb19-f02b2f43a564","system_id":"levelo_inurba_marseille","lat":43.283998,"lon":5.375062,"is_reserved":false,"is_disabled":false,"rental_uris":{"android":"levelo://app?vid=bb08fba1-1d85-49f3-bb19-f02b2f43a564","ios":"levelo://app?vid=bb08fba1-1d85-49f3-bb19-f02b2f43a564"},"vehicle_type_id":"4","last_reported":1701205605,"current_range_meters":27200,"station_id":"ce4bh412rcd13ifvqds0","pricing_plan_id":"free"},{"bike_id":"72860c30-41d4-4bc7-8010-479f025df774","system_id":"levelo_inurba_marseille","lat":43.283998,"lon":5.375062,"is_reserved":false,"is_disabled":false,"rental_uris":{"android":"levelo://app?vid=72860c30-41d4-4bc7-8010-479f025df774","ios":"levelo://app?vid=72860c30-41d4-4bc7-8010-479f025df774"},"vehicle_type_id":"4","last_reported":1701205605,"current_range_meters":8800,"station_id":"ce4bh412rcd13ifvqds0","pricing_plan_id":"free"},{"bike_id":"7601045f-9d45-46ee-ac60-4ea59394e47e","system_id":"levelo_inurba_marseille","lat":43.33717,"lon":5.391857,"is_reserved":false,"is_disabled":false,"rental_uris":{"android":"levelo://app?vid=7601045f-9d45-46ee-ac60-4ea59394e47e","ios":"levelo://app?vid=7601045f-9d45-46ee-ac60-4ea59394e47e"},"vehicle_type_id":"4","last_reported":1701205605,"current_range_meters":22000,"station_id":"ce4bhr92rcd13ifvqhsg","pricing_plan_id":"free"},{"bike_id":"c3bf2d53-b0cc-4d41-a634-72976fc395bf","system_id":"levelo_inurba_marseille","lat":43.323464,"lon":5.406297,"is_reserved":false,"is_disabled":false,"rental_uris":{"android":"levelo://app?vid=c3bf2d53-b0cc-4d41-a634-72976fc395bf","ios":"levelo://app?vid=c3bf2d53-b0cc-4d41-a634-72976fc395bf"},"vehicle_type_id":"4","last_reported":1701205605,"current_range_meters":26400,"station_id":"ce4bhq92rcd13ifvqhjg","pricing_plan_id":"free"},{"bike_id":"9c2b0bf1-41c8-4f85-aea0-5272aa18387b","system_id":"levelo_inurba_marseille","lat":43.297946,"lon":5.404063,"is_reserved":false,"is_disabled":false,"rental_uris":{"android":"levelo://app?vid=9c2b0bf1-41c8-4f85-aea0-5272aa18387b","ios":"levelo://app?vid=9c2b0bf1-41c8-4f85-aea0-5272aa18387b"},"vehicle_type_id":"4","last_reported":1701205605,"current_range_meters":29200,"station_id":"ce4bh112rcd13ifvqd90","pricing_plan_id":"free"},{"bike_id":"438ea98d-bbf8-4841-a9da-0dd1e60fd016","system_id":"levelo_inurba_marseille","lat":43.297946,"lon":5.404063,"is_reserved":false,"is_disabled":false,"rental_uris":{"android":"levelo://app?vid=438ea98d-bbf8-4841-a9da-0dd1e60fd016","ios":"levelo://app?vid=438ea98d-bbf8-4841-a9da-0dd1e60fd016"},"vehicle_type_id":"4","last_reported":1701205605,"current_range_meters":29600,"station_id":"ce4bh112rcd13ifvqd90","pricing_plan_id":"free"},{"bike_id":"aa2d95db-16ad-4ae3-8f0a-46246a3f386d","system_id":"levelo_inurba_marseille","lat":43.283494,"lon":5.380945,"is_reserved":false,"is_disabled":false,"rental_uris":{"android":"levelo://app?vid=aa2d95db-16ad-4ae3-8f0a-46246a3f386d","ios":"levelo://app?vid=aa2d95db-16ad-4ae3-8f0a-46246a3f386d"},"vehicle_type_id":"4","last_reported":1701205605,"current_range_meters":21200,"station_id":"ce4bh412rcd13ifvqdr0","pricing_plan_id":"free"},{"bike_id":"35f0c128-ade4-4d01-a075-97a38d9d9c62","system_id":"levelo_inurba_marseille","lat":43.283494,"lon":5.380945,"is_reserved":false,"is_disabled":false,"rental_uris":{"android":"levelo://app?vid=35f0c128-ade4-4d01-a075-97a38d9d9c62","ios":"levelo://app?vid=35f0c128-ade4-4d01-a075-97a38d9d9c62"},"vehicle_type_id":"4","last_reported":1701205605,"current_range_meters":12400,"station_id":"ce4bh412rcd13ifvqdr0","pricing_plan_id":"free"},{"bike_id":"2c73d258-726b-458a-a17d-5bb59ebe2373","system_id":"levelo_inurba_marseille","lat":43.284217,"lon":5.349697,"is_reserved":false,"is_disabled":false,"rental_uris":{"android":"levelo://app?vid=2c73d258-726b-458a-a17d-5bb59ebe2373","ios":"levelo://app?vid=2c73d258-726b-458a-a17d-5bb59ebe2373"},"vehicle_type_id":"4","last_reported":1701205605,"current_range_meters":22000,"station_id":"ce4bhbh2rcd13ifvqepg","pricing_plan_id":"free"},{"bike_id":"1562f9ac-8fa1-4b1c-a12e-af0ae46032f5","system_id":"levelo_inurba_marseille","lat":43.284217,"lon":5.349697,"is_reserved":false,"is_disabled":false,"rental_uris":{"android":"levelo://app?vid=1562f9ac-8fa1-4b1c-a12e-af0ae46032f5","ios":"levelo://app?vid=1562f9ac-8fa1-4b1c-a12e-af0ae46032f5"},"vehicle_type_id":"4","last_reported":1701205605,"current_range_meters":23200,"station_id":"ce4bhbh2rcd13ifvqepg","pricing_plan_id":"free"},{"bike_id":"6c686f1d-c3c0-40b3-9502-fdaf48978be6","system_id":"levelo_inurba_marseille","lat":43.292724,"lon":5.401131,"is_reserved":false,"is_disabled":false,"rental_uris":{"android":"levelo://app?vid=6c686f1d-c3c0-40b3-9502-fdaf48978be6","ios":"levelo://app?vid=6c686f1d-c3c0-40b3-9502-fdaf48978be6"},"vehicle_type_id":"4","last_reported":1701205605,"current_range_meters":1600,"station_id":"ce4bh312rcd13ifvqdk0","pricing_plan_id":"free"},{"bike_id":"79d58224-4b3f-4996-8590-f2db2c882e5b","system_id":"levelo_inurba_marseille","lat":43.292724,"lon":5.401131,"is_reserved":false,"is_disabled":false,"rental_uris":{"android":"levelo://app?vid=79d58224-4b3f-4996-8590-f2db2c882e5b","ios":"levelo://app?vid=79d58224-4b3f-4996-8590-f2db2c882e5b"},"vehicle_type_id":"4","last_reported":1701205605,"current_range_meters":2800,"station_id":"ce4bh312rcd13ifvqdk0","pricing_plan_id":"free"},{"bike_id":"e4aeb4f8-feae-40be-9dd8-4f8912d79314","system_id":"levelo_inurba_marseille","lat":43.282744,"lon":5.350533,"is_reserved":false,"is_disabled":false,"rental_uris":{"android":"levelo://app?vid=e4aeb4f8-feae-40be-9dd8-4f8912d79314","ios":"levelo://app?vid=e4aeb4f8-feae-40be-9dd8-4f8912d79314"},"vehicle_type_id":"4","last_reported":1701205605,"current_range_meters":28800,"station_id":"ce4bhbp2rcd13ifvqerg","pricing_plan_id":"free"},{"bike_id":"67af646b-0905-4a95-bbdc-393054868a64","system_id":"levelo_inurba_marseille","lat":43.28266,"lon":5.3507,"is_reserved":false,"is_disabled":false,"rental_uris":{"android":"levelo://app?vid=67af646b-0905-4a95-bbdc-393054868a64","ios":"levelo://app?vid=67af646b-0905-4a95-bbdc-393054868a64"},"vehicle_type_id":"4","last_reported":1701205605,"current_range_meters":0,"station_id":"ce4bhbp2rcd13ifvqerg","pricing_plan_id":"free"},{"bike_id":"f947ac04-b32d-4416-b67f-d60000149146","system_id":"levelo_inurba_marseille","lat":43.282744,"lon":5.350533,"is_reserved":false,"is_disabled":false,"rental_uris":{"android":"levelo://app?vid=f947ac04-b32d-4416-b67f-d60000149146","ios":"levelo://app?vid=f947ac04-b32d-4416-b67f-d60000149146"},"vehicle_type_id":"4","last_reported":1701205605,"current_range_meters":31200,"station_id":"ce4bhbp2rcd13ifvqerg","pricing_plan_id":"free"},{"bike_id":"d5956e3d-d3de-48b3-9bec-2beb921f893f","system_id":"levelo_inurba_marseille","lat":43.282744,"lon":5.350533,"is_reserved":false,"is_disabled":false,"rental_uris":{"android":"levelo://app?vid=d5956e3d-d3de-48b3-9bec-2beb921f893f","ios":"levelo://app?vid=d5956e3d-d3de-48b3-9bec-2beb921f893f"},"vehicle_type_id":"4","last_reported":1701205605,"current_range_meters":13600,"station_id":"ce4bhbp2rcd13ifvqerg","pricing_plan_id":"free"},{"bike_id":"90bb93de-60c6-45f1-8989-bac32159e22e","system_id":"levelo_inurba_marseille","lat":43.280412,"lon":5.369463,"is_reserved":false,"is_disabled":false,"rental_uris":{"android":"levelo://app?vid=90bb93de-60c6-45f1-8989-bac32159e22e","ios":"levelo://app?vid=90bb93de-60c6-45f1-8989-bac32159e22e"},"vehicle_type_id":"4","last_reported":1701205605,"current_range_meters":0,"station_id":"ce4bha12rcd13ifvqef0","pricing_plan_id":"free"},{"bike_id":"f8e93a5f-b85d-4c01-8630-1453bb55b231","system_id":"levelo_inurba_marseille","lat":43.282744,"lon":5.350533,"is_reserved":false,"is_disabled":false,"rental_uris":{"android":"levelo://app?vid=f8e93a5f-b85d-4c01-8630-1453bb55b231","ios":"levelo://app?vid=f8e93a5f-b85d-4c01-8630-1453bb55b231"},"vehicle_type_id":"4","last_reported":1701205605,"current_range_meters":31600,"station_id":"ce4bhbp2rcd13ifvqerg","pricing_plan_id":"free"},{"bike_id":"02c5e94d-af4d-4288-85c2-35168750e080","system_id":"levelo_inurba_marseille","lat":43.28039,"lon":5.369297,"is_reserved":false,"is_disabled":false,"rental_uris":{"android":"levelo://app?vid=02c5e94d-af4d-4288-85c2-35168750e080","ios":"levelo://app?vid=02c5e94d-af4d-4288-85c2-35168750e080"},"vehicle_type_id":"4","last_reported":1701205605,"current_range_meters":5200,"station_id":"ce4bha12rcd13ifvqef0","pricing_plan_id":"free"},{"bike_id":"52247a62-d59f-4d74-bea3-d9131cb788c0","system_id":"levelo_inurba_marseille","lat":43.28039,"lon":5.369297,"is_reserved":false,"is_disabled":false,"rental_uris":{"android":"levelo://app?vid=52247a62-d59f-4d74-bea3-d9131cb788c0","ios":"levelo://app?vid=52247a62-d59f-4d74-bea3-d9131cb788c0"},"vehicle_type_id":"4","last_reported":1701205605,"current_range_meters":28000,"station_id":"ce4bha12rcd13ifvqef0","pricing_plan_id":"free"},{"bike_id":"4b5b5b9a-04c9-4c9b-9f27-7f62860aeb4d","system_id":"levelo_inurba_marseille","lat":43.28032,"lon":5.36952,"is_reserved":false,"is_disabled":false,"rental_uris":{"android":"levelo://app?vid=4b5b5b9a-04c9-4c9b-9f27-7f62860aeb4d","ios":"levelo://app?vid=4b5b5b9a-04c9-4c9b-9f27-7f62860aeb4d"},"vehicle_type_id":"4","last_reported":1701205605,"current_range_meters":25600,"station_id":"ce4bha12rcd13ifvqef0","pricing_plan_id":"free"},{"bike_id":"e59e456b-08bb-4e0f-b88f-d063a3242c94","system_id":"levelo_inurba_marseille","lat":43.281044,"lon":5.378308,"is_reserved":false,"is_disabled":false,"rental_uris":{"android":"levelo://app?vid=e59e456b-08bb-4e0f-b88f-d063a3242c94","ios":"levelo://app?vid=e59e456b-08bb-4e0f-b88f-d063a3242c94"},"vehicle_type_id":"4","last_reported":1701205605,"current_range_meters":12800,"station_id":"ce4bha12rcd13ifvqee0","pricing_plan_id":"free"},{"bike_id":"91a22a57-2385-41ca-9773-d5ddf5f3614b","system_id":"levelo_inurba_marseille","lat":43.29041,"lon":5.399634,"is_reserved":false,"is_disabled":false,"rental_uris":{"android":"levelo://app?vid=91a22a57-2385-41ca-9773-d5ddf5f3614b","ios":"levelo://app?vid=91a22a57-2385-41ca-9773-d5ddf5f3614b"},"vehicle_type_id":"4","last_reported":1701205605,"current_range_meters":18800,"station_id":"ce4bh392rcd13ifvqdm0","pricing_plan_id":"free"},{"bike_id":"7ac741a1-22fe-45d7-be42-3360560d78fe","system_id":"levelo_inurba_marseille","lat":43.281044,"lon":5.378308,"is_reserved":false,"is_disabled":false,"rental_uris":{"android":"levelo://app?vid=7ac741a1-22fe-45d7-be42-3360560d78fe","ios":"levelo://app?vid=7ac741a1-22fe-45d7-be42-3360560d78fe"},"vehicle_type_id":"4","last_reported":1701205605,"current_range_meters":13200,"station_id":"ce4bha12rcd13ifvqee0","pricing_plan_id":"free"},{"bike_id":"c3d040bf-f09b-4296-b06e-358ed99b5f65","system_id":"levelo_inurba_marseille","lat":43.281044,"lon":5.378308,"is_reserved":false,"is_disabled":false,"rental_uris":{"android":"levelo://app?vid=c3d040bf-f09b-4296-b06e-358ed99b5f65","ios":"levelo://app?vid=c3d040bf-f09b-4296-b06e-358ed99b5f65"},"vehicle_type_id":"4","last_reported":1701205605,"current_range_meters":26400,"station_id":"ce4bha12rcd13ifvqee0","pricing_plan_id":"free"},{"bike_id":"613824d3-1ceb-4dbb-a9cc-5628e0ab6574","system_id":"levelo_inurba_marseille","lat":43.281044,"lon":5.378308,"is_reserved":false,"is_disabled":false,"rental_uris":{"android":"levelo://app?vid=613824d3-1ceb-4dbb-a9cc-5628e0ab6574","ios":"levelo://app?vid=613824d3-1ceb-4dbb-a9cc-5628e0ab6574"},"vehicle_type_id":"4","last_reported":1701205605,"current_range_meters":17200,"station_id":"ce4bha12rcd13ifvqee0","pricing_plan_id":"free"},{"bike_id":"ba5ccc92-2c04-4b62-b04c-ce25a5362437","system_id":"levelo_inurba_marseille","lat":43.284462,"lon":5.392121,"is_reserved":false,"is_disabled":false,"rental_uris":{"android":"levelo://app?vid=ba5ccc92-2c04-4b62-b04c-ce25a5362437","ios":"levelo://app?vid=ba5ccc92-2c04-4b62-b04c-ce25a5362437"},"vehicle_type_id":"4","last_reported":1701205605,"current_range_meters":20400,"station_id":"ce4bhoh2rcd13ifvqh5g","pricing_plan_id":"free"},{"bike_id":"88844d8c-363b-4d03-a0bc-24ba22360bbe","system_id":"levelo_inurba_marseille","lat":43.284462,"lon":5.392121,"is_reserved":false,"is_disabled":false,"rental_uris":{"android":"levelo://app?vid=88844d8c-363b-4d03-a0bc-24ba22360bbe","ios":"levelo://app?vid=88844d8c-363b-4d03-a0bc-24ba22360bbe"},"vehicle_type_id":"4","last_reported":1701205605,"current_range_meters":17600,"station_id":"ce4bhoh2rcd13ifvqh5g","pricing_plan_id":"free"},{"bike_id":"d45f3036-d4ee-4b1d-8516-7ff6bf341276","system_id":"levelo_inurba_marseille","lat":43.284462,"lon":5.392121,"is_reserved":false,"is_disabled":false,"rental_uris":{"android":"levelo://app?vid=d45f3036-d4ee-4b1d-8516-7ff6bf341276","ios":"levelo://app?vid=d45f3036-d4ee-4b1d-8516-7ff6bf341276"},"vehicle_type_id":"4","last_reported":1701205605,"current_range_meters":18400,"station_id":"ce4bhoh2rcd13ifvqh5g","pricing_plan_id":"free"},{"bike_id":"48a41a7c-9063-4177-be08-61690862859d","system_id":"levelo_inurba_marseille","lat":43.304188,"lon":5.412904,"is_reserved":false,"is_disabled":false,"rental_uris":{"android":"levelo://app?vid=48a41a7c-9063-4177-be08-61690862859d","ios":"levelo://app?vid=48a41a7c-9063-4177-be08-61690862859d"},"vehicle_type_id":"4","last_reported":1701205605,"current_range_meters":10000,"station_id":"ce4bhop2rcd13ifvqh8g","pricing_plan_id":"free"},{"bike_id":"cd5ca4f0-5405-425a-b0d2-db757ba827ad","system_id":"levelo_inurba_marseille","lat":43.279087,"lon":5.380114,"is_reserved":false,"is_disabled":false,"rental_uris":{"android":"levelo://app?vid=cd5ca4f0-5405-425a-b0d2-db757ba827ad","ios":"levelo://app?vid=cd5ca4f0-5405-425a-b0d2-db757ba827ad"},"vehicle_type_id":"4","last_reported":1701205605,"current_range_meters":26400,"station_id":"ce4bhf92rcd13ifvqf50","pricing_plan_id":"free"},{"bike_id":"2fc37d2f-c266-4beb-88cf-6bb13ddadb64","system_id":"levelo_inurba_marseille","lat":43.279087,"lon":5.380114,"is_reserved":false,"is_disabled":false,"rental_uris":{"android":"levelo://app?vid=2fc37d2f-c266-4beb-88cf-6bb13ddadb64","ios":"levelo://app?vid=2fc37d2f-c266-4beb-88cf-6bb13ddadb64"},"vehicle_type_id":"4","last_reported":1701205605,"current_range_meters":28400,"station_id":"ce4bhf92rcd13ifvqf50","pricing_plan_id":"free"},{"bike_id":"71d49d15-72a1-4ce0-a668-e881f5d81bfc","system_id":"levelo_inurba_marseille","lat":43.280497,"lon":5.38672,"is_reserved":false,"is_disabled":false,"rental_uris":{"android":"levelo://app?vid=71d49d15-72a1-4ce0-a668-e881f5d81bfc","ios":"levelo://app?vid=71d49d15-72a1-4ce0-a668-e881f5d81bfc"},"vehicle_type_id":"4","last_reported":1701205605,"current_range_meters":10000,"station_id":"","pricing_plan_id":"free"},{"bike_id":"ae2e511e-49df-42a8-94ad-65765af5ec97","system_id":"levelo_inurba_marseille","lat":43.279742,"lon":5.38744,"is_reserved":false,"is_disabled":false,"rental_uris":{"android":"levelo://app?vid=ae2e511e-49df-42a8-94ad-65765af5ec97","ios":"levelo://app?vid=ae2e511e-49df-42a8-94ad-65765af5ec97"},"vehicle_type_id":"4","last_reported":1701205605,"current_range_meters":21200,"station_id":"ce4bhg12rcd13ifvqf80","pricing_plan_id":"free"},{"bike_id":"50289298-ce8a-4ddf-bd57-79e118aafb72","system_id":"levelo_inurba_marseille","lat":43.27966,"lon":5.38731,"is_reserved":false,"is_disabled":false,"rental_uris":{"android":"levelo://app?vid=50289298-ce8a-4ddf-bd57-79e118aafb72","ios":"levelo://app?vid=50289298-ce8a-4ddf-bd57-79e118aafb72"},"vehicle_type_id":"4","last_reported":1701205605,"current_range_meters":0,"station_id":"ce4bhg12rcd13ifvqf80","pricing_plan_id":"free"},{"bike_id":"3f56fa1d-41bc-439c-a96b-335cba58a9a8","system_id":"levelo_inurba_marseille","lat":43.292571,"lon":5.409107,"is_reserved":false,"is_disabled":false,"rental_uris":{"android":"levelo://app?vid=3f56fa1d-41bc-439c-a96b-335cba58a9a8","ios":"levelo://app?vid=3f56fa1d-41bc-439c-a96b-335cba58a9a8"},"vehicle_type_id":"4","last_reported":1701205605,"current_range_meters":12800,"station_id":"ce4bh192rcd13ifvqdc0","pricing_plan_id":"free"},{"bike_id":"0d410972-8ed3-4feb-8b85-4fc4b172d7fc","system_id":"levelo_inurba_marseille","lat":43.27618,"lon":5.361009,"is_reserved":false,"is_disabled":false,"rental_uris":{"android":"levelo://app?vid=0d410972-8ed3-4feb-8b85-4fc4b172d7fc","ios":"levelo://app?vid=0d410972-8ed3-4feb-8b85-4fc4b172d7fc"},"vehicle_type_id":"4","last_reported":1701205605,"current_range_meters":18800,"station_id":"ce4bgj92rcd13ifvqbe0","pricing_plan_id":"free"},{"bike_id":"0ae4b498-b77c-4813-af12-4503794660e1","system_id":"levelo_inurba_marseille","lat":43.280784,"lon":5.396622,"is_reserved":false,"is_disabled":false,"rental_uris":{"android":"levelo://app?vid=0ae4b498-b77c-4813-af12-4503794660e1","ios":"levelo://app?vid=0ae4b498-b77c-4813-af12-4503794660e1"},"vehicle_type_id":"4","last_reported":1701205605,"current_range_meters":28400,"station_id":"ce4bho12rcd13ifvqh2g","pricing_plan_id":"free"},{"bike_id":"e46799c7-08bb-4345-b4bd-243634ac6a57","system_id":"levelo_inurba_marseille","lat":43.280784,"lon":5.396622,"is_reserved":false,"is_disabled":false,"rental_uris":{"android":"levelo://app?vid=e46799c7-08bb-4345-b4bd-243634ac6a57","ios":"levelo://app?vid=e46799c7-08bb-4345-b4bd-243634ac6a57"},"vehicle_type_id":"4","last_reported":1701205605,"current_range_meters":26400,"station_id":"ce4bho12rcd13ifvqh2g","pricing_plan_id":"free"},{"bike_id":"b4583c3d-2570-4bbd-afdc-ccade69f8e0c","system_id":"levelo_inurba_marseille","lat":43.280784,"lon":5.396622,"is_reserved":false,"is_disabled":false,"rental_uris":{"android":"levelo://app?vid=b4583c3d-2570-4bbd-afdc-ccade69f8e0c","ios":"levelo://app?vid=b4583c3d-2570-4bbd-afdc-ccade69f8e0c"},"vehicle_type_id":"4","last_reported":1701205605,"current_range_meters":9600,"station_id":"ce4bho12rcd13ifvqh2g","pricing_plan_id":"free"},{"bike_id":"35484760-db3f-4a9d-8ca9-dd36e038697d","system_id":"levelo_inurba_marseille","lat":43.280784,"lon":5.396622,"is_reserved":false,"is_disabled":false,"rental_uris":{"android":"levelo://app?vid=35484760-db3f-4a9d-8ca9-dd36e038697d","ios":"levelo://app?vid=35484760-db3f-4a9d-8ca9-dd36e038697d"},"vehicle_type_id":"4","last_reported":1701205605,"current_range_meters":25200,"station_id":"ce4bho12rcd13ifvqh2g","pricing_plan_id":"free"},{"bike_id":"a84fbda8-85ff-4a24-9360-710ad38bea84","system_id":"levelo_inurba_marseille","lat":43.280784,"lon":5.396622,"is_reserved":false,"is_disabled":false,"rental_uris":{"android":"levelo://app?vid=a84fbda8-85ff-4a24-9360-710ad38bea84","ios":"levelo://app?vid=a84fbda8-85ff-4a24-9360-710ad38bea84"},"vehicle_type_id":"4","last_reported":1701205605,"current_range_meters":17600,"station_id":"ce4bho12rcd13ifvqh2g","pricing_plan_id":"free"},{"bike_id":"89994751-0841-4081-a589-d53f506df74d","system_id":"levelo_inurba_marseille","lat":43.280784,"lon":5.396622,"is_reserved":false,"is_disabled":false,"rental_uris":{"android":"levelo://app?vid=89994751-0841-4081-a589-d53f506df74d","ios":"levelo://app?vid=89994751-0841-4081-a589-d53f506df74d"},"vehicle_type_id":"4","last_reported":1701205605,"current_range_meters":6400,"station_id":"ce4bho12rcd13ifvqh2g","pricing_plan_id":"free"},{"bike_id":"6ae6cffd-f3fa-4656-ae34-9b09325ffa6a","system_id":"levelo_inurba_marseille","lat":43.303837,"lon":5.418724,"is_reserved":false,"is_disabled":false,"rental_uris":{"android":"levelo://app?vid=6ae6cffd-f3fa-4656-ae34-9b09325ffa6a","ios":"levelo://app?vid=6ae6cffd-f3fa-4656-ae34-9b09325ffa6a"},"vehicle_type_id":"4","last_reported":1701205605,"current_range_meters":29600,"station_id":"ce4bhop2rcd13ifvqh7g","pricing_plan_id":"free"},{"bike_id":"41867646-3764-4a9e-891c-0e999d0ccd0b","system_id":"levelo_inurba_marseille","lat":43.278401,"lon":5.392152,"is_reserved":false,"is_disabled":false,"rental_uris":{"android":"levelo://app?vid=41867646-3764-4a9e-891c-0e999d0ccd0b","ios":"levelo://app?vid=41867646-3764-4a9e-891c-0e999d0ccd0b"},"vehicle_type_id":"4","last_reported":1701205605,"current_range_meters":30400,"station_id":"ce4bhjp2rcd13ifvqga0","pricing_plan_id":"free"},{"bike_id":"36e8730e-4c89-40e3-8e10-5535454c26d7","system_id":"levelo_inurba_marseille","lat":43.278401,"lon":5.392152,"is_reserved":false,"is_disabled":false,"rental_uris":{"android":"levelo://app?vid=36e8730e-4c89-40e3-8e10-5535454c26d7","ios":"levelo://app?vid=36e8730e-4c89-40e3-8e10-5535454c26d7"},"vehicle_type_id":"4","last_reported":1701205605,"current_range_meters":11600,"station_id":"ce4bhjp2rcd13ifvqga0","pricing_plan_id":"free"},{"bike_id":"b36a6119-b72a-44f6-8f8d-fd28b5363e66","system_id":"levelo_inurba_marseille","lat":43.278399,"lon":5.392139,"is_reserved":false,"is_disabled":false,"rental_uris":{"android":"levelo://app?vid=b36a6119-b72a-44f6-8f8d-fd28b5363e66","ios":"levelo://app?vid=b36a6119-b72a-44f6-8f8d-fd28b5363e66"},"vehicle_type_id":"4","last_reported":1701205605,"current_range_meters":24000,"station_id":"ce4bhjp2rcd13ifvqga0","pricing_plan_id":"free"},{"bike_id":"c78d9778-891e-4402-aafb-a0e1da2ab261","system_id":"levelo_inurba_marseille","lat":43.275625,"lon":5.384392,"is_reserved":false,"is_disabled":false,"rental_uris":{"android":"levelo://app?vid=c78d9778-891e-4402-aafb-a0e1da2ab261","ios":"levelo://app?vid=c78d9778-891e-4402-aafb-a0e1da2ab261"},"vehicle_type_id":"4","last_reported":1701205605,"current_range_meters":15200,"station_id":"ce4bhh92rcd13ifvqfi0","pricing_plan_id":"free"},{"bike_id":"5676556d-60ca-44de-be13-9b40b562fc07","system_id":"levelo_inurba_marseille","lat":43.273613,"lon":5.362705,"is_reserved":false,"is_disabled":false,"rental_uris":{"android":"levelo://app?vid=5676556d-60ca-44de-be13-9b40b562fc07","ios":"levelo://app?vid=5676556d-60ca-44de-be13-9b40b562fc07"},"vehicle_type_id":"4","last_reported":1701205605,"current_range_meters":22000,"station_id":"ce4bhbh2rcd13ifvqeo0","pricing_plan_id":"free"},{"bike_id":"856f0679-fc9f-4639-b2ab-d2a04c4063b2","system_id":"levelo_inurba_marseille","lat":43.279952,"lon":5.400085,"is_reserved":false,"is_disabled":false,"rental_uris":{"android":"levelo://app?vid=856f0679-fc9f-4639-b2ab-d2a04c4063b2","ios":"levelo://app?vid=856f0679-fc9f-4639-b2ab-d2a04c4063b2"},"vehicle_type_id":"4","last_reported":1701205605,"current_range_meters":18000,"station_id":"ce4bho92rcd13ifvqh4g","pricing_plan_id":"free"},{"bike_id":"b96aa254-24de-41e1-8c05-b7d04ceb4118","system_id":"levelo_inurba_marseille","lat":43.317121,"lon":5.423936,"is_reserved":false,"is_disabled":false,"rental_uris":{"android":"levelo://app?vid=b96aa254-24de-41e1-8c05-b7d04ceb4118","ios":"levelo://app?vid=b96aa254-24de-41e1-8c05-b7d04ceb4118"},"vehicle_type_id":"4","last_reported":1701205605,"current_range_meters":28400,"station_id":"ce4bhp92rcd13ifvqhbg","pricing_plan_id":"free"},{"bike_id":"0d2f8383-0939-4bbd-987a-b05def9a4f03","system_id":"levelo_inurba_marseille","lat":43.31082,"lon":5.42429,"is_reserved":false,"is_disabled":false,"rental_uris":{"android":"levelo://app?vid=0d2f8383-0939-4bbd-987a-b05def9a4f03","ios":"levelo://app?vid=0d2f8383-0939-4bbd-987a-b05def9a4f03"},"vehicle_type_id":"4","last_reported":1701205605,"current_range_meters":28400,"station_id":"ce4bhp92rcd13ifvqhag","pricing_plan_id":"free"},{"bike_id":"b12886d8-57f4-4743-a99d-5cda51405d9d","system_id":"levelo_inurba_marseille","lat":43.274103,"lon":5.394016,"is_reserved":false,"is_disabled":false,"rental_uris":{"android":"levelo://app?vid=b12886d8-57f4-4743-a99d-5cda51405d9d","ios":"levelo://app?vid=b12886d8-57f4-4743-a99d-5cda51405d9d"},"vehicle_type_id":"4","last_reported":1701205605,"current_range_meters":30800,"station_id":"ce4bhdp2rcd13ifvqf20","pricing_plan_id":"free"},{"bike_id":"62cfa572-51d4-4a04-9e45-ea785883caeb","system_id":"levelo_inurba_marseille","lat":43.27215,"lon":5.39262,"is_reserved":false,"is_disabled":false,"rental_uris":{"android":"levelo://app?vid=62cfa572-51d4-4a04-9e45-ea785883caeb","ios":"levelo://app?vid=62cfa572-51d4-4a04-9e45-ea785883caeb"},"vehicle_type_id":"4","last_reported":1701205605,"current_range_meters":14000,"station_id":"","pricing_plan_id":"free"},{"bike_id":"38f175ae-65e3-4441-bcec-8c3f494df2b3","system_id":"levelo_inurba_marseille","lat":43.278128,"lon":5.407195,"is_reserved":false,"is_disabled":false,"rental_uris":{"android":"levelo://app?vid=38f175ae-65e3-4441-bcec-8c3f494df2b3","ios":"levelo://app?vid=38f175ae-65e3-4441-bcec-8c3f494df2b3"},"vehicle_type_id":"4","last_reported":1701205605,"current_range_meters":30400,"station_id":"ce4bhnh2rcd13ifvqgtg","pricing_plan_id":"free"},{"bike_id":"8b142e0b-7054-49c4-8717-843238b69b39","system_id":"levelo_inurba_marseille","lat":43.278128,"lon":5.407195,"is_reserved":false,"is_disabled":false,"rental_uris":{"android":"levelo://app?vid=8b142e0b-7054-49c4-8717-843238b69b39","ios":"levelo://app?vid=8b142e0b-7054-49c4-8717-843238b69b39"},"vehicle_type_id":"4","last_reported":1701205605,"current_range_meters":31200,"station_id":"ce4bhnh2rcd13ifvqgtg","pricing_plan_id":"free"},{"bike_id":"7a4dcdfc-9a27-49ba-b9fb-f54a01f2d9b2","system_id":"levelo_inurba_marseille","lat":43.278128,"lon":5.407195,"is_reserved":false,"is_disabled":false,"rental_uris":{"android":"levelo://app?vid=7a4dcdfc-9a27-49ba-b9fb-f54a01f2d9b2","ios":"levelo://app?vid=7a4dcdfc-9a27-49ba-b9fb-f54a01f2d9b2"},"vehicle_type_id":"4","last_reported":1701205605,"current_range_meters":31200,"station_id":"ce4bhnh2rcd13ifvqgtg","pricing_plan_id":"free"},{"bike_id":"861ce127-c633-47c4-a541-50848c0dc844","system_id":"levelo_inurba_marseille","lat":43.278128,"lon":5.407195,"is_reserved":false,"is_disabled":false,"rental_uris":{"android":"levelo://app?vid=861ce127-c633-47c4-a541-50848c0dc844","ios":"levelo://app?vid=861ce127-c633-47c4-a541-50848c0dc844"},"vehicle_type_id":"4","last_reported":1701205605,"current_range_meters":26000,"station_id":"ce4bhnh2rcd13ifvqgtg","pricing_plan_id":"free"},{"bike_id":"c9f8a0a6-16e5-4ff4-a061-6028550e1760","system_id":"levelo_inurba_marseille","lat":43.278128,"lon":5.407195,"is_reserved":false,"is_disabled":false,"rental_uris":{"android":"levelo://app?vid=c9f8a0a6-16e5-4ff4-a061-6028550e1760","ios":"levelo://app?vid=c9f8a0a6-16e5-4ff4-a061-6028550e1760"},"vehicle_type_id":"4","last_reported":1701205605,"current_range_meters":13200,"station_id":"ce4bhnh2rcd13ifvqgtg","pricing_plan_id":"free"},{"bike_id":"42e9b9ac-3409-4bd1-9d3c-19eeb06c37c5","system_id":"levelo_inurba_marseille","lat":43.278128,"lon":5.407195,"is_reserved":false,"is_disabled":false,"rental_uris":{"android":"levelo://app?vid=42e9b9ac-3409-4bd1-9d3c-19eeb06c37c5","ios":"levelo://app?vid=42e9b9ac-3409-4bd1-9d3c-19eeb06c37c5"},"vehicle_type_id":"4","last_reported":1701205605,"current_range_meters":29200,"station_id":"ce4bhnh2rcd13ifvqgtg","pricing_plan_id":"free"},{"bike_id":"3225fb83-0680-4e47-b873-e4f092068a31","system_id":"levelo_inurba_marseille","lat":43.27809,"lon":5.40717,"is_reserved":false,"is_disabled":false,"rental_uris":{"android":"levelo://app?vid=3225fb83-0680-4e47-b873-e4f092068a31","ios":"levelo://app?vid=3225fb83-0680-4e47-b873-e4f092068a31"},"vehicle_type_id":"4","last_reported":1701205605,"current_range_meters":31200,"station_id":"ce4bhnh2rcd13ifvqgtg","pricing_plan_id":"free"},{"bike_id":"c7faed10-a6b1-49b6-903c-20f7d23207a5","system_id":"levelo_inurba_marseille","lat":43.279465,"lon":5.410561,"is_reserved":false,"is_disabled":false,"rental_uris":{"android":"levelo://app?vid=c7faed10-a6b1-49b6-903c-20f7d23207a5","ios":"levelo://app?vid=c7faed10-a6b1-49b6-903c-20f7d23207a5"},"vehicle_type_id":"4","last_reported":1701205605,"current_range_meters":31200,"station_id":"ce4bhnp2rcd13ifvqh0g","pricing_plan_id":"free"},{"bike_id":"fd6076a2-900b-45c7-a82d-f0f0875b7fad","system_id":"levelo_inurba_marseille","lat":43.279471,"lon":5.410468,"is_reserved":false,"is_disabled":false,"rental_uris":{"android":"levelo://app?vid=fd6076a2-900b-45c7-a82d-f0f0875b7fad","ios":"levelo://app?vid=fd6076a2-900b-45c7-a82d-f0f0875b7fad"},"vehicle_type_id":"4","last_reported":1701205605,"current_range_meters":23600,"station_id":"ce4bhnp2rcd13ifvqh0g","pricing_plan_id":"free"},{"bike_id":"beaa9004-ca32-4f21-a37f-42789043b0d9","system_id":"levelo_inurba_marseille","lat":43.26681,"lon":5.382694,"is_reserved":false,"is_disabled":false,"rental_uris":{"android":"levelo://app?vid=beaa9004-ca32-4f21-a37f-42789043b0d9","ios":"levelo://app?vid=beaa9004-ca32-4f21-a37f-42789043b0d9"},"vehicle_type_id":"4","last_reported":1701205605,"current_range_meters":18400,"station_id":"ce4bhg92rcd13ifvqf90","pricing_plan_id":"free"},{"bike_id":"998756c4-33d5-43ee-8d59-0d18ec85cc5c","system_id":"levelo_inurba_marseille","lat":43.265558,"lon":5.372848,"is_reserved":false,"is_disabled":false,"rental_uris":{"android":"levelo://app?vid=998756c4-33d5-43ee-8d59-0d18ec85cc5c","ios":"levelo://app?vid=998756c4-33d5-43ee-8d59-0d18ec85cc5c"},"vehicle_type_id":"4","last_reported":1701205605,"current_range_meters":24400,"station_id":"ce4bhg12rcd13ifvqf70","pricing_plan_id":"free"},{"bike_id":"8049c51c-069c-4ea1-8b0b-97c2ca8cb022","system_id":"levelo_inurba_marseille","lat":43.27993,"lon":5.41663,"is_reserved":false,"is_disabled":false,"rental_uris":{"android":"levelo://app?vid=8049c51c-069c-4ea1-8b0b-97c2ca8cb022","ios":"levelo://app?vid=8049c51c-069c-4ea1-8b0b-97c2ca8cb022"},"vehicle_type_id":"4","last_reported":1701205605,"current_range_meters":27600,"station_id":"ce4bho12rcd13ifvqh1g","pricing_plan_id":"free"},{"bike_id":"7769d8a6-ace2-4600-bc82-4d6d23aeed77","system_id":"levelo_inurba_marseille","lat":43.284727,"lon":5.421993,"is_reserved":false,"is_disabled":false,"rental_uris":{"android":"levelo://app?vid=7769d8a6-ace2-4600-bc82-4d6d23aeed77","ios":"levelo://app?vid=7769d8a6-ace2-4600-bc82-4d6d23aeed77"},"vehicle_type_id":"4","last_reported":1701205605,"current_range_meters":0,"station_id":"","pricing_plan_id":"free"},{"bike_id":"dade82dd-b536-407c-a741-a03d50389ebf","system_id":"levelo_inurba_marseille","lat":43.265714,"lon":5.372891,"is_reserved":false,"is_disabled":false,"rental_uris":{"android":"levelo://app?vid=dade82dd-b536-407c-a741-a03d50389ebf","ios":"levelo://app?vid=dade82dd-b536-407c-a741-a03d50389ebf"},"vehicle_type_id":"4","last_reported":1701205605,"current_range_meters":25200,"station_id":"ce4bhg12rcd13ifvqf70","pricing_plan_id":"free"},{"bike_id":"7535fedc-74ac-474b-8a2d-12a425012ada","system_id":"levelo_inurba_marseille","lat":43.308051,"lon":5.43527,"is_reserved":false,"is_disabled":false,"rental_uris":{"android":"levelo://app?vid=7535fedc-74ac-474b-8a2d-12a425012ada","ios":"levelo://app?vid=7535fedc-74ac-474b-8a2d-12a425012ada"},"vehicle_type_id":"4","last_reported":1701205605,"current_range_meters":31200,"station_id":"ce4bhph2rcd13ifvqheg","pricing_plan_id":"free"},{"bike_id":"23989d20-8a3e-42ec-be34-7eae04d446c8","system_id":"levelo_inurba_marseille","lat":43.308051,"lon":5.43527,"is_reserved":false,"is_disabled":false,"rental_uris":{"android":"levelo://app?vid=23989d20-8a3e-42ec-be34-7eae04d446c8","ios":"levelo://app?vid=23989d20-8a3e-42ec-be34-7eae04d446c8"},"vehicle_type_id":"4","last_reported":1701205605,"current_range_meters":26800,"station_id":"ce4bhph2rcd13ifvqheg","pricing_plan_id":"free"},{"bike_id":"5c60cc0f-874d-481f-a9ed-eb4eef028541","system_id":"levelo_inurba_marseille","lat":43.265569,"lon":5.390047,"is_reserved":false,"is_disabled":false,"rental_uris":{"android":"levelo://app?vid=5c60cc0f-874d-481f-a9ed-eb4eef028541","ios":"levelo://app?vid=5c60cc0f-874d-481f-a9ed-eb4eef028541"},"vehicle_type_id":"4","last_reported":1701205605,"current_range_meters":0,"station_id":"ce4bhe12rcd13ifvqf30","pricing_plan_id":"free"},{"bike_id":"be8ab481-9ee8-4337-863a-b39a3ad7e0d8","system_id":"levelo_inurba_marseille","lat":43.261782,"lon":5.374515,"is_reserved":false,"is_disabled":false,"rental_uris":{"android":"levelo://app?vid=be8ab481-9ee8-4337-863a-b39a3ad7e0d8","ios":"levelo://app?vid=be8ab481-9ee8-4337-863a-b39a3ad7e0d8"},"vehicle_type_id":"4","last_reported":1701205605,"current_range_meters":19200,"station_id":"ce4bhgp2rcd13ifvqfc0","pricing_plan_id":"free"},{"bike_id":"15c55536-52f0-4f3a-86dc-582ca752b7e6","system_id":"levelo_inurba_marseille","lat":43.317104,"lon":5.436818,"is_reserved":false,"is_disabled":false,"rental_uris":{"android":"levelo://app?vid=15c55536-52f0-4f3a-86dc-582ca752b7e6","ios":"levelo://app?vid=15c55536-52f0-4f3a-86dc-582ca752b7e6"},"vehicle_type_id":"4","last_reported":1701205605,"current_range_meters":10400,"station_id":"ce4bhp92rcd13ifvqhcg","pricing_plan_id":"free"},{"bike_id":"2cfd894b-595c-4bac-a01a-4d2673d809b1","system_id":"levelo_inurba_marseille","lat":43.261782,"lon":5.374515,"is_reserved":false,"is_disabled":false,"rental_uris":{"android":"levelo://app?vid=2cfd894b-595c-4bac-a01a-4d2673d809b1","ios":"levelo://app?vid=2cfd894b-595c-4bac-a01a-4d2673d809b1"},"vehicle_type_id":"4","last_reported":1701205605,"current_range_meters":31200,"station_id":"ce4bhgp2rcd13ifvqfc0","pricing_plan_id":"free"},{"bike_id":"3ee6d42b-be43-4558-85e1-d7d39f345c6b","system_id":"levelo_inurba_marseille","lat":43.317104,"lon":5.436818,"is_reserved":false,"is_disabled":false,"rental_uris":{"android":"levelo://app?vid=3ee6d42b-be43-4558-85e1-d7d39f345c6b","ios":"levelo://app?vid=3ee6d42b-be43-4558-85e1-d7d39f345c6b"},"vehicle_type_id":"4","last_reported":1701205605,"current_range_meters":30400,"station_id":"ce4bhp92rcd13ifvqhcg","pricing_plan_id":"free"},{"bike_id":"d1711a6a-dce8-4800-9c2a-741d836b1e8f","system_id":"levelo_inurba_marseille","lat":43.27194,"lon":5.40973,"is_reserved":false,"is_disabled":false,"rental_uris":{"android":"levelo://app?vid=d1711a6a-dce8-4800-9c2a-741d836b1e8f","ios":"levelo://app?vid=d1711a6a-dce8-4800-9c2a-741d836b1e8f"},"vehicle_type_id":"4","last_reported":1701205605,"current_range_meters":17600,"station_id":"ce4bhl12rcd13ifvqgf0","pricing_plan_id":"free"},{"bike_id":"9d2d7e59-8bbc-4ed8-8840-d27f38a78f26","system_id":"levelo_inurba_marseille","lat":43.27185,"lon":5.409873,"is_reserved":false,"is_disabled":false,"rental_uris":{"android":"levelo://app?vid=9d2d7e59-8bbc-4ed8-8840-d27f38a78f26","ios":"levelo://app?vid=9d2d7e59-8bbc-4ed8-8840-d27f38a78f26"},"vehicle_type_id":"4","last_reported":1701205605,"current_range_meters":31200,"station_id":"ce4bhl12rcd13ifvqgf0","pricing_plan_id":"free"},{"bike_id":"db2e35b6-91ba-4b8a-b10b-c020bac1b56a","system_id":"levelo_inurba_marseille","lat":43.262012,"lon":5.379307,"is_reserved":false,"is_disabled":false,"rental_uris":{"android":"levelo://app?vid=db2e35b6-91ba-4b8a-b10b-c020bac1b56a","ios":"levelo://app?vid=db2e35b6-91ba-4b8a-b10b-c020bac1b56a"},"vehicle_type_id":"4","last_reported":1701205605,"current_range_meters":28000,"station_id":"ce4bhjp2rcd13ifvqg90","pricing_plan_id":"free"},{"bike_id":"5edf4ffd-945c-46ca-853f-f4dc48bf88b7","system_id":"levelo_inurba_marseille","lat":43.26202,"lon":5.379299,"is_reserved":false,"is_disabled":false,"rental_uris":{"android":"levelo://app?vid=5edf4ffd-945c-46ca-853f-f4dc48bf88b7","ios":"levelo://app?vid=5edf4ffd-945c-46ca-853f-f4dc48bf88b7"},"vehicle_type_id":"4","last_reported":1701205605,"current_range_meters":31200,"station_id":"ce4bhjp2rcd13ifvqg90","pricing_plan_id":"free"},{"bike_id":"1b6e1605-822a-4d11-8a82-d6df3a659dce","system_id":"levelo_inurba_marseille","lat":43.27175,"lon":5.40987,"is_reserved":false,"is_disabled":false,"rental_uris":{"android":"levelo://app?vid=1b6e1605-822a-4d11-8a82-d6df3a659dce","ios":"levelo://app?vid=1b6e1605-822a-4d11-8a82-d6df3a659dce"},"vehicle_type_id":"4","last_reported":1701205605,"current_range_meters":30800,"station_id":"","pricing_plan_id":"free"},{"bike_id":"fa7abb30-4346-431c-b1fa-aef86f064968","system_id":"levelo_inurba_marseille","lat":43.26202,"lon":5.379299,"is_reserved":false,"is_disabled":false,"rental_uris":{"android":"levelo://app?vid=fa7abb30-4346-431c-b1fa-aef86f064968","ios":"levelo://app?vid=fa7abb30-4346-431c-b1fa-aef86f064968"},"vehicle_type_id":"4","last_reported":1701205605,"current_range_meters":11600,"station_id":"ce4bhjp2rcd13ifvqg90","pricing_plan_id":"free"},{"bike_id":"446cd8c0-e899-491b-a3a1-821d86a5b153","system_id":"levelo_inurba_marseille","lat":43.26202,"lon":5.379299,"is_reserved":false,"is_disabled":false,"rental_uris":{"android":"levelo://app?vid=446cd8c0-e899-491b-a3a1-821d86a5b153","ios":"levelo://app?vid=446cd8c0-e899-491b-a3a1-821d86a5b153"},"vehicle_type_id":"4","last_reported":1701205605,"current_range_meters":16000,"station_id":"ce4bhjp2rcd13ifvqg90","pricing_plan_id":"free"},{"bike_id":"0a411095-3a8a-4221-843c-f3d98b94b3cb","system_id":"levelo_inurba_marseille","lat":43.27177,"lon":5.40995,"is_reserved":false,"is_disabled":false,"rental_uris":{"android":"levelo://app?vid=0a411095-3a8a-4221-843c-f3d98b94b3cb","ios":"levelo://app?vid=0a411095-3a8a-4221-843c-f3d98b94b3cb"},"vehicle_type_id":"4","last_reported":1701205605,"current_range_meters":30400,"station_id":"ce4bhl12rcd13ifvqgf0","pricing_plan_id":"free"},{"bike_id":"69bbd975-8852-45b8-b1ac-3047bb1be877","system_id":"levelo_inurba_marseille","lat":43.271744,"lon":5.409928,"is_reserved":false,"is_disabled":false,"rental_uris":{"android":"levelo://app?vid=69bbd975-8852-45b8-b1ac-3047bb1be877","ios":"levelo://app?vid=69bbd975-8852-45b8-b1ac-3047bb1be877"},"vehicle_type_id":"4","last_reported":1701205605,"current_range_meters":28000,"station_id":"ce4bhl12rcd13ifvqgf0","pricing_plan_id":"free"},{"bike_id":"75ef75c1-d239-44ee-b568-8f31b3960974","system_id":"levelo_inurba_marseille","lat":43.27173,"lon":5.409909,"is_reserved":false,"is_disabled":false,"rental_uris":{"android":"levelo://app?vid=75ef75c1-d239-44ee-b568-8f31b3960974","ios":"levelo://app?vid=75ef75c1-d239-44ee-b568-8f31b3960974"},"vehicle_type_id":"4","last_reported":1701205605,"current_range_meters":31200,"station_id":"ce4bhl12rcd13ifvqgf0","pricing_plan_id":"free"},{"bike_id":"181c6057-7f00-41f1-9723-b18c8f93a74c","system_id":"levelo_inurba_marseille","lat":43.267959,"lon":5.402685,"is_reserved":false,"is_disabled":false,"rental_uris":{"android":"levelo://app?vid=181c6057-7f00-41f1-9723-b18c8f93a74c","ios":"levelo://app?vid=181c6057-7f00-41f1-9723-b18c8f93a74c"},"vehicle_type_id":"4","last_reported":1701205605,"current_range_meters":0,"station_id":"ce501612rcd8frsf0b60","pricing_plan_id":"free"},{"bike_id":"c1cb7979-1692-4517-8c61-be3787114d6f","system_id":"levelo_inurba_marseille","lat":43.258224,"lon":5.394369,"is_reserved":false,"is_disabled":false,"rental_uris":{"android":"levelo://app?vid=c1cb7979-1692-4517-8c61-be3787114d6f","ios":"levelo://app?vid=c1cb7979-1692-4517-8c61-be3787114d6f"},"vehicle_type_id":"4","last_reported":1701205605,"current_range_meters":29600,"station_id":"ce4bhip2rcd13ifvqft0","pricing_plan_id":"free"},{"bike_id":"a02842d8-6f6a-47d3-83ec-c39f180fdf6c","system_id":"levelo_inurba_marseille","lat":43.298768,"lon":5.43643,"is_reserved":false,"is_disabled":false,"rental_uris":{"android":"levelo://app?vid=a02842d8-6f6a-47d3-83ec-c39f180fdf6c","ios":"levelo://app?vid=a02842d8-6f6a-47d3-83ec-c39f180fdf6c"},"vehicle_type_id":"4","last_reported":1701205605,"current_range_meters":26400,"station_id":"ce4bhpp2rcd13ifvqhfg","pricing_plan_id":"free"},{"bike_id":"baa110bc-e6be-491b-9db8-5e934046b735","system_id":"levelo_inurba_marseille","lat":43.260216,"lon":5.375529,"is_reserved":false,"is_disabled":false,"rental_uris":{"android":"levelo://app?vid=baa110bc-e6be-491b-9db8-5e934046b735","ios":"levelo://app?vid=baa110bc-e6be-491b-9db8-5e934046b735"},"vehicle_type_id":"4","last_reported":1701205605,"current_range_meters":15600,"station_id":"ce4bhgh2rcd13ifvqfa0","pricing_plan_id":"free"},{"bike_id":"cbb8edba-276a-4fa0-b8c6-bf28c78ca194","system_id":"levelo_inurba_marseille","lat":43.281548,"lon":5.42643,"is_reserved":false,"is_disabled":false,"rental_uris":{"android":"levelo://app?vid=cbb8edba-276a-4fa0-b8c6-bf28c78ca194","ios":"levelo://app?vid=cbb8edba-276a-4fa0-b8c6-bf28c78ca194"},"vehicle_type_id":"4","last_reported":1701205605,"current_range_meters":7200,"station_id":"ce4bhnh2rcd13ifvqgug","pricing_plan_id":"free"},{"bike_id":"03158746-6a36-467c-85f4-0d9a5c9de7bb","system_id":"levelo_inurba_marseille","lat":43.260909,"lon":5.397591,"is_reserved":false,"is_disabled":false,"rental_uris":{"android":"levelo://app?vid=03158746-6a36-467c-85f4-0d9a5c9de7bb","ios":"levelo://app?vid=03158746-6a36-467c-85f4-0d9a5c9de7bb"},"vehicle_type_id":"4","last_reported":1701205605,"current_range_meters":2800,"station_id":"ce4bhi12rcd13ifvqfq0","pricing_plan_id":"free"},{"bike_id":"b09cf6fe-9609-4834-a4fb-3cf72efe3863","system_id":"levelo_inurba_marseille","lat":43.25586,"lon":5.38243,"is_reserved":false,"is_disabled":false,"rental_uris":{"android":"levelo://app?vid=b09cf6fe-9609-4834-a4fb-3cf72efe3863","ios":"levelo://app?vid=b09cf6fe-9609-4834-a4fb-3cf72efe3863"},"vehicle_type_id":"4","last_reported":1701205605,"current_range_meters":19200,"station_id":"ce4bhih2rcd13ifvqfs0","pricing_plan_id":"free"},{"bike_id":"28fa65af-94bc-46bf-afd7-eff4cf5577da","system_id":"levelo_inurba_marseille","lat":43.255817,"lon":5.382253,"is_reserved":false,"is_disabled":false,"rental_uris":{"android":"levelo://app?vid=28fa65af-94bc-46bf-afd7-eff4cf5577da","ios":"levelo://app?vid=28fa65af-94bc-46bf-afd7-eff4cf5577da"},"vehicle_type_id":"4","last_reported":1701205605,"current_range_meters":30800,"station_id":"ce4bhih2rcd13ifvqfs0","pricing_plan_id":"free"},{"bike_id":"cac19acb-7ce5-48b5-bcc9-ff699b5ef50c","system_id":"levelo_inurba_marseille","lat":43.258224,"lon":5.394369,"is_reserved":false,"is_disabled":false,"rental_uris":{"android":"levelo://app?vid=cac19acb-7ce5-48b5-bcc9-ff699b5ef50c","ios":"levelo://app?vid=cac19acb-7ce5-48b5-bcc9-ff699b5ef50c"},"vehicle_type_id":"4","last_reported":1701205605,"current_range_meters":8000,"station_id":"ce4bhip2rcd13ifvqft0","pricing_plan_id":"free"},{"bike_id":"2a359975-e46f-4b44-a624-025c90902ae7","system_id":"levelo_inurba_marseille","lat":43.255802,"lon":5.382418,"is_reserved":false,"is_disabled":false,"rental_uris":{"android":"levelo://app?vid=2a359975-e46f-4b44-a624-025c90902ae7","ios":"levelo://app?vid=2a359975-e46f-4b44-a624-025c90902ae7"},"vehicle_type_id":"4","last_reported":1701205605,"current_range_meters":13600,"station_id":"ce4bhih2rcd13ifvqfs0","pricing_plan_id":"free"},{"bike_id":"57938117-2341-478e-b38d-5404e82d41c3","system_id":"levelo_inurba_marseille","lat":43.255769,"lon":5.382289,"is_reserved":false,"is_disabled":false,"rental_uris":{"android":"levelo://app?vid=57938117-2341-478e-b38d-5404e82d41c3","ios":"levelo://app?vid=57938117-2341-478e-b38d-5404e82d41c3"},"vehicle_type_id":"4","last_reported":1701205605,"current_range_meters":29200,"station_id":"ce4bhih2rcd13ifvqfs0","pricing_plan_id":"free"},{"bike_id":"f94ed5e3-f68f-4baf-b47d-135c509cb1ee","system_id":"levelo_inurba_marseille","lat":43.25394,"lon":5.38208,"is_reserved":false,"is_disabled":false,"rental_uris":{"android":"levelo://app?vid=f94ed5e3-f68f-4baf-b47d-135c509cb1ee","ios":"levelo://app?vid=f94ed5e3-f68f-4baf-b47d-135c509cb1ee"},"vehicle_type_id":"4","last_reported":1701205605,"current_range_meters":2000,"station_id":"","pricing_plan_id":"free"},{"bike_id":"7fffe5d9-d711-4f9e-b9e1-4f93667956b7","system_id":"levelo_inurba_marseille","lat":43.259335,"lon":5.408675,"is_reserved":false,"is_disabled":false,"rental_uris":{"android":"levelo://app?vid=7fffe5d9-d711-4f9e-b9e1-4f93667956b7","ios":"levelo://app?vid=7fffe5d9-d711-4f9e-b9e1-4f93667956b7"},"vehicle_type_id":"4","last_reported":1701205605,"current_range_meters":9200,"station_id":"ce4bhm92rcd13ifvqglg","pricing_plan_id":"free"},{"bike_id":"c2fc1e32-bed6-4402-a882-be2fb6e70da0","system_id":"levelo_inurba_marseille","lat":43.257079,"lon":5.411051,"is_reserved":false,"is_disabled":false,"rental_uris":{"android":"levelo://app?vid=c2fc1e32-bed6-4402-a882-be2fb6e70da0","ios":"levelo://app?vid=c2fc1e32-bed6-4402-a882-be2fb6e70da0"},"vehicle_type_id":"4","last_reported":1701205605,"current_range_meters":24800,"station_id":"ce4bhkp2rcd13ifvqgd0","pricing_plan_id":"free"},{"bike_id":"4c0c3118-7eaa-4ebd-8d87-d449bea3e021","system_id":"levelo_inurba_marseille","lat":43.250897,"lon":5.395161,"is_reserved":false,"is_disabled":false,"rental_uris":{"android":"levelo://app?vid=4c0c3118-7eaa-4ebd-8d87-d449bea3e021","ios":"levelo://app?vid=4c0c3118-7eaa-4ebd-8d87-d449bea3e021"},"vehicle_type_id":"4","last_reported":1701205605,"current_range_meters":15200,"station_id":"ce4bhm12rcd13ifvqgkg","pricing_plan_id":"free"},{"bike_id":"b1036fc2-df4d-4019-8014-d3e45681c871","system_id":"levelo_inurba_marseille","lat":43.25087,"lon":5.39521,"is_reserved":false,"is_disabled":false,"rental_uris":{"android":"levelo://app?vid=b1036fc2-df4d-4019-8014-d3e45681c871","ios":"levelo://app?vid=b1036fc2-df4d-4019-8014-d3e45681c871"},"vehicle_type_id":"4","last_reported":1701205605,"current_range_meters":21200,"station_id":"ce4bhm12rcd13ifvqgkg","pricing_plan_id":"free"},{"bike_id":"5e4b6cf7-670a-4e3b-905f-ba4f7a87edfb","system_id":"levelo_inurba_marseille","lat":43.257079,"lon":5.411051,"is_reserved":false,"is_disabled":false,"rental_uris":{"android":"levelo://app?vid=5e4b6cf7-670a-4e3b-905f-ba4f7a87edfb","ios":"levelo://app?vid=5e4b6cf7-670a-4e3b-905f-ba4f7a87edfb"},"vehicle_type_id":"4","last_reported":1701205605,"current_range_meters":18800,"station_id":"ce4bhkp2rcd13ifvqgd0","pricing_plan_id":"free"},{"bike_id":"1d75bf00-9b2e-47d6-a7ca-1a053e6df0d0","system_id":"levelo_inurba_marseille","lat":43.24693,"lon":5.382096,"is_reserved":false,"is_disabled":false,"rental_uris":{"android":"levelo://app?vid=1d75bf00-9b2e-47d6-a7ca-1a053e6df0d0","ios":"levelo://app?vid=1d75bf00-9b2e-47d6-a7ca-1a053e6df0d0"},"vehicle_type_id":"4","last_reported":1701205605,"current_range_meters":26400,"station_id":"ce4bhih2rcd13ifvqfr0","pricing_plan_id":"free"},{"bike_id":"d017a5a6-2f36-4ac0-8eb9-285933bc48cd","system_id":"levelo_inurba_marseille","lat":43.25102,"lon":5.403214,"is_reserved":false,"is_disabled":false,"rental_uris":{"android":"levelo://app?vid=d017a5a6-2f36-4ac0-8eb9-285933bc48cd","ios":"levelo://app?vid=d017a5a6-2f36-4ac0-8eb9-285933bc48cd"},"vehicle_type_id":"4","last_reported":1701205605,"current_range_meters":18400,"station_id":"ce4bhlh2rcd13ifvqgig","pricing_plan_id":"free"},