{"last_updated":1770491718,"ttl":60,"version":"2.2","data":{"bikes":[{"bike_id":"28038112-793b-4a40-88c6-af51aa30dc6d","system_id":"levelo_inurba_marseille","lat":43.23198,"lon":5.35552,"is_reserved":false,"is_disabled":false,"rental_uris":{"android":"levelo://app?vid=28038112-793b-4a40-88c6-af51aa30dc6d","ios":"levelo://app?vid=28038112-793b-4a40-88c6-af51aa30dc6d"},"vehicle_type_id":"4","last_reported":1770491719,"current_range_meters":2800,"station_id":"ce4bhu92rcd13ifvqi70","pricing_plan_id":"cebpf4jnsgd1na2vs0mg"},{"bike_id":"1bc03092-a231-41c6-81a8-823af78c89dd","system_id":"levelo_inurba_marseille","lat":43.28403,"lon":5.37511,"is_reserved":false,"is_disabled":false,"rental_uris":{"android":"levelo://app?vid=1bc03092-a231-41c6-81a8-823af78c89dd","ios":"levelo://app?vid=1bc03092-a231-41c6-81a8-823af78c89dd"},"vehicle_type_id":"4","last_reported":1770491719,"current_range_meters":2800,"station_id":"ce4bh412rcd13ifvqds0","pricing_plan_id":"cebpf4jnsgd1na2vs0mg"},{"bike_id":"3b1bdd53-d8cc-427e-b447-0154f42acb31","system_id":"levelo_inurba_marseille","lat":43.29308,"lon":5.37441,"is_reserved":false,"is_disabled":false,"rental_uris":{"android":"levelo://app?vid=3b1bdd53-d8cc-427e-b447-0154f42acb31","ios":"levelo://app?vid=3b1bdd53-d8cc-427e-b447-0154f42acb31"},"vehicle_type_id":"4","last_reported":1770491719,"current_range_meters":2800,"station_id":"ce4bgi12rcd13ifvqb70","pricing_plan_id":"cebpf4jnsgd1na2vs0mg"},{"bike_id":"d99421b1-6260-47c7-a45e-61a96d0a2b0d","system_id":"levelo_inurba_marseille","lat":43.29782,"lon":5.37097,"is_reserved":false,"is_disabled":false,"rental_uris":{"android":"levelo://app?vid=d99421b1-6260-47c7-a45e-61a96d0a2b0d","ios":"levelo://app?vid=d99421b1-6260-47c7-a45e-61a96d0a2b0d"},"vehicle_type_id":"4","last_reported":1770491719,"current_range_meters":2800,"station_id":"ce4bgop2rcd13ifvqc1g","pricing_plan_id":"cebpf4jnsgd1na2vs0mg"},{"bike_id":"ee177ce5-5688-4f88-95a6-0e06eb4c248f","system_id":"levelo_inurba_marseille","lat":43.24393,"lon":5.3706,"is_reserved":false,"is_disabled":false,"rental_uris":{"android":"levelo://app?vid=ee177ce5-5688-4f88-95a6-0e06eb4c248f","ios":"levelo://app?vid=ee177ce5-5688-4f88-95a6-0e06eb4c248f"},"vehicle_type_id":"4","last_reported":1770491719,"current_range_meters":3200,"station_id":"ce4bhhh2rcd13ifvqfk0","pricing_plan_id":"cebpf4jnsgd1na2vs0mg"},{"bike_id":"49bc0ac4-ec4c-46b4-bcba-c5b87d948aa1","system_id":"levelo_inurba_marseille","lat":43.239609,"lon":5.366218,"is_reserved":false,"is_disabled":false,"rental_uris":{"android":"levelo://app?vid=49bc0ac4-ec4c-46b4-bcba-c5b87d948aa1","ios":"levelo://app?vid=49bc0ac4-ec4c-46b4-bcba-c5b87d948aa1"},"vehicle_type_id":"4","last_reported":1770491719,"current_range_meters":3200,"station_id":"ce4bhi12rcd13ifvqfp0","pricing_plan_id":"cebpf4jnsgd1na2vs0mg"},{"bike_id":"675ec433-caf3-4517-83f9-75769cd57605","system_id":"levelo_inurba_marseille","lat":43.32102,"lon":5.36814,"is_reserved":false,"is_disabled":false,"rental_uris":{"android":"levelo://app?vid=675ec433-caf3-4517-83f9-75769cd57605","ios":"levelo://app?vid=675ec433-caf3-4517-83f9-75769cd57605"},"vehicle_type_id":"4","last_reported":1770491719,"current_range_meters":3200,"station_id":"ce4bhrh2rcd13ifvqhug","pricing_plan_id":"cebpf4jnsgd1na2vs0mg"},{"bike_id":"a5faf7a6-7f2f-419a-b628-e8f939b70083","system_id":"levelo_inurba_marseille","lat":43.28533,"lon":5.441,"is_reserved":false,"is_disabled":false,"rental_uris":{"android":"levelo://app?vid=a5faf7a6-7f2f-419a-b628-e8f939b70083","ios":"levelo://app?vid=a5faf7a6-7f2f-419a-b628-e8f939b70083"},"vehicle_type_id":"4","last_reported":1770491719,"current_range_meters":3200,"station_id":"st_d3j3df2ikq2c7380ej80","pricing_plan_id":"cebpf4jnsgd1na2vs0mg"},{"bike_id":"c6782d87-e485-4a2c-b62b-9a52105fb0ef","system_id":"levelo_inurba_marseille","lat":43.25008,"lon":5.38922,"is_reserved":false,"is_disabled":false,"rental_uris":{"android":"levelo://app?vid=c6782d87-e485-4a2c-b62b-9a52105fb0ef","ios":"levelo://app?vid=c6782d87-e485-4a2c-b62b-9a52105fb0ef"},"vehicle_type_id":"4","last_reported":1770491719,"current_range_meters":3200,"station_id":"ce4bhgp2rcd13ifvqfd0","pricing_plan_id":"cebpf4jnsgd1na2vs0mg"},{"bike_id":"734f2c8d-e45b-43cd-ba5a-232c0e2f3489","system_id":"levelo_inurba_marseille","lat":43.265633,"lon":5.403246,"is_reserved":false,"is_disabled":false,"rental_uris":{"android":"levelo://app?vid=734f2c8d-e45b-43cd-ba5a-232c0e2f3489","ios":"levelo://app?vid=734f2c8d-e45b-43cd-ba5a-232c0e2f3489"},"vehicle_type_id":"4","last_reported":1770491719,"current_range_meters":3200,"station_id":"ce4bhmp2rcd13ifvqgng","pricing_plan_id":"cebpf4jnsgd1na2vs0mg"},{"bike_id":"5bbff642-0168-44b6-a018-2f4e649b181a","system_id":"levelo_inurba_marseille","lat":43.2904,"lon":5.3687,"is_reserved":false,"is_disabled":false,"rental_uris":{"android":"levelo://app?vid=5bbff642-0168-44b6-a018-2f4e649b181a","ios":"levelo://app?vid=5bbff642-0168-44b6-a018-2f4e649b181a"},"vehicle_type_id":"4","last_reported":1770491719,"current_range_meters":3600,"station_id":"ce4bhah2rcd13ifvqej0","pricing_plan_id":"cebpf4jnsgd1na2vs0mg"},{"bike_id":"142a21c2-9a29-466a-92f6-5ab3ecc5b60d","system_id":"levelo_inurba_marseille","lat":43.23788,"lon":5.36642,"is_reserved":false,"is_disabled":false,"rental_uris":{"android":"levelo://app?vid=142a21c2-9a29-466a-92f6-5ab3ecc5b60d","ios":"levelo://app?vid=142a21c2-9a29-466a-92f6-5ab3ecc5b60d"},"vehicle_type_id":"4","last_reported":1770491719,"current_range_meters":3600,"station_id":"st_d3nk18o9ro0c73en2l3g","pricing_plan_id":"cebpf4jnsgd1na2vs0mg"},{"bike_id":"eacbf986-f9c3-4f5e-bdf1-bed35f840adf","system_id":"levelo_inurba_marseille","lat":43.2992,"lon":5.36603,"is_reserved":false,"is_disabled":false,"rental_uris":{"android":"levelo://app?vid=eacbf986-f9c3-4f5e-bdf1-bed35f840adf","ios":"levelo://app?vid=eacbf986-f9c3-4f5e-bdf1-bed35f840adf"},"vehicle_type_id":"4","last_reported":1770491719,"current_range_meters":3600,"station_id":"ce4bgm92rcd13ifvqbr0","pricing_plan_id":"cebpf4jnsgd1na2vs0mg"},{"bike_id":"02b84d9a-eaf6-4642-b4ea-c4aa75920743","system_id":"levelo_inurba_marseille","lat":43.2706,"lon":5.38306,"is_reserved":false,"is_disabled":false,"rental_uris":{"android":"levelo://app?vid=02b84d9a-eaf6-4642-b4ea-c4aa75920743","ios":"levelo://app?vid=02b84d9a-eaf6-4642-b4ea-c4aa75920743"},"vehicle_type_id":"4","last_reported":1770491719,"current_range_meters":3600,"station_id":"st_d3n2fo6cfp8s73cte1j0","pricing_plan_id":"cebpf4jnsgd1na2vs0mg"},{"bike_id":"7403105f-4bee-4529-9ff8-66d807eb18b2","system_id":"levelo_inurba_marseille","lat":43.31932,"lon":5.38076,"is_reserved":false,"is_disabled":false,"rental_uris":{"android":"levelo://app?vid=7403105f-4bee-4529-9ff8-66d807eb18b2","ios":"levelo://app?vid=7403105f-4bee-4529-9ff8-66d807eb18b2"},"vehicle_type_id":"4","last_reported":1770491719,"current_range_meters":3600,"station_id":"","pricing_plan_id":"cebpf4jnsgd1na2vs0mg"},{"bike_id":"664c63b1-2534-4a56-a629-4c0dacb8efe4","system_id":"levelo_inurba_marseille","lat":43.29759,"lon":5.42842,"is_reserved":false,"is_disabled":false,"rental_uris":{"android":"levelo://app?vid=664c63b1-2534-4a56-a629-4c0dacb8efe4","ios":"levelo://app?vid=664c63b1-2534-4a56-a629-4c0dacb8efe4"},"vehicle_type_id":"4","last_reported":1770491719,"current_range_meters":3600,"station_id":"st_d3md5207bmas73dh9klg","pricing_plan_id":"cebpf4jnsgd1na2vs0mg"},{"bike_id":"44df0d6d-61a2-46ab-9bf9-ae3cec90cb8f","system_id":"levelo_inurba_marseille","lat":43.25008,"lon":5.38915,"is_reserved":false,"is_disabled":true,"rental_uris":{"android":"levelo://app?vid=44df0d6d-61a2-46ab-9bf9-ae3cec90cb8f","ios":"levelo://app?vid=44df0d6d-61a2-46ab-9bf9-ae3cec90cb8f"},"vehicle_type_id":"4","last_reported":1770491719,"current_range_meters":3600,"station_id":"ce4bhgp2rcd13ifvqfd0","pricing_plan_id":"cebpf4jnsgd1na2vs0mg"},{"bike_id":"66ac484a-7a0c-4d64-bcea-4a863811aeba","system_id":"levelo_inurba_marseille","lat":43.29879,"lon":5.43661,"is_reserved":false,"is_disabled":true,"rental_uris":{"android":"levelo://app?vid=66ac484a-7a0c-4d64-bcea-4a863811aeba","ios":"levelo://app?vid=66ac484a-7a0c-4d64-bcea-4a863811aeba"},"vehicle_type_id":"4","last_reported":1770491719,"current_range_meters":3600,"station_id":"ce4bhpp2rcd13ifvqhfg","pricing_plan_id":"cebpf4jnsgd1na2vs0mg"},{"bike_id":"6b9ad2f0-0d88-40ff-a88f-7ddf87de7fb0","system_id":"levelo_inurba_marseille","lat":43.298891,"lon":5.436745,"is_reserved":false,"is_disabled":false,"rental_uris":{"android":"levelo://app?vid=6b9ad2f0-0d88-40ff-a88f-7ddf87de7fb0","ios":"levelo://app?vid=6b9ad2f0-0d88-40ff-a88f-7ddf87de7fb0"},"vehicle_type_id":"4","last_reported":1770491719,"current_range_meters":4000,"station_id":"ce4bhpp2rcd13ifvqhfg","pricing_plan_id":"cebpf4jnsgd1na2vs0mg"},{"bike_id":"98b89a63-b3c9-4748-8f93-0ccb5ab9560d","system_id":"levelo_inurba_marseille","lat":43.2654,"lon":5.37301,"is_reserved":false,"is_disabled":false,"rental_uris":{"android":"levelo://app?vid=98b89a63-b3c9-4748-8f93-0ccb5ab9560d","ios":"levelo://app?vid=98b89a63-b3c9-4748-8f93-0ccb5ab9560d"},"vehicle_type_id":"4","last_reported":1770491719,"current_range_meters":4000,"station_id":"ce4bhg12rcd13ifvqf70","pricing_plan_id":"cebpf4jnsgd1na2vs0mg"},{"bike_id":"5f301d7b-1ae6-4d33-ad5d-5e997e01d59c","system_id":"levelo_inurba_marseille","lat":43.24167,"lon":5.36394,"is_reserved":false,"is_disabled":false,"rental_uris":{"android":"levelo://app?vid=5f301d7b-1ae6-4d33-ad5d-5e997e01d59c","ios":"levelo://app?vid=5f301d7b-1ae6-4d33-ad5d-5e997e01d59c"},"vehicle_type_id":"4","last_reported":1770491719,"current_range_meters":4000,"station_id":"cpo36qri1sfpv3e86is0","pricing_plan_id":"cebpf4jnsgd1na2vs0mg"},{"bike_id":"008887d1-b3a2-4aeb-b346-a79dd0b095e2","system_id":"levelo_inurba_marseille","lat":43.24192,"lon":5.39757,"is_reserved":false,"is_disabled":false,"rental_uris":{"android":"levelo://app?vid=008887d1-b3a2-4aeb-b346-a79dd0b095e2","ios":"levelo://app?vid=008887d1-b3a2-4aeb-b346-a79dd0b095e2"},"vehicle_type_id":"4","last_reported":1770491719,"current_range_meters":4000,"station_id":"ce4bhn12rcd13ifvqgpg","pricing_plan_id":"cebpf4jnsgd1na2vs0mg"},{"bike_id":"445447f4-f940-4f85-9727-f1026b8dfb6b","system_id":"levelo_inurba_marseille","lat":43.26377,"lon":5.41094,"is_reserved":false,"is_disabled":false,"rental_uris":{"android":"levelo://app?vid=445447f4-f940-4f85-9727-f1026b8dfb6b","ios":"levelo://app?vid=445447f4-f940-4f85-9727-f1026b8dfb6b"},"vehicle_type_id":"4","last_reported":1770491719,"current_range_meters":4400,"station_id":"st_d4e5ca6na9uc73bfl5fg","pricing_plan_id":"cebpf4jnsgd1na2vs0mg"},{"bike_id":"ab55cc20-b94d-45e5-879c-71ae04584b70","system_id":"levelo_inurba_marseille","lat":43.295514,"lon":5.423017,"is_reserved":false,"is_disabled":false,"rental_uris":{"android":"levelo://app?vid=ab55cc20-b94d-45e5-879c-71ae04584b70","ios":"levelo://app?vid=ab55cc20-b94d-45e5-879c-71ae04584b70"},"vehicle_type_id":"4","last_reported":1770491719,"current_range_meters":4400,"station_id":"ce4bhph2rcd13ifvqhdg","pricing_plan_id":"cebpf4jnsgd1na2vs0mg"},{"bike_id":"9d9ada7e-8bfb-4948-82e1-5314689a8b39","system_id":"levelo_inurba_marseille","lat":43.3354,"lon":5.37465,"is_reserved":false,"is_disabled":false,"rental_uris":{"android":"levelo://app?vid=9d9ada7e-8bfb-4948-82e1-5314689a8b39","ios":"levelo://app?vid=9d9ada7e-8bfb-4948-82e1-5314689a8b39"},"vehicle_type_id":"4","last_reported":1770491719,"current_range_meters":4400,"station_id":"st_d46tts09ee8s73dlu43g","pricing_plan_id":"cebpf4jnsgd1na2vs0mg"},{"bike_id":"8f0bc1eb-8c74-4136-bf32-58c43239dfb6","system_id":"levelo_inurba_marseille","lat":43.24173,"lon":5.397253,"is_reserved":false,"is_disabled":false,"rental_uris":{"android":"levelo://app?vid=8f0bc1eb-8c74-4136-bf32-58c43239dfb6","ios":"levelo://app?vid=8f0bc1eb-8c74-4136-bf32-58c43239dfb6"},"vehicle_type_id":"4","last_reported":1770491719,"current_range_meters":4400,"station_id":"ce4bhn12rcd13ifvqgpg","pricing_plan_id":"cebpf4jnsgd1na2vs0mg"},{"bike_id":"f5da9401-db7e-426f-9a0f-2330a30b8658","system_id":"levelo_inurba_marseille","lat":43.24394,"lon":5.37065,"is_reserved":false,"is_disabled":true,"rental_uris":{"android":"levelo://app?vid=f5da9401-db7e-426f-9a0f-2330a30b8658","ios":"levelo://app?vid=f5da9401-db7e-426f-9a0f-2330a30b8658"},"vehicle_type_id":"4","last_reported":1770491719,"current_range_meters":4400,"station_id":"ce4bhhh2rcd13ifvqfk0","pricing_plan_id":"cebpf4jnsgd1na2vs0mg"},{"bike_id":"011daa92-6d39-4283-acb4-52bfa4d16625","system_id":"levelo_inurba_marseille","lat":43.22936,"lon":5.35379,"is_reserved":false,"is_disabled":false,"rental_uris":{"android":"levelo://app?vid=011daa92-6d39-4283-acb4-52bfa4d16625","ios":"levelo://app?vid=011daa92-6d39-4283-acb4-52bfa4d16625"},"vehicle_type_id":"4","last_reported":1770491719,"current_range_meters":4400,"station_id":"cpo3532slgdg3j2ikp40","pricing_plan_id":"cebpf4jnsgd1na2vs0mg"},{"bike_id":"9c39d9f6-d9da-4e77-8458-9331332cbe7c","system_id":"levelo_inurba_marseille","lat":43.2796,"lon":5.41039,"is_reserved":false,"is_disabled":false,"rental_uris":{"android":"levelo://app?vid=9c39d9f6-d9da-4e77-8458-9331332cbe7c","ios":"levelo://app?vid=9c39d9f6-d9da-4e77-8458-9331332cbe7c"},"vehicle_type_id":"4","last_reported":1770491719,"current_range_meters":4400,"station_id":"ce4bhnp2rcd13ifvqh0g","pricing_plan_id":"cebpf4jnsgd1na2vs0mg"},{"bike_id":"698f2e5b-de73-46a2-89eb-e25b8a04363f","system_id":"levelo_inurba_marseille","lat":43.28704,"lon":5.39988,"is_reserved":false,"is_disabled":false,"rental_uris":{"android":"levelo://app?vid=698f2e5b-de73-46a2-89eb-e25b8a04363f","ios":"levelo://app?vid=698f2e5b-de73-46a2-89eb-e25b8a04363f"},"vehicle_type_id":"4","last_reported":1770491719,"current_range_meters":4800,"station_id":"ce4bho92rcd13ifvqh3g","pricing_plan_id":"cebpf4jnsgd1na2vs0mg"},{"bike_id":"222003bc-a4d5-426c-9929-b263ad4b0210","system_id":"levelo_inurba_marseille","lat":43.28623,"lon":5.35128,"is_reserved":false,"is_disabled":false,"rental_uris":{"android":"levelo://app?vid=222003bc-a4d5-426c-9929-b263ad4b0210","ios":"levelo://app?vid=222003bc-a4d5-426c-9929-b263ad4b0210"},"vehicle_type_id":"4","last_reported":1770491719,"current_range_meters":4800,"station_id":"ce4bhch2rcd13ifvqeug","pricing_plan_id":"cebpf4jnsgd1na2vs0mg"},{"bike_id":"93add877-ee9d-4ae2-87c0-e59246a2e4b1","system_id":"levelo_inurba_marseille","lat":43.22937,"lon":5.3538,"is_reserved":false,"is_disabled":false,"rental_uris":{"android":"levelo://app?vid=93add877-ee9d-4ae2-87c0-e59246a2e4b1","ios":"levelo://app?vid=93add877-ee9d-4ae2-87c0-e59246a2e4b1"},"vehicle_type_id":"4","last_reported":1770491719,"current_range_meters":4800,"station_id":"cpo3532slgdg3j2ikp40","pricing_plan_id":"cebpf4jnsgd1na2vs0mg"},{"bike_id":"16e151cc-2b95-4562-83dc-024e6ede4bf7","system_id":"levelo_inurba_marseille","lat":43.23188,"lon":5.35574,"is_reserved":false,"is_disabled":false,"rental_uris":{"android":"levelo://app?vid=16e151cc-2b95-4562-83dc-024e6ede4bf7","ios":"levelo://app?vid=16e151cc-2b95-4562-83dc-024e6ede4bf7"},"vehicle_type_id":"4","last_reported":1770491719,"current_range_meters":4800,"station_id":"ce4bhu92rcd13ifvqi70","pricing_plan_id":"cebpf4jnsgd1na2vs0mg"},{"bike_id":"c5955de7-9ab5-4c95-be4c-788242dce2d4","system_id":"levelo_inurba_marseille","lat":43.32102,"lon":5.36821,"is_reserved":false,"is_disabled":false,"rental_uris":{"android":"levelo://app?vid=c5955de7-9ab5-4c95-be4c-788242dce2d4","ios":"levelo://app?vid=c5955de7-9ab5-4c95-be4c-788242dce2d4"},"vehicle_type_id":"4","last_reported":1770491719,"current_range_meters":4800,"station_id":"ce4bhrh2rcd13ifvqhug","pricing_plan_id":"cebpf4jnsgd1na2vs0mg"},{"bike_id":"c2e6868f-14af-4afe-a88e-a58ab8607ee6","system_id":"levelo_inurba_marseille","lat":43.31076,"lon":5.42431,"is_reserved":false,"is_disabled":false,"rental_uris":{"android":"levelo://app?vid=c2e6868f-14af-4afe-a88e-a58ab8607ee6","ios":"levelo://app?vid=c2e6868f-14af-4afe-a88e-a58ab8607ee6"},"vehicle_type_id":"4","last_reported":1770491719,"current_range_meters":4800,"station_id":"ce4bhp92rcd13ifvqhag","pricing_plan_id":"cebpf4jnsgd1na2vs0mg"},{"bike_id":"762d17af-af27-45ae-8011-3c290ff80fd9","system_id":"levelo_inurba_marseille","lat":43.24178,"lon":5.36396,"is_reserved":false,"is_disabled":false,"rental_uris":{"android":"levelo://app?vid=762d17af-af27-45ae-8011-3c290ff80fd9","ios":"levelo://app?vid=762d17af-af27-45ae-8011-3c290ff80fd9"},"vehicle_type_id":"4","last_reported":1770491719,"current_range_meters":4800,"station_id":"cpo36qri1sfpv3e86is0","pricing_plan_id":"cebpf4jnsgd1na2vs0mg"},{"bike_id":"2e215bae-e2d4-4a81-a07c-a7a4a0c0fd71","system_id":"levelo_inurba_marseille","lat":43.30891,"lon":5.37209,"is_reserved":false,"is_disabled":false,"rental_uris":{"android":"levelo://app?vid=2e215bae-e2d4-4a81-a07c-a7a4a0c0fd71","ios":"levelo://app?vid=2e215bae-e2d4-4a81-a07c-a7a4a0c0fd71"},"vehicle_type_id":"4","last_reported":1770491719,"current_range_meters":4800,"station_id":"ce4bguh2rcd13ifvqckg","pricing_plan_id":"cebpf4jnsgd1na2vs0mg"},{"bike_id":"4de09fc3-b442-441c-ab94-e7067802240d","system_id":"levelo_inurba_marseille","lat":43.284603,"lon":5.358856,"is_reserved":false,"is_disabled":false,"rental_uris":{"android":"levelo://app?vid=4de09fc3-b442-441c-ab94-e7067802240d","ios":"levelo://app?vid=4de09fc3-b442-441c-ab94-e7067802240d"},"vehicle_type_id":"4","last_reported":1770491719,"current_range_meters":4800,"station_id":"ce4bhah2rcd13ifvqei0","pricing_plan_id":"cebpf4jnsgd1na2vs0mg"},{"bike_id":"3926a99e-82ca-4ee7-a161-a486379736ee","system_id":"levelo_inurba_marseille","lat":43.29872,"lon":5.36877,"is_reserved":false,"is_disabled":false,"rental_uris":{"android":"levelo://app?vid=3926a99e-82ca-4ee7-a161-a486379736ee","ios":"levelo://app?vid=3926a99e-82ca-4ee7-a161-a486379736ee"},"vehicle_type_id":"4","last_reported":1770491719,"current_range_meters":5600,"station_id":"","pricing_plan_id":"cebpf4jnsgd1na2vs0mg"},{"bike_id":"d78dd041-310c-49df-a170-79f2a0d5e471","system_id":"levelo_inurba_marseille","lat":43.28672,"lon":5.36357,"is_reserved":false,"is_disabled":false,"rental_uris":{"android":"levelo://app?vid=d78dd041-310c-49df-a170-79f2a0d5e471","ios":"levelo://app?vid=d78dd041-310c-49df-a170-79f2a0d5e471"},"vehicle_type_id":"4","last_reported":1770491719,"current_range_meters":5600,"station_id":"ce4bhah2rcd13ifvqej0","pricing_plan_id":"cebpf4jnsgd1na2vs0mg"},{"bike_id":"88b63b60-0a77-4859-b4d2-ee54cca1b9f3","system_id":"levelo_inurba_marseille","lat":43.30538,"lon":5.36563,"is_reserved":false,"is_disabled":false,"rental_uris":{"android":"levelo://app?vid=88b63b60-0a77-4859-b4d2-ee54cca1b9f3","ios":"levelo://app?vid=88b63b60-0a77-4859-b4d2-ee54cca1b9f3"},"vehicle_type_id":"4","last_reported":1770491719,"current_range_meters":5600,"station_id":"ce4bgs12rcd13ifvqcag","pricing_plan_id":"cebpf4jnsgd1na2vs0mg"},{"bike_id":"cda67a55-cd0b-4996-80a6-9f94ffa5040f","system_id":"levelo_inurba_marseille","lat":43.26061,"lon":5.39392,"is_reserved":false,"is_disabled":false,"rental_uris":{"android":"levelo://app?vid=cda67a55-cd0b-4996-80a6-9f94ffa5040f","ios":"levelo://app?vid=cda67a55-cd0b-4996-80a6-9f94ffa5040f"},"vehicle_type_id":"4","last_reported":1770491719,"current_range_meters":5600,"station_id":"ce4bhh92rcd13ifvqfj0","pricing_plan_id":"cebpf4jnsgd1na2vs0mg"},{"bike_id":"9c6a8984-8ee8-4ae5-a2ee-ca73b9867831","system_id":"levelo_inurba_marseille","lat":43.29931,"lon":5.36539,"is_reserved":false,"is_disabled":false,"rental_uris":{"android":"levelo://app?vid=9c6a8984-8ee8-4ae5-a2ee-ca73b9867831","ios":"levelo://app?vid=9c6a8984-8ee8-4ae5-a2ee-ca73b9867831"},"vehicle_type_id":"4","last_reported":1770491719,"current_range_meters":5600,"station_id":"ce4bgm92rcd13ifvqbr0","pricing_plan_id":"cebpf4jnsgd1na2vs0mg"},{"bike_id":"4553b9ae-95be-4d03-9d86-2a4c79a4ffcc","system_id":"levelo_inurba_marseille","lat":43.28911,"lon":5.39844,"is_reserved":false,"is_disabled":false,"rental_uris":{"android":"levelo://app?vid=4553b9ae-95be-4d03-9d86-2a4c79a4ffcc","ios":"levelo://app?vid=4553b9ae-95be-4d03-9d86-2a4c79a4ffcc"},"vehicle_type_id":"4","last_reported":1770491719,"current_range_meters":5600,"station_id":"","pricing_plan_id":"cebpf4jnsgd1na2vs0mg"},{"bike_id":"fdafbd60-06af-43c5-b382-8567aa3aa364","system_id":"levelo_inurba_marseille","lat":43.30217,"lon":5.39484,"is_reserved":false,"is_disabled":false,"rental_uris":{"android":"levelo://app?vid=fdafbd60-06af-43c5-b382-8567aa3aa364","ios":"levelo://app?vid=fdafbd60-06af-43c5-b382-8567aa3aa364"},"vehicle_type_id":"4","last_reported":1770491719,"current_range_meters":5600,"station_id":"ce4bh0p2rcd13ifvqd70","pricing_plan_id":"cebpf4jnsgd1na2vs0mg"},{"bike_id":"eb1aee22-66f7-40e1-8d42-129f37193ad0","system_id":"levelo_inurba_marseille","lat":43.29039,"lon":5.40015,"is_reserved":false,"is_disabled":false,"rental_uris":{"android":"levelo://app?vid=eb1aee22-66f7-40e1-8d42-129f37193ad0","ios":"levelo://app?vid=eb1aee22-66f7-40e1-8d42-129f37193ad0"},"vehicle_type_id":"4","last_reported":1770491719,"current_range_meters":5600,"station_id":"ce4bh392rcd13ifvqdm0","pricing_plan_id":"cebpf4jnsgd1na2vs0mg"},{"bike_id":"b7e3b18f-a763-4cc5-b158-5f63ba83926d","system_id":"levelo_inurba_marseille","lat":43.292611,"lon":5.376293,"is_reserved":false,"is_disabled":false,"rental_uris":{"android":"levelo://app?vid=b7e3b18f-a763-4cc5-b158-5f63ba83926d","ios":"levelo://app?vid=b7e3b18f-a763-4cc5-b158-5f63ba83926d"},"vehicle_type_id":"4","last_reported":1770491719,"current_range_meters":5600,"station_id":"ce4bgi12rcd13ifvqb80","pricing_plan_id":"cebpf4jnsgd1na2vs0mg"},{"bike_id":"ba1b98b8-d6fd-4ac5-9eda-8035e3140fb6","system_id":"levelo_inurba_marseille","lat":43.2119,"lon":5.35068,"is_reserved":false,"is_disabled":false,"rental_uris":{"android":"levelo://app?vid=ba1b98b8-d6fd-4ac5-9eda-8035e3140fb6","ios":"levelo://app?vid=ba1b98b8-d6fd-4ac5-9eda-8035e3140fb6"},"vehicle_type_id":"4","last_reported":1770491719,"current_range_meters":5600,"station_id":"st_cvj6sg6p6f1abm77japg","pricing_plan_id":"cebpf4jnsgd1na2vs0mg"},{"bike_id":"76bac507-d02b-43aa-9205-20a423705e99","system_id":"levelo_inurba_marseille","lat":43.30214,"lon":5.39469,"is_reserved":false,"is_disabled":false,"rental_uris":{"android":"levelo://app?vid=76bac507-d02b-43aa-9205-20a423705e99","ios":"levelo://app?vid=76bac507-d02b-43aa-9205-20a423705e99"},"vehicle_type_id":"4","last_reported":1770491719,"current_range_meters":5600,"station_id":"ce4bh0p2rcd13ifvqd70","pricing_plan_id":"cebpf4jnsgd1na2vs0mg"},{"bike_id":"968f210a-55fc-4510-bcd2-d3ede65fbe45","system_id":"levelo_inurba_marseille","lat":43.324785,"lon":5.365655,"is_reserved":false,"is_disabled":false,"rental_uris":{"android":"levelo://app?vid=968f210a-55fc-4510-bcd2-d3ede65fbe45","ios":"levelo://app?vid=968f210a-55fc-4510-bcd2-d3ede65fbe45"},"vehicle_type_id":"4","last_reported":1770491719,"current_range_meters":5600,"station_id":"ce4bhs12rcd13ifvqhvg","pricing_plan_id":"cebpf4jnsgd1na2vs0mg"},{"bike_id":"427b4afc-b7dd-4e77-a7c1-6686018850e8","system_id":"levelo_inurba_marseille","lat":43.27959,"lon":5.41007,"is_reserved":false,"is_disabled":false,"rental_uris":{"android":"levelo://app?vid=427b4afc-b7dd-4e77-a7c1-6686018850e8","ios":"levelo://app?vid=427b4afc-b7dd-4e77-a7c1-6686018850e8"},"vehicle_type_id":"4","last_reported":1770491719,"current_range_meters":6000,"station_id":"ce4bhnp2rcd13ifvqh0g","pricing_plan_id":"cebpf4jnsgd1na2vs0mg"},{"bike_id":"55e6acf3-2487-453e-b1e8-9b4bb25c70bc","system_id":"levelo_inurba_marseille","lat":43.31716,"lon":5.40461,"is_reserved":false,"is_disabled":false,"rental_uris":{"android":"levelo://app?vid=55e6acf3-2487-453e-b1e8-9b4bb25c70bc","ios":"levelo://app?vid=55e6acf3-2487-453e-b1e8-9b4bb25c70bc"},"vehicle_type_id":"4","last_reported":1770491719,"current_range_meters":6000,"station_id":"ce4bh012rcd13ifvqd00","pricing_plan_id":"cebpf4jnsgd1na2vs0mg"},{"bike_id":"c83db4e2-15a7-4fa6-a03a-6d3ac9b5fffa","system_id":"levelo_inurba_marseille","lat":43.29272,"lon":5.36776,"is_reserved":false,"is_disabled":false,"rental_uris":{"android":"levelo://app?vid=c83db4e2-15a7-4fa6-a03a-6d3ac9b5fffa","ios":"levelo://app?vid=c83db4e2-15a7-4fa6-a03a-6d3ac9b5fffa"},"vehicle_type_id":"4","last_reported":1770491719,"current_range_meters":6000,"station_id":"","pricing_plan_id":"cebpf4jnsgd1na2vs0mg"},{"bike_id":"55701a05-0afd-44f2-b5ec-65dd45bfe15c","system_id":"levelo_inurba_marseille","lat":43.23932,"lon":5.36651,"is_reserved":false,"is_disabled":false,"rental_uris":{"android":"levelo://app?vid=55701a05-0afd-44f2-b5ec-65dd45bfe15c","ios":"levelo://app?vid=55701a05-0afd-44f2-b5ec-65dd45bfe15c"},"vehicle_type_id":"4","last_reported":1770491719,"current_range_meters":6000,"station_id":"ce4bhi12rcd13ifvqfp0","pricing_plan_id":"cebpf4jnsgd1na2vs0mg"},{"bike_id":"082c6167-f943-4767-9df3-19b6044ff5f3","system_id":"levelo_inurba_marseille","lat":43.30591,"lon":5.3718,"is_reserved":false,"is_disabled":false,"rental_uris":{"android":"levelo://app?vid=082c6167-f943-4767-9df3-19b6044ff5f3","ios":"levelo://app?vid=082c6167-f943-4767-9df3-19b6044ff5f3"},"vehicle_type_id":"4","last_reported":1770491719,"current_range_meters":6000,"station_id":"ce4bgqh2rcd13ifvqc4g","pricing_plan_id":"cebpf4jnsgd1na2vs0mg"},{"bike_id":"a832ddf3-c616-4d2c-9dd2-c193872b9b01","system_id":"levelo_inurba_marseille","lat":43.27313,"lon":5.39116,"is_reserved":false,"is_disabled":false,"rental_uris":{"android":"levelo://app?vid=a832ddf3-c616-4d2c-9dd2-c193872b9b01","ios":"levelo://app?vid=a832ddf3-c616-4d2c-9dd2-c193872b9b01"},"vehicle_type_id":"4","last_reported":1770491719,"current_range_meters":6000,"station_id":"ce4bhgp2rcd13ifvqfe0","pricing_plan_id":"cebpf4jnsgd1na2vs0mg"},{"bike_id":"84c8699d-c437-4eea-b1ad-8edc224bad99","system_id":"levelo_inurba_marseille","lat":43.24967,"lon":5.40494,"is_reserved":false,"is_disabled":false,"rental_uris":{"android":"levelo://app?vid=84c8699d-c437-4eea-b1ad-8edc224bad99","ios":"levelo://app?vid=84c8699d-c437-4eea-b1ad-8edc224bad99"},"vehicle_type_id":"4","last_reported":1770491719,"current_range_meters":6000,"station_id":"st_d2ngiaodas8pm72gd1h0","pricing_plan_id":"cebpf4jnsgd1na2vs0mg"},{"bike_id":"6622ecdf-5979-47a5-b9a2-8e881f3db9ee","system_id":"levelo_inurba_marseille","lat":43.27989,"lon":5.39997,"is_reserved":false,"is_disabled":false,"rental_uris":{"android":"levelo://app?vid=6622ecdf-5979-47a5-b9a2-8e881f3db9ee","ios":"levelo://app?vid=6622ecdf-5979-47a5-b9a2-8e881f3db9ee"},"vehicle_type_id":"4","last_reported":1770491719,"current_range_meters":6000,"station_id":"ce4bho92rcd13ifvqh4g","pricing_plan_id":"cebpf4jnsgd1na2vs0mg"},{"bike_id":"4fd33ec2-191e-42f6-b2f1-474419accee2","system_id":"levelo_inurba_marseille","lat":43.26064,"lon":5.39396,"is_reserved":false,"is_disabled":false,"rental_uris":{"android":"levelo://app?vid=4fd33ec2-191e-42f6-b2f1-474419accee2","ios":"levelo://app?vid=4fd33ec2-191e-42f6-b2f1-474419accee2"},"vehicle_type_id":"4","last_reported":1770491719,"current_range_meters":6000,"station_id":"ce4bhh92rcd13ifvqfj0","pricing_plan_id":"cebpf4jnsgd1na2vs0mg"},{"bike_id":"2ce20688-0534-4877-aa02-a0d627f2384b","system_id":"levelo_inurba_marseille","lat":43.25873,"lon":5.39917,"is_reserved":false,"is_disabled":false,"rental_uris":{"android":"levelo://app?vid=2ce20688-0534-4877-aa02-a0d627f2384b","ios":"levelo://app?vid=2ce20688-0534-4877-aa02-a0d627f2384b"},"vehicle_type_id":"4","last_reported":1770491719,"current_range_meters":6000,"station_id":"ce4bhl92rcd13ifvqghg","pricing_plan_id":"cebpf4jnsgd1na2vs0mg"},{"bike_id":"09254245-3d05-43f5-b56d-4aa78460625e","system_id":"levelo_inurba_marseille","lat":43.31125,"lon":5.37775,"is_reserved":false,"is_disabled":false,"rental_uris":{"android":"levelo://app?vid=09254245-3d05-43f5-b56d-4aa78460625e","ios":"levelo://app?vid=09254245-3d05-43f5-b56d-4aa78460625e"},"vehicle_type_id":"4","last_reported":1770491719,"current_range_meters":6000,"station_id":"ce4bgt92rcd13ifvqcg0","pricing_plan_id":"cebpf4jnsgd1na2vs0mg"},{"bike_id":"831f769d-3737-493b-9a0b-9d0ea0dc33c9","system_id":"levelo_inurba_marseille","lat":43.30917,"lon":5.36842,"is_reserved":false,"is_disabled":false,"rental_uris":{"android":"levelo://app?vid=831f769d-3737-493b-9a0b-9d0ea0dc33c9","ios":"levelo://app?vid=831f769d-3737-493b-9a0b-9d0ea0dc33c9"},"vehicle_type_id":"4","last_reported":1770491719,"current_range_meters":6000,"station_id":"ce4bgn92rcd13ifvqbvg","pricing_plan_id":"cebpf4jnsgd1na2vs0mg"},{"bike_id":"19decdef-6625-4d6a-8a49-f7d33230b922","system_id":"levelo_inurba_marseille","lat":43.29785,"lon":5.38082,"is_reserved":false,"is_disabled":false,"rental_uris":{"android":"levelo://app?vid=19decdef-6625-4d6a-8a49-f7d33230b922","ios":"levelo://app?vid=19decdef-6625-4d6a-8a49-f7d33230b922"},"vehicle_type_id":"4","last_reported":1770491719,"current_range_meters":6000,"station_id":"ce4bgip2rcd13ifvqbb0","pricing_plan_id":"cebpf4jnsgd1na2vs0mg"},{"bike_id":"75973dfd-67b6-4600-ac05-d521b143bd83","system_id":"levelo_inurba_marseille","lat":43.24463,"lon":5.42533,"is_reserved":false,"is_disabled":false,"rental_uris":{"android":"levelo://app?vid=75973dfd-67b6-4600-ac05-d521b143bd83","ios":"levelo://app?vid=75973dfd-67b6-4600-ac05-d521b143bd83"},"vehicle_type_id":"4","last_reported":1770491719,"current_range_meters":6000,"station_id":"st_d4a3vfp97mjs738cd8kg","pricing_plan_id":"cebpf4jnsgd1na2vs0mg"},{"bike_id":"ba7d3998-6aab-413e-bad5-f6845958284b","system_id":"levelo_inurba_marseille","lat":43.251,"lon":5.4032,"is_reserved":false,"is_disabled":false,"rental_uris":{"android":"levelo://app?vid=ba7d3998-6aab-413e-bad5-f6845958284b","ios":"levelo://app?vid=ba7d3998-6aab-413e-bad5-f6845958284b"},"vehicle_type_id":"4","last_reported":1770491719,"current_range_meters":6400,"station_id":"ce4bhlh2rcd13ifvqgig","pricing_plan_id":"cebpf4jnsgd1na2vs0mg"},{"bike_id":"ee8dbaf5-67a9-4fe1-9f78-97faabf96139","system_id":"levelo_inurba_marseille","lat":43.26699,"lon":5.38214,"is_reserved":false,"is_disabled":false,"rental_uris":{"android":"levelo://app?vid=ee8dbaf5-67a9-4fe1-9f78-97faabf96139","ios":"levelo://app?vid=ee8dbaf5-67a9-4fe1-9f78-97faabf96139"},"vehicle_type_id":"4","last_reported":1770491719,"current_range_meters":6400,"station_id":"ce4bhg92rcd13ifvqf90","pricing_plan_id":"cebpf4jnsgd1na2vs0mg"},{"bike_id":"81f078bf-4621-4047-9b03-a3e97a8ecc74","system_id":"levelo_inurba_marseille","lat":43.29614,"lon":5.37742,"is_reserved":false,"is_disabled":false,"rental_uris":{"android":"levelo://app?vid=81f078bf-4621-4047-9b03-a3e97a8ecc74","ios":"levelo://app?vid=81f078bf-4621-4047-9b03-a3e97a8ecc74"},"vehicle_type_id":"4","last_reported":1770491719,"current_range_meters":6400,"station_id":"ce4bgi92rcd13ifvqb90","pricing_plan_id":"cebpf4jnsgd1na2vs0mg"},{"bike_id":"95ddcd5a-bf89-4af0-8832-e9e870a74381","system_id":"levelo_inurba_marseille","lat":43.26213,"lon":5.38856,"is_reserved":false,"is_disabled":false,"rental_uris":{"android":"levelo://app?vid=95ddcd5a-bf89-4af0-8832-e9e870a74381","ios":"levelo://app?vid=95ddcd5a-bf89-4af0-8832-e9e870a74381"},"vehicle_type_id":"4","last_reported":1770491719,"current_range_meters":6400,"station_id":"","pricing_plan_id":"cebpf4jnsgd1na2vs0mg"},{"bike_id":"37c32177-bfdd-4f2b-88bc-66cfd8b5b005","system_id":"levelo_inurba_marseille","lat":43.27319,"lon":5.3905,"is_reserved":false,"is_disabled":false,"rental_uris":{"android":"levelo://app?vid=37c32177-bfdd-4f2b-88bc-66cfd8b5b005","ios":"levelo://app?vid=37c32177-bfdd-4f2b-88bc-66cfd8b5b005"},"vehicle_type_id":"4","last_reported":1770491719,"current_range_meters":6400,"station_id":"ce4bhgp2rcd13ifvqfe0","pricing_plan_id":"cebpf4jnsgd1na2vs0mg"},{"bike_id":"c2a8a439-33fe-49c7-8bf3-4333c7082516","system_id":"levelo_inurba_marseille","lat":43.27964,"lon":5.41151,"is_reserved":false,"is_disabled":false,"rental_uris":{"android":"levelo://app?vid=c2a8a439-33fe-49c7-8bf3-4333c7082516","ios":"levelo://app?vid=c2a8a439-33fe-49c7-8bf3-4333c7082516"},"vehicle_type_id":"4","last_reported":1770491719,"current_range_meters":6400,"station_id":"","pricing_plan_id":"cebpf4jnsgd1na2vs0mg"},{"bike_id":"34a55f58-a955-4283-bcd6-91c6f2bdcd18","system_id":"levelo_inurba_marseille","lat":43.265538,"lon":5.393758,"is_reserved":false,"is_disabled":false,"rental_uris":{"android":"levelo://app?vid=34a55f58-a955-4283-bcd6-91c6f2bdcd18","ios":"levelo://app?vid=34a55f58-a955-4283-bcd6-91c6f2bdcd18"},"vehicle_type_id":"4","last_reported":1770491719,"current_range_meters":6400,"station_id":"","pricing_plan_id":"cebpf4jnsgd1na2vs0mg"},{"bike_id":"b805cbda-0bcb-43b5-8f11-56fc15ee2f84","system_id":"levelo_inurba_marseille","lat":43.261928,"lon":5.374456,"is_reserved":false,"is_disabled":false,"rental_uris":{"android":"levelo://app?vid=b805cbda-0bcb-43b5-8f11-56fc15ee2f84","ios":"levelo://app?vid=b805cbda-0bcb-43b5-8f11-56fc15ee2f84"},"vehicle_type_id":"4","last_reported":1770491719,"current_range_meters":6400,"station_id":"ce4bhgp2rcd13ifvqfc0","pricing_plan_id":"cebpf4jnsgd1na2vs0mg"},{"bike_id":"c4efa3f2-b2c0-4d4d-abfb-c2af7798a8fe","system_id":"levelo_inurba_marseille","lat":43.24181,"lon":5.39736,"is_reserved":false,"is_disabled":false,"rental_uris":{"android":"levelo://app?vid=c4efa3f2-b2c0-4d4d-abfb-c2af7798a8fe","ios":"levelo://app?vid=c4efa3f2-b2c0-4d4d-abfb-c2af7798a8fe"},"vehicle_type_id":"4","last_reported":1770491719,"current_range_meters":6400,"station_id":"ce4bhn12rcd13ifvqgpg","pricing_plan_id":"cebpf4jnsgd1na2vs0mg"},{"bike_id":"2c09a0f9-e9a0-4d52-b227-0d1dbfce5311","system_id":"levelo_inurba_marseille","lat":43.23801,"lon":5.36649,"is_reserved":false,"is_disabled":false,"rental_uris":{"android":"levelo://app?vid=2c09a0f9-e9a0-4d52-b227-0d1dbfce5311","ios":"levelo://app?vid=2c09a0f9-e9a0-4d52-b227-0d1dbfce5311"},"vehicle_type_id":"4","last_reported":1770491719,"current_range_meters":6400,"station_id":"st_d3nk18o9ro0c73en2l3g","pricing_plan_id":"cebpf4jnsgd1na2vs0mg"},{"bike_id":"699fac07-9b50-471a-988d-02036968b5f7","system_id":"levelo_inurba_marseille","lat":43.29026,"lon":5.38635,"is_reserved":false,"is_disabled":false,"rental_uris":{"android":"levelo://app?vid=699fac07-9b50-471a-988d-02036968b5f7","ios":"levelo://app?vid=699fac07-9b50-471a-988d-02036968b5f7"},"vehicle_type_id":"4","last_reported":1770491719,"current_range_meters":6400,"station_id":"ce4bh4p2rcd13ifvqe0g","pricing_plan_id":"cebpf4jnsgd1na2vs0mg"},{"bike_id":"e2c09bca-4d3a-4f8d-810c-1ea2152d1fa0","system_id":"levelo_inurba_marseille","lat":43.2694,"lon":5.40269,"is_reserved":false,"is_disabled":false,"rental_uris":{"android":"levelo://app?vid=e2c09bca-4d3a-4f8d-810c-1ea2152d1fa0","ios":"levelo://app?vid=e2c09bca-4d3a-4f8d-810c-1ea2152d1fa0"},"vehicle_type_id":"4","last_reported":1770491719,"current_range_meters":6400,"station_id":"cjm6bp8fraef2m0cb0m0","pricing_plan_id":"cebpf4jnsgd1na2vs0mg"},{"bike_id":"8efb4574-340b-4df3-a8c1-1e7cd9ceeacf","system_id":"levelo_inurba_marseille","lat":43.231957,"lon":5.399817,"is_reserved":false,"is_disabled":false,"rental_uris":{"android":"levelo://app?vid=8efb4574-340b-4df3-a8c1-1e7cd9ceeacf","ios":"levelo://app?vid=8efb4574-340b-4df3-a8c1-1e7cd9ceeacf"},"vehicle_type_id":"4","last_reported":1770491719,"current_range_meters":6400,"station_id":"ce4bhn12rcd13ifvqgqg","pricing_plan_id":"cebpf4jnsgd1na2vs0mg"},{"bike_id":"9ba83d1b-f7bb-42d4-9de7-cbaf279c8ab2","system_id":"levelo_inurba_marseille","lat":43.31713,"lon":5.42398,"is_reserved":false,"is_disabled":false,"rental_uris":{"android":"levelo://app?vid=9ba83d1b-f7bb-42d4-9de7-cbaf279c8ab2","ios":"levelo://app?vid=9ba83d1b-f7bb-42d4-9de7-cbaf279c8ab2"},"vehicle_type_id":"4","last_reported":1770491719,"current_range_meters":6400,"station_id":"ce4bhp92rcd13ifvqhbg","pricing_plan_id":"cebpf4jnsgd1na2vs0mg"},{"bike_id":"03414a6d-caa9-4966-8ffd-1cbcbc02f0d6","system_id":"levelo_inurba_marseille","lat":43.24408,"lon":5.36999,"is_reserved":false,"is_disabled":false,"rental_uris":{"android":"levelo://app?vid=03414a6d-caa9-4966-8ffd-1cbcbc02f0d6","ios":"levelo://app?vid=03414a6d-caa9-4966-8ffd-1cbcbc02f0d6"},"vehicle_type_id":"4","last_reported":1770491719,"current_range_meters":6400,"station_id":"","pricing_plan_id":"cebpf4jnsgd1na2vs0mg"},{"bike_id":"37810020-311e-4142-81ed-743738c6fb89","system_id":"levelo_inurba_marseille","lat":43.3073,"lon":5.42447,"is_reserved":false,"is_disabled":false,"rental_uris":{"android":"levelo://app?vid=37810020-311e-4142-81ed-743738c6fb89","ios":"levelo://app?vid=37810020-311e-4142-81ed-743738c6fb89"},"vehicle_type_id":"4","last_reported":1770491719,"current_range_meters":6400,"station_id":"st_cvj6ca6bvosntc0bfgr0","pricing_plan_id":"cebpf4jnsgd1na2vs0mg"},{"bike_id":"695a138c-9117-4798-9030-e462ffee3fe5","system_id":"levelo_inurba_marseille","lat":43.24808,"lon":5.37456,"is_reserved":false,"is_disabled":false,"rental_uris":{"android":"levelo://app?vid=695a138c-9117-4798-9030-e462ffee3fe5","ios":"levelo://app?vid=695a138c-9117-4798-9030-e462ffee3fe5"},"vehicle_type_id":"4","last_reported":1770491719,"current_range_meters":6400,"station_id":"ce4bhgh2rcd13ifvqfb0","pricing_plan_id":"cebpf4jnsgd1na2vs0mg"},{"bike_id":"22a18f5a-e84b-4706-acdf-fdede8aeea20","system_id":"levelo_inurba_marseille","lat":43.25855,"lon":5.39916,"is_reserved":false,"is_disabled":false,"rental_uris":{"android":"levelo://app?vid=22a18f5a-e84b-4706-acdf-fdede8aeea20","ios":"levelo://app?vid=22a18f5a-e84b-4706-acdf-fdede8aeea20"},"vehicle_type_id":"4","last_reported":1770491719,"current_range_meters":6400,"station_id":"ce4bhl92rcd13ifvqghg","pricing_plan_id":"cebpf4jnsgd1na2vs0mg"},{"bike_id":"fa14fa61-6ed7-4edc-a34c-aba3e8172f20","system_id":"levelo_inurba_marseille","lat":43.29252,"lon":5.38441,"is_reserved":false,"is_disabled":false,"rental_uris":{"android":"levelo://app?vid=fa14fa61-6ed7-4edc-a34c-aba3e8172f20","ios":"levelo://app?vid=fa14fa61-6ed7-4edc-a34c-aba3e8172f20"},"vehicle_type_id":"4","last_reported":1770491719,"current_range_meters":6400,"station_id":"ce4bh692rcd13ifvqea0","pricing_plan_id":"cebpf4jnsgd1na2vs0mg"},{"bike_id":"8f456931-6682-4563-a722-91f6bad4b5cf","system_id":"levelo_inurba_marseille","lat":43.29047,"lon":5.37557,"is_reserved":false,"is_disabled":false,"rental_uris":{"android":"levelo://app?vid=8f456931-6682-4563-a722-91f6bad4b5cf","ios":"levelo://app?vid=8f456931-6682-4563-a722-91f6bad4b5cf"},"vehicle_type_id":"4","last_reported":1770491719,"current_range_meters":6400,"station_id":"ce4bh692rcd13ifvqe90","pricing_plan_id":"cebpf4jnsgd1na2vs0mg"},{"bike_id":"b5ef2479-08bc-4926-bde6-95f0bd6a5a92","system_id":"levelo_inurba_marseille","lat":43.31496,"lon":5.37308,"is_reserved":false,"is_disabled":false,"rental_uris":{"android":"levelo://app?vid=b5ef2479-08bc-4926-bde6-95f0bd6a5a92","ios":"levelo://app?vid=b5ef2479-08bc-4926-bde6-95f0bd6a5a92"},"vehicle_type_id":"4","last_reported":1770491719,"current_range_meters":6400,"station_id":"ce4bgt12rcd13ifvqcd0","pricing_plan_id":"cebpf4jnsgd1na2vs0mg"},{"bike_id":"a0a67bd8-5c45-40bf-b3cf-4bc191cf8630","system_id":"levelo_inurba_marseille","lat":43.2318,"lon":5.43746,"is_reserved":false,"is_disabled":false,"rental_uris":{"android":"levelo://app?vid=a0a67bd8-5c45-40bf-b3cf-4bc191cf8630","ios":"levelo://app?vid=a0a67bd8-5c45-40bf-b3cf-4bc191cf8630"},"vehicle_type_id":"4","last_reported":1770491719,"current_range_meters":6800,"station_id":"","pricing_plan_id":"cebpf4jnsgd1na2vs0mg"},{"bike_id":"7bddda00-b4a3-467e-857f-177f6c856946","system_id":"levelo_inurba_marseille","lat":43.27997,"lon":5.40029,"is_reserved":false,"is_disabled":false,"rental_uris":{"android":"levelo://app?vid=7bddda00-b4a3-467e-857f-177f6c856946","ios":"levelo://app?vid=7bddda00-b4a3-467e-857f-177f6c856946"},"vehicle_type_id":"4","last_reported":1770491719,"current_range_meters":6800,"station_id":"ce4bho92rcd13ifvqh4g","pricing_plan_id":"cebpf4jnsgd1na2vs0mg"},{"bike_id":"70446c6c-f96c-40c8-9c88-036b27afd86f","system_id":"levelo_inurba_marseille","lat":43.29586,"lon":5.37745,"is_reserved":false,"is_disabled":false,"rental_uris":{"android":"levelo://app?vid=70446c6c-f96c-40c8-9c88-036b27afd86f","ios":"levelo://app?vid=70446c6c-f96c-40c8-9c88-036b27afd86f"},"vehicle_type_id":"4","last_reported":1770491719,"current_range_meters":6800,"station_id":"","pricing_plan_id":"cebpf4jnsgd1na2vs0mg"},{"bike_id":"6ce0ae29-1385-4cfa-98a3-18897936dfbe","system_id":"levelo_inurba_marseille","lat":43.295309,"lon":5.390214,"is_reserved":false,"is_disabled":false,"rental_uris":{"android":"levelo://app?vid=6ce0ae29-1385-4cfa-98a3-18897936dfbe","ios":"levelo://app?vid=6ce0ae29-1385-4cfa-98a3-18897936dfbe"},"vehicle_type_id":"4","last_reported":1770491719,"current_range_meters":6800,"station_id":"ce4bh3p2rcd13ifvqdp0","pricing_plan_id":"cebpf4jnsgd1na2vs0mg"},{"bike_id":"d7b7c118-575b-4f69-a01a-1a37afc992ca","system_id":"levelo_inurba_marseille","lat":43.32281,"lon":5.38986,"is_reserved":false,"is_disabled":false,"rental_uris":{"android":"levelo://app?vid=d7b7c118-575b-4f69-a01a-1a37afc992ca","ios":"levelo://app?vid=d7b7c118-575b-4f69-a01a-1a37afc992ca"},"vehicle_type_id":"4","last_reported":1770491719,"current_range_meters":6800,"station_id":"ce4bhqp2rcd13ifvqhog","pricing_plan_id":"cebpf4jnsgd1na2vs0mg"},{"bike_id":"f5b3c0bc-b0db-4532-8e2f-eae93141d573","system_id":"levelo_inurba_marseille","lat":43.33536,"lon":5.37475,"is_reserved":false,"is_disabled":false,"rental_uris":{"android":"levelo://app?vid=f5b3c0bc-b0db-4532-8e2f-eae93141d573","ios":"levelo://app?vid=f5b3c0bc-b0db-4532-8e2f-eae93141d573"},"vehicle_type_id":"4","last_reported":1770491719,"current_range_meters":6800,"station_id":"st_d46tts09ee8s73dlu43g","pricing_plan_id":"cebpf4jnsgd1na2vs0mg"},{"bike_id":"1bb36cec-b39c-4acc-97a7-9980aced8105","system_id":"levelo_inurba_marseille","lat":43.29018,"lon":5.38119,"is_reserved":false,"is_disabled":false,"rental_uris":{"android":"levelo://app?vid=1bb36cec-b39c-4acc-97a7-9980aced8105","ios":"levelo://app?vid=1bb36cec-b39c-4acc-97a7-9980aced8105"},"vehicle_type_id":"4","last_reported":1770491719,"current_range_meters":6800,"station_id":"ce4bh4p2rcd13ifvqe1g","pricing_plan_id":"cebpf4jnsgd1na2vs0mg"},{"bike_id":"1780f274-efef-4868-ad51-2e25c5373fc0","system_id":"levelo_inurba_marseille","lat":43.27066,"lon":5.42282,"is_reserved":false,"is_disabled":false,"rental_uris":{"android":"levelo://app?vid=1780f274-efef-4868-ad51-2e25c5373fc0","ios":"levelo://app?vid=1780f274-efef-4868-ad51-2e25c5373fc0"},"vehicle_type_id":"4","last_reported":1770491719,"current_range_meters":6800,"station_id":"ce4bhk92rcd13ifvqgb0","pricing_plan_id":"cebpf4jnsgd1na2vs0mg"},{"bike_id":"e28e99f8-7d45-40f8-98b3-b070827fc4f2","system_id":"levelo_inurba_marseille","lat":43.22556,"lon":5.41625,"is_reserved":false,"is_disabled":false,"rental_uris":{"android":"levelo://app?vid=e28e99f8-7d45-40f8-98b3-b070827fc4f2","ios":"levelo://app?vid=e28e99f8-7d45-40f8-98b3-b070827fc4f2"},"vehicle_type_id":"4","last_reported":1770491719,"current_range_meters":6800,"station_id":"st_d2o4gvlbi1j2169b742g","pricing_plan_id":"cebpf4jnsgd1na2vs0mg"},{"bike_id":"3b71a1ad-0888-4e5c-82a0-0dec693b29d4","system_id":"levelo_inurba_marseille","lat":43.31088,"lon":5.38128,"is_reserved":false,"is_disabled":false,"rental_uris":{"android":"levelo://app?vid=3b71a1ad-0888-4e5c-82a0-0dec693b29d4","ios":"levelo://app?vid=3b71a1ad-0888-4e5c-82a0-0dec693b29d4"},"vehicle_type_id":"4","last_reported":1770491719,"current_range_meters":6800,"station_id":"","pricing_plan_id":"cebpf4jnsgd1na2vs0mg"},{"bike_id":"c3cea571-fb42-4ad7-864e-47ef8f4c3f2d","system_id":"levelo_inurba_marseille","lat":43.2319,"lon":5.35558,"is_reserved":false,"is_disabled":false,"rental_uris":{"android":"levelo://app?vid=c3cea571-fb42-4ad7-864e-47ef8f4c3f2d","ios":"levelo://app?vid=c3cea571-fb42-4ad7-864e-47ef8f4c3f2d"},"vehicle_type_id":"4","last_reported":1770491719,"current_range_meters":6800,"station_id":"ce4bhu92rcd13ifvqi70","pricing_plan_id":"cebpf4jnsgd1na2vs0mg"},{"bike_id":"4308129b-6751-4273-bbe8-20208f30cb65","system_id":"levelo_inurba_marseille","lat":43.22931,"lon":5.35385,"is_reserved":false,"is_disabled":false,"rental_uris":{"android":"levelo://app?vid=4308129b-6751-4273-bbe8-20208f30cb65","ios":"levelo://app?vid=4308129b-6751-4273-bbe8-20208f30cb65"},"vehicle_type_id":"4","last_reported":1770491719,"current_range_meters":6800,"station_id":"cpo3532slgdg3j2ikp40","pricing_plan_id":"cebpf4jnsgd1na2vs0mg"},{"bike_id":"590a49b2-0eed-48ea-ae3a-6f295762fdad","system_id":"levelo_inurba_marseille","lat":43.28939,"lon":5.36623,"is_reserved":false,"is_disabled":false,"rental_uris":{"android":"levelo://app?vid=590a49b2-0eed-48ea-ae3a-6f295762fdad","ios":"levelo://app?vid=590a49b2-0eed-48ea-ae3a-6f295762fdad"},"vehicle_type_id":"4","last_reported":1770491719,"current_range_meters":6800,"station_id":"ce4bhap2rcd13ifvqek0","pricing_plan_id":"cebpf4jnsgd1na2vs0mg"},{"bike_id":"26bdd5a7-0444-4148-b780-70e7a71ec542","system_id":"levelo_inurba_marseille","lat":43.29634,"lon":5.40588,"is_reserved":false,"is_disabled":false,"rental_uris":{"android":"levelo://app?vid=26bdd5a7-0444-4148-b780-70e7a71ec542","ios":"levelo://app?vid=26bdd5a7-0444-4148-b780-70e7a71ec542"},"vehicle_type_id":"4","last_reported":1770491719,"current_range_meters":6800,"station_id":"ce4bh0h2rcd13ifvqd60","pricing_plan_id":"cebpf4jnsgd1na2vs0mg"},{"bike_id":"b834e44c-7a6b-44e2-8b98-4864f68f72bc","system_id":"levelo_inurba_marseille","lat":43.25824,"lon":5.3945,"is_reserved":false,"is_disabled":false,"rental_uris":{"android":"levelo://app?vid=b834e44c-7a6b-44e2-8b98-4864f68f72bc","ios":"levelo://app?vid=b834e44c-7a6b-44e2-8b98-4864f68f72bc"},"vehicle_type_id":"4","last_reported":1770491719,"current_range_meters":7200,"station_id":"ce4bhip2rcd13ifvqft0","pricing_plan_id":"cebpf4jnsgd1na2vs0mg"},{"bike_id":"dbd1c194-03e4-49d3-b3d8-186d17378327","system_id":"levelo_inurba_marseille","lat":43.30148,"lon":5.38094,"is_reserved":false,"is_disabled":false,"rental_uris":{"android":"levelo://app?vid=dbd1c194-03e4-49d3-b3d8-186d17378327","ios":"levelo://app?vid=dbd1c194-03e4-49d3-b3d8-186d17378327"},"vehicle_type_id":"4","last_reported":1770491719,"current_range_meters":7200,"station_id":"ce4bgjp2rcd13ifvqbh0","pricing_plan_id":"cebpf4jnsgd1na2vs0mg"},{"bike_id":"e61d0ac2-97cb-4c8f-9bcd-d991c2ca42f8","system_id":"levelo_inurba_marseille","lat":43.2957,"lon":5.37501,"is_reserved":false,"is_disabled":false,"rental_uris":{"android":"levelo://app?vid=e61d0ac2-97cb-4c8f-9bcd-d991c2ca42f8","ios":"levelo://app?vid=e61d0ac2-97cb-4c8f-9bcd-d991c2ca42f8"},"vehicle_type_id":"4","last_reported":1770491719,"current_range_meters":7200,"station_id":"ce4bgh92rcd13ifvqb50","pricing_plan_id":"cebpf4jnsgd1na2vs0mg"},{"bike_id":"3424fe65-7365-4a3d-b40c-9b25ec3af19d","system_id":"levelo_inurba_marseille","lat":43.31322,"lon":5.38722,"is_reserved":false,"is_disabled":false,"rental_uris":{"android":"levelo://app?vid=3424fe65-7365-4a3d-b40c-9b25ec3af19d","ios":"levelo://app?vid=3424fe65-7365-4a3d-b40c-9b25ec3af19d"},"vehicle_type_id":"4","last_reported":1770491719,"current_range_meters":7200,"station_id":"","pricing_plan_id":"cebpf4jnsgd1na2vs0mg"},{"bike_id":"82f38651-b135-48cf-bb30-2efbdc34233b","system_id":"levelo_inurba_marseille","lat":43.29815,"lon":5.44086,"is_reserved":false,"is_disabled":false,"rental_uris":{"android":"levelo://app?vid=82f38651-b135-48cf-bb30-2efbdc34233b","ios":"levelo://app?vid=82f38651-b135-48cf-bb30-2efbdc34233b"},"vehicle_type_id":"4","last_reported":1770491719,"current_range_meters":7200,"station_id":"st_d3jp68qikq2c7381ktn0","pricing_plan_id":"cebpf4jnsgd1na2vs0mg"},{"bike_id":"8aad744d-2c13-491d-a67d-437de1ad5e7f","system_id":"levelo_inurba_marseille","lat":43.24719,"lon":5.4008,"is_reserved":false,"is_disabled":false,"rental_uris":{"android":"levelo://app?vid=8aad744d-2c13-491d-a67d-437de1ad5e7f","ios":"levelo://app?vid=8aad744d-2c13-491d-a67d-437de1ad5e7f"},"vehicle_type_id":"4","last_reported":1770491719,"current_range_meters":7200,"station_id":"","pricing_plan_id":"cebpf4jnsgd1na2vs0mg"},{"bike_id":"a8166b5b-d24f-4bfd-bc3a-e719ac9d4b2e","system_id":"levelo_inurba_marseille","lat":43.28023,"lon":5.40889,"is_reserved":false,"is_disabled":false,"rental_uris":{"android":"levelo://app?vid=a8166b5b-d24f-4bfd-bc3a-e719ac9d4b2e","ios":"levelo://app?vid=a8166b5b-d24f-4bfd-bc3a-e719ac9d4b2e"},"vehicle_type_id":"4","last_reported":1770491719,"current_range_meters":7200,"station_id":"","pricing_plan_id":"cebpf4jnsgd1na2vs0mg"},{"bike_id":"b92cefea-b054-4668-8b8f-6f3d47fab6c0","system_id":"levelo_inurba_marseille","lat":43.32141,"lon":5.368,"is_reserved":false,"is_disabled":false,"rental_uris":{"android":"levelo://app?vid=b92cefea-b054-4668-8b8f-6f3d47fab6c0","ios":"levelo://app?vid=b92cefea-b054-4668-8b8f-6f3d47fab6c0"},"vehicle_type_id":"4","last_reported":1770491719,"current_range_meters":7200,"station_id":"ce4bhrh2rcd13ifvqhug","pricing_plan_id":"cebpf4jnsgd1na2vs0mg"},{"bike_id":"c9d2bfb2-7471-46bf-97d6-14603771c306","system_id":"levelo_inurba_marseille","lat":43.24393,"lon":5.37053,"is_reserved":false,"is_disabled":false,"rental_uris":{"android":"levelo://app?vid=c9d2bfb2-7471-46bf-97d6-14603771c306","ios":"levelo://app?vid=c9d2bfb2-7471-46bf-97d6-14603771c306"},"vehicle_type_id":"4","last_reported":1770491719,"current_range_meters":7200,"station_id":"ce4bhhh2rcd13ifvqfk0","pricing_plan_id":"cebpf4jnsgd1na2vs0mg"},{"bike_id":"07fe9fa6-8ba5-4426-9dc7-81b5cb2cb051","system_id":"levelo_inurba_marseille","lat":43.26575,"lon":5.40329,"is_reserved":false,"is_disabled":false,"rental_uris":{"android":"levelo://app?vid=07fe9fa6-8ba5-4426-9dc7-81b5cb2cb051","ios":"levelo://app?vid=07fe9fa6-8ba5-4426-9dc7-81b5cb2cb051"},"vehicle_type_id":"4","last_reported":1770491719,"current_range_meters":7200,"station_id":"ce4bhmp2rcd13ifvqgng","pricing_plan_id":"cebpf4jnsgd1na2vs0mg"},{"bike_id":"811ecfab-1e6f-4cd1-8960-403c2a502307","system_id":"levelo_inurba_marseille","lat":43.22921,"lon":5.35371,"is_reserved":false,"is_disabled":false,"rental_uris":{"android":"levelo://app?vid=811ecfab-1e6f-4cd1-8960-403c2a502307","ios":"levelo://app?vid=811ecfab-1e6f-4cd1-8960-403c2a502307"},"vehicle_type_id":"4","last_reported":1770491719,"current_range_meters":7200,"station_id":"cpo3532slgdg3j2ikp40","pricing_plan_id":"cebpf4jnsgd1na2vs0mg"},{"bike_id":"4940192c-cd9e-43b0-a8dd-fd4c04e7805e","system_id":"levelo_inurba_marseille","lat":43.22568,"lon":5.41644,"is_reserved":false,"is_disabled":false,"rental_uris":{"android":"levelo://app?vid=4940192c-cd9e-43b0-a8dd-fd4c04e7805e","ios":"levelo://app?vid=4940192c-cd9e-43b0-a8dd-fd4c04e7805e"},"vehicle_type_id":"4","last_reported":1770491719,"current_range_meters":7200,"station_id":"st_d2o4gvlbi1j2169b742g","pricing_plan_id":"cebpf4jnsgd1na2vs0mg"},{"bike_id":"4a9c7990-f63d-4b13-af72-24157de5b37e","system_id":"levelo_inurba_marseille","lat":43.29687,"lon":5.366498,"is_reserved":false,"is_disabled":false,"rental_uris":{"android":"levelo://app?vid=4a9c7990-f63d-4b13-af72-24157de5b37e","ios":"levelo://app?vid=4a9c7990-f63d-4b13-af72-24157de5b37e"},"vehicle_type_id":"4","last_reported":1770491719,"current_range_meters":7200,"station_id":"ce4bh292rcd13ifvqdf0","pricing_plan_id":"cebpf4jnsgd1na2vs0mg"},{"bike_id":"6b6b3044-dd0e-4787-8945-aab93fdd08a2","system_id":"levelo_inurba_marseille","lat":43.29822,"lon":5.37399,"is_reserved":false,"is_disabled":false,"rental_uris":{"android":"levelo://app?vid=6b6b3044-dd0e-4787-8945-aab93fdd08a2","ios":"levelo://app?vid=6b6b3044-dd0e-4787-8945-aab93fdd08a2"},"vehicle_type_id":"4","last_reported":1770491719,"current_range_meters":7200,"station_id":"","pricing_plan_id":"cebpf4jnsgd1na2vs0mg"},{"bike_id":"13a66910-aa65-4559-ba7a-e63b61e82f6f","system_id":"levelo_inurba_marseille","lat":43.2954,"lon":5.42263,"is_reserved":false,"is_disabled":false,"rental_uris":{"android":"levelo://app?vid=13a66910-aa65-4559-ba7a-e63b61e82f6f","ios":"levelo://app?vid=13a66910-aa65-4559-ba7a-e63b61e82f6f"},"vehicle_type_id":"4","last_reported":1770491719,"current_range_meters":7200,"station_id":"ce4bhph2rcd13ifvqhdg","pricing_plan_id":"cebpf4jnsgd1na2vs0mg"},{"bike_id":"ff981718-737a-46d1-b7ba-67de65affffe","system_id":"levelo_inurba_marseille","lat":43.2587,"lon":5.39898,"is_reserved":false,"is_disabled":false,"rental_uris":{"android":"levelo://app?vid=ff981718-737a-46d1-b7ba-67de65affffe","ios":"levelo://app?vid=ff981718-737a-46d1-b7ba-67de65affffe"},"vehicle_type_id":"4","last_reported":1770491719,"current_range_meters":7200,"station_id":"ce4bhl92rcd13ifvqghg","pricing_plan_id":"cebpf4jnsgd1na2vs0mg"},{"bike_id":"ed45abda-ecf5-4137-85bd-6b0bc3b77ddf","system_id":"levelo_inurba_marseille","lat":43.26404,"lon":5.41123,"is_reserved":false,"is_disabled":false,"rental_uris":{"android":"levelo://app?vid=ed45abda-ecf5-4137-85bd-6b0bc3b77ddf","ios":"levelo://app?vid=ed45abda-ecf5-4137-85bd-6b0bc3b77ddf"},"vehicle_type_id":"4","last_reported":1770491719,"current_range_meters":7200,"station_id":"","pricing_plan_id":"cebpf4jnsgd1na2vs0mg"},{"bike_id":"a85d500c-1b7e-4b3f-bba8-c0b38aec10c6","system_id":"levelo_inurba_marseille","lat":43.2593,"lon":5.40903,"is_reserved":false,"is_disabled":false,"rental_uris":{"android":"levelo://app?vid=a85d500c-1b7e-4b3f-bba8-c0b38aec10c6","ios":"levelo://app?vid=a85d500c-1b7e-4b3f-bba8-c0b38aec10c6"},"vehicle_type_id":"4","last_reported":1770491719,"current_range_meters":7200,"station_id":"ce4bhm92rcd13ifvqglg","pricing_plan_id":"cebpf4jnsgd1na2vs0mg"},{"bike_id":"fc8c615c-8aaf-46f3-aa21-1d900f30da18","system_id":"levelo_inurba_marseille","lat":43.26213,"lon":5.37917,"is_reserved":false,"is_disabled":false,"rental_uris":{"android":"levelo://app?vid=fc8c615c-8aaf-46f3-aa21-1d900f30da18","ios":"levelo://app?vid=fc8c615c-8aaf-46f3-aa21-1d900f30da18"},"vehicle_type_id":"4","last_reported":1770491719,"current_range_meters":7200,"station_id":"ce4bhjp2rcd13ifvqg90","pricing_plan_id":"cebpf4jnsgd1na2vs0mg"},{"bike_id":"3aed5847-38a3-483f-a302-c0e755a4674d","system_id":"levelo_inurba_marseille","lat":43.26373,"lon":5.41069,"is_reserved":false,"is_disabled":false,"rental_uris":{"android":"levelo://app?vid=3aed5847-38a3-483f-a302-c0e755a4674d","ios":"levelo://app?vid=3aed5847-38a3-483f-a302-c0e755a4674d"},"vehicle_type_id":"4","last_reported":1770491719,"current_range_meters":7200,"station_id":"st_d4e5ca6na9uc73bfl5fg","pricing_plan_id":"cebpf4jnsgd1na2vs0mg"},{"bike_id":"da796e6c-2b40-4638-a9f9-9261adef04fd","system_id":"levelo_inurba_marseille","lat":43.30594,"lon":5.37229,"is_reserved":false,"is_disabled":false,"rental_uris":{"android":"levelo://app?vid=da796e6c-2b40-4638-a9f9-9261adef04fd","ios":"levelo://app?vid=da796e6c-2b40-4638-a9f9-9261adef04fd"},"vehicle_type_id":"4","last_reported":1770491719,"current_range_meters":7200,"station_id":"ce4bgqh2rcd13ifvqc4g","pricing_plan_id":"cebpf4jnsgd1na2vs0mg"},{"bike_id":"41bee2b2-21f8-4309-920d-196a80af30a6","system_id":"levelo_inurba_marseille","lat":43.29563,"lon":5.37526,"is_reserved":false,"is_disabled":false,"rental_uris":{"android":"levelo://app?vid=41bee2b2-21f8-4309-920d-196a80af30a6","ios":"levelo://app?vid=41bee2b2-21f8-4309-920d-196a80af30a6"},"vehicle_type_id":"4","last_reported":1770491719,"current_range_meters":7200,"station_id":"ce4bgh92rcd13ifvqb50","pricing_plan_id":"cebpf4jnsgd1na2vs0mg"},{"bike_id":"c113ee1c-5872-4e38-a005-4eccf2c49e29","system_id":"levelo_inurba_marseille","lat":43.29319,"lon":5.37176,"is_reserved":false,"is_disabled":false,"rental_uris":{"android":"levelo://app?vid=c113ee1c-5872-4e38-a005-4eccf2c49e29","ios":"levelo://app?vid=c113ee1c-5872-4e38-a005-4eccf2c49e29"},"vehicle_type_id":"4","last_reported":1770491719,"current_range_meters":7200,"station_id":"ce4bgh92rcd13ifvqb40","pricing_plan_id":"cebpf4jnsgd1na2vs0mg"},{"bike_id":"b0331170-4722-484f-85fa-ff26f59380f0","system_id":"levelo_inurba_marseille","lat":43.29495,"lon":5.43299,"is_reserved":false,"is_disabled":false,"rental_uris":{"android":"levelo://app?vid=b0331170-4722-484f-85fa-ff26f59380f0","ios":"levelo://app?vid=b0331170-4722-484f-85fa-ff26f59380f0"},"vehicle_type_id":"4","last_reported":1770491719,"current_range_meters":7200,"station_id":"st_d3j5ugp08ojc73fj9d10","pricing_plan_id":"cebpf4jnsgd1na2vs0mg"},{"bike_id":"e8b3f3bc-4896-4dbc-afc4-dfc343612c09","system_id":"levelo_inurba_marseille","lat":43.314387,"lon":5.366947,"is_reserved":false,"is_disabled":false,"rental_uris":{"android":"levelo://app?vid=e8b3f3bc-4896-4dbc-afc4-dfc343612c09","ios":"levelo://app?vid=e8b3f3bc-4896-4dbc-afc4-dfc343612c09"},"vehicle_type_id":"4","last_reported":1770491719,"current_range_meters":8000,"station_id":"","pricing_plan_id":"cebpf4jnsgd1na2vs0mg"},{"bike_id":"bb5cab08-186f-4af0-9cfa-2f009cafe5c6","system_id":"levelo_inurba_marseille","lat":43.22924,"lon":5.35379,"is_reserved":false,"is_disabled":false,"rental_uris":{"android":"levelo://app?vid=bb5cab08-186f-4af0-9cfa-2f009cafe5c6","ios":"levelo://app?vid=bb5cab08-186f-4af0-9cfa-2f009cafe5c6"},"vehicle_type_id":"4","last_reported":1770491719,"current_range_meters":8000,"station_id":"cpo3532slgdg3j2ikp40","pricing_plan_id":"cebpf4jnsgd1na2vs0mg"},{"bike_id":"e4a0f913-c11d-44fe-9550-8902e8340c94","system_id":"levelo_inurba_marseille","lat":43.24799,"lon":5.37454,"is_reserved":false,"is_disabled":false,"rental_uris":{"android":"levelo://app?vid=e4a0f913-c11d-44fe-9550-8902e8340c94","ios":"levelo://app?vid=e4a0f913-c11d-44fe-9550-8902e8340c94"},"vehicle_type_id":"4","last_reported":1770491719,"current_range_meters":8000,"station_id":"ce4bhgh2rcd13ifvqfb0","pricing_plan_id":"cebpf4jnsgd1na2vs0mg"},{"bike_id":"32641f13-9d93-4f9b-b623-ce0c373ebef8","system_id":"levelo_inurba_marseille","lat":43.28492,"lon":5.38453,"is_reserved":false,"is_disabled":false,"rental_uris":{"android":"levelo://app?vid=32641f13-9d93-4f9b-b623-ce0c373ebef8","ios":"levelo://app?vid=32641f13-9d93-4f9b-b623-ce0c373ebef8"},"vehicle_type_id":"4","last_reported":1770491719,"current_range_meters":8000,"station_id":"ce4bh512rcd13ifvqe3g","pricing_plan_id":"cebpf4jnsgd1na2vs0mg"},{"bike_id":"386b4487-f2a2-455b-8ef5-022f78fae20f","system_id":"levelo_inurba_marseille","lat":43.24828,"lon":5.37454,"is_reserved":false,"is_disabled":false,"rental_uris":{"android":"levelo://app?vid=386b4487-f2a2-455b-8ef5-022f78fae20f","ios":"levelo://app?vid=386b4487-f2a2-455b-8ef5-022f78fae20f"},"vehicle_type_id":"4","last_reported":1770491719,"current_range_meters":8000,"station_id":"ce4bhgh2rcd13ifvqfb0","pricing_plan_id":"cebpf4jnsgd1na2vs0mg"},{"bike_id":"597894f3-7a98-44e6-a514-e2fe50eba60f","system_id":"levelo_inurba_marseille","lat":43.283038,"lon":5.397049,"is_reserved":false,"is_disabled":false,"rental_uris":{"android":"levelo://app?vid=597894f3-7a98-44e6-a514-e2fe50eba60f","ios":"levelo://app?vid=597894f3-7a98-44e6-a514-e2fe50eba60f"},"vehicle_type_id":"4","last_reported":1770491719,"current_range_meters":8000,"station_id":"","pricing_plan_id":"cebpf4jnsgd1na2vs0mg"},{"bike_id":"006f45de-433c-4fe3-81a6-3dac1db63eac","system_id":"levelo_inurba_marseille","lat":43.24474,"lon":5.42541,"is_reserved":false,"is_disabled":false,"rental_uris":{"android":"levelo://app?vid=006f45de-433c-4fe3-81a6-3dac1db63eac","ios":"levelo://app?vid=006f45de-433c-4fe3-81a6-3dac1db63eac"},"vehicle_type_id":"4","last_reported":1770491719,"current_range_meters":8000,"station_id":"st_d4a3vfp97mjs738cd8kg","pricing_plan_id":"cebpf4jnsgd1na2vs0mg"},{"bike_id":"9c27da16-0b95-483f-acc9-aaafd261f73e","system_id":"levelo_inurba_marseille","lat":43.30894,"lon":5.36842,"is_reserved":false,"is_disabled":false,"rental_uris":{"android":"levelo://app?vid=9c27da16-0b95-483f-acc9-aaafd261f73e","ios":"levelo://app?vid=9c27da16-0b95-483f-acc9-aaafd261f73e"},"vehicle_type_id":"4","last_reported":1770491719,"current_range_meters":8000,"station_id":"ce4bgn92rcd13ifvqbvg","pricing_plan_id":"cebpf4jnsgd1na2vs0mg"},{"bike_id":"6a144693-7691-4af0-a94f-86308d14d8c0","system_id":"levelo_inurba_marseille","lat":43.25953,"lon":5.40879,"is_reserved":false,"is_disabled":false,"rental_uris":{"android":"levelo://app?vid=6a144693-7691-4af0-a94f-86308d14d8c0","ios":"levelo://app?vid=6a144693-7691-4af0-a94f-86308d14d8c0"},"vehicle_type_id":"4","last_reported":1770491719,"current_range_meters":8000,"station_id":"ce4bhm92rcd13ifvqglg","pricing_plan_id":"cebpf4jnsgd1na2vs0mg"},{"bike_id":"83eab603-5a81-40a3-afcb-498eea091594","system_id":"levelo_inurba_marseille","lat":43.28689,"lon":5.38663,"is_reserved":false,"is_disabled":false,"rental_uris":{"android":"levelo://app?vid=83eab603-5a81-40a3-afcb-498eea091594","ios":"levelo://app?vid=83eab603-5a81-40a3-afcb-498eea091594"},"vehicle_type_id":"4","last_reported":1770491719,"current_range_meters":8000,"station_id":"ce4bh492rcd13ifvqdug","pricing_plan_id":"cebpf4jnsgd1na2vs0mg"},{"bike_id":"09986119-327c-45bf-b6a8-e15c339167ea","system_id":"levelo_inurba_marseille","lat":43.28489,"lon":5.43963,"is_reserved":false,"is_disabled":false,"rental_uris":{"android":"levelo://app?vid=09986119-327c-45bf-b6a8-e15c339167ea","ios":"levelo://app?vid=09986119-327c-45bf-b6a8-e15c339167ea"},"vehicle_type_id":"4","last_reported":1770491719,"current_range_meters":8000,"station_id":"","pricing_plan_id":"cebpf4jnsgd1na2vs0mg"},{"bike_id":"d9d493c8-2229-4bda-a958-4c19d5464801","system_id":"levelo_inurba_marseille","lat":43.25867,"lon":5.39912,"is_reserved":false,"is_disabled":false,"rental_uris":{"android":"levelo://app?vid=d9d493c8-2229-4bda-a958-4c19d5464801","ios":"levelo://app?vid=d9d493c8-2229-4bda-a958-4c19d5464801"},"vehicle_type_id":"4","last_reported":1770491719,"current_range_meters":8000,"station_id":"ce4bhl92rcd13ifvqghg","pricing_plan_id":"cebpf4jnsgd1na2vs0mg"},{"bike_id":"6b13c9e2-548e-4202-b996-4fd6e2214df8","system_id":"levelo_inurba_marseille","lat":43.326541,"lon":5.409948,"is_reserved":false,"is_disabled":false,"rental_uris":{"android":"levelo://app?vid=6b13c9e2-548e-4202-b996-4fd6e2214df8","ios":"levelo://app?vid=6b13c9e2-548e-4202-b996-4fd6e2214df8"},"vehicle_type_id":"4","last_reported":1770491719,"current_range_meters":8000,"station_id":"ce4bhpp2rcd13ifvqhgg","pricing_plan_id":"cebpf4jnsgd1na2vs0mg"},{"bike_id":"0d6f875c-8a71-4a34-84c9-5c7cdaaa4c4d","system_id":"levelo_inurba_marseille","lat":43.28478,"lon":5.38428,"is_reserved":false,"is_disabled":false,"rental_uris":{"android":"levelo://app?vid=0d6f875c-8a71-4a34-84c9-5c7cdaaa4c4d","ios":"levelo://app?vid=0d6f875c-8a71-4a34-84c9-5c7cdaaa4c4d"},"vehicle_type_id":"4","last_reported":1770491719,"current_range_meters":8000,"station_id":"ce4bh512rcd13ifvqe3g","pricing_plan_id":"cebpf4jnsgd1na2vs0mg"},{"bike_id":"2da50a9b-f229-415a-a371-caa3bd1f8c5c","system_id":"levelo_inurba_marseille","lat":43.29526,"lon":5.37498,"is_reserved":false,"is_disabled":false,"rental_uris":{"android":"levelo://app?vid=2da50a9b-f229-415a-a371-caa3bd1f8c5c","ios":"levelo://app?vid=2da50a9b-f229-415a-a371-caa3bd1f8c5c"},"vehicle_type_id":"4","last_reported":1770491719,"current_range_meters":8000,"station_id":"ce4bgkp2rcd13ifvqbmg","pricing_plan_id":"cebpf4jnsgd1na2vs0mg"},{"bike_id":"c108a003-28c1-4884-a4e8-c72206ed61ba","system_id":"levelo_inurba_marseille","lat":43.30147,"lon":5.38089,"is_reserved":false,"is_disabled":false,"rental_uris":{"android":"levelo://app?vid=c108a003-28c1-4884-a4e8-c72206ed61ba","ios":"levelo://app?vid=c108a003-28c1-4884-a4e8-c72206ed61ba"},"vehicle_type_id":"4","last_reported":1770491719,"current_range_meters":8400,"station_id":"ce4bgjp2rcd13ifvqbh0","pricing_plan_id":"cebpf4jnsgd1na2vs0mg"},{"bike_id":"11616263-142c-4dd0-a9e9-585090690c40","system_id":"levelo_inurba_marseille","lat":43.2463,"lon":5.43127,"is_reserved":false,"is_disabled":false,"rental_uris":{"android":"levelo://app?vid=11616263-142c-4dd0-a9e9-585090690c40","ios":"levelo://app?vid=11616263-142c-4dd0-a9e9-585090690c40"},"vehicle_type_id":"4","last_reported":1770491719,"current_range_meters":8400,"station_id":"st_d2m6c4gdas8pm72e190g","pricing_plan_id":"cebpf4jnsgd1na2vs0mg"},{"bike_id":"b98ad4e8-c2cb-4dee-8b37-7f16701b29dc","system_id":"levelo_inurba_marseille","lat":43.29095,"lon":5.38145,"is_reserved":false,"is_disabled":false,"rental_uris":{"android":"levelo://app?vid=b98ad4e8-c2cb-4dee-8b37-7f16701b29dc","ios":"levelo://app?vid=b98ad4e8-c2cb-4dee-8b37-7f16701b29dc"},"vehicle_type_id":"4","last_reported":1770491719,"current_range_meters":8400,"station_id":"ce4bh512rcd13ifvqe2g","pricing_plan_id":"cebpf4jnsgd1na2vs0mg"},{"bike_id":"9dadd4c2-97fc-4ce7-a20f-b7c55300a138","system_id":"levelo_inurba_marseille","lat":43.29814,"lon":5.4406,"is_reserved":false,"is_disabled":false,"rental_uris":{"android":"levelo://app?vid=9dadd4c2-97fc-4ce7-a20f-b7c55300a138","ios":"levelo://app?vid=9dadd4c2-97fc-4ce7-a20f-b7c55300a138"},"vehicle_type_id":"4","last_reported":1770491719,"current_range_meters":8400,"station_id":"st_d3jp68qikq2c7381ktn0","pricing_plan_id":"cebpf4jnsgd1na2vs0mg"},{"bike_id":"3c62560d-0d80-4617-a9e6-6a5cb6c2e44e","system_id":"levelo_inurba_marseille","lat":43.2962,"lon":5.37168,"is_reserved":false,"is_disabled":false,"rental_uris":{"android":"levelo://app?vid=3c62560d-0d80-4617-a9e6-6a5cb6c2e44e","ios":"levelo://app?vid=3c62560d-0d80-4617-a9e6-6a5cb6c2e44e"},"vehicle_type_id":"4","last_reported":1770491719,"current_range_meters":8400,"station_id":"ce4bgnh2rcd13ifvqc0g","pricing_plan_id":"cebpf4jnsgd1na2vs0mg"},{"bike_id":"847d705d-a1d2-4c2a-93f1-950151c789f6","system_id":"levelo_inurba_marseille","lat":43.29133,"lon":5.38135,"is_reserved":false,"is_disabled":false,"rental_uris":{"android":"levelo://app?vid=847d705d-a1d2-4c2a-93f1-950151c789f6","ios":"levelo://app?vid=847d705d-a1d2-4c2a-93f1-950151c789f6"},"vehicle_type_id":"4","last_reported":1770491719,"current_range_meters":8400,"station_id":"ce4bh512rcd13ifvqe2g","pricing_plan_id":"cebpf4jnsgd1na2vs0mg"},{"bike_id":"d854da10-99f6-47d9-a682-de86b0df9682","system_id":"levelo_inurba_marseille","lat":43.29269,"lon":5.36841,"is_reserved":false,"is_disabled":false,"rental_uris":{"android":"levelo://app?vid=d854da10-99f6-47d9-a682-de86b0df9682","ios":"levelo://app?vid=d854da10-99f6-47d9-a682-de86b0df9682"},"vehicle_type_id":"4","last_reported":1770491719,"current_range_meters":8400,"station_id":"ce4bhbp2rcd13ifvqesg","pricing_plan_id":"cebpf4jnsgd1na2vs0mg"},{"bike_id":"8398964e-d5d9-450a-b816-081801d25fd4","system_id":"levelo_inurba_marseille","lat":43.2962,"lon":5.37153,"is_reserved":false,"is_disabled":false,"rental_uris":{"android":"levelo://app?vid=8398964e-d5d9-450a-b816-081801d25fd4","ios":"levelo://app?vid=8398964e-d5d9-450a-b816-081801d25fd4"},"vehicle_type_id":"4","last_reported":1770491719,"current_range_meters":8400,"station_id":"ce4bgnh2rcd13ifvqc0g","pricing_plan_id":"cebpf4jnsgd1na2vs0mg"},{"bike_id":"508fb8b9-4cee-4799-8b3b-fa3d800ff13e","system_id":"levelo_inurba_marseille","lat":43.33545,"lon":5.37466,"is_reserved":false,"is_disabled":false,"rental_uris":{"android":"levelo://app?vid=508fb8b9-4cee-4799-8b3b-fa3d800ff13e","ios":"levelo://app?vid=508fb8b9-4cee-4799-8b3b-fa3d800ff13e"},"vehicle_type_id":"4","last_reported":1770491719,"current_range_meters":8400,"station_id":"st_d46tts09ee8s73dlu43g","pricing_plan_id":"cebpf4jnsgd1na2vs0mg"},{"bike_id":"6d4d7125-f230-40ff-9866-8a80f2da0b0b","system_id":"levelo_inurba_marseille","lat":43.22933,"lon":5.35374,"is_reserved":false,"is_disabled":false,"rental_uris":{"android":"levelo://app?vid=6d4d7125-f230-40ff-9866-8a80f2da0b0b","ios":"levelo://app?vid=6d4d7125-f230-40ff-9866-8a80f2da0b0b"},"vehicle_type_id":"4","last_reported":1770491719,"current_range_meters":8400,"station_id":"cpo3532slgdg3j2ikp40","pricing_plan_id":"cebpf4jnsgd1na2vs0mg"},{"bike_id":"ea8c0580-dee3-43f3-bf01-1aa8969bd163","system_id":"levelo_inurba_marseille","lat":43.2418,"lon":5.36417,"is_reserved":false,"is_disabled":false,"rental_uris":{"android":"levelo://app?vid=ea8c0580-dee3-43f3-bf01-1aa8969bd163","ios":"levelo://app?vid=ea8c0580-dee3-43f3-bf01-1aa8969bd163"},"vehicle_type_id":"4","last_reported":1770491719,"current_range_meters":8400,"station_id":"cpo36qri1sfpv3e86is0","pricing_plan_id":"cebpf4jnsgd1na2vs0mg"},{"bike_id":"6216461a-536b-4362-ac08-815386365ad7","system_id":"levelo_inurba_marseille","lat":43.30124,"lon":5.43114,"is_reserved":false,"is_disabled":false,"rental_uris":{"android":"levelo://app?vid=6216461a-536b-4362-ac08-815386365ad7","ios":"levelo://app?vid=6216461a-536b-4362-ac08-815386365ad7"},"vehicle_type_id":"4","last_reported":1770491719,"current_range_meters":8400,"station_id":"st_d3js3co5814s73ftftug","pricing_plan_id":"cebpf4jnsgd1na2vs0mg"},{"bike_id":"8138c7ab-272e-47d5-82e8-142e12d30a9b","system_id":"levelo_inurba_marseille","lat":43.32105,"lon":5.36802,"is_reserved":false,"is_disabled":false,"rental_uris":{"android":"levelo://app?vid=8138c7ab-272e-47d5-82e8-142e12d30a9b","ios":"levelo://app?vid=8138c7ab-272e-47d5-82e8-142e12d30a9b"},"vehicle_type_id":"4","last_reported":1770491719,"current_range_meters":8400,"station_id":"ce4bhrh2rcd13ifvqhug","pricing_plan_id":"cebpf4jnsgd1na2vs0mg"},{"bike_id":"3171e4c8-1de2-49d9-8c5f-e23d7bc436e4","system_id":"levelo_inurba_marseille","lat":43.27993,"lon":5.41666,"is_reserved":false,"is_disabled":false,"rental_uris":{"android":"levelo://app?vid=3171e4c8-1de2-49d9-8c5f-e23d7bc436e4","ios":"levelo://app?vid=3171e4c8-1de2-49d9-8c5f-e23d7bc436e4"},"vehicle_type_id":"4","last_reported":1770491719,"current_range_meters":8400,"station_id":"ce4bho12rcd13ifvqh1g","pricing_plan_id":"cebpf4jnsgd1na2vs0mg"},{"bike_id":"2f069db8-a5ac-4a5a-adc4-63c62be19c17","system_id":"levelo_inurba_marseille","lat":43.29029,"lon":5.38141,"is_reserved":false,"is_disabled":false,"rental_uris":{"android":"levelo://app?vid=2f069db8-a5ac-4a5a-adc4-63c62be19c17","ios":"levelo://app?vid=2f069db8-a5ac-4a5a-adc4-63c62be19c17"},"vehicle_type_id":"4","last_reported":1770491719,"current_range_meters":8400,"station_id":"ce4bh4p2rcd13ifvqe1g","pricing_plan_id":"cebpf4jnsgd1na2vs0mg"},{"bike_id":"4c1d817c-2311-4829-b074-c35d06d3a077","system_id":"levelo_inurba_marseille","lat":43.2293,"lon":5.35389,"is_reserved":false,"is_disabled":false,"rental_uris":{"android":"levelo://app?vid=4c1d817c-2311-4829-b074-c35d06d3a077","ios":"levelo://app?vid=4c1d817c-2311-4829-b074-c35d06d3a077"},"vehicle_type_id":"4","last_reported":1770491719,"current_range_meters":8400,"station_id":"cpo3532slgdg3j2ikp40","pricing_plan_id":"cebpf4jnsgd1na2vs0mg"},{"bike_id":"77730bed-9f1a-4537-8e28-58640f7a6324","system_id":"levelo_inurba_marseille","lat":43.29607,"lon":5.38094,"is_reserved":false,"is_disabled":false,"rental_uris":{"android":"levelo://app?vid=77730bed-9f1a-4537-8e28-58640f7a6324","ios":"levelo://app?vid=77730bed-9f1a-4537-8e28-58640f7a6324"},"vehicle_type_id":"4","last_reported":1770491719,"current_range_meters":8800,"station_id":"ce4bgl12rcd13ifvqbo0","pricing_plan_id":"cebpf4jnsgd1na2vs0mg"},{"bike_id":"fc7e4b88-1656-4ea3-ac70-db935a568e8d","system_id":"levelo_inurba_marseille","lat":43.33162,"lon":5.37735,"is_reserved":false,"is_disabled":false,"rental_uris":{"android":"levelo://app?vid=fc7e4b88-1656-4ea3-ac70-db935a568e8d","ios":"levelo://app?vid=fc7e4b88-1656-4ea3-ac70-db935a568e8d"},"vehicle_type_id":"4","last_reported":1770491719,"current_range_meters":8800,"station_id":"st_d46cu089ee8s73dldbu0","pricing_plan_id":"cebpf4jnsgd1na2vs0mg"},{"bike_id":"8c03db7d-1e98-4395-ac5e-39cc828db643","system_id":"levelo_inurba_marseille","lat":43.27979,"lon":5.40014,"is_reserved":false,"is_disabled":false,"rental_uris":{"android":"levelo://app?vid=8c03db7d-1e98-4395-ac5e-39cc828db643","ios":"levelo://app?vid=8c03db7d-1e98-4395-ac5e-39cc828db643"},"vehicle_type_id":"4","last_reported":1770491719,"current_range_meters":8800,"station_id":"ce4bho92rcd13ifvqh4g","pricing_plan_id":"cebpf4jnsgd1na2vs0mg"},{"bike_id":"ec530521-2795-4ff9-af45-352d2124398c","system_id":"levelo_inurba_marseille","lat":43.31167,"lon":5.36754,"is_reserved":false,"is_disabled":false,"rental_uris":{"android":"levelo://app?vid=ec530521-2795-4ff9-af45-352d2124398c","ios":"levelo://app?vid=ec530521-2795-4ff9-af45-352d2124398c"},"vehicle_type_id":"4","last_reported":1770491719,"current_range_meters":8800,"station_id":"","pricing_plan_id":"cebpf4jnsgd1na2vs0mg"},{"bike_id":"781e3167-75c5-4573-807b-ac232a303387","system_id":"levelo_inurba_marseille","lat":43.32356,"lon":5.3676,"is_reserved":false,"is_disabled":false,"rental_uris":{"android":"levelo://app?vid=781e3167-75c5-4573-807b-ac232a303387","ios":"levelo://app?vid=781e3167-75c5-4573-807b-ac232a303387"},"vehicle_type_id":"4","last_reported":1770491719,"current_range_meters":8800,"station_id":"ce4bhsh2rcd13ifvqi2g","pricing_plan_id":"cebpf4jnsgd1na2vs0mg"},{"bike_id":"e6fd01da-afee-4b72-8f6c-a945a0e7b893","system_id":"levelo_inurba_marseille","lat":43.2985,"lon":5.36283,"is_reserved":false,"is_disabled":false,"rental_uris":{"android":"levelo://app?vid=e6fd01da-afee-4b72-8f6c-a945a0e7b893","ios":"levelo://app?vid=e6fd01da-afee-4b72-8f6c-a945a0e7b893"},"vehicle_type_id":"4","last_reported":1770491719,"current_range_meters":8800,"station_id":"ce4bgpp2rcd13ifvqc3g","pricing_plan_id":"cebpf4jnsgd1na2vs0mg"},{"bike_id":"e6d03073-11a9-495e-8d13-201bb403d1fc","system_id":"levelo_inurba_marseille","lat":43.21192,"lon":5.35057,"is_reserved":false,"is_disabled":false,"rental_uris":{"android":"levelo://app?vid=e6d03073-11a9-495e-8d13-201bb403d1fc","ios":"levelo://app?vid=e6d03073-11a9-495e-8d13-201bb403d1fc"},"vehicle_type_id":"4","last_reported":1770491719,"current_range_meters":8800,"station_id":"st_cvj6sg6p6f1abm77japg","pricing_plan_id":"cebpf4jnsgd1na2vs0mg"},{"bike_id":"0b065236-bbcf-4828-b4de-ba6d2009fb20","system_id":"levelo_inurba_marseille","lat":43.312261,"lon":5.430327,"is_reserved":false,"is_disabled":false,"rental_uris":{"android":"levelo://app?vid=0b065236-bbcf-4828-b4de-ba6d2009fb20","ios":"levelo://app?vid=0b065236-bbcf-4828-b4de-ba6d2009fb20"},"vehicle_type_id":"4","last_reported":1770491719,"current_range_meters":8800,"station_id":"ce4bhp92rcd13ifvqhcg","pricing_plan_id":"cebpf4jnsgd1na2vs0mg"},{"bike_id":"e8457bb3-f99d-40e0-aa19-6d3fdf1a5998","system_id":"levelo_inurba_marseille","lat":43.28103,"lon":5.42641,"is_reserved":false,"is_disabled":false,"rental_uris":{"android":"levelo://app?vid=e8457bb3-f99d-40e0-aa19-6d3fdf1a5998","ios":"levelo://app?vid=e8457bb3-f99d-40e0-aa19-6d3fdf1a5998"},"vehicle_type_id":"4","last_reported":1770491719,"current_range_meters":8800,"station_id":"","pricing_plan_id":"cebpf4jnsgd1na2vs0mg"},{"bike_id":"e44ad707-cd5a-457b-a1ad-38e10fd09fe4","system_id":"levelo_inurba_marseille","lat":43.2931,"lon":5.36843,"is_reserved":false,"is_disabled":false,"rental_uris":{"android":"levelo://app?vid=e44ad707-cd5a-457b-a1ad-38e10fd09fe4","ios":"levelo://app?vid=e44ad707-cd5a-457b-a1ad-38e10fd09fe4"},"vehicle_type_id":"4","last_reported":1770491719,"current_range_meters":8800,"station_id":"ce4bhbp2rcd13ifvqesg","pricing_plan_id":"cebpf4jnsgd1na2vs0mg"},{"bike_id":"9cae2485-0afe-41f4-82ed-b4c440c27f3e","system_id":"levelo_inurba_marseille","lat":43.28575,"lon":5.39549,"is_reserved":false,"is_disabled":true,"rental_uris":{"android":"levelo://app?vid=9cae2485-0afe-41f4-82ed-b4c440c27f3e","ios":"levelo://app?vid=9cae2485-0afe-41f4-82ed-b4c440c27f3e"},"vehicle_type_id":"4","last_reported":1770491719,"current_range_meters":8800,"station_id":"ce4bh292rcd13ifvqdg0","pricing_plan_id":"cebpf4jnsgd1na2vs0mg"},{"bike_id":"1204a6ff-2849-4a7e-ac1a-dbb7e4c916de","system_id":"levelo_inurba_marseille","lat":43.28354,"lon":5.38133,"is_reserved":false,"is_disabled":false,"rental_uris":{"android":"levelo://app?vid=1204a6ff-2849-4a7e-ac1a-dbb7e4c916de","ios":"levelo://app?vid=1204a6ff-2849-4a7e-ac1a-dbb7e4c916de"},"vehicle_type_id":"4","last_reported":1770491719,"current_range_meters":8800,"station_id":"ce4bh412rcd13ifvqdr0","pricing_plan_id":"cebpf4jnsgd1na2vs0mg"},{"bike_id":"7e432d56-4167-484a-a6d0-1b8a4f18fe1c","system_id":"levelo_inurba_marseille","lat":43.22928,"lon":5.35395,"is_reserved":false,"is_disabled":false,"rental_uris":{"android":"levelo://app?vid=7e432d56-4167-484a-a6d0-1b8a4f18fe1c","ios":"levelo://app?vid=7e432d56-4167-484a-a6d0-1b8a4f18fe1c"},"vehicle_type_id":"4","last_reported":1770491719,"current_range_meters":8800,"station_id":"cpo3532slgdg3j2ikp40","pricing_plan_id":"cebpf4jnsgd1na2vs0mg"},{"bike_id":"61cfb566-ffe7-452b-9dd4-503964e15283","system_id":"levelo_inurba_marseille","lat":43.29256,"lon":5.3845,"is_reserved":false,"is_disabled":false,"rental_uris":{"android":"levelo://app?vid=61cfb566-ffe7-452b-9dd4-503964e15283","ios":"levelo://app?vid=61cfb566-ffe7-452b-9dd4-503964e15283"},"vehicle_type_id":"4","last_reported":1770491719,"current_range_meters":9200,"station_id":"ce4bh692rcd13ifvqea0","pricing_plan_id":"cebpf4jnsgd1na2vs0mg"},{"bike_id":"0034d4fd-4b78-48fc-8d02-62ecd49e55ba","system_id":"levelo_inurba_marseille","lat":43.289294,"lon":5.366368,"is_reserved":false,"is_disabled":false,"rental_uris":{"android":"levelo://app?vid=0034d4fd-4b78-48fc-8d02-62ecd49e55ba","ios":"levelo://app?vid=0034d4fd-4b78-48fc-8d02-62ecd49e55ba"},"vehicle_type_id":"4","last_reported":1770491719,"current_range_meters":9200,"station_id":"ce4bhap2rcd13ifvqek0","pricing_plan_id":"cebpf4jnsgd1na2vs0mg"},{"bike_id":"5cdd27df-1aa5-4830-b5fc-91672ce179d3","system_id":"levelo_inurba_marseille","lat":43.27968,"lon":5.41059,"is_reserved":false,"is_disabled":true,"rental_uris":{"android":"levelo://app?vid=5cdd27df-1aa5-4830-b5fc-91672ce179d3","ios":"levelo://app?vid=5cdd27df-1aa5-4830-b5fc-91672ce179d3"},"vehicle_type_id":"4","last_reported":1770491719,"current_range_meters":9200,"station_id":"ce4bhnp2rcd13ifvqh0g","pricing_plan_id":"cebpf4jnsgd1na2vs0mg"},{"bike_id":"ff305416-a5b0-474d-a921-e6eab79836a5","system_id":"levelo_inurba_marseille","lat":43.30377,"lon":5.4249,"is_reserved":false,"is_disabled":false,"rental_uris":{"android":"levelo://app?vid=ff305416-a5b0-474d-a921-e6eab79836a5","ios":"levelo://app?vid=ff305416-a5b0-474d-a921-e6eab79836a5"},"vehicle_type_id":"4","last_reported":1770491719,"current_range_meters":9200,"station_id":"ce4bhoh2rcd13ifvqh6g","pricing_plan_id":"cebpf4jnsgd1na2vs0mg"},{"bike_id":"d5176a4f-8c87-4833-bfd5-bb60893e2db3","system_id":"levelo_inurba_marseille","lat":43.29537,"lon":5.38536,"is_reserved":false,"is_disabled":false,"rental_uris":{"android":"levelo://app?vid=d5176a4f-8c87-4833-bfd5-bb60893e2db3","ios":"levelo://app?vid=d5176a4f-8c87-4833-bfd5-bb60893e2db3"},"vehicle_type_id":"4","last_reported":1770491719,"current_range_meters":9200,"station_id":"ce4bgih2rcd13ifvqba0","pricing_plan_id":"cebpf4jnsgd1na2vs0mg"},{"bike_id":"3bfbcaa6-9cc7-4f78-9525-559218f7d29d","system_id":"levelo_inurba_marseille","lat":43.2482,"lon":5.374381,"is_reserved":false,"is_disabled":false,"rental_uris":{"android":"levelo://app?vid=3bfbcaa6-9cc7-4f78-9525-559218f7d29d","ios":"levelo://app?vid=3bfbcaa6-9cc7-4f78-9525-559218f7d29d"},"vehicle_type_id":"4","last_reported":1770491719,"current_range_meters":9200,"station_id":"ce4bhgh2rcd13ifvqfb0","pricing_plan_id":"cebpf4jnsgd1na2vs0mg"},{"bike_id":"146a2640-d796-40c8-8d31-59c2935df162","system_id":"levelo_inurba_marseille","lat":43.29029,"lon":5.38637,"is_reserved":false,"is_disabled":false,"rental_uris":{"android":"levelo://app?vid=146a2640-d796-40c8-8d31-59c2935df162","ios":"levelo://app?vid=146a2640-d796-40c8-8d31-59c2935df162"},"vehicle_type_id":"4","last_reported":1770491719,"current_range_meters":9200,"station_id":"ce4bh4p2rcd13ifvqe0g","pricing_plan_id":"cebpf4jnsgd1na2vs0mg"},{"bike_id":"c64ce668-c1be-4e4e-b63a-87709c3c2a23","system_id":"levelo_inurba_marseille","lat":43.30144,"lon":5.38796,"is_reserved":false,"is_disabled":false,"rental_uris":{"android":"levelo://app?vid=c64ce668-c1be-4e4e-b63a-87709c3c2a23","ios":"levelo://app?vid=c64ce668-c1be-4e4e-b63a-87709c3c2a23"},"vehicle_type_id":"4","last_reported":1770491719,"current_range_meters":9200,"station_id":"ce4bghh2rcd13ifvqb60","pricing_plan_id":"cebpf4jnsgd1na2vs0mg"},{"bike_id":"5ba97fd5-16e8-4bfa-8fad-5ea6926e0c5a","system_id":"levelo_inurba_marseille","lat":43.29268,"lon":5.40137,"is_reserved":false,"is_disabled":false,"rental_uris":{"android":"levelo://app?vid=5ba97fd5-16e8-4bfa-8fad-5ea6926e0c5a","ios":"levelo://app?vid=5ba97fd5-16e8-4bfa-8fad-5ea6926e0c5a"},"vehicle_type_id":"4","last_reported":1770491719,"current_range_meters":9600,"station_id":"ce4bh312rcd13ifvqdk0","pricing_plan_id":"cebpf4jnsgd1na2vs0mg"},{"bike_id":"0b84e61d-62ba-4706-80f1-3a72823c8089","system_id":"levelo_inurba_marseille","lat":43.25942,"lon":5.40907,"is_reserved":false,"is_disabled":false,"rental_uris":{"android":"levelo://app?vid=0b84e61d-62ba-4706-80f1-3a72823c8089","ios":"levelo://app?vid=0b84e61d-62ba-4706-80f1-3a72823c8089"},"vehicle_type_id":"4","last_reported":1770491719,"current_range_meters":9600,"station_id":"ce4bhm92rcd13ifvqglg","pricing_plan_id":"cebpf4jnsgd1na2vs0mg"},{"bike_id":"195ee89a-19a3-4a4b-8a56-0e306fccc824","system_id":"levelo_inurba_marseille","lat":43.2836,"lon":5.38093,"is_reserved":false,"is_disabled":false,"rental_uris":{"android":"levelo://app?vid=195ee89a-19a3-4a4b-8a56-0e306fccc824","ios":"levelo://app?vid=195ee89a-19a3-4a4b-8a56-0e306fccc824"},"vehicle_type_id":"4","last_reported":1770491719,"current_range_meters":9600,"station_id":"ce4bh412rcd13ifvqdr0","pricing_plan_id":"cebpf4jnsgd1na2vs0mg"},{"bike_id":"0f9398e4-1c51-403f-8553-7aa3b9b52ae1","system_id":"levelo_inurba_marseille","lat":43.2849,"lon":5.3842,"is_reserved":false,"is_disabled":false,"rental_uris":{"android":"levelo://app?vid=0f9398e4-1c51-403f-8553-7aa3b9b52ae1","ios":"levelo://app?vid=0f9398e4-1c51-403f-8553-7aa3b9b52ae1"},"vehicle_type_id":"4","last_reported":1770491719,"current_range_meters":9600,"station_id":"ce4bh512rcd13ifvqe3g","pricing_plan_id":"cebpf4jnsgd1na2vs0mg"},{"bike_id":"56893961-8f3b-47c8-a24b-0a12834de0b5","system_id":"levelo_inurba_marseille","lat":43.32283,"lon":5.38245,"is_reserved":false,"is_disabled":false,"rental_uris":{"android":"levelo://app?vid=56893961-8f3b-47c8-a24b-0a12834de0b5","ios":"levelo://app?vid=56893961-8f3b-47c8-a24b-0a12834de0b5"},"vehicle_type_id":"4","last_reported":1770491719,"current_range_meters":9600,"station_id":"ce4bhr12rcd13ifvqhqg","pricing_plan_id":"cebpf4jnsgd1na2vs0mg"},{"bike_id":"640e309d-b7bd-4cd8-b2b7-5423e8cce285","system_id":"levelo_inurba_marseille","lat":43.29559,"lon":5.37491,"is_reserved":false,"is_disabled":false,"rental_uris":{"android":"levelo://app?vid=640e309d-b7bd-4cd8-b2b7-5423e8cce285","ios":"levelo://app?vid=640e309d-b7bd-4cd8-b2b7-5423e8cce285"},"vehicle_type_id":"4","last_reported":1770491719,"current_range_meters":9600,"station_id":"ce4bgh92rcd13ifvqb50","pricing_plan_id":"cebpf4jnsgd1na2vs0mg"},{"bike_id":"96c4dfce-d8bf-401d-aac8-0b0aca3b8c2b","system_id":"levelo_inurba_marseille","lat":43.28678,"lon":5.38666,"is_reserved":false,"is_disabled":false,"rental_uris":{"android":"levelo://app?vid=96c4dfce-d8bf-401d-aac8-0b0aca3b8c2b","ios":"levelo://app?vid=96c4dfce-d8bf-401d-aac8-0b0aca3b8c2b"},"vehicle_type_id":"4","last_reported":1770491719,"current_range_meters":9600,"station_id":"ce4bh492rcd13ifvqdug","pricing_plan_id":"cebpf4jnsgd1na2vs0mg"},{"bike_id":"27e3548f-2e7f-4c60-a690-48429ad01b98","system_id":"levelo_inurba_marseille","lat":43.28564,"lon":5.38338,"is_reserved":false,"is_disabled":false,"rental_uris":{"android":"levelo://app?vid=27e3548f-2e7f-4c60-a690-48429ad01b98","ios":"levelo://app?vid=27e3548f-2e7f-4c60-a690-48429ad01b98"},"vehicle_type_id":"4","last_reported":1770491719,"current_range_meters":9600,"station_id":"","pricing_plan_id":"cebpf4jnsgd1na2vs0mg"},{"bike_id":"18d00c96-10aa-4a3a-b385-346edcb8ffdd","system_id":"levelo_inurba_marseille","lat":43.24599,"lon":5.424632,"is_reserved":false,"is_disabled":false,"rental_uris":{"android":"levelo://app?vid=18d00c96-10aa-4a3a-b385-346edcb8ffdd","ios":"levelo://app?vid=18d00c96-10aa-4a3a-b385-346edcb8ffdd"},"vehicle_type_id":"4","last_reported":1770491719,"current_range_meters":9600,"station_id":"","pricing_plan_id":"cebpf4jnsgd1na2vs0mg"},{"bike_id":"9c9db9d5-0e0c-47a3-a905-8fcf5962983e","system_id":"levelo_inurba_marseille","lat":43.232036,"lon":5.355516,"is_reserved":false,"is_disabled":false,"rental_uris":{"android":"levelo://app?vid=9c9db9d5-0e0c-47a3-a905-8fcf5962983e","ios":"levelo://app?vid=9c9db9d5-0e0c-47a3-a905-8fcf5962983e"},"vehicle_type_id":"4","last_reported":1770491719,"current_range_meters":9600,"station_id":"ce4bhu92rcd13ifvqi70","pricing_plan_id":"cebpf4jnsgd1na2vs0mg"},{"bike_id":"fbd8c4f9-3856-46a2-b291-e190e6907420","system_id":"levelo_inurba_marseille","lat":43.25003,"lon":5.38928,"is_reserved":false,"is_disabled":false,"rental_uris":{"android":"levelo://app?vid=fbd8c4f9-3856-46a2-b291-e190e6907420","ios":"levelo://app?vid=fbd8c4f9-3856-46a2-b291-e190e6907420"},"vehicle_type_id":"4","last_reported":1770491719,"current_range_meters":9600,"station_id":"ce4bhgp2rcd13ifvqfd0","pricing_plan_id":"cebpf4jnsgd1na2vs0mg"},{"bike_id":"89d0f737-9260-43c8-a0d4-c4b7307871cd","system_id":"levelo_inurba_marseille","lat":43.29266,"lon":5.38429,"is_reserved":false,"is_disabled":false,"rental_uris":{"android":"levelo://app?vid=89d0f737-9260-43c8-a0d4-c4b7307871cd","ios":"levelo://app?vid=89d0f737-9260-43c8-a0d4-c4b7307871cd"},"vehicle_type_id":"4","last_reported":1770491719,"current_range_meters":9600,"station_id":"ce4bh692rcd13ifvqea0","pricing_plan_id":"cebpf4jnsgd1na2vs0mg"},{"bike_id":"1a1d969f-bada-4aaa-a461-ec3f4a01601c","system_id":"levelo_inurba_marseille","lat":43.33542,"lon":5.3747,"is_reserved":false,"is_disabled":false,"rental_uris":{"android":"levelo://app?vid=1a1d969f-bada-4aaa-a461-ec3f4a01601c","ios":"levelo://app?vid=1a1d969f-bada-4aaa-a461-ec3f4a01601c"},"vehicle_type_id":"4","last_reported":1770491719,"current_range_meters":9600,"station_id":"st_d46tts09ee8s73dlu43g","pricing_plan_id":"cebpf4jnsgd1na2vs0mg"},{"bike_id":"94462169-f7a1-4482-a3a2-123f02cc4f09","system_id":"levelo_inurba_marseille","lat":43.28476,"lon":5.38422,"is_reserved":false,"is_disabled":false,"rental_uris":{"android":"levelo://app?vid=94462169-f7a1-4482-a3a2-123f02cc4f09","ios":"levelo://app?vid=94462169-f7a1-4482-a3a2-123f02cc4f09"},"vehicle_type_id":"4","last_reported":1770491719,"current_range_meters":9600,"station_id":"ce4bh512rcd13ifvqe3g","pricing_plan_id":"cebpf4jnsgd1na2vs0mg"},{"bike_id":"2c3dabce-2d5b-4d5e-96e2-9eef2e9da548","system_id":"levelo_inurba_marseille","lat":43.240703,"lon":5.37765,"is_reserved":false,"is_disabled":false,"rental_uris":{"android":"levelo://app?vid=2c3dabce-2d5b-4d5e-96e2-9eef2e9da548","ios":"levelo://app?vid=2c3dabce-2d5b-4d5e-96e2-9eef2e9da548"},"vehicle_type_id":"4","last_reported":1770491719,"current_range_meters":9600,"station_id":"ce4bhnp2rcd13ifvqgvg","pricing_plan_id":"cebpf4jnsgd1na2vs0mg"},{"bike_id":"28ea6fbe-b592-43e0-b4f1-22356d5bc8f9","system_id":"levelo_inurba_marseille","lat":43.3355,"lon":5.37469,"is_reserved":false,"is_disabled":false,"rental_uris":{"android":"levelo://app?vid=28ea6fbe-b592-43e0-b4f1-22356d5bc8f9","ios":"levelo://app?vid=28ea6fbe-b592-43e0-b4f1-22356d5bc8f9"},"vehicle_type_id":"4","last_reported":1770491719,"current_range_meters":9600,"station_id":"st_d46tts09ee8s73dlu43g","pricing_plan_id":"cebpf4jnsgd1na2vs0mg"},{"bike_id":"7a2c796a-2c27-403d-a799-411424496833","system_id":"levelo_inurba_marseille","lat":43.26592,"lon":5.40326,"is_reserved":false,"is_disabled":false,"rental_uris":{"android":"levelo://app?vid=7a2c796a-2c27-403d-a799-411424496833","ios":"levelo://app?vid=7a2c796a-2c27-403d-a799-411424496833"},"vehicle_type_id":"4","last_reported":1770491719,"current_range_meters":10000,"station_id":"ce4bhmp2rcd13ifvqgng","pricing_plan_id":"cebpf4jnsgd1na2vs0mg"},{"bike_id":"2cb5a43b-e623-4a02-b02d-84a79ff3e02e","system_id":"levelo_inurba_marseille","lat":43.22559,"lon":5.41629,"is_reserved":false,"is_disabled":false,"rental_uris":{"android":"levelo://app?vid=2cb5a43b-e623-4a02-b02d-84a79ff3e02e","ios":"levelo://app?vid=2cb5a43b-e623-4a02-b02d-84a79ff3e02e"},"vehicle_type_id":"4","last_reported":1770491719,"current_range_meters":10000,"station_id":"st_d2o4gvlbi1j2169b742g","pricing_plan_id":"cebpf4jnsgd1na2vs0mg"},{"bike_id":"54a9192b-0dd6-49f6-978b-5e71126fb367","system_id":"levelo_inurba_marseille","lat":43.262065,"lon":5.379264,"is_reserved":false,"is_disabled":false,"rental_uris":{"android":"levelo://app?vid=54a9192b-0dd6-49f6-978b-5e71126fb367","ios":"levelo://app?vid=54a9192b-0dd6-49f6-978b-5e71126fb367"},"vehicle_type_id":"4","last_reported":1770491719,"current_range_meters":10000,"station_id":"ce4bhjp2rcd13ifvqg90","pricing_plan_id":"cebpf4jnsgd1na2vs0mg"},{"bike_id":"f8354ddb-017a-4bf2-8668-a39598178e17","system_id":"levelo_inurba_marseille","lat":43.30734,"lon":5.42437,"is_reserved":false,"is_disabled":false,"rental_uris":{"android":"levelo://app?vid=f8354ddb-017a-4bf2-8668-a39598178e17","ios":"levelo://app?vid=f8354ddb-017a-4bf2-8668-a39598178e17"},"vehicle_type_id":"4","last_reported":1770491719,"current_range_meters":10000,"station_id":"st_cvj6ca6bvosntc0bfgr0","pricing_plan_id":"cebpf4jnsgd1na2vs0mg"},{"bike_id":"92ceac05-1fb7-4c05-9f7a-f53104e5d648","system_id":"levelo_inurba_marseille","lat":43.24998,"lon":5.38932,"is_reserved":false,"is_disabled":false,"rental_uris":{"android":"levelo://app?vid=92ceac05-1fb7-4c05-9f7a-f53104e5d648","ios":"levelo://app?vid=92ceac05-1fb7-4c05-9f7a-f53104e5d648"},"vehicle_type_id":"4","last_reported":1770491719,"current_range_meters":10000,"station_id":"ce4bhgp2rcd13ifvqfd0","pricing_plan_id":"cebpf4jnsgd1na2vs0mg"},{"bike_id":"b0e7feeb-1416-4406-b174-1e7f94d3553f","system_id":"levelo_inurba_marseille","lat":43.33556,"lon":5.37494,"is_reserved":false,"is_disabled":false,"rental_uris":{"android":"levelo://app?vid=b0e7feeb-1416-4406-b174-1e7f94d3553f","ios":"levelo://app?vid=b0e7feeb-1416-4406-b174-1e7f94d3553f"},"vehicle_type_id":"4","last_reported":1770491719,"current_range_meters":10000,"station_id":"","pricing_plan_id":"cebpf4jnsgd1na2vs0mg"},{"bike_id":"a93a3f3a-fc89-4e32-a1fb-c7685626cbdd","system_id":"levelo_inurba_marseille","lat":43.311583,"lon":5.38574,"is_reserved":false,"is_disabled":false,"rental_uris":{"android":"levelo://app?vid=a93a3f3a-fc89-4e32-a1fb-c7685626cbdd","ios":"levelo://app?vid=a93a3f3a-fc89-4e32-a1fb-c7685626cbdd"},"vehicle_type_id":"4","last_reported":1770491719,"current_range_meters":10000,"station_id":"","pricing_plan_id":"cebpf4jnsgd1na2vs0mg"},{"bike_id":"cd4cf3c9-ec82-412c-8eb7-e21fbfb89b1b","system_id":"levelo_inurba_marseille","lat":43.3024,"lon":5.40069,"is_reserved":false,"is_disabled":false,"rental_uris":{"android":"levelo://app?vid=cd4cf3c9-ec82-412c-8eb7-e21fbfb89b1b","ios":"levelo://app?vid=cd4cf3c9-ec82-412c-8eb7-e21fbfb89b1b"},"vehicle_type_id":"4","last_reported":1770491719,"current_range_meters":10000,"station_id":"ce4bgvh2rcd13ifvqcs0","pricing_plan_id":"cebpf4jnsgd1na2vs0mg"},{"bike_id":"c8280ba7-8e63-4edf-848d-dcc323849169","system_id":"levelo_inurba_marseille","lat":43.29596,"lon":5.38094,"is_reserved":false,"is_disabled":false,"rental_uris":{"android":"levelo://app?vid=c8280ba7-8e63-4edf-848d-dcc323849169","ios":"levelo://app?vid=c8280ba7-8e63-4edf-848d-dcc323849169"},"vehicle_type_id":"4","last_reported":1770491719,"current_range_meters":10000,"station_id":"ce4bgl12rcd13ifvqbo0","pricing_plan_id":"cebpf4jnsgd1na2vs0mg"},{"bike_id":"131c8bc6-588e-4f5d-851b-303b7978f745","system_id":"levelo_inurba_marseille","lat":43.25939,"lon":5.40903,"is_reserved":false,"is_disabled":false,"rental_uris":{"android":"levelo://app?vid=131c8bc6-588e-4f5d-851b-303b7978f745","ios":"levelo://app?vid=131c8bc6-588e-4f5d-851b-303b7978f745"},"vehicle_type_id":"4","last_reported":1770491719,"current_range_meters":10000,"station_id":"ce4bhm92rcd13ifvqglg","pricing_plan_id":"cebpf4jnsgd1na2vs0mg"},{"bike_id":"cc15c3f8-a1dd-42d7-b66a-d239b7f484cf","system_id":"levelo_inurba_marseille","lat":43.24073,"lon":5.377535,"is_reserved":false,"is_disabled":false,"rental_uris":{"android":"levelo://app?vid=cc15c3f8-a1dd-42d7-b66a-d239b7f484cf","ios":"levelo://app?vid=cc15c3f8-a1dd-42d7-b66a-d239b7f484cf"},"vehicle_type_id":"4","last_reported":1770491719,"current_range_meters":10000,"station_id":"ce4bhnp2rcd13ifvqgvg","pricing_plan_id":"cebpf4jnsgd1na2vs0mg"},{"bike_id":"dbb518f5-22b5-4d2f-ad1b-9d43d3f87da2","system_id":"levelo_inurba_marseille","lat":43.24379,"lon":5.37068,"is_reserved":false,"is_disabled":false,"rental_uris":{"android":"levelo://app?vid=dbb518f5-22b5-4d2f-ad1b-9d43d3f87da2","ios":"levelo://app?vid=dbb518f5-22b5-4d2f-ad1b-9d43d3f87da2"},"vehicle_type_id":"4","last_reported":1770491719,"current_range_meters":10000,"station_id":"ce4bhhh2rcd13ifvqfk0","pricing_plan_id":"cebpf4jnsgd1na2vs0mg"},{"bike_id":"0dbab729-d30d-471e-8559-38dc32eda678","system_id":"levelo_inurba_marseille","lat":43.29281,"lon":5.38438,"is_reserved":false,"is_disabled":false,"rental_uris":{"android":"levelo://app?vid=0dbab729-d30d-471e-8559-38dc32eda678","ios":"levelo://app?vid=0dbab729-d30d-471e-8559-38dc32eda678"},"vehicle_type_id":"4","last_reported":1770491719,"current_range_meters":10000,"station_id":"ce4bh692rcd13ifvqea0","pricing_plan_id":"cebpf4jnsgd1na2vs0mg"},{"bike_id":"d8ba07be-4909-4867-9013-61baab37ba2e","system_id":"levelo_inurba_marseille","lat":43.22564,"lon":5.41627,"is_reserved":false,"is_disabled":false,"rental_uris":{"android":"levelo://app?vid=d8ba07be-4909-4867-9013-61baab37ba2e","ios":"levelo://app?vid=d8ba07be-4909-4867-9013-61baab37ba2e"},"vehicle_type_id":"4","last_reported":1770491719,"current_range_meters":10000,"station_id":"st_d2o4gvlbi1j2169b742g","pricing_plan_id":"cebpf4jnsgd1na2vs0mg"},{"bike_id":"379d74c3-68e6-4c4b-a503-6c5f836e7246","system_id":"levelo_inurba_marseille","lat":43.29533,"lon":5.3855,"is_reserved":false,"is_disabled":false,"rental_uris":{"android":"levelo://app?vid=379d74c3-68e6-4c4b-a503-6c5f836e7246","ios":"levelo://app?vid=379d74c3-68e6-4c4b-a503-6c5f836e7246"},"vehicle_type_id":"4","last_reported":1770491719,"current_range_meters":10000,"station_id":"ce4bgih2rcd13ifvqba0","pricing_plan_id":"cebpf4jnsgd1na2vs0mg"},{"bike_id":"1e03e4a4-c405-4a60-80c1-97815fc3dc4b","system_id":"levelo_inurba_marseille","lat":43.29163,"lon":5.37159,"is_reserved":false,"is_disabled":false,"rental_uris":{"android":"levelo://app?vid=1e03e4a4-c405-4a60-80c1-97815fc3dc4b","ios":"levelo://app?vid=1e03e4a4-c405-4a60-80c1-97815fc3dc4b"},"vehicle_type_id":"4","last_reported":1770491719,"current_range_meters":10000,"station_id":"ce4bha92rcd13ifvqeh0","pricing_plan_id":"cebpf4jnsgd1na2vs0mg"},{"bike_id":"caf2ae76-979b-4530-9baa-1f9e3f85c366","system_id":"levelo_inurba_marseille","lat":43.29267,"lon":5.38443,"is_reserved":false,"is_disabled":false,"rental_uris":{"android":"levelo://app?vid=caf2ae76-979b-4530-9baa-1f9e3f85c366","ios":"levelo://app?vid=caf2ae76-979b-4530-9baa-1f9e3f85c366"},"vehicle_type_id":"4","last_reported":1770491719,"current_range_meters":10000,"station_id":"ce4bh692rcd13ifvqea0","pricing_plan_id":"cebpf4jnsgd1na2vs0mg"},{"bike_id":"ed412357-836b-4610-ad59-fa3372f18379","system_id":"levelo_inurba_marseille","lat":43.29083,"lon":5.38187,"is_reserved":false,"is_disabled":false,"rental_uris":{"android":"levelo://app?vid=ed412357-836b-4610-ad59-fa3372f18379","ios":"levelo://app?vid=ed412357-836b-4610-ad59-fa3372f18379"},"vehicle_type_id":"4","last_reported":1770491719,"current_range_meters":10000,"station_id":"ce4bh512rcd13ifvqe2g","pricing_plan_id":"cebpf4jnsgd1na2vs0mg"},{"bike_id":"dd24189e-0ca5-42b2-a25c-59b99b80cd71","system_id":"levelo_inurba_marseille","lat":43.24781,"lon":5.37466,"is_reserved":false,"is_disabled":false,"rental_uris":{"android":"levelo://app?vid=dd24189e-0ca5-42b2-a25c-59b99b80cd71","ios":"levelo://app?vid=dd24189e-0ca5-42b2-a25c-59b99b80cd71"},"vehicle_type_id":"4","last_reported":1770491719,"current_range_meters":10000,"station_id":"ce4bhgh2rcd13ifvqfb0","pricing_plan_id":"cebpf4jnsgd1na2vs0mg"},{"bike_id":"867458d9-c09f-4165-b1af-e2013b3a197e","system_id":"levelo_inurba_marseille","lat":43.246459,"lon":5.38887,"is_reserved":false,"is_disabled":false,"rental_uris":{"android":"levelo://app?vid=867458d9-c09f-4165-b1af-e2013b3a197e","ios":"levelo://app?vid=867458d9-c09f-4165-b1af-e2013b3a197e"},"vehicle_type_id":"4","last_reported":1770491719,"current_range_meters":10800,"station_id":"ce4bhg12rcd13ifvqf60","pricing_plan_id":"cebpf4jnsgd1na2vs0mg"},{"bike_id":"f0648dc8-5738-4578-9a5c-45c90cf41e90","system_id":"levelo_inurba_marseille","lat":43.29925,"lon":5.36514,"is_reserved":false,"is_disabled":false,"rental_uris":{"android":"levelo://app?vid=f0648dc8-5738-4578-9a5c-45c90cf41e90","ios":"levelo://app?vid=f0648dc8-5738-4578-9a5c-45c90cf41e90"},"vehicle_type_id":"4","last_reported":1770491719,"current_range_meters":10800,"station_id":"ce4bgm92rcd13ifvqbr0","pricing_plan_id":"cebpf4jnsgd1na2vs0mg"},{"bike_id":"a5fe7b14-3ced-4d6c-aab3-f34baaf11509","system_id":"levelo_inurba_marseille","lat":43.29866,"lon":5.38895,"is_reserved":false,"is_disabled":true,"rental_uris":{"android":"levelo://app?vid=a5fe7b14-3ced-4d6c-aab3-f34baaf11509","ios":"levelo://app?vid=a5fe7b14-3ced-4d6c-aab3-f34baaf11509"},"vehicle_type_id":"4","last_reported":1770491719,"current_range_meters":10800,"station_id":"ce4bh392rcd13ifvqdl0","pricing_plan_id":"cebpf4jnsgd1na2vs0mg"},{"bike_id":"78e91cec-a989-487c-8dcd-1cfb0952c4c7","system_id":"levelo_inurba_marseille","lat":43.24468,"lon":5.42536,"is_reserved":false,"is_disabled":false,"rental_uris":{"android":"levelo://app?vid=78e91cec-a989-487c-8dcd-1cfb0952c4c7","ios":"levelo://app?vid=78e91cec-a989-487c-8dcd-1cfb0952c4c7"},"vehicle_type_id":"4","last_reported":1770491719,"current_range_meters":10800,"station_id":"st_d4a3vfp97mjs738cd8kg","pricing_plan_id":"cebpf4jnsgd1na2vs0mg"},{"bike_id":"18193969-f4a0-4413-8fe1-fadaf0e35a4a","system_id":"levelo_inurba_marseille","lat":43.33531,"lon":5.37471,"is_reserved":false,"is_disabled":false,"rental_uris":{"android":"levelo://app?vid=18193969-f4a0-4413-8fe1-fadaf0e35a4a","ios":"levelo://app?vid=18193969-f4a0-4413-8fe1-fadaf0e35a4a"},"vehicle_type_id":"4","last_reported":1770491719,"current_range_meters":10800,"station_id":"st_d46tts09ee8s73dlu43g","pricing_plan_id":"cebpf4jnsgd1na2vs0mg"},{"bike_id":"a646f78c-9bfb-4e54-9893-38791b3cc46a","system_id":"levelo_inurba_marseille","lat":43.3021,"lon":5.39467,"is_reserved":false,"is_disabled":false,"rental_uris":{"android":"levelo://app?vid=a646f78c-9bfb-4e54-9893-38791b3cc46a","ios":"levelo://app?vid=a646f78c-9bfb-4e54-9893-38791b3cc46a"},"vehicle_type_id":"4","last_reported":1770491719,"current_range_meters":10800,"station_id":"ce4bh0p2rcd13ifvqd70","pricing_plan_id":"cebpf4jnsgd1na2vs0mg"},{"bike_id":"58c13313-f0d0-407c-a203-9b28c8c105e6","system_id":"levelo_inurba_marseille","lat":43.27948,"lon":5.41042,"is_reserved":false,"is_disabled":false,"rental_uris":{"android":"levelo://app?vid=58c13313-f0d0-407c-a203-9b28c8c105e6","ios":"levelo://app?vid=58c13313-f0d0-407c-a203-9b28c8c105e6"},"vehicle_type_id":"4","last_reported":1770491719,"current_range_meters":10800,"station_id":"ce4bhnp2rcd13ifvqh0g","pricing_plan_id":"cebpf4jnsgd1na2vs0mg"},{"bike_id":"a8e8aa90-66c9-4830-8a68-7bf50e940df7","system_id":"levelo_inurba_marseille","lat":43.23179,"lon":5.39982,"is_reserved":false,"is_disabled":false,"rental_uris":{"android":"levelo://app?vid=a8e8aa90-66c9-4830-8a68-7bf50e940df7","ios":"levelo://app?vid=a8e8aa90-66c9-4830-8a68-7bf50e940df7"},"vehicle_type_id":"4","last_reported":1770491719,"current_range_meters":10800,"station_id":"ce4bhn12rcd13ifvqgqg","pricing_plan_id":"cebpf4jnsgd1na2vs0mg"},{"bike_id":"3b73f3ca-2d38-4e69-9939-4f41b1e5cef1","system_id":"levelo_inurba_marseille","lat":43.30245,"lon":5.40044,"is_reserved":false,"is_disabled":false,"rental_uris":{"android":"levelo://app?vid=3b73f3ca-2d38-4e69-9939-4f41b1e5cef1","ios":"levelo://app?vid=3b73f3ca-2d38-4e69-9939-4f41b1e5cef1"},"vehicle_type_id":"4","last_reported":1770491719,"current_range_meters":10800,"station_id":"ce4bgvh2rcd13ifvqcs0","pricing_plan_id":"cebpf4jnsgd1na2vs0mg"},{"bike_id":"364ea28f-7e20-4ad8-9bf1-69b2e8dad65e","system_id":"levelo_inurba_marseille","lat":43.28591,"lon":5.44334,"is_reserved":false,"is_disabled":false,"rental_uris":{"android":"levelo://app?vid=364ea28f-7e20-4ad8-9bf1-69b2e8dad65e","ios":"levelo://app?vid=364ea28f-7e20-4ad8-9bf1-69b2e8dad65e"},"vehicle_type_id":"4","last_reported":1770491719,"current_range_meters":10800,"station_id":"","pricing_plan_id":"cebpf4jnsgd1na2vs0mg"},