{"last_updated":1681135588,"ttl":30,"version":"2.2","data":{"bikes":[{"bike_id":"63a7090c-1745-49d0-b230-0071593afa11","system_id":"levelo_inurba_marseille","lat":43.313391,"lon":5.36706,"is_reserved":false,"is_disabled":false,"rental_uris":{"android":"levelo://app?vid=63a7090c-1745-49d0-b230-0071593afa11","ios":"levelo://app?vid=63a7090c-1745-49d0-b230-0071593afa11"},"vehicle_type_id":"4","last_reported":1681135588,"current_range_meters":28800,"station_id":"ce4bgr92rcd13ifvqc6g","pricing_plan_id":"free"},{"bike_id":"ee319654-5b8a-4c52-bb04-e9731fb01374","system_id":"levelo_inurba_marseille","lat":43.309076,"lon":5.368465,"is_reserved":false,"is_disabled":false,"rental_uris":{"android":"levelo://app?vid=ee319654-5b8a-4c52-bb04-e9731fb01374","ios":"levelo://app?vid=ee319654-5b8a-4c52-bb04-e9731fb01374"},"vehicle_type_id":"4","last_reported":1681135588,"current_range_meters":30000,"station_id":"ce4bgn92rcd13ifvqbvg","pricing_plan_id":"free"},{"bike_id":"0e837664-2f68-4c0c-8f76-a768897b62a4","system_id":"levelo_inurba_marseille","lat":43.309076,"lon":5.368465,"is_reserved":false,"is_disabled":false,"rental_uris":{"android":"levelo://app?vid=0e837664-2f68-4c0c-8f76-a768897b62a4","ios":"levelo://app?vid=0e837664-2f68-4c0c-8f76-a768897b62a4"},"vehicle_type_id":"4","last_reported":1681135588,"current_range_meters":16400,"station_id":"ce4bgn92rcd13ifvqbvg","pricing_plan_id":"free"},{"bike_id":"b08423db-1b46-43af-b043-837cedf1bd7d","system_id":"levelo_inurba_marseille","lat":43.3091,"lon":5.3685,"is_reserved":false,"is_disabled":false,"rental_uris":{"android":"levelo://app?vid=b08423db-1b46-43af-b043-837cedf1bd7d","ios":"levelo://app?vid=b08423db-1b46-43af-b043-837cedf1bd7d"},"vehicle_type_id":"4","last_reported":1681135588,"current_range_meters":30400,"station_id":"","pricing_plan_id":"free"},{"bike_id":"870692a2-9072-40d3-845a-51acce12720e","system_id":"levelo_inurba_marseille","lat":43.314811,"lon":5.373103,"is_reserved":false,"is_disabled":false,"rental_uris":{"android":"levelo://app?vid=870692a2-9072-40d3-845a-51acce12720e","ios":"levelo://app?vid=870692a2-9072-40d3-845a-51acce12720e"},"vehicle_type_id":"4","last_reported":1681135588,"current_range_meters":24400,"station_id":"ce4bgt12rcd13ifvqcd0","pricing_plan_id":"free"},{"bike_id":"e207b23b-a0de-428d-847b-b48ee03d16f6","system_id":"levelo_inurba_marseille","lat":43.30882,"lon":5.3719,"is_reserved":false,"is_disabled":false,"rental_uris":{"android":"levelo://app?vid=e207b23b-a0de-428d-847b-b48ee03d16f6","ios":"levelo://app?vid=e207b23b-a0de-428d-847b-b48ee03d16f6"},"vehicle_type_id":"4","last_reported":1681135588,"current_range_meters":8800,"station_id":"","pricing_plan_id":"free"},{"bike_id":"4025b148-ff4b-4a8b-8cd0-272775ffb13a","system_id":"levelo_inurba_marseille","lat":43.31822,"lon":5.3693,"is_reserved":false,"is_disabled":false,"rental_uris":{"android":"levelo://app?vid=4025b148-ff4b-4a8b-8cd0-272775ffb13a","ios":"levelo://app?vid=4025b148-ff4b-4a8b-8cd0-272775ffb13a"},"vehicle_type_id":"4","last_reported":1681135588,"current_range_meters":0,"station_id":"","pricing_plan_id":"free"},{"bike_id":"cdcf1cd7-baeb-4d69-8112-712eabbeadc0","system_id":"levelo_inurba_marseille","lat":43.31711,"lon":5.37416,"is_reserved":false,"is_disabled":false,"rental_uris":{"android":"levelo://app?vid=cdcf1cd7-baeb-4d69-8112-712eabbeadc0","ios":"levelo://app?vid=cdcf1cd7-baeb-4d69-8112-712eabbeadc0"},"vehicle_type_id":"4","last_reported":1681135588,"current_range_meters":7600,"station_id":"","pricing_plan_id":"free"},{"bike_id":"ca0eb51a-968f-4f0f-bc4d-26fef1378433","system_id":"levelo_inurba_marseille","lat":43.31812,"lon":5.37367,"is_reserved":false,"is_disabled":false,"rental_uris":{"android":"levelo://app?vid=ca0eb51a-968f-4f0f-bc4d-26fef1378433","ios":"levelo://app?vid=ca0eb51a-968f-4f0f-bc4d-26fef1378433"},"vehicle_type_id":"4","last_reported":1681135588,"current_range_meters":4000,"station_id":"","pricing_plan_id":"free"},{"bike_id":"24a8aebd-7b4d-4074-a772-8c7d8f535ea2","system_id":"levelo_inurba_marseille","lat":43.305368,"lon":5.367343,"is_reserved":false,"is_disabled":false,"rental_uris":{"android":"levelo://app?vid=24a8aebd-7b4d-4074-a772-8c7d8f535ea2","ios":"levelo://app?vid=24a8aebd-7b4d-4074-a772-8c7d8f535ea2"},"vehicle_type_id":"4","last_reported":1681135588,"current_range_meters":18800,"station_id":"ce4bgrp2rcd13ifvqc9g","pricing_plan_id":"free"},{"bike_id":"4f95635d-d659-412f-a903-47f6878ce06c","system_id":"levelo_inurba_marseille","lat":43.305368,"lon":5.367343,"is_reserved":false,"is_disabled":false,"rental_uris":{"android":"levelo://app?vid=4f95635d-d659-412f-a903-47f6878ce06c","ios":"levelo://app?vid=4f95635d-d659-412f-a903-47f6878ce06c"},"vehicle_type_id":"4","last_reported":1681135588,"current_range_meters":1200,"station_id":"ce4bgrp2rcd13ifvqc9g","pricing_plan_id":"free"},{"bike_id":"cd6941a4-bfe0-4954-91a0-165f266acdd5","system_id":"levelo_inurba_marseille","lat":43.30612,"lon":5.37156,"is_reserved":false,"is_disabled":false,"rental_uris":{"android":"levelo://app?vid=cd6941a4-bfe0-4954-91a0-165f266acdd5","ios":"levelo://app?vid=cd6941a4-bfe0-4954-91a0-165f266acdd5"},"vehicle_type_id":"4","last_reported":1681135588,"current_range_meters":8800,"station_id":"","pricing_plan_id":"free"},{"bike_id":"60d80c40-287c-4ae5-81fc-1ec31e3fbc54","system_id":"levelo_inurba_marseille","lat":43.31842,"lon":5.37448,"is_reserved":false,"is_disabled":false,"rental_uris":{"android":"levelo://app?vid=60d80c40-287c-4ae5-81fc-1ec31e3fbc54","ios":"levelo://app?vid=60d80c40-287c-4ae5-81fc-1ec31e3fbc54"},"vehicle_type_id":"4","last_reported":1681135588,"current_range_meters":16800,"station_id":"","pricing_plan_id":"free"},{"bike_id":"ae64dd3e-b5ce-4c57-af63-37735b9c2968","system_id":"levelo_inurba_marseille","lat":43.305989,"lon":5.37225,"is_reserved":false,"is_disabled":false,"rental_uris":{"android":"levelo://app?vid=ae64dd3e-b5ce-4c57-af63-37735b9c2968","ios":"levelo://app?vid=ae64dd3e-b5ce-4c57-af63-37735b9c2968"},"vehicle_type_id":"4","last_reported":1681135588,"current_range_meters":25600,"station_id":"ce4bgqh2rcd13ifvqc4g","pricing_plan_id":"free"},{"bike_id":"2b5a0aca-5b09-4442-8d9c-0468e35a731d","system_id":"levelo_inurba_marseille","lat":43.31712,"lon":5.37655,"is_reserved":false,"is_disabled":false,"rental_uris":{"android":"levelo://app?vid=2b5a0aca-5b09-4442-8d9c-0468e35a731d","ios":"levelo://app?vid=2b5a0aca-5b09-4442-8d9c-0468e35a731d"},"vehicle_type_id":"4","last_reported":1681135588,"current_range_meters":19200,"station_id":"","pricing_plan_id":"free"},{"bike_id":"79b88bf9-0b96-4ee4-a513-849f904a77ae","system_id":"levelo_inurba_marseille","lat":43.317075,"lon":5.377367,"is_reserved":false,"is_disabled":false,"rental_uris":{"android":"levelo://app?vid=79b88bf9-0b96-4ee4-a513-849f904a77ae","ios":"levelo://app?vid=79b88bf9-0b96-4ee4-a513-849f904a77ae"},"vehicle_type_id":"4","last_reported":1681135588,"current_range_meters":28400,"station_id":"ce4bgth2rcd13ifvqch0","pricing_plan_id":"free"},{"bike_id":"1ae59880-6701-49c1-8675-6e38bb7de842","system_id":"levelo_inurba_marseille","lat":43.317075,"lon":5.377367,"is_reserved":false,"is_disabled":false,"rental_uris":{"android":"levelo://app?vid=1ae59880-6701-49c1-8675-6e38bb7de842","ios":"levelo://app?vid=1ae59880-6701-49c1-8675-6e38bb7de842"},"vehicle_type_id":"4","last_reported":1681135588,"current_range_meters":31200,"station_id":"ce4bgth2rcd13ifvqch0","pricing_plan_id":"free"},{"bike_id":"e53b6f55-915b-4b2d-b527-f4ec96cf08e0","system_id":"levelo_inurba_marseille","lat":43.317075,"lon":5.377367,"is_reserved":false,"is_disabled":false,"rental_uris":{"android":"levelo://app?vid=e53b6f55-915b-4b2d-b527-f4ec96cf08e0","ios":"levelo://app?vid=e53b6f55-915b-4b2d-b527-f4ec96cf08e0"},"vehicle_type_id":"4","last_reported":1681135588,"current_range_meters":31200,"station_id":"ce4bgth2rcd13ifvqch0","pricing_plan_id":"free"},{"bike_id":"146d5a0c-da7d-48d3-8436-f5d2929ff52a","system_id":"levelo_inurba_marseille","lat":43.317075,"lon":5.377367,"is_reserved":false,"is_disabled":false,"rental_uris":{"android":"levelo://app?vid=146d5a0c-da7d-48d3-8436-f5d2929ff52a","ios":"levelo://app?vid=146d5a0c-da7d-48d3-8436-f5d2929ff52a"},"vehicle_type_id":"4","last_reported":1681135588,"current_range_meters":31200,"station_id":"ce4bgth2rcd13ifvqch0","pricing_plan_id":"free"},{"bike_id":"4a37c026-0f49-46ce-b6a3-88708e5b3ca0","system_id":"levelo_inurba_marseille","lat":43.317075,"lon":5.377367,"is_reserved":false,"is_disabled":false,"rental_uris":{"android":"levelo://app?vid=4a37c026-0f49-46ce-b6a3-88708e5b3ca0","ios":"levelo://app?vid=4a37c026-0f49-46ce-b6a3-88708e5b3ca0"},"vehicle_type_id":"4","last_reported":1681135588,"current_range_meters":31200,"station_id":"ce4bgth2rcd13ifvqch0","pricing_plan_id":"free"},{"bike_id":"3b48b618-e418-4f53-a02e-fbd4623127a3","system_id":"levelo_inurba_marseille","lat":43.317075,"lon":5.377367,"is_reserved":false,"is_disabled":false,"rental_uris":{"android":"levelo://app?vid=3b48b618-e418-4f53-a02e-fbd4623127a3","ios":"levelo://app?vid=3b48b618-e418-4f53-a02e-fbd4623127a3"},"vehicle_type_id":"4","last_reported":1681135588,"current_range_meters":30000,"station_id":"ce4bgth2rcd13ifvqch0","pricing_plan_id":"free"},{"bike_id":"33c1abbb-5f92-4fc4-b925-b97ac40de8fb","system_id":"levelo_inurba_marseille","lat":43.317075,"lon":5.377367,"is_reserved":false,"is_disabled":false,"rental_uris":{"android":"levelo://app?vid=33c1abbb-5f92-4fc4-b925-b97ac40de8fb","ios":"levelo://app?vid=33c1abbb-5f92-4fc4-b925-b97ac40de8fb"},"vehicle_type_id":"4","last_reported":1681135588,"current_range_meters":28000,"station_id":"ce4bgth2rcd13ifvqch0","pricing_plan_id":"free"},{"bike_id":"9ff9336e-5459-4e3b-aa61-a96115652419","system_id":"levelo_inurba_marseille","lat":43.315289,"lon":5.380349,"is_reserved":false,"is_disabled":false,"rental_uris":{"android":"levelo://app?vid=9ff9336e-5459-4e3b-aa61-a96115652419","ios":"levelo://app?vid=9ff9336e-5459-4e3b-aa61-a96115652419"},"vehicle_type_id":"4","last_reported":1681135588,"current_range_meters":28000,"station_id":"ce4bhsp2rcd13ifvqi50","pricing_plan_id":"free"},{"bike_id":"f79fa635-f374-42db-97ca-20f722f63051","system_id":"levelo_inurba_marseille","lat":43.315293,"lon":5.380349,"is_reserved":false,"is_disabled":false,"rental_uris":{"android":"levelo://app?vid=f79fa635-f374-42db-97ca-20f722f63051","ios":"levelo://app?vid=f79fa635-f374-42db-97ca-20f722f63051"},"vehicle_type_id":"4","last_reported":1681135588,"current_range_meters":31200,"station_id":"ce4bhsp2rcd13ifvqi50","pricing_plan_id":"free"},{"bike_id":"da0b853a-afda-465d-925c-9afd32287454","system_id":"levelo_inurba_marseille","lat":43.30115,"lon":5.37014,"is_reserved":false,"is_disabled":false,"rental_uris":{"android":"levelo://app?vid=da0b853a-afda-465d-925c-9afd32287454","ios":"levelo://app?vid=da0b853a-afda-465d-925c-9afd32287454"},"vehicle_type_id":"4","last_reported":1681135588,"current_range_meters":2400,"station_id":"","pricing_plan_id":"free"},{"bike_id":"3eb87564-b74b-4a2f-bf43-e15e5a275bd4","system_id":"levelo_inurba_marseille","lat":43.304606,"lon":5.379026,"is_reserved":false,"is_disabled":false,"rental_uris":{"android":"levelo://app?vid=3eb87564-b74b-4a2f-bf43-e15e5a275bd4","ios":"levelo://app?vid=3eb87564-b74b-4a2f-bf43-e15e5a275bd4"},"vehicle_type_id":"4","last_reported":1681135588,"current_range_meters":18000,"station_id":"ce4bgup2rcd13ifvqcn0","pricing_plan_id":"free"},{"bike_id":"cffea6a5-fbc9-43e1-89fa-8043873cf973","system_id":"levelo_inurba_marseille","lat":43.304606,"lon":5.379026,"is_reserved":false,"is_disabled":false,"rental_uris":{"android":"levelo://app?vid=cffea6a5-fbc9-43e1-89fa-8043873cf973","ios":"levelo://app?vid=cffea6a5-fbc9-43e1-89fa-8043873cf973"},"vehicle_type_id":"4","last_reported":1681135588,"current_range_meters":17600,"station_id":"ce4bgup2rcd13ifvqcn0","pricing_plan_id":"free"},{"bike_id":"85da5c3b-f886-4e37-ab78-a0710a6b9270","system_id":"levelo_inurba_marseille","lat":43.304606,"lon":5.379026,"is_reserved":false,"is_disabled":false,"rental_uris":{"android":"levelo://app?vid=85da5c3b-f886-4e37-ab78-a0710a6b9270","ios":"levelo://app?vid=85da5c3b-f886-4e37-ab78-a0710a6b9270"},"vehicle_type_id":"4","last_reported":1681135588,"current_range_meters":23200,"station_id":"ce4bgup2rcd13ifvqcn0","pricing_plan_id":"free"},{"bike_id":"9a26381d-8dbf-4974-9fc7-9a20dcbf2475","system_id":"levelo_inurba_marseille","lat":43.30466,"lon":5.37906,"is_reserved":false,"is_disabled":false,"rental_uris":{"android":"levelo://app?vid=9a26381d-8dbf-4974-9fc7-9a20dcbf2475","ios":"levelo://app?vid=9a26381d-8dbf-4974-9fc7-9a20dcbf2475"},"vehicle_type_id":"4","last_reported":1681135588,"current_range_meters":18800,"station_id":"ce4bgup2rcd13ifvqcn0","pricing_plan_id":"free"},{"bike_id":"5aa86b16-fc96-4888-8545-aa0fbe9cc779","system_id":"levelo_inurba_marseille","lat":43.304606,"lon":5.379026,"is_reserved":false,"is_disabled":false,"rental_uris":{"android":"levelo://app?vid=5aa86b16-fc96-4888-8545-aa0fbe9cc779","ios":"levelo://app?vid=5aa86b16-fc96-4888-8545-aa0fbe9cc779"},"vehicle_type_id":"4","last_reported":1681135588,"current_range_meters":13600,"station_id":"ce4bgup2rcd13ifvqcn0","pricing_plan_id":"free"},{"bike_id":"4a4e5b4f-e51c-450b-95a5-5eaf52123d51","system_id":"levelo_inurba_marseille","lat":43.304606,"lon":5.379026,"is_reserved":false,"is_disabled":false,"rental_uris":{"android":"levelo://app?vid=4a4e5b4f-e51c-450b-95a5-5eaf52123d51","ios":"levelo://app?vid=4a4e5b4f-e51c-450b-95a5-5eaf52123d51"},"vehicle_type_id":"4","last_reported":1681135588,"current_range_meters":23200,"station_id":"ce4bgup2rcd13ifvqcn0","pricing_plan_id":"free"},{"bike_id":"94b1e935-98d2-4fcc-98a8-d77ece33bf01","system_id":"levelo_inurba_marseille","lat":43.304606,"lon":5.379026,"is_reserved":false,"is_disabled":false,"rental_uris":{"android":"levelo://app?vid=94b1e935-98d2-4fcc-98a8-d77ece33bf01","ios":"levelo://app?vid=94b1e935-98d2-4fcc-98a8-d77ece33bf01"},"vehicle_type_id":"4","last_reported":1681135588,"current_range_meters":28400,"station_id":"ce4bgup2rcd13ifvqcn0","pricing_plan_id":"free"},{"bike_id":"ccfd2f4a-958b-4ceb-a079-a641e96f48c2","system_id":"levelo_inurba_marseille","lat":43.301429,"lon":5.37413,"is_reserved":false,"is_disabled":false,"rental_uris":{"android":"levelo://app?vid=ccfd2f4a-958b-4ceb-a079-a641e96f48c2","ios":"levelo://app?vid=ccfd2f4a-958b-4ceb-a079-a641e96f48c2"},"vehicle_type_id":"4","last_reported":1681135588,"current_range_meters":13600,"station_id":"ce4bgs92rcd13ifvqcc0","pricing_plan_id":"free"},{"bike_id":"404d6a39-632b-4a1a-be2a-fffa98c93a9c","system_id":"levelo_inurba_marseille","lat":43.301429,"lon":5.37413,"is_reserved":false,"is_disabled":false,"rental_uris":{"android":"levelo://app?vid=404d6a39-632b-4a1a-be2a-fffa98c93a9c","ios":"levelo://app?vid=404d6a39-632b-4a1a-be2a-fffa98c93a9c"},"vehicle_type_id":"4","last_reported":1681135588,"current_range_meters":8000,"station_id":"ce4bgs92rcd13ifvqcc0","pricing_plan_id":"free"},{"bike_id":"801635f1-0195-4134-8bd7-593f07ceff1c","system_id":"levelo_inurba_marseille","lat":43.31356,"lon":5.38493,"is_reserved":false,"is_disabled":false,"rental_uris":{"android":"levelo://app?vid=801635f1-0195-4134-8bd7-593f07ceff1c","ios":"levelo://app?vid=801635f1-0195-4134-8bd7-593f07ceff1c"},"vehicle_type_id":"4","last_reported":1681135588,"current_range_meters":2400,"station_id":"ce4bgt92rcd13ifvqcf0","pricing_plan_id":"free"},{"bike_id":"19c1f0ca-1492-4be8-b15f-339ede196a96","system_id":"levelo_inurba_marseille","lat":43.31361,"lon":5.38499,"is_reserved":false,"is_disabled":false,"rental_uris":{"android":"levelo://app?vid=19c1f0ca-1492-4be8-b15f-339ede196a96","ios":"levelo://app?vid=19c1f0ca-1492-4be8-b15f-339ede196a96"},"vehicle_type_id":"4","last_reported":1681135588,"current_range_meters":27200,"station_id":"ce4bgt92rcd13ifvqcf0","pricing_plan_id":"free"},{"bike_id":"121296ec-6d65-4c88-8fcc-80f23f362756","system_id":"levelo_inurba_marseille","lat":43.31364,"lon":5.38501,"is_reserved":false,"is_disabled":false,"rental_uris":{"android":"levelo://app?vid=121296ec-6d65-4c88-8fcc-80f23f362756","ios":"levelo://app?vid=121296ec-6d65-4c88-8fcc-80f23f362756"},"vehicle_type_id":"4","last_reported":1681135588,"current_range_meters":22400,"station_id":"ce4bgt92rcd13ifvqcf0","pricing_plan_id":"free"},{"bike_id":"cfc091e0-538d-4683-9d98-f45f8b3c2190","system_id":"levelo_inurba_marseille","lat":43.31361,"lon":5.38503,"is_reserved":false,"is_disabled":false,"rental_uris":{"android":"levelo://app?vid=cfc091e0-538d-4683-9d98-f45f8b3c2190","ios":"levelo://app?vid=cfc091e0-538d-4683-9d98-f45f8b3c2190"},"vehicle_type_id":"4","last_reported":1681135588,"current_range_meters":31200,"station_id":"ce4bgt92rcd13ifvqcf0","pricing_plan_id":"free"},{"bike_id":"dcc09ba0-1cd1-4e94-9b38-c208e60e0ee4","system_id":"levelo_inurba_marseille","lat":43.31239,"lon":5.38571,"is_reserved":false,"is_disabled":false,"rental_uris":{"android":"levelo://app?vid=dcc09ba0-1cd1-4e94-9b38-c208e60e0ee4","ios":"levelo://app?vid=dcc09ba0-1cd1-4e94-9b38-c208e60e0ee4"},"vehicle_type_id":"4","last_reported":1681135588,"current_range_meters":0,"station_id":"","pricing_plan_id":"free"},{"bike_id":"477c9437-ad1a-4de3-ab1b-9b71aade529f","system_id":"levelo_inurba_marseille","lat":43.298433,"lon":5.362774,"is_reserved":false,"is_disabled":false,"rental_uris":{"android":"levelo://app?vid=477c9437-ad1a-4de3-ab1b-9b71aade529f","ios":"levelo://app?vid=477c9437-ad1a-4de3-ab1b-9b71aade529f"},"vehicle_type_id":"4","last_reported":1681135588,"current_range_meters":31200,"station_id":"ce4bgpp2rcd13ifvqc3g","pricing_plan_id":"free"},{"bike_id":"91e824a3-693f-418a-929b-535e3cb7c957","system_id":"levelo_inurba_marseille","lat":43.298433,"lon":5.362774,"is_reserved":false,"is_disabled":false,"rental_uris":{"android":"levelo://app?vid=91e824a3-693f-418a-929b-535e3cb7c957","ios":"levelo://app?vid=91e824a3-693f-418a-929b-535e3cb7c957"},"vehicle_type_id":"4","last_reported":1681135588,"current_range_meters":28800,"station_id":"ce4bgpp2rcd13ifvqc3g","pricing_plan_id":"free"},{"bike_id":"6b487235-c50c-4200-9d74-241e72237bf5","system_id":"levelo_inurba_marseille","lat":43.298433,"lon":5.362774,"is_reserved":false,"is_disabled":false,"rental_uris":{"android":"levelo://app?vid=6b487235-c50c-4200-9d74-241e72237bf5","ios":"levelo://app?vid=6b487235-c50c-4200-9d74-241e72237bf5"},"vehicle_type_id":"4","last_reported":1681135588,"current_range_meters":31600,"station_id":"ce4bgpp2rcd13ifvqc3g","pricing_plan_id":"free"},{"bike_id":"e30ff7d9-8f67-4ae1-8118-0ed6168917dc","system_id":"levelo_inurba_marseille","lat":43.298433,"lon":5.362774,"is_reserved":false,"is_disabled":false,"rental_uris":{"android":"levelo://app?vid=e30ff7d9-8f67-4ae1-8118-0ed6168917dc","ios":"levelo://app?vid=e30ff7d9-8f67-4ae1-8118-0ed6168917dc"},"vehicle_type_id":"4","last_reported":1681135588,"current_range_meters":27600,"station_id":"ce4bgpp2rcd13ifvqc3g","pricing_plan_id":"free"},{"bike_id":"ec407976-8b34-4157-bece-8990b738e9f7","system_id":"levelo_inurba_marseille","lat":43.298433,"lon":5.362774,"is_reserved":false,"is_disabled":false,"rental_uris":{"android":"levelo://app?vid=ec407976-8b34-4157-bece-8990b738e9f7","ios":"levelo://app?vid=ec407976-8b34-4157-bece-8990b738e9f7"},"vehicle_type_id":"4","last_reported":1681135588,"current_range_meters":28000,"station_id":"ce4bgpp2rcd13ifvqc3g","pricing_plan_id":"free"},{"bike_id":"69b0bb04-8f0c-4040-8253-fcb112e192b7","system_id":"levelo_inurba_marseille","lat":43.298433,"lon":5.362774,"is_reserved":false,"is_disabled":false,"rental_uris":{"android":"levelo://app?vid=69b0bb04-8f0c-4040-8253-fcb112e192b7","ios":"levelo://app?vid=69b0bb04-8f0c-4040-8253-fcb112e192b7"},"vehicle_type_id":"4","last_reported":1681135588,"current_range_meters":28800,"station_id":"ce4bgpp2rcd13ifvqc3g","pricing_plan_id":"free"},{"bike_id":"28b99976-f45f-43dc-8f4c-261ce064c606","system_id":"levelo_inurba_marseille","lat":43.298433,"lon":5.362774,"is_reserved":false,"is_disabled":false,"rental_uris":{"android":"levelo://app?vid=28b99976-f45f-43dc-8f4c-261ce064c606","ios":"levelo://app?vid=28b99976-f45f-43dc-8f4c-261ce064c606"},"vehicle_type_id":"4","last_reported":1681135588,"current_range_meters":31600,"station_id":"ce4bgpp2rcd13ifvqc3g","pricing_plan_id":"free"},{"bike_id":"36c1cdcf-fd8d-4e96-8faa-06c9b98bb505","system_id":"levelo_inurba_marseille","lat":43.298433,"lon":5.362774,"is_reserved":false,"is_disabled":false,"rental_uris":{"android":"levelo://app?vid=36c1cdcf-fd8d-4e96-8faa-06c9b98bb505","ios":"levelo://app?vid=36c1cdcf-fd8d-4e96-8faa-06c9b98bb505"},"vehicle_type_id":"4","last_reported":1681135588,"current_range_meters":9600,"station_id":"ce4bgpp2rcd13ifvqc3g","pricing_plan_id":"free"},{"bike_id":"3be8143c-1900-4910-ab5a-29605d41ae47","system_id":"levelo_inurba_marseille","lat":43.298433,"lon":5.362774,"is_reserved":false,"is_disabled":false,"rental_uris":{"android":"levelo://app?vid=3be8143c-1900-4910-ab5a-29605d41ae47","ios":"levelo://app?vid=3be8143c-1900-4910-ab5a-29605d41ae47"},"vehicle_type_id":"4","last_reported":1681135588,"current_range_meters":28800,"station_id":"ce4bgpp2rcd13ifvqc3g","pricing_plan_id":"free"},{"bike_id":"0f1a6d26-d1cf-4416-9624-e2ab45f8f803","system_id":"levelo_inurba_marseille","lat":43.298433,"lon":5.362774,"is_reserved":false,"is_disabled":false,"rental_uris":{"android":"levelo://app?vid=0f1a6d26-d1cf-4416-9624-e2ab45f8f803","ios":"levelo://app?vid=0f1a6d26-d1cf-4416-9624-e2ab45f8f803"},"vehicle_type_id":"4","last_reported":1681135588,"current_range_meters":23600,"station_id":"ce4bgpp2rcd13ifvqc3g","pricing_plan_id":"free"},{"bike_id":"dfd110d1-2947-4ebe-9902-6c3bc55ed2cc","system_id":"levelo_inurba_marseille","lat":43.298433,"lon":5.362774,"is_reserved":false,"is_disabled":false,"rental_uris":{"android":"levelo://app?vid=dfd110d1-2947-4ebe-9902-6c3bc55ed2cc","ios":"levelo://app?vid=dfd110d1-2947-4ebe-9902-6c3bc55ed2cc"},"vehicle_type_id":"4","last_reported":1681135588,"current_range_meters":31600,"station_id":"ce4bgpp2rcd13ifvqc3g","pricing_plan_id":"free"},{"bike_id":"afd42c4c-77eb-4296-b5df-840791ff8a20","system_id":"levelo_inurba_marseille","lat":43.298433,"lon":5.362774,"is_reserved":false,"is_disabled":false,"rental_uris":{"android":"levelo://app?vid=afd42c4c-77eb-4296-b5df-840791ff8a20","ios":"levelo://app?vid=afd42c4c-77eb-4296-b5df-840791ff8a20"},"vehicle_type_id":"4","last_reported":1681135588,"current_range_meters":30000,"station_id":"ce4bgpp2rcd13ifvqc3g","pricing_plan_id":"free"},{"bike_id":"5ced216e-f504-4bb5-8907-6bb45e99cea6","system_id":"levelo_inurba_marseille","lat":43.298433,"lon":5.362774,"is_reserved":false,"is_disabled":false,"rental_uris":{"android":"levelo://app?vid=5ced216e-f504-4bb5-8907-6bb45e99cea6","ios":"levelo://app?vid=5ced216e-f504-4bb5-8907-6bb45e99cea6"},"vehicle_type_id":"4","last_reported":1681135588,"current_range_meters":31200,"station_id":"ce4bgpp2rcd13ifvqc3g","pricing_plan_id":"free"},{"bike_id":"12b4a696-e0cf-4c7d-aa9d-8e68f6419f52","system_id":"levelo_inurba_marseille","lat":43.298433,"lon":5.362774,"is_reserved":false,"is_disabled":false,"rental_uris":{"android":"levelo://app?vid=12b4a696-e0cf-4c7d-aa9d-8e68f6419f52","ios":"levelo://app?vid=12b4a696-e0cf-4c7d-aa9d-8e68f6419f52"},"vehicle_type_id":"4","last_reported":1681135588,"current_range_meters":4400,"station_id":"ce4bgpp2rcd13ifvqc3g","pricing_plan_id":"free"},{"bike_id":"9061ee74-2da6-49b4-b68e-ec6d99a55a2b","system_id":"levelo_inurba_marseille","lat":43.29924,"lon":5.37467,"is_reserved":false,"is_disabled":false,"rental_uris":{"android":"levelo://app?vid=9061ee74-2da6-49b4-b68e-ec6d99a55a2b","ios":"levelo://app?vid=9061ee74-2da6-49b4-b68e-ec6d99a55a2b"},"vehicle_type_id":"4","last_reported":1681135588,"current_range_meters":27200,"station_id":"ce4bgjh2rcd13ifvqbg0","pricing_plan_id":"free"},{"bike_id":"8aedc824-6c1c-465b-a284-f6b69d71129a","system_id":"levelo_inurba_marseille","lat":43.298433,"lon":5.362774,"is_reserved":false,"is_disabled":false,"rental_uris":{"android":"levelo://app?vid=8aedc824-6c1c-465b-a284-f6b69d71129a","ios":"levelo://app?vid=8aedc824-6c1c-465b-a284-f6b69d71129a"},"vehicle_type_id":"4","last_reported":1681135588,"current_range_meters":27200,"station_id":"ce4bgpp2rcd13ifvqc3g","pricing_plan_id":"free"},{"bike_id":"80407caa-9d87-4ca3-9a24-633513fafc1a","system_id":"levelo_inurba_marseille","lat":43.328371,"lon":5.366909,"is_reserved":false,"is_disabled":false,"rental_uris":{"android":"levelo://app?vid=80407caa-9d87-4ca3-9a24-633513fafc1a","ios":"levelo://app?vid=80407caa-9d87-4ca3-9a24-633513fafc1a"},"vehicle_type_id":"4","last_reported":1681135588,"current_range_meters":31200,"station_id":"ce4bhs92rcd13ifvqi0g","pricing_plan_id":"free"},{"bike_id":"d75107c9-4b49-4dee-b827-a9ab6235ebb6","system_id":"levelo_inurba_marseille","lat":43.328371,"lon":5.366909,"is_reserved":false,"is_disabled":false,"rental_uris":{"android":"levelo://app?vid=d75107c9-4b49-4dee-b827-a9ab6235ebb6","ios":"levelo://app?vid=d75107c9-4b49-4dee-b827-a9ab6235ebb6"},"vehicle_type_id":"4","last_reported":1681135588,"current_range_meters":15200,"station_id":"ce4bhs92rcd13ifvqi0g","pricing_plan_id":"free"},{"bike_id":"bba929d4-4925-4bf8-be6f-c1afefcb5cf3","system_id":"levelo_inurba_marseille","lat":43.328371,"lon":5.366909,"is_reserved":false,"is_disabled":false,"rental_uris":{"android":"levelo://app?vid=bba929d4-4925-4bf8-be6f-c1afefcb5cf3","ios":"levelo://app?vid=bba929d4-4925-4bf8-be6f-c1afefcb5cf3"},"vehicle_type_id":"4","last_reported":1681135588,"current_range_meters":11200,"station_id":"ce4bhs92rcd13ifvqi0g","pricing_plan_id":"free"},{"bike_id":"5e64e912-8c49-4c88-ac23-80643c766f69","system_id":"levelo_inurba_marseille","lat":43.328371,"lon":5.366909,"is_reserved":false,"is_disabled":false,"rental_uris":{"android":"levelo://app?vid=5e64e912-8c49-4c88-ac23-80643c766f69","ios":"levelo://app?vid=5e64e912-8c49-4c88-ac23-80643c766f69"},"vehicle_type_id":"4","last_reported":1681135588,"current_range_meters":19200,"station_id":"ce4bhs92rcd13ifvqi0g","pricing_plan_id":"free"},{"bike_id":"df9d56f2-ba1f-4e6d-b1e6-8e1637d0d816","system_id":"levelo_inurba_marseille","lat":43.328371,"lon":5.366909,"is_reserved":false,"is_disabled":false,"rental_uris":{"android":"levelo://app?vid=df9d56f2-ba1f-4e6d-b1e6-8e1637d0d816","ios":"levelo://app?vid=df9d56f2-ba1f-4e6d-b1e6-8e1637d0d816"},"vehicle_type_id":"4","last_reported":1681135588,"current_range_meters":7200,"station_id":"ce4bhs92rcd13ifvqi0g","pricing_plan_id":"free"},{"bike_id":"503eb05a-76de-46a2-86db-92308b29fe11","system_id":"levelo_inurba_marseille","lat":43.2968,"lon":5.37291,"is_reserved":false,"is_disabled":false,"rental_uris":{"android":"levelo://app?vid=503eb05a-76de-46a2-86db-92308b29fe11","ios":"levelo://app?vid=503eb05a-76de-46a2-86db-92308b29fe11"},"vehicle_type_id":"4","last_reported":1681135588,"current_range_meters":29200,"station_id":"ce4bgk12rcd13ifvqbj0","pricing_plan_id":"free"},{"bike_id":"db25c1bf-ada9-4385-a982-a70145d7220a","system_id":"levelo_inurba_marseille","lat":43.296129,"lon":5.370777,"is_reserved":false,"is_disabled":false,"rental_uris":{"android":"levelo://app?vid=db25c1bf-ada9-4385-a982-a70145d7220a","ios":"levelo://app?vid=db25c1bf-ada9-4385-a982-a70145d7220a"},"vehicle_type_id":"4","last_reported":1681135588,"current_range_meters":8000,"station_id":"ce4bgnh2rcd13ifvqc0g","pricing_plan_id":"free"},{"bike_id":"e1716207-c58f-4fb9-b47b-0df46c0c17ee","system_id":"levelo_inurba_marseille","lat":43.296935,"lon":5.376544,"is_reserved":false,"is_disabled":false,"rental_uris":{"android":"levelo://app?vid=e1716207-c58f-4fb9-b47b-0df46c0c17ee","ios":"levelo://app?vid=e1716207-c58f-4fb9-b47b-0df46c0c17ee"},"vehicle_type_id":"4","last_reported":1681135588,"current_range_meters":12000,"station_id":"ce4bgkh2rcd13ifvqbl0","pricing_plan_id":"free"},{"bike_id":"408bcfbd-5303-4a80-86d2-c7a7b517dec7","system_id":"levelo_inurba_marseille","lat":43.296935,"lon":5.376544,"is_reserved":false,"is_disabled":false,"rental_uris":{"android":"levelo://app?vid=408bcfbd-5303-4a80-86d2-c7a7b517dec7","ios":"levelo://app?vid=408bcfbd-5303-4a80-86d2-c7a7b517dec7"},"vehicle_type_id":"4","last_reported":1681135588,"current_range_meters":30800,"station_id":"ce4bgkh2rcd13ifvqbl0","pricing_plan_id":"free"},{"bike_id":"c71d9444-29c6-4de8-8115-567e1e2bc0ee","system_id":"levelo_inurba_marseille","lat":43.296935,"lon":5.376544,"is_reserved":false,"is_disabled":false,"rental_uris":{"android":"levelo://app?vid=c71d9444-29c6-4de8-8115-567e1e2bc0ee","ios":"levelo://app?vid=c71d9444-29c6-4de8-8115-567e1e2bc0ee"},"vehicle_type_id":"4","last_reported":1681135588,"current_range_meters":13600,"station_id":"ce4bgkh2rcd13ifvqbl0","pricing_plan_id":"free"},{"bike_id":"4be3608e-f177-445d-8370-51973c1c2b52","system_id":"levelo_inurba_marseille","lat":43.29574,"lon":5.36256,"is_reserved":false,"is_disabled":false,"rental_uris":{"android":"levelo://app?vid=4be3608e-f177-445d-8370-51973c1c2b52","ios":"levelo://app?vid=4be3608e-f177-445d-8370-51973c1c2b52"},"vehicle_type_id":"4","last_reported":1681135588,"current_range_meters":17600,"station_id":"","pricing_plan_id":"free"},{"bike_id":"9209e720-e6bd-4829-bf44-8b0dbe0a68cb","system_id":"levelo_inurba_marseille","lat":43.31752,"lon":5.39009,"is_reserved":false,"is_disabled":false,"rental_uris":{"android":"levelo://app?vid=9209e720-e6bd-4829-bf44-8b0dbe0a68cb","ios":"levelo://app?vid=9209e720-e6bd-4829-bf44-8b0dbe0a68cb"},"vehicle_type_id":"4","last_reported":1681135588,"current_range_meters":19200,"station_id":"ce4bhqp2rcd13ifvqhng","pricing_plan_id":"free"},{"bike_id":"30ccd564-fe6a-467a-9737-7fb426281328","system_id":"levelo_inurba_marseille","lat":43.317557,"lon":5.390173,"is_reserved":false,"is_disabled":false,"rental_uris":{"android":"levelo://app?vid=30ccd564-fe6a-467a-9737-7fb426281328","ios":"levelo://app?vid=30ccd564-fe6a-467a-9737-7fb426281328"},"vehicle_type_id":"4","last_reported":1681135588,"current_range_meters":800,"station_id":"ce4bhqp2rcd13ifvqhng","pricing_plan_id":"free"},{"bike_id":"b4ca72af-a537-423c-be76-096235c8b8df","system_id":"levelo_inurba_marseille","lat":43.29663,"lon":5.37739,"is_reserved":false,"is_disabled":false,"rental_uris":{"android":"levelo://app?vid=b4ca72af-a537-423c-be76-096235c8b8df","ios":"levelo://app?vid=b4ca72af-a537-423c-be76-096235c8b8df"},"vehicle_type_id":"4","last_reported":1681135588,"current_range_meters":22800,"station_id":"","pricing_plan_id":"free"},{"bike_id":"ee633d59-7181-487d-b9b9-a8f4cd34da25","system_id":"levelo_inurba_marseille","lat":43.295748,"lon":5.37522,"is_reserved":false,"is_disabled":false,"rental_uris":{"android":"levelo://app?vid=ee633d59-7181-487d-b9b9-a8f4cd34da25","ios":"levelo://app?vid=ee633d59-7181-487d-b9b9-a8f4cd34da25"},"vehicle_type_id":"4","last_reported":1681135588,"current_range_meters":31200,"station_id":"ce4bgh92rcd13ifvqb50","pricing_plan_id":"free"},{"bike_id":"aa2db1df-17c8-4f86-82c3-d9bfe546d839","system_id":"levelo_inurba_marseille","lat":43.29789,"lon":5.3811,"is_reserved":false,"is_disabled":false,"rental_uris":{"android":"levelo://app?vid=aa2db1df-17c8-4f86-82c3-d9bfe546d839","ios":"levelo://app?vid=aa2db1df-17c8-4f86-82c3-d9bfe546d839"},"vehicle_type_id":"4","last_reported":1681135588,"current_range_meters":19200,"station_id":"ce4bgip2rcd13ifvqbb0","pricing_plan_id":"free"},{"bike_id":"6f234767-a6e1-4451-a4d6-6c9351d46911","system_id":"levelo_inurba_marseille","lat":43.296277,"lon":5.377108,"is_reserved":false,"is_disabled":false,"rental_uris":{"android":"levelo://app?vid=6f234767-a6e1-4451-a4d6-6c9351d46911","ios":"levelo://app?vid=6f234767-a6e1-4451-a4d6-6c9351d46911"},"vehicle_type_id":"4","last_reported":1681135588,"current_range_meters":15600,"station_id":"ce4bgi92rcd13ifvqb90","pricing_plan_id":"free"},{"bike_id":"21f637f1-caee-46bd-a5dd-8ab3847c8767","system_id":"levelo_inurba_marseille","lat":43.329,"lon":5.37991,"is_reserved":false,"is_disabled":false,"rental_uris":{"android":"levelo://app?vid=21f637f1-caee-46bd-a5dd-8ab3847c8767","ios":"levelo://app?vid=21f637f1-caee-46bd-a5dd-8ab3847c8767"},"vehicle_type_id":"4","last_reported":1681135588,"current_range_meters":8000,"station_id":"","pricing_plan_id":"free"},{"bike_id":"59eddcb3-c426-43c5-9a6f-d657774604b8","system_id":"levelo_inurba_marseille","lat":43.32363,"lon":5.38884,"is_reserved":false,"is_disabled":false,"rental_uris":{"android":"levelo://app?vid=59eddcb3-c426-43c5-9a6f-d657774604b8","ios":"levelo://app?vid=59eddcb3-c426-43c5-9a6f-d657774604b8"},"vehicle_type_id":"4","last_reported":1681135588,"current_range_meters":22000,"station_id":"ce4bhqp2rcd13ifvqhog","pricing_plan_id":"free"},{"bike_id":"b42d36fc-6a52-4a59-8334-9dda0a3a92a2","system_id":"levelo_inurba_marseille","lat":43.32371,"lon":5.3888,"is_reserved":false,"is_disabled":false,"rental_uris":{"android":"levelo://app?vid=b42d36fc-6a52-4a59-8334-9dda0a3a92a2","ios":"levelo://app?vid=b42d36fc-6a52-4a59-8334-9dda0a3a92a2"},"vehicle_type_id":"4","last_reported":1681135588,"current_range_meters":23200,"station_id":"ce4bhqp2rcd13ifvqhog","pricing_plan_id":"free"},{"bike_id":"87efa956-50c4-4bb9-9abf-906a07678306","system_id":"levelo_inurba_marseille","lat":43.32369,"lon":5.38882,"is_reserved":false,"is_disabled":false,"rental_uris":{"android":"levelo://app?vid=87efa956-50c4-4bb9-9abf-906a07678306","ios":"levelo://app?vid=87efa956-50c4-4bb9-9abf-906a07678306"},"vehicle_type_id":"4","last_reported":1681135588,"current_range_meters":30800,"station_id":"","pricing_plan_id":"free"},{"bike_id":"a291b196-1387-4bf4-9139-0496200e7758","system_id":"levelo_inurba_marseille","lat":43.32371,"lon":5.38882,"is_reserved":false,"is_disabled":false,"rental_uris":{"android":"levelo://app?vid=a291b196-1387-4bf4-9139-0496200e7758","ios":"levelo://app?vid=a291b196-1387-4bf4-9139-0496200e7758"},"vehicle_type_id":"4","last_reported":1681135588,"current_range_meters":24000,"station_id":"ce4bhqp2rcd13ifvqhog","pricing_plan_id":"free"},{"bike_id":"76155a99-1ce6-4e78-8515-48e0e4e34616","system_id":"levelo_inurba_marseille","lat":43.32369,"lon":5.38884,"is_reserved":false,"is_disabled":false,"rental_uris":{"android":"levelo://app?vid=76155a99-1ce6-4e78-8515-48e0e4e34616","ios":"levelo://app?vid=76155a99-1ce6-4e78-8515-48e0e4e34616"},"vehicle_type_id":"4","last_reported":1681135588,"current_range_meters":25600,"station_id":"","pricing_plan_id":"free"},{"bike_id":"75be5c5a-40f8-45b5-b6d2-d3bc489a4a21","system_id":"levelo_inurba_marseille","lat":43.32367,"lon":5.38886,"is_reserved":false,"is_disabled":false,"rental_uris":{"android":"levelo://app?vid=75be5c5a-40f8-45b5-b6d2-d3bc489a4a21","ios":"levelo://app?vid=75be5c5a-40f8-45b5-b6d2-d3bc489a4a21"},"vehicle_type_id":"4","last_reported":1681135588,"current_range_meters":18400,"station_id":"ce4bhqp2rcd13ifvqhog","pricing_plan_id":"free"},{"bike_id":"08ca48b2-c32a-4278-9121-fb5793775671","system_id":"levelo_inurba_marseille","lat":43.3237,"lon":5.38884,"is_reserved":false,"is_disabled":false,"rental_uris":{"android":"levelo://app?vid=08ca48b2-c32a-4278-9121-fb5793775671","ios":"levelo://app?vid=08ca48b2-c32a-4278-9121-fb5793775671"},"vehicle_type_id":"4","last_reported":1681135588,"current_range_meters":31200,"station_id":"","pricing_plan_id":"free"},{"bike_id":"4f247706-dc6f-44be-a77c-3cafb4c15208","system_id":"levelo_inurba_marseille","lat":43.3237,"lon":5.38893,"is_reserved":false,"is_disabled":false,"rental_uris":{"android":"levelo://app?vid=4f247706-dc6f-44be-a77c-3cafb4c15208","ios":"levelo://app?vid=4f247706-dc6f-44be-a77c-3cafb4c15208"},"vehicle_type_id":"4","last_reported":1681135588,"current_range_meters":30400,"station_id":"ce4bhqp2rcd13ifvqhog","pricing_plan_id":"free"},{"bike_id":"78d65b1c-217c-474b-87df-1ef88f388cc3","system_id":"levelo_inurba_marseille","lat":43.30312,"lon":5.39207,"is_reserved":false,"is_disabled":false,"rental_uris":{"android":"levelo://app?vid=78d65b1c-217c-474b-87df-1ef88f388cc3","ios":"levelo://app?vid=78d65b1c-217c-474b-87df-1ef88f388cc3"},"vehicle_type_id":"4","last_reported":1681135588,"current_range_meters":25200,"station_id":"ce4bgkh2rcd13ifvqbk0","pricing_plan_id":"free"},{"bike_id":"aae6b9a3-a623-4eb3-9b2c-6505c48627a8","system_id":"levelo_inurba_marseille","lat":43.30306,"lon":5.39214,"is_reserved":false,"is_disabled":false,"rental_uris":{"android":"levelo://app?vid=aae6b9a3-a623-4eb3-9b2c-6505c48627a8","ios":"levelo://app?vid=aae6b9a3-a623-4eb3-9b2c-6505c48627a8"},"vehicle_type_id":"4","last_reported":1681135588,"current_range_meters":20000,"station_id":"ce4bgkh2rcd13ifvqbk0","pricing_plan_id":"free"},{"bike_id":"1803b1f1-56eb-4b65-b13f-5241f7c27d99","system_id":"levelo_inurba_marseille","lat":43.30308,"lon":5.39218,"is_reserved":false,"is_disabled":false,"rental_uris":{"android":"levelo://app?vid=1803b1f1-56eb-4b65-b13f-5241f7c27d99","ios":"levelo://app?vid=1803b1f1-56eb-4b65-b13f-5241f7c27d99"},"vehicle_type_id":"4","last_reported":1681135588,"current_range_meters":24800,"station_id":"ce4bgkh2rcd13ifvqbk0","pricing_plan_id":"free"},{"bike_id":"4737f0f9-f0cd-4f3d-a675-65b7502044aa","system_id":"levelo_inurba_marseille","lat":43.303,"lon":5.39214,"is_reserved":false,"is_disabled":false,"rental_uris":{"android":"levelo://app?vid=4737f0f9-f0cd-4f3d-a675-65b7502044aa","ios":"levelo://app?vid=4737f0f9-f0cd-4f3d-a675-65b7502044aa"},"vehicle_type_id":"4","last_reported":1681135588,"current_range_meters":31200,"station_id":"ce4bgkh2rcd13ifvqbk0","pricing_plan_id":"free"},{"bike_id":"2ee7f94b-c67c-4059-9818-8c4c49c381fe","system_id":"levelo_inurba_marseille","lat":43.30299,"lon":5.39215,"is_reserved":false,"is_disabled":false,"rental_uris":{"android":"levelo://app?vid=2ee7f94b-c67c-4059-9818-8c4c49c381fe","ios":"levelo://app?vid=2ee7f94b-c67c-4059-9818-8c4c49c381fe"},"vehicle_type_id":"4","last_reported":1681135588,"current_range_meters":31200,"station_id":"ce4bgkh2rcd13ifvqbk0","pricing_plan_id":"free"},{"bike_id":"6c652a78-a9ff-4ebf-9d90-1147c82fe026","system_id":"levelo_inurba_marseille","lat":43.30299,"lon":5.3922,"is_reserved":false,"is_disabled":false,"rental_uris":{"android":"levelo://app?vid=6c652a78-a9ff-4ebf-9d90-1147c82fe026","ios":"levelo://app?vid=6c652a78-a9ff-4ebf-9d90-1147c82fe026"},"vehicle_type_id":"4","last_reported":1681135588,"current_range_meters":13600,"station_id":"ce4bgkh2rcd13ifvqbk0","pricing_plan_id":"free"},{"bike_id":"761e265f-0063-45dc-aacd-538f8a27c42f","system_id":"levelo_inurba_marseille","lat":43.302008,"lon":5.394694,"is_reserved":false,"is_disabled":false,"rental_uris":{"android":"levelo://app?vid=761e265f-0063-45dc-aacd-538f8a27c42f","ios":"levelo://app?vid=761e265f-0063-45dc-aacd-538f8a27c42f"},"vehicle_type_id":"4","last_reported":1681135588,"current_range_meters":30800,"station_id":"ce4bh0p2rcd13ifvqd70","pricing_plan_id":"free"},{"bike_id":"e61c09aa-35ff-4be8-9bc1-870296a83bd4","system_id":"levelo_inurba_marseille","lat":43.30222,"lon":5.3948,"is_reserved":false,"is_disabled":false,"rental_uris":{"android":"levelo://app?vid=e61c09aa-35ff-4be8-9bc1-870296a83bd4","ios":"levelo://app?vid=e61c09aa-35ff-4be8-9bc1-870296a83bd4"},"vehicle_type_id":"4","last_reported":1681135588,"current_range_meters":0,"station_id":"ce4bh0p2rcd13ifvqd70","pricing_plan_id":"free"},{"bike_id":"4bb344b9-1ef6-40c3-9d46-22f0ddf7c861","system_id":"levelo_inurba_marseille","lat":43.291587,"lon":5.379676,"is_reserved":false,"is_disabled":false,"rental_uris":{"android":"levelo://app?vid=4bb344b9-1ef6-40c3-9d46-22f0ddf7c861","ios":"levelo://app?vid=4bb344b9-1ef6-40c3-9d46-22f0ddf7c861"},"vehicle_type_id":"4","last_reported":1681135588,"current_range_meters":11600,"station_id":"","pricing_plan_id":"free"},{"bike_id":"691a9cb3-bd2f-4a79-8f86-ef3c72a82fdc","system_id":"levelo_inurba_marseille","lat":43.29041,"lon":5.37582,"is_reserved":false,"is_disabled":false,"rental_uris":{"android":"levelo://app?vid=691a9cb3-bd2f-4a79-8f86-ef3c72a82fdc","ios":"levelo://app?vid=691a9cb3-bd2f-4a79-8f86-ef3c72a82fdc"},"vehicle_type_id":"4","last_reported":1681135588,"current_range_meters":15600,"station_id":"ce4bh692rcd13ifvqe90","pricing_plan_id":"free"},{"bike_id":"7b88b2bc-5250-4109-ab59-d0ef93928e98","system_id":"levelo_inurba_marseille","lat":43.289184,"lon":5.366408,"is_reserved":false,"is_disabled":false,"rental_uris":{"android":"levelo://app?vid=7b88b2bc-5250-4109-ab59-d0ef93928e98","ios":"levelo://app?vid=7b88b2bc-5250-4109-ab59-d0ef93928e98"},"vehicle_type_id":"4","last_reported":1681135588,"current_range_meters":22400,"station_id":"ce4bhap2rcd13ifvqek0","pricing_plan_id":"free"},{"bike_id":"ff885482-d223-4a5a-a129-dca084f78ad2","system_id":"levelo_inurba_marseille","lat":43.289362,"lon":5.363933,"is_reserved":false,"is_disabled":false,"rental_uris":{"android":"levelo://app?vid=ff885482-d223-4a5a-a129-dca084f78ad2","ios":"levelo://app?vid=ff885482-d223-4a5a-a129-dca084f78ad2"},"vehicle_type_id":"4","last_reported":1681135588,"current_range_meters":3600,"station_id":"","pricing_plan_id":"free"},{"bike_id":"72d5498e-07f9-4162-af0a-e910f43d9832","system_id":"levelo_inurba_marseille","lat":43.292644,"lon":5.384257,"is_reserved":false,"is_disabled":false,"rental_uris":{"android":"levelo://app?vid=72d5498e-07f9-4162-af0a-e910f43d9832","ios":"levelo://app?vid=72d5498e-07f9-4162-af0a-e910f43d9832"},"vehicle_type_id":"4","last_reported":1681135588,"current_range_meters":19600,"station_id":"ce4bh692rcd13ifvqea0","pricing_plan_id":"free"},{"bike_id":"40c623f6-1cba-4b1d-80b5-f177242e2812","system_id":"levelo_inurba_marseille","lat":43.292644,"lon":5.384257,"is_reserved":false,"is_disabled":false,"rental_uris":{"android":"levelo://app?vid=40c623f6-1cba-4b1d-80b5-f177242e2812","ios":"levelo://app?vid=40c623f6-1cba-4b1d-80b5-f177242e2812"},"vehicle_type_id":"4","last_reported":1681135588,"current_range_meters":0,"station_id":"ce4bh692rcd13ifvqea0","pricing_plan_id":"free"},{"bike_id":"bc053c86-5257-42bd-b704-994e759a2939","system_id":"levelo_inurba_marseille","lat":43.292644,"lon":5.384257,"is_reserved":false,"is_disabled":false,"rental_uris":{"android":"levelo://app?vid=bc053c86-5257-42bd-b704-994e759a2939","ios":"levelo://app?vid=bc053c86-5257-42bd-b704-994e759a2939"},"vehicle_type_id":"4","last_reported":1681135588,"current_range_meters":2800,"station_id":"ce4bh692rcd13ifvqea0","pricing_plan_id":"free"},{"bike_id":"91b5f2b0-7229-4826-960f-0a1302c7eb49","system_id":"levelo_inurba_marseille","lat":43.304274,"lon":5.397513,"is_reserved":false,"is_disabled":false,"rental_uris":{"android":"levelo://app?vid=91b5f2b0-7229-4826-960f-0a1302c7eb49","ios":"levelo://app?vid=91b5f2b0-7229-4826-960f-0a1302c7eb49"},"vehicle_type_id":"4","last_reported":1681135588,"current_range_meters":15200,"station_id":"ce4bh092rcd13ifvqd20","pricing_plan_id":"free"},{"bike_id":"d01d4622-fe13-46f8-bf06-60926d249656","system_id":"levelo_inurba_marseille","lat":43.330442,"lon":5.389148,"is_reserved":false,"is_disabled":false,"rental_uris":{"android":"levelo://app?vid=d01d4622-fe13-46f8-bf06-60926d249656","ios":"levelo://app?vid=d01d4622-fe13-46f8-bf06-60926d249656"},"vehicle_type_id":"4","last_reported":1681135588,"current_range_meters":24400,"station_id":"ce4bhr92rcd13ifvqhrg","pricing_plan_id":"free"},{"bike_id":"980c25c6-82aa-4cca-8d37-aa084ea45549","system_id":"levelo_inurba_marseille","lat":43.290995,"lon":5.381361,"is_reserved":false,"is_disabled":false,"rental_uris":{"android":"levelo://app?vid=980c25c6-82aa-4cca-8d37-aa084ea45549","ios":"levelo://app?vid=980c25c6-82aa-4cca-8d37-aa084ea45549"},"vehicle_type_id":"4","last_reported":1681135588,"current_range_meters":16800,"station_id":"ce4bh512rcd13ifvqe2g","pricing_plan_id":"free"},{"bike_id":"9c2d1380-c21d-422e-a329-c7d2b43627c6","system_id":"levelo_inurba_marseille","lat":43.289688,"lon":5.378326,"is_reserved":false,"is_disabled":false,"rental_uris":{"android":"levelo://app?vid=9c2d1380-c21d-422e-a329-c7d2b43627c6","ios":"levelo://app?vid=9c2d1380-c21d-422e-a329-c7d2b43627c6"},"vehicle_type_id":"4","last_reported":1681135588,"current_range_meters":27600,"station_id":"","pricing_plan_id":"free"},{"bike_id":"3fe0e4e4-3124-4408-86a4-746f85ae1ffe","system_id":"levelo_inurba_marseille","lat":43.30669,"lon":5.40048,"is_reserved":false,"is_disabled":false,"rental_uris":{"android":"levelo://app?vid=3fe0e4e4-3124-4408-86a4-746f85ae1ffe","ios":"levelo://app?vid=3fe0e4e4-3124-4408-86a4-746f85ae1ffe"},"vehicle_type_id":"4","last_reported":1681135588,"current_range_meters":13200,"station_id":"","pricing_plan_id":"free"},{"bike_id":"ca29d066-6b6d-4991-9039-4c06c8308c8d","system_id":"levelo_inurba_marseille","lat":43.28748,"lon":5.37116,"is_reserved":false,"is_disabled":false,"rental_uris":{"android":"levelo://app?vid=ca29d066-6b6d-4991-9039-4c06c8308c8d","ios":"levelo://app?vid=ca29d066-6b6d-4991-9039-4c06c8308c8d"},"vehicle_type_id":"4","last_reported":1681135588,"current_range_meters":2800,"station_id":"","pricing_plan_id":"free"},{"bike_id":"e2087c70-647c-438d-880a-d7fd078b9b70","system_id":"levelo_inurba_marseille","lat":43.28967,"lon":5.38172,"is_reserved":false,"is_disabled":false,"rental_uris":{"android":"levelo://app?vid=e2087c70-647c-438d-880a-d7fd078b9b70","ios":"levelo://app?vid=e2087c70-647c-438d-880a-d7fd078b9b70"},"vehicle_type_id":"4","last_reported":1681135588,"current_range_meters":23600,"station_id":"ce4bh4p2rcd13ifvqe1g","pricing_plan_id":"free"},{"bike_id":"43636082-bde6-4721-99e8-80e1bc01b462","system_id":"levelo_inurba_marseille","lat":43.30662,"lon":5.40098,"is_reserved":false,"is_disabled":false,"rental_uris":{"android":"levelo://app?vid=43636082-bde6-4721-99e8-80e1bc01b462","ios":"levelo://app?vid=43636082-bde6-4721-99e8-80e1bc01b462"},"vehicle_type_id":"4","last_reported":1681135588,"current_range_meters":31600,"station_id":"ce4bh112rcd13ifvqda0","pricing_plan_id":"free"},{"bike_id":"b4a264ec-5441-4607-8e4d-8c71734156f4","system_id":"levelo_inurba_marseille","lat":43.30642,"lon":5.401031,"is_reserved":false,"is_disabled":false,"rental_uris":{"android":"levelo://app?vid=b4a264ec-5441-4607-8e4d-8c71734156f4","ios":"levelo://app?vid=b4a264ec-5441-4607-8e4d-8c71734156f4"},"vehicle_type_id":"4","last_reported":1681135588,"current_range_meters":29200,"station_id":"ce4bh112rcd13ifvqda0","pricing_plan_id":"free"},{"bike_id":"12b0dc99-b8e0-4839-a3ef-b8b5d3ecca72","system_id":"levelo_inurba_marseille","lat":43.30628,"lon":5.40088,"is_reserved":false,"is_disabled":false,"rental_uris":{"android":"levelo://app?vid=12b0dc99-b8e0-4839-a3ef-b8b5d3ecca72","ios":"levelo://app?vid=12b0dc99-b8e0-4839-a3ef-b8b5d3ecca72"},"vehicle_type_id":"4","last_reported":1681135588,"current_range_meters":13600,"station_id":"ce4bh112rcd13ifvqda0","pricing_plan_id":"free"},{"bike_id":"c5876f5c-1869-4c2d-8608-62036d30a82b","system_id":"levelo_inurba_marseille","lat":43.33024,"lon":5.3925,"is_reserved":false,"is_disabled":false,"rental_uris":{"android":"levelo://app?vid=c5876f5c-1869-4c2d-8608-62036d30a82b","ios":"levelo://app?vid=c5876f5c-1869-4c2d-8608-62036d30a82b"},"vehicle_type_id":"4","last_reported":1681135588,"current_range_meters":24800,"station_id":"","pricing_plan_id":"free"},{"bike_id":"7d0599e9-97f6-48fb-b31d-ae6b93f26a98","system_id":"levelo_inurba_marseille","lat":43.33769,"lon":5.37475,"is_reserved":false,"is_disabled":false,"rental_uris":{"android":"levelo://app?vid=7d0599e9-97f6-48fb-b31d-ae6b93f26a98","ios":"levelo://app?vid=7d0599e9-97f6-48fb-b31d-ae6b93f26a98"},"vehicle_type_id":"4","last_reported":1681135588,"current_range_meters":6800,"station_id":"","pricing_plan_id":"free"},{"bike_id":"34a32928-95a8-4d42-90d8-2080bac61790","system_id":"levelo_inurba_marseille","lat":43.33776,"lon":5.37438,"is_reserved":false,"is_disabled":false,"rental_uris":{"android":"levelo://app?vid=34a32928-95a8-4d42-90d8-2080bac61790","ios":"levelo://app?vid=34a32928-95a8-4d42-90d8-2080bac61790"},"vehicle_type_id":"4","last_reported":1681135588,"current_range_meters":31600,"station_id":"ce4rr2p2rcd13i802rgg","pricing_plan_id":"free"},{"bike_id":"53a74feb-acfd-4602-bea7-9d748dcd2e13","system_id":"levelo_inurba_marseille","lat":43.301117,"lon":5.398795,"is_reserved":false,"is_disabled":false,"rental_uris":{"android":"levelo://app?vid=53a74feb-acfd-4602-bea7-9d748dcd2e13","ios":"levelo://app?vid=53a74feb-acfd-4602-bea7-9d748dcd2e13"},"vehicle_type_id":"4","last_reported":1681135588,"current_range_meters":19600,"station_id":"ce4bh0h2rcd13ifvqd40","pricing_plan_id":"free"},{"bike_id":"92f165c0-e21d-4392-8a33-6451e28c629e","system_id":"levelo_inurba_marseille","lat":43.33789,"lon":5.37426,"is_reserved":false,"is_disabled":false,"rental_uris":{"android":"levelo://app?vid=92f165c0-e21d-4392-8a33-6451e28c629e","ios":"levelo://app?vid=92f165c0-e21d-4392-8a33-6451e28c629e"},"vehicle_type_id":"4","last_reported":1681135588,"current_range_meters":30400,"station_id":"","pricing_plan_id":"free"},{"bike_id":"133de8df-9fec-4d05-970c-4ce6a175c56a","system_id":"levelo_inurba_marseille","lat":43.301117,"lon":5.398795,"is_reserved":false,"is_disabled":false,"rental_uris":{"android":"levelo://app?vid=133de8df-9fec-4d05-970c-4ce6a175c56a","ios":"levelo://app?vid=133de8df-9fec-4d05-970c-4ce6a175c56a"},"vehicle_type_id":"4","last_reported":1681135588,"current_range_meters":27600,"station_id":"ce4bh0h2rcd13ifvqd40","pricing_plan_id":"free"},{"bike_id":"1c376c75-bdec-4701-917d-b7d97e1cfb60","system_id":"levelo_inurba_marseille","lat":43.301117,"lon":5.398795,"is_reserved":false,"is_disabled":false,"rental_uris":{"android":"levelo://app?vid=1c376c75-bdec-4701-917d-b7d97e1cfb60","ios":"levelo://app?vid=1c376c75-bdec-4701-917d-b7d97e1cfb60"},"vehicle_type_id":"4","last_reported":1681135588,"current_range_meters":21200,"station_id":"ce4bh0h2rcd13ifvqd40","pricing_plan_id":"free"},{"bike_id":"c5538706-f8cf-4cd0-9be4-3748ac39f2f8","system_id":"levelo_inurba_marseille","lat":43.286593,"lon":5.363346,"is_reserved":false,"is_disabled":false,"rental_uris":{"android":"levelo://app?vid=c5538706-f8cf-4cd0-9be4-3748ac39f2f8","ios":"levelo://app?vid=c5538706-f8cf-4cd0-9be4-3748ac39f2f8"},"vehicle_type_id":"4","last_reported":1681135588,"current_range_meters":19200,"station_id":"ce4bhah2rcd13ifvqej0","pricing_plan_id":"free"},{"bike_id":"6a55e1b9-1bab-4c30-8c69-d196ff15c36f","system_id":"levelo_inurba_marseille","lat":43.298681,"lon":5.397225,"is_reserved":false,"is_disabled":false,"rental_uris":{"android":"levelo://app?vid=6a55e1b9-1bab-4c30-8c69-d196ff15c36f","ios":"levelo://app?vid=6a55e1b9-1bab-4c30-8c69-d196ff15c36f"},"vehicle_type_id":"4","last_reported":1681135588,"current_range_meters":17600,"station_id":"ce4bh0h2rcd13ifvqd50","pricing_plan_id":"free"},{"bike_id":"91dc7d59-7087-43a3-976a-cacd0ca6e3ee","system_id":"levelo_inurba_marseille","lat":43.298681,"lon":5.397225,"is_reserved":false,"is_disabled":false,"rental_uris":{"android":"levelo://app?vid=91dc7d59-7087-43a3-976a-cacd0ca6e3ee","ios":"levelo://app?vid=91dc7d59-7087-43a3-976a-cacd0ca6e3ee"},"vehicle_type_id":"4","last_reported":1681135588,"current_range_meters":8800,"station_id":"ce4bh0h2rcd13ifvqd50","pricing_plan_id":"free"},{"bike_id":"e0f1984f-352e-4b82-ad74-e151bced9178","system_id":"levelo_inurba_marseille","lat":43.28647,"lon":5.36384,"is_reserved":false,"is_disabled":false,"rental_uris":{"android":"levelo://app?vid=e0f1984f-352e-4b82-ad74-e151bced9178","ios":"levelo://app?vid=e0f1984f-352e-4b82-ad74-e151bced9178"},"vehicle_type_id":"4","last_reported":1681135588,"current_range_meters":13600,"station_id":"","pricing_plan_id":"free"},{"bike_id":"c581f0c9-9dfd-4727-bee2-af205972902c","system_id":"levelo_inurba_marseille","lat":43.331,"lon":5.39319,"is_reserved":false,"is_disabled":false,"rental_uris":{"android":"levelo://app?vid=c581f0c9-9dfd-4727-bee2-af205972902c","ios":"levelo://app?vid=c581f0c9-9dfd-4727-bee2-af205972902c"},"vehicle_type_id":"4","last_reported":1681135588,"current_range_meters":18400,"station_id":"","pricing_plan_id":"free"},{"bike_id":"8db6cf79-4d88-480c-a451-19c94ad01e86","system_id":"levelo_inurba_marseille","lat":43.287185,"lon":5.379373,"is_reserved":false,"is_disabled":false,"rental_uris":{"android":"levelo://app?vid=8db6cf79-4d88-480c-a451-19c94ad01e86","ios":"levelo://app?vid=8db6cf79-4d88-480c-a451-19c94ad01e86"},"vehicle_type_id":"4","last_reported":1681135588,"current_range_meters":24000,"station_id":"ce4bh9p2rcd13ifvqec0","pricing_plan_id":"free"},{"bike_id":"e58c30c2-d6a4-45db-af12-690b398a0bc4","system_id":"levelo_inurba_marseille","lat":43.31642,"lon":5.40436,"is_reserved":false,"is_disabled":false,"rental_uris":{"android":"levelo://app?vid=e58c30c2-d6a4-45db-af12-690b398a0bc4","ios":"levelo://app?vid=e58c30c2-d6a4-45db-af12-690b398a0bc4"},"vehicle_type_id":"4","last_reported":1681135588,"current_range_meters":800,"station_id":"","pricing_plan_id":"free"},{"bike_id":"9292ecfc-905f-497b-b5fb-bf2af76f6865","system_id":"levelo_inurba_marseille","lat":43.316517,"lon":5.404375,"is_reserved":false,"is_disabled":false,"rental_uris":{"android":"levelo://app?vid=9292ecfc-905f-497b-b5fb-bf2af76f6865","ios":"levelo://app?vid=9292ecfc-905f-497b-b5fb-bf2af76f6865"},"vehicle_type_id":"4","last_reported":1681135588,"current_range_meters":30000,"station_id":"ce4bh012rcd13ifvqd00","pricing_plan_id":"free"},{"bike_id":"504ec141-21e0-49a6-922e-bc8e6ea4821c","system_id":"levelo_inurba_marseille","lat":43.316517,"lon":5.404375,"is_reserved":false,"is_disabled":false,"rental_uris":{"android":"levelo://app?vid=504ec141-21e0-49a6-922e-bc8e6ea4821c","ios":"levelo://app?vid=504ec141-21e0-49a6-922e-bc8e6ea4821c"},"vehicle_type_id":"4","last_reported":1681135588,"current_range_meters":25600,"station_id":"ce4bh012rcd13ifvqd00","pricing_plan_id":"free"},{"bike_id":"670891bc-6047-47df-b84f-d9f5179bf5e1","system_id":"levelo_inurba_marseille","lat":43.284534,"lon":5.358662,"is_reserved":false,"is_disabled":false,"rental_uris":{"android":"levelo://app?vid=670891bc-6047-47df-b84f-d9f5179bf5e1","ios":"levelo://app?vid=670891bc-6047-47df-b84f-d9f5179bf5e1"},"vehicle_type_id":"4","last_reported":1681135588,"current_range_meters":17600,"station_id":"ce4bhah2rcd13ifvqei0","pricing_plan_id":"free"},{"bike_id":"c0235718-c0b4-4f1a-8639-990e5ada3684","system_id":"levelo_inurba_marseille","lat":43.284534,"lon":5.358662,"is_reserved":false,"is_disabled":false,"rental_uris":{"android":"levelo://app?vid=c0235718-c0b4-4f1a-8639-990e5ada3684","ios":"levelo://app?vid=c0235718-c0b4-4f1a-8639-990e5ada3684"},"vehicle_type_id":"4","last_reported":1681135588,"current_range_meters":3200,"station_id":"ce4bhah2rcd13ifvqei0","pricing_plan_id":"free"},{"bike_id":"99ff7c28-28c3-4d2b-80d0-4b705f2179ec","system_id":"levelo_inurba_marseille","lat":43.284534,"lon":5.358662,"is_reserved":false,"is_disabled":false,"rental_uris":{"android":"levelo://app?vid=99ff7c28-28c3-4d2b-80d0-4b705f2179ec","ios":"levelo://app?vid=99ff7c28-28c3-4d2b-80d0-4b705f2179ec"},"vehicle_type_id":"4","last_reported":1681135588,"current_range_meters":18000,"station_id":"ce4bhah2rcd13ifvqei0","pricing_plan_id":"free"},{"bike_id":"12b0d6e4-a20f-49dc-be26-29952ebaa61b","system_id":"levelo_inurba_marseille","lat":43.284534,"lon":5.358662,"is_reserved":false,"is_disabled":false,"rental_uris":{"android":"levelo://app?vid=12b0d6e4-a20f-49dc-be26-29952ebaa61b","ios":"levelo://app?vid=12b0d6e4-a20f-49dc-be26-29952ebaa61b"},"vehicle_type_id":"4","last_reported":1681135588,"current_range_meters":20400,"station_id":"ce4bhah2rcd13ifvqei0","pricing_plan_id":"free"},{"bike_id":"5d77c520-6cd0-49dd-9fa8-245b736ea815","system_id":"levelo_inurba_marseille","lat":43.2862,"lon":5.35102,"is_reserved":false,"is_disabled":false,"rental_uris":{"android":"levelo://app?vid=5d77c520-6cd0-49dd-9fa8-245b736ea815","ios":"levelo://app?vid=5d77c520-6cd0-49dd-9fa8-245b736ea815"},"vehicle_type_id":"4","last_reported":1681135588,"current_range_meters":21600,"station_id":"","pricing_plan_id":"free"},{"bike_id":"364c10b8-2317-4287-84e2-a6115de4b02c","system_id":"levelo_inurba_marseille","lat":43.28618,"lon":5.35104,"is_reserved":false,"is_disabled":false,"rental_uris":{"android":"levelo://app?vid=364c10b8-2317-4287-84e2-a6115de4b02c","ios":"levelo://app?vid=364c10b8-2317-4287-84e2-a6115de4b02c"},"vehicle_type_id":"4","last_reported":1681135588,"current_range_meters":26400,"station_id":"","pricing_plan_id":"free"},{"bike_id":"23cf3eb2-27c9-417d-91f8-3308172a3b3a","system_id":"levelo_inurba_marseille","lat":43.28616,"lon":5.35103,"is_reserved":false,"is_disabled":false,"rental_uris":{"android":"levelo://app?vid=23cf3eb2-27c9-417d-91f8-3308172a3b3a","ios":"levelo://app?vid=23cf3eb2-27c9-417d-91f8-3308172a3b3a"},"vehicle_type_id":"4","last_reported":1681135588,"current_range_meters":24800,"station_id":"","pricing_plan_id":"free"},{"bike_id":"26cbfa58-a589-4e6c-8d1c-4789c84f239c","system_id":"levelo_inurba_marseille","lat":43.28614,"lon":5.351,"is_reserved":false,"is_disabled":false,"rental_uris":{"android":"levelo://app?vid=26cbfa58-a589-4e6c-8d1c-4789c84f239c","ios":"levelo://app?vid=26cbfa58-a589-4e6c-8d1c-4789c84f239c"},"vehicle_type_id":"4","last_reported":1681135588,"current_range_meters":28000,"station_id":"","pricing_plan_id":"free"},{"bike_id":"3b829a8c-ad52-462f-b9ae-d971bd2dbd00","system_id":"levelo_inurba_marseille","lat":43.286595,"lon":5.386795,"is_reserved":false,"is_disabled":false,"rental_uris":{"android":"levelo://app?vid=3b829a8c-ad52-462f-b9ae-d971bd2dbd00","ios":"levelo://app?vid=3b829a8c-ad52-462f-b9ae-d971bd2dbd00"},"vehicle_type_id":"4","last_reported":1681135588,"current_range_meters":25600,"station_id":"ce4bh492rcd13ifvqdug","pricing_plan_id":"free"},{"bike_id":"d3301117-eb1b-4ae3-ad35-d1ebd46a333d","system_id":"levelo_inurba_marseille","lat":43.286595,"lon":5.386795,"is_reserved":false,"is_disabled":false,"rental_uris":{"android":"levelo://app?vid=d3301117-eb1b-4ae3-ad35-d1ebd46a333d","ios":"levelo://app?vid=d3301117-eb1b-4ae3-ad35-d1ebd46a333d"},"vehicle_type_id":"4","last_reported":1681135588,"current_range_meters":21600,"station_id":"ce4bh492rcd13ifvqdug","pricing_plan_id":"free"},{"bike_id":"35708687-1e16-4774-a44a-480a3eb0f36c","system_id":"levelo_inurba_marseille","lat":43.33222,"lon":5.39831,"is_reserved":false,"is_disabled":false,"rental_uris":{"android":"levelo://app?vid=35708687-1e16-4774-a44a-480a3eb0f36c","ios":"levelo://app?vid=35708687-1e16-4774-a44a-480a3eb0f36c"},"vehicle_type_id":"4","last_reported":1681135588,"current_range_meters":5600,"station_id":"","pricing_plan_id":"free"},{"bike_id":"d52b4393-0359-4a1f-adba-edf57e4b98d9","system_id":"levelo_inurba_marseille","lat":43.33222,"lon":5.39831,"is_reserved":false,"is_disabled":false,"rental_uris":{"android":"levelo://app?vid=d52b4393-0359-4a1f-adba-edf57e4b98d9","ios":"levelo://app?vid=d52b4393-0359-4a1f-adba-edf57e4b98d9"},"vehicle_type_id":"4","last_reported":1681135588,"current_range_meters":0,"station_id":"","pricing_plan_id":"free"},{"bike_id":"dc9e3441-2f54-49a4-bde6-e1a95f5e7b68","system_id":"levelo_inurba_marseille","lat":43.33717,"lon":5.391857,"is_reserved":false,"is_disabled":false,"rental_uris":{"android":"levelo://app?vid=dc9e3441-2f54-49a4-bde6-e1a95f5e7b68","ios":"levelo://app?vid=dc9e3441-2f54-49a4-bde6-e1a95f5e7b68"},"vehicle_type_id":"4","last_reported":1681135588,"current_range_meters":30800,"station_id":"ce4bhr92rcd13ifvqhsg","pricing_plan_id":"free"},{"bike_id":"2c3064a8-8c58-424d-a087-fe1c048fb0d5","system_id":"levelo_inurba_marseille","lat":43.33717,"lon":5.391857,"is_reserved":false,"is_disabled":false,"rental_uris":{"android":"levelo://app?vid=2c3064a8-8c58-424d-a087-fe1c048fb0d5","ios":"levelo://app?vid=2c3064a8-8c58-424d-a087-fe1c048fb0d5"},"vehicle_type_id":"4","last_reported":1681135588,"current_range_meters":20400,"station_id":"ce4bhr92rcd13ifvqhsg","pricing_plan_id":"free"},{"bike_id":"472cde19-30fb-4d4e-b413-35f8e087b493","system_id":"levelo_inurba_marseille","lat":43.33716,"lon":5.39192,"is_reserved":false,"is_disabled":false,"rental_uris":{"android":"levelo://app?vid=472cde19-30fb-4d4e-b413-35f8e087b493","ios":"levelo://app?vid=472cde19-30fb-4d4e-b413-35f8e087b493"},"vehicle_type_id":"4","last_reported":1681135588,"current_range_meters":28000,"station_id":"ce4bhr92rcd13ifvqhsg","pricing_plan_id":"free"},{"bike_id":"4c485bfe-6db8-48fc-b75c-73ab286445cd","system_id":"levelo_inurba_marseille","lat":43.33725,"lon":5.39177,"is_reserved":false,"is_disabled":false,"rental_uris":{"android":"levelo://app?vid=4c485bfe-6db8-48fc-b75c-73ab286445cd","ios":"levelo://app?vid=4c485bfe-6db8-48fc-b75c-73ab286445cd"},"vehicle_type_id":"4","last_reported":1681135588,"current_range_meters":30800,"station_id":"ce4bhr92rcd13ifvqhsg","pricing_plan_id":"free"},{"bike_id":"778a8d17-1bfc-4807-94e9-7baa08927775","system_id":"levelo_inurba_marseille","lat":43.33722,"lon":5.39186,"is_reserved":false,"is_disabled":false,"rental_uris":{"android":"levelo://app?vid=778a8d17-1bfc-4807-94e9-7baa08927775","ios":"levelo://app?vid=778a8d17-1bfc-4807-94e9-7baa08927775"},"vehicle_type_id":"4","last_reported":1681135588,"current_range_meters":10800,"station_id":"ce4bhr92rcd13ifvqhsg","pricing_plan_id":"free"},{"bike_id":"80453330-9550-46a9-b980-f317b26f8992","system_id":"levelo_inurba_marseille","lat":43.33725,"lon":5.39183,"is_reserved":false,"is_disabled":false,"rental_uris":{"android":"levelo://app?vid=80453330-9550-46a9-b980-f317b26f8992","ios":"levelo://app?vid=80453330-9550-46a9-b980-f317b26f8992"},"vehicle_type_id":"4","last_reported":1681135588,"current_range_meters":29600,"station_id":"ce4bhr92rcd13ifvqhsg","pricing_plan_id":"free"},{"bike_id":"f499509e-6831-450c-bbf8-31104220ebdf","system_id":"levelo_inurba_marseille","lat":43.33717,"lon":5.391857,"is_reserved":false,"is_disabled":false,"rental_uris":{"android":"levelo://app?vid=f499509e-6831-450c-bbf8-31104220ebdf","ios":"levelo://app?vid=f499509e-6831-450c-bbf8-31104220ebdf"},"vehicle_type_id":"4","last_reported":1681135588,"current_range_meters":21200,"station_id":"ce4bhr92rcd13ifvqhsg","pricing_plan_id":"free"},{"bike_id":"467c92db-e6b8-429b-b6d2-0e7ff44eee1c","system_id":"levelo_inurba_marseille","lat":43.33717,"lon":5.391857,"is_reserved":false,"is_disabled":false,"rental_uris":{"android":"levelo://app?vid=467c92db-e6b8-429b-b6d2-0e7ff44eee1c","ios":"levelo://app?vid=467c92db-e6b8-429b-b6d2-0e7ff44eee1c"},"vehicle_type_id":"4","last_reported":1681135588,"current_range_meters":27600,"station_id":"ce4bhr92rcd13ifvqhsg","pricing_plan_id":"free"},{"bike_id":"d0eb56c3-1f85-4cba-b543-22eb2cbdb307","system_id":"levelo_inurba_marseille","lat":43.33727,"lon":5.39186,"is_reserved":false,"is_disabled":false,"rental_uris":{"android":"levelo://app?vid=d0eb56c3-1f85-4cba-b543-22eb2cbdb307","ios":"levelo://app?vid=d0eb56c3-1f85-4cba-b543-22eb2cbdb307"},"vehicle_type_id":"4","last_reported":1681135588,"current_range_meters":30400,"station_id":"ce4bhr92rcd13ifvqhsg","pricing_plan_id":"free"},{"bike_id":"7505d36b-9c22-4550-bdee-d418c8e4bf76","system_id":"levelo_inurba_marseille","lat":43.32283,"lon":5.40651,"is_reserved":false,"is_disabled":false,"rental_uris":{"android":"levelo://app?vid=7505d36b-9c22-4550-bdee-d418c8e4bf76","ios":"levelo://app?vid=7505d36b-9c22-4550-bdee-d418c8e4bf76"},"vehicle_type_id":"4","last_reported":1681135588,"current_range_meters":28400,"station_id":"","pricing_plan_id":"free"},{"bike_id":"050b7014-35c5-4cd5-abc4-b6f28ac2a1f1","system_id":"levelo_inurba_marseille","lat":43.284793,"lon":5.384113,"is_reserved":false,"is_disabled":false,"rental_uris":{"android":"levelo://app?vid=050b7014-35c5-4cd5-abc4-b6f28ac2a1f1","ios":"levelo://app?vid=050b7014-35c5-4cd5-abc4-b6f28ac2a1f1"},"vehicle_type_id":"4","last_reported":1681135588,"current_range_meters":22400,"station_id":"ce4bh512rcd13ifvqe3g","pricing_plan_id":"free"},{"bike_id":"b5463ac1-45d7-4d53-afff-19e576bcea7f","system_id":"levelo_inurba_marseille","lat":43.288497,"lon":5.393089,"is_reserved":false,"is_disabled":false,"rental_uris":{"android":"levelo://app?vid=b5463ac1-45d7-4d53-afff-19e576bcea7f","ios":"levelo://app?vid=b5463ac1-45d7-4d53-afff-19e576bcea7f"},"vehicle_type_id":"4","last_reported":1681135588,"current_range_meters":26000,"station_id":"ce4bh2p2rcd13ifvqdi0","pricing_plan_id":"free"},{"bike_id":"be71c417-21cd-4242-b9b1-ff39a2365c0a","system_id":"levelo_inurba_marseille","lat":43.288497,"lon":5.393089,"is_reserved":false,"is_disabled":false,"rental_uris":{"android":"levelo://app?vid=be71c417-21cd-4242-b9b1-ff39a2365c0a","ios":"levelo://app?vid=be71c417-21cd-4242-b9b1-ff39a2365c0a"},"vehicle_type_id":"4","last_reported":1681135588,"current_range_meters":31600,"station_id":"ce4bh2p2rcd13ifvqdi0","pricing_plan_id":"free"},{"bike_id":"39bb1f5a-2d4a-4de8-b77f-d5cbf2bf6ef0","system_id":"levelo_inurba_marseille","lat":43.28419,"lon":5.3499,"is_reserved":false,"is_disabled":false,"rental_uris":{"android":"levelo://app?vid=39bb1f5a-2d4a-4de8-b77f-d5cbf2bf6ef0","ios":"levelo://app?vid=39bb1f5a-2d4a-4de8-b77f-d5cbf2bf6ef0"},"vehicle_type_id":"4","last_reported":1681135588,"current_range_meters":27200,"station_id":"ce4bhbh2rcd13ifvqepg","pricing_plan_id":"free"},{"bike_id":"96861991-5f8b-4ff9-a4a9-c29adb08bc89","system_id":"levelo_inurba_marseille","lat":43.284217,"lon":5.349697,"is_reserved":false,"is_disabled":false,"rental_uris":{"android":"levelo://app?vid=96861991-5f8b-4ff9-a4a9-c29adb08bc89","ios":"levelo://app?vid=96861991-5f8b-4ff9-a4a9-c29adb08bc89"},"vehicle_type_id":"4","last_reported":1681135588,"current_range_meters":31600,"station_id":"ce4bhbh2rcd13ifvqepg","pricing_plan_id":"free"},{"bike_id":"6c44c377-7f5c-4431-be0e-00546e463ee6","system_id":"levelo_inurba_marseille","lat":43.284217,"lon":5.349697,"is_reserved":false,"is_disabled":false,"rental_uris":{"android":"levelo://app?vid=6c44c377-7f5c-4431-be0e-00546e463ee6","ios":"levelo://app?vid=6c44c377-7f5c-4431-be0e-00546e463ee6"},"vehicle_type_id":"4","last_reported":1681135588,"current_range_meters":28400,"station_id":"ce4bhbh2rcd13ifvqepg","pricing_plan_id":"free"},{"bike_id":"d7c36c7b-a20f-4ddb-9d96-2bc570ab8e50","system_id":"levelo_inurba_marseille","lat":43.284217,"lon":5.349697,"is_reserved":false,"is_disabled":false,"rental_uris":{"android":"levelo://app?vid=d7c36c7b-a20f-4ddb-9d96-2bc570ab8e50","ios":"levelo://app?vid=d7c36c7b-a20f-4ddb-9d96-2bc570ab8e50"},"vehicle_type_id":"4","last_reported":1681135588,"current_range_meters":26400,"station_id":"ce4bhbh2rcd13ifvqepg","pricing_plan_id":"free"},{"bike_id":"2f6e7fd6-810a-4516-8e66-8f1d1551104e","system_id":"levelo_inurba_marseille","lat":43.284217,"lon":5.349697,"is_reserved":false,"is_disabled":false,"rental_uris":{"android":"levelo://app?vid=2f6e7fd6-810a-4516-8e66-8f1d1551104e","ios":"levelo://app?vid=2f6e7fd6-810a-4516-8e66-8f1d1551104e"},"vehicle_type_id":"4","last_reported":1681135588,"current_range_meters":18000,"station_id":"ce4bhbh2rcd13ifvqepg","pricing_plan_id":"free"},{"bike_id":"df7b20b4-68ce-477e-bf3e-31fe8f08c3bd","system_id":"levelo_inurba_marseille","lat":43.284217,"lon":5.349697,"is_reserved":false,"is_disabled":false,"rental_uris":{"android":"levelo://app?vid=df7b20b4-68ce-477e-bf3e-31fe8f08c3bd","ios":"levelo://app?vid=df7b20b4-68ce-477e-bf3e-31fe8f08c3bd"},"vehicle_type_id":"4","last_reported":1681135588,"current_range_meters":29600,"station_id":"ce4bhbh2rcd13ifvqepg","pricing_plan_id":"free"},{"bike_id":"ed373ae4-d755-4ad8-9043-3230b27796d9","system_id":"levelo_inurba_marseille","lat":43.284217,"lon":5.349697,"is_reserved":false,"is_disabled":false,"rental_uris":{"android":"levelo://app?vid=ed373ae4-d755-4ad8-9043-3230b27796d9","ios":"levelo://app?vid=ed373ae4-d755-4ad8-9043-3230b27796d9"},"vehicle_type_id":"4","last_reported":1681135588,"current_range_meters":20800,"station_id":"ce4bhbh2rcd13ifvqepg","pricing_plan_id":"free"},{"bike_id":"6637bd5a-1c6a-402c-b1d8-9d21b40224bb","system_id":"levelo_inurba_marseille","lat":43.284219,"lon":5.3497,"is_reserved":false,"is_disabled":false,"rental_uris":{"android":"levelo://app?vid=6637bd5a-1c6a-402c-b1d8-9d21b40224bb","ios":"levelo://app?vid=6637bd5a-1c6a-402c-b1d8-9d21b40224bb"},"vehicle_type_id":"4","last_reported":1681135588,"current_range_meters":26000,"station_id":"ce4bhbh2rcd13ifvqepg","pricing_plan_id":"free"},{"bike_id":"9e364f22-41d6-4e37-b592-f9257f2d81b2","system_id":"levelo_inurba_marseille","lat":43.284219,"lon":5.3497,"is_reserved":false,"is_disabled":false,"rental_uris":{"android":"levelo://app?vid=9e364f22-41d6-4e37-b592-f9257f2d81b2","ios":"levelo://app?vid=9e364f22-41d6-4e37-b592-f9257f2d81b2"},"vehicle_type_id":"4","last_reported":1681135588,"current_range_meters":28800,"station_id":"ce4bhbh2rcd13ifvqepg","pricing_plan_id":"free"},{"bike_id":"937e62fc-3b9f-43f5-b8e6-f4646411100d","system_id":"levelo_inurba_marseille","lat":43.284158,"lon":5.3498,"is_reserved":false,"is_disabled":false,"rental_uris":{"android":"levelo://app?vid=937e62fc-3b9f-43f5-b8e6-f4646411100d","ios":"levelo://app?vid=937e62fc-3b9f-43f5-b8e6-f4646411100d"},"vehicle_type_id":"4","last_reported":1681135588,"current_range_meters":25600,"station_id":"ce4bhbh2rcd13ifvqepg","pricing_plan_id":"free"},{"bike_id":"1a8b392b-2e00-4a3f-bb74-59b934686ae2","system_id":"levelo_inurba_marseille","lat":43.284154,"lon":5.349809,"is_reserved":false,"is_disabled":false,"rental_uris":{"android":"levelo://app?vid=1a8b392b-2e00-4a3f-bb74-59b934686ae2","ios":"levelo://app?vid=1a8b392b-2e00-4a3f-bb74-59b934686ae2"},"vehicle_type_id":"4","last_reported":1681135588,"current_range_meters":16400,"station_id":"ce4bhbh2rcd13ifvqepg","pricing_plan_id":"free"},{"bike_id":"dd0dde71-fb5e-4906-9dae-a480b707ed9a","system_id":"levelo_inurba_marseille","lat":43.284151,"lon":5.349794,"is_reserved":false,"is_disabled":false,"rental_uris":{"android":"levelo://app?vid=dd0dde71-fb5e-4906-9dae-a480b707ed9a","ios":"levelo://app?vid=dd0dde71-fb5e-4906-9dae-a480b707ed9a"},"vehicle_type_id":"4","last_reported":1681135588,"current_range_meters":23200,"station_id":"ce4bhbh2rcd13ifvqepg","pricing_plan_id":"free"},{"bike_id":"6325241b-409f-4b9a-aae3-8261bb19c058","system_id":"levelo_inurba_marseille","lat":43.284217,"lon":5.349697,"is_reserved":false,"is_disabled":false,"rental_uris":{"android":"levelo://app?vid=6325241b-409f-4b9a-aae3-8261bb19c058","ios":"levelo://app?vid=6325241b-409f-4b9a-aae3-8261bb19c058"},"vehicle_type_id":"4","last_reported":1681135588,"current_range_meters":15200,"station_id":"ce4bhbh2rcd13ifvqepg","pricing_plan_id":"free"},{"bike_id":"8bb54629-c25e-42b5-98f2-330162137818","system_id":"levelo_inurba_marseille","lat":43.284217,"lon":5.349697,"is_reserved":false,"is_disabled":false,"rental_uris":{"android":"levelo://app?vid=8bb54629-c25e-42b5-98f2-330162137818","ios":"levelo://app?vid=8bb54629-c25e-42b5-98f2-330162137818"},"vehicle_type_id":"4","last_reported":1681135588,"current_range_meters":19600,"station_id":"ce4bhbh2rcd13ifvqepg","pricing_plan_id":"free"},{"bike_id":"854956b0-04a4-4c17-828c-a805f1fe36be","system_id":"levelo_inurba_marseille","lat":43.284217,"lon":5.349697,"is_reserved":false,"is_disabled":false,"rental_uris":{"android":"levelo://app?vid=854956b0-04a4-4c17-828c-a805f1fe36be","ios":"levelo://app?vid=854956b0-04a4-4c17-828c-a805f1fe36be"},"vehicle_type_id":"4","last_reported":1681135588,"current_range_meters":31600,"station_id":"ce4bhbh2rcd13ifvqepg","pricing_plan_id":"free"},{"bike_id":"472548f0-eb39-4d18-a893-562ff723141c","system_id":"levelo_inurba_marseille","lat":43.292724,"lon":5.401131,"is_reserved":false,"is_disabled":false,"rental_uris":{"android":"levelo://app?vid=472548f0-eb39-4d18-a893-562ff723141c","ios":"levelo://app?vid=472548f0-eb39-4d18-a893-562ff723141c"},"vehicle_type_id":"4","last_reported":1681135588,"current_range_meters":5200,"station_id":"ce4bh312rcd13ifvqdk0","pricing_plan_id":"free"},{"bike_id":"ae4baa1b-f89a-4a69-ab0d-a0d9c65b95cf","system_id":"levelo_inurba_marseille","lat":43.292724,"lon":5.401131,"is_reserved":false,"is_disabled":false,"rental_uris":{"android":"levelo://app?vid=ae4baa1b-f89a-4a69-ab0d-a0d9c65b95cf","ios":"levelo://app?vid=ae4baa1b-f89a-4a69-ab0d-a0d9c65b95cf"},"vehicle_type_id":"4","last_reported":1681135588,"current_range_meters":800,"station_id":"ce4bh312rcd13ifvqdk0","pricing_plan_id":"free"},{"bike_id":"7cb85dc1-2e54-42a3-bc4f-2f35e180d2d1","system_id":"levelo_inurba_marseille","lat":43.292724,"lon":5.401131,"is_reserved":false,"is_disabled":false,"rental_uris":{"android":"levelo://app?vid=7cb85dc1-2e54-42a3-bc4f-2f35e180d2d1","ios":"levelo://app?vid=7cb85dc1-2e54-42a3-bc4f-2f35e180d2d1"},"vehicle_type_id":"4","last_reported":1681135588,"current_range_meters":0,"station_id":"ce4bh312rcd13ifvqdk0","pricing_plan_id":"free"},{"bike_id":"fb987c51-0ae5-45a6-a6b1-aeeb37499525","system_id":"levelo_inurba_marseille","lat":43.32608,"lon":5.40704,"is_reserved":false,"is_disabled":false,"rental_uris":{"android":"levelo://app?vid=fb987c51-0ae5-45a6-a6b1-aeeb37499525","ios":"levelo://app?vid=fb987c51-0ae5-45a6-a6b1-aeeb37499525"},"vehicle_type_id":"4","last_reported":1681135588,"current_range_meters":0,"station_id":"","pricing_plan_id":"free"},{"bike_id":"a21c7534-5f16-4621-bd06-68e12b3eb250","system_id":"levelo_inurba_marseille","lat":43.28275,"lon":5.35076,"is_reserved":false,"is_disabled":false,"rental_uris":{"android":"levelo://app?vid=a21c7534-5f16-4621-bd06-68e12b3eb250","ios":"levelo://app?vid=a21c7534-5f16-4621-bd06-68e12b3eb250"},"vehicle_type_id":"4","last_reported":1681135588,"current_range_meters":7600,"station_id":"ce4bhbp2rcd13ifvqerg","pricing_plan_id":"free"},{"bike_id":"a6154352-6b18-4309-81b9-820cb581f9bf","system_id":"levelo_inurba_marseille","lat":43.282754,"lon":5.350519,"is_reserved":false,"is_disabled":false,"rental_uris":{"android":"levelo://app?vid=a6154352-6b18-4309-81b9-820cb581f9bf","ios":"levelo://app?vid=a6154352-6b18-4309-81b9-820cb581f9bf"},"vehicle_type_id":"4","last_reported":1681135588,"current_range_meters":26000,"station_id":"ce4bhbp2rcd13ifvqerg","pricing_plan_id":"free"},{"bike_id":"c1117bed-95d5-45a2-bc9c-b2c5110ede69","system_id":"levelo_inurba_marseille","lat":43.282754,"lon":5.350519,"is_reserved":false,"is_disabled":false,"rental_uris":{"android":"levelo://app?vid=c1117bed-95d5-45a2-bc9c-b2c5110ede69","ios":"levelo://app?vid=c1117bed-95d5-45a2-bc9c-b2c5110ede69"},"vehicle_type_id":"4","last_reported":1681135588,"current_range_meters":14800,"station_id":"ce4bhbp2rcd13ifvqerg","pricing_plan_id":"free"},{"bike_id":"99f7ba31-c9d6-4aef-8e31-87e2a5e3daee","system_id":"levelo_inurba_marseille","lat":43.282744,"lon":5.350533,"is_reserved":false,"is_disabled":false,"rental_uris":{"android":"levelo://app?vid=99f7ba31-c9d6-4aef-8e31-87e2a5e3daee","ios":"levelo://app?vid=99f7ba31-c9d6-4aef-8e31-87e2a5e3daee"},"vehicle_type_id":"4","last_reported":1681135588,"current_range_meters":24400,"station_id":"ce4bhbp2rcd13ifvqerg","pricing_plan_id":"free"},{"bike_id":"fcb7d222-7d2d-43c6-9cec-52135c81092f","system_id":"levelo_inurba_marseille","lat":43.282744,"lon":5.350533,"is_reserved":false,"is_disabled":false,"rental_uris":{"android":"levelo://app?vid=fcb7d222-7d2d-43c6-9cec-52135c81092f","ios":"levelo://app?vid=fcb7d222-7d2d-43c6-9cec-52135c81092f"},"vehicle_type_id":"4","last_reported":1681135588,"current_range_meters":23200,"station_id":"ce4bhbp2rcd13ifvqerg","pricing_plan_id":"free"},{"bike_id":"83b09c51-2333-4ba5-bba6-59c3edf21dca","system_id":"levelo_inurba_marseille","lat":43.282744,"lon":5.350533,"is_reserved":false,"is_disabled":false,"rental_uris":{"android":"levelo://app?vid=83b09c51-2333-4ba5-bba6-59c3edf21dca","ios":"levelo://app?vid=83b09c51-2333-4ba5-bba6-59c3edf21dca"},"vehicle_type_id":"4","last_reported":1681135588,"current_range_meters":18000,"station_id":"ce4bhbp2rcd13ifvqerg","pricing_plan_id":"free"},{"bike_id":"20147824-e008-4efb-b850-b01b034bde8c","system_id":"levelo_inurba_marseille","lat":43.282744,"lon":5.350533,"is_reserved":false,"is_disabled":false,"rental_uris":{"android":"levelo://app?vid=20147824-e008-4efb-b850-b01b034bde8c","ios":"levelo://app?vid=20147824-e008-4efb-b850-b01b034bde8c"},"vehicle_type_id":"4","last_reported":1681135588,"current_range_meters":6800,"station_id":"ce4bhbp2rcd13ifvqerg","pricing_plan_id":"free"},{"bike_id":"b45fb222-bafe-4096-a4c1-b6bb986abf25","system_id":"levelo_inurba_marseille","lat":43.28269,"lon":5.35081,"is_reserved":false,"is_disabled":false,"rental_uris":{"android":"levelo://app?vid=b45fb222-bafe-4096-a4c1-b6bb986abf25","ios":"levelo://app?vid=b45fb222-bafe-4096-a4c1-b6bb986abf25"},"vehicle_type_id":"4","last_reported":1681135588,"current_range_meters":23200,"station_id":"ce4bhbp2rcd13ifvqerg","pricing_plan_id":"free"},{"bike_id":"43a8d4c0-a343-4fca-8ea7-3b886a2e0724","system_id":"levelo_inurba_marseille","lat":43.282744,"lon":5.350533,"is_reserved":false,"is_disabled":false,"rental_uris":{"android":"levelo://app?vid=43a8d4c0-a343-4fca-8ea7-3b886a2e0724","ios":"levelo://app?vid=43a8d4c0-a343-4fca-8ea7-3b886a2e0724"},"vehicle_type_id":"4","last_reported":1681135588,"current_range_meters":13600,"station_id":"ce4bhbp2rcd13ifvqerg","pricing_plan_id":"free"},{"bike_id":"143ba1ee-2e76-40cd-ad4d-c9ec6f627c6b","system_id":"levelo_inurba_marseille","lat":43.282744,"lon":5.350533,"is_reserved":false,"is_disabled":false,"rental_uris":{"android":"levelo://app?vid=143ba1ee-2e76-40cd-ad4d-c9ec6f627c6b","ios":"levelo://app?vid=143ba1ee-2e76-40cd-ad4d-c9ec6f627c6b"},"vehicle_type_id":"4","last_reported":1681135588,"current_range_meters":23600,"station_id":"ce4bhbp2rcd13ifvqerg","pricing_plan_id":"free"},{"bike_id":"cbab508c-1912-4868-a932-eade1d2e935e","system_id":"levelo_inurba_marseille","lat":43.282744,"lon":5.350533,"is_reserved":false,"is_disabled":false,"rental_uris":{"android":"levelo://app?vid=cbab508c-1912-4868-a932-eade1d2e935e","ios":"levelo://app?vid=cbab508c-1912-4868-a932-eade1d2e935e"},"vehicle_type_id":"4","last_reported":1681135588,"current_range_meters":24800,"station_id":"ce4bhbp2rcd13ifvqerg","pricing_plan_id":"free"},{"bike_id":"a604e8ea-da01-4a66-89d0-874ff6071731","system_id":"levelo_inurba_marseille","lat":43.282726,"lon":5.350645,"is_reserved":false,"is_disabled":false,"rental_uris":{"android":"levelo://app?vid=a604e8ea-da01-4a66-89d0-874ff6071731","ios":"levelo://app?vid=a604e8ea-da01-4a66-89d0-874ff6071731"},"vehicle_type_id":"4","last_reported":1681135588,"current_range_meters":20000,"station_id":"ce4bhbp2rcd13ifvqerg","pricing_plan_id":"free"},{"bike_id":"a44d90da-d50a-486a-8591-104afb74dbf8","system_id":"levelo_inurba_marseille","lat":43.282716,"lon":5.350666,"is_reserved":false,"is_disabled":false,"rental_uris":{"android":"levelo://app?vid=a44d90da-d50a-486a-8591-104afb74dbf8","ios":"levelo://app?vid=a44d90da-d50a-486a-8591-104afb74dbf8"},"vehicle_type_id":"4","last_reported":1681135588,"current_range_meters":14000,"station_id":"ce4bhbp2rcd13ifvqerg","pricing_plan_id":"free"},{"bike_id":"a36964eb-943b-47c5-9a2a-451e4d262dcf","system_id":"levelo_inurba_marseille","lat":43.282693,"lon":5.35066,"is_reserved":false,"is_disabled":false,"rental_uris":{"android":"levelo://app?vid=a36964eb-943b-47c5-9a2a-451e4d262dcf","ios":"levelo://app?vid=a36964eb-943b-47c5-9a2a-451e4d262dcf"},"vehicle_type_id":"4","last_reported":1681135588,"current_range_meters":2400,"station_id":"ce4bhbp2rcd13ifvqerg","pricing_plan_id":"free"},{"bike_id":"46fff6bd-e307-4603-a0f3-39ba931a50d8","system_id":"levelo_inurba_marseille","lat":43.282754,"lon":5.350519,"is_reserved":false,"is_disabled":false,"rental_uris":{"android":"levelo://app?vid=46fff6bd-e307-4603-a0f3-39ba931a50d8","ios":"levelo://app?vid=46fff6bd-e307-4603-a0f3-39ba931a50d8"},"vehicle_type_id":"4","last_reported":1681135588,"current_range_meters":21600,"station_id":"ce4bhbp2rcd13ifvqerg","pricing_plan_id":"free"},{"bike_id":"eb4aa1cf-63fe-4930-a6d0-6624fff87a6a","system_id":"levelo_inurba_marseille","lat":43.282754,"lon":5.350519,"is_reserved":false,"is_disabled":false,"rental_uris":{"android":"levelo://app?vid=eb4aa1cf-63fe-4930-a6d0-6624fff87a6a","ios":"levelo://app?vid=eb4aa1cf-63fe-4930-a6d0-6624fff87a6a"},"vehicle_type_id":"4","last_reported":1681135588,"current_range_meters":19200,"station_id":"ce4bhbp2rcd13ifvqerg","pricing_plan_id":"free"},{"bike_id":"7f0b5ede-eda1-4db4-828c-67c1fb523f63","system_id":"levelo_inurba_marseille","lat":43.282754,"lon":5.350519,"is_reserved":false,"is_disabled":false,"rental_uris":{"android":"levelo://app?vid=7f0b5ede-eda1-4db4-828c-67c1fb523f63","ios":"levelo://app?vid=7f0b5ede-eda1-4db4-828c-67c1fb523f63"},"vehicle_type_id":"4","last_reported":1681135588,"current_range_meters":22800,"station_id":"ce4bhbp2rcd13ifvqerg","pricing_plan_id":"free"},{"bike_id":"1ea0feed-4f2e-4078-8453-450ae1e6873a","system_id":"levelo_inurba_marseille","lat":43.282754,"lon":5.350519,"is_reserved":false,"is_disabled":false,"rental_uris":{"android":"levelo://app?vid=1ea0feed-4f2e-4078-8453-450ae1e6873a","ios":"levelo://app?vid=1ea0feed-4f2e-4078-8453-450ae1e6873a"},"vehicle_type_id":"4","last_reported":1681135588,"current_range_meters":13600,"station_id":"ce4bhbp2rcd13ifvqerg","pricing_plan_id":"free"},{"bike_id":"cb4003b9-9416-4af0-b713-64d4609024e5","system_id":"levelo_inurba_marseille","lat":43.282744,"lon":5.350533,"is_reserved":false,"is_disabled":false,"rental_uris":{"android":"levelo://app?vid=cb4003b9-9416-4af0-b713-64d4609024e5","ios":"levelo://app?vid=cb4003b9-9416-4af0-b713-64d4609024e5"},"vehicle_type_id":"4","last_reported":1681135588,"current_range_meters":20400,"station_id":"ce4bhbp2rcd13ifvqerg","pricing_plan_id":"free"},{"bike_id":"a10a9872-1a4c-4e60-828e-9772ec74ec53","system_id":"levelo_inurba_marseille","lat":43.282744,"lon":5.350533,"is_reserved":false,"is_disabled":false,"rental_uris":{"android":"levelo://app?vid=a10a9872-1a4c-4e60-828e-9772ec74ec53","ios":"levelo://app?vid=a10a9872-1a4c-4e60-828e-9772ec74ec53"},"vehicle_type_id":"4","last_reported":1681135588,"current_range_meters":10800,"station_id":"ce4bhbp2rcd13ifvqerg","pricing_plan_id":"free"},{"bike_id":"e31d8c38-d6de-42be-92d5-01f0bcf56617","system_id":"levelo_inurba_marseille","lat":43.282744,"lon":5.350533,"is_reserved":false,"is_disabled":false,"rental_uris":{"android":"levelo://app?vid=e31d8c38-d6de-42be-92d5-01f0bcf56617","ios":"levelo://app?vid=e31d8c38-d6de-42be-92d5-01f0bcf56617"},"vehicle_type_id":"4","last_reported":1681135588,"current_range_meters":13200,"station_id":"ce4bhbp2rcd13ifvqerg","pricing_plan_id":"free"},{"bike_id":"06c1fbab-688e-460e-90d5-91f244e11806","system_id":"levelo_inurba_marseille","lat":43.282744,"lon":5.350533,"is_reserved":false,"is_disabled":false,"rental_uris":{"android":"levelo://app?vid=06c1fbab-688e-460e-90d5-91f244e11806","ios":"levelo://app?vid=06c1fbab-688e-460e-90d5-91f244e11806"},"vehicle_type_id":"4","last_reported":1681135588,"current_range_meters":20000,"station_id":"ce4bhbp2rcd13ifvqerg","pricing_plan_id":"free"},{"bike_id":"080388b3-9bde-4f6f-b909-18ce901309d9","system_id":"levelo_inurba_marseille","lat":43.28039,"lon":5.369297,"is_reserved":false,"is_disabled":false,"rental_uris":{"android":"levelo://app?vid=080388b3-9bde-4f6f-b909-18ce901309d9","ios":"levelo://app?vid=080388b3-9bde-4f6f-b909-18ce901309d9"},"vehicle_type_id":"4","last_reported":1681135588,"current_range_meters":19600,"station_id":"ce4bha12rcd13ifvqef0","pricing_plan_id":"free"},{"bike_id":"d343ae5b-132a-42dc-b3b4-883b5c785768","system_id":"levelo_inurba_marseille","lat":43.280382,"lon":5.369291,"is_reserved":false,"is_disabled":false,"rental_uris":{"android":"levelo://app?vid=d343ae5b-132a-42dc-b3b4-883b5c785768","ios":"levelo://app?vid=d343ae5b-132a-42dc-b3b4-883b5c785768"},"vehicle_type_id":"4","last_reported":1681135588,"current_range_meters":21600,"station_id":"ce4bha12rcd13ifvqef0","pricing_plan_id":"free"},{"bike_id":"b98d7294-fab9-4ef5-8b5e-d9f5062c7a91","system_id":"levelo_inurba_marseille","lat":43.280382,"lon":5.369291,"is_reserved":false,"is_disabled":false,"rental_uris":{"android":"levelo://app?vid=b98d7294-fab9-4ef5-8b5e-d9f5062c7a91","ios":"levelo://app?vid=b98d7294-fab9-4ef5-8b5e-d9f5062c7a91"},"vehicle_type_id":"4","last_reported":1681135588,"current_range_meters":26800,"station_id":"ce4bha12rcd13ifvqef0","pricing_plan_id":"free"},{"bike_id":"1445afe3-3170-4339-be4f-4a301372eb46","system_id":"levelo_inurba_marseille","lat":43.28039,"lon":5.369297,"is_reserved":false,"is_disabled":false,"rental_uris":{"android":"levelo://app?vid=1445afe3-3170-4339-be4f-4a301372eb46","ios":"levelo://app?vid=1445afe3-3170-4339-be4f-4a301372eb46"},"vehicle_type_id":"4","last_reported":1681135588,"current_range_meters":29600,"station_id":"ce4bha12rcd13ifvqef0","pricing_plan_id":"free"},{"bike_id":"f15ff222-4b7e-411d-8893-bb46f32c46a5","system_id":"levelo_inurba_marseille","lat":43.28439,"lon":5.39184,"is_reserved":false,"is_disabled":false,"rental_uris":{"android":"levelo://app?vid=f15ff222-4b7e-411d-8893-bb46f32c46a5","ios":"levelo://app?vid=f15ff222-4b7e-411d-8893-bb46f32c46a5"},"vehicle_type_id":"4","last_reported":1681135588,"current_range_meters":0,"station_id":"ce4bhoh2rcd13ifvqh5g","pricing_plan_id":"free"},{"bike_id":"e9c04643-4163-49ad-ab67-25a19b44bb51","system_id":"levelo_inurba_marseille","lat":43.284462,"lon":5.392121,"is_reserved":false,"is_disabled":false,"rental_uris":{"android":"levelo://app?vid=e9c04643-4163-49ad-ab67-25a19b44bb51","ios":"levelo://app?vid=e9c04643-4163-49ad-ab67-25a19b44bb51"},"vehicle_type_id":"4","last_reported":1681135588,"current_range_meters":16400,"station_id":"ce4bhoh2rcd13ifvqh5g","pricing_plan_id":"free"},{"bike_id":"05230d22-3498-4231-88e2-9e9744edd7a5","system_id":"levelo_inurba_marseille","lat":43.284462,"lon":5.392121,"is_reserved":false,"is_disabled":false,"rental_uris":{"android":"levelo://app?vid=05230d22-3498-4231-88e2-9e9744edd7a5","ios":"levelo://app?vid=05230d22-3498-4231-88e2-9e9744edd7a5"},"vehicle_type_id":"4","last_reported":1681135588,"current_range_meters":29200,"station_id":"ce4bhoh2rcd13ifvqh5g","pricing_plan_id":"free"},{"bike_id":"f5ab6d56-aad8-4a71-87f7-0c96ec78be7f","system_id":"levelo_inurba_marseille","lat":43.304188,"lon":5.412904,"is_reserved":false,"is_disabled":false,"rental_uris":{"android":"levelo://app?vid=f5ab6d56-aad8-4a71-87f7-0c96ec78be7f","ios":"levelo://app?vid=f5ab6d56-aad8-4a71-87f7-0c96ec78be7f"},"vehicle_type_id":"4","last_reported":1681135588,"current_range_meters":28800,"station_id":"ce4bhop2rcd13ifvqh8g","pricing_plan_id":"free"},{"bike_id":"91ada182-2c78-4f4b-9843-c884ed3307ad","system_id":"levelo_inurba_marseille","lat":43.304188,"lon":5.412904,"is_reserved":false,"is_disabled":false,"rental_uris":{"android":"levelo://app?vid=91ada182-2c78-4f4b-9843-c884ed3307ad","ios":"levelo://app?vid=91ada182-2c78-4f4b-9843-c884ed3307ad"},"vehicle_type_id":"4","last_reported":1681135588,"current_range_meters":24000,"station_id":"ce4bhop2rcd13ifvqh8g","pricing_plan_id":"free"},{"bike_id":"b458a0fe-7863-4e09-bcd5-df0cda3fea4c","system_id":"levelo_inurba_marseille","lat":43.287154,"lon":5.399979,"is_reserved":false,"is_disabled":false,"rental_uris":{"android":"levelo://app?vid=b458a0fe-7863-4e09-bcd5-df0cda3fea4c","ios":"levelo://app?vid=b458a0fe-7863-4e09-bcd5-df0cda3fea4c"},"vehicle_type_id":"4","last_reported":1681135588,"current_range_meters":23600,"station_id":"ce4bho92rcd13ifvqh3g","pricing_plan_id":"free"},{"bike_id":"36cac5d4-dea8-4112-b29f-288818506e22","system_id":"levelo_inurba_marseille","lat":43.320045,"lon":5.415048,"is_reserved":false,"is_disabled":false,"rental_uris":{"android":"levelo://app?vid=36cac5d4-dea8-4112-b29f-288818506e22","ios":"levelo://app?vid=36cac5d4-dea8-4112-b29f-288818506e22"},"vehicle_type_id":"4","last_reported":1681135588,"current_range_meters":27600,"station_id":"ce4bhq92rcd13ifvqhkg","pricing_plan_id":"free"},{"bike_id":"55934cf5-d6da-44b9-b983-4960c63fae06","system_id":"levelo_inurba_marseille","lat":43.32545,"lon":5.41417,"is_reserved":false,"is_disabled":false,"rental_uris":{"android":"levelo://app?vid=55934cf5-d6da-44b9-b983-4960c63fae06","ios":"levelo://app?vid=55934cf5-d6da-44b9-b983-4960c63fae06"},"vehicle_type_id":"4","last_reported":1681135588,"current_range_meters":27600,"station_id":"ce4bhq12rcd13ifvqhhg","pricing_plan_id":"free"},{"bike_id":"b857f31b-88fc-4089-b8d4-66728e948f37","system_id":"levelo_inurba_marseille","lat":43.32532,"lon":5.41436,"is_reserved":false,"is_disabled":false,"rental_uris":{"android":"levelo://app?vid=b857f31b-88fc-4089-b8d4-66728e948f37","ios":"levelo://app?vid=b857f31b-88fc-4089-b8d4-66728e948f37"},"vehicle_type_id":"4","last_reported":1681135588,"current_range_meters":31200,"station_id":"ce4bhq12rcd13ifvqhhg","pricing_plan_id":"free"},{"bike_id":"7891528c-a3e5-463d-9d0b-4bb91ff2fbcb","system_id":"levelo_inurba_marseille","lat":43.27618,"lon":5.361009,"is_reserved":false,"is_disabled":false,"rental_uris":{"android":"levelo://app?vid=7891528c-a3e5-463d-9d0b-4bb91ff2fbcb","ios":"levelo://app?vid=7891528c-a3e5-463d-9d0b-4bb91ff2fbcb"},"vehicle_type_id":"4","last_reported":1681135588,"current_range_meters":18400,"station_id":"ce4bgj92rcd13ifvqbe0","pricing_plan_id":"free"},{"bike_id":"cb5daba0-072f-4db4-aa44-38c6a1af1af8","system_id":"levelo_inurba_marseille","lat":43.27618,"lon":5.361009,"is_reserved":false,"is_disabled":false,"rental_uris":{"android":"levelo://app?vid=cb5daba0-072f-4db4-aa44-38c6a1af1af8","ios":"levelo://app?vid=cb5daba0-072f-4db4-aa44-38c6a1af1af8"},"vehicle_type_id":"4","last_reported":1681135588,"current_range_meters":22400,"station_id":"ce4bgj92rcd13ifvqbe0","pricing_plan_id":"free"},{"bike_id":"50279afd-ec4f-4a80-8db5-93230654d453","system_id":"levelo_inurba_marseille","lat":43.273613,"lon":5.362705,"is_reserved":false,"is_disabled":false,"rental_uris":{"android":"levelo://app?vid=50279afd-ec4f-4a80-8db5-93230654d453","ios":"levelo://app?vid=50279afd-ec4f-4a80-8db5-93230654d453"},"vehicle_type_id":"4","last_reported":1681135588,"current_range_meters":24000,"station_id":"ce4bhbh2rcd13ifvqeo0","pricing_plan_id":"free"},{"bike_id":"2676177b-6736-4bf4-b261-3214d49ee8cf","system_id":"levelo_inurba_marseille","lat":43.273613,"lon":5.362705,"is_reserved":false,"is_disabled":false,"rental_uris":{"android":"levelo://app?vid=2676177b-6736-4bf4-b261-3214d49ee8cf","ios":"levelo://app?vid=2676177b-6736-4bf4-b261-3214d49ee8cf"},"vehicle_type_id":"4","last_reported":1681135588,"current_range_meters":18400,"station_id":"ce4bhbh2rcd13ifvqeo0","pricing_plan_id":"free"},{"bike_id":"2787d8e2-bbfd-4db2-9cf2-1366940cbd93","system_id":"levelo_inurba_marseille","lat":43.33608,"lon":5.40999,"is_reserved":false,"is_disabled":false,"rental_uris":{"android":"levelo://app?vid=2787d8e2-bbfd-4db2-9cf2-1366940cbd93","ios":"levelo://app?vid=2787d8e2-bbfd-4db2-9cf2-1366940cbd93"},"vehicle_type_id":"4","last_reported":1681135588,"current_range_meters":30400,"station_id":"ce4bhqh2rcd13ifvqhmg","pricing_plan_id":"free"},{"bike_id":"2503674d-591c-4571-ae1b-a716dbd74e05","system_id":"levelo_inurba_marseille","lat":43.273613,"lon":5.362705,"is_reserved":false,"is_disabled":false,"rental_uris":{"android":"levelo://app?vid=2503674d-591c-4571-ae1b-a716dbd74e05","ios":"levelo://app?vid=2503674d-591c-4571-ae1b-a716dbd74e05"},"vehicle_type_id":"4","last_reported":1681135588,"current_range_meters":5600,"station_id":"ce4bhbh2rcd13ifvqeo0","pricing_plan_id":"free"},{"bike_id":"70fddc53-f610-411e-9f97-1ff7b8a99bde","system_id":"levelo_inurba_marseille","lat":43.273613,"lon":5.362705,"is_reserved":false,"is_disabled":false,"rental_uris":{"android":"levelo://app?vid=70fddc53-f610-411e-9f97-1ff7b8a99bde","ios":"levelo://app?vid=70fddc53-f610-411e-9f97-1ff7b8a99bde"},"vehicle_type_id":"4","last_reported":1681135588,"current_range_meters":18000,"station_id":"ce4bhbh2rcd13ifvqeo0","pricing_plan_id":"free"},{"bike_id":"55d1e984-0f8f-4467-acaf-cb0a69b585de","system_id":"levelo_inurba_marseille","lat":43.27376,"lon":5.36262,"is_reserved":false,"is_disabled":false,"rental_uris":{"android":"levelo://app?vid=55d1e984-0f8f-4467-acaf-cb0a69b585de","ios":"levelo://app?vid=55d1e984-0f8f-4467-acaf-cb0a69b585de"},"vehicle_type_id":"4","last_reported":1681135588,"current_range_meters":29200,"station_id":"ce4bhbh2rcd13ifvqeo0","pricing_plan_id":"free"},{"bike_id":"876edb8c-307d-43b3-8c6d-8a19ecd7e783","system_id":"levelo_inurba_marseille","lat":43.273613,"lon":5.362705,"is_reserved":false,"is_disabled":false,"rental_uris":{"android":"levelo://app?vid=876edb8c-307d-43b3-8c6d-8a19ecd7e783","ios":"levelo://app?vid=876edb8c-307d-43b3-8c6d-8a19ecd7e783"},"vehicle_type_id":"4","last_reported":1681135588,"current_range_meters":5600,"station_id":"ce4bhbh2rcd13ifvqeo0","pricing_plan_id":"free"},{"bike_id":"7e26fc48-3c5f-46be-aab4-e1ea1fee2420","system_id":"levelo_inurba_marseille","lat":43.273613,"lon":5.362705,"is_reserved":false,"is_disabled":false,"rental_uris":{"android":"levelo://app?vid=7e26fc48-3c5f-46be-aab4-e1ea1fee2420","ios":"levelo://app?vid=7e26fc48-3c5f-46be-aab4-e1ea1fee2420"},"vehicle_type_id":"4","last_reported":1681135588,"current_range_meters":1200,"station_id":"ce4bhbh2rcd13ifvqeo0","pricing_plan_id":"free"},{"bike_id":"f42a0186-33a5-41fd-a4d4-6afffe079baf","system_id":"levelo_inurba_marseille","lat":43.273613,"lon":5.362705,"is_reserved":false,"is_disabled":false,"rental_uris":{"android":"levelo://app?vid=f42a0186-33a5-41fd-a4d4-6afffe079baf","ios":"levelo://app?vid=f42a0186-33a5-41fd-a4d4-6afffe079baf"},"vehicle_type_id":"4","last_reported":1681135588,"current_range_meters":25200,"station_id":"ce4bhbh2rcd13ifvqeo0","pricing_plan_id":"free"},{"bike_id":"b45c71d3-87d9-4f19-80ec-bcec554cb86e","system_id":"levelo_inurba_marseille","lat":43.273609,"lon":5.362708,"is_reserved":false,"is_disabled":false,"rental_uris":{"android":"levelo://app?vid=b45c71d3-87d9-4f19-80ec-bcec554cb86e","ios":"levelo://app?vid=b45c71d3-87d9-4f19-80ec-bcec554cb86e"},"vehicle_type_id":"4","last_reported":1681135588,"current_range_meters":26000,"station_id":"ce4bhbh2rcd13ifvqeo0","pricing_plan_id":"free"},{"bike_id":"168ee449-5bc8-4cd6-bbf6-9a4ac698e2c7","system_id":"levelo_inurba_marseille","lat":43.33612,"lon":5.410321,"is_reserved":false,"is_disabled":false,"rental_uris":{"android":"levelo://app?vid=168ee449-5bc8-4cd6-bbf6-9a4ac698e2c7","ios":"levelo://app?vid=168ee449-5bc8-4cd6-bbf6-9a4ac698e2c7"},"vehicle_type_id":"4","last_reported":1681135588,"current_range_meters":32000,"station_id":"ce4bhqh2rcd13ifvqhmg","pricing_plan_id":"free"},{"bike_id":"618a5acd-0b37-4aaf-b933-d7ef1719f4a0","system_id":"levelo_inurba_marseille","lat":43.276769,"lon":5.388787,"is_reserved":false,"is_disabled":false,"rental_uris":{"android":"levelo://app?vid=618a5acd-0b37-4aaf-b933-d7ef1719f4a0","ios":"levelo://app?vid=618a5acd-0b37-4aaf-b933-d7ef1719f4a0"},"vehicle_type_id":"4","last_reported":1681135588,"current_range_meters":19200,"station_id":"ce4bhi12rcd13ifvqfo0","pricing_plan_id":"free"},{"bike_id":"038b74a3-0de6-4a2c-ba2f-591afbfb9c06","system_id":"levelo_inurba_marseille","lat":43.33612,"lon":5.410321,"is_reserved":false,"is_disabled":false,"rental_uris":{"android":"levelo://app?vid=038b74a3-0de6-4a2c-ba2f-591afbfb9c06","ios":"levelo://app?vid=038b74a3-0de6-4a2c-ba2f-591afbfb9c06"},"vehicle_type_id":"4","last_reported":1681135588,"current_range_meters":20800,"station_id":"ce4bhqh2rcd13ifvqhmg","pricing_plan_id":"free"},{"bike_id":"c73c48e4-a690-44e8-a1ec-01ab24975799","system_id":"levelo_inurba_marseille","lat":43.33612,"lon":5.410321,"is_reserved":false,"is_disabled":false,"rental_uris":{"android":"levelo://app?vid=c73c48e4-a690-44e8-a1ec-01ab24975799","ios":"levelo://app?vid=c73c48e4-a690-44e8-a1ec-01ab24975799"},"vehicle_type_id":"4","last_reported":1681135588,"current_range_meters":31600,"station_id":"ce4bhqh2rcd13ifvqhmg","pricing_plan_id":"free"},{"bike_id":"c479049c-f646-4e6e-bb58-8d90e904f67a","system_id":"levelo_inurba_marseille","lat":43.3362,"lon":5.41023,"is_reserved":false,"is_disabled":false,"rental_uris":{"android":"levelo://app?vid=c479049c-f646-4e6e-bb58-8d90e904f67a","ios":"levelo://app?vid=c479049c-f646-4e6e-bb58-8d90e904f67a"},"vehicle_type_id":"4","last_reported":1681135588,"current_range_meters":28800,"station_id":"ce4bhqh2rcd13ifvqhmg","pricing_plan_id":"free"},{"bike_id":"a37d7a75-3d30-4c9f-b637-2b192351fa6b","system_id":"levelo_inurba_marseille","lat":43.33612,"lon":5.410321,"is_reserved":false,"is_disabled":false,"rental_uris":{"android":"levelo://app?vid=a37d7a75-3d30-4c9f-b637-2b192351fa6b","ios":"levelo://app?vid=a37d7a75-3d30-4c9f-b637-2b192351fa6b"},"vehicle_type_id":"4","last_reported":1681135588,"current_range_meters":16800,"station_id":"ce4bhqh2rcd13ifvqhmg","pricing_plan_id":"free"},{"bike_id":"ece30483-186e-498c-89c5-1fbac3df6fbc","system_id":"levelo_inurba_marseille","lat":43.33614,"lon":5.41038,"is_reserved":false,"is_disabled":false,"rental_uris":{"android":"levelo://app?vid=ece30483-186e-498c-89c5-1fbac3df6fbc","ios":"levelo://app?vid=ece30483-186e-498c-89c5-1fbac3df6fbc"},"vehicle_type_id":"4","last_reported":1681135588,"current_range_meters":31200,"station_id":"ce4bhqh2rcd13ifvqhmg","pricing_plan_id":"free"},{"bike_id":"1c212342-964f-4ab6-8d42-5aaac6ba2deb","system_id":"levelo_inurba_marseille","lat":43.336134,"lon":5.410341,"is_reserved":false,"is_disabled":false,"rental_uris":{"android":"levelo://app?vid=1c212342-964f-4ab6-8d42-5aaac6ba2deb","ios":"levelo://app?vid=1c212342-964f-4ab6-8d42-5aaac6ba2deb"},"vehicle_type_id":"4","last_reported":1681135588,"current_range_meters":31200,"station_id":"ce4bhqh2rcd13ifvqhmg","pricing_plan_id":"free"},{"bike_id":"8a06e3de-fa5c-4262-aba8-57c272c1202d","system_id":"levelo_inurba_marseille","lat":43.31724,"lon":5.42399,"is_reserved":false,"is_disabled":false,"rental_uris":{"android":"levelo://app?vid=8a06e3de-fa5c-4262-aba8-57c272c1202d","ios":"levelo://app?vid=8a06e3de-fa5c-4262-aba8-57c272c1202d"},"vehicle_type_id":"4","last_reported":1681135588,"current_range_meters":30800,"station_id":"ce4bhp92rcd13ifvqhbg","pricing_plan_id":"free"},{"bike_id":"e3d2dc88-d239-49a4-955b-252d30c2199a","system_id":"levelo_inurba_marseille","lat":43.310785,"lon":5.424305,"is_reserved":false,"is_disabled":false,"rental_uris":{"android":"levelo://app?vid=e3d2dc88-d239-49a4-955b-252d30c2199a","ios":"levelo://app?vid=e3d2dc88-d239-49a4-955b-252d30c2199a"},"vehicle_type_id":"4","last_reported":1681135588,"current_range_meters":31200,"station_id":"ce4bhp92rcd13ifvqhag","pricing_plan_id":"free"},{"bike_id":"6cdac8a6-5b69-473a-b5d1-dcc30410e614","system_id":"levelo_inurba_marseille","lat":43.310785,"lon":5.424305,"is_reserved":false,"is_disabled":false,"rental_uris":{"android":"levelo://app?vid=6cdac8a6-5b69-473a-b5d1-dcc30410e614","ios":"levelo://app?vid=6cdac8a6-5b69-473a-b5d1-dcc30410e614"},"vehicle_type_id":"4","last_reported":1681135588,"current_range_meters":30000,"station_id":"ce4bhp92rcd13ifvqhag","pricing_plan_id":"free"},{"bike_id":"c4679466-8c93-41af-9250-1f22842dd186","system_id":"levelo_inurba_marseille","lat":43.310785,"lon":5.424305,"is_reserved":false,"is_disabled":false,"rental_uris":{"android":"levelo://app?vid=c4679466-8c93-41af-9250-1f22842dd186","ios":"levelo://app?vid=c4679466-8c93-41af-9250-1f22842dd186"},"vehicle_type_id":"4","last_reported":1681135588,"current_range_meters":27200,"station_id":"ce4bhp92rcd13ifvqhag","pricing_plan_id":"free"},{"bike_id":"b84648e1-c6c4-4d75-b9fb-f6fa5149591e","system_id":"levelo_inurba_marseille","lat":43.273125,"lon":5.390731,"is_reserved":false,"is_disabled":false,"rental_uris":{"android":"levelo://app?vid=b84648e1-c6c4-4d75-b9fb-f6fa5149591e","ios":"levelo://app?vid=b84648e1-c6c4-4d75-b9fb-f6fa5149591e"},"vehicle_type_id":"4","last_reported":1681135588,"current_range_meters":5200,"station_id":"ce4bhgp2rcd13ifvqfe0","pricing_plan_id":"free"},{"bike_id":"f3e020c6-08f9-4355-a578-207b5b249b00","system_id":"levelo_inurba_marseille","lat":43.273129,"lon":5.390725,"is_reserved":false,"is_disabled":false,"rental_uris":{"android":"levelo://app?vid=f3e020c6-08f9-4355-a578-207b5b249b00","ios":"levelo://app?vid=f3e020c6-08f9-4355-a578-207b5b249b00"},"vehicle_type_id":"4","last_reported":1681135588,"current_range_meters":5200,"station_id":"ce4bhgp2rcd13ifvqfe0","pricing_plan_id":"free"},{"bike_id":"d134c1b5-d9b5-4326-ac73-7cebf6bc9ce7","system_id":"levelo_inurba_marseille","lat":43.32395,"lon":5.42487,"is_reserved":false,"is_disabled":false,"rental_uris":{"android":"levelo://app?vid=d134c1b5-d9b5-4326-ac73-7cebf6bc9ce7","ios":"levelo://app?vid=d134c1b5-d9b5-4326-ac73-7cebf6bc9ce7"},