{"last_updated":1738153039,"ttl":60,"version":"2.2","data":{"bikes":[{"bike_id":"cedd2224-589a-46b8-b26d-b6a5a64c409b","system_id":"levelo_inurba_marseille","lat":43.32462,"lon":5.36567,"is_reserved":false,"is_disabled":false,"rental_uris":{"android":"levelo://app?vid=cedd2224-589a-46b8-b26d-b6a5a64c409b","ios":"levelo://app?vid=cedd2224-589a-46b8-b26d-b6a5a64c409b"},"vehicle_type_id":"4","last_reported":1738153039,"current_range_meters":34800,"station_id":"ce4bhs12rcd13ifvqhvg","pricing_plan_id":"cebpf4jnsgd1na2vs0mg"},{"bike_id":"95c61c3c-74f6-4e7c-be53-eaedfd2e7452","system_id":"levelo_inurba_marseille","lat":43.26837,"lon":5.39424,"is_reserved":false,"is_disabled":false,"rental_uris":{"android":"levelo://app?vid=95c61c3c-74f6-4e7c-be53-eaedfd2e7452","ios":"levelo://app?vid=95c61c3c-74f6-4e7c-be53-eaedfd2e7452"},"vehicle_type_id":"4","last_reported":1738153039,"current_range_meters":16800,"station_id":"ce4bhh12rcd13ifvqfg0","pricing_plan_id":"cebpf4jnsgd1na2vs0mg"},{"bike_id":"ca3279a3-28ad-491d-b3f7-c28ec56116ec","system_id":"levelo_inurba_marseille","lat":43.29278,"lon":5.40117,"is_reserved":false,"is_disabled":false,"rental_uris":{"android":"levelo://app?vid=ca3279a3-28ad-491d-b3f7-c28ec56116ec","ios":"levelo://app?vid=ca3279a3-28ad-491d-b3f7-c28ec56116ec"},"vehicle_type_id":"4","last_reported":1738153039,"current_range_meters":35600,"station_id":"ce4bh312rcd13ifvqdk0","pricing_plan_id":"cebpf4jnsgd1na2vs0mg"},{"bike_id":"77a227d4-24f8-4b28-a9f7-850a3a5a6295","system_id":"levelo_inurba_marseille","lat":43.24993,"lon":5.38924,"is_reserved":false,"is_disabled":false,"rental_uris":{"android":"levelo://app?vid=77a227d4-24f8-4b28-a9f7-850a3a5a6295","ios":"levelo://app?vid=77a227d4-24f8-4b28-a9f7-850a3a5a6295"},"vehicle_type_id":"4","last_reported":1738153039,"current_range_meters":32000,"station_id":"ce4bhgp2rcd13ifvqfd0","pricing_plan_id":"cebpf4jnsgd1na2vs0mg"},{"bike_id":"e6a7f14a-3b0d-4ac5-8134-dd5e30efebf5","system_id":"levelo_inurba_marseille","lat":43.29305,"lon":5.37151,"is_reserved":false,"is_disabled":false,"rental_uris":{"android":"levelo://app?vid=e6a7f14a-3b0d-4ac5-8134-dd5e30efebf5","ios":"levelo://app?vid=e6a7f14a-3b0d-4ac5-8134-dd5e30efebf5"},"vehicle_type_id":"4","last_reported":1738153039,"current_range_meters":36400,"station_id":"ce4bgh92rcd13ifvqb40","pricing_plan_id":"cebpf4jnsgd1na2vs0mg"},{"bike_id":"7a5d19be-8366-415b-8722-0c4f149ef140","system_id":"levelo_inurba_marseille","lat":43.29313,"lon":5.37192,"is_reserved":false,"is_disabled":false,"rental_uris":{"android":"levelo://app?vid=7a5d19be-8366-415b-8722-0c4f149ef140","ios":"levelo://app?vid=7a5d19be-8366-415b-8722-0c4f149ef140"},"vehicle_type_id":"4","last_reported":1738153039,"current_range_meters":38400,"station_id":"ce4bgh92rcd13ifvqb40","pricing_plan_id":"cebpf4jnsgd1na2vs0mg"},{"bike_id":"56f49f8b-4bf2-4d84-97ce-54c8a66ab5f7","system_id":"levelo_inurba_marseille","lat":43.29987,"lon":5.37175,"is_reserved":false,"is_disabled":false,"rental_uris":{"android":"levelo://app?vid=56f49f8b-4bf2-4d84-97ce-54c8a66ab5f7","ios":"levelo://app?vid=56f49f8b-4bf2-4d84-97ce-54c8a66ab5f7"},"vehicle_type_id":"4","last_reported":1738153039,"current_range_meters":38800,"station_id":"ce4bgr92rcd13ifvqc7g","pricing_plan_id":"cebpf4jnsgd1na2vs0mg"},{"bike_id":"f7f8117f-03ef-415e-85c6-2eeaf165e4f2","system_id":"levelo_inurba_marseille","lat":43.26228,"lon":5.40436,"is_reserved":false,"is_disabled":true,"rental_uris":{"android":"levelo://app?vid=f7f8117f-03ef-415e-85c6-2eeaf165e4f2","ios":"levelo://app?vid=f7f8117f-03ef-415e-85c6-2eeaf165e4f2"},"vehicle_type_id":"4","last_reported":1738153039,"current_range_meters":28800,"station_id":"ce4bhmh2rcd13ifvqgmg","pricing_plan_id":"cebpf4jnsgd1na2vs0mg"},{"bike_id":"588d145c-a2c5-4958-ad97-fdebdbbfff87","system_id":"levelo_inurba_marseille","lat":43.29072,"lon":5.371747,"is_reserved":false,"is_disabled":false,"rental_uris":{"android":"levelo://app?vid=588d145c-a2c5-4958-ad97-fdebdbbfff87","ios":"levelo://app?vid=588d145c-a2c5-4958-ad97-fdebdbbfff87"},"vehicle_type_id":"4","last_reported":1738153039,"current_range_meters":26000,"station_id":"ce4bh5p2rcd13ifvqe4g","pricing_plan_id":"cebpf4jnsgd1na2vs0mg"},{"bike_id":"60b94ec1-a2e5-42fc-ad7c-d66b2ada9c44","system_id":"levelo_inurba_marseille","lat":43.23952,"lon":5.36645,"is_reserved":false,"is_disabled":false,"rental_uris":{"android":"levelo://app?vid=60b94ec1-a2e5-42fc-ad7c-d66b2ada9c44","ios":"levelo://app?vid=60b94ec1-a2e5-42fc-ad7c-d66b2ada9c44"},"vehicle_type_id":"4","last_reported":1738153039,"current_range_meters":38800,"station_id":"ce4bhi12rcd13ifvqfp0","pricing_plan_id":"cebpf4jnsgd1na2vs0mg"},{"bike_id":"1c691f34-b581-43fa-9960-cfc896fbdb5c","system_id":"levelo_inurba_marseille","lat":43.3052,"lon":5.36548,"is_reserved":false,"is_disabled":false,"rental_uris":{"android":"levelo://app?vid=1c691f34-b581-43fa-9960-cfc896fbdb5c","ios":"levelo://app?vid=1c691f34-b581-43fa-9960-cfc896fbdb5c"},"vehicle_type_id":"4","last_reported":1738153039,"current_range_meters":38800,"station_id":"ce4bgs12rcd13ifvqcag","pricing_plan_id":"cebpf4jnsgd1na2vs0mg"},{"bike_id":"d77faba5-2b0c-430f-ad22-bcf40b90e74c","system_id":"levelo_inurba_marseille","lat":43.27842,"lon":5.40746,"is_reserved":false,"is_disabled":true,"rental_uris":{"android":"levelo://app?vid=d77faba5-2b0c-430f-ad22-bcf40b90e74c","ios":"levelo://app?vid=d77faba5-2b0c-430f-ad22-bcf40b90e74c"},"vehicle_type_id":"4","last_reported":1738153039,"current_range_meters":35600,"station_id":"ce4bhnh2rcd13ifvqgtg","pricing_plan_id":"cebpf4jnsgd1na2vs0mg"},{"bike_id":"d64fe0b3-0658-4486-802d-44aa5d4a3168","system_id":"levelo_inurba_marseille","lat":43.249953,"lon":5.38938,"is_reserved":false,"is_disabled":false,"rental_uris":{"android":"levelo://app?vid=d64fe0b3-0658-4486-802d-44aa5d4a3168","ios":"levelo://app?vid=d64fe0b3-0658-4486-802d-44aa5d4a3168"},"vehicle_type_id":"4","last_reported":1738153039,"current_range_meters":36400,"station_id":"ce4bhgp2rcd13ifvqfd0","pricing_plan_id":"cebpf4jnsgd1na2vs0mg"},{"bike_id":"f93041b9-b8e0-42d2-8838-ad70483b616d","system_id":"levelo_inurba_marseille","lat":43.26768,"lon":5.3943,"is_reserved":false,"is_disabled":false,"rental_uris":{"android":"levelo://app?vid=f93041b9-b8e0-42d2-8838-ad70483b616d","ios":"levelo://app?vid=f93041b9-b8e0-42d2-8838-ad70483b616d"},"vehicle_type_id":"4","last_reported":1738153039,"current_range_meters":17600,"station_id":"ce4bhh12rcd13ifvqfg0","pricing_plan_id":"cebpf4jnsgd1na2vs0mg"},{"bike_id":"d8f2986d-f12e-4b38-9e6c-42586a306ddb","system_id":"levelo_inurba_marseille","lat":43.27193,"lon":5.39177,"is_reserved":false,"is_disabled":false,"rental_uris":{"android":"levelo://app?vid=d8f2986d-f12e-4b38-9e6c-42586a306ddb","ios":"levelo://app?vid=d8f2986d-f12e-4b38-9e6c-42586a306ddb"},"vehicle_type_id":"4","last_reported":1738153039,"current_range_meters":30400,"station_id":"ce4bhhp2rcd13ifvqfm0","pricing_plan_id":"cebpf4jnsgd1na2vs0mg"},{"bike_id":"df517269-7978-40e7-92b9-aba0b6440d0d","system_id":"levelo_inurba_marseille","lat":43.27371,"lon":5.36253,"is_reserved":false,"is_disabled":false,"rental_uris":{"android":"levelo://app?vid=df517269-7978-40e7-92b9-aba0b6440d0d","ios":"levelo://app?vid=df517269-7978-40e7-92b9-aba0b6440d0d"},"vehicle_type_id":"4","last_reported":1738153039,"current_range_meters":30400,"station_id":"ce4bhbh2rcd13ifvqeo0","pricing_plan_id":"cebpf4jnsgd1na2vs0mg"},{"bike_id":"96c6d005-88bb-4fd6-98f4-0a014c553eb8","system_id":"levelo_inurba_marseille","lat":43.33021,"lon":5.39031,"is_reserved":false,"is_disabled":false,"rental_uris":{"android":"levelo://app?vid=96c6d005-88bb-4fd6-98f4-0a014c553eb8","ios":"levelo://app?vid=96c6d005-88bb-4fd6-98f4-0a014c553eb8"},"vehicle_type_id":"4","last_reported":1738153039,"current_range_meters":38800,"station_id":"ce4bhr92rcd13ifvqhrg","pricing_plan_id":"cebpf4jnsgd1na2vs0mg"},{"bike_id":"49ec782e-5315-4950-8252-9cc05f281e6a","system_id":"levelo_inurba_marseille","lat":43.33609,"lon":5.41045,"is_reserved":false,"is_disabled":false,"rental_uris":{"android":"levelo://app?vid=49ec782e-5315-4950-8252-9cc05f281e6a","ios":"levelo://app?vid=49ec782e-5315-4950-8252-9cc05f281e6a"},"vehicle_type_id":"4","last_reported":1738153039,"current_range_meters":28400,"station_id":"ce4bhqh2rcd13ifvqhmg","pricing_plan_id":"cebpf4jnsgd1na2vs0mg"},{"bike_id":"ee64ab2e-9594-4ae2-9464-9e48295e6f5e","system_id":"levelo_inurba_marseille","lat":43.29789,"lon":5.38111,"is_reserved":false,"is_disabled":false,"rental_uris":{"android":"levelo://app?vid=ee64ab2e-9594-4ae2-9464-9e48295e6f5e","ios":"levelo://app?vid=ee64ab2e-9594-4ae2-9464-9e48295e6f5e"},"vehicle_type_id":"4","last_reported":1738153039,"current_range_meters":16800,"station_id":"ce4bgip2rcd13ifvqbb0","pricing_plan_id":"cebpf4jnsgd1na2vs0mg"},{"bike_id":"69899191-e293-497b-a27d-18f1e8ac236e","system_id":"levelo_inurba_marseille","lat":43.30093,"lon":5.39083,"is_reserved":false,"is_disabled":false,"rental_uris":{"android":"levelo://app?vid=69899191-e293-497b-a27d-18f1e8ac236e","ios":"levelo://app?vid=69899191-e293-497b-a27d-18f1e8ac236e"},"vehicle_type_id":"4","last_reported":1738153039,"current_range_meters":38000,"station_id":"ce4bh192rcd13ifvqdb0","pricing_plan_id":"cebpf4jnsgd1na2vs0mg"},{"bike_id":"e05d3339-457c-46fa-9827-97d4d0e79dfd","system_id":"levelo_inurba_marseille","lat":43.258607,"lon":5.399021,"is_reserved":false,"is_disabled":false,"rental_uris":{"android":"levelo://app?vid=e05d3339-457c-46fa-9827-97d4d0e79dfd","ios":"levelo://app?vid=e05d3339-457c-46fa-9827-97d4d0e79dfd"},"vehicle_type_id":"4","last_reported":1738153039,"current_range_meters":38800,"station_id":"ce4bhl92rcd13ifvqghg","pricing_plan_id":"cebpf4jnsgd1na2vs0mg"},{"bike_id":"9bd21267-26f6-4122-9567-2f0b5d4f790f","system_id":"levelo_inurba_marseille","lat":43.32368,"lon":5.38885,"is_reserved":false,"is_disabled":false,"rental_uris":{"android":"levelo://app?vid=9bd21267-26f6-4122-9567-2f0b5d4f790f","ios":"levelo://app?vid=9bd21267-26f6-4122-9567-2f0b5d4f790f"},"vehicle_type_id":"4","last_reported":1738153039,"current_range_meters":8000,"station_id":"ce4bhqp2rcd13ifvqhog","pricing_plan_id":"cebpf4jnsgd1na2vs0mg"},{"bike_id":"93128da9-dde1-46b2-80e9-7cd33681002e","system_id":"levelo_inurba_marseille","lat":43.30261,"lon":5.37731,"is_reserved":false,"is_disabled":false,"rental_uris":{"android":"levelo://app?vid=93128da9-dde1-46b2-80e9-7cd33681002e","ios":"levelo://app?vid=93128da9-dde1-46b2-80e9-7cd33681002e"},"vehicle_type_id":"4","last_reported":1738153039,"current_range_meters":11600,"station_id":"ce4bguh2rcd13ifvqcj0","pricing_plan_id":"cebpf4jnsgd1na2vs0mg"},{"bike_id":"62fa4956-a921-4fb6-aa16-b51e55abc994","system_id":"levelo_inurba_marseille","lat":43.26221,"lon":5.40467,"is_reserved":false,"is_disabled":false,"rental_uris":{"android":"levelo://app?vid=62fa4956-a921-4fb6-aa16-b51e55abc994","ios":"levelo://app?vid=62fa4956-a921-4fb6-aa16-b51e55abc994"},"vehicle_type_id":"4","last_reported":1738153039,"current_range_meters":11600,"station_id":"ce4bhmh2rcd13ifvqgmg","pricing_plan_id":"cebpf4jnsgd1na2vs0mg"},{"bike_id":"3020ab02-e789-42db-81bc-2fb87416b4f2","system_id":"levelo_inurba_marseille","lat":43.27908,"lon":5.39577,"is_reserved":false,"is_disabled":false,"rental_uris":{"android":"levelo://app?vid=3020ab02-e789-42db-81bc-2fb87416b4f2","ios":"levelo://app?vid=3020ab02-e789-42db-81bc-2fb87416b4f2"},"vehicle_type_id":"4","last_reported":1738153039,"current_range_meters":32000,"station_id":"ce4bhf92rcd13ifvqf40","pricing_plan_id":"cebpf4jnsgd1na2vs0mg"},{"bike_id":"29960704-41cd-4e5e-a9b4-2623922ffc47","system_id":"levelo_inurba_marseille","lat":43.28712,"lon":5.39976,"is_reserved":false,"is_disabled":true,"rental_uris":{"android":"levelo://app?vid=29960704-41cd-4e5e-a9b4-2623922ffc47","ios":"levelo://app?vid=29960704-41cd-4e5e-a9b4-2623922ffc47"},"vehicle_type_id":"4","last_reported":1738153039,"current_range_meters":0,"station_id":"ce4bho92rcd13ifvqh3g","pricing_plan_id":"cebpf4jnsgd1na2vs0mg"},{"bike_id":"1c63fa7b-8bb3-4da5-8267-9c40ab75cc0b","system_id":"levelo_inurba_marseille","lat":43.3372,"lon":5.39193,"is_reserved":false,"is_disabled":false,"rental_uris":{"android":"levelo://app?vid=1c63fa7b-8bb3-4da5-8267-9c40ab75cc0b","ios":"levelo://app?vid=1c63fa7b-8bb3-4da5-8267-9c40ab75cc0b"},"vehicle_type_id":"4","last_reported":1738153039,"current_range_meters":37600,"station_id":"ce4bhr92rcd13ifvqhsg","pricing_plan_id":"cebpf4jnsgd1na2vs0mg"},{"bike_id":"a6f0d2d6-3f6e-4a20-b1c2-7b5fb3f43680","system_id":"levelo_inurba_marseille","lat":43.3016,"lon":5.38082,"is_reserved":false,"is_disabled":false,"rental_uris":{"android":"levelo://app?vid=a6f0d2d6-3f6e-4a20-b1c2-7b5fb3f43680","ios":"levelo://app?vid=a6f0d2d6-3f6e-4a20-b1c2-7b5fb3f43680"},"vehicle_type_id":"4","last_reported":1738153039,"current_range_meters":23200,"station_id":"ce4bgjp2rcd13ifvqbh0","pricing_plan_id":"cebpf4jnsgd1na2vs0mg"},{"bike_id":"5d4915e0-4a9f-4c36-821a-8bde58abc3cd","system_id":"levelo_inurba_marseille","lat":43.25088,"lon":5.40328,"is_reserved":false,"is_disabled":true,"rental_uris":{"android":"levelo://app?vid=5d4915e0-4a9f-4c36-821a-8bde58abc3cd","ios":"levelo://app?vid=5d4915e0-4a9f-4c36-821a-8bde58abc3cd"},"vehicle_type_id":"4","last_reported":1738153039,"current_range_meters":38800,"station_id":"ce4bhlh2rcd13ifvqgig","pricing_plan_id":"cebpf4jnsgd1na2vs0mg"},{"bike_id":"b6ffbcad-9371-46a8-899d-8ed92473acd5","system_id":"levelo_inurba_marseille","lat":43.32472,"lon":5.36575,"is_reserved":false,"is_disabled":false,"rental_uris":{"android":"levelo://app?vid=b6ffbcad-9371-46a8-899d-8ed92473acd5","ios":"levelo://app?vid=b6ffbcad-9371-46a8-899d-8ed92473acd5"},"vehicle_type_id":"4","last_reported":1738153039,"current_range_meters":24000,"station_id":"ce4bhs12rcd13ifvqhvg","pricing_plan_id":"cebpf4jnsgd1na2vs0mg"},{"bike_id":"3e374112-fbcb-4a4c-9923-132aeda9cf24","system_id":"levelo_inurba_marseille","lat":43.29192,"lon":5.35812,"is_reserved":false,"is_disabled":false,"rental_uris":{"android":"levelo://app?vid=3e374112-fbcb-4a4c-9923-132aeda9cf24","ios":"levelo://app?vid=3e374112-fbcb-4a4c-9923-132aeda9cf24"},"vehicle_type_id":"4","last_reported":1738153039,"current_range_meters":12800,"station_id":"ce4bhb12rcd13ifvqel0","pricing_plan_id":"cebpf4jnsgd1na2vs0mg"},{"bike_id":"6325b2e4-1145-482e-a98b-ea9ba7994f1b","system_id":"levelo_inurba_marseille","lat":43.2593,"lon":5.40911,"is_reserved":false,"is_disabled":false,"rental_uris":{"android":"levelo://app?vid=6325b2e4-1145-482e-a98b-ea9ba7994f1b","ios":"levelo://app?vid=6325b2e4-1145-482e-a98b-ea9ba7994f1b"},"vehicle_type_id":"4","last_reported":1738153039,"current_range_meters":31200,"station_id":"ce4bhm92rcd13ifvqglg","pricing_plan_id":"cebpf4jnsgd1na2vs0mg"},{"bike_id":"896cd925-72cf-4706-97b0-d25c4ad56ffa","system_id":"levelo_inurba_marseille","lat":43.30891,"lon":5.36845,"is_reserved":false,"is_disabled":false,"rental_uris":{"android":"levelo://app?vid=896cd925-72cf-4706-97b0-d25c4ad56ffa","ios":"levelo://app?vid=896cd925-72cf-4706-97b0-d25c4ad56ffa"},"vehicle_type_id":"4","last_reported":1738153039,"current_range_meters":36800,"station_id":"ce4bgn92rcd13ifvqbvg","pricing_plan_id":"cebpf4jnsgd1na2vs0mg"},{"bike_id":"a3c6429c-bb9c-49f5-8674-c210096ed9cc","system_id":"levelo_inurba_marseille","lat":43.27495,"lon":5.42461,"is_reserved":false,"is_disabled":false,"rental_uris":{"android":"levelo://app?vid=a3c6429c-bb9c-49f5-8674-c210096ed9cc","ios":"levelo://app?vid=a3c6429c-bb9c-49f5-8674-c210096ed9cc"},"vehicle_type_id":"4","last_reported":1738153039,"current_range_meters":36000,"station_id":"ce4bhn92rcd13ifvqgrg","pricing_plan_id":"cebpf4jnsgd1na2vs0mg"},{"bike_id":"d6af585f-c468-474f-9bf8-9417f47a5f4b","system_id":"levelo_inurba_marseille","lat":43.31331,"lon":5.36711,"is_reserved":false,"is_disabled":false,"rental_uris":{"android":"levelo://app?vid=d6af585f-c468-474f-9bf8-9417f47a5f4b","ios":"levelo://app?vid=d6af585f-c468-474f-9bf8-9417f47a5f4b"},"vehicle_type_id":"4","last_reported":1738153039,"current_range_meters":38000,"station_id":"ce4bgr92rcd13ifvqc6g","pricing_plan_id":"cebpf4jnsgd1na2vs0mg"},{"bike_id":"e378522e-f341-45f9-9ff4-119a05367b92","system_id":"levelo_inurba_marseille","lat":43.30299,"lon":5.37697,"is_reserved":false,"is_disabled":false,"rental_uris":{"android":"levelo://app?vid=e378522e-f341-45f9-9ff4-119a05367b92","ios":"levelo://app?vid=e378522e-f341-45f9-9ff4-119a05367b92"},"vehicle_type_id":"4","last_reported":1738153039,"current_range_meters":13600,"station_id":"ce4bguh2rcd13ifvqcj0","pricing_plan_id":"cebpf4jnsgd1na2vs0mg"},{"bike_id":"edb829f1-e2f5-4a64-901c-9cc613f31dd3","system_id":"levelo_inurba_marseille","lat":43.29194,"lon":5.39326,"is_reserved":false,"is_disabled":false,"rental_uris":{"android":"levelo://app?vid=edb829f1-e2f5-4a64-901c-9cc613f31dd3","ios":"levelo://app?vid=edb829f1-e2f5-4a64-901c-9cc613f31dd3"},"vehicle_type_id":"4","last_reported":1738153039,"current_range_meters":36800,"station_id":"ce4bh192rcd13ifvqdd0","pricing_plan_id":"cebpf4jnsgd1na2vs0mg"},{"bike_id":"3c6336fe-eb72-435e-95d3-a1bde11ea3e3","system_id":"levelo_inurba_marseille","lat":43.30369,"lon":5.41888,"is_reserved":false,"is_disabled":false,"rental_uris":{"android":"levelo://app?vid=3c6336fe-eb72-435e-95d3-a1bde11ea3e3","ios":"levelo://app?vid=3c6336fe-eb72-435e-95d3-a1bde11ea3e3"},"vehicle_type_id":"4","last_reported":1738153039,"current_range_meters":38800,"station_id":"ce4bhop2rcd13ifvqh7g","pricing_plan_id":"cebpf4jnsgd1na2vs0mg"},{"bike_id":"09667ae2-2844-4d31-aac6-7ace6aae889b","system_id":"levelo_inurba_marseille","lat":43.2979,"lon":5.38115,"is_reserved":false,"is_disabled":false,"rental_uris":{"android":"levelo://app?vid=09667ae2-2844-4d31-aac6-7ace6aae889b","ios":"levelo://app?vid=09667ae2-2844-4d31-aac6-7ace6aae889b"},"vehicle_type_id":"4","last_reported":1738153039,"current_range_meters":31200,"station_id":"ce4bgip2rcd13ifvqbb0","pricing_plan_id":"cebpf4jnsgd1na2vs0mg"},{"bike_id":"a4d2824d-779d-491e-893d-204d9860fcc6","system_id":"levelo_inurba_marseille","lat":43.28616,"lon":5.35105,"is_reserved":false,"is_disabled":false,"rental_uris":{"android":"levelo://app?vid=a4d2824d-779d-491e-893d-204d9860fcc6","ios":"levelo://app?vid=a4d2824d-779d-491e-893d-204d9860fcc6"},"vehicle_type_id":"4","last_reported":1738153039,"current_range_meters":28800,"station_id":"ce4bhch2rcd13ifvqeug","pricing_plan_id":"cebpf4jnsgd1na2vs0mg"},{"bike_id":"1d3d6cfb-1973-4ef0-b19e-3b4fa3b6b11c","system_id":"levelo_inurba_marseille","lat":43.239636,"lon":5.366417,"is_reserved":false,"is_disabled":false,"rental_uris":{"android":"levelo://app?vid=1d3d6cfb-1973-4ef0-b19e-3b4fa3b6b11c","ios":"levelo://app?vid=1d3d6cfb-1973-4ef0-b19e-3b4fa3b6b11c"},"vehicle_type_id":"4","last_reported":1738153039,"current_range_meters":7200,"station_id":"ce4bhi12rcd13ifvqfp0","pricing_plan_id":"cebpf4jnsgd1na2vs0mg"},{"bike_id":"f7b8932e-ea90-4124-94c3-84dcbea4d8a0","system_id":"levelo_inurba_marseille","lat":43.27211,"lon":5.39181,"is_reserved":false,"is_disabled":false,"rental_uris":{"android":"levelo://app?vid=f7b8932e-ea90-4124-94c3-84dcbea4d8a0","ios":"levelo://app?vid=f7b8932e-ea90-4124-94c3-84dcbea4d8a0"},"vehicle_type_id":"4","last_reported":1738153039,"current_range_meters":25600,"station_id":"ce4bhhp2rcd13ifvqfm0","pricing_plan_id":"cebpf4jnsgd1na2vs0mg"},{"bike_id":"0d8ed079-b90b-46da-b651-8cf4a9537986","system_id":"levelo_inurba_marseille","lat":43.23197,"lon":5.39977,"is_reserved":false,"is_disabled":false,"rental_uris":{"android":"levelo://app?vid=0d8ed079-b90b-46da-b651-8cf4a9537986","ios":"levelo://app?vid=0d8ed079-b90b-46da-b651-8cf4a9537986"},"vehicle_type_id":"4","last_reported":1738153039,"current_range_meters":28400,"station_id":"ce4bhn12rcd13ifvqgqg","pricing_plan_id":"cebpf4jnsgd1na2vs0mg"},{"bike_id":"2726ab7d-4283-49db-be89-c5e6b97f39e0","system_id":"levelo_inurba_marseille","lat":43.29737,"lon":5.37682,"is_reserved":false,"is_disabled":false,"rental_uris":{"android":"levelo://app?vid=2726ab7d-4283-49db-be89-c5e6b97f39e0","ios":"levelo://app?vid=2726ab7d-4283-49db-be89-c5e6b97f39e0"},"vehicle_type_id":"4","last_reported":1738153039,"current_range_meters":31200,"station_id":"ce4bgkh2rcd13ifvqbl0","pricing_plan_id":"cebpf4jnsgd1na2vs0mg"},{"bike_id":"e835236d-8c05-4699-a23f-d68da3e42016","system_id":"levelo_inurba_marseille","lat":43.2621,"lon":5.37438,"is_reserved":false,"is_disabled":false,"rental_uris":{"android":"levelo://app?vid=e835236d-8c05-4699-a23f-d68da3e42016","ios":"levelo://app?vid=e835236d-8c05-4699-a23f-d68da3e42016"},"vehicle_type_id":"4","last_reported":1738153039,"current_range_meters":28800,"station_id":"ce4bhgp2rcd13ifvqfc0","pricing_plan_id":"cebpf4jnsgd1na2vs0mg"},{"bike_id":"c8a3a0ed-dff2-4f3c-87dc-2e6b47b1ad28","system_id":"levelo_inurba_marseille","lat":43.337444,"lon":5.374475,"is_reserved":false,"is_disabled":true,"rental_uris":{"android":"levelo://app?vid=c8a3a0ed-dff2-4f3c-87dc-2e6b47b1ad28","ios":"levelo://app?vid=c8a3a0ed-dff2-4f3c-87dc-2e6b47b1ad28"},"vehicle_type_id":"4","last_reported":1738153039,"current_range_meters":1200,"station_id":"","pricing_plan_id":"cebpf4jnsgd1na2vs0mg"},{"bike_id":"51a64b6d-6d2a-4a4b-8946-e64b8b82a262","system_id":"levelo_inurba_marseille","lat":43.29041,"lon":5.38648,"is_reserved":false,"is_disabled":false,"rental_uris":{"android":"levelo://app?vid=51a64b6d-6d2a-4a4b-8946-e64b8b82a262","ios":"levelo://app?vid=51a64b6d-6d2a-4a4b-8946-e64b8b82a262"},"vehicle_type_id":"4","last_reported":1738153039,"current_range_meters":9200,"station_id":"ce4bh4p2rcd13ifvqe0g","pricing_plan_id":"cebpf4jnsgd1na2vs0mg"},{"bike_id":"061a807c-1db8-46c7-beec-da6308b151ea","system_id":"levelo_inurba_marseille","lat":43.29592,"lon":5.38101,"is_reserved":false,"is_disabled":true,"rental_uris":{"android":"levelo://app?vid=061a807c-1db8-46c7-beec-da6308b151ea","ios":"levelo://app?vid=061a807c-1db8-46c7-beec-da6308b151ea"},"vehicle_type_id":"4","last_reported":1738153039,"current_range_meters":28400,"station_id":"ce4bgl12rcd13ifvqbo0","pricing_plan_id":"cebpf4jnsgd1na2vs0mg"},{"bike_id":"d323c514-0964-4830-ab1c-7976c00b8559","system_id":"levelo_inurba_marseille","lat":43.23152,"lon":5.4376,"is_reserved":false,"is_disabled":false,"rental_uris":{"android":"levelo://app?vid=d323c514-0964-4830-ab1c-7976c00b8559","ios":"levelo://app?vid=d323c514-0964-4830-ab1c-7976c00b8559"},"vehicle_type_id":"4","last_reported":1738153039,"current_range_meters":38800,"station_id":"ce4bhmp2rcd13ifvqgog","pricing_plan_id":"cebpf4jnsgd1na2vs0mg"},{"bike_id":"dfbb02a3-bdaa-47fc-8853-af678a720d18","system_id":"levelo_inurba_marseille","lat":43.28727,"lon":5.39983,"is_reserved":false,"is_disabled":false,"rental_uris":{"android":"levelo://app?vid=dfbb02a3-bdaa-47fc-8853-af678a720d18","ios":"levelo://app?vid=dfbb02a3-bdaa-47fc-8853-af678a720d18"},"vehicle_type_id":"4","last_reported":1738153039,"current_range_meters":38800,"station_id":"ce4bho92rcd13ifvqh3g","pricing_plan_id":"cebpf4jnsgd1na2vs0mg"},{"bike_id":"e708a6c7-7a9d-4297-99fa-8ff59eaff6b4","system_id":"levelo_inurba_marseille","lat":43.33012,"lon":5.39077,"is_reserved":false,"is_disabled":false,"rental_uris":{"android":"levelo://app?vid=e708a6c7-7a9d-4297-99fa-8ff59eaff6b4","ios":"levelo://app?vid=e708a6c7-7a9d-4297-99fa-8ff59eaff6b4"},"vehicle_type_id":"4","last_reported":1738153039,"current_range_meters":38800,"station_id":"ce4bhr92rcd13ifvqhrg","pricing_plan_id":"cebpf4jnsgd1na2vs0mg"},{"bike_id":"aa068523-cd19-4a6f-9f4b-654f8e53a92c","system_id":"levelo_inurba_marseille","lat":43.29227,"lon":5.36075,"is_reserved":false,"is_disabled":false,"rental_uris":{"android":"levelo://app?vid=aa068523-cd19-4a6f-9f4b-654f8e53a92c","ios":"levelo://app?vid=aa068523-cd19-4a6f-9f4b-654f8e53a92c"},"vehicle_type_id":"4","last_reported":1738153039,"current_range_meters":16400,"station_id":"ce4bhbh2rcd13ifvqeqg","pricing_plan_id":"cebpf4jnsgd1na2vs0mg"},{"bike_id":"e055110e-8e50-4402-9b32-8745c1542d21","system_id":"levelo_inurba_marseille","lat":43.23944,"lon":5.3666,"is_reserved":false,"is_disabled":false,"rental_uris":{"android":"levelo://app?vid=e055110e-8e50-4402-9b32-8745c1542d21","ios":"levelo://app?vid=e055110e-8e50-4402-9b32-8745c1542d21"},"vehicle_type_id":"4","last_reported":1738153039,"current_range_meters":37600,"station_id":"ce4bhi12rcd13ifvqfp0","pricing_plan_id":"cebpf4jnsgd1na2vs0mg"},{"bike_id":"4af47e37-e152-4ab1-a20e-15b113150682","system_id":"levelo_inurba_marseille","lat":43.30558,"lon":5.36718,"is_reserved":false,"is_disabled":false,"rental_uris":{"android":"levelo://app?vid=4af47e37-e152-4ab1-a20e-15b113150682","ios":"levelo://app?vid=4af47e37-e152-4ab1-a20e-15b113150682"},"vehicle_type_id":"4","last_reported":1738153039,"current_range_meters":38800,"station_id":"ce4bgrp2rcd13ifvqc9g","pricing_plan_id":"cebpf4jnsgd1na2vs0mg"},{"bike_id":"b89931d9-8c5a-430e-919d-e55b684a24f7","system_id":"levelo_inurba_marseille","lat":43.3015,"lon":5.38087,"is_reserved":false,"is_disabled":false,"rental_uris":{"android":"levelo://app?vid=b89931d9-8c5a-430e-919d-e55b684a24f7","ios":"levelo://app?vid=b89931d9-8c5a-430e-919d-e55b684a24f7"},"vehicle_type_id":"4","last_reported":1738153039,"current_range_meters":24800,"station_id":"ce4bgjp2rcd13ifvqbh0","pricing_plan_id":"cebpf4jnsgd1na2vs0mg"},{"bike_id":"6acd79e6-d07e-437a-b9ff-a79f21491a8c","system_id":"levelo_inurba_marseille","lat":43.325358,"lon":5.414216,"is_reserved":false,"is_disabled":false,"rental_uris":{"android":"levelo://app?vid=6acd79e6-d07e-437a-b9ff-a79f21491a8c","ios":"levelo://app?vid=6acd79e6-d07e-437a-b9ff-a79f21491a8c"},"vehicle_type_id":"4","last_reported":1738153039,"current_range_meters":39200,"station_id":"ce4bhq12rcd13ifvqhhg","pricing_plan_id":"cebpf4jnsgd1na2vs0mg"},{"bike_id":"a99754b0-533c-4b68-ad89-42118685fbc7","system_id":"levelo_inurba_marseille","lat":43.279993,"lon":5.416625,"is_reserved":false,"is_disabled":false,"rental_uris":{"android":"levelo://app?vid=a99754b0-533c-4b68-ad89-42118685fbc7","ios":"levelo://app?vid=a99754b0-533c-4b68-ad89-42118685fbc7"},"vehicle_type_id":"4","last_reported":1738153039,"current_range_meters":24400,"station_id":"ce4bho12rcd13ifvqh1g","pricing_plan_id":"cebpf4jnsgd1na2vs0mg"},{"bike_id":"fae78107-27d7-4d9b-bfad-701cf502b711","system_id":"levelo_inurba_marseille","lat":43.27981,"lon":5.38744,"is_reserved":false,"is_disabled":false,"rental_uris":{"android":"levelo://app?vid=fae78107-27d7-4d9b-bfad-701cf502b711","ios":"levelo://app?vid=fae78107-27d7-4d9b-bfad-701cf502b711"},"vehicle_type_id":"4","last_reported":1738153039,"current_range_meters":38000,"station_id":"ce4bhg12rcd13ifvqf80","pricing_plan_id":"cebpf4jnsgd1na2vs0mg"},{"bike_id":"a217eca2-76bf-464c-aef5-0f63397f1780","system_id":"levelo_inurba_marseille","lat":43.29903,"lon":5.43614,"is_reserved":false,"is_disabled":false,"rental_uris":{"android":"levelo://app?vid=a217eca2-76bf-464c-aef5-0f63397f1780","ios":"levelo://app?vid=a217eca2-76bf-464c-aef5-0f63397f1780"},"vehicle_type_id":"4","last_reported":1738153039,"current_range_meters":15200,"station_id":"ce4bhpp2rcd13ifvqhfg","pricing_plan_id":"cebpf4jnsgd1na2vs0mg"},{"bike_id":"6087eac1-5596-4bac-81f3-6e4270a420d5","system_id":"levelo_inurba_marseille","lat":43.2978,"lon":5.37283,"is_reserved":false,"is_disabled":false,"rental_uris":{"android":"levelo://app?vid=6087eac1-5596-4bac-81f3-6e4270a420d5","ios":"levelo://app?vid=6087eac1-5596-4bac-81f3-6e4270a420d5"},"vehicle_type_id":"4","last_reported":1738153039,"current_range_meters":4800,"station_id":"","pricing_plan_id":"cebpf4jnsgd1na2vs0mg"},{"bike_id":"6154358a-439a-46b5-9df8-fc726363e491","system_id":"levelo_inurba_marseille","lat":43.28879,"lon":5.38441,"is_reserved":false,"is_disabled":false,"rental_uris":{"android":"levelo://app?vid=6154358a-439a-46b5-9df8-fc726363e491","ios":"levelo://app?vid=6154358a-439a-46b5-9df8-fc726363e491"},"vehicle_type_id":"4","last_reported":1738153039,"current_range_meters":8000,"station_id":"","pricing_plan_id":"cebpf4jnsgd1na2vs0mg"},{"bike_id":"9838cc78-2b53-49d3-ae13-82df62c4fd64","system_id":"levelo_inurba_marseille","lat":43.28412,"lon":5.40934,"is_reserved":false,"is_disabled":true,"rental_uris":{"android":"levelo://app?vid=9838cc78-2b53-49d3-ae13-82df62c4fd64","ios":"levelo://app?vid=9838cc78-2b53-49d3-ae13-82df62c4fd64"},"vehicle_type_id":"4","last_reported":1738153039,"current_range_meters":0,"station_id":"","pricing_plan_id":"cebpf4jnsgd1na2vs0mg"},{"bike_id":"ce4abad5-578c-44a8-b390-e304419895cb","system_id":"levelo_inurba_marseille","lat":43.27073,"lon":5.42284,"is_reserved":false,"is_disabled":false,"rental_uris":{"android":"levelo://app?vid=ce4abad5-578c-44a8-b390-e304419895cb","ios":"levelo://app?vid=ce4abad5-578c-44a8-b390-e304419895cb"},"vehicle_type_id":"4","last_reported":1738153039,"current_range_meters":30000,"station_id":"ce4bhk92rcd13ifvqgb0","pricing_plan_id":"cebpf4jnsgd1na2vs0mg"},{"bike_id":"44d70056-f722-4d8f-80f9-afd89c389591","system_id":"levelo_inurba_marseille","lat":43.32998,"lon":5.39045,"is_reserved":false,"is_disabled":false,"rental_uris":{"android":"levelo://app?vid=44d70056-f722-4d8f-80f9-afd89c389591","ios":"levelo://app?vid=44d70056-f722-4d8f-80f9-afd89c389591"},"vehicle_type_id":"4","last_reported":1738153039,"current_range_meters":17200,"station_id":"ce4bhr92rcd13ifvqhrg","pricing_plan_id":"cebpf4jnsgd1na2vs0mg"},{"bike_id":"cb4b9878-96ef-4892-8d93-336dc7a1cc89","system_id":"levelo_inurba_marseille","lat":43.34042,"lon":5.35379,"is_reserved":false,"is_disabled":false,"rental_uris":{"android":"levelo://app?vid=cb4b9878-96ef-4892-8d93-336dc7a1cc89","ios":"levelo://app?vid=cb4b9878-96ef-4892-8d93-336dc7a1cc89"},"vehicle_type_id":"4","last_reported":1738153039,"current_range_meters":32000,"station_id":"","pricing_plan_id":"cebpf4jnsgd1na2vs0mg"},{"bike_id":"c4b612cf-bd83-4c1a-9a6d-5ad5ed4741f9","system_id":"levelo_inurba_marseille","lat":43.27172,"lon":5.40997,"is_reserved":false,"is_disabled":false,"rental_uris":{"android":"levelo://app?vid=c4b612cf-bd83-4c1a-9a6d-5ad5ed4741f9","ios":"levelo://app?vid=c4b612cf-bd83-4c1a-9a6d-5ad5ed4741f9"},"vehicle_type_id":"4","last_reported":1738153039,"current_range_meters":25600,"station_id":"ce4bhl12rcd13ifvqgf0","pricing_plan_id":"cebpf4jnsgd1na2vs0mg"},{"bike_id":"cebc1cc3-2475-48cb-aa41-05d47858d44e","system_id":"levelo_inurba_marseille","lat":43.29926,"lon":5.43636,"is_reserved":false,"is_disabled":false,"rental_uris":{"android":"levelo://app?vid=cebc1cc3-2475-48cb-aa41-05d47858d44e","ios":"levelo://app?vid=cebc1cc3-2475-48cb-aa41-05d47858d44e"},"vehicle_type_id":"4","last_reported":1738153039,"current_range_meters":27600,"station_id":"ce4bhpp2rcd13ifvqhfg","pricing_plan_id":"cebpf4jnsgd1na2vs0mg"},{"bike_id":"e358e4d6-8f5f-469b-beed-eded1e001bb0","system_id":"levelo_inurba_marseille","lat":43.29945,"lon":5.3747,"is_reserved":false,"is_disabled":false,"rental_uris":{"android":"levelo://app?vid=e358e4d6-8f5f-469b-beed-eded1e001bb0","ios":"levelo://app?vid=e358e4d6-8f5f-469b-beed-eded1e001bb0"},"vehicle_type_id":"4","last_reported":1738153039,"current_range_meters":14800,"station_id":"ce4bgjh2rcd13ifvqbg0","pricing_plan_id":"cebpf4jnsgd1na2vs0mg"},{"bike_id":"7191c8f0-5f6f-49ed-b937-3e0deb05e38b","system_id":"levelo_inurba_marseille","lat":43.31367,"lon":5.38499,"is_reserved":false,"is_disabled":false,"rental_uris":{"android":"levelo://app?vid=7191c8f0-5f6f-49ed-b937-3e0deb05e38b","ios":"levelo://app?vid=7191c8f0-5f6f-49ed-b937-3e0deb05e38b"},"vehicle_type_id":"4","last_reported":1738153039,"current_range_meters":2800,"station_id":"ce4bgt92rcd13ifvqcf0","pricing_plan_id":"cebpf4jnsgd1na2vs0mg"},{"bike_id":"d09fbc8b-1664-4bee-b0d4-ddf0f6322931","system_id":"levelo_inurba_marseille","lat":43.30554,"lon":5.36531,"is_reserved":false,"is_disabled":false,"rental_uris":{"android":"levelo://app?vid=d09fbc8b-1664-4bee-b0d4-ddf0f6322931","ios":"levelo://app?vid=d09fbc8b-1664-4bee-b0d4-ddf0f6322931"},"vehicle_type_id":"4","last_reported":1738153039,"current_range_meters":29600,"station_id":"ce4bgs12rcd13ifvqcag","pricing_plan_id":"cebpf4jnsgd1na2vs0mg"},{"bike_id":"67ba86c5-df81-4dd6-acd4-b5250260d960","system_id":"levelo_inurba_marseille","lat":43.29264,"lon":5.38438,"is_reserved":false,"is_disabled":false,"rental_uris":{"android":"levelo://app?vid=67ba86c5-df81-4dd6-acd4-b5250260d960","ios":"levelo://app?vid=67ba86c5-df81-4dd6-acd4-b5250260d960"},"vehicle_type_id":"4","last_reported":1738153039,"current_range_meters":17600,"station_id":"ce4bh692rcd13ifvqea0","pricing_plan_id":"cebpf4jnsgd1na2vs0mg"},{"bike_id":"0f31e6b3-a980-4ac5-b59c-5bf54b8b77bd","system_id":"levelo_inurba_marseille","lat":43.32477,"lon":5.36564,"is_reserved":false,"is_disabled":false,"rental_uris":{"android":"levelo://app?vid=0f31e6b3-a980-4ac5-b59c-5bf54b8b77bd","ios":"levelo://app?vid=0f31e6b3-a980-4ac5-b59c-5bf54b8b77bd"},"vehicle_type_id":"4","last_reported":1738153039,"current_range_meters":30400,"station_id":"ce4bhs12rcd13ifvqhvg","pricing_plan_id":"cebpf4jnsgd1na2vs0mg"},{"bike_id":"07556ea4-01ed-4d53-81d9-893d9b6d23fa","system_id":"levelo_inurba_marseille","lat":43.23143,"lon":5.43705,"is_reserved":false,"is_disabled":false,"rental_uris":{"android":"levelo://app?vid=07556ea4-01ed-4d53-81d9-893d9b6d23fa","ios":"levelo://app?vid=07556ea4-01ed-4d53-81d9-893d9b6d23fa"},"vehicle_type_id":"4","last_reported":1738153039,"current_range_meters":12000,"station_id":"ce4bhmp2rcd13ifvqgog","pricing_plan_id":"cebpf4jnsgd1na2vs0mg"},{"bike_id":"542c2176-6593-4f82-a71f-f1de3a92562f","system_id":"levelo_inurba_marseille","lat":43.22921,"lon":5.35397,"is_reserved":false,"is_disabled":false,"rental_uris":{"android":"levelo://app?vid=542c2176-6593-4f82-a71f-f1de3a92562f","ios":"levelo://app?vid=542c2176-6593-4f82-a71f-f1de3a92562f"},"vehicle_type_id":"4","last_reported":1738153039,"current_range_meters":39200,"station_id":"cpo3532slgdg3j2ikp40","pricing_plan_id":"cebpf4jnsgd1na2vs0mg"},{"bike_id":"6077467c-7074-4f45-87db-adb3cf561683","system_id":"levelo_inurba_marseille","lat":43.29416,"lon":5.38596,"is_reserved":false,"is_disabled":true,"rental_uris":{"android":"levelo://app?vid=6077467c-7074-4f45-87db-adb3cf561683","ios":"levelo://app?vid=6077467c-7074-4f45-87db-adb3cf561683"},"vehicle_type_id":"4","last_reported":1738153039,"current_range_meters":18800,"station_id":"ce4bh2h2rcd13ifvqdh0","pricing_plan_id":"cebpf4jnsgd1na2vs0mg"},{"bike_id":"c866490c-e315-4375-b761-f62fbbfce75e","system_id":"levelo_inurba_marseille","lat":43.24399,"lon":5.3706,"is_reserved":false,"is_disabled":false,"rental_uris":{"android":"levelo://app?vid=c866490c-e315-4375-b761-f62fbbfce75e","ios":"levelo://app?vid=c866490c-e315-4375-b761-f62fbbfce75e"},"vehicle_type_id":"4","last_reported":1738153039,"current_range_meters":39200,"station_id":"ce4bhhh2rcd13ifvqfk0","pricing_plan_id":"cebpf4jnsgd1na2vs0mg"},{"bike_id":"d979d8d2-ec65-47af-9229-e4270aab279a","system_id":"levelo_inurba_marseille","lat":43.23067,"lon":5.35494,"is_reserved":false,"is_disabled":false,"rental_uris":{"android":"levelo://app?vid=d979d8d2-ec65-47af-9229-e4270aab279a","ios":"levelo://app?vid=d979d8d2-ec65-47af-9229-e4270aab279a"},"vehicle_type_id":"4","last_reported":1738153039,"current_range_meters":19200,"station_id":"cpo3342slgdg3j2ifvpg","pricing_plan_id":"cebpf4jnsgd1na2vs0mg"},{"bike_id":"beec82ff-6bac-4064-befa-4bdf4421761b","system_id":"levelo_inurba_marseille","lat":43.31732,"lon":5.42449,"is_reserved":false,"is_disabled":false,"rental_uris":{"android":"levelo://app?vid=beec82ff-6bac-4064-befa-4bdf4421761b","ios":"levelo://app?vid=beec82ff-6bac-4064-befa-4bdf4421761b"},"vehicle_type_id":"4","last_reported":1738153039,"current_range_meters":36000,"station_id":"","pricing_plan_id":"cebpf4jnsgd1na2vs0mg"},{"bike_id":"64be77f4-07a5-4d4b-b2d0-0608076ab689","system_id":"levelo_inurba_marseille","lat":43.30266,"lon":5.37717,"is_reserved":false,"is_disabled":false,"rental_uris":{"android":"levelo://app?vid=64be77f4-07a5-4d4b-b2d0-0608076ab689","ios":"levelo://app?vid=64be77f4-07a5-4d4b-b2d0-0608076ab689"},"vehicle_type_id":"4","last_reported":1738153039,"current_range_meters":38000,"station_id":"ce4bguh2rcd13ifvqcj0","pricing_plan_id":"cebpf4jnsgd1na2vs0mg"},{"bike_id":"8400d4d1-f3a9-4908-b181-0eb6fc5d39c8","system_id":"levelo_inurba_marseille","lat":43.30522,"lon":5.36719,"is_reserved":false,"is_disabled":false,"rental_uris":{"android":"levelo://app?vid=8400d4d1-f3a9-4908-b181-0eb6fc5d39c8","ios":"levelo://app?vid=8400d4d1-f3a9-4908-b181-0eb6fc5d39c8"},"vehicle_type_id":"4","last_reported":1738153039,"current_range_meters":26000,"station_id":"ce4bgrp2rcd13ifvqc9g","pricing_plan_id":"cebpf4jnsgd1na2vs0mg"},{"bike_id":"5d3b6645-edd2-4f80-8c8b-cdd370ce0cec","system_id":"levelo_inurba_marseille","lat":43.33015,"lon":5.39049,"is_reserved":false,"is_disabled":false,"rental_uris":{"android":"levelo://app?vid=5d3b6645-edd2-4f80-8c8b-cdd370ce0cec","ios":"levelo://app?vid=5d3b6645-edd2-4f80-8c8b-cdd370ce0cec"},"vehicle_type_id":"4","last_reported":1738153039,"current_range_meters":27600,"station_id":"ce4bhr92rcd13ifvqhrg","pricing_plan_id":"cebpf4jnsgd1na2vs0mg"},{"bike_id":"815df10a-417d-4ac6-a444-446308a0c916","system_id":"levelo_inurba_marseille","lat":43.27375,"lon":5.36253,"is_reserved":false,"is_disabled":true,"rental_uris":{"android":"levelo://app?vid=815df10a-417d-4ac6-a444-446308a0c916","ios":"levelo://app?vid=815df10a-417d-4ac6-a444-446308a0c916"},"vehicle_type_id":"4","last_reported":1738153039,"current_range_meters":0,"station_id":"ce4bhbh2rcd13ifvqeo0","pricing_plan_id":"cebpf4jnsgd1na2vs0mg"},{"bike_id":"83e6ac11-412c-4c08-9daf-451247a9732c","system_id":"levelo_inurba_marseille","lat":43.29577,"lon":5.37518,"is_reserved":false,"is_disabled":false,"rental_uris":{"android":"levelo://app?vid=83e6ac11-412c-4c08-9daf-451247a9732c","ios":"levelo://app?vid=83e6ac11-412c-4c08-9daf-451247a9732c"},"vehicle_type_id":"4","last_reported":1738153039,"current_range_meters":34000,"station_id":"ce4bgh92rcd13ifvqb50","pricing_plan_id":"cebpf4jnsgd1na2vs0mg"},{"bike_id":"d8b1c3f9-ff6e-4179-8423-4ba0d2a2af0e","system_id":"levelo_inurba_marseille","lat":43.33717,"lon":5.39195,"is_reserved":false,"is_disabled":false,"rental_uris":{"android":"levelo://app?vid=d8b1c3f9-ff6e-4179-8423-4ba0d2a2af0e","ios":"levelo://app?vid=d8b1c3f9-ff6e-4179-8423-4ba0d2a2af0e"},"vehicle_type_id":"4","last_reported":1738153039,"current_range_meters":38800,"station_id":"ce4bhr92rcd13ifvqhsg","pricing_plan_id":"cebpf4jnsgd1na2vs0mg"},{"bike_id":"de2671c2-f484-4e8d-baf2-40a6da6c2049","system_id":"levelo_inurba_marseille","lat":43.28701,"lon":5.37385,"is_reserved":false,"is_disabled":false,"rental_uris":{"android":"levelo://app?vid=de2671c2-f484-4e8d-baf2-40a6da6c2049","ios":"levelo://app?vid=de2671c2-f484-4e8d-baf2-40a6da6c2049"},"vehicle_type_id":"4","last_reported":1738153039,"current_range_meters":18000,"station_id":"ce4bh3p2rcd13ifvqdq0","pricing_plan_id":"cebpf4jnsgd1na2vs0mg"},{"bike_id":"ddeeb021-3aa5-4692-ac65-d696b9db8d28","system_id":"levelo_inurba_marseille","lat":43.330013,"lon":5.390357,"is_reserved":false,"is_disabled":false,"rental_uris":{"android":"levelo://app?vid=ddeeb021-3aa5-4692-ac65-d696b9db8d28","ios":"levelo://app?vid=ddeeb021-3aa5-4692-ac65-d696b9db8d28"},"vehicle_type_id":"4","last_reported":1738153039,"current_range_meters":36800,"station_id":"ce4bhr92rcd13ifvqhrg","pricing_plan_id":"cebpf4jnsgd1na2vs0mg"},{"bike_id":"91394c05-5d2c-4802-8f5f-6f60929bbe7d","system_id":"levelo_inurba_marseille","lat":43.26795,"lon":5.3943,"is_reserved":false,"is_disabled":false,"rental_uris":{"android":"levelo://app?vid=91394c05-5d2c-4802-8f5f-6f60929bbe7d","ios":"levelo://app?vid=91394c05-5d2c-4802-8f5f-6f60929bbe7d"},"vehicle_type_id":"4","last_reported":1738153039,"current_range_meters":37600,"station_id":"ce4bhh12rcd13ifvqfg0","pricing_plan_id":"cebpf4jnsgd1na2vs0mg"},{"bike_id":"ba097584-3afc-4ac8-959a-b196fa7f6cd5","system_id":"levelo_inurba_marseille","lat":43.31372,"lon":5.36725,"is_reserved":false,"is_disabled":false,"rental_uris":{"android":"levelo://app?vid=ba097584-3afc-4ac8-959a-b196fa7f6cd5","ios":"levelo://app?vid=ba097584-3afc-4ac8-959a-b196fa7f6cd5"},"vehicle_type_id":"4","last_reported":1738153039,"current_range_meters":24800,"station_id":"ce4bgr92rcd13ifvqc6g","pricing_plan_id":"cebpf4jnsgd1na2vs0mg"},{"bike_id":"f4dd74a9-a4e1-4171-8564-2f3d5f39ace6","system_id":"levelo_inurba_marseille","lat":43.27822,"lon":5.40705,"is_reserved":false,"is_disabled":false,"rental_uris":{"android":"levelo://app?vid=f4dd74a9-a4e1-4171-8564-2f3d5f39ace6","ios":"levelo://app?vid=f4dd74a9-a4e1-4171-8564-2f3d5f39ace6"},"vehicle_type_id":"4","last_reported":1738153039,"current_range_meters":36000,"station_id":"ce4bhnh2rcd13ifvqgtg","pricing_plan_id":"cebpf4jnsgd1na2vs0mg"},{"bike_id":"222bee95-cf24-41bb-973f-e90eb444e827","system_id":"levelo_inurba_marseille","lat":43.27814,"lon":5.40725,"is_reserved":false,"is_disabled":false,"rental_uris":{"android":"levelo://app?vid=222bee95-cf24-41bb-973f-e90eb444e827","ios":"levelo://app?vid=222bee95-cf24-41bb-973f-e90eb444e827"},"vehicle_type_id":"4","last_reported":1738153039,"current_range_meters":36400,"station_id":"ce4bhnh2rcd13ifvqgtg","pricing_plan_id":"cebpf4jnsgd1na2vs0mg"},{"bike_id":"3c9c9088-9c27-4609-bc62-8218c0dc2be8","system_id":"levelo_inurba_marseille","lat":43.23188,"lon":5.35562,"is_reserved":false,"is_disabled":false,"rental_uris":{"android":"levelo://app?vid=3c9c9088-9c27-4609-bc62-8218c0dc2be8","ios":"levelo://app?vid=3c9c9088-9c27-4609-bc62-8218c0dc2be8"},"vehicle_type_id":"4","last_reported":1738153039,"current_range_meters":28800,"station_id":"ce4bhu92rcd13ifvqi70","pricing_plan_id":"cebpf4jnsgd1na2vs0mg"},{"bike_id":"e658b7fe-f35b-4a53-9343-4b90e481c9f9","system_id":"levelo_inurba_marseille","lat":43.3055,"lon":5.36565,"is_reserved":false,"is_disabled":false,"rental_uris":{"android":"levelo://app?vid=e658b7fe-f35b-4a53-9343-4b90e481c9f9","ios":"levelo://app?vid=e658b7fe-f35b-4a53-9343-4b90e481c9f9"},"vehicle_type_id":"4","last_reported":1738153039,"current_range_meters":31200,"station_id":"ce4bgs12rcd13ifvqcag","pricing_plan_id":"cebpf4jnsgd1na2vs0mg"},{"bike_id":"528413ce-196d-4d7b-bc40-26631d1ef854","system_id":"levelo_inurba_marseille","lat":43.29566,"lon":5.39962,"is_reserved":false,"is_disabled":true,"rental_uris":{"android":"levelo://app?vid=528413ce-196d-4d7b-bc40-26631d1ef854","ios":"levelo://app?vid=528413ce-196d-4d7b-bc40-26631d1ef854"},"vehicle_type_id":"4","last_reported":1738153039,"current_range_meters":400,"station_id":"ce4bh312rcd13ifvqdj0","pricing_plan_id":"cebpf4jnsgd1na2vs0mg"},{"bike_id":"34cc192b-1c2e-4389-8879-605d31845e92","system_id":"levelo_inurba_marseille","lat":43.29277,"lon":5.36843,"is_reserved":false,"is_disabled":false,"rental_uris":{"android":"levelo://app?vid=34cc192b-1c2e-4389-8879-605d31845e92","ios":"levelo://app?vid=34cc192b-1c2e-4389-8879-605d31845e92"},"vehicle_type_id":"4","last_reported":1738153039,"current_range_meters":30000,"station_id":"ce4bhbp2rcd13ifvqesg","pricing_plan_id":"cebpf4jnsgd1na2vs0mg"},{"bike_id":"1fea45ae-d749-4981-a2fb-a2c032627559","system_id":"levelo_inurba_marseille","lat":43.2954,"lon":5.39403,"is_reserved":false,"is_disabled":false,"rental_uris":{"android":"levelo://app?vid=1fea45ae-d749-4981-a2fb-a2c032627559","ios":"levelo://app?vid=1fea45ae-d749-4981-a2fb-a2c032627559"},"vehicle_type_id":"4","last_reported":1738153039,"current_range_meters":30400,"station_id":"ce4bh292rcd13ifvqdf0","pricing_plan_id":"cebpf4jnsgd1na2vs0mg"},{"bike_id":"15af56a0-50cc-4287-938a-57061c15f0c6","system_id":"levelo_inurba_marseille","lat":43.32998,"lon":5.39042,"is_reserved":false,"is_disabled":false,"rental_uris":{"android":"levelo://app?vid=15af56a0-50cc-4287-938a-57061c15f0c6","ios":"levelo://app?vid=15af56a0-50cc-4287-938a-57061c15f0c6"},"vehicle_type_id":"4","last_reported":1738153039,"current_range_meters":31200,"station_id":"ce4bhr92rcd13ifvqhrg","pricing_plan_id":"cebpf4jnsgd1na2vs0mg"},{"bike_id":"e83347d4-304c-4eb0-afec-ba22257148d3","system_id":"levelo_inurba_marseille","lat":43.26202,"lon":5.37931,"is_reserved":false,"is_disabled":false,"rental_uris":{"android":"levelo://app?vid=e83347d4-304c-4eb0-afec-ba22257148d3","ios":"levelo://app?vid=e83347d4-304c-4eb0-afec-ba22257148d3"},"vehicle_type_id":"4","last_reported":1738153039,"current_range_meters":30400,"station_id":"ce4bhjp2rcd13ifvqg90","pricing_plan_id":"cebpf4jnsgd1na2vs0mg"},{"bike_id":"04bddb16-3f38-4704-a43a-85cd7af0af99","system_id":"levelo_inurba_marseille","lat":43.25122,"lon":5.40319,"is_reserved":false,"is_disabled":false,"rental_uris":{"android":"levelo://app?vid=04bddb16-3f38-4704-a43a-85cd7af0af99","ios":"levelo://app?vid=04bddb16-3f38-4704-a43a-85cd7af0af99"},"vehicle_type_id":"4","last_reported":1738153039,"current_range_meters":25200,"station_id":"ce4bhlh2rcd13ifvqgig","pricing_plan_id":"cebpf4jnsgd1na2vs0mg"},{"bike_id":"6d8800a5-360d-4d1f-ae15-6111a80ad6c7","system_id":"levelo_inurba_marseille","lat":43.30783,"lon":5.37651,"is_reserved":false,"is_disabled":false,"rental_uris":{"android":"levelo://app?vid=6d8800a5-360d-4d1f-ae15-6111a80ad6c7","ios":"levelo://app?vid=6d8800a5-360d-4d1f-ae15-6111a80ad6c7"},"vehicle_type_id":"4","last_reported":1738153039,"current_range_meters":31200,"station_id":"ce4bgv92rcd13ifvqcq0","pricing_plan_id":"cebpf4jnsgd1na2vs0mg"},{"bike_id":"7427c665-2cc8-4882-8959-647a0d86024a","system_id":"levelo_inurba_marseille","lat":43.3034,"lon":5.41885,"is_reserved":false,"is_disabled":false,"rental_uris":{"android":"levelo://app?vid=7427c665-2cc8-4882-8959-647a0d86024a","ios":"levelo://app?vid=7427c665-2cc8-4882-8959-647a0d86024a"},"vehicle_type_id":"4","last_reported":1738153039,"current_range_meters":38800,"station_id":"ce4bhop2rcd13ifvqh7g","pricing_plan_id":"cebpf4jnsgd1na2vs0mg"},{"bike_id":"758aac44-99b7-47b2-92b8-4ad2430f7583","system_id":"levelo_inurba_marseille","lat":43.26685,"lon":5.38264,"is_reserved":false,"is_disabled":false,"rental_uris":{"android":"levelo://app?vid=758aac44-99b7-47b2-92b8-4ad2430f7583","ios":"levelo://app?vid=758aac44-99b7-47b2-92b8-4ad2430f7583"},"vehicle_type_id":"4","last_reported":1738153039,"current_range_meters":35200,"station_id":"ce4bhg92rcd13ifvqf90","pricing_plan_id":"cebpf4jnsgd1na2vs0mg"},{"bike_id":"53d46465-1c69-4274-9bb5-d6a4feb5e603","system_id":"levelo_inurba_marseille","lat":43.31349,"lon":5.3669,"is_reserved":false,"is_disabled":false,"rental_uris":{"android":"levelo://app?vid=53d46465-1c69-4274-9bb5-d6a4feb5e603","ios":"levelo://app?vid=53d46465-1c69-4274-9bb5-d6a4feb5e603"},"vehicle_type_id":"4","last_reported":1738153039,"current_range_meters":38800,"station_id":"ce4bgr92rcd13ifvqc6g","pricing_plan_id":"cebpf4jnsgd1na2vs0mg"},{"bike_id":"7c86252b-3c7d-4c5c-b569-55c5600074d1","system_id":"levelo_inurba_marseille","lat":43.30566,"lon":5.39351,"is_reserved":false,"is_disabled":false,"rental_uris":{"android":"levelo://app?vid=7c86252b-3c7d-4c5c-b569-55c5600074d1","ios":"levelo://app?vid=7c86252b-3c7d-4c5c-b569-55c5600074d1"},"vehicle_type_id":"4","last_reported":1738153039,"current_range_meters":38800,"station_id":"ce4bh0p2rcd13ifvqd80","pricing_plan_id":"cebpf4jnsgd1na2vs0mg"},{"bike_id":"ec2373b7-83ac-4a62-b65d-1d6b6b9cfea9","system_id":"levelo_inurba_marseille","lat":43.27559,"lon":5.38449,"is_reserved":false,"is_disabled":false,"rental_uris":{"android":"levelo://app?vid=ec2373b7-83ac-4a62-b65d-1d6b6b9cfea9","ios":"levelo://app?vid=ec2373b7-83ac-4a62-b65d-1d6b6b9cfea9"},"vehicle_type_id":"4","last_reported":1738153039,"current_range_meters":39200,"station_id":"ce4bhh92rcd13ifvqfi0","pricing_plan_id":"cebpf4jnsgd1na2vs0mg"},{"bike_id":"763fb187-2b7c-4ebc-b96c-4eab3c1a2944","system_id":"levelo_inurba_marseille","lat":43.29719,"lon":5.36612,"is_reserved":false,"is_disabled":false,"rental_uris":{"android":"levelo://app?vid=763fb187-2b7c-4ebc-b96c-4eab3c1a2944","ios":"levelo://app?vid=763fb187-2b7c-4ebc-b96c-4eab3c1a2944"},"vehicle_type_id":"4","last_reported":1738153039,"current_range_meters":38800,"station_id":"ce4bgn12rcd13ifvqbt0","pricing_plan_id":"cebpf4jnsgd1na2vs0mg"},{"bike_id":"05b11dd3-6a9c-4f38-8b8d-f8ec90669833","system_id":"levelo_inurba_marseille","lat":43.336045,"lon":5.410368,"is_reserved":false,"is_disabled":false,"rental_uris":{"android":"levelo://app?vid=05b11dd3-6a9c-4f38-8b8d-f8ec90669833","ios":"levelo://app?vid=05b11dd3-6a9c-4f38-8b8d-f8ec90669833"},"vehicle_type_id":"4","last_reported":1738153039,"current_range_meters":38800,"station_id":"ce4bhqh2rcd13ifvqhmg","pricing_plan_id":"cebpf4jnsgd1na2vs0mg"},{"bike_id":"8813469c-333b-4e6e-b9ff-34491d7c3830","system_id":"levelo_inurba_marseille","lat":43.27499,"lon":5.4245,"is_reserved":false,"is_disabled":false,"rental_uris":{"android":"levelo://app?vid=8813469c-333b-4e6e-b9ff-34491d7c3830","ios":"levelo://app?vid=8813469c-333b-4e6e-b9ff-34491d7c3830"},"vehicle_type_id":"4","last_reported":1738153039,"current_range_meters":38400,"station_id":"ce4bhn92rcd13ifvqgrg","pricing_plan_id":"cebpf4jnsgd1na2vs0mg"},{"bike_id":"ab2c796a-c23b-4a3a-9534-777b873d6a05","system_id":"levelo_inurba_marseille","lat":43.24172,"lon":5.36396,"is_reserved":false,"is_disabled":false,"rental_uris":{"android":"levelo://app?vid=ab2c796a-c23b-4a3a-9534-777b873d6a05","ios":"levelo://app?vid=ab2c796a-c23b-4a3a-9534-777b873d6a05"},"vehicle_type_id":"4","last_reported":1738153039,"current_range_meters":16400,"station_id":"cpo36qri1sfpv3e86is0","pricing_plan_id":"cebpf4jnsgd1na2vs0mg"},{"bike_id":"6c477c9c-4c2c-4e15-a8a0-01489ce6534f","system_id":"levelo_inurba_marseille","lat":43.23953,"lon":5.36644,"is_reserved":false,"is_disabled":false,"rental_uris":{"android":"levelo://app?vid=6c477c9c-4c2c-4e15-a8a0-01489ce6534f","ios":"levelo://app?vid=6c477c9c-4c2c-4e15-a8a0-01489ce6534f"},"vehicle_type_id":"4","last_reported":1738153039,"current_range_meters":9600,"station_id":"ce4bhi12rcd13ifvqfp0","pricing_plan_id":"cebpf4jnsgd1na2vs0mg"},{"bike_id":"1ae0d9e2-f188-46c3-bfad-63b2aaa31071","system_id":"levelo_inurba_marseille","lat":43.29198,"lon":5.35808,"is_reserved":false,"is_disabled":false,"rental_uris":{"android":"levelo://app?vid=1ae0d9e2-f188-46c3-bfad-63b2aaa31071","ios":"levelo://app?vid=1ae0d9e2-f188-46c3-bfad-63b2aaa31071"},"vehicle_type_id":"4","last_reported":1738153039,"current_range_meters":38800,"station_id":"ce4bhb12rcd13ifvqel0","pricing_plan_id":"cebpf4jnsgd1na2vs0mg"},{"bike_id":"7023018f-a9cc-4d01-b59d-de75cc5a9d8d","system_id":"levelo_inurba_marseille","lat":43.30151,"lon":5.38081,"is_reserved":false,"is_disabled":false,"rental_uris":{"android":"levelo://app?vid=7023018f-a9cc-4d01-b59d-de75cc5a9d8d","ios":"levelo://app?vid=7023018f-a9cc-4d01-b59d-de75cc5a9d8d"},"vehicle_type_id":"4","last_reported":1738153039,"current_range_meters":33600,"station_id":"ce4bgjp2rcd13ifvqbh0","pricing_plan_id":"cebpf4jnsgd1na2vs0mg"},{"bike_id":"4195ba73-9cc7-43a2-a73f-622d48963164","system_id":"levelo_inurba_marseille","lat":43.27495,"lon":5.42442,"is_reserved":false,"is_disabled":false,"rental_uris":{"android":"levelo://app?vid=4195ba73-9cc7-43a2-a73f-622d48963164","ios":"levelo://app?vid=4195ba73-9cc7-43a2-a73f-622d48963164"},"vehicle_type_id":"4","last_reported":1738153039,"current_range_meters":38000,"station_id":"ce4bhn92rcd13ifvqgrg","pricing_plan_id":"cebpf4jnsgd1na2vs0mg"},{"bike_id":"0fd97449-226b-44c7-bbd0-455bf22b7867","system_id":"levelo_inurba_marseille","lat":43.30598,"lon":5.39368,"is_reserved":false,"is_disabled":false,"rental_uris":{"android":"levelo://app?vid=0fd97449-226b-44c7-bbd0-455bf22b7867","ios":"levelo://app?vid=0fd97449-226b-44c7-bbd0-455bf22b7867"},"vehicle_type_id":"4","last_reported":1738153039,"current_range_meters":9200,"station_id":"ce4bh0p2rcd13ifvqd80","pricing_plan_id":"cebpf4jnsgd1na2vs0mg"},{"bike_id":"f0f07e84-01c4-443b-852b-4e00b882c1d8","system_id":"levelo_inurba_marseille","lat":43.30825,"lon":5.43524,"is_reserved":false,"is_disabled":false,"rental_uris":{"android":"levelo://app?vid=f0f07e84-01c4-443b-852b-4e00b882c1d8","ios":"levelo://app?vid=f0f07e84-01c4-443b-852b-4e00b882c1d8"},"vehicle_type_id":"4","last_reported":1738153039,"current_range_meters":39200,"station_id":"ce4bhph2rcd13ifvqheg","pricing_plan_id":"cebpf4jnsgd1na2vs0mg"},{"bike_id":"07d3ef5b-81f6-45ec-91d1-c42d4e295b17","system_id":"levelo_inurba_marseille","lat":43.2465,"lon":5.38913,"is_reserved":false,"is_disabled":false,"rental_uris":{"android":"levelo://app?vid=07d3ef5b-81f6-45ec-91d1-c42d4e295b17","ios":"levelo://app?vid=07d3ef5b-81f6-45ec-91d1-c42d4e295b17"},"vehicle_type_id":"4","last_reported":1738153039,"current_range_meters":39200,"station_id":"ce4bhg12rcd13ifvqf60","pricing_plan_id":"cebpf4jnsgd1na2vs0mg"},{"bike_id":"4e331cde-9b58-436f-9288-d266e9017c62","system_id":"levelo_inurba_marseille","lat":43.2418,"lon":5.39733,"is_reserved":false,"is_disabled":false,"rental_uris":{"android":"levelo://app?vid=4e331cde-9b58-436f-9288-d266e9017c62","ios":"levelo://app?vid=4e331cde-9b58-436f-9288-d266e9017c62"},"vehicle_type_id":"4","last_reported":1738153039,"current_range_meters":11600,"station_id":"ce4bhn12rcd13ifvqgpg","pricing_plan_id":"cebpf4jnsgd1na2vs0mg"},{"bike_id":"e6225d32-d899-44da-838c-c7bd5362528d","system_id":"levelo_inurba_marseille","lat":43.265044,"lon":5.395384,"is_reserved":false,"is_disabled":false,"rental_uris":{"android":"levelo://app?vid=e6225d32-d899-44da-838c-c7bd5362528d","ios":"levelo://app?vid=e6225d32-d899-44da-838c-c7bd5362528d"},"vehicle_type_id":"4","last_reported":1738153039,"current_range_meters":33600,"station_id":"ce4bhi12rcd13ifvqfq0","pricing_plan_id":"cebpf4jnsgd1na2vs0mg"},{"bike_id":"3afe2907-14fe-40b0-8ce8-247215ed16c8","system_id":"levelo_inurba_marseille","lat":43.26958,"lon":5.38923,"is_reserved":false,"is_disabled":true,"rental_uris":{"android":"levelo://app?vid=3afe2907-14fe-40b0-8ce8-247215ed16c8","ios":"levelo://app?vid=3afe2907-14fe-40b0-8ce8-247215ed16c8"},"vehicle_type_id":"4","last_reported":1738153039,"current_range_meters":4800,"station_id":"ce4bhhh2rcd13ifvqfl0","pricing_plan_id":"cebpf4jnsgd1na2vs0mg"},{"bike_id":"e8e1f7c6-d773-4c38-bfcc-4a6d773355ce","system_id":"levelo_inurba_marseille","lat":43.22939,"lon":5.35382,"is_reserved":false,"is_disabled":false,"rental_uris":{"android":"levelo://app?vid=e8e1f7c6-d773-4c38-bfcc-4a6d773355ce","ios":"levelo://app?vid=e8e1f7c6-d773-4c38-bfcc-4a6d773355ce"},"vehicle_type_id":"4","last_reported":1738153039,"current_range_meters":38800,"station_id":"cpo3532slgdg3j2ikp40","pricing_plan_id":"cebpf4jnsgd1na2vs0mg"},{"bike_id":"65a4fd37-d87a-41db-b970-5d3a9a8b7aa1","system_id":"levelo_inurba_marseille","lat":43.27613,"lon":5.36107,"is_reserved":false,"is_disabled":false,"rental_uris":{"android":"levelo://app?vid=65a4fd37-d87a-41db-b970-5d3a9a8b7aa1","ios":"levelo://app?vid=65a4fd37-d87a-41db-b970-5d3a9a8b7aa1"},"vehicle_type_id":"4","last_reported":1738153039,"current_range_meters":38800,"station_id":"ce4bgj92rcd13ifvqbe0","pricing_plan_id":"cebpf4jnsgd1na2vs0mg"},{"bike_id":"3db96b0b-b0cf-4283-a863-386edecd0027","system_id":"levelo_inurba_marseille","lat":43.23139,"lon":5.43718,"is_reserved":false,"is_disabled":false,"rental_uris":{"android":"levelo://app?vid=3db96b0b-b0cf-4283-a863-386edecd0027","ios":"levelo://app?vid=3db96b0b-b0cf-4283-a863-386edecd0027"},"vehicle_type_id":"4","last_reported":1738153039,"current_range_meters":19200,"station_id":"ce4bhmp2rcd13ifvqgog","pricing_plan_id":"cebpf4jnsgd1na2vs0mg"},{"bike_id":"e7bdfee9-7114-438e-a648-30f1818a3d1d","system_id":"levelo_inurba_marseille","lat":43.30332,"lon":5.40432,"is_reserved":false,"is_disabled":false,"rental_uris":{"android":"levelo://app?vid=e7bdfee9-7114-438e-a648-30f1818a3d1d","ios":"levelo://app?vid=e7bdfee9-7114-438e-a648-30f1818a3d1d"},"vehicle_type_id":"4","last_reported":1738153039,"current_range_meters":34800,"station_id":"ce4bh012rcd13ifvqd10","pricing_plan_id":"cebpf4jnsgd1na2vs0mg"},{"bike_id":"cc26c524-9981-41d6-9e25-17cb40d9e550","system_id":"levelo_inurba_marseille","lat":43.24817,"lon":5.37473,"is_reserved":false,"is_disabled":false,"rental_uris":{"android":"levelo://app?vid=cc26c524-9981-41d6-9e25-17cb40d9e550","ios":"levelo://app?vid=cc26c524-9981-41d6-9e25-17cb40d9e550"},"vehicle_type_id":"4","last_reported":1738153039,"current_range_meters":24000,"station_id":"ce4bhgh2rcd13ifvqfb0","pricing_plan_id":"cebpf4jnsgd1na2vs0mg"},{"bike_id":"5e0dcc46-b34b-4251-b7c6-c72d7dd6e2c0","system_id":"levelo_inurba_marseille","lat":43.2799,"lon":5.40016,"is_reserved":false,"is_disabled":true,"rental_uris":{"android":"levelo://app?vid=5e0dcc46-b34b-4251-b7c6-c72d7dd6e2c0","ios":"levelo://app?vid=5e0dcc46-b34b-4251-b7c6-c72d7dd6e2c0"},"vehicle_type_id":"4","last_reported":1738153039,"current_range_meters":38800,"station_id":"ce4bho92rcd13ifvqh4g","pricing_plan_id":"cebpf4jnsgd1na2vs0mg"},{"bike_id":"b54070eb-2a35-4b58-9236-d2a76833778e","system_id":"levelo_inurba_marseille","lat":43.25857,"lon":5.39895,"is_reserved":false,"is_disabled":false,"rental_uris":{"android":"levelo://app?vid=b54070eb-2a35-4b58-9236-d2a76833778e","ios":"levelo://app?vid=b54070eb-2a35-4b58-9236-d2a76833778e"},"vehicle_type_id":"4","last_reported":1738153039,"current_range_meters":37600,"station_id":"ce4bhl92rcd13ifvqghg","pricing_plan_id":"cebpf4jnsgd1na2vs0mg"},{"bike_id":"fed3765d-2f18-4802-beec-713ff8b32285","system_id":"levelo_inurba_marseille","lat":43.29797,"lon":5.37106,"is_reserved":false,"is_disabled":false,"rental_uris":{"android":"levelo://app?vid=fed3765d-2f18-4802-beec-713ff8b32285","ios":"levelo://app?vid=fed3765d-2f18-4802-beec-713ff8b32285"},"vehicle_type_id":"4","last_reported":1738153039,"current_range_meters":35200,"station_id":"ce4bgop2rcd13ifvqc1g","pricing_plan_id":"cebpf4jnsgd1na2vs0mg"},{"bike_id":"dd195832-ff3f-4763-a260-74003ef7ff4c","system_id":"levelo_inurba_marseille","lat":43.29222,"lon":5.36052,"is_reserved":false,"is_disabled":false,"rental_uris":{"android":"levelo://app?vid=dd195832-ff3f-4763-a260-74003ef7ff4c","ios":"levelo://app?vid=dd195832-ff3f-4763-a260-74003ef7ff4c"},"vehicle_type_id":"4","last_reported":1738153039,"current_range_meters":34000,"station_id":"ce4bhbh2rcd13ifvqeqg","pricing_plan_id":"cebpf4jnsgd1na2vs0mg"},{"bike_id":"e5f6e0e7-6930-48fa-84ca-8f1a3d213a18","system_id":"levelo_inurba_marseille","lat":43.29519,"lon":5.39036,"is_reserved":false,"is_disabled":false,"rental_uris":{"android":"levelo://app?vid=e5f6e0e7-6930-48fa-84ca-8f1a3d213a18","ios":"levelo://app?vid=e5f6e0e7-6930-48fa-84ca-8f1a3d213a18"},"vehicle_type_id":"4","last_reported":1738153039,"current_range_meters":10000,"station_id":"ce4bh3p2rcd13ifvqdp0","pricing_plan_id":"cebpf4jnsgd1na2vs0mg"},{"bike_id":"504dea5b-3c2a-489e-8275-d8db04b04cbd","system_id":"levelo_inurba_marseille","lat":43.28733,"lon":5.38414,"is_reserved":false,"is_disabled":false,"rental_uris":{"android":"levelo://app?vid=504dea5b-3c2a-489e-8275-d8db04b04cbd","ios":"levelo://app?vid=504dea5b-3c2a-489e-8275-d8db04b04cbd"},"vehicle_type_id":"4","last_reported":1738153039,"current_range_meters":34000,"station_id":"","pricing_plan_id":"cebpf4jnsgd1na2vs0mg"},{"bike_id":"cf39b8f8-8782-424a-8003-82a2a3225368","system_id":"levelo_inurba_marseille","lat":43.31081,"lon":5.42433,"is_reserved":false,"is_disabled":false,"rental_uris":{"android":"levelo://app?vid=cf39b8f8-8782-424a-8003-82a2a3225368","ios":"levelo://app?vid=cf39b8f8-8782-424a-8003-82a2a3225368"},"vehicle_type_id":"4","last_reported":1738153039,"current_range_meters":24400,"station_id":"ce4bhp92rcd13ifvqhag","pricing_plan_id":"cebpf4jnsgd1na2vs0mg"},{"bike_id":"cac4bdba-dcaa-4ad4-863d-d75c99bcc817","system_id":"levelo_inurba_marseille","lat":43.30146,"lon":5.37421,"is_reserved":false,"is_disabled":false,"rental_uris":{"android":"levelo://app?vid=cac4bdba-dcaa-4ad4-863d-d75c99bcc817","ios":"levelo://app?vid=cac4bdba-dcaa-4ad4-863d-d75c99bcc817"},"vehicle_type_id":"4","last_reported":1738153039,"current_range_meters":32000,"station_id":"ce4bgs92rcd13ifvqcc0","pricing_plan_id":"cebpf4jnsgd1na2vs0mg"},{"bike_id":"c1d1ce73-8f8f-42c4-8303-66858ad4f592","system_id":"levelo_inurba_marseille","lat":43.27493,"lon":5.42455,"is_reserved":false,"is_disabled":true,"rental_uris":{"android":"levelo://app?vid=c1d1ce73-8f8f-42c4-8303-66858ad4f592","ios":"levelo://app?vid=c1d1ce73-8f8f-42c4-8303-66858ad4f592"},"vehicle_type_id":"4","last_reported":1738153039,"current_range_meters":28000,"station_id":"ce4bhn92rcd13ifvqgrg","pricing_plan_id":"cebpf4jnsgd1na2vs0mg"},{"bike_id":"d9d8491a-b0aa-4bef-958c-74dfc36d5337","system_id":"levelo_inurba_marseille","lat":43.24543,"lon":5.39524,"is_reserved":false,"is_disabled":false,"rental_uris":{"android":"levelo://app?vid=d9d8491a-b0aa-4bef-958c-74dfc36d5337","ios":"levelo://app?vid=d9d8491a-b0aa-4bef-958c-74dfc36d5337"},"vehicle_type_id":"4","last_reported":1738153039,"current_range_meters":17600,"station_id":"ce4bhlp2rcd13ifvqgjg","pricing_plan_id":"cebpf4jnsgd1na2vs0mg"},{"bike_id":"71f34f72-d3b7-46a5-9bd4-1fe057b3152f","system_id":"levelo_inurba_marseille","lat":43.22938,"lon":5.35376,"is_reserved":false,"is_disabled":false,"rental_uris":{"android":"levelo://app?vid=71f34f72-d3b7-46a5-9bd4-1fe057b3152f","ios":"levelo://app?vid=71f34f72-d3b7-46a5-9bd4-1fe057b3152f"},"vehicle_type_id":"4","last_reported":1738153039,"current_range_meters":39200,"station_id":"cpo3532slgdg3j2ikp40","pricing_plan_id":"cebpf4jnsgd1na2vs0mg"},{"bike_id":"0fbebbde-03bb-4c3d-98b5-24503025a17d","system_id":"levelo_inurba_marseille","lat":43.29642,"lon":5.37712,"is_reserved":false,"is_disabled":false,"rental_uris":{"android":"levelo://app?vid=0fbebbde-03bb-4c3d-98b5-24503025a17d","ios":"levelo://app?vid=0fbebbde-03bb-4c3d-98b5-24503025a17d"},"vehicle_type_id":"4","last_reported":1738153039,"current_range_meters":38800,"station_id":"ce4bgi92rcd13ifvqb90","pricing_plan_id":"cebpf4jnsgd1na2vs0mg"},{"bike_id":"20029bdd-9f9c-4ff9-86e4-5ba6ed30f46a","system_id":"levelo_inurba_marseille","lat":43.23149,"lon":5.43719,"is_reserved":false,"is_disabled":true,"rental_uris":{"android":"levelo://app?vid=20029bdd-9f9c-4ff9-86e4-5ba6ed30f46a","ios":"levelo://app?vid=20029bdd-9f9c-4ff9-86e4-5ba6ed30f46a"},"vehicle_type_id":"4","last_reported":1738153039,"current_range_meters":0,"station_id":"ce4bhmp2rcd13ifvqgog","pricing_plan_id":"cebpf4jnsgd1na2vs0mg"},{"bike_id":"2985637e-2459-4dc7-806f-992191cb28e4","system_id":"levelo_inurba_marseille","lat":43.32063,"lon":5.41524,"is_reserved":false,"is_disabled":false,"rental_uris":{"android":"levelo://app?vid=2985637e-2459-4dc7-806f-992191cb28e4","ios":"levelo://app?vid=2985637e-2459-4dc7-806f-992191cb28e4"},"vehicle_type_id":"4","last_reported":1738153039,"current_range_meters":28800,"station_id":"ce4bhq92rcd13ifvqhkg","pricing_plan_id":"cebpf4jnsgd1na2vs0mg"},{"bike_id":"aa4f6ae5-d01b-4b01-be63-8c20aa761ad8","system_id":"levelo_inurba_marseille","lat":43.27426,"lon":5.39424,"is_reserved":false,"is_disabled":false,"rental_uris":{"android":"levelo://app?vid=aa4f6ae5-d01b-4b01-be63-8c20aa761ad8","ios":"levelo://app?vid=aa4f6ae5-d01b-4b01-be63-8c20aa761ad8"},"vehicle_type_id":"4","last_reported":1738153039,"current_range_meters":24000,"station_id":"ce4bhdp2rcd13ifvqf20","pricing_plan_id":"cebpf4jnsgd1na2vs0mg"},{"bike_id":"7368489e-a908-42e6-afcc-85dccec8ab00","system_id":"levelo_inurba_marseille","lat":43.25856,"lon":5.39894,"is_reserved":false,"is_disabled":false,"rental_uris":{"android":"levelo://app?vid=7368489e-a908-42e6-afcc-85dccec8ab00","ios":"levelo://app?vid=7368489e-a908-42e6-afcc-85dccec8ab00"},"vehicle_type_id":"4","last_reported":1738153039,"current_range_meters":3600,"station_id":"ce4bhl92rcd13ifvqghg","pricing_plan_id":"cebpf4jnsgd1na2vs0mg"},{"bike_id":"19776927-f92c-41ef-ac31-0ac373ebeb68","system_id":"levelo_inurba_marseille","lat":43.30582,"lon":5.39339,"is_reserved":false,"is_disabled":false,"rental_uris":{"android":"levelo://app?vid=19776927-f92c-41ef-ac31-0ac373ebeb68","ios":"levelo://app?vid=19776927-f92c-41ef-ac31-0ac373ebeb68"},"vehicle_type_id":"4","last_reported":1738153039,"current_range_meters":38800,"station_id":"ce4bh0p2rcd13ifvqd80","pricing_plan_id":"cebpf4jnsgd1na2vs0mg"},{"bike_id":"b2d40e14-333e-4c0a-859f-f466c3a50d9f","system_id":"levelo_inurba_marseille","lat":43.23973,"lon":5.36628,"is_reserved":false,"is_disabled":false,"rental_uris":{"android":"levelo://app?vid=b2d40e14-333e-4c0a-859f-f466c3a50d9f","ios":"levelo://app?vid=b2d40e14-333e-4c0a-859f-f466c3a50d9f"},"vehicle_type_id":"4","last_reported":1738153039,"current_range_meters":36400,"station_id":"ce4bhi12rcd13ifvqfp0","pricing_plan_id":"cebpf4jnsgd1na2vs0mg"},{"bike_id":"2ec84c22-8666-467b-b9ab-b38e4ac8ff9f","system_id":"levelo_inurba_marseille","lat":43.29917,"lon":5.43672,"is_reserved":false,"is_disabled":true,"rental_uris":{"android":"levelo://app?vid=2ec84c22-8666-467b-b9ab-b38e4ac8ff9f","ios":"levelo://app?vid=2ec84c22-8666-467b-b9ab-b38e4ac8ff9f"},"vehicle_type_id":"4","last_reported":1738153039,"current_range_meters":34000,"station_id":"ce4bhpp2rcd13ifvqhfg","pricing_plan_id":"cebpf4jnsgd1na2vs0mg"},{"bike_id":"f758916d-7680-40a3-9582-cd262e26db01","system_id":"levelo_inurba_marseille","lat":43.32472,"lon":5.36601,"is_reserved":false,"is_disabled":false,"rental_uris":{"android":"levelo://app?vid=f758916d-7680-40a3-9582-cd262e26db01","ios":"levelo://app?vid=f758916d-7680-40a3-9582-cd262e26db01"},"vehicle_type_id":"4","last_reported":1738153039,"current_range_meters":38800,"station_id":"ce4bhs12rcd13ifvqhvg","pricing_plan_id":"cebpf4jnsgd1na2vs0mg"},{"bike_id":"bdddf215-203d-43c3-93dc-953ad8b0e105","system_id":"levelo_inurba_marseille","lat":43.23196,"lon":5.40003,"is_reserved":false,"is_disabled":false,"rental_uris":{"android":"levelo://app?vid=bdddf215-203d-43c3-93dc-953ad8b0e105","ios":"levelo://app?vid=bdddf215-203d-43c3-93dc-953ad8b0e105"},"vehicle_type_id":"4","last_reported":1738153039,"current_range_meters":38000,"station_id":"ce4bhn12rcd13ifvqgqg","pricing_plan_id":"cebpf4jnsgd1na2vs0mg"},{"bike_id":"ff68af14-5554-4f8d-a3de-4549d987f602","system_id":"levelo_inurba_marseille","lat":43.2991,"lon":5.43659,"is_reserved":false,"is_disabled":false,"rental_uris":{"android":"levelo://app?vid=ff68af14-5554-4f8d-a3de-4549d987f602","ios":"levelo://app?vid=ff68af14-5554-4f8d-a3de-4549d987f602"},"vehicle_type_id":"4","last_reported":1738153039,"current_range_meters":31200,"station_id":"ce4bhpp2rcd13ifvqhfg","pricing_plan_id":"cebpf4jnsgd1na2vs0mg"},{"bike_id":"296acca2-a355-4830-bc97-a6939a85f573","system_id":"levelo_inurba_marseille","lat":43.25574,"lon":5.38261,"is_reserved":false,"is_disabled":false,"rental_uris":{"android":"levelo://app?vid=296acca2-a355-4830-bc97-a6939a85f573","ios":"levelo://app?vid=296acca2-a355-4830-bc97-a6939a85f573"},"vehicle_type_id":"4","last_reported":1738153039,"current_range_meters":24400,"station_id":"ce4bhih2rcd13ifvqfs0","pricing_plan_id":"cebpf4jnsgd1na2vs0mg"},{"bike_id":"8381ecee-e398-4ae4-a060-80727e153d18","system_id":"levelo_inurba_marseille","lat":43.30548,"lon":5.36713,"is_reserved":false,"is_disabled":false,"rental_uris":{"android":"levelo://app?vid=8381ecee-e398-4ae4-a060-80727e153d18","ios":"levelo://app?vid=8381ecee-e398-4ae4-a060-80727e153d18"},"vehicle_type_id":"4","last_reported":1738153039,"current_range_meters":38800,"station_id":"ce4bgrp2rcd13ifvqc9g","pricing_plan_id":"cebpf4jnsgd1na2vs0mg"},{"bike_id":"1c903cbc-8f2e-4999-801f-9a6b4b897cdb","system_id":"levelo_inurba_marseille","lat":43.30464,"lon":5.3791,"is_reserved":false,"is_disabled":false,"rental_uris":{"android":"levelo://app?vid=1c903cbc-8f2e-4999-801f-9a6b4b897cdb","ios":"levelo://app?vid=1c903cbc-8f2e-4999-801f-9a6b4b897cdb"},"vehicle_type_id":"4","last_reported":1738153039,"current_range_meters":24000,"station_id":"ce4bgup2rcd13ifvqcn0","pricing_plan_id":"cebpf4jnsgd1na2vs0mg"},{"bike_id":"38585a04-56a9-489e-83ef-87a8b5508f87","system_id":"levelo_inurba_marseille","lat":43.30551,"lon":5.38417,"is_reserved":false,"is_disabled":false,"rental_uris":{"android":"levelo://app?vid=38585a04-56a9-489e-83ef-87a8b5508f87","ios":"levelo://app?vid=38585a04-56a9-489e-83ef-87a8b5508f87"},"vehicle_type_id":"4","last_reported":1738153039,"current_range_meters":0,"station_id":"ce4bgg92rcd13ifvqb30","pricing_plan_id":"cebpf4jnsgd1na2vs0mg"},{"bike_id":"3d95239f-7aae-4c5a-bf4d-ca1ab46f24f8","system_id":"levelo_inurba_marseille","lat":43.27819,"lon":5.40735,"is_reserved":false,"is_disabled":false,"rental_uris":{"android":"levelo://app?vid=3d95239f-7aae-4c5a-bf4d-ca1ab46f24f8","ios":"levelo://app?vid=3d95239f-7aae-4c5a-bf4d-ca1ab46f24f8"},"vehicle_type_id":"4","last_reported":1738153039,"current_range_meters":28000,"station_id":"ce4bhnh2rcd13ifvqgtg","pricing_plan_id":"cebpf4jnsgd1na2vs0mg"},{"bike_id":"60ce30e7-9301-4ca8-982f-21e0e801cbbe","system_id":"levelo_inurba_marseille","lat":43.29912,"lon":5.37464,"is_reserved":false,"is_disabled":false,"rental_uris":{"android":"levelo://app?vid=60ce30e7-9301-4ca8-982f-21e0e801cbbe","ios":"levelo://app?vid=60ce30e7-9301-4ca8-982f-21e0e801cbbe"},"vehicle_type_id":"4","last_reported":1738153039,"current_range_meters":39200,"station_id":"ce4bgjh2rcd13ifvqbg0","pricing_plan_id":"cebpf4jnsgd1na2vs0mg"},{"bike_id":"053833af-ba3d-4612-b908-e90298b33a73","system_id":"levelo_inurba_marseille","lat":43.305538,"lon":5.36545,"is_reserved":false,"is_disabled":false,"rental_uris":{"android":"levelo://app?vid=053833af-ba3d-4612-b908-e90298b33a73","ios":"levelo://app?vid=053833af-ba3d-4612-b908-e90298b33a73"},"vehicle_type_id":"4","last_reported":1738153039,"current_range_meters":19600,"station_id":"ce4bgs12rcd13ifvqcag","pricing_plan_id":"cebpf4jnsgd1na2vs0mg"},{"bike_id":"c25e5d10-1e73-4133-a1bc-3b0eebf03463","system_id":"levelo_inurba_marseille","lat":43.27605,"lon":5.36116,"is_reserved":false,"is_disabled":false,"rental_uris":{"android":"levelo://app?vid=c25e5d10-1e73-4133-a1bc-3b0eebf03463","ios":"levelo://app?vid=c25e5d10-1e73-4133-a1bc-3b0eebf03463"},"vehicle_type_id":"4","last_reported":1738153039,"current_range_meters":9600,"station_id":"ce4bgj92rcd13ifvqbe0","pricing_plan_id":"cebpf4jnsgd1na2vs0mg"},{"bike_id":"e3c5a10e-948d-477c-91ce-8c835a7fe362","system_id":"levelo_inurba_marseille","lat":43.28074,"lon":5.39645,"is_reserved":false,"is_disabled":true,"rental_uris":{"android":"levelo://app?vid=e3c5a10e-948d-477c-91ce-8c835a7fe362","ios":"levelo://app?vid=e3c5a10e-948d-477c-91ce-8c835a7fe362"},"vehicle_type_id":"4","last_reported":1738153039,"current_range_meters":0,"station_id":"ce4bho12rcd13ifvqh2g","pricing_plan_id":"cebpf4jnsgd1na2vs0mg"},{"bike_id":"4b7e97b0-8828-4c87-bdaf-6565810dda49","system_id":"levelo_inurba_marseille","lat":43.2849,"lon":5.38559,"is_reserved":false,"is_disabled":false,"rental_uris":{"android":"levelo://app?vid=4b7e97b0-8828-4c87-bdaf-6565810dda49","ios":"levelo://app?vid=4b7e97b0-8828-4c87-bdaf-6565810dda49"},"vehicle_type_id":"4","last_reported":1738153039,"current_range_meters":18800,"station_id":"ce4bh8p2rcd13ifvqeb0","pricing_plan_id":"cebpf4jnsgd1na2vs0mg"},{"bike_id":"73f84774-67c0-4153-b368-322c2718f9e3","system_id":"levelo_inurba_marseille","lat":43.26195,"lon":5.37448,"is_reserved":false,"is_disabled":false,"rental_uris":{"android":"levelo://app?vid=73f84774-67c0-4153-b368-322c2718f9e3","ios":"levelo://app?vid=73f84774-67c0-4153-b368-322c2718f9e3"},"vehicle_type_id":"4","last_reported":1738153039,"current_range_meters":20400,"station_id":"ce4bhgp2rcd13ifvqfc0","pricing_plan_id":"cebpf4jnsgd1na2vs0mg"},{"bike_id":"ede28fa2-1384-4d8b-abdc-f5633f618f08","system_id":"levelo_inurba_marseille","lat":43.29029,"lon":5.37563,"is_reserved":false,"is_disabled":false,"rental_uris":{"android":"levelo://app?vid=ede28fa2-1384-4d8b-abdc-f5633f618f08","ios":"levelo://app?vid=ede28fa2-1384-4d8b-abdc-f5633f618f08"},"vehicle_type_id":"4","last_reported":1738153039,"current_range_meters":20400,"station_id":"ce4bh692rcd13ifvqe90","pricing_plan_id":"cebpf4jnsgd1na2vs0mg"},{"bike_id":"1e7882da-a016-4654-9a16-4361fd531dc2","system_id":"levelo_inurba_marseille","lat":43.271773,"lon":5.410021,"is_reserved":false,"is_disabled":false,"rental_uris":{"android":"levelo://app?vid=1e7882da-a016-4654-9a16-4361fd531dc2","ios":"levelo://app?vid=1e7882da-a016-4654-9a16-4361fd531dc2"},"vehicle_type_id":"4","last_reported":1738153039,"current_range_meters":24400,"station_id":"ce4bhl12rcd13ifvqgf0","pricing_plan_id":"cebpf4jnsgd1na2vs0mg"},{"bike_id":"44ad7ee4-4cd0-4453-959e-e86725030313","system_id":"levelo_inurba_marseille","lat":43.29041,"lon":5.3997,"is_reserved":false,"is_disabled":false,"rental_uris":{"android":"levelo://app?vid=44ad7ee4-4cd0-4453-959e-e86725030313","ios":"levelo://app?vid=44ad7ee4-4cd0-4453-959e-e86725030313"},"vehicle_type_id":"4","last_reported":1738153039,"current_range_meters":36000,"station_id":"ce4bh392rcd13ifvqdm0","pricing_plan_id":"cebpf4jnsgd1na2vs0mg"},{"bike_id":"38b097b9-4e91-4c4b-ba93-68d554318b82","system_id":"levelo_inurba_marseille","lat":43.28435,"lon":5.39188,"is_reserved":false,"is_disabled":false,"rental_uris":{"android":"levelo://app?vid=38b097b9-4e91-4c4b-ba93-68d554318b82","ios":"levelo://app?vid=38b097b9-4e91-4c4b-ba93-68d554318b82"},"vehicle_type_id":"4","last_reported":1738153039,"current_range_meters":37600,"station_id":"ce4bhoh2rcd13ifvqh5g","pricing_plan_id":"cebpf4jnsgd1na2vs0mg"},{"bike_id":"bb289f34-7ef0-4e95-93d6-772fea1a48e2","system_id":"levelo_inurba_marseille","lat":43.30459,"lon":5.379,"is_reserved":false,"is_disabled":false,"rental_uris":{"android":"levelo://app?vid=bb289f34-7ef0-4e95-93d6-772fea1a48e2","ios":"levelo://app?vid=bb289f34-7ef0-4e95-93d6-772fea1a48e2"},"vehicle_type_id":"4","last_reported":1738153039,"current_range_meters":38400,"station_id":"ce4bgup2rcd13ifvqcn0","pricing_plan_id":"cebpf4jnsgd1na2vs0mg"},{"bike_id":"dc7c1c67-58fd-4b23-90e5-a1f21ef47cbc","system_id":"levelo_inurba_marseille","lat":43.29599,"lon":5.36744,"is_reserved":false,"is_disabled":false,"rental_uris":{"android":"levelo://app?vid=dc7c1c67-58fd-4b23-90e5-a1f21ef47cbc","ios":"levelo://app?vid=dc7c1c67-58fd-4b23-90e5-a1f21ef47cbc"},"vehicle_type_id":"4","last_reported":1738153039,"current_range_meters":39200,"station_id":"ce4bgph2rcd13ifvqc2g","pricing_plan_id":"cebpf4jnsgd1na2vs0mg"},{"bike_id":"58b8b44c-2672-4bb8-b098-98226b9f539a","system_id":"levelo_inurba_marseille","lat":43.30488,"lon":5.37887,"is_reserved":false,"is_disabled":false,"rental_uris":{"android":"levelo://app?vid=58b8b44c-2672-4bb8-b098-98226b9f539a","ios":"levelo://app?vid=58b8b44c-2672-4bb8-b098-98226b9f539a"},"vehicle_type_id":"4","last_reported":1738153039,"current_range_meters":38000,"station_id":"ce4bgup2rcd13ifvqcn0","pricing_plan_id":"cebpf4jnsgd1na2vs0mg"},{"bike_id":"17e47042-8c77-4541-a11d-5ae1a42c0ff2","system_id":"levelo_inurba_marseille","lat":43.27482,"lon":5.4247,"is_reserved":false,"is_disabled":true,"rental_uris":{"android":"levelo://app?vid=17e47042-8c77-4541-a11d-5ae1a42c0ff2","ios":"levelo://app?vid=17e47042-8c77-4541-a11d-5ae1a42c0ff2"},"vehicle_type_id":"4","last_reported":1738153039,"current_range_meters":0,"station_id":"ce4bhn92rcd13ifvqgrg","pricing_plan_id":"cebpf4jnsgd1na2vs0mg"},{"bike_id":"b891a845-22ae-4964-87fe-61c6bc3a8303","system_id":"levelo_inurba_marseille","lat":43.27836,"lon":5.4073,"is_reserved":false,"is_disabled":false,"rental_uris":{"android":"levelo://app?vid=b891a845-22ae-4964-87fe-61c6bc3a8303","ios":"levelo://app?vid=b891a845-22ae-4964-87fe-61c6bc3a8303"},"vehicle_type_id":"4","last_reported":1738153039,"current_range_meters":32400,"station_id":"ce4bhnh2rcd13ifvqgtg","pricing_plan_id":"cebpf4jnsgd1na2vs0mg"},{"bike_id":"bc7816aa-0362-4d16-a4d8-13b5de9ded0f","system_id":"levelo_inurba_marseille","lat":43.27371,"lon":5.36246,"is_reserved":false,"is_disabled":false,"rental_uris":{"android":"levelo://app?vid=bc7816aa-0362-4d16-a4d8-13b5de9ded0f","ios":"levelo://app?vid=bc7816aa-0362-4d16-a4d8-13b5de9ded0f"},"vehicle_type_id":"4","last_reported":1738153039,"current_range_meters":33600,"station_id":"ce4bhbh2rcd13ifvqeo0","pricing_plan_id":"cebpf4jnsgd1na2vs0mg"},{"bike_id":"84e53b70-f8f3-491d-a490-f13cad8d073a","system_id":"levelo_inurba_marseille","lat":43.31359,"lon":5.36708,"is_reserved":false,"is_disabled":true,"rental_uris":{"android":"levelo://app?vid=84e53b70-f8f3-491d-a490-f13cad8d073a","ios":"levelo://app?vid=84e53b70-f8f3-491d-a490-f13cad8d073a"},"vehicle_type_id":"4","last_reported":1738153039,"current_range_meters":24400,"station_id":"ce4bgr92rcd13ifvqc6g","pricing_plan_id":"cebpf4jnsgd1na2vs0mg"},{"bike_id":"1932502a-a386-4bd4-8041-b68d3b661876","system_id":"levelo_inurba_marseille","lat":43.27618,"lon":5.36112,"is_reserved":false,"is_disabled":false,"rental_uris":{"android":"levelo://app?vid=1932502a-a386-4bd4-8041-b68d3b661876","ios":"levelo://app?vid=1932502a-a386-4bd4-8041-b68d3b661876"},"vehicle_type_id":"4","last_reported":1738153039,"current_range_meters":22000,"station_id":"ce4bgj92rcd13ifvqbe0","pricing_plan_id":"cebpf4jnsgd1na2vs0mg"},{"bike_id":"3ad10b32-c1b1-4c7a-9f3c-30dcc350bc0c","system_id":"levelo_inurba_marseille","lat":43.27967,"lon":5.41051,"is_reserved":false,"is_disabled":false,"rental_uris":{"android":"levelo://app?vid=3ad10b32-c1b1-4c7a-9f3c-30dcc350bc0c","ios":"levelo://app?vid=3ad10b32-c1b1-4c7a-9f3c-30dcc350bc0c"},"vehicle_type_id":"4","last_reported":1738153039,"current_range_meters":12000,"station_id":"ce4bhnp2rcd13ifvqh0g","pricing_plan_id":"cebpf4jnsgd1na2vs0mg"},{"bike_id":"0f4b3813-faf4-4a38-a8d2-313659685248","system_id":"levelo_inurba_marseille","lat":43.30435,"lon":5.41273,"is_reserved":false,"is_disabled":false,"rental_uris":{"android":"levelo://app?vid=0f4b3813-faf4-4a38-a8d2-313659685248","ios":"levelo://app?vid=0f4b3813-faf4-4a38-a8d2-313659685248"},"vehicle_type_id":"4","last_reported":1738153039,"current_range_meters":38800,"station_id":"ce4bhop2rcd13ifvqh8g","pricing_plan_id":"cebpf4jnsgd1na2vs0mg"},{"bike_id":"70435a30-439d-4347-8667-d14392ea6663","system_id":"levelo_inurba_marseille","lat":43.29558,"lon":5.42294,"is_reserved":false,"is_disabled":true,"rental_uris":{"android":"levelo://app?vid=70435a30-439d-4347-8667-d14392ea6663","ios":"levelo://app?vid=70435a30-439d-4347-8667-d14392ea6663"},"vehicle_type_id":"4","last_reported":1738153039,"current_range_meters":0,"station_id":"ce4bhph2rcd13ifvqhdg","pricing_plan_id":"cebpf4jnsgd1na2vs0mg"},{"bike_id":"44a2692f-71ce-4483-a988-fcdcfe06292b","system_id":"levelo_inurba_marseille","lat":43.29983,"lon":5.37189,"is_reserved":false,"is_disabled":false,"rental_uris":{"android":"levelo://app?vid=44a2692f-71ce-4483-a988-fcdcfe06292b","ios":"levelo://app?vid=44a2692f-71ce-4483-a988-fcdcfe06292b"},"vehicle_type_id":"4","last_reported":1738153039,"current_range_meters":26800,"station_id":"ce4bgr92rcd13ifvqc7g","pricing_plan_id":"cebpf4jnsgd1na2vs0mg"},{"bike_id":"a17ecb5a-c1b2-4c17-a30d-ef39ebecdf96","system_id":"levelo_inurba_marseille","lat":43.27813,"lon":5.40707,"is_reserved":false,"is_disabled":false,"rental_uris":{"android":"levelo://app?vid=a17ecb5a-c1b2-4c17-a30d-ef39ebecdf96","ios":"levelo://app?vid=a17ecb5a-c1b2-4c17-a30d-ef39ebecdf96"},"vehicle_type_id":"4","last_reported":1738153039,"current_range_meters":38800,"station_id":"ce4bhnh2rcd13ifvqgtg","pricing_plan_id":"cebpf4jnsgd1na2vs0mg"},{"bike_id":"eca9430f-1a83-44a3-ad50-5a4de7391a60","system_id":"levelo_inurba_marseille","lat":43.29032,"lon":5.37567,"is_reserved":false,"is_disabled":false,"rental_uris":{"android":"levelo://app?vid=eca9430f-1a83-44a3-ad50-5a4de7391a60","ios":"levelo://app?vid=eca9430f-1a83-44a3-ad50-5a4de7391a60"},"vehicle_type_id":"4","last_reported":1738153039,"current_range_meters":14400,"station_id":"ce4bh692rcd13ifvqe90","pricing_plan_id":"cebpf4jnsgd1na2vs0mg"},{"bike_id":"b3549804-7b8e-4b94-882f-e8b540f8f9f6","system_id":"levelo_inurba_marseille","lat":43.28359,"lon":5.38103,"is_reserved":false,"is_disabled":false,"rental_uris":{"android":"levelo://app?vid=b3549804-7b8e-4b94-882f-e8b540f8f9f6","ios":"levelo://app?vid=b3549804-7b8e-4b94-882f-e8b540f8f9f6"},"vehicle_type_id":"4","last_reported":1738153039,"current_range_meters":24800,"station_id":"ce4bh412rcd13ifvqdr0","pricing_plan_id":"cebpf4jnsgd1na2vs0mg"},{"bike_id":"04f8cf4a-eb64-49ca-bfba-14be407741ee","system_id":"levelo_inurba_marseille","lat":43.29974,"lon":5.38488,"is_reserved":false,"is_disabled":false,"rental_uris":{"android":"levelo://app?vid=04f8cf4a-eb64-49ca-bfba-14be407741ee","ios":"levelo://app?vid=04f8cf4a-eb64-49ca-bfba-14be407741ee"},"vehicle_type_id":"4","last_reported":1738153039,"current_range_meters":7200,"station_id":"ce4bgj92rcd13ifvqbd0","pricing_plan_id":"cebpf4jnsgd1na2vs0mg"},{"bike_id":"d5ae971b-d5ff-4914-97c7-dc9b996ae58b","system_id":"levelo_inurba_marseille","lat":43.28421,"lon":5.34991,"is_reserved":false,"is_disabled":false,"rental_uris":{"android":"levelo://app?vid=d5ae971b-d5ff-4914-97c7-dc9b996ae58b","ios":"levelo://app?vid=d5ae971b-d5ff-4914-97c7-dc9b996ae58b"},"vehicle_type_id":"4","last_reported":1738153039,"current_range_meters":24800,"station_id":"ce4bhbh2rcd13ifvqepg","pricing_plan_id":"cebpf4jnsgd1na2vs0mg"},{"bike_id":"e3e26aee-15e1-425c-a48f-db58aa520742","system_id":"levelo_inurba_marseille","lat":43.230644,"lon":5.354956,"is_reserved":false,"is_disabled":false,"rental_uris":{"android":"levelo://app?vid=e3e26aee-15e1-425c-a48f-db58aa520742","ios":"levelo://app?vid=e3e26aee-15e1-425c-a48f-db58aa520742"},"vehicle_type_id":"4","last_reported":1738153039,"current_range_meters":33600,"station_id":"cpo3342slgdg3j2ifvpg","pricing_plan_id":"cebpf4jnsgd1na2vs0mg"},{"bike_id":"aa67cf24-9147-441d-9c7b-6d9f071a4ea2","system_id":"levelo_inurba_marseille","lat":43.27208,"lon":5.39183,"is_reserved":false,"is_disabled":false,"rental_uris":{"android":"levelo://app?vid=aa67cf24-9147-441d-9c7b-6d9f071a4ea2","ios":"levelo://app?vid=aa67cf24-9147-441d-9c7b-6d9f071a4ea2"},"vehicle_type_id":"4","last_reported":1738153039,"current_range_meters":39200,"station_id":"ce4bhhp2rcd13ifvqfm0","pricing_plan_id":"cebpf4jnsgd1na2vs0mg"},{"bike_id":"406f1379-7e5f-40c8-b8c8-3f0d17a7f0fa","system_id":"levelo_inurba_marseille","lat":43.27544,"lon":5.38438,"is_reserved":false,"is_disabled":false,"rental_uris":{"android":"levelo://app?vid=406f1379-7e5f-40c8-b8c8-3f0d17a7f0fa","ios":"levelo://app?vid=406f1379-7e5f-40c8-b8c8-3f0d17a7f0fa"},"vehicle_type_id":"4","last_reported":1738153039,"current_range_meters":37600,"station_id":"ce4bhh92rcd13ifvqfi0","pricing_plan_id":"cebpf4jnsgd1na2vs0mg"},{"bike_id":"927d2fcd-2c18-48bc-bc14-1eec0c926c10","system_id":"levelo_inurba_marseille","lat":43.28665,"lon":5.38689,"is_reserved":false,"is_disabled":false,"rental_uris":{"android":"levelo://app?vid=927d2fcd-2c18-48bc-bc14-1eec0c926c10","ios":"levelo://app?vid=927d2fcd-2c18-48bc-bc14-1eec0c926c10"},"vehicle_type_id":"4","last_reported":1738153039,"current_range_meters":11200,"station_id":"ce4bh492rcd13ifvqdug","pricing_plan_id":"cebpf4jnsgd1na2vs0mg"},{"bike_id":"df2653fe-4fdf-43fd-a7c1-0f1c8d8556c5","system_id":"levelo_inurba_marseille","lat":43.3302,"lon":5.39048,"is_reserved":false,"is_disabled":false,"rental_uris":{"android":"levelo://app?vid=df2653fe-4fdf-43fd-a7c1-0f1c8d8556c5","ios":"levelo://app?vid=df2653fe-4fdf-43fd-a7c1-0f1c8d8556c5"},"vehicle_type_id":"4","last_reported":1738153039,"current_range_meters":36400,"station_id":"ce4bhr92rcd13ifvqhrg","pricing_plan_id":"cebpf4jnsgd1na2vs0mg"},{"bike_id":"7c78a755-c7f5-4f07-a96b-621451d47948","system_id":"levelo_inurba_marseille","lat":43.2991,"lon":5.43665,"is_reserved":false,"is_disabled":false,"rental_uris":{"android":"levelo://app?vid=7c78a755-c7f5-4f07-a96b-621451d47948","ios":"levelo://app?vid=7c78a755-c7f5-4f07-a96b-621451d47948"},"vehicle_type_id":"4","last_reported":1738153039,"current_range_meters":18800,"station_id":"ce4bhpp2rcd13ifvqhfg","pricing_plan_id":"cebpf4jnsgd1na2vs0mg"},{"bike_id":"a4e8cbf7-254f-4b90-af13-fe7ae38aca7e","system_id":"levelo_inurba_marseille","lat":43.29229,"lon":5.36061,"is_reserved":false,"is_disabled":false,"rental_uris":{"android":"levelo://app?vid=a4e8cbf7-254f-4b90-af13-fe7ae38aca7e","ios":"levelo://app?vid=a4e8cbf7-254f-4b90-af13-fe7ae38aca7e"},"vehicle_type_id":"4","last_reported":1738153039,"current_range_meters":29600,"station_id":"ce4bhbh2rcd13ifvqeqg","pricing_plan_id":"cebpf4jnsgd1na2vs0mg"},{"bike_id":"3d1fcd99-fa1f-402d-be1e-7639922ccd47","system_id":"levelo_inurba_marseille","lat":43.22949,"lon":5.35398,"is_reserved":false,"is_disabled":false,"rental_uris":{"android":"levelo://app?vid=3d1fcd99-fa1f-402d-be1e-7639922ccd47","ios":"levelo://app?vid=3d1fcd99-fa1f-402d-be1e-7639922ccd47"},"vehicle_type_id":"4","last_reported":1738153039,"current_range_meters":39200,"station_id":"cpo3532slgdg3j2ikp40","pricing_plan_id":"cebpf4jnsgd1na2vs0mg"},{"bike_id":"2e37b0d2-8751-4445-aa1b-b3f8e099ffd5","system_id":"levelo_inurba_marseille","lat":43.27411,"lon":5.39423,"is_reserved":false,"is_disabled":false,"rental_uris":{"android":"levelo://app?vid=2e37b0d2-8751-4445-aa1b-b3f8e099ffd5","ios":"levelo://app?vid=2e37b0d2-8751-4445-aa1b-b3f8e099ffd5"},"vehicle_type_id":"4","last_reported":1738153039,"current_range_meters":39200,"station_id":"ce4bhdp2rcd13ifvqf20","pricing_plan_id":"cebpf4jnsgd1na2vs0mg"},{"bike_id":"803e03d8-7d2e-4feb-ac46-774902d16dee","system_id":"levelo_inurba_marseille","lat":43.33731,"lon":5.37442,"is_reserved":false,"is_disabled":true,"rental_uris":{"android":"levelo://app?vid=803e03d8-7d2e-4feb-ac46-774902d16dee","ios":"levelo://app?vid=803e03d8-7d2e-4feb-ac46-774902d16dee"},"vehicle_type_id":"4","last_reported":1738153039,"current_range_meters":33600,"station_id":"","pricing_plan_id":"cebpf4jnsgd1na2vs0mg"},{"bike_id":"96e1e55b-98d0-41b4-9553-8cc5c79630dc","system_id":"levelo_inurba_marseille","lat":43.28726,"lon":5.37946,"is_reserved":false,"is_disabled":false,"rental_uris":{"android":"levelo://app?vid=96e1e55b-98d0-41b4-9553-8cc5c79630dc","ios":"levelo://app?vid=96e1e55b-98d0-41b4-9553-8cc5c79630dc"},"vehicle_type_id":"4","last_reported":1738153039,"current_range_meters":33200,"station_id":"ce4bh9p2rcd13ifvqec0","pricing_plan_id":"cebpf4jnsgd1na2vs0mg"},{"bike_id":"ff1e303e-f01b-45b4-953d-3439c6552787","system_id":"levelo_inurba_marseille","lat":43.26948,"lon":5.40272,"is_reserved":false,"is_disabled":false,"rental_uris":{"android":"levelo://app?vid=ff1e303e-f01b-45b4-953d-3439c6552787","ios":"levelo://app?vid=ff1e303e-f01b-45b4-953d-3439c6552787"},"vehicle_type_id":"4","last_reported":1738153039,"current_range_meters":29600,"station_id":"cjm6bp8fraef2m0cb0m0","pricing_plan_id":"cebpf4jnsgd1na2vs0mg"},{"bike_id":"ff0491cb-d86b-434c-8cdb-028bf9f1e6a6","system_id":"levelo_inurba_marseille","lat":43.30465,"lon":5.37908,"is_reserved":false,"is_disabled":false,"rental_uris":{"android":"levelo://app?vid=ff0491cb-d86b-434c-8cdb-028bf9f1e6a6","ios":"levelo://app?vid=ff0491cb-d86b-434c-8cdb-028bf9f1e6a6"},"vehicle_type_id":"4","last_reported":1738153039,"current_range_meters":36000,"station_id":"ce4bgup2rcd13ifvqcn0","pricing_plan_id":"cebpf4jnsgd1na2vs0mg"},{"bike_id":"e01b48cb-9ca7-4c6e-9fce-13ad8af1a3f4","system_id":"levelo_inurba_marseille","lat":43.28026,"lon":5.36959,"is_reserved":false,"is_disabled":false,"rental_uris":{"android":"levelo://app?vid=e01b48cb-9ca7-4c6e-9fce-13ad8af1a3f4","ios":"levelo://app?vid=e01b48cb-9ca7-4c6e-9fce-13ad8af1a3f4"},"vehicle_type_id":"4","last_reported":1738153039,"current_range_meters":9600,"station_id":"ce4bha12rcd13ifvqef0","pricing_plan_id":"cebpf4jnsgd1na2vs0mg"},{"bike_id":"6d1da78d-00cf-4bf6-8937-cad8764c7ccc","system_id":"levelo_inurba_marseille","lat":43.30319,"lon":5.36896,"is_reserved":false,"is_disabled":false,"rental_uris":{"android":"levelo://app?vid=6d1da78d-00cf-4bf6-8937-cad8764c7ccc","ios":"levelo://app?vid=6d1da78d-00cf-4bf6-8937-cad8764c7ccc"},"vehicle_type_id":"4","last_reported":1738153039,"current_range_meters":11200,"station_id":"ce4bgqh2rcd13ifvqc5g","pricing_plan_id":"cebpf4jnsgd1na2vs0mg"},{"bike_id":"3622e152-b5be-42cb-bc60-3cf0f1d519df","system_id":"levelo_inurba_marseille","lat":43.26681,"lon":5.38272,"is_reserved":false,"is_disabled":false,"rental_uris":{"android":"levelo://app?vid=3622e152-b5be-42cb-bc60-3cf0f1d519df","ios":"levelo://app?vid=3622e152-b5be-42cb-bc60-3cf0f1d519df"},"vehicle_type_id":"4","last_reported":1738153039,"current_range_meters":38800,"station_id":"ce4bhg92rcd13ifvqf90","pricing_plan_id":"cebpf4jnsgd1na2vs0mg"},{"bike_id":"fbf4a090-7867-4075-a3fd-edc6192db4f7","system_id":"levelo_inurba_marseille","lat":43.32655,"lon":5.40999,"is_reserved":false,"is_disabled":false,"rental_uris":{"android":"levelo://app?vid=fbf4a090-7867-4075-a3fd-edc6192db4f7","ios":"levelo://app?vid=fbf4a090-7867-4075-a3fd-edc6192db4f7"},"vehicle_type_id":"4","last_reported":1738153039,"current_range_meters":10800,"station_id":"ce4bhpp2rcd13ifvqhgg","pricing_plan_id":"cebpf4jnsgd1na2vs0mg"},{"bike_id":"ac277c9f-a4a0-4a8e-9d4d-a76643bd7935","system_id":"levelo_inurba_marseille","lat":43.27547,"lon":5.38439,"is_reserved":false,"is_disabled":false,"rental_uris":{"android":"levelo://app?vid=ac277c9f-a4a0-4a8e-9d4d-a76643bd7935","ios":"levelo://app?vid=ac277c9f-a4a0-4a8e-9d4d-a76643bd7935"},"vehicle_type_id":"4","last_reported":1738153039,"current_range_meters":30800,"station_id":"ce4bhh92rcd13ifvqfi0","pricing_plan_id":"cebpf4jnsgd1na2vs0mg"},{"bike_id":"2b833396-ff25-4e46-9295-e03dc3a4726d","system_id":"levelo_inurba_marseille","lat":43.32521,"lon":5.36531,"is_reserved":false,"is_disabled":false,"rental_uris":{"android":"levelo://app?vid=2b833396-ff25-4e46-9295-e03dc3a4726d","ios":"levelo://app?vid=2b833396-ff25-4e46-9295-e03dc3a4726d"},"vehicle_type_id":"4","last_reported":1738153039,"current_range_meters":38800,"station_id":"ce4bhs12rcd13ifvqhvg","pricing_plan_id":"cebpf4jnsgd1na2vs0mg"},{"bike_id":"ba284865-fdc0-4163-8cc1-5388ee35ceb8","system_id":"levelo_inurba_marseille","lat":43.2909,"lon":5.38147,"is_reserved":false,"is_disabled":false,"rental_uris":{"android":"levelo://app?vid=ba284865-fdc0-4163-8cc1-5388ee35ceb8","ios":"levelo://app?vid=ba284865-fdc0-4163-8cc1-5388ee35ceb8"},"vehicle_type_id":"4","last_reported":1738153039,"current_range_meters":37600,"station_id":"ce4bh512rcd13ifvqe2g","pricing_plan_id":"cebpf4jnsgd1na2vs0mg"},{"bike_id":"98b3fb70-9c33-4b67-a512-5e693f108cce","system_id":"levelo_inurba_marseille","lat":43.23971,"lon":5.36609,"is_reserved":false,"is_disabled":false,"rental_uris":{"android":"levelo://app?vid=98b3fb70-9c33-4b67-a512-5e693f108cce","ios":"levelo://app?vid=98b3fb70-9c33-4b67-a512-5e693f108cce"},"vehicle_type_id":"4","last_reported":1738153039,"current_range_meters":20800,"station_id":"ce4bhi12rcd13ifvqfp0","pricing_plan_id":"cebpf4jnsgd1na2vs0mg"},{"bike_id":"b4ee9db2-bb07-4c97-9fba-7c693f58ab90","system_id":"levelo_inurba_marseille","lat":43.27969,"lon":5.38748,"is_reserved":false,"is_disabled":false,"rental_uris":{"android":"levelo://app?vid=b4ee9db2-bb07-4c97-9fba-7c693f58ab90","ios":"levelo://app?vid=b4ee9db2-bb07-4c97-9fba-7c693f58ab90"},"vehicle_type_id":"4","last_reported":1738153039,"current_range_meters":31200,"station_id":"ce4bhg12rcd13ifvqf80","pricing_plan_id":"cebpf4jnsgd1na2vs0mg"},{"bike_id":"3cab5ce9-fa36-4f37-a4fd-aa59591df4d1","system_id":"levelo_inurba_marseille","lat":43.28416,"lon":5.34994,"is_reserved":false,"is_disabled":true,"rental_uris":{"android":"levelo://app?vid=3cab5ce9-fa36-4f37-a4fd-aa59591df4d1","ios":"levelo://app?vid=3cab5ce9-fa36-4f37-a4fd-aa59591df4d1"},"vehicle_type_id":"4","last_reported":1738153039,"current_range_meters":30400,"station_id":"ce4bhbh2rcd13ifvqepg","pricing_plan_id":"cebpf4jnsgd1na2vs0mg"},{"bike_id":"85af6c92-372c-4cd2-84da-c4ec61fa470d","system_id":"levelo_inurba_marseille","lat":43.25682,"lon":5.41154,"is_reserved":false,"is_disabled":true,"rental_uris":{"android":"levelo://app?vid=85af6c92-372c-4cd2-84da-c4ec61fa470d","ios":"levelo://app?vid=85af6c92-372c-4cd2-84da-c4ec61fa470d"},"vehicle_type_id":"4","last_reported":1738153039,"current_range_meters":36800,"station_id":"ce4bhkp2rcd13ifvqgd0","pricing_plan_id":"cebpf4jnsgd1na2vs0mg"},{"bike_id":"94c8c031-4d07-4a1c-811c-60903473a07b","system_id":"levelo_inurba_marseille","lat":43.29788,"lon":5.38102,"is_reserved":false,"is_disabled":false,"rental_uris":{"android":"levelo://app?vid=94c8c031-4d07-4a1c-811c-60903473a07b","ios":"levelo://app?vid=94c8c031-4d07-4a1c-811c-60903473a07b"},"vehicle_type_id":"4","last_reported":1738153039,"current_range_meters":34000,"station_id":"","pricing_plan_id":"cebpf4jnsgd1na2vs0mg"},{"bike_id":"7c94fe15-66eb-484a-be6c-482d795ba9cc","system_id":"levelo_inurba_marseille","lat":43.29515,"lon":5.39033,"is_reserved":false,"is_disabled":false,"rental_uris":{"android":"levelo://app?vid=7c94fe15-66eb-484a-be6c-482d795ba9cc","ios":"levelo://app?vid=7c94fe15-66eb-484a-be6c-482d795ba9cc"},"vehicle_type_id":"4","last_reported":1738153039,"current_range_meters":24400,"station_id":"ce4bh3p2rcd13ifvqdp0","pricing_plan_id":"cebpf4jnsgd1na2vs0mg"},{"bike_id":"1ab9c917-4620-4970-b7ea-8bc62fd93738","system_id":"levelo_inurba_marseille","lat":43.2909,"lon":5.38158,"is_reserved":false,"is_disabled":false,"rental_uris":{"android":"levelo://app?vid=1ab9c917-4620-4970-b7ea-8bc62fd93738","ios":"levelo://app?vid=1ab9c917-4620-4970-b7ea-8bc62fd93738"},"vehicle_type_id":"4","last_reported":1738153039,"current_range_meters":29600,"station_id":"ce4bh512rcd13ifvqe2g","pricing_plan_id":"cebpf4jnsgd1na2vs0mg"},{"bike_id":"0d3f46ad-475b-45ab-bba3-a9b43b092108","system_id":"levelo_inurba_marseille","lat":43.27621,"lon":5.36109,"is_reserved":false,"is_disabled":false,"rental_uris":{"android":"levelo://app?vid=0d3f46ad-475b-45ab-bba3-a9b43b092108","ios":"levelo://app?vid=0d3f46ad-475b-45ab-bba3-a9b43b092108"},"vehicle_type_id":"4","last_reported":1738153039,"current_range_meters":38800,"station_id":"ce4bgj92rcd13ifvqbe0","pricing_plan_id":"cebpf4jnsgd1na2vs0mg"},{"bike_id":"4c2d86ec-489b-4d44-992d-00c45791c2cf","system_id":"levelo_inurba_marseille","lat":43.29202,"lon":5.39333,"is_reserved":false,"is_disabled":false,"rental_uris":{"android":"levelo://app?vid=4c2d86ec-489b-4d44-992d-00c45791c2cf","ios":"levelo://app?vid=4c2d86ec-489b-4d44-992d-00c45791c2cf"},"vehicle_type_id":"4","last_reported":1738153039,"current_range_meters":22800,"station_id":"ce4bh192rcd13ifvqdd0","pricing_plan_id":"cebpf4jnsgd1na2vs0mg"},{"bike_id":"3d98c6ce-e80d-46e8-b577-648cd8c28632","system_id":"levelo_inurba_marseille","lat":43.34699,"lon":5.34741,"is_reserved":false,"is_disabled":true,"rental_uris":{"android":"levelo://app?vid=3d98c6ce-e80d-46e8-b577-648cd8c28632","ios":"levelo://app?vid=3d98c6ce-e80d-46e8-b577-648cd8c28632"},"vehicle_type_id":"4","last_reported":1738153039,"current_range_meters":0,"station_id":"","pricing_plan_id":"cebpf4jnsgd1na2vs0mg"},{"bike_id":"4c2aa958-24fd-4875-8d5c-28513f94b896","system_id":"levelo_inurba_marseille","lat":43.31197,"lon":5.36858,"is_reserved":false,"is_disabled":true,"rental_uris":{"android":"levelo://app?vid=4c2aa958-24fd-4875-8d5c-28513f94b896","ios":"levelo://app?vid=4c2aa958-24fd-4875-8d5c-28513f94b896"},"vehicle_type_id":"4","last_reported":1738153039,"current_range_meters":18000,"station_id":"ce4bgl92rcd13ifvqbq0","pricing_plan_id":"cebpf4jnsgd1na2vs0mg"},{"bike_id":"4bb4f2ad-32f7-4de4-aefe-944acff7c8f5","system_id":"levelo_inurba_marseille","lat":43.268117,"lon":5.402693,"is_reserved":false,"is_disabled":true,"rental_uris":{"android":"levelo://app?vid=4bb4f2ad-32f7-4de4-aefe-944acff7c8f5","ios":"levelo://app?vid=4bb4f2ad-32f7-4de4-aefe-944acff7c8f5"},"vehicle_type_id":"4","last_reported":1738153039,"current_range_meters":14800,"station_id":"ce501612rcd8frsf0b60","pricing_plan_id":"cebpf4jnsgd1na2vs0mg"},{"bike_id":"dd0caabf-db5f-4501-9ba3-239d64ca3a34","system_id":"levelo_inurba_marseille","lat":43.25496,"lon":5.37652,"is_reserved":false,"is_disabled":false,"rental_uris":{"android":"levelo://app?vid=dd0caabf-db5f-4501-9ba3-239d64ca3a34","ios":"levelo://app?vid=dd0caabf-db5f-4501-9ba3-239d64ca3a34"},"vehicle_type_id":"4","last_reported":1738153039,"current_range_meters":37600,"station_id":"ce4bhh12rcd13ifvqff0","pricing_plan_id":"cebpf4jnsgd1na2vs0mg"},{"bike_id":"7313dec2-5949-49e8-85f7-d76938192ea4","system_id":"levelo_inurba_marseille","lat":43.29924,"lon":5.37457,"is_reserved":false,"is_disabled":false,"rental_uris":{"android":"levelo://app?vid=7313dec2-5949-49e8-85f7-d76938192ea4","ios":"levelo://app?vid=7313dec2-5949-49e8-85f7-d76938192ea4"},"vehicle_type_id":"4","last_reported":1738153039,"current_range_meters":19200,"station_id":"ce4bgjh2rcd13ifvqbg0","pricing_plan_id":"cebpf4jnsgd1na2vs0mg"},{"bike_id":"dbbd005c-e291-4546-902c-e5ac4339e8b6","system_id":"levelo_inurba_marseille","lat":43.25715,"lon":5.41144,"is_reserved":false,"is_disabled":false,"rental_uris":{"android":"levelo://app?vid=dbbd005c-e291-4546-902c-e5ac4339e8b6","ios":"levelo://app?vid=dbbd005c-e291-4546-902c-e5ac4339e8b6"},"vehicle_type_id":"4","last_reported":1738153039,"current_range_meters":38800,"station_id":"ce4bhkp2rcd13ifvqgd0","pricing_plan_id":"cebpf4jnsgd1na2vs0mg"},{"bike_id":"d3860068-1303-42ce-97ea-220aa0e72891","system_id":"levelo_inurba_marseille","lat":43.290192,"lon":5.381272,"is_reserved":false,"is_disabled":true,"rental_uris":{"android":"levelo://app?vid=d3860068-1303-42ce-97ea-220aa0e72891","ios":"levelo://app?vid=d3860068-1303-42ce-97ea-220aa0e72891"},"vehicle_type_id":"4","last_reported":1738153039,"current_range_meters":24000,"station_id":"ce4bh4p2rcd13ifvqe1g","pricing_plan_id":"cebpf4jnsgd1na2vs0mg"},{"bike_id":"7bdef33e-8627-40c5-8883-2cce0d523ef1","system_id":"levelo_inurba_marseille","lat":43.26688,"lon":5.38264,"is_reserved":false,"is_disabled":false,"rental_uris":{"android":"levelo://app?vid=7bdef33e-8627-40c5-8883-2cce0d523ef1","ios":"levelo://app?vid=7bdef33e-8627-40c5-8883-2cce0d523ef1"},"vehicle_type_id":"4","last_reported":1738153039,"current_range_meters":35200,"station_id":"ce4bhg92rcd13ifvqf90","pricing_plan_id":"cebpf4jnsgd1na2vs0mg"},{"bike_id":"c65450e7-9305-4f05-b335-b659c61cafee","system_id":"levelo_inurba_marseille","lat":43.29787,"lon":5.38118,"is_reserved":false,"is_disabled":true,"rental_uris":{"android":"levelo://app?vid=c65450e7-9305-4f05-b335-b659c61cafee","ios":"levelo://app?vid=c65450e7-9305-4f05-b335-b659c61cafee"},"vehicle_type_id":"4","last_reported":1738153039,"current_range_meters":32800,"station_id":"ce4bgip2rcd13ifvqbb0","pricing_plan_id":"cebpf4jnsgd1na2vs0mg"},{"bike_id":"1cc72904-73db-4690-8d8d-9db3a2e22526","system_id":"levelo_inurba_marseille","lat":43.31086,"lon":5.42445,"is_reserved":false,"is_disabled":false,"rental_uris":{"android":"levelo://app?vid=1cc72904-73db-4690-8d8d-9db3a2e22526","ios":"levelo://app?vid=1cc72904-73db-4690-8d8d-9db3a2e22526"},"vehicle_type_id":"4","last_reported":1738153039,"current_range_meters":38000,"station_id":"ce4bhp92rcd13ifvqhag","pricing_plan_id":"cebpf4jnsgd1na2vs0mg"},{"bike_id":"34dbb63a-57de-4db0-805b-7f8db253ddda","system_id":"levelo_inurba_marseille","lat":43.25487,"lon":5.37669,"is_reserved":false,"is_disabled":false,"rental_uris":{"android":"levelo://app?vid=34dbb63a-57de-4db0-805b-7f8db253ddda","ios":"levelo://app?vid=34dbb63a-57de-4db0-805b-7f8db253ddda"},"vehicle_type_id":"4","last_reported":1738153039,"current_range_meters":10800,"station_id":"ce4bhh12rcd13ifvqff0","pricing_plan_id":"cebpf4jnsgd1na2vs0mg"},{"bike_id":"b1afbc66-c10c-49df-92ed-231f783bc76e","system_id":"levelo_inurba_marseille","lat":43.25127,"lon":5.40324,"is_reserved":false,"is_disabled":false,"rental_uris":{"android":"levelo://app?vid=b1afbc66-c10c-49df-92ed-231f783bc76e","ios":"levelo://app?vid=b1afbc66-c10c-49df-92ed-231f783bc76e"},"vehicle_type_id":"4","last_reported":1738153039,"current_range_meters":28000,"station_id":"ce4bhlh2rcd13ifvqgig","pricing_plan_id":"cebpf4jnsgd1na2vs0mg"},{"bike_id":"72f0442b-1779-4459-979d-af52b0a6bb2b","system_id":"levelo_inurba_marseille","lat":43.32483,"lon":5.36562,"is_reserved":false,"is_disabled":false,"rental_uris":{"android":"levelo://app?vid=72f0442b-1779-4459-979d-af52b0a6bb2b","ios":"levelo://app?vid=72f0442b-1779-4459-979d-af52b0a6bb2b"},"vehicle_type_id":"4","last_reported":1738153039,"current_range_meters":38800,"station_id":"ce4bhs12rcd13ifvqhvg","pricing_plan_id":"cebpf4jnsgd1na2vs0mg"},