{"last_updated":1728843078,"ttl":60,"version":"2.2","data":{"bikes":[{"bike_id":"c567525a-fb2c-479e-ba48-c818986941f6","system_id":"levelo_inurba_marseille","lat":43.30547,"lon":5.3843,"is_reserved":false,"is_disabled":false,"rental_uris":{"android":"levelo://app?vid=c567525a-fb2c-479e-ba48-c818986941f6","ios":"levelo://app?vid=c567525a-fb2c-479e-ba48-c818986941f6"},"vehicle_type_id":"4","last_reported":1728843079,"current_range_meters":16000,"station_id":"ce4bgg92rcd13ifvqb30","pricing_plan_id":"cebpf4jnsgd1na2vs0mg"},{"bike_id":"480c36bc-dd66-41df-b09a-76735c76211b","system_id":"levelo_inurba_marseille","lat":43.27996,"lon":5.4165,"is_reserved":false,"is_disabled":false,"rental_uris":{"android":"levelo://app?vid=480c36bc-dd66-41df-b09a-76735c76211b","ios":"levelo://app?vid=480c36bc-dd66-41df-b09a-76735c76211b"},"vehicle_type_id":"4","last_reported":1728843079,"current_range_meters":35200,"station_id":"ce4bho12rcd13ifvqh1g","pricing_plan_id":"cebpf4jnsgd1na2vs0mg"},{"bike_id":"d9b629b0-e23d-4e1d-ab01-060732d693c4","system_id":"levelo_inurba_marseille","lat":43.29986,"lon":5.37418,"is_reserved":false,"is_disabled":false,"rental_uris":{"android":"levelo://app?vid=d9b629b0-e23d-4e1d-ab01-060732d693c4","ios":"levelo://app?vid=d9b629b0-e23d-4e1d-ab01-060732d693c4"},"vehicle_type_id":"4","last_reported":1728843079,"current_range_meters":9600,"station_id":"","pricing_plan_id":"cebpf4jnsgd1na2vs0mg"},{"bike_id":"e17e907c-4fa3-474a-b50b-5db07b6861ef","system_id":"levelo_inurba_marseille","lat":43.31085,"lon":5.42433,"is_reserved":false,"is_disabled":false,"rental_uris":{"android":"levelo://app?vid=e17e907c-4fa3-474a-b50b-5db07b6861ef","ios":"levelo://app?vid=e17e907c-4fa3-474a-b50b-5db07b6861ef"},"vehicle_type_id":"4","last_reported":1728843079,"current_range_meters":8000,"station_id":"ce4bhp92rcd13ifvqhag","pricing_plan_id":"cebpf4jnsgd1na2vs0mg"},{"bike_id":"bd501995-e26b-4ea3-a4bd-91688e96e9ec","system_id":"levelo_inurba_marseille","lat":43.28446,"lon":5.39201,"is_reserved":false,"is_disabled":false,"rental_uris":{"android":"levelo://app?vid=bd501995-e26b-4ea3-a4bd-91688e96e9ec","ios":"levelo://app?vid=bd501995-e26b-4ea3-a4bd-91688e96e9ec"},"vehicle_type_id":"4","last_reported":1728843079,"current_range_meters":6000,"station_id":"ce4bhoh2rcd13ifvqh5g","pricing_plan_id":"cebpf4jnsgd1na2vs0mg"},{"bike_id":"e70d3fd3-d031-4920-8499-016f6aa4aea9","system_id":"levelo_inurba_marseille","lat":43.23148,"lon":5.43727,"is_reserved":false,"is_disabled":false,"rental_uris":{"android":"levelo://app?vid=e70d3fd3-d031-4920-8499-016f6aa4aea9","ios":"levelo://app?vid=e70d3fd3-d031-4920-8499-016f6aa4aea9"},"vehicle_type_id":"4","last_reported":1728843079,"current_range_meters":800,"station_id":"ce4bhmp2rcd13ifvqgog","pricing_plan_id":"cebpf4jnsgd1na2vs0mg"},{"bike_id":"d5904edc-115e-41fa-8710-b55e98f606fc","system_id":"levelo_inurba_marseille","lat":43.31167,"lon":5.3873,"is_reserved":false,"is_disabled":false,"rental_uris":{"android":"levelo://app?vid=d5904edc-115e-41fa-8710-b55e98f606fc","ios":"levelo://app?vid=d5904edc-115e-41fa-8710-b55e98f606fc"},"vehicle_type_id":"4","last_reported":1728843079,"current_range_meters":2000,"station_id":"ce4bgv12rcd13ifvqcp0","pricing_plan_id":"cebpf4jnsgd1na2vs0mg"},{"bike_id":"2c10af63-08f4-40bf-83a2-1890160187a6","system_id":"levelo_inurba_marseille","lat":43.29897,"lon":5.43674,"is_reserved":false,"is_disabled":false,"rental_uris":{"android":"levelo://app?vid=2c10af63-08f4-40bf-83a2-1890160187a6","ios":"levelo://app?vid=2c10af63-08f4-40bf-83a2-1890160187a6"},"vehicle_type_id":"4","last_reported":1728843079,"current_range_meters":20400,"station_id":"ce4bhpp2rcd13ifvqhfg","pricing_plan_id":"cebpf4jnsgd1na2vs0mg"},{"bike_id":"931d1f9c-4cb2-40a2-a856-914a1c55fcf3","system_id":"levelo_inurba_marseille","lat":43.2457,"lon":5.41661,"is_reserved":false,"is_disabled":false,"rental_uris":{"android":"levelo://app?vid=931d1f9c-4cb2-40a2-a856-914a1c55fcf3","ios":"levelo://app?vid=931d1f9c-4cb2-40a2-a856-914a1c55fcf3"},"vehicle_type_id":"4","last_reported":1728843079,"current_range_meters":6000,"station_id":"","pricing_plan_id":"cebpf4jnsgd1na2vs0mg"},{"bike_id":"8b065445-27c0-4e10-a7fd-0a56b79772ca","system_id":"levelo_inurba_marseille","lat":43.29005,"lon":5.35605,"is_reserved":false,"is_disabled":false,"rental_uris":{"android":"levelo://app?vid=8b065445-27c0-4e10-a7fd-0a56b79772ca","ios":"levelo://app?vid=8b065445-27c0-4e10-a7fd-0a56b79772ca"},"vehicle_type_id":"4","last_reported":1728843079,"current_range_meters":20400,"station_id":"ce4bhb92rcd13ifvqen0","pricing_plan_id":"cebpf4jnsgd1na2vs0mg"},{"bike_id":"c1526f14-0f53-47fd-bc6e-2dc8711b4bf6","system_id":"levelo_inurba_marseille","lat":43.29899,"lon":5.43675,"is_reserved":false,"is_disabled":false,"rental_uris":{"android":"levelo://app?vid=c1526f14-0f53-47fd-bc6e-2dc8711b4bf6","ios":"levelo://app?vid=c1526f14-0f53-47fd-bc6e-2dc8711b4bf6"},"vehicle_type_id":"4","last_reported":1728843079,"current_range_meters":28800,"station_id":"ce4bhpp2rcd13ifvqhfg","pricing_plan_id":"cebpf4jnsgd1na2vs0mg"},{"bike_id":"fe0f9d12-1c14-41df-b0e0-06bc0e9d9232","system_id":"levelo_inurba_marseille","lat":43.29885,"lon":5.38896,"is_reserved":false,"is_disabled":false,"rental_uris":{"android":"levelo://app?vid=fe0f9d12-1c14-41df-b0e0-06bc0e9d9232","ios":"levelo://app?vid=fe0f9d12-1c14-41df-b0e0-06bc0e9d9232"},"vehicle_type_id":"4","last_reported":1728843079,"current_range_meters":6000,"station_id":"ce4bh392rcd13ifvqdl0","pricing_plan_id":"cebpf4jnsgd1na2vs0mg"},{"bike_id":"1577fecb-cfb2-4506-83a8-2cd8ebbde5be","system_id":"levelo_inurba_marseille","lat":43.29959,"lon":5.37763,"is_reserved":false,"is_disabled":false,"rental_uris":{"android":"levelo://app?vid=1577fecb-cfb2-4506-83a8-2cd8ebbde5be","ios":"levelo://app?vid=1577fecb-cfb2-4506-83a8-2cd8ebbde5be"},"vehicle_type_id":"4","last_reported":1728843079,"current_range_meters":5600,"station_id":"","pricing_plan_id":"cebpf4jnsgd1na2vs0mg"},{"bike_id":"4a930f0e-c022-4f78-b2a2-5e16481ac3bc","system_id":"levelo_inurba_marseille","lat":43.290453,"lon":5.35921,"is_reserved":false,"is_disabled":false,"rental_uris":{"android":"levelo://app?vid=4a930f0e-c022-4f78-b2a2-5e16481ac3bc","ios":"levelo://app?vid=4a930f0e-c022-4f78-b2a2-5e16481ac3bc"},"vehicle_type_id":"4","last_reported":1728843079,"current_range_meters":38800,"station_id":"ce4bha92rcd13ifvqeg0","pricing_plan_id":"cebpf4jnsgd1na2vs0mg"},{"bike_id":"17eecf1c-490e-4893-8075-41ae8bdc9269","system_id":"levelo_inurba_marseille","lat":43.28715,"lon":5.3794,"is_reserved":false,"is_disabled":false,"rental_uris":{"android":"levelo://app?vid=17eecf1c-490e-4893-8075-41ae8bdc9269","ios":"levelo://app?vid=17eecf1c-490e-4893-8075-41ae8bdc9269"},"vehicle_type_id":"4","last_reported":1728843079,"current_range_meters":30800,"station_id":"ce4bh9p2rcd13ifvqec0","pricing_plan_id":"cebpf4jnsgd1na2vs0mg"},{"bike_id":"f5092ebf-7802-487c-bf45-c4b25c77443d","system_id":"levelo_inurba_marseille","lat":43.26949,"lon":5.3863,"is_reserved":false,"is_disabled":false,"rental_uris":{"android":"levelo://app?vid=f5092ebf-7802-487c-bf45-c4b25c77443d","ios":"levelo://app?vid=f5092ebf-7802-487c-bf45-c4b25c77443d"},"vehicle_type_id":"4","last_reported":1728843079,"current_range_meters":35200,"station_id":"ce4bhh92rcd13ifvqfh0","pricing_plan_id":"cebpf4jnsgd1na2vs0mg"},{"bike_id":"6b2daff3-9851-4dff-9081-e0ec010599e4","system_id":"levelo_inurba_marseille","lat":43.314515,"lon":5.37384,"is_reserved":false,"is_disabled":false,"rental_uris":{"android":"levelo://app?vid=6b2daff3-9851-4dff-9081-e0ec010599e4","ios":"levelo://app?vid=6b2daff3-9851-4dff-9081-e0ec010599e4"},"vehicle_type_id":"4","last_reported":1728843079,"current_range_meters":31200,"station_id":"","pricing_plan_id":"cebpf4jnsgd1na2vs0mg"},{"bike_id":"39f186e7-5973-4964-8cde-a1c771a5c628","system_id":"levelo_inurba_marseille","lat":43.2893,"lon":5.38787,"is_reserved":false,"is_disabled":false,"rental_uris":{"android":"levelo://app?vid=39f186e7-5973-4964-8cde-a1c771a5c628","ios":"levelo://app?vid=39f186e7-5973-4964-8cde-a1c771a5c628"},"vehicle_type_id":"4","last_reported":1728843079,"current_range_meters":28800,"station_id":"ce4bh2p2rcd13ifvqdi0","pricing_plan_id":"cebpf4jnsgd1na2vs0mg"},{"bike_id":"67e48798-506e-4ddc-81db-ec93bf2c3b72","system_id":"levelo_inurba_marseille","lat":43.32141,"lon":5.38704,"is_reserved":false,"is_disabled":false,"rental_uris":{"android":"levelo://app?vid=67e48798-506e-4ddc-81db-ec93bf2c3b72","ios":"levelo://app?vid=67e48798-506e-4ddc-81db-ec93bf2c3b72"},"vehicle_type_id":"4","last_reported":1728843079,"current_range_meters":38000,"station_id":"","pricing_plan_id":"cebpf4jnsgd1na2vs0mg"},{"bike_id":"3c822ecd-c349-4358-955d-935167de7c4d","system_id":"levelo_inurba_marseille","lat":43.27178,"lon":5.4099,"is_reserved":false,"is_disabled":false,"rental_uris":{"android":"levelo://app?vid=3c822ecd-c349-4358-955d-935167de7c4d","ios":"levelo://app?vid=3c822ecd-c349-4358-955d-935167de7c4d"},"vehicle_type_id":"4","last_reported":1728843079,"current_range_meters":10000,"station_id":"ce4bhl12rcd13ifvqgf0","pricing_plan_id":"cebpf4jnsgd1na2vs0mg"},{"bike_id":"05c5350b-5a31-4693-aa0d-2d2de2d87abe","system_id":"levelo_inurba_marseille","lat":43.30245,"lon":5.40095,"is_reserved":false,"is_disabled":false,"rental_uris":{"android":"levelo://app?vid=05c5350b-5a31-4693-aa0d-2d2de2d87abe","ios":"levelo://app?vid=05c5350b-5a31-4693-aa0d-2d2de2d87abe"},"vehicle_type_id":"4","last_reported":1728843079,"current_range_meters":38000,"station_id":"ce4bgvh2rcd13ifvqcs0","pricing_plan_id":"cebpf4jnsgd1na2vs0mg"},{"bike_id":"e14a7adb-b8dc-4246-8642-ba7619f88940","system_id":"levelo_inurba_marseille","lat":43.29001,"lon":5.35612,"is_reserved":false,"is_disabled":false,"rental_uris":{"android":"levelo://app?vid=e14a7adb-b8dc-4246-8642-ba7619f88940","ios":"levelo://app?vid=e14a7adb-b8dc-4246-8642-ba7619f88940"},"vehicle_type_id":"4","last_reported":1728843079,"current_range_meters":38800,"station_id":"ce4bhb92rcd13ifvqen0","pricing_plan_id":"cebpf4jnsgd1na2vs0mg"},{"bike_id":"1886a3c3-f708-433e-b3ca-3e81461d1ca2","system_id":"levelo_inurba_marseille","lat":43.29162,"lon":5.37154,"is_reserved":false,"is_disabled":false,"rental_uris":{"android":"levelo://app?vid=1886a3c3-f708-433e-b3ca-3e81461d1ca2","ios":"levelo://app?vid=1886a3c3-f708-433e-b3ca-3e81461d1ca2"},"vehicle_type_id":"4","last_reported":1728843079,"current_range_meters":8800,"station_id":"ce4bha92rcd13ifvqeh0","pricing_plan_id":"cebpf4jnsgd1na2vs0mg"},{"bike_id":"c921393e-32c2-417c-8234-90b06d6d0bc3","system_id":"levelo_inurba_marseille","lat":43.24668,"lon":5.38167,"is_reserved":false,"is_disabled":false,"rental_uris":{"android":"levelo://app?vid=c921393e-32c2-417c-8234-90b06d6d0bc3","ios":"levelo://app?vid=c921393e-32c2-417c-8234-90b06d6d0bc3"},"vehicle_type_id":"4","last_reported":1728843079,"current_range_meters":6400,"station_id":"ce4bhih2rcd13ifvqfr0","pricing_plan_id":"cebpf4jnsgd1na2vs0mg"},{"bike_id":"c3133731-15de-4fac-82c3-f0c3f13420f4","system_id":"levelo_inurba_marseille","lat":43.23195,"lon":5.35555,"is_reserved":false,"is_disabled":false,"rental_uris":{"android":"levelo://app?vid=c3133731-15de-4fac-82c3-f0c3f13420f4","ios":"levelo://app?vid=c3133731-15de-4fac-82c3-f0c3f13420f4"},"vehicle_type_id":"4","last_reported":1728843079,"current_range_meters":8000,"station_id":"ce4bhu92rcd13ifvqi70","pricing_plan_id":"cebpf4jnsgd1na2vs0mg"},{"bike_id":"7bfca5b2-1ddd-4e5d-b9fc-19e6379d40a0","system_id":"levelo_inurba_marseille","lat":43.2806,"lon":5.40989,"is_reserved":false,"is_disabled":false,"rental_uris":{"android":"levelo://app?vid=7bfca5b2-1ddd-4e5d-b9fc-19e6379d40a0","ios":"levelo://app?vid=7bfca5b2-1ddd-4e5d-b9fc-19e6379d40a0"},"vehicle_type_id":"4","last_reported":1728843079,"current_range_meters":30800,"station_id":"","pricing_plan_id":"cebpf4jnsgd1na2vs0mg"},{"bike_id":"a9f025de-7fbb-467d-8b40-db2fd10475e7","system_id":"levelo_inurba_marseille","lat":43.28109,"lon":5.37839,"is_reserved":false,"is_disabled":false,"rental_uris":{"android":"levelo://app?vid=a9f025de-7fbb-467d-8b40-db2fd10475e7","ios":"levelo://app?vid=a9f025de-7fbb-467d-8b40-db2fd10475e7"},"vehicle_type_id":"4","last_reported":1728843079,"current_range_meters":31200,"station_id":"ce4bha12rcd13ifvqee0","pricing_plan_id":"cebpf4jnsgd1na2vs0mg"},{"bike_id":"0e876c53-2a5b-482c-939e-5b55d4042a0c","system_id":"levelo_inurba_marseille","lat":43.27074,"lon":5.42284,"is_reserved":false,"is_disabled":false,"rental_uris":{"android":"levelo://app?vid=0e876c53-2a5b-482c-939e-5b55d4042a0c","ios":"levelo://app?vid=0e876c53-2a5b-482c-939e-5b55d4042a0c"},"vehicle_type_id":"4","last_reported":1728843079,"current_range_meters":27600,"station_id":"ce4bhk92rcd13ifvqgb0","pricing_plan_id":"cebpf4jnsgd1na2vs0mg"},{"bike_id":"6b02a477-d6a9-4f96-95a6-66e4ddd11c8f","system_id":"levelo_inurba_marseille","lat":43.31601,"lon":5.423929,"is_reserved":false,"is_disabled":false,"rental_uris":{"android":"levelo://app?vid=6b02a477-d6a9-4f96-95a6-66e4ddd11c8f","ios":"levelo://app?vid=6b02a477-d6a9-4f96-95a6-66e4ddd11c8f"},"vehicle_type_id":"4","last_reported":1728843079,"current_range_meters":17600,"station_id":"ce4bh192rcd13ifvqdc0","pricing_plan_id":"cebpf4jnsgd1na2vs0mg"},{"bike_id":"8a896877-e27d-4910-b3e7-53957785af62","system_id":"levelo_inurba_marseille","lat":43.23192,"lon":5.35557,"is_reserved":false,"is_disabled":false,"rental_uris":{"android":"levelo://app?vid=8a896877-e27d-4910-b3e7-53957785af62","ios":"levelo://app?vid=8a896877-e27d-4910-b3e7-53957785af62"},"vehicle_type_id":"4","last_reported":1728843079,"current_range_meters":28000,"station_id":"ce4bhu92rcd13ifvqi70","pricing_plan_id":"cebpf4jnsgd1na2vs0mg"},{"bike_id":"cb0fa5b9-00ee-48fc-9ffa-599816c760e3","system_id":"levelo_inurba_marseille","lat":43.28103,"lon":5.37845,"is_reserved":false,"is_disabled":false,"rental_uris":{"android":"levelo://app?vid=cb0fa5b9-00ee-48fc-9ffa-599816c760e3","ios":"levelo://app?vid=cb0fa5b9-00ee-48fc-9ffa-599816c760e3"},"vehicle_type_id":"4","last_reported":1728843079,"current_range_meters":38800,"station_id":"ce4bha12rcd13ifvqee0","pricing_plan_id":"cebpf4jnsgd1na2vs0mg"},{"bike_id":"8010fd75-64d5-4078-b9a5-2a9aec9a9a8b","system_id":"levelo_inurba_marseille","lat":43.28483,"lon":5.38415,"is_reserved":false,"is_disabled":false,"rental_uris":{"android":"levelo://app?vid=8010fd75-64d5-4078-b9a5-2a9aec9a9a8b","ios":"levelo://app?vid=8010fd75-64d5-4078-b9a5-2a9aec9a9a8b"},"vehicle_type_id":"4","last_reported":1728843079,"current_range_meters":21600,"station_id":"ce4bh512rcd13ifvqe3g","pricing_plan_id":"cebpf4jnsgd1na2vs0mg"},{"bike_id":"a69f97c6-2aac-4c6c-9c9b-9acd8dc658fb","system_id":"levelo_inurba_marseille","lat":43.291809,"lon":5.37317,"is_reserved":false,"is_disabled":false,"rental_uris":{"android":"levelo://app?vid=a69f97c6-2aac-4c6c-9c9b-9acd8dc658fb","ios":"levelo://app?vid=a69f97c6-2aac-4c6c-9c9b-9acd8dc658fb"},"vehicle_type_id":"4","last_reported":1728843079,"current_range_meters":38800,"station_id":"ce4bh692rcd13ifvqe90","pricing_plan_id":"cebpf4jnsgd1na2vs0mg"},{"bike_id":"f031344f-83b8-451b-bcbe-59ecb3e7a551","system_id":"levelo_inurba_marseille","lat":43.3033,"lon":5.40439,"is_reserved":false,"is_disabled":false,"rental_uris":{"android":"levelo://app?vid=f031344f-83b8-451b-bcbe-59ecb3e7a551","ios":"levelo://app?vid=f031344f-83b8-451b-bcbe-59ecb3e7a551"},"vehicle_type_id":"4","last_reported":1728843079,"current_range_meters":36800,"station_id":"ce4bh012rcd13ifvqd10","pricing_plan_id":"cebpf4jnsgd1na2vs0mg"},{"bike_id":"096dc768-3ed5-430c-94f6-df83a70509ac","system_id":"levelo_inurba_marseille","lat":43.30356,"lon":5.41878,"is_reserved":false,"is_disabled":false,"rental_uris":{"android":"levelo://app?vid=096dc768-3ed5-430c-94f6-df83a70509ac","ios":"levelo://app?vid=096dc768-3ed5-430c-94f6-df83a70509ac"},"vehicle_type_id":"4","last_reported":1728843079,"current_range_meters":400,"station_id":"ce4bhop2rcd13ifvqh7g","pricing_plan_id":"cebpf4jnsgd1na2vs0mg"},{"bike_id":"b9f4adf1-dca7-4036-9214-4b1d91092b0d","system_id":"levelo_inurba_marseille","lat":43.30324,"lon":5.40442,"is_reserved":false,"is_disabled":false,"rental_uris":{"android":"levelo://app?vid=b9f4adf1-dca7-4036-9214-4b1d91092b0d","ios":"levelo://app?vid=b9f4adf1-dca7-4036-9214-4b1d91092b0d"},"vehicle_type_id":"4","last_reported":1728843079,"current_range_meters":9600,"station_id":"ce4bh012rcd13ifvqd10","pricing_plan_id":"cebpf4jnsgd1na2vs0mg"},{"bike_id":"dc40a090-e957-4e81-9461-22da13153f93","system_id":"levelo_inurba_marseille","lat":43.25005,"lon":5.38926,"is_reserved":false,"is_disabled":false,"rental_uris":{"android":"levelo://app?vid=dc40a090-e957-4e81-9461-22da13153f93","ios":"levelo://app?vid=dc40a090-e957-4e81-9461-22da13153f93"},"vehicle_type_id":"4","last_reported":1728843079,"current_range_meters":34800,"station_id":"ce4bhgp2rcd13ifvqfd0","pricing_plan_id":"cebpf4jnsgd1na2vs0mg"},{"bike_id":"17b7bdcb-52e8-46bb-bce2-07371f0281e0","system_id":"levelo_inurba_marseille","lat":43.27822,"lon":5.39219,"is_reserved":false,"is_disabled":false,"rental_uris":{"android":"levelo://app?vid=17b7bdcb-52e8-46bb-bce2-07371f0281e0","ios":"levelo://app?vid=17b7bdcb-52e8-46bb-bce2-07371f0281e0"},"vehicle_type_id":"4","last_reported":1728843079,"current_range_meters":19600,"station_id":"ce4bhjp2rcd13ifvqga0","pricing_plan_id":"cebpf4jnsgd1na2vs0mg"},{"bike_id":"b1a3f315-9f62-4fbb-99d6-540f8c4b78d0","system_id":"levelo_inurba_marseille","lat":43.30961,"lon":5.39039,"is_reserved":false,"is_disabled":false,"rental_uris":{"android":"levelo://app?vid=b1a3f315-9f62-4fbb-99d6-540f8c4b78d0","ios":"levelo://app?vid=b1a3f315-9f62-4fbb-99d6-540f8c4b78d0"},"vehicle_type_id":"4","last_reported":1728843079,"current_range_meters":0,"station_id":"ce4bgup2rcd13ifvqco0","pricing_plan_id":"cebpf4jnsgd1na2vs0mg"},{"bike_id":"5d0b0cef-60a4-49d6-a051-9c45df7d9cf9","system_id":"levelo_inurba_marseille","lat":43.3028,"lon":5.37702,"is_reserved":false,"is_disabled":false,"rental_uris":{"android":"levelo://app?vid=5d0b0cef-60a4-49d6-a051-9c45df7d9cf9","ios":"levelo://app?vid=5d0b0cef-60a4-49d6-a051-9c45df7d9cf9"},"vehicle_type_id":"4","last_reported":1728843079,"current_range_meters":16400,"station_id":"ce4bguh2rcd13ifvqcj0","pricing_plan_id":"cebpf4jnsgd1na2vs0mg"},{"bike_id":"26ef0f82-778d-44d7-ad89-5daefc08a1a4","system_id":"levelo_inurba_marseille","lat":43.31468,"lon":5.37374,"is_reserved":false,"is_disabled":false,"rental_uris":{"android":"levelo://app?vid=26ef0f82-778d-44d7-ad89-5daefc08a1a4","ios":"levelo://app?vid=26ef0f82-778d-44d7-ad89-5daefc08a1a4"},"vehicle_type_id":"4","last_reported":1728843079,"current_range_meters":20000,"station_id":"","pricing_plan_id":"cebpf4jnsgd1na2vs0mg"},{"bike_id":"2e75e0e2-ac21-4ccb-87fd-f1ae41467fbc","system_id":"levelo_inurba_marseille","lat":43.32542,"lon":5.41455,"is_reserved":false,"is_disabled":false,"rental_uris":{"android":"levelo://app?vid=2e75e0e2-ac21-4ccb-87fd-f1ae41467fbc","ios":"levelo://app?vid=2e75e0e2-ac21-4ccb-87fd-f1ae41467fbc"},"vehicle_type_id":"4","last_reported":1728843079,"current_range_meters":30800,"station_id":"ce4bhq12rcd13ifvqhhg","pricing_plan_id":"cebpf4jnsgd1na2vs0mg"},{"bike_id":"25ed2710-8c35-44e6-81fd-8fc7cf6b54a8","system_id":"levelo_inurba_marseille","lat":43.274948,"lon":5.424466,"is_reserved":false,"is_disabled":false,"rental_uris":{"android":"levelo://app?vid=25ed2710-8c35-44e6-81fd-8fc7cf6b54a8","ios":"levelo://app?vid=25ed2710-8c35-44e6-81fd-8fc7cf6b54a8"},"vehicle_type_id":"4","last_reported":1728843079,"current_range_meters":20000,"station_id":"ce4bhn92rcd13ifvqgrg","pricing_plan_id":"cebpf4jnsgd1na2vs0mg"},{"bike_id":"b9b18d1e-08b0-4d2d-ae4b-c6ff6e5bb0fe","system_id":"levelo_inurba_marseille","lat":43.29649,"lon":5.37263,"is_reserved":false,"is_disabled":false,"rental_uris":{"android":"levelo://app?vid=b9b18d1e-08b0-4d2d-ae4b-c6ff6e5bb0fe","ios":"levelo://app?vid=b9b18d1e-08b0-4d2d-ae4b-c6ff6e5bb0fe"},"vehicle_type_id":"4","last_reported":1728843079,"current_range_meters":16000,"station_id":"ce4bgk12rcd13ifvqbj0","pricing_plan_id":"cebpf4jnsgd1na2vs0mg"},{"bike_id":"6e6f9582-c6a3-4d7e-b483-54430b4163f2","system_id":"levelo_inurba_marseille","lat":43.28844,"lon":5.39319,"is_reserved":false,"is_disabled":false,"rental_uris":{"android":"levelo://app?vid=6e6f9582-c6a3-4d7e-b483-54430b4163f2","ios":"levelo://app?vid=6e6f9582-c6a3-4d7e-b483-54430b4163f2"},"vehicle_type_id":"4","last_reported":1728843079,"current_range_meters":14800,"station_id":"ce4bh2p2rcd13ifvqdi0","pricing_plan_id":"cebpf4jnsgd1na2vs0mg"},{"bike_id":"e2803419-b5a6-47c3-bc9d-647360eb10e4","system_id":"levelo_inurba_marseille","lat":43.29777,"lon":5.39348,"is_reserved":false,"is_disabled":false,"rental_uris":{"android":"levelo://app?vid=e2803419-b5a6-47c3-bc9d-647360eb10e4","ios":"levelo://app?vid=e2803419-b5a6-47c3-bc9d-647360eb10e4"},"vehicle_type_id":"4","last_reported":1728843079,"current_range_meters":9200,"station_id":"chh1huq6cuj3fo74tm60","pricing_plan_id":"cebpf4jnsgd1na2vs0mg"},{"bike_id":"696d1396-8239-414c-86e9-83f053ac3d0d","system_id":"levelo_inurba_marseille","lat":43.286136,"lon":5.351085,"is_reserved":false,"is_disabled":false,"rental_uris":{"android":"levelo://app?vid=696d1396-8239-414c-86e9-83f053ac3d0d","ios":"levelo://app?vid=696d1396-8239-414c-86e9-83f053ac3d0d"},"vehicle_type_id":"4","last_reported":1728843079,"current_range_meters":30400,"station_id":"ce4bgkh2rcd13ifvqbl0","pricing_plan_id":"cebpf4jnsgd1na2vs0mg"},{"bike_id":"c6dbca71-589e-4a83-87ff-0f082fafd8a5","system_id":"levelo_inurba_marseille","lat":43.29509,"lon":5.3941,"is_reserved":false,"is_disabled":false,"rental_uris":{"android":"levelo://app?vid=c6dbca71-589e-4a83-87ff-0f082fafd8a5","ios":"levelo://app?vid=c6dbca71-589e-4a83-87ff-0f082fafd8a5"},"vehicle_type_id":"4","last_reported":1728843079,"current_range_meters":0,"station_id":"ce4bh292rcd13ifvqdf0","pricing_plan_id":"cebpf4jnsgd1na2vs0mg"},{"bike_id":"fc51ff02-4193-4e42-9e79-7f680c726bd9","system_id":"levelo_inurba_marseille","lat":43.2394,"lon":5.37588,"is_reserved":false,"is_disabled":false,"rental_uris":{"android":"levelo://app?vid=fc51ff02-4193-4e42-9e79-7f680c726bd9","ios":"levelo://app?vid=fc51ff02-4193-4e42-9e79-7f680c726bd9"},"vehicle_type_id":"4","last_reported":1728843079,"current_range_meters":18800,"station_id":"","pricing_plan_id":"cebpf4jnsgd1na2vs0mg"},{"bike_id":"ed7c4668-fcf8-4567-bab8-519fb7ab74da","system_id":"levelo_inurba_marseille","lat":43.29026,"lon":5.35934,"is_reserved":false,"is_disabled":false,"rental_uris":{"android":"levelo://app?vid=ed7c4668-fcf8-4567-bab8-519fb7ab74da","ios":"levelo://app?vid=ed7c4668-fcf8-4567-bab8-519fb7ab74da"},"vehicle_type_id":"4","last_reported":1728843079,"current_range_meters":7200,"station_id":"ce4bha92rcd13ifvqeg0","pricing_plan_id":"cebpf4jnsgd1na2vs0mg"},{"bike_id":"78e484b6-095d-4b1a-83ec-e14469384d75","system_id":"levelo_inurba_marseille","lat":43.284393,"lon":5.349663,"is_reserved":false,"is_disabled":false,"rental_uris":{"android":"levelo://app?vid=78e484b6-095d-4b1a-83ec-e14469384d75","ios":"levelo://app?vid=78e484b6-095d-4b1a-83ec-e14469384d75"},"vehicle_type_id":"4","last_reported":1728843079,"current_range_meters":36400,"station_id":"ce4bhbh2rcd13ifvqepg","pricing_plan_id":"cebpf4jnsgd1na2vs0mg"},{"bike_id":"744d7d46-a030-452d-827a-600610e2a098","system_id":"levelo_inurba_marseille","lat":43.23183,"lon":5.39998,"is_reserved":false,"is_disabled":false,"rental_uris":{"android":"levelo://app?vid=744d7d46-a030-452d-827a-600610e2a098","ios":"levelo://app?vid=744d7d46-a030-452d-827a-600610e2a098"},"vehicle_type_id":"4","last_reported":1728843079,"current_range_meters":32800,"station_id":"ce4bhn12rcd13ifvqgqg","pricing_plan_id":"cebpf4jnsgd1na2vs0mg"},{"bike_id":"a439359e-79c9-4671-97c1-f9d8d7ffcefb","system_id":"levelo_inurba_marseille","lat":43.28452,"lon":5.35886,"is_reserved":false,"is_disabled":false,"rental_uris":{"android":"levelo://app?vid=a439359e-79c9-4671-97c1-f9d8d7ffcefb","ios":"levelo://app?vid=a439359e-79c9-4671-97c1-f9d8d7ffcefb"},"vehicle_type_id":"4","last_reported":1728843079,"current_range_meters":0,"station_id":"ce4bhah2rcd13ifvqei0","pricing_plan_id":"cebpf4jnsgd1na2vs0mg"},{"bike_id":"e6a8aec1-d448-48fb-b2d3-480453e7edf3","system_id":"levelo_inurba_marseille","lat":43.31697,"lon":5.3986,"is_reserved":false,"is_disabled":false,"rental_uris":{"android":"levelo://app?vid=e6a8aec1-d448-48fb-b2d3-480453e7edf3","ios":"levelo://app?vid=e6a8aec1-d448-48fb-b2d3-480453e7edf3"},"vehicle_type_id":"4","last_reported":1728843079,"current_range_meters":2800,"station_id":"","pricing_plan_id":"cebpf4jnsgd1na2vs0mg"},{"bike_id":"243d037e-b324-4447-9109-dca4bdb931d3","system_id":"levelo_inurba_marseille","lat":43.2903,"lon":5.38148,"is_reserved":false,"is_disabled":false,"rental_uris":{"android":"levelo://app?vid=243d037e-b324-4447-9109-dca4bdb931d3","ios":"levelo://app?vid=243d037e-b324-4447-9109-dca4bdb931d3"},"vehicle_type_id":"4","last_reported":1728843079,"current_range_meters":6400,"station_id":"ce4bh4p2rcd13ifvqe1g","pricing_plan_id":"cebpf4jnsgd1na2vs0mg"},{"bike_id":"b6b76bcc-0b19-4a38-a957-dbfc6b115523","system_id":"levelo_inurba_marseille","lat":43.24998,"lon":5.38934,"is_reserved":false,"is_disabled":false,"rental_uris":{"android":"levelo://app?vid=b6b76bcc-0b19-4a38-a957-dbfc6b115523","ios":"levelo://app?vid=b6b76bcc-0b19-4a38-a957-dbfc6b115523"},"vehicle_type_id":"4","last_reported":1728843079,"current_range_meters":3600,"station_id":"ce4bhgp2rcd13ifvqfd0","pricing_plan_id":"cebpf4jnsgd1na2vs0mg"},{"bike_id":"24466155-6997-4f94-9fe8-7e013626ffff","system_id":"levelo_inurba_marseille","lat":43.298297,"lon":5.388778,"is_reserved":false,"is_disabled":false,"rental_uris":{"android":"levelo://app?vid=24466155-6997-4f94-9fe8-7e013626ffff","ios":"levelo://app?vid=24466155-6997-4f94-9fe8-7e013626ffff"},"vehicle_type_id":"4","last_reported":1728843079,"current_range_meters":3600,"station_id":"ce4bh392rcd13ifvqdl0","pricing_plan_id":"cebpf4jnsgd1na2vs0mg"},{"bike_id":"f9812d6f-8b55-4c25-972f-200c88ff20e5","system_id":"levelo_inurba_marseille","lat":43.296204,"lon":5.371695,"is_reserved":false,"is_disabled":false,"rental_uris":{"android":"levelo://app?vid=f9812d6f-8b55-4c25-972f-200c88ff20e5","ios":"levelo://app?vid=f9812d6f-8b55-4c25-972f-200c88ff20e5"},"vehicle_type_id":"4","last_reported":1728843079,"current_range_meters":8800,"station_id":"ce4bh612rcd13ifvqe6g","pricing_plan_id":"cebpf4jnsgd1na2vs0mg"},{"bike_id":"b0678251-a77f-46f5-94fc-0e19381fe89f","system_id":"levelo_inurba_marseille","lat":43.26928,"lon":5.38919,"is_reserved":false,"is_disabled":false,"rental_uris":{"android":"levelo://app?vid=b0678251-a77f-46f5-94fc-0e19381fe89f","ios":"levelo://app?vid=b0678251-a77f-46f5-94fc-0e19381fe89f"},"vehicle_type_id":"4","last_reported":1728843079,"current_range_meters":37600,"station_id":"ce4bhhh2rcd13ifvqfl0","pricing_plan_id":"cebpf4jnsgd1na2vs0mg"},{"bike_id":"9aad8d60-f78c-4a97-8162-5aae58676fc3","system_id":"levelo_inurba_marseille","lat":43.27976,"lon":5.41671,"is_reserved":false,"is_disabled":false,"rental_uris":{"android":"levelo://app?vid=9aad8d60-f78c-4a97-8162-5aae58676fc3","ios":"levelo://app?vid=9aad8d60-f78c-4a97-8162-5aae58676fc3"},"vehicle_type_id":"4","last_reported":1728843079,"current_range_meters":34000,"station_id":"","pricing_plan_id":"cebpf4jnsgd1na2vs0mg"},{"bike_id":"c370b456-efe8-4bdb-ac9f-5e11062046ae","system_id":"levelo_inurba_marseille","lat":43.26198,"lon":5.37451,"is_reserved":false,"is_disabled":false,"rental_uris":{"android":"levelo://app?vid=c370b456-efe8-4bdb-ac9f-5e11062046ae","ios":"levelo://app?vid=c370b456-efe8-4bdb-ac9f-5e11062046ae"},"vehicle_type_id":"4","last_reported":1728843079,"current_range_meters":30400,"station_id":"ce4bhgp2rcd13ifvqfc0","pricing_plan_id":"cebpf4jnsgd1na2vs0mg"},{"bike_id":"181dc8f2-0f88-4071-b0ec-ccc9182a1f84","system_id":"levelo_inurba_marseille","lat":43.23966,"lon":5.36639,"is_reserved":false,"is_disabled":false,"rental_uris":{"android":"levelo://app?vid=181dc8f2-0f88-4071-b0ec-ccc9182a1f84","ios":"levelo://app?vid=181dc8f2-0f88-4071-b0ec-ccc9182a1f84"},"vehicle_type_id":"4","last_reported":1728843079,"current_range_meters":16800,"station_id":"ce4bhi12rcd13ifvqfp0","pricing_plan_id":"cebpf4jnsgd1na2vs0mg"},{"bike_id":"a9273c62-19bf-474f-8a38-04579f4f115a","system_id":"levelo_inurba_marseille","lat":43.29088,"lon":5.38129,"is_reserved":false,"is_disabled":false,"rental_uris":{"android":"levelo://app?vid=a9273c62-19bf-474f-8a38-04579f4f115a","ios":"levelo://app?vid=a9273c62-19bf-474f-8a38-04579f4f115a"},"vehicle_type_id":"4","last_reported":1728843079,"current_range_meters":36400,"station_id":"ce4bh512rcd13ifvqe2g","pricing_plan_id":"cebpf4jnsgd1na2vs0mg"},{"bike_id":"b59f90a9-1541-4788-8247-8c022669dad6","system_id":"levelo_inurba_marseille","lat":43.26685,"lon":5.38276,"is_reserved":false,"is_disabled":false,"rental_uris":{"android":"levelo://app?vid=b59f90a9-1541-4788-8247-8c022669dad6","ios":"levelo://app?vid=b59f90a9-1541-4788-8247-8c022669dad6"},"vehicle_type_id":"4","last_reported":1728843079,"current_range_meters":11200,"station_id":"ce4bhg92rcd13ifvqf90","pricing_plan_id":"cebpf4jnsgd1na2vs0mg"},{"bike_id":"43090301-5683-451f-b986-9d1dff206eb1","system_id":"levelo_inurba_marseille","lat":43.28426,"lon":5.3752,"is_reserved":false,"is_disabled":false,"rental_uris":{"android":"levelo://app?vid=43090301-5683-451f-b986-9d1dff206eb1","ios":"levelo://app?vid=43090301-5683-451f-b986-9d1dff206eb1"},"vehicle_type_id":"4","last_reported":1728843079,"current_range_meters":2000,"station_id":"ce4bh412rcd13ifvqds0","pricing_plan_id":"cebpf4jnsgd1na2vs0mg"},{"bike_id":"eccffdca-8ae3-4d1b-8411-c1751546085f","system_id":"levelo_inurba_marseille","lat":43.25855,"lon":5.39907,"is_reserved":false,"is_disabled":false,"rental_uris":{"android":"levelo://app?vid=eccffdca-8ae3-4d1b-8411-c1751546085f","ios":"levelo://app?vid=eccffdca-8ae3-4d1b-8411-c1751546085f"},"vehicle_type_id":"4","last_reported":1728843079,"current_range_meters":32000,"station_id":"ce4bhl92rcd13ifvqghg","pricing_plan_id":"cebpf4jnsgd1na2vs0mg"},{"bike_id":"9d671549-67ad-4eb0-ace0-50f59d8a0c79","system_id":"levelo_inurba_marseille","lat":43.31109,"lon":5.38064,"is_reserved":false,"is_disabled":false,"rental_uris":{"android":"levelo://app?vid=9d671549-67ad-4eb0-ace0-50f59d8a0c79","ios":"levelo://app?vid=9d671549-67ad-4eb0-ace0-50f59d8a0c79"},"vehicle_type_id":"4","last_reported":1728843079,"current_range_meters":23200,"station_id":"ce4bgt92rcd13ifvqcf0","pricing_plan_id":"cebpf4jnsgd1na2vs0mg"},{"bike_id":"87013341-0091-4bb6-86c0-6b26980da771","system_id":"levelo_inurba_marseille","lat":43.29018,"lon":5.38135,"is_reserved":false,"is_disabled":false,"rental_uris":{"android":"levelo://app?vid=87013341-0091-4bb6-86c0-6b26980da771","ios":"levelo://app?vid=87013341-0091-4bb6-86c0-6b26980da771"},"vehicle_type_id":"4","last_reported":1728843079,"current_range_meters":11200,"station_id":"ce4bh4p2rcd13ifvqe1g","pricing_plan_id":"cebpf4jnsgd1na2vs0mg"},{"bike_id":"5c639a26-5c91-4b8b-9329-66026ae8437d","system_id":"levelo_inurba_marseille","lat":43.251087,"lon":5.403126,"is_reserved":false,"is_disabled":false,"rental_uris":{"android":"levelo://app?vid=5c639a26-5c91-4b8b-9329-66026ae8437d","ios":"levelo://app?vid=5c639a26-5c91-4b8b-9329-66026ae8437d"},"vehicle_type_id":"4","last_reported":1728843079,"current_range_meters":34800,"station_id":"ce4bhih2rcd13ifvqfr0","pricing_plan_id":"cebpf4jnsgd1na2vs0mg"},{"bike_id":"606fc471-693d-4b0a-bb8b-333d09ebb036","system_id":"levelo_inurba_marseille","lat":43.29937,"lon":5.36561,"is_reserved":false,"is_disabled":false,"rental_uris":{"android":"levelo://app?vid=606fc471-693d-4b0a-bb8b-333d09ebb036","ios":"levelo://app?vid=606fc471-693d-4b0a-bb8b-333d09ebb036"},"vehicle_type_id":"4","last_reported":1728843079,"current_range_meters":29600,"station_id":"ce4bgm92rcd13ifvqbr0","pricing_plan_id":"cebpf4jnsgd1na2vs0mg"},{"bike_id":"881644d1-28f9-46bc-bd73-08fd19e5a658","system_id":"levelo_inurba_marseille","lat":43.283498,"lon":5.381126,"is_reserved":false,"is_disabled":false,"rental_uris":{"android":"levelo://app?vid=881644d1-28f9-46bc-bd73-08fd19e5a658","ios":"levelo://app?vid=881644d1-28f9-46bc-bd73-08fd19e5a658"},"vehicle_type_id":"4","last_reported":1728843079,"current_range_meters":9600,"station_id":"ce4bh412rcd13ifvqdr0","pricing_plan_id":"cebpf4jnsgd1na2vs0mg"},{"bike_id":"fc9075eb-5c9f-4641-baa5-43cbbd99ef61","system_id":"levelo_inurba_marseille","lat":43.25502,"lon":5.37659,"is_reserved":false,"is_disabled":false,"rental_uris":{"android":"levelo://app?vid=fc9075eb-5c9f-4641-baa5-43cbbd99ef61","ios":"levelo://app?vid=fc9075eb-5c9f-4641-baa5-43cbbd99ef61"},"vehicle_type_id":"4","last_reported":1728843079,"current_range_meters":32000,"station_id":"ce4bhh12rcd13ifvqff0","pricing_plan_id":"cebpf4jnsgd1na2vs0mg"},{"bike_id":"42cede74-d141-4d6b-a790-a30a9d0f6f40","system_id":"levelo_inurba_marseille","lat":43.31893,"lon":5.40745,"is_reserved":false,"is_disabled":false,"rental_uris":{"android":"levelo://app?vid=42cede74-d141-4d6b-a790-a30a9d0f6f40","ios":"levelo://app?vid=42cede74-d141-4d6b-a790-a30a9d0f6f40"},"vehicle_type_id":"4","last_reported":1728843079,"current_range_meters":27600,"station_id":"ce4bhq12rcd13ifvqhig","pricing_plan_id":"cebpf4jnsgd1na2vs0mg"},{"bike_id":"549d6d74-2989-4262-84f7-d0467c6c02f7","system_id":"levelo_inurba_marseille","lat":43.29901,"lon":5.4368,"is_reserved":false,"is_disabled":false,"rental_uris":{"android":"levelo://app?vid=549d6d74-2989-4262-84f7-d0467c6c02f7","ios":"levelo://app?vid=549d6d74-2989-4262-84f7-d0467c6c02f7"},"vehicle_type_id":"4","last_reported":1728843079,"current_range_meters":17200,"station_id":"ce4bhpp2rcd13ifvqhfg","pricing_plan_id":"cebpf4jnsgd1na2vs0mg"},{"bike_id":"9d231eb1-f0d2-4158-bf30-865efdf6ca1d","system_id":"levelo_inurba_marseille","lat":43.292,"lon":5.39309,"is_reserved":false,"is_disabled":false,"rental_uris":{"android":"levelo://app?vid=9d231eb1-f0d2-4158-bf30-865efdf6ca1d","ios":"levelo://app?vid=9d231eb1-f0d2-4158-bf30-865efdf6ca1d"},"vehicle_type_id":"4","last_reported":1728843079,"current_range_meters":17200,"station_id":"ce4bh192rcd13ifvqdd0","pricing_plan_id":"cebpf4jnsgd1na2vs0mg"},{"bike_id":"401e8c3f-88b4-45c9-87e2-b19677ac02f3","system_id":"levelo_inurba_marseille","lat":43.31693,"lon":5.40474,"is_reserved":false,"is_disabled":false,"rental_uris":{"android":"levelo://app?vid=401e8c3f-88b4-45c9-87e2-b19677ac02f3","ios":"levelo://app?vid=401e8c3f-88b4-45c9-87e2-b19677ac02f3"},"vehicle_type_id":"4","last_reported":1728843079,"current_range_meters":35600,"station_id":"ce4bh012rcd13ifvqd00","pricing_plan_id":"cebpf4jnsgd1na2vs0mg"},{"bike_id":"32b57653-7631-4409-af17-08a9898daf0d","system_id":"levelo_inurba_marseille","lat":43.27968,"lon":5.3874,"is_reserved":false,"is_disabled":false,"rental_uris":{"android":"levelo://app?vid=32b57653-7631-4409-af17-08a9898daf0d","ios":"levelo://app?vid=32b57653-7631-4409-af17-08a9898daf0d"},"vehicle_type_id":"4","last_reported":1728843079,"current_range_meters":27600,"station_id":"ce4bhg12rcd13ifvqf80","pricing_plan_id":"cebpf4jnsgd1na2vs0mg"},{"bike_id":"a23e3495-f3af-4157-bf16-e2fae9570c83","system_id":"levelo_inurba_marseille","lat":43.29024,"lon":5.39967,"is_reserved":false,"is_disabled":false,"rental_uris":{"android":"levelo://app?vid=a23e3495-f3af-4157-bf16-e2fae9570c83","ios":"levelo://app?vid=a23e3495-f3af-4157-bf16-e2fae9570c83"},"vehicle_type_id":"4","last_reported":1728843079,"current_range_meters":26000,"station_id":"ce4bh392rcd13ifvqdm0","pricing_plan_id":"cebpf4jnsgd1na2vs0mg"},{"bike_id":"7563807c-d27a-4161-8a5f-4b0cb3141228","system_id":"levelo_inurba_marseille","lat":43.33729,"lon":5.39186,"is_reserved":false,"is_disabled":false,"rental_uris":{"android":"levelo://app?vid=7563807c-d27a-4161-8a5f-4b0cb3141228","ios":"levelo://app?vid=7563807c-d27a-4161-8a5f-4b0cb3141228"},"vehicle_type_id":"4","last_reported":1728843079,"current_range_meters":3600,"station_id":"ce4bhr92rcd13ifvqhsg","pricing_plan_id":"cebpf4jnsgd1na2vs0mg"},{"bike_id":"5bc9b78b-9615-45c0-a888-79c429dfa74a","system_id":"levelo_inurba_marseille","lat":43.33731,"lon":5.39203,"is_reserved":false,"is_disabled":false,"rental_uris":{"android":"levelo://app?vid=5bc9b78b-9615-45c0-a888-79c429dfa74a","ios":"levelo://app?vid=5bc9b78b-9615-45c0-a888-79c429dfa74a"},"vehicle_type_id":"4","last_reported":1728843079,"current_range_meters":16400,"station_id":"ce4bhr92rcd13ifvqhsg","pricing_plan_id":"cebpf4jnsgd1na2vs0mg"},{"bike_id":"042a7fb6-733f-4e21-ba67-165e874227ce","system_id":"levelo_inurba_marseille","lat":43.29071,"lon":5.3718,"is_reserved":false,"is_disabled":false,"rental_uris":{"android":"levelo://app?vid=042a7fb6-733f-4e21-ba67-165e874227ce","ios":"levelo://app?vid=042a7fb6-733f-4e21-ba67-165e874227ce"},"vehicle_type_id":"4","last_reported":1728843079,"current_range_meters":22800,"station_id":"ce4bh5p2rcd13ifvqe4g","pricing_plan_id":"cebpf4jnsgd1na2vs0mg"},{"bike_id":"e938ed7c-fde1-4fd5-9cd7-0ef3b5c6534c","system_id":"levelo_inurba_marseille","lat":43.26946,"lon":5.40257,"is_reserved":false,"is_disabled":false,"rental_uris":{"android":"levelo://app?vid=e938ed7c-fde1-4fd5-9cd7-0ef3b5c6534c","ios":"levelo://app?vid=e938ed7c-fde1-4fd5-9cd7-0ef3b5c6534c"},"vehicle_type_id":"4","last_reported":1728843079,"current_range_meters":38800,"station_id":"cjm6bp8fraef2m0cb0m0","pricing_plan_id":"cebpf4jnsgd1na2vs0mg"},{"bike_id":"aa2d8e29-6772-486a-92d9-98acfb166697","system_id":"levelo_inurba_marseille","lat":43.27382,"lon":5.36259,"is_reserved":false,"is_disabled":false,"rental_uris":{"android":"levelo://app?vid=aa2d8e29-6772-486a-92d9-98acfb166697","ios":"levelo://app?vid=aa2d8e29-6772-486a-92d9-98acfb166697"},"vehicle_type_id":"4","last_reported":1728843079,"current_range_meters":16400,"station_id":"ce4bhbh2rcd13ifvqeo0","pricing_plan_id":"cebpf4jnsgd1na2vs0mg"},{"bike_id":"24ddde74-3313-452c-a8e1-c554fbc08b52","system_id":"levelo_inurba_marseille","lat":43.24671,"lon":5.38175,"is_reserved":false,"is_disabled":false,"rental_uris":{"android":"levelo://app?vid=24ddde74-3313-452c-a8e1-c554fbc08b52","ios":"levelo://app?vid=24ddde74-3313-452c-a8e1-c554fbc08b52"},"vehicle_type_id":"4","last_reported":1728843079,"current_range_meters":28400,"station_id":"ce4bhih2rcd13ifvqfr0","pricing_plan_id":"cebpf4jnsgd1na2vs0mg"},{"bike_id":"42658688-e9c2-4a3c-adee-7d0bcc4656dc","system_id":"levelo_inurba_marseille","lat":43.29619,"lon":5.37726,"is_reserved":false,"is_disabled":false,"rental_uris":{"android":"levelo://app?vid=42658688-e9c2-4a3c-adee-7d0bcc4656dc","ios":"levelo://app?vid=42658688-e9c2-4a3c-adee-7d0bcc4656dc"},"vehicle_type_id":"4","last_reported":1728843079,"current_range_meters":27200,"station_id":"ce4bgi92rcd13ifvqb90","pricing_plan_id":"cebpf4jnsgd1na2vs0mg"},{"bike_id":"729b5747-2745-44f4-8e45-767e543cac8a","system_id":"levelo_inurba_marseille","lat":43.33034,"lon":5.38936,"is_reserved":false,"is_disabled":false,"rental_uris":{"android":"levelo://app?vid=729b5747-2745-44f4-8e45-767e543cac8a","ios":"levelo://app?vid=729b5747-2745-44f4-8e45-767e543cac8a"},"vehicle_type_id":"4","last_reported":1728843079,"current_range_meters":36800,"station_id":"","pricing_plan_id":"cebpf4jnsgd1na2vs0mg"},{"bike_id":"2aefec87-76db-4148-be79-3093f38525b3","system_id":"levelo_inurba_marseille","lat":43.29908,"lon":5.37469,"is_reserved":false,"is_disabled":false,"rental_uris":{"android":"levelo://app?vid=2aefec87-76db-4148-be79-3093f38525b3","ios":"levelo://app?vid=2aefec87-76db-4148-be79-3093f38525b3"},"vehicle_type_id":"4","last_reported":1728843079,"current_range_meters":20000,"station_id":"ce4bgjh2rcd13ifvqbg0","pricing_plan_id":"cebpf4jnsgd1na2vs0mg"},{"bike_id":"6a98afc1-6dae-40c7-a24c-079a1265e2b9","system_id":"levelo_inurba_marseille","lat":43.2681,"lon":5.40273,"is_reserved":false,"is_disabled":false,"rental_uris":{"android":"levelo://app?vid=6a98afc1-6dae-40c7-a24c-079a1265e2b9","ios":"levelo://app?vid=6a98afc1-6dae-40c7-a24c-079a1265e2b9"},"vehicle_type_id":"4","last_reported":1728843079,"current_range_meters":25600,"station_id":"ce501612rcd8frsf0b60","pricing_plan_id":"cebpf4jnsgd1na2vs0mg"},{"bike_id":"91f6673b-90a8-411d-99db-7565c73ddd0e","system_id":"levelo_inurba_marseille","lat":43.33023,"lon":5.39042,"is_reserved":false,"is_disabled":false,"rental_uris":{"android":"levelo://app?vid=91f6673b-90a8-411d-99db-7565c73ddd0e","ios":"levelo://app?vid=91f6673b-90a8-411d-99db-7565c73ddd0e"},"vehicle_type_id":"4","last_reported":1728843079,"current_range_meters":5600,"station_id":"ce4bhr92rcd13ifvqhrg","pricing_plan_id":"cebpf4jnsgd1na2vs0mg"},{"bike_id":"62b35810-2788-484a-8c4e-b06cc56a6d95","system_id":"levelo_inurba_marseille","lat":43.28455,"lon":5.3589,"is_reserved":false,"is_disabled":false,"rental_uris":{"android":"levelo://app?vid=62b35810-2788-484a-8c4e-b06cc56a6d95","ios":"levelo://app?vid=62b35810-2788-484a-8c4e-b06cc56a6d95"},"vehicle_type_id":"4","last_reported":1728843079,"current_range_meters":5600,"station_id":"ce4bhah2rcd13ifvqei0","pricing_plan_id":"cebpf4jnsgd1na2vs0mg"},{"bike_id":"612c50fb-345b-4fd4-811f-0ec858d96f78","system_id":"levelo_inurba_marseille","lat":43.30543,"lon":5.38429,"is_reserved":false,"is_disabled":false,"rental_uris":{"android":"levelo://app?vid=612c50fb-345b-4fd4-811f-0ec858d96f78","ios":"levelo://app?vid=612c50fb-345b-4fd4-811f-0ec858d96f78"},"vehicle_type_id":"4","last_reported":1728843079,"current_range_meters":8800,"station_id":"ce4bgg92rcd13ifvqb30","pricing_plan_id":"cebpf4jnsgd1na2vs0mg"},{"bike_id":"dc82ed02-331a-41ef-a548-b054919d66d3","system_id":"levelo_inurba_marseille","lat":43.24179,"lon":5.3973,"is_reserved":false,"is_disabled":false,"rental_uris":{"android":"levelo://app?vid=dc82ed02-331a-41ef-a548-b054919d66d3","ios":"levelo://app?vid=dc82ed02-331a-41ef-a548-b054919d66d3"},"vehicle_type_id":"4","last_reported":1728843079,"current_range_meters":2800,"station_id":"ce4bhn12rcd13ifvqgpg","pricing_plan_id":"cebpf4jnsgd1na2vs0mg"},{"bike_id":"6f7399da-6330-407f-b021-d53846382c0f","system_id":"levelo_inurba_marseille","lat":43.25001,"lon":5.38928,"is_reserved":false,"is_disabled":false,"rental_uris":{"android":"levelo://app?vid=6f7399da-6330-407f-b021-d53846382c0f","ios":"levelo://app?vid=6f7399da-6330-407f-b021-d53846382c0f"},"vehicle_type_id":"4","last_reported":1728843079,"current_range_meters":11600,"station_id":"ce4bhgp2rcd13ifvqfd0","pricing_plan_id":"cebpf4jnsgd1na2vs0mg"},{"bike_id":"2ab423a0-58a0-4125-b3de-29c6611f5114","system_id":"levelo_inurba_marseille","lat":43.25086,"lon":5.39531,"is_reserved":false,"is_disabled":false,"rental_uris":{"android":"levelo://app?vid=2ab423a0-58a0-4125-b3de-29c6611f5114","ios":"levelo://app?vid=2ab423a0-58a0-4125-b3de-29c6611f5114"},"vehicle_type_id":"4","last_reported":1728843079,"current_range_meters":38800,"station_id":"ce4bhm12rcd13ifvqgkg","pricing_plan_id":"cebpf4jnsgd1na2vs0mg"},{"bike_id":"060fd15b-6a16-4d7e-93b2-8cab225066db","system_id":"levelo_inurba_marseille","lat":43.30155,"lon":5.38095,"is_reserved":false,"is_disabled":false,"rental_uris":{"android":"levelo://app?vid=060fd15b-6a16-4d7e-93b2-8cab225066db","ios":"levelo://app?vid=060fd15b-6a16-4d7e-93b2-8cab225066db"},"vehicle_type_id":"4","last_reported":1728843079,"current_range_meters":30000,"station_id":"ce4bgjp2rcd13ifvqbh0","pricing_plan_id":"cebpf4jnsgd1na2vs0mg"},{"bike_id":"d7ed9a21-0e85-466b-84e2-bc5a3810ccb9","system_id":"levelo_inurba_marseille","lat":43.28422,"lon":5.37523,"is_reserved":false,"is_disabled":false,"rental_uris":{"android":"levelo://app?vid=d7ed9a21-0e85-466b-84e2-bc5a3810ccb9","ios":"levelo://app?vid=d7ed9a21-0e85-466b-84e2-bc5a3810ccb9"},"vehicle_type_id":"4","last_reported":1728843079,"current_range_meters":8000,"station_id":"ce4bh412rcd13ifvqds0","pricing_plan_id":"cebpf4jnsgd1na2vs0mg"},{"bike_id":"cddca498-4964-45fa-bda7-6c52151cc840","system_id":"levelo_inurba_marseille","lat":43.30536,"lon":5.3655,"is_reserved":false,"is_disabled":false,"rental_uris":{"android":"levelo://app?vid=cddca498-4964-45fa-bda7-6c52151cc840","ios":"levelo://app?vid=cddca498-4964-45fa-bda7-6c52151cc840"},"vehicle_type_id":"4","last_reported":1728843079,"current_range_meters":16000,"station_id":"ce4bgs12rcd13ifvqcag","pricing_plan_id":"cebpf4jnsgd1na2vs0mg"},{"bike_id":"4ab7da99-e2c3-49f1-a9ff-3d266211252a","system_id":"levelo_inurba_marseille","lat":43.295654,"lon":5.393681,"is_reserved":false,"is_disabled":false,"rental_uris":{"android":"levelo://app?vid=4ab7da99-e2c3-49f1-a9ff-3d266211252a","ios":"levelo://app?vid=4ab7da99-e2c3-49f1-a9ff-3d266211252a"},"vehicle_type_id":"4","last_reported":1728843079,"current_range_meters":9600,"station_id":"ce4bh292rcd13ifvqdf0","pricing_plan_id":"cebpf4jnsgd1na2vs0mg"},{"bike_id":"003f266a-763c-4dd6-9f4d-0df5158b7d41","system_id":"levelo_inurba_marseille","lat":43.29969,"lon":5.37181,"is_reserved":false,"is_disabled":false,"rental_uris":{"android":"levelo://app?vid=003f266a-763c-4dd6-9f4d-0df5158b7d41","ios":"levelo://app?vid=003f266a-763c-4dd6-9f4d-0df5158b7d41"},"vehicle_type_id":"4","last_reported":1728843079,"current_range_meters":38800,"station_id":"ce4bgr92rcd13ifvqc7g","pricing_plan_id":"cebpf4jnsgd1na2vs0mg"},{"bike_id":"c5e1c5f0-4d0d-43b4-a5ce-bda7a5679e5e","system_id":"levelo_inurba_marseille","lat":43.3093,"lon":5.40149,"is_reserved":false,"is_disabled":false,"rental_uris":{"android":"levelo://app?vid=c5e1c5f0-4d0d-43b4-a5ce-bda7a5679e5e","ios":"levelo://app?vid=c5e1c5f0-4d0d-43b4-a5ce-bda7a5679e5e"},"vehicle_type_id":"4","last_reported":1728843079,"current_range_meters":18000,"station_id":"ce4bgvp2rcd13ifvqct0","pricing_plan_id":"cebpf4jnsgd1na2vs0mg"},{"bike_id":"7c095d3c-604a-4602-b927-64e3a8b70e01","system_id":"levelo_inurba_marseille","lat":43.29032,"lon":5.37567,"is_reserved":false,"is_disabled":false,"rental_uris":{"android":"levelo://app?vid=7c095d3c-604a-4602-b927-64e3a8b70e01","ios":"levelo://app?vid=7c095d3c-604a-4602-b927-64e3a8b70e01"},"vehicle_type_id":"4","last_reported":1728843079,"current_range_meters":34000,"station_id":"ce4bh692rcd13ifvqe90","pricing_plan_id":"cebpf4jnsgd1na2vs0mg"},{"bike_id":"cdde71fa-933f-47ef-8a23-39142a076aea","system_id":"levelo_inurba_marseille","lat":43.29548,"lon":5.42296,"is_reserved":false,"is_disabled":false,"rental_uris":{"android":"levelo://app?vid=cdde71fa-933f-47ef-8a23-39142a076aea","ios":"levelo://app?vid=cdde71fa-933f-47ef-8a23-39142a076aea"},"vehicle_type_id":"4","last_reported":1728843079,"current_range_meters":38800,"station_id":"ce4bhph2rcd13ifvqhdg","pricing_plan_id":"cebpf4jnsgd1na2vs0mg"},{"bike_id":"1d97b85c-3982-4e16-b39b-81c73dc869d1","system_id":"levelo_inurba_marseille","lat":43.24983,"lon":5.39669,"is_reserved":false,"is_disabled":false,"rental_uris":{"android":"levelo://app?vid=1d97b85c-3982-4e16-b39b-81c73dc869d1","ios":"levelo://app?vid=1d97b85c-3982-4e16-b39b-81c73dc869d1"},"vehicle_type_id":"4","last_reported":1728843079,"current_range_meters":11200,"station_id":"ce4bhkp2rcd13ifvqgd0","pricing_plan_id":"cebpf4jnsgd1na2vs0mg"},{"bike_id":"43789117-8313-43a8-9817-aefe63943609","system_id":"levelo_inurba_marseille","lat":43.29882,"lon":5.37657,"is_reserved":false,"is_disabled":false,"rental_uris":{"android":"levelo://app?vid=43789117-8313-43a8-9817-aefe63943609","ios":"levelo://app?vid=43789117-8313-43a8-9817-aefe63943609"},"vehicle_type_id":"4","last_reported":1728843079,"current_range_meters":27600,"station_id":"","pricing_plan_id":"cebpf4jnsgd1na2vs0mg"},{"bike_id":"7ec3da59-c521-44f4-9825-34e4c989ad4a","system_id":"levelo_inurba_marseille","lat":43.28609,"lon":5.37068,"is_reserved":false,"is_disabled":false,"rental_uris":{"android":"levelo://app?vid=7ec3da59-c521-44f4-9825-34e4c989ad4a","ios":"levelo://app?vid=7ec3da59-c521-44f4-9825-34e4c989ad4a"},"vehicle_type_id":"4","last_reported":1728843079,"current_range_meters":7200,"station_id":"ce4bht12rcd13ifvqi60","pricing_plan_id":"cebpf4jnsgd1na2vs0mg"},{"bike_id":"d3ad1a3d-abaf-4e58-a5f9-ff27d3e15876","system_id":"levelo_inurba_marseille","lat":43.31227,"lon":5.36866,"is_reserved":false,"is_disabled":false,"rental_uris":{"android":"levelo://app?vid=d3ad1a3d-abaf-4e58-a5f9-ff27d3e15876","ios":"levelo://app?vid=d3ad1a3d-abaf-4e58-a5f9-ff27d3e15876"},"vehicle_type_id":"4","last_reported":1728843079,"current_range_meters":5600,"station_id":"ce4bgl92rcd13ifvqbq0","pricing_plan_id":"cebpf4jnsgd1na2vs0mg"},{"bike_id":"eada03b9-e213-4728-8863-52d735295f2e","system_id":"levelo_inurba_marseille","lat":43.24075,"lon":5.37763,"is_reserved":false,"is_disabled":false,"rental_uris":{"android":"levelo://app?vid=eada03b9-e213-4728-8863-52d735295f2e","ios":"levelo://app?vid=eada03b9-e213-4728-8863-52d735295f2e"},"vehicle_type_id":"4","last_reported":1728843079,"current_range_meters":4000,"station_id":"ce4bhnp2rcd13ifvqgvg","pricing_plan_id":"cebpf4jnsgd1na2vs0mg"},{"bike_id":"aad69708-28ac-43e6-945e-619f5a7c6bfd","system_id":"levelo_inurba_marseille","lat":43.33781,"lon":5.37443,"is_reserved":false,"is_disabled":false,"rental_uris":{"android":"levelo://app?vid=aad69708-28ac-43e6-945e-619f5a7c6bfd","ios":"levelo://app?vid=aad69708-28ac-43e6-945e-619f5a7c6bfd"},"vehicle_type_id":"4","last_reported":1728843079,"current_range_meters":32400,"station_id":"","pricing_plan_id":"cebpf4jnsgd1na2vs0mg"},{"bike_id":"1434b983-f7f2-4952-9578-3b4de6cb87c7","system_id":"levelo_inurba_marseille","lat":43.28409,"lon":5.37531,"is_reserved":false,"is_disabled":false,"rental_uris":{"android":"levelo://app?vid=1434b983-f7f2-4952-9578-3b4de6cb87c7","ios":"levelo://app?vid=1434b983-f7f2-4952-9578-3b4de6cb87c7"},"vehicle_type_id":"4","last_reported":1728843079,"current_range_meters":26000,"station_id":"ce4bh412rcd13ifvqds0","pricing_plan_id":"cebpf4jnsgd1na2vs0mg"},{"bike_id":"73442007-e8bd-432c-ba6f-6ca27a1a0b75","system_id":"levelo_inurba_marseille","lat":43.29034,"lon":5.37573,"is_reserved":false,"is_disabled":false,"rental_uris":{"android":"levelo://app?vid=73442007-e8bd-432c-ba6f-6ca27a1a0b75","ios":"levelo://app?vid=73442007-e8bd-432c-ba6f-6ca27a1a0b75"},"vehicle_type_id":"4","last_reported":1728843079,"current_range_meters":12800,"station_id":"ce4bh692rcd13ifvqe90","pricing_plan_id":"cebpf4jnsgd1na2vs0mg"},{"bike_id":"aa89d08a-5963-4b35-9285-53c0ad4f999f","system_id":"levelo_inurba_marseille","lat":43.24858,"lon":5.38154,"is_reserved":false,"is_disabled":false,"rental_uris":{"android":"levelo://app?vid=aa89d08a-5963-4b35-9285-53c0ad4f999f","ios":"levelo://app?vid=aa89d08a-5963-4b35-9285-53c0ad4f999f"},"vehicle_type_id":"4","last_reported":1728843079,"current_range_meters":22800,"station_id":"","pricing_plan_id":"cebpf4jnsgd1na2vs0mg"},{"bike_id":"27311a75-ebb6-43d6-9fb5-f3ba72a10e0e","system_id":"levelo_inurba_marseille","lat":43.299,"lon":5.43657,"is_reserved":false,"is_disabled":false,"rental_uris":{"android":"levelo://app?vid=27311a75-ebb6-43d6-9fb5-f3ba72a10e0e","ios":"levelo://app?vid=27311a75-ebb6-43d6-9fb5-f3ba72a10e0e"},"vehicle_type_id":"4","last_reported":1728843079,"current_range_meters":17200,"station_id":"ce4bhpp2rcd13ifvqhfg","pricing_plan_id":"cebpf4jnsgd1na2vs0mg"},{"bike_id":"7456dac3-d687-43cd-9d8b-e22d909234e7","system_id":"levelo_inurba_marseille","lat":43.32279,"lon":5.41152,"is_reserved":false,"is_disabled":false,"rental_uris":{"android":"levelo://app?vid=7456dac3-d687-43cd-9d8b-e22d909234e7","ios":"levelo://app?vid=7456dac3-d687-43cd-9d8b-e22d909234e7"},"vehicle_type_id":"4","last_reported":1728843079,"current_range_meters":6800,"station_id":"","pricing_plan_id":"cebpf4jnsgd1na2vs0mg"},{"bike_id":"cba59919-95e6-42ff-83c9-6bcf45674d60","system_id":"levelo_inurba_marseille","lat":43.32336,"lon":5.38328,"is_reserved":false,"is_disabled":false,"rental_uris":{"android":"levelo://app?vid=cba59919-95e6-42ff-83c9-6bcf45674d60","ios":"levelo://app?vid=cba59919-95e6-42ff-83c9-6bcf45674d60"},"vehicle_type_id":"4","last_reported":1728843079,"current_range_meters":38800,"station_id":"","pricing_plan_id":"cebpf4jnsgd1na2vs0mg"},{"bike_id":"54aec1fc-f8f8-49b7-aa52-6ef4f1bdaf2a","system_id":"levelo_inurba_marseille","lat":43.24394,"lon":5.37063,"is_reserved":false,"is_disabled":false,"rental_uris":{"android":"levelo://app?vid=54aec1fc-f8f8-49b7-aa52-6ef4f1bdaf2a","ios":"levelo://app?vid=54aec1fc-f8f8-49b7-aa52-6ef4f1bdaf2a"},"vehicle_type_id":"4","last_reported":1728843079,"current_range_meters":20000,"station_id":"ce4bhhh2rcd13ifvqfk0","pricing_plan_id":"cebpf4jnsgd1na2vs0mg"},{"bike_id":"555e5659-0e16-41e4-b7df-62030b03e6ca","system_id":"levelo_inurba_marseille","lat":43.32202,"lon":5.38717,"is_reserved":false,"is_disabled":false,"rental_uris":{"android":"levelo://app?vid=555e5659-0e16-41e4-b7df-62030b03e6ca","ios":"levelo://app?vid=555e5659-0e16-41e4-b7df-62030b03e6ca"},"vehicle_type_id":"4","last_reported":1728843079,"current_range_meters":26000,"station_id":"","pricing_plan_id":"cebpf4jnsgd1na2vs0mg"},{"bike_id":"cbe3e117-6919-4ffd-b6b7-9d9e66eb277a","system_id":"levelo_inurba_marseille","lat":43.24549,"lon":5.39522,"is_reserved":false,"is_disabled":false,"rental_uris":{"android":"levelo://app?vid=cbe3e117-6919-4ffd-b6b7-9d9e66eb277a","ios":"levelo://app?vid=cbe3e117-6919-4ffd-b6b7-9d9e66eb277a"},"vehicle_type_id":"4","last_reported":1728843079,"current_range_meters":38800,"station_id":"ce4bhlp2rcd13ifvqgjg","pricing_plan_id":"cebpf4jnsgd1na2vs0mg"},{"bike_id":"93b27a53-ca87-42cc-a558-985f0164192b","system_id":"levelo_inurba_marseille","lat":43.29656,"lon":5.40009,"is_reserved":false,"is_disabled":false,"rental_uris":{"android":"levelo://app?vid=93b27a53-ca87-42cc-a558-985f0164192b","ios":"levelo://app?vid=93b27a53-ca87-42cc-a558-985f0164192b"},"vehicle_type_id":"4","last_reported":1728843079,"current_range_meters":8400,"station_id":"","pricing_plan_id":"cebpf4jnsgd1na2vs0mg"},{"bike_id":"f38d0416-45e4-4b72-b8ba-e99de53a981a","system_id":"levelo_inurba_marseille","lat":43.27938,"lon":5.41047,"is_reserved":false,"is_disabled":false,"rental_uris":{"android":"levelo://app?vid=f38d0416-45e4-4b72-b8ba-e99de53a981a","ios":"levelo://app?vid=f38d0416-45e4-4b72-b8ba-e99de53a981a"},"vehicle_type_id":"4","last_reported":1728843079,"current_range_meters":8400,"station_id":"ce4bhnp2rcd13ifvqh0g","pricing_plan_id":"cebpf4jnsgd1na2vs0mg"},{"bike_id":"4b0cebe3-fe0d-448d-8fdf-f05d3e917e8e","system_id":"levelo_inurba_marseille","lat":43.31113,"lon":5.37764,"is_reserved":false,"is_disabled":false,"rental_uris":{"android":"levelo://app?vid=4b0cebe3-fe0d-448d-8fdf-f05d3e917e8e","ios":"levelo://app?vid=4b0cebe3-fe0d-448d-8fdf-f05d3e917e8e"},"vehicle_type_id":"4","last_reported":1728843079,"current_range_meters":18800,"station_id":"ce4bgt92rcd13ifvqcg0","pricing_plan_id":"cebpf4jnsgd1na2vs0mg"},{"bike_id":"76751032-0e19-4dbe-b869-55e11dad3f8e","system_id":"levelo_inurba_marseille","lat":43.2808,"lon":5.39665,"is_reserved":false,"is_disabled":false,"rental_uris":{"android":"levelo://app?vid=76751032-0e19-4dbe-b869-55e11dad3f8e","ios":"levelo://app?vid=76751032-0e19-4dbe-b869-55e11dad3f8e"},"vehicle_type_id":"4","last_reported":1728843079,"current_range_meters":12000,"station_id":"ce4bho12rcd13ifvqh2g","pricing_plan_id":"cebpf4jnsgd1na2vs0mg"},{"bike_id":"adf7f252-dbc1-459a-8043-ad1f1eca0157","system_id":"levelo_inurba_marseille","lat":43.33722,"lon":5.39184,"is_reserved":false,"is_disabled":false,"rental_uris":{"android":"levelo://app?vid=adf7f252-dbc1-459a-8043-ad1f1eca0157","ios":"levelo://app?vid=adf7f252-dbc1-459a-8043-ad1f1eca0157"},"vehicle_type_id":"4","last_reported":1728843079,"current_range_meters":32800,"station_id":"ce4bhr92rcd13ifvqhsg","pricing_plan_id":"cebpf4jnsgd1na2vs0mg"},{"bike_id":"4e5d82fd-fa2d-412b-96cf-8af5e9fe41ca","system_id":"levelo_inurba_marseille","lat":43.29773,"lon":5.37115,"is_reserved":false,"is_disabled":false,"rental_uris":{"android":"levelo://app?vid=4e5d82fd-fa2d-412b-96cf-8af5e9fe41ca","ios":"levelo://app?vid=4e5d82fd-fa2d-412b-96cf-8af5e9fe41ca"},"vehicle_type_id":"4","last_reported":1728843079,"current_range_meters":38800,"station_id":"ce4bgop2rcd13ifvqc1g","pricing_plan_id":"cebpf4jnsgd1na2vs0mg"},{"bike_id":"6c7c615c-2d26-4047-8380-ca99e9efd048","system_id":"levelo_inurba_marseille","lat":43.26228,"lon":5.37988,"is_reserved":false,"is_disabled":false,"rental_uris":{"android":"levelo://app?vid=6c7c615c-2d26-4047-8380-ca99e9efd048","ios":"levelo://app?vid=6c7c615c-2d26-4047-8380-ca99e9efd048"},"vehicle_type_id":"4","last_reported":1728843079,"current_range_meters":38800,"station_id":"ce4bhjp2rcd13ifvqg90","pricing_plan_id":"cebpf4jnsgd1na2vs0mg"},{"bike_id":"40901a86-2974-4c75-aae3-ce8eff8cc156","system_id":"levelo_inurba_marseille","lat":43.28606,"lon":5.37066,"is_reserved":false,"is_disabled":false,"rental_uris":{"android":"levelo://app?vid=40901a86-2974-4c75-aae3-ce8eff8cc156","ios":"levelo://app?vid=40901a86-2974-4c75-aae3-ce8eff8cc156"},"vehicle_type_id":"4","last_reported":1728843079,"current_range_meters":17200,"station_id":"ce4bht12rcd13ifvqi60","pricing_plan_id":"cebpf4jnsgd1na2vs0mg"},{"bike_id":"4ab54c14-fdf3-472a-8ae8-4d48d3970dd3","system_id":"levelo_inurba_marseille","lat":43.30213,"lon":5.39492,"is_reserved":false,"is_disabled":false,"rental_uris":{"android":"levelo://app?vid=4ab54c14-fdf3-472a-8ae8-4d48d3970dd3","ios":"levelo://app?vid=4ab54c14-fdf3-472a-8ae8-4d48d3970dd3"},"vehicle_type_id":"4","last_reported":1728843079,"current_range_meters":38800,"station_id":"ce4bh0p2rcd13ifvqd70","pricing_plan_id":"cebpf4jnsgd1na2vs0mg"},{"bike_id":"3daa78f9-0489-402c-8c96-8ef40ec5c302","system_id":"levelo_inurba_marseille","lat":43.24804,"lon":5.37466,"is_reserved":false,"is_disabled":false,"rental_uris":{"android":"levelo://app?vid=3daa78f9-0489-402c-8c96-8ef40ec5c302","ios":"levelo://app?vid=3daa78f9-0489-402c-8c96-8ef40ec5c302"},"vehicle_type_id":"4","last_reported":1728843079,"current_range_meters":3200,"station_id":"ce4bhgh2rcd13ifvqfb0","pricing_plan_id":"cebpf4jnsgd1na2vs0mg"},{"bike_id":"0fe37e89-fefc-4545-8187-5b1fdd7e5f70","system_id":"levelo_inurba_marseille","lat":43.32198,"lon":5.38717,"is_reserved":false,"is_disabled":false,"rental_uris":{"android":"levelo://app?vid=0fe37e89-fefc-4545-8187-5b1fdd7e5f70","ios":"levelo://app?vid=0fe37e89-fefc-4545-8187-5b1fdd7e5f70"},"vehicle_type_id":"4","last_reported":1728843079,"current_range_meters":7200,"station_id":"ce4bhqp2rcd13ifvqhog","pricing_plan_id":"cebpf4jnsgd1na2vs0mg"},{"bike_id":"9d960984-c801-496e-bb50-c485ac295345","system_id":"levelo_inurba_marseille","lat":43.30356,"lon":5.41888,"is_reserved":false,"is_disabled":false,"rental_uris":{"android":"levelo://app?vid=9d960984-c801-496e-bb50-c485ac295345","ios":"levelo://app?vid=9d960984-c801-496e-bb50-c485ac295345"},"vehicle_type_id":"4","last_reported":1728843079,"current_range_meters":25600,"station_id":"ce4bhop2rcd13ifvqh7g","pricing_plan_id":"cebpf4jnsgd1na2vs0mg"},{"bike_id":"2aa5a2a6-9654-4b0a-ac75-9e3c16c0c596","system_id":"levelo_inurba_marseille","lat":43.28104,"lon":5.37844,"is_reserved":false,"is_disabled":false,"rental_uris":{"android":"levelo://app?vid=2aa5a2a6-9654-4b0a-ac75-9e3c16c0c596","ios":"levelo://app?vid=2aa5a2a6-9654-4b0a-ac75-9e3c16c0c596"},"vehicle_type_id":"4","last_reported":1728843079,"current_range_meters":38800,"station_id":"ce4bha12rcd13ifvqee0","pricing_plan_id":"cebpf4jnsgd1na2vs0mg"},{"bike_id":"2f19d9b2-60a0-45bf-bf48-04c9ce231242","system_id":"levelo_inurba_marseille","lat":43.2557,"lon":5.38256,"is_reserved":false,"is_disabled":false,"rental_uris":{"android":"levelo://app?vid=2f19d9b2-60a0-45bf-bf48-04c9ce231242","ios":"levelo://app?vid=2f19d9b2-60a0-45bf-bf48-04c9ce231242"},"vehicle_type_id":"4","last_reported":1728843079,"current_range_meters":7200,"station_id":"ce4bhih2rcd13ifvqfs0","pricing_plan_id":"cebpf4jnsgd1na2vs0mg"},{"bike_id":"b171c94d-fd4b-405d-afee-353d675583b5","system_id":"levelo_inurba_marseille","lat":43.30138,"lon":5.38789,"is_reserved":false,"is_disabled":false,"rental_uris":{"android":"levelo://app?vid=b171c94d-fd4b-405d-afee-353d675583b5","ios":"levelo://app?vid=b171c94d-fd4b-405d-afee-353d675583b5"},"vehicle_type_id":"4","last_reported":1728843079,"current_range_meters":22000,"station_id":"ce4bghh2rcd13ifvqb60","pricing_plan_id":"cebpf4jnsgd1na2vs0mg"},{"bike_id":"f2f17562-1cbe-4378-a840-c8033eaee6d1","system_id":"levelo_inurba_marseille","lat":43.29077,"lon":5.37172,"is_reserved":false,"is_disabled":false,"rental_uris":{"android":"levelo://app?vid=f2f17562-1cbe-4378-a840-c8033eaee6d1","ios":"levelo://app?vid=f2f17562-1cbe-4378-a840-c8033eaee6d1"},"vehicle_type_id":"4","last_reported":1728843079,"current_range_meters":38800,"station_id":"ce4bh5p2rcd13ifvqe4g","pricing_plan_id":"cebpf4jnsgd1na2vs0mg"},{"bike_id":"5d9ebc79-7b92-41b1-8900-06b541e42f48","system_id":"levelo_inurba_marseille","lat":43.29359,"lon":5.37845,"is_reserved":false,"is_disabled":false,"rental_uris":{"android":"levelo://app?vid=5d9ebc79-7b92-41b1-8900-06b541e42f48","ios":"levelo://app?vid=5d9ebc79-7b92-41b1-8900-06b541e42f48"},"vehicle_type_id":"4","last_reported":1728843079,"current_range_meters":1200,"station_id":"ce4bgjh2rcd13ifvqbf0","pricing_plan_id":"cebpf4jnsgd1na2vs0mg"},{"bike_id":"99222104-04be-4636-8222-4586012a9f49","system_id":"levelo_inurba_marseille","lat":43.33722,"lon":5.39192,"is_reserved":false,"is_disabled":false,"rental_uris":{"android":"levelo://app?vid=99222104-04be-4636-8222-4586012a9f49","ios":"levelo://app?vid=99222104-04be-4636-8222-4586012a9f49"},"vehicle_type_id":"4","last_reported":1728843079,"current_range_meters":8800,"station_id":"ce4bhr92rcd13ifvqhsg","pricing_plan_id":"cebpf4jnsgd1na2vs0mg"},{"bike_id":"44c46e03-8f63-4b92-ad44-62eaeabf3dab","system_id":"levelo_inurba_marseille","lat":43.28946,"lon":5.36643,"is_reserved":false,"is_disabled":false,"rental_uris":{"android":"levelo://app?vid=44c46e03-8f63-4b92-ad44-62eaeabf3dab","ios":"levelo://app?vid=44c46e03-8f63-4b92-ad44-62eaeabf3dab"},"vehicle_type_id":"4","last_reported":1728843079,"current_range_meters":6000,"station_id":"ce4bhap2rcd13ifvqek0","pricing_plan_id":"cebpf4jnsgd1na2vs0mg"},{"bike_id":"9817715c-5c44-4f6b-a16d-7800214c7c56","system_id":"levelo_inurba_marseille","lat":43.28935,"lon":5.36401,"is_reserved":false,"is_disabled":false,"rental_uris":{"android":"levelo://app?vid=9817715c-5c44-4f6b-a16d-7800214c7c56","ios":"levelo://app?vid=9817715c-5c44-4f6b-a16d-7800214c7c56"},"vehicle_type_id":"4","last_reported":1728843079,"current_range_meters":2800,"station_id":"ce4bhc92rcd13ifvqetg","pricing_plan_id":"cebpf4jnsgd1na2vs0mg"},{"bike_id":"600a6ea5-5c70-4f25-9b57-c621b8210681","system_id":"levelo_inurba_marseille","lat":43.32658,"lon":5.40993,"is_reserved":false,"is_disabled":false,"rental_uris":{"android":"levelo://app?vid=600a6ea5-5c70-4f25-9b57-c621b8210681","ios":"levelo://app?vid=600a6ea5-5c70-4f25-9b57-c621b8210681"},"vehicle_type_id":"4","last_reported":1728843079,"current_range_meters":27600,"station_id":"ce4bhpp2rcd13ifvqhgg","pricing_plan_id":"cebpf4jnsgd1na2vs0mg"},{"bike_id":"d9176fa4-cbed-4c81-bb91-58c6a2a85fde","system_id":"levelo_inurba_marseille","lat":43.30936,"lon":5.40144,"is_reserved":false,"is_disabled":false,"rental_uris":{"android":"levelo://app?vid=d9176fa4-cbed-4c81-bb91-58c6a2a85fde","ios":"levelo://app?vid=d9176fa4-cbed-4c81-bb91-58c6a2a85fde"},"vehicle_type_id":"4","last_reported":1728843079,"current_range_meters":7200,"station_id":"ce4bgvp2rcd13ifvqct0","pricing_plan_id":"cebpf4jnsgd1na2vs0mg"},{"bike_id":"405ca5ed-3ac8-4551-8fb9-796773788356","system_id":"levelo_inurba_marseille","lat":43.29871,"lon":5.39736,"is_reserved":false,"is_disabled":false,"rental_uris":{"android":"levelo://app?vid=405ca5ed-3ac8-4551-8fb9-796773788356","ios":"levelo://app?vid=405ca5ed-3ac8-4551-8fb9-796773788356"},"vehicle_type_id":"4","last_reported":1728843079,"current_range_meters":37600,"station_id":"ce4bh0h2rcd13ifvqd50","pricing_plan_id":"cebpf4jnsgd1na2vs0mg"},{"bike_id":"3c25dded-f8d5-4193-a336-9fad641c4aac","system_id":"levelo_inurba_marseille","lat":43.33752,"lon":5.3748,"is_reserved":false,"is_disabled":false,"rental_uris":{"android":"levelo://app?vid=3c25dded-f8d5-4193-a336-9fad641c4aac","ios":"levelo://app?vid=3c25dded-f8d5-4193-a336-9fad641c4aac"},"vehicle_type_id":"4","last_reported":1728843079,"current_range_meters":28800,"station_id":"","pricing_plan_id":"cebpf4jnsgd1na2vs0mg"},{"bike_id":"45cd1169-4d94-45cf-b093-b6ee879f3275","system_id":"levelo_inurba_marseille","lat":43.28667,"lon":5.36361,"is_reserved":false,"is_disabled":false,"rental_uris":{"android":"levelo://app?vid=45cd1169-4d94-45cf-b093-b6ee879f3275","ios":"levelo://app?vid=45cd1169-4d94-45cf-b093-b6ee879f3275"},"vehicle_type_id":"4","last_reported":1728843079,"current_range_meters":34000,"station_id":"ce4bhah2rcd13ifvqej0","pricing_plan_id":"cebpf4jnsgd1na2vs0mg"},{"bike_id":"9abf3b7c-e4eb-4ce5-b2ca-c3448534c2ba","system_id":"levelo_inurba_marseille","lat":43.27561,"lon":5.384335,"is_reserved":false,"is_disabled":false,"rental_uris":{"android":"levelo://app?vid=9abf3b7c-e4eb-4ce5-b2ca-c3448534c2ba","ios":"levelo://app?vid=9abf3b7c-e4eb-4ce5-b2ca-c3448534c2ba"},"vehicle_type_id":"4","last_reported":1728843079,"current_range_meters":18800,"station_id":"ce4bhh92rcd13ifvqfi0","pricing_plan_id":"cebpf4jnsgd1na2vs0mg"},{"bike_id":"15c9a6c6-1acf-489f-87cc-327eea868f59","system_id":"levelo_inurba_marseille","lat":43.27986,"lon":5.41658,"is_reserved":false,"is_disabled":false,"rental_uris":{"android":"levelo://app?vid=15c9a6c6-1acf-489f-87cc-327eea868f59","ios":"levelo://app?vid=15c9a6c6-1acf-489f-87cc-327eea868f59"},"vehicle_type_id":"4","last_reported":1728843079,"current_range_meters":24800,"station_id":"ce4bho12rcd13ifvqh1g","pricing_plan_id":"cebpf4jnsgd1na2vs0mg"},{"bike_id":"8e97bcbf-2214-41dd-9ed0-bd715f74f2c3","system_id":"levelo_inurba_marseille","lat":43.32661,"lon":5.40994,"is_reserved":false,"is_disabled":false,"rental_uris":{"android":"levelo://app?vid=8e97bcbf-2214-41dd-9ed0-bd715f74f2c3","ios":"levelo://app?vid=8e97bcbf-2214-41dd-9ed0-bd715f74f2c3"},"vehicle_type_id":"4","last_reported":1728843079,"current_range_meters":5600,"station_id":"ce4bhpp2rcd13ifvqhgg","pricing_plan_id":"cebpf4jnsgd1na2vs0mg"},{"bike_id":"8ce73dd8-1ada-43d3-a357-e7d88cdeeccc","system_id":"levelo_inurba_marseille","lat":43.28396,"lon":5.37525,"is_reserved":false,"is_disabled":false,"rental_uris":{"android":"levelo://app?vid=8ce73dd8-1ada-43d3-a357-e7d88cdeeccc","ios":"levelo://app?vid=8ce73dd8-1ada-43d3-a357-e7d88cdeeccc"},"vehicle_type_id":"4","last_reported":1728843079,"current_range_meters":30400,"station_id":"ce4bh412rcd13ifvqds0","pricing_plan_id":"cebpf4jnsgd1na2vs0mg"},{"bike_id":"ffa83433-fa2b-43f5-ab5e-0705384f2915","system_id":"levelo_inurba_marseille","lat":43.31111,"lon":5.37781,"is_reserved":false,"is_disabled":false,"rental_uris":{"android":"levelo://app?vid=ffa83433-fa2b-43f5-ab5e-0705384f2915","ios":"levelo://app?vid=ffa83433-fa2b-43f5-ab5e-0705384f2915"},"vehicle_type_id":"4","last_reported":1728843079,"current_range_meters":36400,"station_id":"ce4bgt92rcd13ifvqcg0","pricing_plan_id":"cebpf4jnsgd1na2vs0mg"},{"bike_id":"cea40d18-cd05-4652-838f-0acccc603707","system_id":"levelo_inurba_marseille","lat":43.32485,"lon":5.3657,"is_reserved":false,"is_disabled":false,"rental_uris":{"android":"levelo://app?vid=cea40d18-cd05-4652-838f-0acccc603707","ios":"levelo://app?vid=cea40d18-cd05-4652-838f-0acccc603707"},"vehicle_type_id":"4","last_reported":1728843079,"current_range_meters":8000,"station_id":"ce4bhs12rcd13ifvqhvg","pricing_plan_id":"cebpf4jnsgd1na2vs0mg"},{"bike_id":"91ffcb9f-5efd-4304-9875-69f60a412b95","system_id":"levelo_inurba_marseille","lat":43.28929,"lon":5.38411,"is_reserved":false,"is_disabled":false,"rental_uris":{"android":"levelo://app?vid=91ffcb9f-5efd-4304-9875-69f60a412b95","ios":"levelo://app?vid=91ffcb9f-5efd-4304-9875-69f60a412b95"},"vehicle_type_id":"4","last_reported":1728843079,"current_range_meters":36400,"station_id":"ce4bh612rcd13ifvqe6g","pricing_plan_id":"cebpf4jnsgd1na2vs0mg"},{"bike_id":"8fc54e32-2dad-4cfe-867b-a52e651d7f0f","system_id":"levelo_inurba_marseille","lat":43.25558,"lon":5.40385,"is_reserved":false,"is_disabled":false,"rental_uris":{"android":"levelo://app?vid=8fc54e32-2dad-4cfe-867b-a52e651d7f0f","ios":"levelo://app?vid=8fc54e32-2dad-4cfe-867b-a52e651d7f0f"},"vehicle_type_id":"4","last_reported":1728843079,"current_range_meters":12800,"station_id":"","pricing_plan_id":"cebpf4jnsgd1na2vs0mg"},{"bike_id":"97a76438-0698-4d2c-93f6-7df77211e218","system_id":"levelo_inurba_marseille","lat":43.311188,"lon":5.377673,"is_reserved":false,"is_disabled":false,"rental_uris":{"android":"levelo://app?vid=97a76438-0698-4d2c-93f6-7df77211e218","ios":"levelo://app?vid=97a76438-0698-4d2c-93f6-7df77211e218"},"vehicle_type_id":"4","last_reported":1728843079,"current_range_meters":12800,"station_id":"ce4bgl92rcd13ifvqbq0","pricing_plan_id":"cebpf4jnsgd1na2vs0mg"},{"bike_id":"5b7c7875-1d91-4ce1-8c6a-18c2464c67f1","system_id":"levelo_inurba_marseille","lat":43.32434,"lon":5.3684,"is_reserved":false,"is_disabled":false,"rental_uris":{"android":"levelo://app?vid=5b7c7875-1d91-4ce1-8c6a-18c2464c67f1","ios":"levelo://app?vid=5b7c7875-1d91-4ce1-8c6a-18c2464c67f1"},"vehicle_type_id":"4","last_reported":1728843079,"current_range_meters":9200,"station_id":"","pricing_plan_id":"cebpf4jnsgd1na2vs0mg"},{"bike_id":"6db1e658-9df0-42cd-9422-10df00fb3e26","system_id":"levelo_inurba_marseille","lat":43.28995,"lon":5.35616,"is_reserved":false,"is_disabled":false,"rental_uris":{"android":"levelo://app?vid=6db1e658-9df0-42cd-9422-10df00fb3e26","ios":"levelo://app?vid=6db1e658-9df0-42cd-9422-10df00fb3e26"},"vehicle_type_id":"4","last_reported":1728843079,"current_range_meters":38800,"station_id":"ce4bhb92rcd13ifvqen0","pricing_plan_id":"cebpf4jnsgd1na2vs0mg"},{"bike_id":"a2525a04-0f40-4e59-a3ac-711fb3ed6d5f","system_id":"levelo_inurba_marseille","lat":43.302612,"lon":5.400706,"is_reserved":false,"is_disabled":false,"rental_uris":{"android":"levelo://app?vid=a2525a04-0f40-4e59-a3ac-711fb3ed6d5f","ios":"levelo://app?vid=a2525a04-0f40-4e59-a3ac-711fb3ed6d5f"},"vehicle_type_id":"4","last_reported":1728843079,"current_range_meters":9200,"station_id":"ce4bgvh2rcd13ifvqcs0","pricing_plan_id":"cebpf4jnsgd1na2vs0mg"},{"bike_id":"f0cda665-c0ef-416d-98a4-141f03f17ff2","system_id":"levelo_inurba_marseille","lat":43.297663,"lon":5.381032,"is_reserved":false,"is_disabled":false,"rental_uris":{"android":"levelo://app?vid=f0cda665-c0ef-416d-98a4-141f03f17ff2","ios":"levelo://app?vid=f0cda665-c0ef-416d-98a4-141f03f17ff2"},"vehicle_type_id":"4","last_reported":1728843079,"current_range_meters":36000,"station_id":"ce4bgip2rcd13ifvqbb0","pricing_plan_id":"cebpf4jnsgd1na2vs0mg"},{"bike_id":"d9b3ea75-f194-417e-aade-8514de2914a1","system_id":"levelo_inurba_marseille","lat":43.297288,"lon":5.376942,"is_reserved":false,"is_disabled":false,"rental_uris":{"android":"levelo://app?vid=d9b3ea75-f194-417e-aade-8514de2914a1","ios":"levelo://app?vid=d9b3ea75-f194-417e-aade-8514de2914a1"},"vehicle_type_id":"4","last_reported":1728843079,"current_range_meters":28000,"station_id":"ce4bho92rcd13ifvqh4g","pricing_plan_id":"cebpf4jnsgd1na2vs0mg"},{"bike_id":"03974326-dd13-4549-8405-0952f9b77c51","system_id":"levelo_inurba_marseille","lat":43.28711,"lon":5.37386,"is_reserved":false,"is_disabled":false,"rental_uris":{"android":"levelo://app?vid=03974326-dd13-4549-8405-0952f9b77c51","ios":"levelo://app?vid=03974326-dd13-4549-8405-0952f9b77c51"},"vehicle_type_id":"4","last_reported":1728843079,"current_range_meters":26000,"station_id":"ce4bh3p2rcd13ifvqdq0","pricing_plan_id":"cebpf4jnsgd1na2vs0mg"},{"bike_id":"f8825369-64dc-4cb5-9cd3-f5104433a680","system_id":"levelo_inurba_marseille","lat":43.28358,"lon":5.38104,"is_reserved":false,"is_disabled":false,"rental_uris":{"android":"levelo://app?vid=f8825369-64dc-4cb5-9cd3-f5104433a680","ios":"levelo://app?vid=f8825369-64dc-4cb5-9cd3-f5104433a680"},"vehicle_type_id":"4","last_reported":1728843079,"current_range_meters":38800,"station_id":"ce4bh412rcd13ifvqdr0","pricing_plan_id":"cebpf4jnsgd1na2vs0mg"},{"bike_id":"2c1638ab-846b-47a4-adb9-6de8d415c0ac","system_id":"levelo_inurba_marseille","lat":43.30597,"lon":5.37233,"is_reserved":false,"is_disabled":false,"rental_uris":{"android":"levelo://app?vid=2c1638ab-846b-47a4-adb9-6de8d415c0ac","ios":"levelo://app?vid=2c1638ab-846b-47a4-adb9-6de8d415c0ac"},"vehicle_type_id":"4","last_reported":1728843079,"current_range_meters":20000,"station_id":"ce4bgqh2rcd13ifvqc4g","pricing_plan_id":"cebpf4jnsgd1na2vs0mg"},{"bike_id":"363e26c2-986c-4ed2-bc45-e6467c45a680","system_id":"levelo_inurba_marseille","lat":43.29606,"lon":5.38112,"is_reserved":false,"is_disabled":false,"rental_uris":{"android":"levelo://app?vid=363e26c2-986c-4ed2-bc45-e6467c45a680","ios":"levelo://app?vid=363e26c2-986c-4ed2-bc45-e6467c45a680"},"vehicle_type_id":"4","last_reported":1728843079,"current_range_meters":28000,"station_id":"ce4bgl12rcd13ifvqbo0","pricing_plan_id":"cebpf4jnsgd1na2vs0mg"},{"bike_id":"7d99b0e4-c7bb-456e-bd6c-29a2c5d65313","system_id":"levelo_inurba_marseille","lat":43.2511,"lon":5.40326,"is_reserved":false,"is_disabled":false,"rental_uris":{"android":"levelo://app?vid=7d99b0e4-c7bb-456e-bd6c-29a2c5d65313","ios":"levelo://app?vid=7d99b0e4-c7bb-456e-bd6c-29a2c5d65313"},"vehicle_type_id":"4","last_reported":1728843079,"current_range_meters":38000,"station_id":"ce4bhlh2rcd13ifvqgig","pricing_plan_id":"cebpf4jnsgd1na2vs0mg"},{"bike_id":"4acc3e75-71fe-444c-ae7e-05008ebbea31","system_id":"levelo_inurba_marseille","lat":43.298096,"lon":5.381,"is_reserved":false,"is_disabled":false,"rental_uris":{"android":"levelo://app?vid=4acc3e75-71fe-444c-ae7e-05008ebbea31","ios":"levelo://app?vid=4acc3e75-71fe-444c-ae7e-05008ebbea31"},"vehicle_type_id":"4","last_reported":1728843079,"current_range_meters":32800,"station_id":"ce4bgip2rcd13ifvqbb0","pricing_plan_id":"cebpf4jnsgd1na2vs0mg"},{"bike_id":"cd04be1d-1b2c-4fb4-8c36-ce26a8bc1a4a","system_id":"levelo_inurba_marseille","lat":43.3136,"lon":5.38492,"is_reserved":false,"is_disabled":false,"rental_uris":{"android":"levelo://app?vid=cd04be1d-1b2c-4fb4-8c36-ce26a8bc1a4a","ios":"levelo://app?vid=cd04be1d-1b2c-4fb4-8c36-ce26a8bc1a4a"},"vehicle_type_id":"4","last_reported":1728843079,"current_range_meters":4400,"station_id":"ce4bgt92rcd13ifvqcf0","pricing_plan_id":"cebpf4jnsgd1na2vs0mg"},{"bike_id":"825051f4-47fa-4517-90d4-9853afc850f1","system_id":"levelo_inurba_marseille","lat":43.24662,"lon":5.38167,"is_reserved":false,"is_disabled":false,"rental_uris":{"android":"levelo://app?vid=825051f4-47fa-4517-90d4-9853afc850f1","ios":"levelo://app?vid=825051f4-47fa-4517-90d4-9853afc850f1"},"vehicle_type_id":"4","last_reported":1728843079,"current_range_meters":8800,"station_id":"ce4bhih2rcd13ifvqfr0","pricing_plan_id":"cebpf4jnsgd1na2vs0mg"},{"bike_id":"cb02dacf-747a-4ffe-9de3-56c49271d6f5","system_id":"levelo_inurba_marseille","lat":43.25719,"lon":5.41114,"is_reserved":false,"is_disabled":false,"rental_uris":{"android":"levelo://app?vid=cb02dacf-747a-4ffe-9de3-56c49271d6f5","ios":"levelo://app?vid=cb02dacf-747a-4ffe-9de3-56c49271d6f5"},"vehicle_type_id":"4","last_reported":1728843079,"current_range_meters":1600,"station_id":"ce4bhkp2rcd13ifvqgd0","pricing_plan_id":"cebpf4jnsgd1na2vs0mg"},{"bike_id":"f50d3f28-d11c-400c-8c8b-0342660b764f","system_id":"levelo_inurba_marseille","lat":43.33609,"lon":5.4103,"is_reserved":false,"is_disabled":false,"rental_uris":{"android":"levelo://app?vid=f50d3f28-d11c-400c-8c8b-0342660b764f","ios":"levelo://app?vid=f50d3f28-d11c-400c-8c8b-0342660b764f"},"vehicle_type_id":"4","last_reported":1728843079,"current_range_meters":33200,"station_id":"ce4bhqh2rcd13ifvqhmg","pricing_plan_id":"cebpf4jnsgd1na2vs0mg"},{"bike_id":"838796b7-1527-49b3-b8bb-02aeae9c8aed","system_id":"levelo_inurba_marseille","lat":43.287742,"lon":5.361407,"is_reserved":false,"is_disabled":false,"rental_uris":{"android":"levelo://app?vid=838796b7-1527-49b3-b8bb-02aeae9c8aed","ios":"levelo://app?vid=838796b7-1527-49b3-b8bb-02aeae9c8aed"},"vehicle_type_id":"4","last_reported":1728843079,"current_range_meters":8800,"station_id":"cki0cbj6b192h4jlfktg","pricing_plan_id":"cebpf4jnsgd1na2vs0mg"},{"bike_id":"f1af36da-def5-43e1-b70b-9f7f875a40ee","system_id":"levelo_inurba_marseille","lat":43.27071,"lon":5.42279,"is_reserved":false,"is_disabled":false,"rental_uris":{"android":"levelo://app?vid=f1af36da-def5-43e1-b70b-9f7f875a40ee","ios":"levelo://app?vid=f1af36da-def5-43e1-b70b-9f7f875a40ee"},"vehicle_type_id":"4","last_reported":1728843079,"current_range_meters":22400,"station_id":"ce4bhk92rcd13ifvqgb0","pricing_plan_id":"cebpf4jnsgd1na2vs0mg"},{"bike_id":"9163d1d8-d8a8-4f4e-948e-1bc6f6dacfaf","system_id":"levelo_inurba_marseille","lat":43.27812,"lon":5.40716,"is_reserved":false,"is_disabled":false,"rental_uris":{"android":"levelo://app?vid=9163d1d8-d8a8-4f4e-948e-1bc6f6dacfaf","ios":"levelo://app?vid=9163d1d8-d8a8-4f4e-948e-1bc6f6dacfaf"},"vehicle_type_id":"4","last_reported":1728843079,"current_range_meters":8400,"station_id":"ce4bhnh2rcd13ifvqgtg","pricing_plan_id":"cebpf4jnsgd1na2vs0mg"},{"bike_id":"9b3d51ed-c9d6-4405-8c25-5860c10ad560","system_id":"levelo_inurba_marseille","lat":43.2583,"lon":5.39438,"is_reserved":false,"is_disabled":false,"rental_uris":{"android":"levelo://app?vid=9b3d51ed-c9d6-4405-8c25-5860c10ad560","ios":"levelo://app?vid=9b3d51ed-c9d6-4405-8c25-5860c10ad560"},"vehicle_type_id":"4","last_reported":1728843079,"current_range_meters":17600,"station_id":"ce4bhip2rcd13ifvqft0","pricing_plan_id":"cebpf4jnsgd1na2vs0mg"},{"bike_id":"05678134-95f9-4faa-baae-d3bac8f6b820","system_id":"levelo_inurba_marseille","lat":43.29551,"lon":5.42283,"is_reserved":false,"is_disabled":false,"rental_uris":{"android":"levelo://app?vid=05678134-95f9-4faa-baae-d3bac8f6b820","ios":"levelo://app?vid=05678134-95f9-4faa-baae-d3bac8f6b820"},"vehicle_type_id":"4","last_reported":1728843079,"current_range_meters":33200,"station_id":"ce4bhph2rcd13ifvqhdg","pricing_plan_id":"cebpf4jnsgd1na2vs0mg"},{"bike_id":"7f98adaa-cd11-4770-9bbd-b36409e5b2eb","system_id":"levelo_inurba_marseille","lat":43.30795,"lon":5.43524,"is_reserved":false,"is_disabled":false,"rental_uris":{"android":"levelo://app?vid=7f98adaa-cd11-4770-9bbd-b36409e5b2eb","ios":"levelo://app?vid=7f98adaa-cd11-4770-9bbd-b36409e5b2eb"},"vehicle_type_id":"4","last_reported":1728843079,"current_range_meters":24400,"station_id":"ce4bhph2rcd13ifvqheg","pricing_plan_id":"cebpf4jnsgd1na2vs0mg"},{"bike_id":"1244b053-a7ed-439b-b933-61c526e7d605","system_id":"levelo_inurba_marseille","lat":43.2791,"lon":5.38019,"is_reserved":false,"is_disabled":false,"rental_uris":{"android":"levelo://app?vid=1244b053-a7ed-439b-b933-61c526e7d605","ios":"levelo://app?vid=1244b053-a7ed-439b-b933-61c526e7d605"},"vehicle_type_id":"4","last_reported":1728843079,"current_range_meters":18800,"station_id":"ce4bhf92rcd13ifvqf50","pricing_plan_id":"cebpf4jnsgd1na2vs0mg"},{"bike_id":"54d8198c-2280-42d1-a02d-dafc7e5a2616","system_id":"levelo_inurba_marseille","lat":43.29827,"lon":5.41996,"is_reserved":false,"is_disabled":false,"rental_uris":{"android":"levelo://app?vid=54d8198c-2280-42d1-a02d-dafc7e5a2616","ios":"levelo://app?vid=54d8198c-2280-42d1-a02d-dafc7e5a2616"},"vehicle_type_id":"4","last_reported":1728843079,"current_range_meters":22400,"station_id":"","pricing_plan_id":"cebpf4jnsgd1na2vs0mg"},{"bike_id":"0e665600-beb7-4d23-bf0f-3ae3aaada6e9","system_id":"levelo_inurba_marseille","lat":43.29709,"lon":5.40059,"is_reserved":false,"is_disabled":false,"rental_uris":{"android":"levelo://app?vid=0e665600-beb7-4d23-bf0f-3ae3aaada6e9","ios":"levelo://app?vid=0e665600-beb7-4d23-bf0f-3ae3aaada6e9"},"vehicle_type_id":"4","last_reported":1728843079,"current_range_meters":19600,"station_id":"","pricing_plan_id":"cebpf4jnsgd1na2vs0mg"},{"bike_id":"70af2895-042c-4b7a-944c-b38f628f9ea5","system_id":"levelo_inurba_marseille","lat":43.29587,"lon":5.37526,"is_reserved":false,"is_disabled":false,"rental_uris":{"android":"levelo://app?vid=70af2895-042c-4b7a-944c-b38f628f9ea5","ios":"levelo://app?vid=70af2895-042c-4b7a-944c-b38f628f9ea5"},"vehicle_type_id":"4","last_reported":1728843079,"current_range_meters":38000,"station_id":"ce4bgh92rcd13ifvqb50","pricing_plan_id":"cebpf4jnsgd1na2vs0mg"},{"bike_id":"e7bbe95f-6013-47b2-af73-32434189256a","system_id":"levelo_inurba_marseille","lat":43.29156,"lon":5.361,"is_reserved":false,"is_disabled":false,"rental_uris":{"android":"levelo://app?vid=e7bbe95f-6013-47b2-af73-32434189256a","ios":"levelo://app?vid=e7bbe95f-6013-47b2-af73-32434189256a"},"vehicle_type_id":"4","last_reported":1728843079,"current_range_meters":7200,"station_id":"","pricing_plan_id":"cebpf4jnsgd1na2vs0mg"},{"bike_id":"38ad9d4b-00fe-40fe-8af0-26a063647d96","system_id":"levelo_inurba_marseille","lat":43.33754,"lon":5.37443,"is_reserved":false,"is_disabled":false,"rental_uris":{"android":"levelo://app?vid=38ad9d4b-00fe-40fe-8af0-26a063647d96","ios":"levelo://app?vid=38ad9d4b-00fe-40fe-8af0-26a063647d96"},"vehicle_type_id":"4","last_reported":1728843079,"current_range_meters":32000,"station_id":"","pricing_plan_id":"cebpf4jnsgd1na2vs0mg"},{"bike_id":"03cf14b8-d04f-4b02-bd09-be6959e48386","system_id":"levelo_inurba_marseille","lat":43.32482,"lon":5.36567,"is_reserved":false,"is_disabled":false,"rental_uris":{"android":"levelo://app?vid=03cf14b8-d04f-4b02-bd09-be6959e48386","ios":"levelo://app?vid=03cf14b8-d04f-4b02-bd09-be6959e48386"},"vehicle_type_id":"4","last_reported":1728843079,"current_range_meters":4400,"station_id":"ce4bhs12rcd13ifvqhvg","pricing_plan_id":"cebpf4jnsgd1na2vs0mg"},{"bike_id":"23133b37-e59a-4352-8348-094cecfff4e1","system_id":"levelo_inurba_marseille","lat":43.28154,"lon":5.42654,"is_reserved":false,"is_disabled":false,"rental_uris":{"android":"levelo://app?vid=23133b37-e59a-4352-8348-094cecfff4e1","ios":"levelo://app?vid=23133b37-e59a-4352-8348-094cecfff4e1"},"vehicle_type_id":"4","last_reported":1728843079,"current_range_meters":21600,"station_id":"ce4bhnh2rcd13ifvqgug","pricing_plan_id":"cebpf4jnsgd1na2vs0mg"},{"bike_id":"b854aa51-5368-4f1c-884d-62b9fc358407","system_id":"levelo_inurba_marseille","lat":43.23962,"lon":5.36634,"is_reserved":false,"is_disabled":false,"rental_uris":{"android":"levelo://app?vid=b854aa51-5368-4f1c-884d-62b9fc358407","ios":"levelo://app?vid=b854aa51-5368-4f1c-884d-62b9fc358407"},"vehicle_type_id":"4","last_reported":1728843079,"current_range_meters":38800,"station_id":"ce4bhi12rcd13ifvqfp0","pricing_plan_id":"cebpf4jnsgd1na2vs0mg"},{"bike_id":"d008cff7-a5a9-4ba9-ae83-8b33c36c72fa","system_id":"levelo_inurba_marseille","lat":43.29698,"lon":5.37705,"is_reserved":false,"is_disabled":false,"rental_uris":{"android":"levelo://app?vid=d008cff7-a5a9-4ba9-ae83-8b33c36c72fa","ios":"levelo://app?vid=d008cff7-a5a9-4ba9-ae83-8b33c36c72fa"},"vehicle_type_id":"4","last_reported":1728843079,"current_range_meters":8800,"station_id":"ce4bgkh2rcd13ifvqbl0","pricing_plan_id":"cebpf4jnsgd1na2vs0mg"},{"bike_id":"4acd4cc3-4e0a-43c1-9daf-f7d620b6a6fc","system_id":"levelo_inurba_marseille","lat":43.27922,"lon":5.41367,"is_reserved":false,"is_disabled":false,"rental_uris":{"android":"levelo://app?vid=4acd4cc3-4e0a-43c1-9daf-f7d620b6a6fc","ios":"levelo://app?vid=4acd4cc3-4e0a-43c1-9daf-f7d620b6a6fc"},"vehicle_type_id":"4","last_reported":1728843079,"current_range_meters":4400,"station_id":"ce4bhk92rcd13ifvqgb0","pricing_plan_id":"cebpf4jnsgd1na2vs0mg"},{"bike_id":"ff549c51-af0a-424b-8e0c-2b932f9efa00","system_id":"levelo_inurba_marseille","lat":43.28603,"lon":5.35657,"is_reserved":false,"is_disabled":false,"rental_uris":{"android":"levelo://app?vid=ff549c51-af0a-424b-8e0c-2b932f9efa00","ios":"levelo://app?vid=ff549c51-af0a-424b-8e0c-2b932f9efa00"},"vehicle_type_id":"4","last_reported":1728843079,"current_range_meters":8400,"station_id":"","pricing_plan_id":"cebpf4jnsgd1na2vs0mg"},{"bike_id":"8bd4e003-e4b7-47eb-b26c-3a23aa6192fb","system_id":"levelo_inurba_marseille","lat":43.31226,"lon":5.36867,"is_reserved":false,"is_disabled":false,"rental_uris":{"android":"levelo://app?vid=8bd4e003-e4b7-47eb-b26c-3a23aa6192fb","ios":"levelo://app?vid=8bd4e003-e4b7-47eb-b26c-3a23aa6192fb"},"vehicle_type_id":"4","last_reported":1728843079,"current_range_meters":13600,"station_id":"ce4bgl92rcd13ifvqbq0","pricing_plan_id":"cebpf4jnsgd1na2vs0mg"},{"bike_id":"4d274b8a-6f66-4584-8d15-f793c1bcf31d","system_id":"levelo_inurba_marseille","lat":43.28574,"lon":5.39497,"is_reserved":false,"is_disabled":false,"rental_uris":{"android":"levelo://app?vid=4d274b8a-6f66-4584-8d15-f793c1bcf31d","ios":"levelo://app?vid=4d274b8a-6f66-4584-8d15-f793c1bcf31d"},"vehicle_type_id":"4","last_reported":1728843079,"current_range_meters":27600,"station_id":"ce4bh292rcd13ifvqdg0","pricing_plan_id":"cebpf4jnsgd1na2vs0mg"},{"bike_id":"2acd1772-04ef-4aad-99b8-9a20908811b4","system_id":"levelo_inurba_marseille","lat":43.295881,"lon":5.381838,"is_reserved":false,"is_disabled":false,"rental_uris":{"android":"levelo://app?vid=2acd1772-04ef-4aad-99b8-9a20908811b4","ios":"levelo://app?vid=2acd1772-04ef-4aad-99b8-9a20908811b4"},"vehicle_type_id":"4","last_reported":1728843079,"current_range_meters":38800,"station_id":"chh1huq6cuj3fo74tm60","pricing_plan_id":"cebpf4jnsgd1na2vs0mg"},{"bike_id":"8fbaa698-f344-4c72-a1e9-ec2eb9d4f343","system_id":"levelo_inurba_marseille","lat":43.28655,"lon":5.36357,"is_reserved":false,"is_disabled":false,"rental_uris":{"android":"levelo://app?vid=8fbaa698-f344-4c72-a1e9-ec2eb9d4f343","ios":"levelo://app?vid=8fbaa698-f344-4c72-a1e9-ec2eb9d4f343"},"vehicle_type_id":"4","last_reported":1728843079,"current_range_meters":14400,"station_id":"ce4bhah2rcd13ifvqej0","pricing_plan_id":"cebpf4jnsgd1na2vs0mg"},{"bike_id":"d787f6e4-06a8-4fbb-8f11-cc13e40333c0","system_id":"levelo_inurba_marseille","lat":43.30938,"lon":5.40148,"is_reserved":false,"is_disabled":false,"rental_uris":{"android":"levelo://app?vid=d787f6e4-06a8-4fbb-8f11-cc13e40333c0","ios":"levelo://app?vid=d787f6e4-06a8-4fbb-8f11-cc13e40333c0"},"vehicle_type_id":"4","last_reported":1728843079,"current_range_meters":18000,"station_id":"ce4bgvp2rcd13ifvqct0","pricing_plan_id":"cebpf4jnsgd1na2vs0mg"},{"bike_id":"b563acc7-3c3d-4d4e-a5b8-58168c875fad","system_id":"levelo_inurba_marseille","lat":43.30799,"lon":5.38152,"is_reserved":false,"is_disabled":false,"rental_uris":{"android":"levelo://app?vid=b563acc7-3c3d-4d4e-a5b8-58168c875fad","ios":"levelo://app?vid=b563acc7-3c3d-4d4e-a5b8-58168c875fad"},"vehicle_type_id":"4","last_reported":1728843079,"current_range_meters":36000,"station_id":"ce4bgt12rcd13ifvqce0","pricing_plan_id":"cebpf4jnsgd1na2vs0mg"},{"bike_id":"7b26ecba-4561-498f-b274-07aaa81239d9","system_id":"levelo_inurba_marseille","lat":43.25118,"lon":5.40318,"is_reserved":false,"is_disabled":false,"rental_uris":{"android":"levelo://app?vid=7b26ecba-4561-498f-b274-07aaa81239d9","ios":"levelo://app?vid=7b26ecba-4561-498f-b274-07aaa81239d9"},"vehicle_type_id":"4","last_reported":1728843079,"current_range_meters":5600,"station_id":"ce4bhlh2rcd13ifvqgig","pricing_plan_id":"cebpf4jnsgd1na2vs0mg"},{"bike_id":"38eb0728-91a6-4d65-a859-340d7dc0709a","system_id":"levelo_inurba_marseille","lat":43.288217,"lon":5.410308,"is_reserved":false,"is_disabled":false,"rental_uris":{"android":"levelo://app?vid=38eb0728-91a6-4d65-a859-340d7dc0709a","ios":"levelo://app?vid=38eb0728-91a6-4d65-a859-340d7dc0709a"},"vehicle_type_id":"4","last_reported":1728843079,"current_range_meters":16000,"station_id":"ce4bh2p2rcd13ifvqdi0","pricing_plan_id":"cebpf4jnsgd1na2vs0mg"},{"bike_id":"1b749e97-468a-46b9-a526-ba882a997f6b","system_id":"levelo_inurba_marseille","lat":43.27422,"lon":5.3942,"is_reserved":false,"is_disabled":false,"rental_uris":{"android":"levelo://app?vid=1b749e97-468a-46b9-a526-ba882a997f6b","ios":"levelo://app?vid=1b749e97-468a-46b9-a526-ba882a997f6b"},"vehicle_type_id":"4","last_reported":1728843079,"current_range_meters":10800,"station_id":"ce4bhdp2rcd13ifvqf20","pricing_plan_id":"cebpf4jnsgd1na2vs0mg"},{"bike_id":"ed024f04-459d-4348-9f33-2e140ff8aec1","system_id":"levelo_inurba_marseille","lat":43.2842,"lon":5.37519,"is_reserved":false,"is_disabled":false,"rental_uris":{"android":"levelo://app?vid=ed024f04-459d-4348-9f33-2e140ff8aec1","ios":"levelo://app?vid=ed024f04-459d-4348-9f33-2e140ff8aec1"},"vehicle_type_id":"4","last_reported":1728843079,"current_range_meters":33200,"station_id":"ce4bh412rcd13ifvqds0","pricing_plan_id":"cebpf4jnsgd1na2vs0mg"},{"bike_id":"610cb297-4d19-49fd-a164-08dc266b56f7","system_id":"levelo_inurba_marseille","lat":43.28607,"lon":5.37066,"is_reserved":false,"is_disabled":false,"rental_uris":{"android":"levelo://app?vid=610cb297-4d19-49fd-a164-08dc266b56f7","ios":"levelo://app?vid=610cb297-4d19-49fd-a164-08dc266b56f7"},"vehicle_type_id":"4","last_reported":1728843079,"current_range_meters":35600,"station_id":"ce4bht12rcd13ifvqi60","pricing_plan_id":"cebpf4jnsgd1na2vs0mg"},{"bike_id":"862775e0-82ca-4f3e-8933-a8b4da4c7508","system_id":"levelo_inurba_marseille","lat":43.25724,"lon":5.41109,"is_reserved":false,"is_disabled":false,"rental_uris":{"android":"levelo://app?vid=862775e0-82ca-4f3e-8933-a8b4da4c7508","ios":"levelo://app?vid=862775e0-82ca-4f3e-8933-a8b4da4c7508"},"vehicle_type_id":"4","last_reported":1728843079,"current_range_meters":12800,"station_id":"ce4bhkp2rcd13ifvqgd0","pricing_plan_id":"cebpf4jnsgd1na2vs0mg"},{"bike_id":"a33850d8-afef-4d0c-a629-7bc39d1cb95e","system_id":"levelo_inurba_marseille","lat":43.290364,"lon":5.39972,"is_reserved":false,"is_disabled":false,"rental_uris":{"android":"levelo://app?vid=a33850d8-afef-4d0c-a629-7bc39d1cb95e","ios":"levelo://app?vid=a33850d8-afef-4d0c-a629-7bc39d1cb95e"},"vehicle_type_id":"4","last_reported":1728843079,"current_range_meters":35600,"station_id":"ce4bh3h2rcd13ifvqdn0","pricing_plan_id":"cebpf4jnsgd1na2vs0mg"},{"bike_id":"c746e7bf-99d1-4ff8-9bf1-2e928fd68b6b","system_id":"levelo_inurba_marseille","lat":43.25868,"lon":5.39898,"is_reserved":false,"is_disabled":false,"rental_uris":{"android":"levelo://app?vid=c746e7bf-99d1-4ff8-9bf1-2e928fd68b6b","ios":"levelo://app?vid=c746e7bf-99d1-4ff8-9bf1-2e928fd68b6b"},"vehicle_type_id":"4","last_reported":1728843079,"current_range_meters":8000,"station_id":"ce4bhl92rcd13ifvqghg","pricing_plan_id":"cebpf4jnsgd1na2vs0mg"},{"bike_id":"11fae6ea-6b50-4895-9398-24c38d340b12","system_id":"levelo_inurba_marseille","lat":43.29985,"lon":5.37193,"is_reserved":false,"is_disabled":false,"rental_uris":{"android":"levelo://app?vid=11fae6ea-6b50-4895-9398-24c38d340b12","ios":"levelo://app?vid=11fae6ea-6b50-4895-9398-24c38d340b12"},"vehicle_type_id":"4","last_reported":1728843079,"current_range_meters":38800,"station_id":"ce4bgr92rcd13ifvqc7g","pricing_plan_id":"cebpf4jnsgd1na2vs0mg"},{"bike_id":"8c33f865-ea0f-4aa0-a05b-1563d55af9b8","system_id":"levelo_inurba_marseille","lat":43.30468,"lon":5.3792,"is_reserved":false,"is_disabled":false,"rental_uris":{"android":"levelo://app?vid=8c33f865-ea0f-4aa0-a05b-1563d55af9b8","ios":"levelo://app?vid=8c33f865-ea0f-4aa0-a05b-1563d55af9b8"},"vehicle_type_id":"4","last_reported":1728843079,"current_range_meters":38000,"station_id":"ce4bgup2rcd13ifvqcn0","pricing_plan_id":"cebpf4jnsgd1na2vs0mg"},{"bike_id":"6ed67135-4d8d-42cc-a5ff-67b36766a46c","system_id":"levelo_inurba_marseille","lat":43.30806,"lon":5.38158,"is_reserved":false,"is_disabled":false,"rental_uris":{"android":"levelo://app?vid=6ed67135-4d8d-42cc-a5ff-67b36766a46c","ios":"levelo://app?vid=6ed67135-4d8d-42cc-a5ff-67b36766a46c"},"vehicle_type_id":"4","last_reported":1728843079,"current_range_meters":6800,"station_id":"ce4bgt12rcd13ifvqce0","pricing_plan_id":"cebpf4jnsgd1na2vs0mg"},{"bike_id":"39efb806-552b-4b04-9294-468d3886b8de","system_id":"levelo_inurba_marseille","lat":43.24906,"lon":5.37499,"is_reserved":false,"is_disabled":false,"rental_uris":{"android":"levelo://app?vid=39efb806-552b-4b04-9294-468d3886b8de","ios":"levelo://app?vid=39efb806-552b-4b04-9294-468d3886b8de"},"vehicle_type_id":"4","last_reported":1728843079,"current_range_meters":16000,"station_id":"ce4bhgh2rcd13ifvqfb0","pricing_plan_id":"cebpf4jnsgd1na2vs0mg"},{"bike_id":"9ed58499-2dfa-461b-84a8-97b8ac9d3efd","system_id":"levelo_inurba_marseille","lat":43.27414,"lon":5.39411,"is_reserved":false,"is_disabled":false,"rental_uris":{"android":"levelo://app?vid=9ed58499-2dfa-461b-84a8-97b8ac9d3efd","ios":"levelo://app?vid=9ed58499-2dfa-461b-84a8-97b8ac9d3efd"},"vehicle_type_id":"4","last_reported":1728843079,"current_range_meters":9200,"station_id":"ce4bhdp2rcd13ifvqf20","pricing_plan_id":"cebpf4jnsgd1na2vs0mg"},{"bike_id":"b9a47e25-b75c-40ed-abbb-5c71934675bb","system_id":"levelo_inurba_marseille","lat":43.28418,"lon":5.37523,"is_reserved":false,"is_disabled":false,"rental_uris":{"android":"levelo://app?vid=b9a47e25-b75c-40ed-abbb-5c71934675bb","ios":"levelo://app?vid=b9a47e25-b75c-40ed-abbb-5c71934675bb"},"vehicle_type_id":"4","last_reported":1728843079,"current_range_meters":37600,"station_id":"ce4bh412rcd13ifvqds0","pricing_plan_id":"cebpf4jnsgd1na2vs0mg"},{"bike_id":"638b0a2b-ef71-4c56-9a2b-4a83c12dcbc9","system_id":"levelo_inurba_marseille","lat":43.30885,"lon":5.39641,"is_reserved":false,"is_disabled":false,"rental_uris":{"android":"levelo://app?vid=638b0a2b-ef71-4c56-9a2b-4a83c12dcbc9","ios":"levelo://app?vid=638b0a2b-ef71-4c56-9a2b-4a83c12dcbc9"},"vehicle_type_id":"4","last_reported":1728843079,"current_range_meters":22400,"station_id":"ce4bh012rcd13ifvqcv0","pricing_plan_id":"cebpf4jnsgd1na2vs0mg"},{"bike_id":"fc3e6a02-1036-44c6-a5d9-932897d34947","system_id":"levelo_inurba_marseille","lat":43.29882,"lon":5.389,"is_reserved":false,"is_disabled":false,"rental_uris":{"android":"levelo://app?vid=fc3e6a02-1036-44c6-a5d9-932897d34947","ios":"levelo://app?vid=fc3e6a02-1036-44c6-a5d9-932897d34947"},"vehicle_type_id":"4","last_reported":1728843079,"current_range_meters":19200,"station_id":"ce4bh392rcd13ifvqdl0","pricing_plan_id":"cebpf4jnsgd1na2vs0mg"},{"bike_id":"138a7939-43b1-443a-9bd8-4ceba00d7d47","system_id":"levelo_inurba_marseille","lat":43.30553,"lon":5.36781,"is_reserved":false,"is_disabled":false,"rental_uris":{"android":"levelo://app?vid=138a7939-43b1-443a-9bd8-4ceba00d7d47","ios":"levelo://app?vid=138a7939-43b1-443a-9bd8-4ceba00d7d47"},"vehicle_type_id":"4","last_reported":1728843079,"current_range_meters":12400,"station_id":"ce4bgrp2rcd13ifvqc9g","pricing_plan_id":"cebpf4jnsgd1na2vs0mg"},{"bike_id":"30744612-e7df-4035-bcca-d89da0de3b60","system_id":"levelo_inurba_marseille","lat":43.32367,"lon":5.3889,"is_reserved":false,"is_disabled":false,"rental_uris":{"android":"levelo://app?vid=30744612-e7df-4035-bcca-d89da0de3b60","ios":"levelo://app?vid=30744612-e7df-4035-bcca-d89da0de3b60"},"vehicle_type_id":"4","last_reported":1728843079,"current_range_meters":8000,"station_id":"ce4bhqp2rcd13ifvqhog","pricing_plan_id":"cebpf4jnsgd1na2vs0mg"},{"bike_id":"f55f8278-c4a5-4d38-879d-7e44e48e2d21","system_id":"levelo_inurba_marseille","lat":43.284027,"lon":5.384438,"is_reserved":false,"is_disabled":false,"rental_uris":{"android":"levelo://app?vid=f55f8278-c4a5-4d38-879d-7e44e48e2d21","ios":"levelo://app?vid=f55f8278-c4a5-4d38-879d-7e44e48e2d21"},"vehicle_type_id":"4","last_reported":1728843079,"current_range_meters":8400,"station_id":"ce4bh392rcd13ifvqdm0","pricing_plan_id":"cebpf4jnsgd1na2vs0mg"},{"bike_id":"fa999719-db8e-4a10-9c19-bd3a6e66afb4","system_id":"levelo_inurba_marseille","lat":43.26527,"lon":5.39523,"is_reserved":false,"is_disabled":false,"rental_uris":{"android":"levelo://app?vid=fa999719-db8e-4a10-9c19-bd3a6e66afb4","ios":"levelo://app?vid=fa999719-db8e-4a10-9c19-bd3a6e66afb4"},"vehicle_type_id":"4","last_reported":1728843079,"current_range_meters":34000,"station_id":"ce4bhi12rcd13ifvqfq0","pricing_plan_id":"cebpf4jnsgd1na2vs0mg"},{"bike_id":"9b757a46-bc1f-49a1-b9dd-c82d3f088728","system_id":"levelo_inurba_marseille","lat":43.29094,"lon":5.38147,"is_reserved":false,"is_disabled":false,"rental_uris":{"android":"levelo://app?vid=9b757a46-bc1f-49a1-b9dd-c82d3f088728","ios":"levelo://app?vid=9b757a46-bc1f-49a1-b9dd-c82d3f088728"},"vehicle_type_id":"4","last_reported":1728843079,"current_range_meters":2000,"station_id":"ce4bh512rcd13ifvqe2g","pricing_plan_id":"cebpf4jnsgd1na2vs0mg"},{"bike_id":"eec83d95-2846-4c18-ae76-446381314b98","system_id":"levelo_inurba_marseille","lat":43.26947,"lon":5.38644,"is_reserved":false,"is_disabled":false,"rental_uris":{"android":"levelo://app?vid=eec83d95-2846-4c18-ae76-446381314b98","ios":"levelo://app?vid=eec83d95-2846-4c18-ae76-446381314b98"},"vehicle_type_id":"4","last_reported":1728843079,"current_range_meters":38800,"station_id":"ce4bhh92rcd13ifvqfh0","pricing_plan_id":"cebpf4jnsgd1na2vs0mg"},{"bike_id":"4cc92244-05a3-42d6-91b6-1d49015d4d6a","system_id":"levelo_inurba_marseille","lat":43.27613,"lon":5.3612,"is_reserved":false,"is_disabled":false,"rental_uris":{"android":"levelo://app?vid=4cc92244-05a3-42d6-91b6-1d49015d4d6a","ios":"levelo://app?vid=4cc92244-05a3-42d6-91b6-1d49015d4d6a"},"vehicle_type_id":"4","last_reported":1728843079,"current_range_meters":38000,"station_id":"ce4bgj92rcd13ifvqbe0","pricing_plan_id":"cebpf4jnsgd1na2vs0mg"},{"bike_id":"0a3c257f-86c0-4f99-9fcb-9080c622f765","system_id":"levelo_inurba_marseille","lat":43.280714,"lon":5.369557,"is_reserved":false,"is_disabled":false,"rental_uris":{"android":"levelo://app?vid=0a3c257f-86c0-4f99-9fcb-9080c622f765","ios":"levelo://app?vid=0a3c257f-86c0-4f99-9fcb-9080c622f765"},"vehicle_type_id":"4","last_reported":1728843079,"current_range_meters":4400,"station_id":"ce4bha12rcd13ifvqef0","pricing_plan_id":"cebpf4jnsgd1na2vs0mg"},{"bike_id":"5bfd2788-c175-4a34-8a25-104f9ae10132","system_id":"levelo_inurba_marseille","lat":43.3372,"lon":5.39192,"is_reserved":false,"is_disabled":false,"rental_uris":{"android":"levelo://app?vid=5bfd2788-c175-4a34-8a25-104f9ae10132","ios":"levelo://app?vid=5bfd2788-c175-4a34-8a25-104f9ae10132"},"vehicle_type_id":"4","last_reported":1728843079,"current_range_meters":10800,"station_id":"ce4bhr92rcd13ifvqhsg","pricing_plan_id":"cebpf4jnsgd1na2vs0mg"},{"bike_id":"ca581163-6f99-461b-acb2-1e254b8cc0b4","system_id":"levelo_inurba_marseille","lat":43.292181,"lon":5.360466,"is_reserved":false,"is_disabled":false,"rental_uris":{"android":"levelo://app?vid=ca581163-6f99-461b-acb2-1e254b8cc0b4","ios":"levelo://app?vid=ca581163-6f99-461b-acb2-1e254b8cc0b4"},"vehicle_type_id":"4","last_reported":1728843079,"current_range_meters":15200,"station_id":"","pricing_plan_id":"cebpf4jnsgd1na2vs0mg"},{"bike_id":"7d0134af-c1b8-436d-ba68-1a463e2e5f17","system_id":"levelo_inurba_marseille","lat":43.25497,"lon":5.37653,"is_reserved":false,"is_disabled":false,"rental_uris":{"android":"levelo://app?vid=7d0134af-c1b8-436d-ba68-1a463e2e5f17","ios":"levelo://app?vid=7d0134af-c1b8-436d-ba68-1a463e2e5f17"},"vehicle_type_id":"4","last_reported":1728843079,"current_range_meters":24000,"station_id":"ce4bhh12rcd13ifvqff0","pricing_plan_id":"cebpf4jnsgd1na2vs0mg"},{"bike_id":"e2ec66c9-2473-4ea9-80dc-7ce2af5bd7ac","system_id":"levelo_inurba_marseille","lat":43.23194,"lon":5.35546,"is_reserved":false,"is_disabled":false,"rental_uris":{"android":"levelo://app?vid=e2ec66c9-2473-4ea9-80dc-7ce2af5bd7ac","ios":"levelo://app?vid=e2ec66c9-2473-4ea9-80dc-7ce2af5bd7ac"},"vehicle_type_id":"4","last_reported":1728843079,"current_range_meters":2000,"station_id":"ce4bhu92rcd13ifvqi70","pricing_plan_id":"cebpf4jnsgd1na2vs0mg"},{"bike_id":"3371e37b-fb50-4fab-b73c-ae9789f6bf0a","system_id":"levelo_inurba_marseille","lat":43.28456,"lon":5.35891,"is_reserved":false,"is_disabled":false,"rental_uris":{"android":"levelo://app?vid=3371e37b-fb50-4fab-b73c-ae9789f6bf0a","ios":"levelo://app?vid=3371e37b-fb50-4fab-b73c-ae9789f6bf0a"},"vehicle_type_id":"4","last_reported":1728843079,"current_range_meters":14400,"station_id":"ce4bhah2rcd13ifvqei0","pricing_plan_id":"cebpf4jnsgd1na2vs0mg"},{"bike_id":"e3e50cd0-e7c8-448c-af0f-df99d2afbff6","system_id":"levelo_inurba_marseille","lat":43.27317,"lon":5.3908,"is_reserved":false,"is_disabled":false,"rental_uris":{"android":"levelo://app?vid=e3e50cd0-e7c8-448c-af0f-df99d2afbff6","ios":"levelo://app?vid=e3e50cd0-e7c8-448c-af0f-df99d2afbff6"},"vehicle_type_id":"4","last_reported":1728843079,"current_range_meters":24000,"station_id":"ce4bhgp2rcd13ifvqfe0","pricing_plan_id":"cebpf4jnsgd1na2vs0mg"},