{"last_updated":1761416021,"ttl":60,"version":"2.2","data":{"bikes":[{"bike_id":"088583e8-0b13-4e06-bc9b-e8b07112f674","system_id":"levelo_inurba_marseille","lat":43.2762,"lon":5.36111,"is_reserved":false,"is_disabled":false,"rental_uris":{"android":"levelo://app?vid=088583e8-0b13-4e06-bc9b-e8b07112f674","ios":"levelo://app?vid=088583e8-0b13-4e06-bc9b-e8b07112f674"},"vehicle_type_id":"4","last_reported":1761416021,"current_range_meters":2800,"station_id":"ce4bgj92rcd13ifvqbe0","pricing_plan_id":"cebpf4jnsgd1na2vs0mg"},{"bike_id":"8d94525c-53bf-42b7-9914-1cfcf390c790","system_id":"levelo_inurba_marseille","lat":43.25089,"lon":5.39525,"is_reserved":false,"is_disabled":false,"rental_uris":{"android":"levelo://app?vid=8d94525c-53bf-42b7-9914-1cfcf390c790","ios":"levelo://app?vid=8d94525c-53bf-42b7-9914-1cfcf390c790"},"vehicle_type_id":"4","last_reported":1761416021,"current_range_meters":2800,"station_id":"ce4bhm12rcd13ifvqgkg","pricing_plan_id":"cebpf4jnsgd1na2vs0mg"},{"bike_id":"892ad6cd-826f-4ec7-b8dc-d822a82e970f","system_id":"levelo_inurba_marseille","lat":43.2524,"lon":5.38629,"is_reserved":false,"is_disabled":false,"rental_uris":{"android":"levelo://app?vid=892ad6cd-826f-4ec7-b8dc-d822a82e970f","ios":"levelo://app?vid=892ad6cd-826f-4ec7-b8dc-d822a82e970f"},"vehicle_type_id":"4","last_reported":1761416021,"current_range_meters":3200,"station_id":"","pricing_plan_id":"cebpf4jnsgd1na2vs0mg"},{"bike_id":"440714dd-a106-4ecd-a171-eeeb1addf8b1","system_id":"levelo_inurba_marseille","lat":43.23761,"lon":5.43582,"is_reserved":false,"is_disabled":false,"rental_uris":{"android":"levelo://app?vid=440714dd-a106-4ecd-a171-eeeb1addf8b1","ios":"levelo://app?vid=440714dd-a106-4ecd-a171-eeeb1addf8b1"},"vehicle_type_id":"4","last_reported":1761416021,"current_range_meters":3200,"station_id":"st_d2m6c4gdas8pm72e190g","pricing_plan_id":"cebpf4jnsgd1na2vs0mg"},{"bike_id":"6e0794c5-f708-4c3d-ae3c-efea2bd35eb6","system_id":"levelo_inurba_marseille","lat":43.31695,"lon":5.40472,"is_reserved":false,"is_disabled":false,"rental_uris":{"android":"levelo://app?vid=6e0794c5-f708-4c3d-ae3c-efea2bd35eb6","ios":"levelo://app?vid=6e0794c5-f708-4c3d-ae3c-efea2bd35eb6"},"vehicle_type_id":"4","last_reported":1761416021,"current_range_meters":3200,"station_id":"ce4bh012rcd13ifvqd00","pricing_plan_id":"cebpf4jnsgd1na2vs0mg"},{"bike_id":"e9ed8e6a-b560-426d-a3b0-5a70aafe8464","system_id":"levelo_inurba_marseille","lat":43.3046,"lon":5.37899,"is_reserved":false,"is_disabled":false,"rental_uris":{"android":"levelo://app?vid=e9ed8e6a-b560-426d-a3b0-5a70aafe8464","ios":"levelo://app?vid=e9ed8e6a-b560-426d-a3b0-5a70aafe8464"},"vehicle_type_id":"4","last_reported":1761416021,"current_range_meters":3200,"station_id":"ce4bgup2rcd13ifvqcn0","pricing_plan_id":"cebpf4jnsgd1na2vs0mg"},{"bike_id":"7e68939f-a796-4b90-b262-f259f93e96c8","system_id":"levelo_inurba_marseille","lat":43.27207,"lon":5.39189,"is_reserved":false,"is_disabled":false,"rental_uris":{"android":"levelo://app?vid=7e68939f-a796-4b90-b262-f259f93e96c8","ios":"levelo://app?vid=7e68939f-a796-4b90-b262-f259f93e96c8"},"vehicle_type_id":"4","last_reported":1761416021,"current_range_meters":3600,"station_id":"ce4bhhp2rcd13ifvqfm0","pricing_plan_id":"cebpf4jnsgd1na2vs0mg"},{"bike_id":"79489ab6-7606-43bb-9e98-09b4721ed790","system_id":"levelo_inurba_marseille","lat":43.30926,"lon":5.40145,"is_reserved":false,"is_disabled":false,"rental_uris":{"android":"levelo://app?vid=79489ab6-7606-43bb-9e98-09b4721ed790","ios":"levelo://app?vid=79489ab6-7606-43bb-9e98-09b4721ed790"},"vehicle_type_id":"4","last_reported":1761416021,"current_range_meters":3600,"station_id":"ce4bgvp2rcd13ifvqct0","pricing_plan_id":"cebpf4jnsgd1na2vs0mg"},{"bike_id":"85afcb9d-9b6c-4a84-8c6c-3218f3337a86","system_id":"levelo_inurba_marseille","lat":43.24905,"lon":5.3894,"is_reserved":false,"is_disabled":false,"rental_uris":{"android":"levelo://app?vid=85afcb9d-9b6c-4a84-8c6c-3218f3337a86","ios":"levelo://app?vid=85afcb9d-9b6c-4a84-8c6c-3218f3337a86"},"vehicle_type_id":"4","last_reported":1761416021,"current_range_meters":3600,"station_id":"","pricing_plan_id":"cebpf4jnsgd1na2vs0mg"},{"bike_id":"24a01517-9129-40ba-a401-07e5a9379ef2","system_id":"levelo_inurba_marseille","lat":43.27613,"lon":5.36101,"is_reserved":false,"is_disabled":false,"rental_uris":{"android":"levelo://app?vid=24a01517-9129-40ba-a401-07e5a9379ef2","ios":"levelo://app?vid=24a01517-9129-40ba-a401-07e5a9379ef2"},"vehicle_type_id":"4","last_reported":1761416021,"current_range_meters":3600,"station_id":"ce4bgj92rcd13ifvqbe0","pricing_plan_id":"cebpf4jnsgd1na2vs0mg"},{"bike_id":"f56d86c1-a8fd-4925-bb79-4b0cd3df2e81","system_id":"levelo_inurba_marseille","lat":43.30536,"lon":5.3671,"is_reserved":false,"is_disabled":false,"rental_uris":{"android":"levelo://app?vid=f56d86c1-a8fd-4925-bb79-4b0cd3df2e81","ios":"levelo://app?vid=f56d86c1-a8fd-4925-bb79-4b0cd3df2e81"},"vehicle_type_id":"4","last_reported":1761416021,"current_range_meters":4000,"station_id":"ce4bgrp2rcd13ifvqc9g","pricing_plan_id":"cebpf4jnsgd1na2vs0mg"},{"bike_id":"e08d4553-4c0b-4986-8aac-0bde0cbffe65","system_id":"levelo_inurba_marseille","lat":43.28944,"lon":5.39633,"is_reserved":false,"is_disabled":true,"rental_uris":{"android":"levelo://app?vid=e08d4553-4c0b-4986-8aac-0bde0cbffe65","ios":"levelo://app?vid=e08d4553-4c0b-4986-8aac-0bde0cbffe65"},"vehicle_type_id":"4","last_reported":1761416021,"current_range_meters":4000,"station_id":"ce4bh3h2rcd13ifvqdn0","pricing_plan_id":"cebpf4jnsgd1na2vs0mg"},{"bike_id":"323bf2de-3bb4-4b4c-b330-b19ea807dbf5","system_id":"levelo_inurba_marseille","lat":43.32999,"lon":5.42956,"is_reserved":false,"is_disabled":false,"rental_uris":{"android":"levelo://app?vid=323bf2de-3bb4-4b4c-b330-b19ea807dbf5","ios":"levelo://app?vid=323bf2de-3bb4-4b4c-b330-b19ea807dbf5"},"vehicle_type_id":"4","last_reported":1761416021,"current_range_meters":4000,"station_id":"","pricing_plan_id":"cebpf4jnsgd1na2vs0mg"},{"bike_id":"17bd9fff-f8a7-45af-8120-cab272292f42","system_id":"levelo_inurba_marseille","lat":43.284785,"lon":5.484006,"is_reserved":false,"is_disabled":false,"rental_uris":{"android":"levelo://app?vid=17bd9fff-f8a7-45af-8120-cab272292f42","ios":"levelo://app?vid=17bd9fff-f8a7-45af-8120-cab272292f42"},"vehicle_type_id":"4","last_reported":1761416021,"current_range_meters":4000,"station_id":"st_d3svhcjqgbts73a3dn0g","pricing_plan_id":"cebpf4jnsgd1na2vs0mg"},{"bike_id":"3bf0abf9-9570-4dc5-9c58-77b3a77d7900","system_id":"levelo_inurba_marseille","lat":43.29308,"lon":5.37166,"is_reserved":false,"is_disabled":false,"rental_uris":{"android":"levelo://app?vid=3bf0abf9-9570-4dc5-9c58-77b3a77d7900","ios":"levelo://app?vid=3bf0abf9-9570-4dc5-9c58-77b3a77d7900"},"vehicle_type_id":"4","last_reported":1761416021,"current_range_meters":4000,"station_id":"ce4bgh92rcd13ifvqb40","pricing_plan_id":"cebpf4jnsgd1na2vs0mg"},{"bike_id":"e3db14b5-afbf-4c48-9835-5a6e3f43f2b4","system_id":"levelo_inurba_marseille","lat":43.27371,"lon":5.3626,"is_reserved":false,"is_disabled":false,"rental_uris":{"android":"levelo://app?vid=e3db14b5-afbf-4c48-9835-5a6e3f43f2b4","ios":"levelo://app?vid=e3db14b5-afbf-4c48-9835-5a6e3f43f2b4"},"vehicle_type_id":"4","last_reported":1761416021,"current_range_meters":4400,"station_id":"ce4bhbh2rcd13ifvqeo0","pricing_plan_id":"cebpf4jnsgd1na2vs0mg"},{"bike_id":"4cac6df0-fc82-4d18-8a37-769ccee9cff3","system_id":"levelo_inurba_marseille","lat":43.28005,"lon":5.40028,"is_reserved":false,"is_disabled":false,"rental_uris":{"android":"levelo://app?vid=4cac6df0-fc82-4d18-8a37-769ccee9cff3","ios":"levelo://app?vid=4cac6df0-fc82-4d18-8a37-769ccee9cff3"},"vehicle_type_id":"4","last_reported":1761416021,"current_range_meters":4400,"station_id":"ce4bho92rcd13ifvqh4g","pricing_plan_id":"cebpf4jnsgd1na2vs0mg"},{"bike_id":"c459471b-3971-4dff-92ac-95f2501cc9bd","system_id":"levelo_inurba_marseille","lat":43.28929,"lon":5.38404,"is_reserved":false,"is_disabled":false,"rental_uris":{"android":"levelo://app?vid=c459471b-3971-4dff-92ac-95f2501cc9bd","ios":"levelo://app?vid=c459471b-3971-4dff-92ac-95f2501cc9bd"},"vehicle_type_id":"4","last_reported":1761416021,"current_range_meters":4800,"station_id":"ce4bh612rcd13ifvqe6g","pricing_plan_id":"cebpf4jnsgd1na2vs0mg"},{"bike_id":"40ca06c3-4ea4-41fe-b0e7-3bbe5f1a6e51","system_id":"levelo_inurba_marseille","lat":43.30543,"lon":5.38427,"is_reserved":false,"is_disabled":false,"rental_uris":{"android":"levelo://app?vid=40ca06c3-4ea4-41fe-b0e7-3bbe5f1a6e51","ios":"levelo://app?vid=40ca06c3-4ea4-41fe-b0e7-3bbe5f1a6e51"},"vehicle_type_id":"4","last_reported":1761416021,"current_range_meters":4800,"station_id":"ce4bgg92rcd13ifvqb30","pricing_plan_id":"cebpf4jnsgd1na2vs0mg"},{"bike_id":"130b132e-192f-4656-ab4f-77877a58cf4c","system_id":"levelo_inurba_marseille","lat":43.30538,"lon":5.36732,"is_reserved":false,"is_disabled":false,"rental_uris":{"android":"levelo://app?vid=130b132e-192f-4656-ab4f-77877a58cf4c","ios":"levelo://app?vid=130b132e-192f-4656-ab4f-77877a58cf4c"},"vehicle_type_id":"4","last_reported":1761416021,"current_range_meters":4800,"station_id":"ce4bgrp2rcd13ifvqc9g","pricing_plan_id":"cebpf4jnsgd1na2vs0mg"},{"bike_id":"d1e4b9a6-0d73-4699-b946-bacfe0253dbc","system_id":"levelo_inurba_marseille","lat":43.2706,"lon":5.38292,"is_reserved":false,"is_disabled":false,"rental_uris":{"android":"levelo://app?vid=d1e4b9a6-0d73-4699-b946-bacfe0253dbc","ios":"levelo://app?vid=d1e4b9a6-0d73-4699-b946-bacfe0253dbc"},"vehicle_type_id":"4","last_reported":1761416021,"current_range_meters":5600,"station_id":"st_d3n2fo6cfp8s73cte1j0","pricing_plan_id":"cebpf4jnsgd1na2vs0mg"},{"bike_id":"645a2134-62e6-4999-a39e-f5da207de569","system_id":"levelo_inurba_marseille","lat":43.300835,"lon":5.390815,"is_reserved":false,"is_disabled":false,"rental_uris":{"android":"levelo://app?vid=645a2134-62e6-4999-a39e-f5da207de569","ios":"levelo://app?vid=645a2134-62e6-4999-a39e-f5da207de569"},"vehicle_type_id":"4","last_reported":1761416021,"current_range_meters":5600,"station_id":"","pricing_plan_id":"cebpf4jnsgd1na2vs0mg"},{"bike_id":"d580972f-d071-4bb5-84d4-5cce6c8bda2e","system_id":"levelo_inurba_marseille","lat":43.284851,"lon":5.385405,"is_reserved":false,"is_disabled":false,"rental_uris":{"android":"levelo://app?vid=d580972f-d071-4bb5-84d4-5cce6c8bda2e","ios":"levelo://app?vid=d580972f-d071-4bb5-84d4-5cce6c8bda2e"},"vehicle_type_id":"4","last_reported":1761416021,"current_range_meters":5600,"station_id":"ce4bh8p2rcd13ifvqeb0","pricing_plan_id":"cebpf4jnsgd1na2vs0mg"},{"bike_id":"700727be-3428-449b-b252-fe69328ccf7a","system_id":"levelo_inurba_marseille","lat":43.26801,"lon":5.40257,"is_reserved":false,"is_disabled":false,"rental_uris":{"android":"levelo://app?vid=700727be-3428-449b-b252-fe69328ccf7a","ios":"levelo://app?vid=700727be-3428-449b-b252-fe69328ccf7a"},"vehicle_type_id":"4","last_reported":1761416021,"current_range_meters":5600,"station_id":"ce501612rcd8frsf0b60","pricing_plan_id":"cebpf4jnsgd1na2vs0mg"},{"bike_id":"154ca9a5-bdc9-49e0-b86a-700d7e101b87","system_id":"levelo_inurba_marseille","lat":43.297905,"lon":5.38095,"is_reserved":false,"is_disabled":false,"rental_uris":{"android":"levelo://app?vid=154ca9a5-bdc9-49e0-b86a-700d7e101b87","ios":"levelo://app?vid=154ca9a5-bdc9-49e0-b86a-700d7e101b87"},"vehicle_type_id":"4","last_reported":1761416021,"current_range_meters":5600,"station_id":"ce4bgip2rcd13ifvqbb0","pricing_plan_id":"cebpf4jnsgd1na2vs0mg"},{"bike_id":"a2671c67-721c-4770-ae6b-47b0eb228dcb","system_id":"levelo_inurba_marseille","lat":43.29595,"lon":5.38098,"is_reserved":false,"is_disabled":false,"rental_uris":{"android":"levelo://app?vid=a2671c67-721c-4770-ae6b-47b0eb228dcb","ios":"levelo://app?vid=a2671c67-721c-4770-ae6b-47b0eb228dcb"},"vehicle_type_id":"4","last_reported":1761416021,"current_range_meters":5600,"station_id":"ce4bgl12rcd13ifvqbo0","pricing_plan_id":"cebpf4jnsgd1na2vs0mg"},{"bike_id":"00fd3c6a-780c-49dc-9993-d4de69c9b57a","system_id":"levelo_inurba_marseille","lat":43.310738,"lon":5.37455,"is_reserved":false,"is_disabled":false,"rental_uris":{"android":"levelo://app?vid=00fd3c6a-780c-49dc-9993-d4de69c9b57a","ios":"levelo://app?vid=00fd3c6a-780c-49dc-9993-d4de69c9b57a"},"vehicle_type_id":"4","last_reported":1761416021,"current_range_meters":5600,"station_id":"","pricing_plan_id":"cebpf4jnsgd1na2vs0mg"},{"bike_id":"8bcacd78-80de-4026-af75-b37ebe3030fe","system_id":"levelo_inurba_marseille","lat":43.334756,"lon":5.404255,"is_reserved":false,"is_disabled":false,"rental_uris":{"android":"levelo://app?vid=8bcacd78-80de-4026-af75-b37ebe3030fe","ios":"levelo://app?vid=8bcacd78-80de-4026-af75-b37ebe3030fe"},"vehicle_type_id":"4","last_reported":1761416021,"current_range_meters":5600,"station_id":"","pricing_plan_id":"cebpf4jnsgd1na2vs0mg"},{"bike_id":"177ce9e6-dd90-45ac-8a3c-f7e0c0616225","system_id":"levelo_inurba_marseille","lat":43.30602,"lon":5.39325,"is_reserved":false,"is_disabled":false,"rental_uris":{"android":"levelo://app?vid=177ce9e6-dd90-45ac-8a3c-f7e0c0616225","ios":"levelo://app?vid=177ce9e6-dd90-45ac-8a3c-f7e0c0616225"},"vehicle_type_id":"4","last_reported":1761416021,"current_range_meters":5600,"station_id":"ce4bh0p2rcd13ifvqd80","pricing_plan_id":"cebpf4jnsgd1na2vs0mg"},{"bike_id":"55e1bf19-2ee0-4f89-8fbd-1b227453ba17","system_id":"levelo_inurba_marseille","lat":43.28605,"lon":5.37059,"is_reserved":false,"is_disabled":false,"rental_uris":{"android":"levelo://app?vid=55e1bf19-2ee0-4f89-8fbd-1b227453ba17","ios":"levelo://app?vid=55e1bf19-2ee0-4f89-8fbd-1b227453ba17"},"vehicle_type_id":"4","last_reported":1761416021,"current_range_meters":5600,"station_id":"ce4bht12rcd13ifvqi60","pricing_plan_id":"cebpf4jnsgd1na2vs0mg"},{"bike_id":"38eedd6e-da48-480a-85a5-09a7fb51bd09","system_id":"levelo_inurba_marseille","lat":43.30204,"lon":5.39477,"is_reserved":false,"is_disabled":false,"rental_uris":{"android":"levelo://app?vid=38eedd6e-da48-480a-85a5-09a7fb51bd09","ios":"levelo://app?vid=38eedd6e-da48-480a-85a5-09a7fb51bd09"},"vehicle_type_id":"4","last_reported":1761416021,"current_range_meters":6000,"station_id":"ce4bh0p2rcd13ifvqd70","pricing_plan_id":"cebpf4jnsgd1na2vs0mg"},{"bike_id":"038cc003-1eda-4832-9b86-484527053770","system_id":"levelo_inurba_marseille","lat":43.2866,"lon":5.36355,"is_reserved":false,"is_disabled":false,"rental_uris":{"android":"levelo://app?vid=038cc003-1eda-4832-9b86-484527053770","ios":"levelo://app?vid=038cc003-1eda-4832-9b86-484527053770"},"vehicle_type_id":"4","last_reported":1761416021,"current_range_meters":6000,"station_id":"ce4bhah2rcd13ifvqej0","pricing_plan_id":"cebpf4jnsgd1na2vs0mg"},{"bike_id":"e0f64e0f-3fcd-43f3-b764-419b58373c21","system_id":"levelo_inurba_marseille","lat":43.30138,"lon":5.3878,"is_reserved":false,"is_disabled":false,"rental_uris":{"android":"levelo://app?vid=e0f64e0f-3fcd-43f3-b764-419b58373c21","ios":"levelo://app?vid=e0f64e0f-3fcd-43f3-b764-419b58373c21"},"vehicle_type_id":"4","last_reported":1761416021,"current_range_meters":6000,"station_id":"ce4bghh2rcd13ifvqb60","pricing_plan_id":"cebpf4jnsgd1na2vs0mg"},{"bike_id":"b9764ed2-f91a-421e-b54e-d7527bd8af22","system_id":"levelo_inurba_marseille","lat":43.29811,"lon":5.36588,"is_reserved":false,"is_disabled":false,"rental_uris":{"android":"levelo://app?vid=b9764ed2-f91a-421e-b54e-d7527bd8af22","ios":"levelo://app?vid=b9764ed2-f91a-421e-b54e-d7527bd8af22"},"vehicle_type_id":"4","last_reported":1761416021,"current_range_meters":6000,"station_id":"","pricing_plan_id":"cebpf4jnsgd1na2vs0mg"},{"bike_id":"dc2b5d54-c9d5-487a-99f5-a100daa811f1","system_id":"levelo_inurba_marseille","lat":43.270733,"lon":5.422844,"is_reserved":false,"is_disabled":false,"rental_uris":{"android":"levelo://app?vid=dc2b5d54-c9d5-487a-99f5-a100daa811f1","ios":"levelo://app?vid=dc2b5d54-c9d5-487a-99f5-a100daa811f1"},"vehicle_type_id":"4","last_reported":1761416021,"current_range_meters":6000,"station_id":"ce4bhk92rcd13ifvqgb0","pricing_plan_id":"cebpf4jnsgd1na2vs0mg"},{"bike_id":"575efb12-7b12-4f03-93a1-37f6c5ef750e","system_id":"levelo_inurba_marseille","lat":43.29759,"lon":5.42774,"is_reserved":false,"is_disabled":false,"rental_uris":{"android":"levelo://app?vid=575efb12-7b12-4f03-93a1-37f6c5ef750e","ios":"levelo://app?vid=575efb12-7b12-4f03-93a1-37f6c5ef750e"},"vehicle_type_id":"4","last_reported":1761416021,"current_range_meters":6000,"station_id":"st_d3md5207bmas73dh9klg","pricing_plan_id":"cebpf4jnsgd1na2vs0mg"},{"bike_id":"5700810a-95c2-4696-a24f-11ec39ea235f","system_id":"levelo_inurba_marseille","lat":43.29893,"lon":5.38308,"is_reserved":false,"is_disabled":false,"rental_uris":{"android":"levelo://app?vid=5700810a-95c2-4696-a24f-11ec39ea235f","ios":"levelo://app?vid=5700810a-95c2-4696-a24f-11ec39ea235f"},"vehicle_type_id":"4","last_reported":1761416021,"current_range_meters":6400,"station_id":"","pricing_plan_id":"cebpf4jnsgd1na2vs0mg"},{"bike_id":"e7bb7b19-03a2-4ce3-98bd-1068778ea96c","system_id":"levelo_inurba_marseille","lat":43.22923,"lon":5.35384,"is_reserved":false,"is_disabled":false,"rental_uris":{"android":"levelo://app?vid=e7bb7b19-03a2-4ce3-98bd-1068778ea96c","ios":"levelo://app?vid=e7bb7b19-03a2-4ce3-98bd-1068778ea96c"},"vehicle_type_id":"4","last_reported":1761416021,"current_range_meters":6400,"station_id":"cpo3532slgdg3j2ikp40","pricing_plan_id":"cebpf4jnsgd1na2vs0mg"},{"bike_id":"24aa98b8-156d-43d1-a379-507d6e5820b0","system_id":"levelo_inurba_marseille","lat":43.29548,"lon":5.38536,"is_reserved":false,"is_disabled":false,"rental_uris":{"android":"levelo://app?vid=24aa98b8-156d-43d1-a379-507d6e5820b0","ios":"levelo://app?vid=24aa98b8-156d-43d1-a379-507d6e5820b0"},"vehicle_type_id":"4","last_reported":1761416021,"current_range_meters":6400,"station_id":"ce4bgih2rcd13ifvqba0","pricing_plan_id":"cebpf4jnsgd1na2vs0mg"},{"bike_id":"5834db65-f259-4edb-a0f7-1c181e59a94b","system_id":"levelo_inurba_marseille","lat":43.30186,"lon":5.36619,"is_reserved":false,"is_disabled":false,"rental_uris":{"android":"levelo://app?vid=5834db65-f259-4edb-a0f7-1c181e59a94b","ios":"levelo://app?vid=5834db65-f259-4edb-a0f7-1c181e59a94b"},"vehicle_type_id":"4","last_reported":1761416021,"current_range_meters":6400,"station_id":"ce4bgrh2rcd13ifvqc8g","pricing_plan_id":"cebpf4jnsgd1na2vs0mg"},{"bike_id":"e476bc18-090a-4b4f-a286-b68e003cfed5","system_id":"levelo_inurba_marseille","lat":43.297549,"lon":5.380261,"is_reserved":false,"is_disabled":false,"rental_uris":{"android":"levelo://app?vid=e476bc18-090a-4b4f-a286-b68e003cfed5","ios":"levelo://app?vid=e476bc18-090a-4b4f-a286-b68e003cfed5"},"vehicle_type_id":"4","last_reported":1761416021,"current_range_meters":6400,"station_id":"ce4bgip2rcd13ifvqbb0","pricing_plan_id":"cebpf4jnsgd1na2vs0mg"},{"bike_id":"cb14a91a-e5a7-4fa2-9c1d-b1acec3d3362","system_id":"levelo_inurba_marseille","lat":43.24167,"lon":5.36393,"is_reserved":false,"is_disabled":false,"rental_uris":{"android":"levelo://app?vid=cb14a91a-e5a7-4fa2-9c1d-b1acec3d3362","ios":"levelo://app?vid=cb14a91a-e5a7-4fa2-9c1d-b1acec3d3362"},"vehicle_type_id":"4","last_reported":1761416021,"current_range_meters":6400,"station_id":"cpo36qri1sfpv3e86is0","pricing_plan_id":"cebpf4jnsgd1na2vs0mg"},{"bike_id":"9881c788-42a8-46f5-8ccc-580a73583155","system_id":"levelo_inurba_marseille","lat":43.32045,"lon":5.41013,"is_reserved":false,"is_disabled":false,"rental_uris":{"android":"levelo://app?vid=9881c788-42a8-46f5-8ccc-580a73583155","ios":"levelo://app?vid=9881c788-42a8-46f5-8ccc-580a73583155"},"vehicle_type_id":"4","last_reported":1761416021,"current_range_meters":6400,"station_id":"","pricing_plan_id":"cebpf4jnsgd1na2vs0mg"},{"bike_id":"ef9f94b6-49db-4195-b862-563223e2ba3d","system_id":"levelo_inurba_marseille","lat":43.21752,"lon":5.34605,"is_reserved":false,"is_disabled":false,"rental_uris":{"android":"levelo://app?vid=ef9f94b6-49db-4195-b862-563223e2ba3d","ios":"levelo://app?vid=ef9f94b6-49db-4195-b862-563223e2ba3d"},"vehicle_type_id":"4","last_reported":1761416021,"current_range_meters":6800,"station_id":"st_cvj6r9ubvosntc0bgbag","pricing_plan_id":"cebpf4jnsgd1na2vs0mg"},{"bike_id":"fe1479f6-a3c8-42fd-846b-27c1c6534610","system_id":"levelo_inurba_marseille","lat":43.29803,"lon":5.38089,"is_reserved":false,"is_disabled":false,"rental_uris":{"android":"levelo://app?vid=fe1479f6-a3c8-42fd-846b-27c1c6534610","ios":"levelo://app?vid=fe1479f6-a3c8-42fd-846b-27c1c6534610"},"vehicle_type_id":"4","last_reported":1761416021,"current_range_meters":6800,"station_id":"ce4bgip2rcd13ifvqbb0","pricing_plan_id":"cebpf4jnsgd1na2vs0mg"},{"bike_id":"efea4a21-94cd-4724-a5bc-43c0e5daf8ad","system_id":"levelo_inurba_marseille","lat":43.279565,"lon":5.410539,"is_reserved":false,"is_disabled":false,"rental_uris":{"android":"levelo://app?vid=efea4a21-94cd-4724-a5bc-43c0e5daf8ad","ios":"levelo://app?vid=efea4a21-94cd-4724-a5bc-43c0e5daf8ad"},"vehicle_type_id":"4","last_reported":1761416021,"current_range_meters":6800,"station_id":"ce4bhbh2rcd13ifvqeo0","pricing_plan_id":"cebpf4jnsgd1na2vs0mg"},{"bike_id":"9682fa9d-3781-4a90-93d5-461c69a45592","system_id":"levelo_inurba_marseille","lat":43.29973,"lon":5.38492,"is_reserved":false,"is_disabled":false,"rental_uris":{"android":"levelo://app?vid=9682fa9d-3781-4a90-93d5-461c69a45592","ios":"levelo://app?vid=9682fa9d-3781-4a90-93d5-461c69a45592"},"vehicle_type_id":"4","last_reported":1761416021,"current_range_meters":6800,"station_id":"ce4bgj92rcd13ifvqbd0","pricing_plan_id":"cebpf4jnsgd1na2vs0mg"},{"bike_id":"2842f5fd-7b05-4b47-909c-5ee54d7d3bc5","system_id":"levelo_inurba_marseille","lat":43.32447,"lon":5.42795,"is_reserved":false,"is_disabled":false,"rental_uris":{"android":"levelo://app?vid=2842f5fd-7b05-4b47-909c-5ee54d7d3bc5","ios":"levelo://app?vid=2842f5fd-7b05-4b47-909c-5ee54d7d3bc5"},"vehicle_type_id":"4","last_reported":1761416021,"current_range_meters":6800,"station_id":"","pricing_plan_id":"cebpf4jnsgd1na2vs0mg"},{"bike_id":"da5ec092-2438-4dd2-a625-8fc0f3baf6af","system_id":"levelo_inurba_marseille","lat":43.33722,"lon":5.36287,"is_reserved":false,"is_disabled":false,"rental_uris":{"android":"levelo://app?vid=da5ec092-2438-4dd2-a625-8fc0f3baf6af","ios":"levelo://app?vid=da5ec092-2438-4dd2-a625-8fc0f3baf6af"},"vehicle_type_id":"4","last_reported":1761416021,"current_range_meters":6800,"station_id":"","pricing_plan_id":"cebpf4jnsgd1na2vs0mg"},{"bike_id":"f4833121-38e2-4f4d-9560-2a1e9dccb36d","system_id":"levelo_inurba_marseille","lat":43.27053,"lon":5.40263,"is_reserved":false,"is_disabled":false,"rental_uris":{"android":"levelo://app?vid=f4833121-38e2-4f4d-9560-2a1e9dccb36d","ios":"levelo://app?vid=f4833121-38e2-4f4d-9560-2a1e9dccb36d"},"vehicle_type_id":"4","last_reported":1761416021,"current_range_meters":6800,"station_id":"ce4bhk92rcd13ifvqgc0","pricing_plan_id":"cebpf4jnsgd1na2vs0mg"},{"bike_id":"ec6be470-a694-48c2-8e93-094202c2b6d2","system_id":"levelo_inurba_marseille","lat":43.29519,"lon":5.38544,"is_reserved":false,"is_disabled":false,"rental_uris":{"android":"levelo://app?vid=ec6be470-a694-48c2-8e93-094202c2b6d2","ios":"levelo://app?vid=ec6be470-a694-48c2-8e93-094202c2b6d2"},"vehicle_type_id":"4","last_reported":1761416021,"current_range_meters":6800,"station_id":"ce4bgih2rcd13ifvqba0","pricing_plan_id":"cebpf4jnsgd1na2vs0mg"},{"bike_id":"f58cc4c7-5b67-4eef-b09a-6d2df91574f9","system_id":"levelo_inurba_marseille","lat":43.298891,"lon":5.38892,"is_reserved":false,"is_disabled":false,"rental_uris":{"android":"levelo://app?vid=f58cc4c7-5b67-4eef-b09a-6d2df91574f9","ios":"levelo://app?vid=f58cc4c7-5b67-4eef-b09a-6d2df91574f9"},"vehicle_type_id":"4","last_reported":1761416021,"current_range_meters":6800,"station_id":"ce4bh092rcd13ifvqd30","pricing_plan_id":"cebpf4jnsgd1na2vs0mg"},{"bike_id":"139d020b-78f9-452a-b9f6-07a4ecc161b4","system_id":"levelo_inurba_marseille","lat":43.24535,"lon":5.39518,"is_reserved":false,"is_disabled":false,"rental_uris":{"android":"levelo://app?vid=139d020b-78f9-452a-b9f6-07a4ecc161b4","ios":"levelo://app?vid=139d020b-78f9-452a-b9f6-07a4ecc161b4"},"vehicle_type_id":"4","last_reported":1761416021,"current_range_meters":6800,"station_id":"ce4bhlp2rcd13ifvqgjg","pricing_plan_id":"cebpf4jnsgd1na2vs0mg"},{"bike_id":"ae4fddc0-6f74-460c-b2fe-e96a368c74bf","system_id":"levelo_inurba_marseille","lat":43.3042,"lon":5.41265,"is_reserved":false,"is_disabled":false,"rental_uris":{"android":"levelo://app?vid=ae4fddc0-6f74-460c-b2fe-e96a368c74bf","ios":"levelo://app?vid=ae4fddc0-6f74-460c-b2fe-e96a368c74bf"},"vehicle_type_id":"4","last_reported":1761416021,"current_range_meters":7200,"station_id":"ce4bhop2rcd13ifvqh8g","pricing_plan_id":"cebpf4jnsgd1na2vs0mg"},{"bike_id":"53881f93-48f1-4312-8257-bcb02eb6b29c","system_id":"levelo_inurba_marseille","lat":43.262,"lon":5.39702,"is_reserved":false,"is_disabled":false,"rental_uris":{"android":"levelo://app?vid=53881f93-48f1-4312-8257-bcb02eb6b29c","ios":"levelo://app?vid=53881f93-48f1-4312-8257-bcb02eb6b29c"},"vehicle_type_id":"4","last_reported":1761416021,"current_range_meters":7200,"station_id":"","pricing_plan_id":"cebpf4jnsgd1na2vs0mg"},{"bike_id":"8be5d16d-10d8-4992-9fd8-347e09f85485","system_id":"levelo_inurba_marseille","lat":43.22928,"lon":5.35375,"is_reserved":false,"is_disabled":false,"rental_uris":{"android":"levelo://app?vid=8be5d16d-10d8-4992-9fd8-347e09f85485","ios":"levelo://app?vid=8be5d16d-10d8-4992-9fd8-347e09f85485"},"vehicle_type_id":"4","last_reported":1761416021,"current_range_meters":7200,"station_id":"cpo3532slgdg3j2ikp40","pricing_plan_id":"cebpf4jnsgd1na2vs0mg"},{"bike_id":"478a7703-feff-4904-acce-3c28e809f711","system_id":"levelo_inurba_marseille","lat":43.2903,"lon":5.38648,"is_reserved":false,"is_disabled":false,"rental_uris":{"android":"levelo://app?vid=478a7703-feff-4904-acce-3c28e809f711","ios":"levelo://app?vid=478a7703-feff-4904-acce-3c28e809f711"},"vehicle_type_id":"4","last_reported":1761416021,"current_range_meters":7200,"station_id":"ce4bh4p2rcd13ifvqe0g","pricing_plan_id":"cebpf4jnsgd1na2vs0mg"},{"bike_id":"ff7cc02c-d461-49e6-b8e8-a2633d8d2fe9","system_id":"levelo_inurba_marseille","lat":43.30421,"lon":5.39741,"is_reserved":false,"is_disabled":false,"rental_uris":{"android":"levelo://app?vid=ff7cc02c-d461-49e6-b8e8-a2633d8d2fe9","ios":"levelo://app?vid=ff7cc02c-d461-49e6-b8e8-a2633d8d2fe9"},"vehicle_type_id":"4","last_reported":1761416021,"current_range_meters":7200,"station_id":"ce4bh092rcd13ifvqd20","pricing_plan_id":"cebpf4jnsgd1na2vs0mg"},{"bike_id":"9d3dac32-fb10-4bb5-9912-444b5db347c2","system_id":"levelo_inurba_marseille","lat":43.27944,"lon":5.41049,"is_reserved":false,"is_disabled":false,"rental_uris":{"android":"levelo://app?vid=9d3dac32-fb10-4bb5-9912-444b5db347c2","ios":"levelo://app?vid=9d3dac32-fb10-4bb5-9912-444b5db347c2"},"vehicle_type_id":"4","last_reported":1761416021,"current_range_meters":7200,"station_id":"ce4bhnp2rcd13ifvqh0g","pricing_plan_id":"cebpf4jnsgd1na2vs0mg"},{"bike_id":"47cd28fe-28e1-4534-94f6-79244c04ed64","system_id":"levelo_inurba_marseille","lat":43.2439,"lon":5.37049,"is_reserved":false,"is_disabled":false,"rental_uris":{"android":"levelo://app?vid=47cd28fe-28e1-4534-94f6-79244c04ed64","ios":"levelo://app?vid=47cd28fe-28e1-4534-94f6-79244c04ed64"},"vehicle_type_id":"4","last_reported":1761416021,"current_range_meters":8000,"station_id":"ce4bhhh2rcd13ifvqfk0","pricing_plan_id":"cebpf4jnsgd1na2vs0mg"},{"bike_id":"26238955-5d6e-4c4d-adcf-5652d24a317f","system_id":"levelo_inurba_marseille","lat":43.28616,"lon":5.35101,"is_reserved":false,"is_disabled":false,"rental_uris":{"android":"levelo://app?vid=26238955-5d6e-4c4d-adcf-5652d24a317f","ios":"levelo://app?vid=26238955-5d6e-4c4d-adcf-5652d24a317f"},"vehicle_type_id":"4","last_reported":1761416021,"current_range_meters":8000,"station_id":"ce4bhch2rcd13ifvqeug","pricing_plan_id":"cebpf4jnsgd1na2vs0mg"},{"bike_id":"1eae06cd-85a9-4da6-bee8-b88f69bc1ef0","system_id":"levelo_inurba_marseille","lat":43.284558,"lon":5.35884,"is_reserved":false,"is_disabled":false,"rental_uris":{"android":"levelo://app?vid=1eae06cd-85a9-4da6-bee8-b88f69bc1ef0","ios":"levelo://app?vid=1eae06cd-85a9-4da6-bee8-b88f69bc1ef0"},"vehicle_type_id":"4","last_reported":1761416021,"current_range_meters":8000,"station_id":"ce4bhah2rcd13ifvqei0","pricing_plan_id":"cebpf4jnsgd1na2vs0mg"},{"bike_id":"6154dc34-f7b1-4ef5-be69-967de903b00b","system_id":"levelo_inurba_marseille","lat":43.237833,"lon":5.36644,"is_reserved":false,"is_disabled":false,"rental_uris":{"android":"levelo://app?vid=6154dc34-f7b1-4ef5-be69-967de903b00b","ios":"levelo://app?vid=6154dc34-f7b1-4ef5-be69-967de903b00b"},"vehicle_type_id":"4","last_reported":1761416021,"current_range_meters":8000,"station_id":"st_d3nk18o9ro0c73en2l3g","pricing_plan_id":"cebpf4jnsgd1na2vs0mg"},{"bike_id":"4a296afa-1a38-462e-a74c-004b14367763","system_id":"levelo_inurba_marseille","lat":43.2418,"lon":5.39739,"is_reserved":false,"is_disabled":false,"rental_uris":{"android":"levelo://app?vid=4a296afa-1a38-462e-a74c-004b14367763","ios":"levelo://app?vid=4a296afa-1a38-462e-a74c-004b14367763"},"vehicle_type_id":"4","last_reported":1761416021,"current_range_meters":8000,"station_id":"ce4bhn12rcd13ifvqgpg","pricing_plan_id":"cebpf4jnsgd1na2vs0mg"},{"bike_id":"f9f2f691-0d7d-4143-b899-adc8073802d9","system_id":"levelo_inurba_marseille","lat":43.28697,"lon":5.3741,"is_reserved":false,"is_disabled":true,"rental_uris":{"android":"levelo://app?vid=f9f2f691-0d7d-4143-b899-adc8073802d9","ios":"levelo://app?vid=f9f2f691-0d7d-4143-b899-adc8073802d9"},"vehicle_type_id":"4","last_reported":1761416021,"current_range_meters":8000,"station_id":"ce4bh3p2rcd13ifvqdq0","pricing_plan_id":"cebpf4jnsgd1na2vs0mg"},{"bike_id":"ac9d2983-1a57-4a8a-8c70-29d020bac898","system_id":"levelo_inurba_marseille","lat":43.3013,"lon":5.38771,"is_reserved":false,"is_disabled":false,"rental_uris":{"android":"levelo://app?vid=ac9d2983-1a57-4a8a-8c70-29d020bac898","ios":"levelo://app?vid=ac9d2983-1a57-4a8a-8c70-29d020bac898"},"vehicle_type_id":"4","last_reported":1761416021,"current_range_meters":8000,"station_id":"ce4bghh2rcd13ifvqb60","pricing_plan_id":"cebpf4jnsgd1na2vs0mg"},{"bike_id":"0e5f0ab2-1e88-4fda-b1b0-be8838281e60","system_id":"levelo_inurba_marseille","lat":43.31168,"lon":5.38716,"is_reserved":false,"is_disabled":false,"rental_uris":{"android":"levelo://app?vid=0e5f0ab2-1e88-4fda-b1b0-be8838281e60","ios":"levelo://app?vid=0e5f0ab2-1e88-4fda-b1b0-be8838281e60"},"vehicle_type_id":"4","last_reported":1761416021,"current_range_meters":8000,"station_id":"ce4bgv12rcd13ifvqcp0","pricing_plan_id":"cebpf4jnsgd1na2vs0mg"},{"bike_id":"e35e1247-2ec0-4206-a360-6aaa534a130f","system_id":"levelo_inurba_marseille","lat":43.28479,"lon":5.484,"is_reserved":false,"is_disabled":false,"rental_uris":{"android":"levelo://app?vid=e35e1247-2ec0-4206-a360-6aaa534a130f","ios":"levelo://app?vid=e35e1247-2ec0-4206-a360-6aaa534a130f"},"vehicle_type_id":"4","last_reported":1761416021,"current_range_meters":8000,"station_id":"st_d3svhcjqgbts73a3dn0g","pricing_plan_id":"cebpf4jnsgd1na2vs0mg"},{"bike_id":"5f9debc0-c360-4a2e-b517-592e9a0c2818","system_id":"levelo_inurba_marseille","lat":43.32955,"lon":5.42796,"is_reserved":false,"is_disabled":false,"rental_uris":{"android":"levelo://app?vid=5f9debc0-c360-4a2e-b517-592e9a0c2818","ios":"levelo://app?vid=5f9debc0-c360-4a2e-b517-592e9a0c2818"},"vehicle_type_id":"4","last_reported":1761416021,"current_range_meters":8400,"station_id":"","pricing_plan_id":"cebpf4jnsgd1na2vs0mg"},{"bike_id":"da254946-cbcb-4f8d-9950-cc37e5f275a0","system_id":"levelo_inurba_marseille","lat":43.29967,"lon":5.38498,"is_reserved":false,"is_disabled":false,"rental_uris":{"android":"levelo://app?vid=da254946-cbcb-4f8d-9950-cc37e5f275a0","ios":"levelo://app?vid=da254946-cbcb-4f8d-9950-cc37e5f275a0"},"vehicle_type_id":"4","last_reported":1761416021,"current_range_meters":8400,"station_id":"ce4bgj92rcd13ifvqbd0","pricing_plan_id":"cebpf4jnsgd1na2vs0mg"},{"bike_id":"1715b7da-9079-41a3-b081-02b46f1562f5","system_id":"levelo_inurba_marseille","lat":43.31484,"lon":5.37309,"is_reserved":false,"is_disabled":false,"rental_uris":{"android":"levelo://app?vid=1715b7da-9079-41a3-b081-02b46f1562f5","ios":"levelo://app?vid=1715b7da-9079-41a3-b081-02b46f1562f5"},"vehicle_type_id":"4","last_reported":1761416021,"current_range_meters":8400,"station_id":"ce4bgt12rcd13ifvqcd0","pricing_plan_id":"cebpf4jnsgd1na2vs0mg"},{"bike_id":"1b3cbc63-d8f3-42c8-a4e3-f3d40a61b5c2","system_id":"levelo_inurba_marseille","lat":43.29264,"lon":5.37617,"is_reserved":false,"is_disabled":false,"rental_uris":{"android":"levelo://app?vid=1b3cbc63-d8f3-42c8-a4e3-f3d40a61b5c2","ios":"levelo://app?vid=1b3cbc63-d8f3-42c8-a4e3-f3d40a61b5c2"},"vehicle_type_id":"4","last_reported":1761416021,"current_range_meters":8400,"station_id":"ce4bgi12rcd13ifvqb80","pricing_plan_id":"cebpf4jnsgd1na2vs0mg"},{"bike_id":"eb4a9f6b-2538-40fb-b947-8b321346eaa6","system_id":"levelo_inurba_marseille","lat":43.2929,"lon":5.37457,"is_reserved":false,"is_disabled":false,"rental_uris":{"android":"levelo://app?vid=eb4a9f6b-2538-40fb-b947-8b321346eaa6","ios":"levelo://app?vid=eb4a9f6b-2538-40fb-b947-8b321346eaa6"},"vehicle_type_id":"4","last_reported":1761416021,"current_range_meters":8400,"station_id":"ce4bgi12rcd13ifvqb70","pricing_plan_id":"cebpf4jnsgd1na2vs0mg"},{"bike_id":"91b07bac-e3a9-4e84-864b-63b2dad0df59","system_id":"levelo_inurba_marseille","lat":43.316909,"lon":5.404745,"is_reserved":false,"is_disabled":false,"rental_uris":{"android":"levelo://app?vid=91b07bac-e3a9-4e84-864b-63b2dad0df59","ios":"levelo://app?vid=91b07bac-e3a9-4e84-864b-63b2dad0df59"},"vehicle_type_id":"4","last_reported":1761416021,"current_range_meters":8400,"station_id":"ce4bh012rcd13ifvqd00","pricing_plan_id":"cebpf4jnsgd1na2vs0mg"},{"bike_id":"b4e2286f-e767-4f4e-93cc-a4e520a081c3","system_id":"levelo_inurba_marseille","lat":43.29605,"lon":5.3773,"is_reserved":false,"is_disabled":false,"rental_uris":{"android":"levelo://app?vid=b4e2286f-e767-4f4e-93cc-a4e520a081c3","ios":"levelo://app?vid=b4e2286f-e767-4f4e-93cc-a4e520a081c3"},"vehicle_type_id":"4","last_reported":1761416021,"current_range_meters":8800,"station_id":"ce4bgi92rcd13ifvqb90","pricing_plan_id":"cebpf4jnsgd1na2vs0mg"},{"bike_id":"38bae4b3-7406-494f-add6-18310d92b72a","system_id":"levelo_inurba_marseille","lat":43.23195,"lon":5.35538,"is_reserved":false,"is_disabled":false,"rental_uris":{"android":"levelo://app?vid=38bae4b3-7406-494f-add6-18310d92b72a","ios":"levelo://app?vid=38bae4b3-7406-494f-add6-18310d92b72a"},"vehicle_type_id":"4","last_reported":1761416021,"current_range_meters":8800,"station_id":"ce4bhu92rcd13ifvqi70","pricing_plan_id":"cebpf4jnsgd1na2vs0mg"},{"bike_id":"a300a8f7-8601-403a-a9a0-c21d76331e69","system_id":"levelo_inurba_marseille","lat":43.28485,"lon":5.38564,"is_reserved":false,"is_disabled":false,"rental_uris":{"android":"levelo://app?vid=a300a8f7-8601-403a-a9a0-c21d76331e69","ios":"levelo://app?vid=a300a8f7-8601-403a-a9a0-c21d76331e69"},"vehicle_type_id":"4","last_reported":1761416021,"current_range_meters":8800,"station_id":"ce4bh8p2rcd13ifvqeb0","pricing_plan_id":"cebpf4jnsgd1na2vs0mg"},{"bike_id":"fa063608-29c2-42ab-95b5-2fc82231eea9","system_id":"levelo_inurba_marseille","lat":43.21193,"lon":5.35072,"is_reserved":false,"is_disabled":true,"rental_uris":{"android":"levelo://app?vid=fa063608-29c2-42ab-95b5-2fc82231eea9","ios":"levelo://app?vid=fa063608-29c2-42ab-95b5-2fc82231eea9"},"vehicle_type_id":"4","last_reported":1761416021,"current_range_meters":8800,"station_id":"st_cvj6sg6p6f1abm77japg","pricing_plan_id":"cebpf4jnsgd1na2vs0mg"},{"bike_id":"197f73a4-d800-4b31-9153-1d695ae3668b","system_id":"levelo_inurba_marseille","lat":43.31441,"lon":5.3931,"is_reserved":false,"is_disabled":false,"rental_uris":{"android":"levelo://app?vid=197f73a4-d800-4b31-9153-1d695ae3668b","ios":"levelo://app?vid=197f73a4-d800-4b31-9153-1d695ae3668b"},"vehicle_type_id":"4","last_reported":1761416021,"current_range_meters":8800,"station_id":"","pricing_plan_id":"cebpf4jnsgd1na2vs0mg"},{"bike_id":"04150bf7-fb7b-4687-a83a-71094e69a17d","system_id":"levelo_inurba_marseille","lat":43.2916,"lon":5.37159,"is_reserved":false,"is_disabled":false,"rental_uris":{"android":"levelo://app?vid=04150bf7-fb7b-4687-a83a-71094e69a17d","ios":"levelo://app?vid=04150bf7-fb7b-4687-a83a-71094e69a17d"},"vehicle_type_id":"4","last_reported":1761416021,"current_range_meters":9200,"station_id":"ce4bha92rcd13ifvqeh0","pricing_plan_id":"cebpf4jnsgd1na2vs0mg"},{"bike_id":"eb8f1097-9ea9-4dc4-9675-2dbbbd562dba","system_id":"levelo_inurba_marseille","lat":43.29796,"lon":5.39343,"is_reserved":false,"is_disabled":false,"rental_uris":{"android":"levelo://app?vid=eb8f1097-9ea9-4dc4-9675-2dbbbd562dba","ios":"levelo://app?vid=eb8f1097-9ea9-4dc4-9675-2dbbbd562dba"},"vehicle_type_id":"4","last_reported":1761416021,"current_range_meters":9200,"station_id":"chh1huq6cuj3fo74tm60","pricing_plan_id":"cebpf4jnsgd1na2vs0mg"},{"bike_id":"ad743f6e-52b6-4f49-ab76-4611c849d746","system_id":"levelo_inurba_marseille","lat":43.24649,"lon":5.38896,"is_reserved":false,"is_disabled":false,"rental_uris":{"android":"levelo://app?vid=ad743f6e-52b6-4f49-ab76-4611c849d746","ios":"levelo://app?vid=ad743f6e-52b6-4f49-ab76-4611c849d746"},"vehicle_type_id":"4","last_reported":1761416021,"current_range_meters":9200,"station_id":"ce4bhg12rcd13ifvqf60","pricing_plan_id":"cebpf4jnsgd1na2vs0mg"},{"bike_id":"9f436cb7-721e-4731-bad0-d233774195a3","system_id":"levelo_inurba_marseille","lat":43.27997,"lon":5.40016,"is_reserved":false,"is_disabled":false,"rental_uris":{"android":"levelo://app?vid=9f436cb7-721e-4731-bad0-d233774195a3","ios":"levelo://app?vid=9f436cb7-721e-4731-bad0-d233774195a3"},"vehicle_type_id":"4","last_reported":1761416021,"current_range_meters":9200,"station_id":"ce4bho92rcd13ifvqh4g","pricing_plan_id":"cebpf4jnsgd1na2vs0mg"},{"bike_id":"6398fd05-47e5-41f8-95bf-116d17d1d757","system_id":"levelo_inurba_marseille","lat":43.292603,"lon":5.384447,"is_reserved":false,"is_disabled":false,"rental_uris":{"android":"levelo://app?vid=6398fd05-47e5-41f8-95bf-116d17d1d757","ios":"levelo://app?vid=6398fd05-47e5-41f8-95bf-116d17d1d757"},"vehicle_type_id":"4","last_reported":1761416021,"current_range_meters":9200,"station_id":"","pricing_plan_id":"cebpf4jnsgd1na2vs0mg"},{"bike_id":"4f5c5045-2f2c-4ab7-ad8b-eeba1d52fe66","system_id":"levelo_inurba_marseille","lat":43.29602,"lon":5.36594,"is_reserved":false,"is_disabled":false,"rental_uris":{"android":"levelo://app?vid=4f5c5045-2f2c-4ab7-ad8b-eeba1d52fe66","ios":"levelo://app?vid=4f5c5045-2f2c-4ab7-ad8b-eeba1d52fe66"},"vehicle_type_id":"4","last_reported":1761416021,"current_range_meters":9200,"station_id":"","pricing_plan_id":"cebpf4jnsgd1na2vs0mg"},{"bike_id":"30404112-9744-4f52-8052-52243c394114","system_id":"levelo_inurba_marseille","lat":43.293057,"lon":5.371697,"is_reserved":false,"is_disabled":false,"rental_uris":{"android":"levelo://app?vid=30404112-9744-4f52-8052-52243c394114","ios":"levelo://app?vid=30404112-9744-4f52-8052-52243c394114"},"vehicle_type_id":"4","last_reported":1761416021,"current_range_meters":9200,"station_id":"ce4bgh92rcd13ifvqb40","pricing_plan_id":"cebpf4jnsgd1na2vs0mg"},{"bike_id":"de834acc-60a5-45e2-88dc-1f82980c376e","system_id":"levelo_inurba_marseille","lat":43.292755,"lon":5.401139,"is_reserved":false,"is_disabled":false,"rental_uris":{"android":"levelo://app?vid=de834acc-60a5-45e2-88dc-1f82980c376e","ios":"levelo://app?vid=de834acc-60a5-45e2-88dc-1f82980c376e"},"vehicle_type_id":"4","last_reported":1761416021,"current_range_meters":9200,"station_id":"ce4bh312rcd13ifvqdk0","pricing_plan_id":"cebpf4jnsgd1na2vs0mg"},{"bike_id":"c9a95a9a-432a-4aae-b113-29d1eef801b3","system_id":"levelo_inurba_marseille","lat":43.26211,"lon":5.37437,"is_reserved":false,"is_disabled":false,"rental_uris":{"android":"levelo://app?vid=c9a95a9a-432a-4aae-b113-29d1eef801b3","ios":"levelo://app?vid=c9a95a9a-432a-4aae-b113-29d1eef801b3"},"vehicle_type_id":"4","last_reported":1761416021,"current_range_meters":9600,"station_id":"ce4bhgp2rcd13ifvqfc0","pricing_plan_id":"cebpf4jnsgd1na2vs0mg"},{"bike_id":"e94f57f2-601c-4cad-a187-6e953770aa25","system_id":"levelo_inurba_marseille","lat":43.31203,"lon":5.37859,"is_reserved":false,"is_disabled":false,"rental_uris":{"android":"levelo://app?vid=e94f57f2-601c-4cad-a187-6e953770aa25","ios":"levelo://app?vid=e94f57f2-601c-4cad-a187-6e953770aa25"},"vehicle_type_id":"4","last_reported":1761416021,"current_range_meters":9600,"station_id":"","pricing_plan_id":"cebpf4jnsgd1na2vs0mg"},{"bike_id":"67edc04a-667c-446f-983c-f0dfe3f0ac76","system_id":"levelo_inurba_marseille","lat":43.23957,"lon":5.36639,"is_reserved":false,"is_disabled":false,"rental_uris":{"android":"levelo://app?vid=67edc04a-667c-446f-983c-f0dfe3f0ac76","ios":"levelo://app?vid=67edc04a-667c-446f-983c-f0dfe3f0ac76"},"vehicle_type_id":"4","last_reported":1761416021,"current_range_meters":9600,"station_id":"ce4bhi12rcd13ifvqfp0","pricing_plan_id":"cebpf4jnsgd1na2vs0mg"},{"bike_id":"30655af7-ecbd-4611-8f88-3bfef2c2c113","system_id":"levelo_inurba_marseille","lat":43.29318,"lon":5.37149,"is_reserved":false,"is_disabled":false,"rental_uris":{"android":"levelo://app?vid=30655af7-ecbd-4611-8f88-3bfef2c2c113","ios":"levelo://app?vid=30655af7-ecbd-4611-8f88-3bfef2c2c113"},"vehicle_type_id":"4","last_reported":1761416021,"current_range_meters":9600,"station_id":"ce4bgh92rcd13ifvqb40","pricing_plan_id":"cebpf4jnsgd1na2vs0mg"},{"bike_id":"c69d4c2d-625b-473b-af89-aa65c5f14748","system_id":"levelo_inurba_marseille","lat":43.27496,"lon":5.42446,"is_reserved":false,"is_disabled":false,"rental_uris":{"android":"levelo://app?vid=c69d4c2d-625b-473b-af89-aa65c5f14748","ios":"levelo://app?vid=c69d4c2d-625b-473b-af89-aa65c5f14748"},"vehicle_type_id":"4","last_reported":1761416021,"current_range_meters":9600,"station_id":"ce4bhn92rcd13ifvqgrg","pricing_plan_id":"cebpf4jnsgd1na2vs0mg"},{"bike_id":"a35a4922-b803-4cd9-8623-7e895c294787","system_id":"levelo_inurba_marseille","lat":43.29786,"lon":5.3826,"is_reserved":false,"is_disabled":true,"rental_uris":{"android":"levelo://app?vid=a35a4922-b803-4cd9-8623-7e895c294787","ios":"levelo://app?vid=a35a4922-b803-4cd9-8623-7e895c294787"},"vehicle_type_id":"4","last_reported":1761416021,"current_range_meters":9600,"station_id":"","pricing_plan_id":"cebpf4jnsgd1na2vs0mg"},{"bike_id":"8a9dcadb-6b98-43ba-bd32-f4bf4fc12fed","system_id":"levelo_inurba_marseille","lat":43.29512,"lon":5.39412,"is_reserved":false,"is_disabled":false,"rental_uris":{"android":"levelo://app?vid=8a9dcadb-6b98-43ba-bd32-f4bf4fc12fed","ios":"levelo://app?vid=8a9dcadb-6b98-43ba-bd32-f4bf4fc12fed"},"vehicle_type_id":"4","last_reported":1761416021,"current_range_meters":9600,"station_id":"ce4bh292rcd13ifvqdf0","pricing_plan_id":"cebpf4jnsgd1na2vs0mg"},{"bike_id":"73464a90-7ed8-4c72-9b02-e98c34ed94db","system_id":"levelo_inurba_marseille","lat":43.30891,"lon":5.39662,"is_reserved":false,"is_disabled":false,"rental_uris":{"android":"levelo://app?vid=73464a90-7ed8-4c72-9b02-e98c34ed94db","ios":"levelo://app?vid=73464a90-7ed8-4c72-9b02-e98c34ed94db"},"vehicle_type_id":"4","last_reported":1761416021,"current_range_meters":9600,"station_id":"ce4bh012rcd13ifvqcv0","pricing_plan_id":"cebpf4jnsgd1na2vs0mg"},{"bike_id":"df12db7f-d06b-4f32-9106-0cee53886db0","system_id":"levelo_inurba_marseille","lat":43.31582,"lon":5.38781,"is_reserved":false,"is_disabled":false,"rental_uris":{"android":"levelo://app?vid=df12db7f-d06b-4f32-9106-0cee53886db0","ios":"levelo://app?vid=df12db7f-d06b-4f32-9106-0cee53886db0"},"vehicle_type_id":"4","last_reported":1761416021,"current_range_meters":9600,"station_id":"","pricing_plan_id":"cebpf4jnsgd1na2vs0mg"},{"bike_id":"1678f499-056c-43ac-8626-0a8fe1798a70","system_id":"levelo_inurba_marseille","lat":43.30589,"lon":5.37234,"is_reserved":false,"is_disabled":false,"rental_uris":{"android":"levelo://app?vid=1678f499-056c-43ac-8626-0a8fe1798a70","ios":"levelo://app?vid=1678f499-056c-43ac-8626-0a8fe1798a70"},"vehicle_type_id":"4","last_reported":1761416021,"current_range_meters":10000,"station_id":"ce4bgqh2rcd13ifvqc4g","pricing_plan_id":"cebpf4jnsgd1na2vs0mg"},{"bike_id":"2e49cc06-4603-4213-b022-9f8c6e253d24","system_id":"levelo_inurba_marseille","lat":43.301332,"lon":5.380752,"is_reserved":false,"is_disabled":false,"rental_uris":{"android":"levelo://app?vid=2e49cc06-4603-4213-b022-9f8c6e253d24","ios":"levelo://app?vid=2e49cc06-4603-4213-b022-9f8c6e253d24"},"vehicle_type_id":"4","last_reported":1761416021,"current_range_meters":10800,"station_id":"ce4bgjp2rcd13ifvqbh0","pricing_plan_id":"cebpf4jnsgd1na2vs0mg"},{"bike_id":"53159dd3-0584-4bf2-8811-c264770f3d56","system_id":"levelo_inurba_marseille","lat":43.295177,"lon":5.39038,"is_reserved":false,"is_disabled":false,"rental_uris":{"android":"levelo://app?vid=53159dd3-0584-4bf2-8811-c264770f3d56","ios":"levelo://app?vid=53159dd3-0584-4bf2-8811-c264770f3d56"},"vehicle_type_id":"4","last_reported":1761416021,"current_range_meters":10800,"station_id":"ce4bh3p2rcd13ifvqdp0","pricing_plan_id":"cebpf4jnsgd1na2vs0mg"},{"bike_id":"6225d49f-369d-4b61-bf0f-8aa76ae14ec9","system_id":"levelo_inurba_marseille","lat":43.262004,"lon":5.374468,"is_reserved":false,"is_disabled":false,"rental_uris":{"android":"levelo://app?vid=6225d49f-369d-4b61-bf0f-8aa76ae14ec9","ios":"levelo://app?vid=6225d49f-369d-4b61-bf0f-8aa76ae14ec9"},"vehicle_type_id":"4","last_reported":1761416021,"current_range_meters":10800,"station_id":"ce4bhgp2rcd13ifvqfc0","pricing_plan_id":"cebpf4jnsgd1na2vs0mg"},{"bike_id":"9d964ec4-c537-4f1d-b21c-451d3f46b1bf","system_id":"levelo_inurba_marseille","lat":43.29899,"lon":5.37835,"is_reserved":false,"is_disabled":false,"rental_uris":{"android":"levelo://app?vid=9d964ec4-c537-4f1d-b21c-451d3f46b1bf","ios":"levelo://app?vid=9d964ec4-c537-4f1d-b21c-451d3f46b1bf"},"vehicle_type_id":"4","last_reported":1761416021,"current_range_meters":10800,"station_id":"","pricing_plan_id":"cebpf4jnsgd1na2vs0mg"},{"bike_id":"41f3b2c6-c607-46f7-97fb-5ac71a087a64","system_id":"levelo_inurba_marseille","lat":43.24065,"lon":5.37775,"is_reserved":false,"is_disabled":false,"rental_uris":{"android":"levelo://app?vid=41f3b2c6-c607-46f7-97fb-5ac71a087a64","ios":"levelo://app?vid=41f3b2c6-c607-46f7-97fb-5ac71a087a64"},"vehicle_type_id":"4","last_reported":1761416021,"current_range_meters":11200,"station_id":"ce4bhnp2rcd13ifvqgvg","pricing_plan_id":"cebpf4jnsgd1na2vs0mg"},{"bike_id":"420b6971-47e2-4c67-8bd0-faa4f00e5ca7","system_id":"levelo_inurba_marseille","lat":43.29983,"lon":5.41356,"is_reserved":false,"is_disabled":false,"rental_uris":{"android":"levelo://app?vid=420b6971-47e2-4c67-8bd0-faa4f00e5ca7","ios":"levelo://app?vid=420b6971-47e2-4c67-8bd0-faa4f00e5ca7"},"vehicle_type_id":"4","last_reported":1761416021,"current_range_meters":11200,"station_id":"ce4bhp12rcd13ifvqh9g","pricing_plan_id":"cebpf4jnsgd1na2vs0mg"},{"bike_id":"0ed597ef-1743-48ef-be80-755f9ef038ed","system_id":"levelo_inurba_marseille","lat":43.285377,"lon":5.441022,"is_reserved":false,"is_disabled":false,"rental_uris":{"android":"levelo://app?vid=0ed597ef-1743-48ef-be80-755f9ef038ed","ios":"levelo://app?vid=0ed597ef-1743-48ef-be80-755f9ef038ed"},"vehicle_type_id":"4","last_reported":1761416021,"current_range_meters":11200,"station_id":"st_d3j3df2ikq2c7380ej80","pricing_plan_id":"cebpf4jnsgd1na2vs0mg"},{"bike_id":"c973b2d7-503e-4eb2-bf4a-4af00d3f7fc0","system_id":"levelo_inurba_marseille","lat":43.2927,"lon":5.38442,"is_reserved":false,"is_disabled":false,"rental_uris":{"android":"levelo://app?vid=c973b2d7-503e-4eb2-bf4a-4af00d3f7fc0","ios":"levelo://app?vid=c973b2d7-503e-4eb2-bf4a-4af00d3f7fc0"},"vehicle_type_id":"4","last_reported":1761416021,"current_range_meters":11200,"station_id":"ce4bh692rcd13ifvqea0","pricing_plan_id":"cebpf4jnsgd1na2vs0mg"},{"bike_id":"bd7bd769-a75b-46e8-a4f3-9ce7977ed504","system_id":"levelo_inurba_marseille","lat":43.25327,"lon":5.42178,"is_reserved":false,"is_disabled":false,"rental_uris":{"android":"levelo://app?vid=bd7bd769-a75b-46e8-a4f3-9ce7977ed504","ios":"levelo://app?vid=bd7bd769-a75b-46e8-a4f3-9ce7977ed504"},"vehicle_type_id":"4","last_reported":1761416021,"current_range_meters":11200,"station_id":"st_d2m65c5bi1j21697t3ng","pricing_plan_id":"cebpf4jnsgd1na2vs0mg"},{"bike_id":"0b3b3ec3-e80b-4827-bf61-9ec4a2897b6f","system_id":"levelo_inurba_marseille","lat":43.29785,"lon":5.39342,"is_reserved":false,"is_disabled":false,"rental_uris":{"android":"levelo://app?vid=0b3b3ec3-e80b-4827-bf61-9ec4a2897b6f","ios":"levelo://app?vid=0b3b3ec3-e80b-4827-bf61-9ec4a2897b6f"},"vehicle_type_id":"4","last_reported":1761416021,"current_range_meters":11200,"station_id":"chh1huq6cuj3fo74tm60","pricing_plan_id":"cebpf4jnsgd1na2vs0mg"},{"bike_id":"6cbd7816-28a4-42be-9217-87a8a0815430","system_id":"levelo_inurba_marseille","lat":43.33724,"lon":5.39184,"is_reserved":false,"is_disabled":false,"rental_uris":{"android":"levelo://app?vid=6cbd7816-28a4-42be-9217-87a8a0815430","ios":"levelo://app?vid=6cbd7816-28a4-42be-9217-87a8a0815430"},"vehicle_type_id":"4","last_reported":1761416021,"current_range_meters":11200,"station_id":"ce4bhr92rcd13ifvqhsg","pricing_plan_id":"cebpf4jnsgd1na2vs0mg"},{"bike_id":"09152783-dcac-4e04-8343-6088889252ac","system_id":"levelo_inurba_marseille","lat":43.28616,"lon":5.35107,"is_reserved":false,"is_disabled":false,"rental_uris":{"android":"levelo://app?vid=09152783-dcac-4e04-8343-6088889252ac","ios":"levelo://app?vid=09152783-dcac-4e04-8343-6088889252ac"},"vehicle_type_id":"4","last_reported":1761416021,"current_range_meters":11600,"station_id":"ce4bhch2rcd13ifvqeug","pricing_plan_id":"cebpf4jnsgd1na2vs0mg"},{"bike_id":"cba5d2ea-1f48-49bd-8983-f8435d400450","system_id":"levelo_inurba_marseille","lat":43.29596,"lon":5.38096,"is_reserved":false,"is_disabled":false,"rental_uris":{"android":"levelo://app?vid=cba5d2ea-1f48-49bd-8983-f8435d400450","ios":"levelo://app?vid=cba5d2ea-1f48-49bd-8983-f8435d400450"},"vehicle_type_id":"4","last_reported":1761416021,"current_range_meters":11600,"station_id":"ce4bgl12rcd13ifvqbo0","pricing_plan_id":"cebpf4jnsgd1na2vs0mg"},{"bike_id":"41ab9bf0-8829-4453-a73b-304be23bc0da","system_id":"levelo_inurba_marseille","lat":43.25003,"lon":5.38925,"is_reserved":false,"is_disabled":false,"rental_uris":{"android":"levelo://app?vid=41ab9bf0-8829-4453-a73b-304be23bc0da","ios":"levelo://app?vid=41ab9bf0-8829-4453-a73b-304be23bc0da"},"vehicle_type_id":"4","last_reported":1761416021,"current_range_meters":11600,"station_id":"ce4bhgp2rcd13ifvqfd0","pricing_plan_id":"cebpf4jnsgd1na2vs0mg"},{"bike_id":"8be6a47c-9542-4fed-8109-f6d91a0f2b3f","system_id":"levelo_inurba_marseille","lat":43.29174,"lon":5.37161,"is_reserved":false,"is_disabled":false,"rental_uris":{"android":"levelo://app?vid=8be6a47c-9542-4fed-8109-f6d91a0f2b3f","ios":"levelo://app?vid=8be6a47c-9542-4fed-8109-f6d91a0f2b3f"},"vehicle_type_id":"4","last_reported":1761416021,"current_range_meters":11600,"station_id":"ce4bha92rcd13ifvqeh0","pricing_plan_id":"cebpf4jnsgd1na2vs0mg"},{"bike_id":"95084a13-05a7-48c8-9079-2704c9c101ac","system_id":"levelo_inurba_marseille","lat":43.24077,"lon":5.37759,"is_reserved":false,"is_disabled":false,"rental_uris":{"android":"levelo://app?vid=95084a13-05a7-48c8-9079-2704c9c101ac","ios":"levelo://app?vid=95084a13-05a7-48c8-9079-2704c9c101ac"},"vehicle_type_id":"4","last_reported":1761416021,"current_range_meters":11600,"station_id":"ce4bhnp2rcd13ifvqgvg","pricing_plan_id":"cebpf4jnsgd1na2vs0mg"},{"bike_id":"f586fbf3-d466-4f04-b6e4-e8e9b5c58a1c","system_id":"levelo_inurba_marseille","lat":43.33723,"lon":5.39187,"is_reserved":false,"is_disabled":false,"rental_uris":{"android":"levelo://app?vid=f586fbf3-d466-4f04-b6e4-e8e9b5c58a1c","ios":"levelo://app?vid=f586fbf3-d466-4f04-b6e4-e8e9b5c58a1c"},"vehicle_type_id":"4","last_reported":1761416021,"current_range_meters":12000,"station_id":"ce4bhr92rcd13ifvqhsg","pricing_plan_id":"cebpf4jnsgd1na2vs0mg"},{"bike_id":"6e657b51-8f8f-416e-8282-e3166f038ce2","system_id":"levelo_inurba_marseille","lat":43.28107,"lon":5.37844,"is_reserved":false,"is_disabled":false,"rental_uris":{"android":"levelo://app?vid=6e657b51-8f8f-416e-8282-e3166f038ce2","ios":"levelo://app?vid=6e657b51-8f8f-416e-8282-e3166f038ce2"},"vehicle_type_id":"4","last_reported":1761416021,"current_range_meters":12000,"station_id":"ce4bha12rcd13ifvqee0","pricing_plan_id":"cebpf4jnsgd1na2vs0mg"},{"bike_id":"bb09cb0b-c8b9-4944-b922-31c454d040ed","system_id":"levelo_inurba_marseille","lat":43.299111,"lon":5.381322,"is_reserved":false,"is_disabled":true,"rental_uris":{"android":"levelo://app?vid=bb09cb0b-c8b9-4944-b922-31c454d040ed","ios":"levelo://app?vid=bb09cb0b-c8b9-4944-b922-31c454d040ed"},"vehicle_type_id":"4","last_reported":1761416021,"current_range_meters":12400,"station_id":"ce4bh3p2rcd13ifvqdq0","pricing_plan_id":"cebpf4jnsgd1na2vs0mg"},{"bike_id":"43117888-69d1-4bc6-a73a-697554e4a08e","system_id":"levelo_inurba_marseille","lat":43.252549,"lon":5.378074,"is_reserved":false,"is_disabled":false,"rental_uris":{"android":"levelo://app?vid=43117888-69d1-4bc6-a73a-697554e4a08e","ios":"levelo://app?vid=43117888-69d1-4bc6-a73a-697554e4a08e"},"vehicle_type_id":"4","last_reported":1761416021,"current_range_meters":12400,"station_id":"","pricing_plan_id":"cebpf4jnsgd1na2vs0mg"},{"bike_id":"cf7e0676-3ff3-493c-b559-ca899d2d56ee","system_id":"levelo_inurba_marseille","lat":43.30213,"lon":5.39463,"is_reserved":false,"is_disabled":false,"rental_uris":{"android":"levelo://app?vid=cf7e0676-3ff3-493c-b559-ca899d2d56ee","ios":"levelo://app?vid=cf7e0676-3ff3-493c-b559-ca899d2d56ee"},"vehicle_type_id":"4","last_reported":1761416021,"current_range_meters":12400,"station_id":"ce4bh0p2rcd13ifvqd70","pricing_plan_id":"cebpf4jnsgd1na2vs0mg"},{"bike_id":"528fba4e-15f0-4fc5-9a00-d0e75a8a45b7","system_id":"levelo_inurba_marseille","lat":43.26214,"lon":5.37442,"is_reserved":false,"is_disabled":false,"rental_uris":{"android":"levelo://app?vid=528fba4e-15f0-4fc5-9a00-d0e75a8a45b7","ios":"levelo://app?vid=528fba4e-15f0-4fc5-9a00-d0e75a8a45b7"},"vehicle_type_id":"4","last_reported":1761416021,"current_range_meters":12400,"station_id":"ce4bhgp2rcd13ifvqfc0","pricing_plan_id":"cebpf4jnsgd1na2vs0mg"},{"bike_id":"8e92164c-deff-4fbd-9f4e-43ff81933572","system_id":"levelo_inurba_marseille","lat":43.29827,"lon":5.42027,"is_reserved":false,"is_disabled":false,"rental_uris":{"android":"levelo://app?vid=8e92164c-deff-4fbd-9f4e-43ff81933572","ios":"levelo://app?vid=8e92164c-deff-4fbd-9f4e-43ff81933572"},"vehicle_type_id":"4","last_reported":1761416021,"current_range_meters":12400,"station_id":"","pricing_plan_id":"cebpf4jnsgd1na2vs0mg"},{"bike_id":"cd26ab16-3e3e-43ea-a563-05ea7a953084","system_id":"levelo_inurba_marseille","lat":43.3114,"lon":5.36762,"is_reserved":false,"is_disabled":false,"rental_uris":{"android":"levelo://app?vid=cd26ab16-3e3e-43ea-a563-05ea7a953084","ios":"levelo://app?vid=cd26ab16-3e3e-43ea-a563-05ea7a953084"},"vehicle_type_id":"4","last_reported":1761416021,"current_range_meters":12400,"station_id":"","pricing_plan_id":"cebpf4jnsgd1na2vs0mg"},{"bike_id":"dab36927-4328-48fa-bffb-145a737de07e","system_id":"levelo_inurba_marseille","lat":43.30801,"lon":5.43525,"is_reserved":false,"is_disabled":true,"rental_uris":{"android":"levelo://app?vid=dab36927-4328-48fa-bffb-145a737de07e","ios":"levelo://app?vid=dab36927-4328-48fa-bffb-145a737de07e"},"vehicle_type_id":"4","last_reported":1761416021,"current_range_meters":12800,"station_id":"ce4bhph2rcd13ifvqheg","pricing_plan_id":"cebpf4jnsgd1na2vs0mg"},{"bike_id":"79fb7be8-ec9c-47d7-93c3-28235a355420","system_id":"levelo_inurba_marseille","lat":43.31754,"lon":5.3902,"is_reserved":false,"is_disabled":false,"rental_uris":{"android":"levelo://app?vid=79fb7be8-ec9c-47d7-93c3-28235a355420","ios":"levelo://app?vid=79fb7be8-ec9c-47d7-93c3-28235a355420"},"vehicle_type_id":"4","last_reported":1761416021,"current_range_meters":12800,"station_id":"ce4bhqp2rcd13ifvqhng","pricing_plan_id":"cebpf4jnsgd1na2vs0mg"},{"bike_id":"ce925caa-5533-421c-b452-9c19cb2fc38f","system_id":"levelo_inurba_marseille","lat":43.28423,"lon":5.34972,"is_reserved":false,"is_disabled":false,"rental_uris":{"android":"levelo://app?vid=ce925caa-5533-421c-b452-9c19cb2fc38f","ios":"levelo://app?vid=ce925caa-5533-421c-b452-9c19cb2fc38f"},"vehicle_type_id":"4","last_reported":1761416021,"current_range_meters":12800,"station_id":"ce4bhbh2rcd13ifvqepg","pricing_plan_id":"cebpf4jnsgd1na2vs0mg"},{"bike_id":"23d9a264-ed6d-4220-a6d6-7b4ba3436d7f","system_id":"levelo_inurba_marseille","lat":43.28102,"lon":5.37848,"is_reserved":false,"is_disabled":false,"rental_uris":{"android":"levelo://app?vid=23d9a264-ed6d-4220-a6d6-7b4ba3436d7f","ios":"levelo://app?vid=23d9a264-ed6d-4220-a6d6-7b4ba3436d7f"},"vehicle_type_id":"4","last_reported":1761416021,"current_range_meters":12800,"station_id":"ce4bha12rcd13ifvqee0","pricing_plan_id":"cebpf4jnsgd1na2vs0mg"},{"bike_id":"064c2e43-9b23-4392-8a18-c9c47a11496f","system_id":"levelo_inurba_marseille","lat":43.2848,"lon":5.38425,"is_reserved":false,"is_disabled":false,"rental_uris":{"android":"levelo://app?vid=064c2e43-9b23-4392-8a18-c9c47a11496f","ios":"levelo://app?vid=064c2e43-9b23-4392-8a18-c9c47a11496f"},"vehicle_type_id":"4","last_reported":1761416021,"current_range_meters":13600,"station_id":"ce4bh512rcd13ifvqe3g","pricing_plan_id":"cebpf4jnsgd1na2vs0mg"},{"bike_id":"5b91766d-91d0-4602-8be6-6a369c10831e","system_id":"levelo_inurba_marseille","lat":43.23778,"lon":5.36629,"is_reserved":false,"is_disabled":false,"rental_uris":{"android":"levelo://app?vid=5b91766d-91d0-4602-8be6-6a369c10831e","ios":"levelo://app?vid=5b91766d-91d0-4602-8be6-6a369c10831e"},"vehicle_type_id":"4","last_reported":1761416021,"current_range_meters":13600,"station_id":"st_d3nk18o9ro0c73en2l3g","pricing_plan_id":"cebpf4jnsgd1na2vs0mg"},{"bike_id":"5a9cab6f-1980-4d76-be37-677b3c7025de","system_id":"levelo_inurba_marseille","lat":43.30128,"lon":5.398607,"is_reserved":false,"is_disabled":false,"rental_uris":{"android":"levelo://app?vid=5a9cab6f-1980-4d76-be37-677b3c7025de","ios":"levelo://app?vid=5a9cab6f-1980-4d76-be37-677b3c7025de"},"vehicle_type_id":"4","last_reported":1761416021,"current_range_meters":13600,"station_id":"ce4bh0h2rcd13ifvqd40","pricing_plan_id":"cebpf4jnsgd1na2vs0mg"},{"bike_id":"bd1cf25a-484a-47f9-a8c0-9861aa4ae758","system_id":"levelo_inurba_marseille","lat":43.24666,"lon":5.38163,"is_reserved":false,"is_disabled":false,"rental_uris":{"android":"levelo://app?vid=bd1cf25a-484a-47f9-a8c0-9861aa4ae758","ios":"levelo://app?vid=bd1cf25a-484a-47f9-a8c0-9861aa4ae758"},"vehicle_type_id":"4","last_reported":1761416021,"current_range_meters":13600,"station_id":"ce4bhih2rcd13ifvqfr0","pricing_plan_id":"cebpf4jnsgd1na2vs0mg"},{"bike_id":"5efc625c-9865-48a8-b0e0-abc303a83004","system_id":"levelo_inurba_marseille","lat":43.29811,"lon":5.38083,"is_reserved":false,"is_disabled":false,"rental_uris":{"android":"levelo://app?vid=5efc625c-9865-48a8-b0e0-abc303a83004","ios":"levelo://app?vid=5efc625c-9865-48a8-b0e0-abc303a83004"},"vehicle_type_id":"4","last_reported":1761416021,"current_range_meters":13600,"station_id":"ce4bgip2rcd13ifvqbb0","pricing_plan_id":"cebpf4jnsgd1na2vs0mg"},{"bike_id":"52cc822f-d815-4aa7-9109-f69dbe32103d","system_id":"levelo_inurba_marseille","lat":43.29265,"lon":5.38451,"is_reserved":false,"is_disabled":false,"rental_uris":{"android":"levelo://app?vid=52cc822f-d815-4aa7-9109-f69dbe32103d","ios":"levelo://app?vid=52cc822f-d815-4aa7-9109-f69dbe32103d"},"vehicle_type_id":"4","last_reported":1761416021,"current_range_meters":13600,"station_id":"ce4bh692rcd13ifvqea0","pricing_plan_id":"cebpf4jnsgd1na2vs0mg"},{"bike_id":"8c35a7e4-8378-4fdf-b42f-02e88b6199ca","system_id":"levelo_inurba_marseille","lat":43.32121,"lon":5.36766,"is_reserved":false,"is_disabled":false,"rental_uris":{"android":"levelo://app?vid=8c35a7e4-8378-4fdf-b42f-02e88b6199ca","ios":"levelo://app?vid=8c35a7e4-8378-4fdf-b42f-02e88b6199ca"},"vehicle_type_id":"4","last_reported":1761416021,"current_range_meters":13600,"station_id":"ce4bhrh2rcd13ifvqhug","pricing_plan_id":"cebpf4jnsgd1na2vs0mg"},{"bike_id":"ea451013-7326-4e7f-a478-90ef18eee2b0","system_id":"levelo_inurba_marseille","lat":43.31797,"lon":5.40423,"is_reserved":false,"is_disabled":false,"rental_uris":{"android":"levelo://app?vid=ea451013-7326-4e7f-a478-90ef18eee2b0","ios":"levelo://app?vid=ea451013-7326-4e7f-a478-90ef18eee2b0"},"vehicle_type_id":"4","last_reported":1761416021,"current_range_meters":13600,"station_id":"","pricing_plan_id":"cebpf4jnsgd1na2vs0mg"},{"bike_id":"07c5f6f8-eb39-4207-819b-ff5fa443c777","system_id":"levelo_inurba_marseille","lat":43.290344,"lon":5.375675,"is_reserved":false,"is_disabled":false,"rental_uris":{"android":"levelo://app?vid=07c5f6f8-eb39-4207-819b-ff5fa443c777","ios":"levelo://app?vid=07c5f6f8-eb39-4207-819b-ff5fa443c777"},"vehicle_type_id":"4","last_reported":1761416021,"current_range_meters":13600,"station_id":"ce4bh692rcd13ifvqe90","pricing_plan_id":"cebpf4jnsgd1na2vs0mg"},{"bike_id":"79d0da37-84bd-47cc-8f16-7c1b2b586f49","system_id":"levelo_inurba_marseille","lat":43.31701,"lon":5.40489,"is_reserved":false,"is_disabled":false,"rental_uris":{"android":"levelo://app?vid=79d0da37-84bd-47cc-8f16-7c1b2b586f49","ios":"levelo://app?vid=79d0da37-84bd-47cc-8f16-7c1b2b586f49"},"vehicle_type_id":"4","last_reported":1761416021,"current_range_meters":13600,"station_id":"ce4bh012rcd13ifvqd00","pricing_plan_id":"cebpf4jnsgd1na2vs0mg"},{"bike_id":"0485a4fb-ac16-4e97-825e-e88c05f67438","system_id":"levelo_inurba_marseille","lat":43.282693,"lon":5.350527,"is_reserved":false,"is_disabled":false,"rental_uris":{"android":"levelo://app?vid=0485a4fb-ac16-4e97-825e-e88c05f67438","ios":"levelo://app?vid=0485a4fb-ac16-4e97-825e-e88c05f67438"},"vehicle_type_id":"4","last_reported":1761416021,"current_range_meters":14000,"station_id":"ce4bhbp2rcd13ifvqerg","pricing_plan_id":"cebpf4jnsgd1na2vs0mg"},{"bike_id":"1a8a4bd1-ee63-4b53-836d-d34ac5fae822","system_id":"levelo_inurba_marseille","lat":43.29531,"lon":5.38546,"is_reserved":false,"is_disabled":false,"rental_uris":{"android":"levelo://app?vid=1a8a4bd1-ee63-4b53-836d-d34ac5fae822","ios":"levelo://app?vid=1a8a4bd1-ee63-4b53-836d-d34ac5fae822"},"vehicle_type_id":"4","last_reported":1761416021,"current_range_meters":14400,"station_id":"ce4bgih2rcd13ifvqba0","pricing_plan_id":"cebpf4jnsgd1na2vs0mg"},{"bike_id":"856e142f-bc05-4738-a75f-30441de6bce3","system_id":"levelo_inurba_marseille","lat":43.31217,"lon":5.36851,"is_reserved":false,"is_disabled":false,"rental_uris":{"android":"levelo://app?vid=856e142f-bc05-4738-a75f-30441de6bce3","ios":"levelo://app?vid=856e142f-bc05-4738-a75f-30441de6bce3"},"vehicle_type_id":"4","last_reported":1761416021,"current_range_meters":14400,"station_id":"ce4bgl92rcd13ifvqbq0","pricing_plan_id":"cebpf4jnsgd1na2vs0mg"},{"bike_id":"50e51876-bc17-4c20-bf7b-7bb9fa41209a","system_id":"levelo_inurba_marseille","lat":43.29518,"lon":5.39396,"is_reserved":false,"is_disabled":false,"rental_uris":{"android":"levelo://app?vid=50e51876-bc17-4c20-bf7b-7bb9fa41209a","ios":"levelo://app?vid=50e51876-bc17-4c20-bf7b-7bb9fa41209a"},"vehicle_type_id":"4","last_reported":1761416021,"current_range_meters":14400,"station_id":"ce4bh292rcd13ifvqdf0","pricing_plan_id":"cebpf4jnsgd1na2vs0mg"},{"bike_id":"24093db0-197a-4f9a-b931-0897dd93a25d","system_id":"levelo_inurba_marseille","lat":43.24666,"lon":5.38173,"is_reserved":false,"is_disabled":false,"rental_uris":{"android":"levelo://app?vid=24093db0-197a-4f9a-b931-0897dd93a25d","ios":"levelo://app?vid=24093db0-197a-4f9a-b931-0897dd93a25d"},"vehicle_type_id":"4","last_reported":1761416021,"current_range_meters":14400,"station_id":"ce4bhih2rcd13ifvqfr0","pricing_plan_id":"cebpf4jnsgd1na2vs0mg"},{"bike_id":"64b2b8b3-55cb-4bd2-ad95-c9f57cf56182","system_id":"levelo_inurba_marseille","lat":43.294772,"lon":5.400943,"is_reserved":false,"is_disabled":false,"rental_uris":{"android":"levelo://app?vid=64b2b8b3-55cb-4bd2-ad95-c9f57cf56182","ios":"levelo://app?vid=64b2b8b3-55cb-4bd2-ad95-c9f57cf56182"},"vehicle_type_id":"4","last_reported":1761416021,"current_range_meters":14800,"station_id":"ce4bh312rcd13ifvqdj0","pricing_plan_id":"cebpf4jnsgd1na2vs0mg"},{"bike_id":"d3145067-3ca0-4e72-b01a-ef78c0959aad","system_id":"levelo_inurba_marseille","lat":43.30222,"lon":5.40053,"is_reserved":false,"is_disabled":true,"rental_uris":{"android":"levelo://app?vid=d3145067-3ca0-4e72-b01a-ef78c0959aad","ios":"levelo://app?vid=d3145067-3ca0-4e72-b01a-ef78c0959aad"},"vehicle_type_id":"4","last_reported":1761416021,"current_range_meters":14800,"station_id":"ce4bgvh2rcd13ifvqcs0","pricing_plan_id":"cebpf4jnsgd1na2vs0mg"},{"bike_id":"da405267-7a54-46fc-a097-75a9925d5d8f","system_id":"levelo_inurba_marseille","lat":43.25822,"lon":5.39429,"is_reserved":false,"is_disabled":false,"rental_uris":{"android":"levelo://app?vid=da405267-7a54-46fc-a097-75a9925d5d8f","ios":"levelo://app?vid=da405267-7a54-46fc-a097-75a9925d5d8f"},"vehicle_type_id":"4","last_reported":1761416021,"current_range_meters":15200,"station_id":"ce4bhip2rcd13ifvqft0","pricing_plan_id":"cebpf4jnsgd1na2vs0mg"},{"bike_id":"fdc84a8a-82a3-4c88-a92b-d300c8fe34ed","system_id":"levelo_inurba_marseille","lat":43.28616,"lon":5.35106,"is_reserved":false,"is_disabled":false,"rental_uris":{"android":"levelo://app?vid=fdc84a8a-82a3-4c88-a92b-d300c8fe34ed","ios":"levelo://app?vid=fdc84a8a-82a3-4c88-a92b-d300c8fe34ed"},"vehicle_type_id":"4","last_reported":1761416021,"current_range_meters":15200,"station_id":"ce4bhch2rcd13ifvqeug","pricing_plan_id":"cebpf4jnsgd1na2vs0mg"},{"bike_id":"51f6b392-8d0d-41b5-9bf6-76a949608beb","system_id":"levelo_inurba_marseille","lat":43.25346,"lon":5.42176,"is_reserved":false,"is_disabled":false,"rental_uris":{"android":"levelo://app?vid=51f6b392-8d0d-41b5-9bf6-76a949608beb","ios":"levelo://app?vid=51f6b392-8d0d-41b5-9bf6-76a949608beb"},"vehicle_type_id":"4","last_reported":1761416021,"current_range_meters":15200,"station_id":"st_d2m65c5bi1j21697t3ng","pricing_plan_id":"cebpf4jnsgd1na2vs0mg"},{"bike_id":"b5774e3f-b6d2-4161-ad0a-fb5e100b2855","system_id":"levelo_inurba_marseille","lat":43.29714,"lon":5.37695,"is_reserved":false,"is_disabled":false,"rental_uris":{"android":"levelo://app?vid=b5774e3f-b6d2-4161-ad0a-fb5e100b2855","ios":"levelo://app?vid=b5774e3f-b6d2-4161-ad0a-fb5e100b2855"},"vehicle_type_id":"4","last_reported":1761416021,"current_range_meters":15200,"station_id":"ce4bgkh2rcd13ifvqbl0","pricing_plan_id":"cebpf4jnsgd1na2vs0mg"},{"bike_id":"87343782-7fbe-407f-9e2c-5a512f9371a6","system_id":"levelo_inurba_marseille","lat":43.29256,"lon":5.38444,"is_reserved":false,"is_disabled":false,"rental_uris":{"android":"levelo://app?vid=87343782-7fbe-407f-9e2c-5a512f9371a6","ios":"levelo://app?vid=87343782-7fbe-407f-9e2c-5a512f9371a6"},"vehicle_type_id":"4","last_reported":1761416021,"current_range_meters":15200,"station_id":"ce4bh692rcd13ifvqea0","pricing_plan_id":"cebpf4jnsgd1na2vs0mg"},{"bike_id":"d0d97312-c0ce-4e35-b465-0113c6bd0b31","system_id":"levelo_inurba_marseille","lat":43.23969,"lon":5.36642,"is_reserved":false,"is_disabled":false,"rental_uris":{"android":"levelo://app?vid=d0d97312-c0ce-4e35-b465-0113c6bd0b31","ios":"levelo://app?vid=d0d97312-c0ce-4e35-b465-0113c6bd0b31"},"vehicle_type_id":"4","last_reported":1761416021,"current_range_meters":15200,"station_id":"ce4bhi12rcd13ifvqfp0","pricing_plan_id":"cebpf4jnsgd1na2vs0mg"},{"bike_id":"bdd4384b-fa5e-44b3-af7d-e6e0a8e33a19","system_id":"levelo_inurba_marseille","lat":43.245452,"lon":5.395242,"is_reserved":false,"is_disabled":false,"rental_uris":{"android":"levelo://app?vid=bdd4384b-fa5e-44b3-af7d-e6e0a8e33a19","ios":"levelo://app?vid=bdd4384b-fa5e-44b3-af7d-e6e0a8e33a19"},"vehicle_type_id":"4","last_reported":1761416021,"current_range_meters":15200,"station_id":"ce4bhlp2rcd13ifvqgjg","pricing_plan_id":"cebpf4jnsgd1na2vs0mg"},{"bike_id":"40fed290-3dea-4c73-bf2e-af05de8161fd","system_id":"levelo_inurba_marseille","lat":43.32111,"lon":5.36746,"is_reserved":false,"is_disabled":false,"rental_uris":{"android":"levelo://app?vid=40fed290-3dea-4c73-bf2e-af05de8161fd","ios":"levelo://app?vid=40fed290-3dea-4c73-bf2e-af05de8161fd"},"vehicle_type_id":"4","last_reported":1761416021,"current_range_meters":16000,"station_id":"ce4bhrh2rcd13ifvqhug","pricing_plan_id":"cebpf4jnsgd1na2vs0mg"},{"bike_id":"086e41c1-adb0-475d-8d23-b2b1b1afd76a","system_id":"levelo_inurba_marseille","lat":43.26218,"lon":5.40488,"is_reserved":false,"is_disabled":false,"rental_uris":{"android":"levelo://app?vid=086e41c1-adb0-475d-8d23-b2b1b1afd76a","ios":"levelo://app?vid=086e41c1-adb0-475d-8d23-b2b1b1afd76a"},"vehicle_type_id":"4","last_reported":1761416021,"current_range_meters":16000,"station_id":"ce4bhmh2rcd13ifvqgmg","pricing_plan_id":"cebpf4jnsgd1na2vs0mg"},{"bike_id":"f0dac07a-847b-41ca-b3ff-aa0a65a79175","system_id":"levelo_inurba_marseille","lat":43.3015,"lon":5.38073,"is_reserved":false,"is_disabled":false,"rental_uris":{"android":"levelo://app?vid=f0dac07a-847b-41ca-b3ff-aa0a65a79175","ios":"levelo://app?vid=f0dac07a-847b-41ca-b3ff-aa0a65a79175"},"vehicle_type_id":"4","last_reported":1761416021,"current_range_meters":16000,"station_id":"ce4bgjp2rcd13ifvqbh0","pricing_plan_id":"cebpf4jnsgd1na2vs0mg"},{"bike_id":"132d95e3-569b-4250-bfc5-ba9c50e4b9b0","system_id":"levelo_inurba_marseille","lat":43.29782,"lon":5.37096,"is_reserved":false,"is_disabled":false,"rental_uris":{"android":"levelo://app?vid=132d95e3-569b-4250-bfc5-ba9c50e4b9b0","ios":"levelo://app?vid=132d95e3-569b-4250-bfc5-ba9c50e4b9b0"},"vehicle_type_id":"4","last_reported":1761416021,"current_range_meters":16000,"station_id":"ce4bgop2rcd13ifvqc1g","pricing_plan_id":"cebpf4jnsgd1na2vs0mg"},{"bike_id":"f7fdace1-b57b-40b2-a658-1b64b6a3cebb","system_id":"levelo_inurba_marseille","lat":43.275947,"lon":5.384125,"is_reserved":false,"is_disabled":false,"rental_uris":{"android":"levelo://app?vid=f7fdace1-b57b-40b2-a658-1b64b6a3cebb","ios":"levelo://app?vid=f7fdace1-b57b-40b2-a658-1b64b6a3cebb"},"vehicle_type_id":"4","last_reported":1761416021,"current_range_meters":16000,"station_id":"ce4bhh92rcd13ifvqfi0","pricing_plan_id":"cebpf4jnsgd1na2vs0mg"},{"bike_id":"875ed736-33ec-4fd9-9ccc-07f69a3506cb","system_id":"levelo_inurba_marseille","lat":43.24543,"lon":5.39526,"is_reserved":false,"is_disabled":false,"rental_uris":{"android":"levelo://app?vid=875ed736-33ec-4fd9-9ccc-07f69a3506cb","ios":"levelo://app?vid=875ed736-33ec-4fd9-9ccc-07f69a3506cb"},"vehicle_type_id":"4","last_reported":1761416021,"current_range_meters":16000,"station_id":"ce4bhlp2rcd13ifvqgjg","pricing_plan_id":"cebpf4jnsgd1na2vs0mg"},{"bike_id":"25267384-d340-438a-a691-91981a491544","system_id":"levelo_inurba_marseille","lat":43.29803,"lon":5.40411,"is_reserved":false,"is_disabled":false,"rental_uris":{"android":"levelo://app?vid=25267384-d340-438a-a691-91981a491544","ios":"levelo://app?vid=25267384-d340-438a-a691-91981a491544"},"vehicle_type_id":"4","last_reported":1761416021,"current_range_meters":16000,"station_id":"ce4bh112rcd13ifvqd90","pricing_plan_id":"cebpf4jnsgd1na2vs0mg"},{"bike_id":"3ad4d97d-497f-4447-841e-5d883753625f","system_id":"levelo_inurba_marseille","lat":43.2827,"lon":5.35076,"is_reserved":false,"is_disabled":false,"rental_uris":{"android":"levelo://app?vid=3ad4d97d-497f-4447-841e-5d883753625f","ios":"levelo://app?vid=3ad4d97d-497f-4447-841e-5d883753625f"},"vehicle_type_id":"4","last_reported":1761416021,"current_range_meters":16400,"station_id":"ce4bhbp2rcd13ifvqerg","pricing_plan_id":"cebpf4jnsgd1na2vs0mg"},{"bike_id":"3227c77b-a6ff-4879-8ed3-b8b110db4171","system_id":"levelo_inurba_marseille","lat":43.28082,"lon":5.39657,"is_reserved":false,"is_disabled":false,"rental_uris":{"android":"levelo://app?vid=3227c77b-a6ff-4879-8ed3-b8b110db4171","ios":"levelo://app?vid=3227c77b-a6ff-4879-8ed3-b8b110db4171"},"vehicle_type_id":"4","last_reported":1761416021,"current_range_meters":16400,"station_id":"ce4bho12rcd13ifvqh2g","pricing_plan_id":"cebpf4jnsgd1na2vs0mg"},{"bike_id":"85b85bb3-63b9-4256-b0be-7fe785dca27c","system_id":"levelo_inurba_marseille","lat":43.30135,"lon":5.37429,"is_reserved":false,"is_disabled":false,"rental_uris":{"android":"levelo://app?vid=85b85bb3-63b9-4256-b0be-7fe785dca27c","ios":"levelo://app?vid=85b85bb3-63b9-4256-b0be-7fe785dca27c"},"vehicle_type_id":"4","last_reported":1761416021,"current_range_meters":16400,"station_id":"ce4bgs92rcd13ifvqcc0","pricing_plan_id":"cebpf4jnsgd1na2vs0mg"},{"bike_id":"e42e3f31-fbf7-4040-bb41-121a08b42ff8","system_id":"levelo_inurba_marseille","lat":43.29258,"lon":5.38442,"is_reserved":false,"is_disabled":false,"rental_uris":{"android":"levelo://app?vid=e42e3f31-fbf7-4040-bb41-121a08b42ff8","ios":"levelo://app?vid=e42e3f31-fbf7-4040-bb41-121a08b42ff8"},"vehicle_type_id":"4","last_reported":1761416021,"current_range_meters":16400,"station_id":"ce4bh692rcd13ifvqea0","pricing_plan_id":"cebpf4jnsgd1na2vs0mg"},{"bike_id":"ab097f15-aad4-45c1-872b-28a77488204a","system_id":"levelo_inurba_marseille","lat":43.29907,"lon":5.43662,"is_reserved":false,"is_disabled":false,"rental_uris":{"android":"levelo://app?vid=ab097f15-aad4-45c1-872b-28a77488204a","ios":"levelo://app?vid=ab097f15-aad4-45c1-872b-28a77488204a"},"vehicle_type_id":"4","last_reported":1761416021,"current_range_meters":16400,"station_id":"ce4bhpp2rcd13ifvqhfg","pricing_plan_id":"cebpf4jnsgd1na2vs0mg"},{"bike_id":"59e0e55d-ae93-4c8a-989c-120e6e17d539","system_id":"levelo_inurba_marseille","lat":43.23063,"lon":5.35498,"is_reserved":false,"is_disabled":false,"rental_uris":{"android":"levelo://app?vid=59e0e55d-ae93-4c8a-989c-120e6e17d539","ios":"levelo://app?vid=59e0e55d-ae93-4c8a-989c-120e6e17d539"},"vehicle_type_id":"4","last_reported":1761416021,"current_range_meters":16400,"station_id":"cpo3342slgdg3j2ifvpg","pricing_plan_id":"cebpf4jnsgd1na2vs0mg"},{"bike_id":"17872637-75a1-4993-bf08-755aadda4daa","system_id":"levelo_inurba_marseille","lat":43.29603,"lon":5.38097,"is_reserved":false,"is_disabled":false,"rental_uris":{"android":"levelo://app?vid=17872637-75a1-4993-bf08-755aadda4daa","ios":"levelo://app?vid=17872637-75a1-4993-bf08-755aadda4daa"},"vehicle_type_id":"4","last_reported":1761416021,"current_range_meters":16400,"station_id":"ce4bgl12rcd13ifvqbo0","pricing_plan_id":"cebpf4jnsgd1na2vs0mg"},{"bike_id":"bd65c37c-2a52-497e-8319-1bd01ee97516","system_id":"levelo_inurba_marseille","lat":43.23162,"lon":5.39993,"is_reserved":false,"is_disabled":false,"rental_uris":{"android":"levelo://app?vid=bd65c37c-2a52-497e-8319-1bd01ee97516","ios":"levelo://app?vid=bd65c37c-2a52-497e-8319-1bd01ee97516"},"vehicle_type_id":"4","last_reported":1761416021,"current_range_meters":16400,"station_id":"ce4bhn12rcd13ifvqgqg","pricing_plan_id":"cebpf4jnsgd1na2vs0mg"},{"bike_id":"02253b20-9787-436b-aee3-53935d1c1839","system_id":"levelo_inurba_marseille","lat":43.23199,"lon":5.35549,"is_reserved":false,"is_disabled":false,"rental_uris":{"android":"levelo://app?vid=02253b20-9787-436b-aee3-53935d1c1839","ios":"levelo://app?vid=02253b20-9787-436b-aee3-53935d1c1839"},"vehicle_type_id":"4","last_reported":1761416021,"current_range_meters":16400,"station_id":"ce4bhu92rcd13ifvqi70","pricing_plan_id":"cebpf4jnsgd1na2vs0mg"},{"bike_id":"c0b81f28-bbba-4247-a74b-c55a34b31846","system_id":"levelo_inurba_marseille","lat":43.33258,"lon":5.41086,"is_reserved":false,"is_disabled":false,"rental_uris":{"android":"levelo://app?vid=c0b81f28-bbba-4247-a74b-c55a34b31846","ios":"levelo://app?vid=c0b81f28-bbba-4247-a74b-c55a34b31846"},"vehicle_type_id":"4","last_reported":1761416021,"current_range_meters":16800,"station_id":"","pricing_plan_id":"cebpf4jnsgd1na2vs0mg"},{"bike_id":"29b38a45-3e07-40c1-b8b1-5f85b487711f","system_id":"levelo_inurba_marseille","lat":43.312377,"lon":5.404081,"is_reserved":false,"is_disabled":false,"rental_uris":{"android":"levelo://app?vid=29b38a45-3e07-40c1-b8b1-5f85b487711f","ios":"levelo://app?vid=29b38a45-3e07-40c1-b8b1-5f85b487711f"},"vehicle_type_id":"4","last_reported":1761416021,"current_range_meters":16800,"station_id":"","pricing_plan_id":"cebpf4jnsgd1na2vs0mg"},{"bike_id":"df60b26e-e643-46e8-a968-7303da118f00","system_id":"levelo_inurba_marseille","lat":43.30434,"lon":5.39751,"is_reserved":false,"is_disabled":false,"rental_uris":{"android":"levelo://app?vid=df60b26e-e643-46e8-a968-7303da118f00","ios":"levelo://app?vid=df60b26e-e643-46e8-a968-7303da118f00"},"vehicle_type_id":"4","last_reported":1761416021,"current_range_meters":16800,"station_id":"ce4bh092rcd13ifvqd20","pricing_plan_id":"cebpf4jnsgd1na2vs0mg"},{"bike_id":"a6f0ed19-8042-4fbc-83cb-73ce2f11e459","system_id":"levelo_inurba_marseille","lat":43.3212,"lon":5.36729,"is_reserved":false,"is_disabled":false,"rental_uris":{"android":"levelo://app?vid=a6f0ed19-8042-4fbc-83cb-73ce2f11e459","ios":"levelo://app?vid=a6f0ed19-8042-4fbc-83cb-73ce2f11e459"},"vehicle_type_id":"4","last_reported":1761416021,"current_range_meters":16800,"station_id":"ce4bhrh2rcd13ifvqhug","pricing_plan_id":"cebpf4jnsgd1na2vs0mg"},{"bike_id":"aabcaa17-b87e-4876-9eba-927ca8f04587","system_id":"levelo_inurba_marseille","lat":43.27072,"lon":5.42281,"is_reserved":false,"is_disabled":false,"rental_uris":{"android":"levelo://app?vid=aabcaa17-b87e-4876-9eba-927ca8f04587","ios":"levelo://app?vid=aabcaa17-b87e-4876-9eba-927ca8f04587"},"vehicle_type_id":"4","last_reported":1761416021,"current_range_meters":16800,"station_id":"ce4bhk92rcd13ifvqgb0","pricing_plan_id":"cebpf4jnsgd1na2vs0mg"},{"bike_id":"e4746a2d-9cd3-46c8-bf0e-3a10fdb16ced","system_id":"levelo_inurba_marseille","lat":43.32365,"lon":5.36756,"is_reserved":false,"is_disabled":false,"rental_uris":{"android":"levelo://app?vid=e4746a2d-9cd3-46c8-bf0e-3a10fdb16ced","ios":"levelo://app?vid=e4746a2d-9cd3-46c8-bf0e-3a10fdb16ced"},"vehicle_type_id":"4","last_reported":1761416021,"current_range_meters":16800,"station_id":"ce4bhsh2rcd13ifvqi2g","pricing_plan_id":"cebpf4jnsgd1na2vs0mg"},{"bike_id":"bf526c33-28dd-4a6a-a10d-b02e3c57c12e","system_id":"levelo_inurba_marseille","lat":43.23963,"lon":5.36633,"is_reserved":false,"is_disabled":false,"rental_uris":{"android":"levelo://app?vid=bf526c33-28dd-4a6a-a10d-b02e3c57c12e","ios":"levelo://app?vid=bf526c33-28dd-4a6a-a10d-b02e3c57c12e"},"vehicle_type_id":"4","last_reported":1761416021,"current_range_meters":16800,"station_id":"ce4bhi12rcd13ifvqfp0","pricing_plan_id":"cebpf4jnsgd1na2vs0mg"},{"bike_id":"e5bd73c9-d2fd-429b-a719-e50033314cf7","system_id":"levelo_inurba_marseille","lat":43.22562,"lon":5.41641,"is_reserved":false,"is_disabled":false,"rental_uris":{"android":"levelo://app?vid=e5bd73c9-d2fd-429b-a719-e50033314cf7","ios":"levelo://app?vid=e5bd73c9-d2fd-429b-a719-e50033314cf7"},"vehicle_type_id":"4","last_reported":1761416021,"current_range_meters":16800,"station_id":"st_d2o4gvlbi1j2169b742g","pricing_plan_id":"cebpf4jnsgd1na2vs0mg"},{"bike_id":"c6b37915-44a0-4c83-a031-3104d684a313","system_id":"levelo_inurba_marseille","lat":43.29032,"lon":5.38654,"is_reserved":false,"is_disabled":false,"rental_uris":{"android":"levelo://app?vid=c6b37915-44a0-4c83-a031-3104d684a313","ios":"levelo://app?vid=c6b37915-44a0-4c83-a031-3104d684a313"},"vehicle_type_id":"4","last_reported":1761416021,"current_range_meters":16800,"station_id":"ce4bh4p2rcd13ifvqe0g","pricing_plan_id":"cebpf4jnsgd1na2vs0mg"},{"bike_id":"57b2114c-449f-4063-b3fa-9cdb1665b6ea","system_id":"levelo_inurba_marseille","lat":43.29265,"lon":5.3845,"is_reserved":false,"is_disabled":false,"rental_uris":{"android":"levelo://app?vid=57b2114c-449f-4063-b3fa-9cdb1665b6ea","ios":"levelo://app?vid=57b2114c-449f-4063-b3fa-9cdb1665b6ea"},"vehicle_type_id":"4","last_reported":1761416021,"current_range_meters":17200,"station_id":"ce4bh692rcd13ifvqea0","pricing_plan_id":"cebpf4jnsgd1na2vs0mg"},{"bike_id":"0602618b-7a2f-4699-9e38-e7e2087216bd","system_id":"levelo_inurba_marseille","lat":43.292302,"lon":5.400798,"is_reserved":false,"is_disabled":false,"rental_uris":{"android":"levelo://app?vid=0602618b-7a2f-4699-9e38-e7e2087216bd","ios":"levelo://app?vid=0602618b-7a2f-4699-9e38-e7e2087216bd"},"vehicle_type_id":"4","last_reported":1761416021,"current_range_meters":17200,"station_id":"ce4bh312rcd13ifvqdk0","pricing_plan_id":"cebpf4jnsgd1na2vs0mg"},{"bike_id":"f72a00f1-1fed-4f6c-b4b5-8473dfdb4606","system_id":"levelo_inurba_marseille","lat":43.29667,"lon":5.40369,"is_reserved":false,"is_disabled":false,"rental_uris":{"android":"levelo://app?vid=f72a00f1-1fed-4f6c-b4b5-8473dfdb4606","ios":"levelo://app?vid=f72a00f1-1fed-4f6c-b4b5-8473dfdb4606"},"vehicle_type_id":"4","last_reported":1761416021,"current_range_meters":17200,"station_id":"","pricing_plan_id":"cebpf4jnsgd1na2vs0mg"},{"bike_id":"3350306d-35d3-41fe-adc2-ac14237ca743","system_id":"levelo_inurba_marseille","lat":43.29019,"lon":5.38644,"is_reserved":false,"is_disabled":false,"rental_uris":{"android":"levelo://app?vid=3350306d-35d3-41fe-adc2-ac14237ca743","ios":"levelo://app?vid=3350306d-35d3-41fe-adc2-ac14237ca743"},"vehicle_type_id":"4","last_reported":1761416021,"current_range_meters":17200,"station_id":"ce4bh4p2rcd13ifvqe0g","pricing_plan_id":"cebpf4jnsgd1na2vs0mg"},{"bike_id":"8eb34b40-338c-47a0-9062-cbc5ed7b3c18","system_id":"levelo_inurba_marseille","lat":43.29521,"lon":5.37512,"is_reserved":false,"is_disabled":false,"rental_uris":{"android":"levelo://app?vid=8eb34b40-338c-47a0-9062-cbc5ed7b3c18","ios":"levelo://app?vid=8eb34b40-338c-47a0-9062-cbc5ed7b3c18"},"vehicle_type_id":"4","last_reported":1761416021,"current_range_meters":17200,"station_id":"ce4bgkp2rcd13ifvqbmg","pricing_plan_id":"cebpf4jnsgd1na2vs0mg"},{"bike_id":"5b3f67ce-0462-4df4-ab8a-02df1cb9f290","system_id":"levelo_inurba_marseille","lat":43.30946,"lon":5.3905,"is_reserved":false,"is_disabled":false,"rental_uris":{"android":"levelo://app?vid=5b3f67ce-0462-4df4-ab8a-02df1cb9f290","ios":"levelo://app?vid=5b3f67ce-0462-4df4-ab8a-02df1cb9f290"},"vehicle_type_id":"4","last_reported":1761416021,"current_range_meters":17600,"station_id":"ce4bgup2rcd13ifvqco0","pricing_plan_id":"cebpf4jnsgd1na2vs0mg"},{"bike_id":"ae18170a-78e3-4226-bc11-18e23c871586","system_id":"levelo_inurba_marseille","lat":43.31692,"lon":5.40488,"is_reserved":false,"is_disabled":false,"rental_uris":{"android":"levelo://app?vid=ae18170a-78e3-4226-bc11-18e23c871586","ios":"levelo://app?vid=ae18170a-78e3-4226-bc11-18e23c871586"},"vehicle_type_id":"4","last_reported":1761416021,"current_range_meters":17600,"station_id":"ce4bh012rcd13ifvqd00","pricing_plan_id":"cebpf4jnsgd1na2vs0mg"},{"bike_id":"3da36b46-32f0-4723-8f3b-8cba39a84287","system_id":"levelo_inurba_marseille","lat":43.24391,"lon":5.37039,"is_reserved":false,"is_disabled":false,"rental_uris":{"android":"levelo://app?vid=3da36b46-32f0-4723-8f3b-8cba39a84287","ios":"levelo://app?vid=3da36b46-32f0-4723-8f3b-8cba39a84287"},"vehicle_type_id":"4","last_reported":1761416021,"current_range_meters":17600,"station_id":"ce4bhhh2rcd13ifvqfk0","pricing_plan_id":"cebpf4jnsgd1na2vs0mg"},{"bike_id":"3b49fee4-b8f7-420a-8f6a-76b4f23d95c4","system_id":"levelo_inurba_marseille","lat":43.30198,"lon":5.39481,"is_reserved":false,"is_disabled":false,"rental_uris":{"android":"levelo://app?vid=3b49fee4-b8f7-420a-8f6a-76b4f23d95c4","ios":"levelo://app?vid=3b49fee4-b8f7-420a-8f6a-76b4f23d95c4"},"vehicle_type_id":"4","last_reported":1761416021,"current_range_meters":17600,"station_id":"ce4bh0p2rcd13ifvqd70","pricing_plan_id":"cebpf4jnsgd1na2vs0mg"},{"bike_id":"9b254f1d-c72f-4ebe-bccb-f3fb76115e19","system_id":"levelo_inurba_marseille","lat":43.2466,"lon":5.38163,"is_reserved":false,"is_disabled":false,"rental_uris":{"android":"levelo://app?vid=9b254f1d-c72f-4ebe-bccb-f3fb76115e19","ios":"levelo://app?vid=9b254f1d-c72f-4ebe-bccb-f3fb76115e19"},"vehicle_type_id":"4","last_reported":1761416021,"current_range_meters":17600,"station_id":"ce4bhih2rcd13ifvqfr0","pricing_plan_id":"cebpf4jnsgd1na2vs0mg"},{"bike_id":"e4ccce50-4824-4895-aa8c-033835526f23","system_id":"levelo_inurba_marseille","lat":43.31881,"lon":5.40003,"is_reserved":false,"is_disabled":false,"rental_uris":{"android":"levelo://app?vid=e4ccce50-4824-4895-aa8c-033835526f23","ios":"levelo://app?vid=e4ccce50-4824-4895-aa8c-033835526f23"},"vehicle_type_id":"4","last_reported":1761416021,"current_range_meters":17600,"station_id":"","pricing_plan_id":"cebpf4jnsgd1na2vs0mg"},{"bike_id":"933e9118-252f-425b-94a4-2d2542195565","system_id":"levelo_inurba_marseille","lat":43.31685,"lon":5.40478,"is_reserved":false,"is_disabled":false,"rental_uris":{"android":"levelo://app?vid=933e9118-252f-425b-94a4-2d2542195565","ios":"levelo://app?vid=933e9118-252f-425b-94a4-2d2542195565"},"vehicle_type_id":"4","last_reported":1761416021,"current_range_meters":18000,"station_id":"ce4bh012rcd13ifvqd00","pricing_plan_id":"cebpf4jnsgd1na2vs0mg"},{"bike_id":"41d45b45-3a52-4b5a-b2b3-1e62d5490ada","system_id":"levelo_inurba_marseille","lat":43.28534,"lon":5.44098,"is_reserved":false,"is_disabled":false,"rental_uris":{"android":"levelo://app?vid=41d45b45-3a52-4b5a-b2b3-1e62d5490ada","ios":"levelo://app?vid=41d45b45-3a52-4b5a-b2b3-1e62d5490ada"},"vehicle_type_id":"4","last_reported":1761416021,"current_range_meters":18000,"station_id":"st_d3j3df2ikq2c7380ej80","pricing_plan_id":"cebpf4jnsgd1na2vs0mg"},{"bike_id":"1b155172-28eb-46d5-a205-f390685c8ff3","system_id":"levelo_inurba_marseille","lat":43.30957,"lon":5.39058,"is_reserved":false,"is_disabled":false,"rental_uris":{"android":"levelo://app?vid=1b155172-28eb-46d5-a205-f390685c8ff3","ios":"levelo://app?vid=1b155172-28eb-46d5-a205-f390685c8ff3"},"vehicle_type_id":"4","last_reported":1761416021,"current_range_meters":18000,"station_id":"ce4bgup2rcd13ifvqco0","pricing_plan_id":"cebpf4jnsgd1na2vs0mg"},{"bike_id":"ed161994-b61d-4e45-86f1-f26bfcdd346e","system_id":"levelo_inurba_marseille","lat":43.3107,"lon":5.38357,"is_reserved":false,"is_disabled":false,"rental_uris":{"android":"levelo://app?vid=ed161994-b61d-4e45-86f1-f26bfcdd346e","ios":"levelo://app?vid=ed161994-b61d-4e45-86f1-f26bfcdd346e"},"vehicle_type_id":"4","last_reported":1761416021,"current_range_meters":18000,"station_id":"ce4bgv92rcd13ifvqcr0","pricing_plan_id":"cebpf4jnsgd1na2vs0mg"},{"bike_id":"a86dbe06-b8a5-46fe-87ae-8b213a8293bb","system_id":"levelo_inurba_marseille","lat":43.306539,"lon":5.40067,"is_reserved":false,"is_disabled":false,"rental_uris":{"android":"levelo://app?vid=a86dbe06-b8a5-46fe-87ae-8b213a8293bb","ios":"levelo://app?vid=a86dbe06-b8a5-46fe-87ae-8b213a8293bb"},"vehicle_type_id":"4","last_reported":1761416021,"current_range_meters":18000,"station_id":"ce4bh112rcd13ifvqda0","pricing_plan_id":"cebpf4jnsgd1na2vs0mg"},{"bike_id":"3286c9ca-e41a-4a35-9c40-64d815b47d66","system_id":"levelo_inurba_marseille","lat":43.317,"lon":5.40431,"is_reserved":false,"is_disabled":false,"rental_uris":{"android":"levelo://app?vid=3286c9ca-e41a-4a35-9c40-64d815b47d66","ios":"levelo://app?vid=3286c9ca-e41a-4a35-9c40-64d815b47d66"},"vehicle_type_id":"4","last_reported":1761416021,"current_range_meters":18000,"station_id":"ce4bh012rcd13ifvqd00","pricing_plan_id":"cebpf4jnsgd1na2vs0mg"},{"bike_id":"de5cece4-6186-4ccb-b70e-a25e8bd3fc86","system_id":"levelo_inurba_marseille","lat":43.337444,"lon":5.374475,"is_reserved":false,"is_disabled":false,"rental_uris":{"android":"levelo://app?vid=de5cece4-6186-4ccb-b70e-a25e8bd3fc86","ios":"levelo://app?vid=de5cece4-6186-4ccb-b70e-a25e8bd3fc86"},"vehicle_type_id":"4","last_reported":1761416021,"current_range_meters":18000,"station_id":"","pricing_plan_id":"cebpf4jnsgd1na2vs0mg"},{"bike_id":"21bdcc57-733f-425b-bd24-99c799d60436","system_id":"levelo_inurba_marseille","lat":43.27381,"lon":5.36269,"is_reserved":false,"is_disabled":false,"rental_uris":{"android":"levelo://app?vid=21bdcc57-733f-425b-bd24-99c799d60436","ios":"levelo://app?vid=21bdcc57-733f-425b-bd24-99c799d60436"},"vehicle_type_id":"4","last_reported":1761416021,"current_range_meters":18800,"station_id":"ce4bhbh2rcd13ifvqeo0","pricing_plan_id":"cebpf4jnsgd1na2vs0mg"},{"bike_id":"85bc4c7a-00ce-4562-a524-df2837f73b89","system_id":"levelo_inurba_marseille","lat":43.30194,"lon":5.39489,"is_reserved":false,"is_disabled":false,"rental_uris":{"android":"levelo://app?vid=85bc4c7a-00ce-4562-a524-df2837f73b89","ios":"levelo://app?vid=85bc4c7a-00ce-4562-a524-df2837f73b89"},"vehicle_type_id":"4","last_reported":1761416021,"current_range_meters":18800,"station_id":"ce4bh0p2rcd13ifvqd70","pricing_plan_id":"cebpf4jnsgd1na2vs0mg"},{"bike_id":"8847af5d-c1ad-4d8d-a5c1-273c3b41c105","system_id":"levelo_inurba_marseille","lat":43.32242,"lon":5.41969,"is_reserved":false,"is_disabled":false,"rental_uris":{"android":"levelo://app?vid=8847af5d-c1ad-4d8d-a5c1-273c3b41c105","ios":"levelo://app?vid=8847af5d-c1ad-4d8d-a5c1-273c3b41c105"},"vehicle_type_id":"4","last_reported":1761416021,"current_range_meters":18800,"station_id":"","pricing_plan_id":"cebpf4jnsgd1na2vs0mg"},{"bike_id":"5004d088-1dae-4456-addf-12422d049e13","system_id":"levelo_inurba_marseille","lat":43.296259,"lon":5.377244,"is_reserved":false,"is_disabled":false,"rental_uris":{"android":"levelo://app?vid=5004d088-1dae-4456-addf-12422d049e13","ios":"levelo://app?vid=5004d088-1dae-4456-addf-12422d049e13"},"vehicle_type_id":"4","last_reported":1761416021,"current_range_meters":18800,"station_id":"ce4bgi92rcd13ifvqb90","pricing_plan_id":"cebpf4jnsgd1na2vs0mg"},{"bike_id":"73d704fd-171f-433a-8f80-dcb14f43c471","system_id":"levelo_inurba_marseille","lat":43.285095,"lon":5.385225,"is_reserved":false,"is_disabled":false,"rental_uris":{"android":"levelo://app?vid=73d704fd-171f-433a-8f80-dcb14f43c471","ios":"levelo://app?vid=73d704fd-171f-433a-8f80-dcb14f43c471"},"vehicle_type_id":"4","last_reported":1761416021,"current_range_meters":18800,"station_id":"ce4bh8p2rcd13ifvqeb0","pricing_plan_id":"cebpf4jnsgd1na2vs0mg"},{"bike_id":"319602cd-506c-4c67-8e82-14c012d7be0c","system_id":"levelo_inurba_marseille","lat":43.24663,"lon":5.38166,"is_reserved":false,"is_disabled":false,"rental_uris":{"android":"levelo://app?vid=319602cd-506c-4c67-8e82-14c012d7be0c","ios":"levelo://app?vid=319602cd-506c-4c67-8e82-14c012d7be0c"},"vehicle_type_id":"4","last_reported":1761416021,"current_range_meters":18800,"station_id":"ce4bhih2rcd13ifvqfr0","pricing_plan_id":"cebpf4jnsgd1na2vs0mg"},{"bike_id":"d2baae2c-7183-4875-a33e-ff83bc980382","system_id":"levelo_inurba_marseille","lat":43.29262,"lon":5.38452,"is_reserved":false,"is_disabled":false,"rental_uris":{"android":"levelo://app?vid=d2baae2c-7183-4875-a33e-ff83bc980382","ios":"levelo://app?vid=d2baae2c-7183-4875-a33e-ff83bc980382"},"vehicle_type_id":"4","last_reported":1761416021,"current_range_meters":18800,"station_id":"ce4bh692rcd13ifvqea0","pricing_plan_id":"cebpf4jnsgd1na2vs0mg"},{"bike_id":"f759c46e-a067-48f5-aacc-2b66dddb836a","system_id":"levelo_inurba_marseille","lat":43.307386,"lon":5.424508,"is_reserved":false,"is_disabled":false,"rental_uris":{"android":"levelo://app?vid=f759c46e-a067-48f5-aacc-2b66dddb836a","ios":"levelo://app?vid=f759c46e-a067-48f5-aacc-2b66dddb836a"},"vehicle_type_id":"4","last_reported":1761416021,"current_range_meters":18800,"station_id":"st_cvj6ca6bvosntc0bfgr0","pricing_plan_id":"cebpf4jnsgd1na2vs0mg"},{"bike_id":"14f2119b-07cd-4fc8-be12-d51071618c9e","system_id":"levelo_inurba_marseille","lat":43.23957,"lon":5.36638,"is_reserved":false,"is_disabled":false,"rental_uris":{"android":"levelo://app?vid=14f2119b-07cd-4fc8-be12-d51071618c9e","ios":"levelo://app?vid=14f2119b-07cd-4fc8-be12-d51071618c9e"},"vehicle_type_id":"4","last_reported":1761416021,"current_range_meters":18800,"station_id":"ce4bhi12rcd13ifvqfp0","pricing_plan_id":"cebpf4jnsgd1na2vs0mg"},{"bike_id":"a3b9d08d-2f08-4758-a5fd-633f1b93bd7e","system_id":"levelo_inurba_marseille","lat":43.29801,"lon":5.40411,"is_reserved":false,"is_disabled":false,"rental_uris":{"android":"levelo://app?vid=a3b9d08d-2f08-4758-a5fd-633f1b93bd7e","ios":"levelo://app?vid=a3b9d08d-2f08-4758-a5fd-633f1b93bd7e"},"vehicle_type_id":"4","last_reported":1761416021,"current_range_meters":18800,"station_id":"ce4bh112rcd13ifvqd90","pricing_plan_id":"cebpf4jnsgd1na2vs0mg"},{"bike_id":"67f8857f-0853-46d2-b9ef-96c5ce2639bc","system_id":"levelo_inurba_marseille","lat":43.23046,"lon":5.35515,"is_reserved":false,"is_disabled":false,"rental_uris":{"android":"levelo://app?vid=67f8857f-0853-46d2-b9ef-96c5ce2639bc","ios":"levelo://app?vid=67f8857f-0853-46d2-b9ef-96c5ce2639bc"},"vehicle_type_id":"4","last_reported":1761416021,"current_range_meters":18800,"station_id":"cpo3342slgdg3j2ifvpg","pricing_plan_id":"cebpf4jnsgd1na2vs0mg"},{"bike_id":"e5aafa61-e384-4c69-800b-fe726c41fdc6","system_id":"levelo_inurba_marseille","lat":43.29965,"lon":5.38488,"is_reserved":false,"is_disabled":true,"rental_uris":{"android":"levelo://app?vid=e5aafa61-e384-4c69-800b-fe726c41fdc6","ios":"levelo://app?vid=e5aafa61-e384-4c69-800b-fe726c41fdc6"},"vehicle_type_id":"4","last_reported":1761416021,"current_range_meters":18800,"station_id":"ce4bgj92rcd13ifvqbd0","pricing_plan_id":"cebpf4jnsgd1na2vs0mg"},{"bike_id":"c2e9b46e-f4b5-4ee2-a4f7-64261ad397f5","system_id":"levelo_inurba_marseille","lat":43.300527,"lon":5.389535,"is_reserved":false,"is_disabled":false,"rental_uris":{"android":"levelo://app?vid=c2e9b46e-f4b5-4ee2-a4f7-64261ad397f5","ios":"levelo://app?vid=c2e9b46e-f4b5-4ee2-a4f7-64261ad397f5"},"vehicle_type_id":"4","last_reported":1761416021,"current_range_meters":18800,"station_id":"ce4bh192rcd13ifvqdb0","pricing_plan_id":"cebpf4jnsgd1na2vs0mg"},{"bike_id":"f181bc0b-308d-41b2-9f0b-58c3dcbc3df6","system_id":"levelo_inurba_marseille","lat":43.31702,"lon":5.40463,"is_reserved":false,"is_disabled":false,"rental_uris":{"android":"levelo://app?vid=f181bc0b-308d-41b2-9f0b-58c3dcbc3df6","ios":"levelo://app?vid=f181bc0b-308d-41b2-9f0b-58c3dcbc3df6"},"vehicle_type_id":"4","last_reported":1761416021,"current_range_meters":19200,"station_id":"ce4bh012rcd13ifvqd00","pricing_plan_id":"cebpf4jnsgd1na2vs0mg"},{"bike_id":"72760127-c5c9-4c49-a253-e7e879fb7a2d","system_id":"levelo_inurba_marseille","lat":43.31676,"lon":5.40474,"is_reserved":false,"is_disabled":false,"rental_uris":{"android":"levelo://app?vid=72760127-c5c9-4c49-a253-e7e879fb7a2d","ios":"levelo://app?vid=72760127-c5c9-4c49-a253-e7e879fb7a2d"},"vehicle_type_id":"4","last_reported":1761416021,"current_range_meters":19200,"station_id":"ce4bh012rcd13ifvqd00","pricing_plan_id":"cebpf4jnsgd1na2vs0mg"},{"bike_id":"317107fa-306d-4b8d-9380-a16cd06486ce","system_id":"levelo_inurba_marseille","lat":43.28472,"lon":5.359,"is_reserved":false,"is_disabled":true,"rental_uris":{"android":"levelo://app?vid=317107fa-306d-4b8d-9380-a16cd06486ce","ios":"levelo://app?vid=317107fa-306d-4b8d-9380-a16cd06486ce"},"vehicle_type_id":"4","last_reported":1761416021,"current_range_meters":19200,"station_id":"ce4bhah2rcd13ifvqei0","pricing_plan_id":"cebpf4jnsgd1na2vs0mg"},{"bike_id":"46b0db6c-35c8-470b-a45d-db7e7afa9bfd","system_id":"levelo_inurba_marseille","lat":43.28417,"lon":5.37529,"is_reserved":false,"is_disabled":true,"rental_uris":{"android":"levelo://app?vid=46b0db6c-35c8-470b-a45d-db7e7afa9bfd","ios":"levelo://app?vid=46b0db6c-35c8-470b-a45d-db7e7afa9bfd"},"vehicle_type_id":"4","last_reported":1761416021,"current_range_meters":19200,"station_id":"ce4bh412rcd13ifvqds0","pricing_plan_id":"cebpf4jnsgd1na2vs0mg"},{"bike_id":"7a1877e8-1310-4142-900d-3cea9a2ef65f","system_id":"levelo_inurba_marseille","lat":43.29473,"lon":5.43303,"is_reserved":false,"is_disabled":false,"rental_uris":{"android":"levelo://app?vid=7a1877e8-1310-4142-900d-3cea9a2ef65f","ios":"levelo://app?vid=7a1877e8-1310-4142-900d-3cea9a2ef65f"},"vehicle_type_id":"4","last_reported":1761416021,"current_range_meters":19200,"station_id":"st_d3j5ugp08ojc73fj9d10","pricing_plan_id":"cebpf4jnsgd1na2vs0mg"},{"bike_id":"0654673a-7a1d-4c96-baa6-6bcdcfdd7498","system_id":"levelo_inurba_marseille","lat":43.292556,"lon":5.384378,"is_reserved":false,"is_disabled":false,"rental_uris":{"android":"levelo://app?vid=0654673a-7a1d-4c96-baa6-6bcdcfdd7498","ios":"levelo://app?vid=0654673a-7a1d-4c96-baa6-6bcdcfdd7498"},"vehicle_type_id":"4","last_reported":1761416021,"current_range_meters":19200,"station_id":"ce4bh692rcd13ifvqea0","pricing_plan_id":"cebpf4jnsgd1na2vs0mg"},{"bike_id":"1cbb0a35-39f4-451a-a07f-d659335631e9","system_id":"levelo_inurba_marseille","lat":43.31158,"lon":5.38731,"is_reserved":false,"is_disabled":false,"rental_uris":{"android":"levelo://app?vid=1cbb0a35-39f4-451a-a07f-d659335631e9","ios":"levelo://app?vid=1cbb0a35-39f4-451a-a07f-d659335631e9"},"vehicle_type_id":"4","last_reported":1761416021,"current_range_meters":19200,"station_id":"ce4bgv12rcd13ifvqcp0","pricing_plan_id":"cebpf4jnsgd1na2vs0mg"},{"bike_id":"3246468a-ee79-4a18-a0a8-a5ddb780b78a","system_id":"levelo_inurba_marseille","lat":43.28,"lon":5.40021,"is_reserved":false,"is_disabled":false,"rental_uris":{"android":"levelo://app?vid=3246468a-ee79-4a18-a0a8-a5ddb780b78a","ios":"levelo://app?vid=3246468a-ee79-4a18-a0a8-a5ddb780b78a"},"vehicle_type_id":"4","last_reported":1761416021,"current_range_meters":19200,"station_id":"ce4bho92rcd13ifvqh4g","pricing_plan_id":"cebpf4jnsgd1na2vs0mg"},{"bike_id":"64b75b4a-3497-4861-8cc2-90dd62cd9f5e","system_id":"levelo_inurba_marseille","lat":43.295,"lon":5.43317,"is_reserved":false,"is_disabled":false,"rental_uris":{"android":"levelo://app?vid=64b75b4a-3497-4861-8cc2-90dd62cd9f5e","ios":"levelo://app?vid=64b75b4a-3497-4861-8cc2-90dd62cd9f5e"},"vehicle_type_id":"4","last_reported":1761416021,"current_range_meters":19200,"station_id":"st_d3j5ugp08ojc73fj9d10","pricing_plan_id":"cebpf4jnsgd1na2vs0mg"},{"bike_id":"746a3d69-ca37-4e76-879f-6953d23404c3","system_id":"levelo_inurba_marseille","lat":43.29517,"lon":5.39402,"is_reserved":false,"is_disabled":false,"rental_uris":{"android":"levelo://app?vid=746a3d69-ca37-4e76-879f-6953d23404c3","ios":"levelo://app?vid=746a3d69-ca37-4e76-879f-6953d23404c3"},"vehicle_type_id":"4","last_reported":1761416021,"current_range_meters":19200,"station_id":"ce4bh292rcd13ifvqdf0","pricing_plan_id":"cebpf4jnsgd1na2vs0mg"},{"bike_id":"bd669768-3f06-4c56-83c6-18e704beb8c4","system_id":"levelo_inurba_marseille","lat":43.284153,"lon":5.349926,"is_reserved":false,"is_disabled":false,"rental_uris":{"android":"levelo://app?vid=bd669768-3f06-4c56-83c6-18e704beb8c4","ios":"levelo://app?vid=bd669768-3f06-4c56-83c6-18e704beb8c4"},"vehicle_type_id":"4","last_reported":1761416021,"current_range_meters":19200,"station_id":"ce4bhbh2rcd13ifvqepg","pricing_plan_id":"cebpf4jnsgd1na2vs0mg"},{"bike_id":"993a35d3-11b2-4323-925b-d0f476d40f75","system_id":"levelo_inurba_marseille","lat":43.2846,"lon":5.35894,"is_reserved":false,"is_disabled":false,"rental_uris":{"android":"levelo://app?vid=993a35d3-11b2-4323-925b-d0f476d40f75","ios":"levelo://app?vid=993a35d3-11b2-4323-925b-d0f476d40f75"},"vehicle_type_id":"4","last_reported":1761416021,"current_range_meters":19200,"station_id":"ce4bhah2rcd13ifvqei0","pricing_plan_id":"cebpf4jnsgd1na2vs0mg"},{"bike_id":"c124d4a0-9e47-48ec-ad7a-ea36eb6e5d35","system_id":"levelo_inurba_marseille","lat":43.24374,"lon":5.37062,"is_reserved":false,"is_disabled":false,"rental_uris":{"android":"levelo://app?vid=c124d4a0-9e47-48ec-ad7a-ea36eb6e5d35","ios":"levelo://app?vid=c124d4a0-9e47-48ec-ad7a-ea36eb6e5d35"},"vehicle_type_id":"4","last_reported":1761416021,"current_range_meters":19200,"station_id":"ce4bhhh2rcd13ifvqfk0","pricing_plan_id":"cebpf4jnsgd1na2vs0mg"},{"bike_id":"c09fd471-7aac-4ce7-93e0-8b173456f1cc","system_id":"levelo_inurba_marseille","lat":43.29298,"lon":5.37453,"is_reserved":false,"is_disabled":false,"rental_uris":{"android":"levelo://app?vid=c09fd471-7aac-4ce7-93e0-8b173456f1cc","ios":"levelo://app?vid=c09fd471-7aac-4ce7-93e0-8b173456f1cc"},"vehicle_type_id":"4","last_reported":1761416021,"current_range_meters":19200,"station_id":"ce4bgi12rcd13ifvqb70","pricing_plan_id":"cebpf4jnsgd1na2vs0mg"},{"bike_id":"389ec2bc-6d87-4104-9942-8475aba8e502","system_id":"levelo_inurba_marseille","lat":43.29802,"lon":5.38109,"is_reserved":false,"is_disabled":false,"rental_uris":{"android":"levelo://app?vid=389ec2bc-6d87-4104-9942-8475aba8e502","ios":"levelo://app?vid=389ec2bc-6d87-4104-9942-8475aba8e502"},"vehicle_type_id":"4","last_reported":1761416021,"current_range_meters":19200,"station_id":"ce4bgip2rcd13ifvqbb0","pricing_plan_id":"cebpf4jnsgd1na2vs0mg"},