{"last_updated":1691219130,"ttl":30,"version":"2.2","data":{"bikes":[{"bike_id":"3f9f44c5-19b8-4b87-b198-0c2a0309261b","system_id":"levelo_inurba_marseille","lat":43.313391,"lon":5.36706,"is_reserved":false,"is_disabled":false,"rental_uris":{"android":"levelo://app?vid=3f9f44c5-19b8-4b87-b198-0c2a0309261b","ios":"levelo://app?vid=3f9f44c5-19b8-4b87-b198-0c2a0309261b"},"vehicle_type_id":"4","last_reported":1691219131,"current_range_meters":30400,"station_id":"ce4bgr92rcd13ifvqc6g","pricing_plan_id":"free"},{"bike_id":"1fd536f9-265c-4a20-b39a-fd00e40c64e6","system_id":"levelo_inurba_marseille","lat":43.309076,"lon":5.368465,"is_reserved":false,"is_disabled":false,"rental_uris":{"android":"levelo://app?vid=1fd536f9-265c-4a20-b39a-fd00e40c64e6","ios":"levelo://app?vid=1fd536f9-265c-4a20-b39a-fd00e40c64e6"},"vehicle_type_id":"4","last_reported":1691219131,"current_range_meters":30800,"station_id":"ce4bgn92rcd13ifvqbvg","pricing_plan_id":"free"},{"bike_id":"4daa72fc-35cb-4335-9361-897d22d62de4","system_id":"levelo_inurba_marseille","lat":43.309076,"lon":5.368465,"is_reserved":false,"is_disabled":false,"rental_uris":{"android":"levelo://app?vid=4daa72fc-35cb-4335-9361-897d22d62de4","ios":"levelo://app?vid=4daa72fc-35cb-4335-9361-897d22d62de4"},"vehicle_type_id":"4","last_reported":1691219131,"current_range_meters":16000,"station_id":"ce4bgn92rcd13ifvqbvg","pricing_plan_id":"free"},{"bike_id":"3af87ad2-8b76-4d09-87c6-e90c8a768b95","system_id":"levelo_inurba_marseille","lat":43.314811,"lon":5.373103,"is_reserved":false,"is_disabled":false,"rental_uris":{"android":"levelo://app?vid=3af87ad2-8b76-4d09-87c6-e90c8a768b95","ios":"levelo://app?vid=3af87ad2-8b76-4d09-87c6-e90c8a768b95"},"vehicle_type_id":"4","last_reported":1691219131,"current_range_meters":30000,"station_id":"ce4bgt12rcd13ifvqcd0","pricing_plan_id":"free"},{"bike_id":"d212897f-5aa9-4585-b42c-48edb500a7fd","system_id":"levelo_inurba_marseille","lat":43.314811,"lon":5.373103,"is_reserved":false,"is_disabled":false,"rental_uris":{"android":"levelo://app?vid=d212897f-5aa9-4585-b42c-48edb500a7fd","ios":"levelo://app?vid=d212897f-5aa9-4585-b42c-48edb500a7fd"},"vehicle_type_id":"4","last_reported":1691219131,"current_range_meters":30400,"station_id":"ce4bgt12rcd13ifvqcd0","pricing_plan_id":"free"},{"bike_id":"29aae143-753c-4b05-ac5a-5a4a4e99bf43","system_id":"levelo_inurba_marseille","lat":43.314811,"lon":5.373104,"is_reserved":false,"is_disabled":false,"rental_uris":{"android":"levelo://app?vid=29aae143-753c-4b05-ac5a-5a4a4e99bf43","ios":"levelo://app?vid=29aae143-753c-4b05-ac5a-5a4a4e99bf43"},"vehicle_type_id":"4","last_reported":1691219131,"current_range_meters":30400,"station_id":"ce4bgt12rcd13ifvqcd0","pricing_plan_id":"free"},{"bike_id":"324823a4-6eda-470c-ac62-93597ac6af4c","system_id":"levelo_inurba_marseille","lat":43.314811,"lon":5.373104,"is_reserved":false,"is_disabled":false,"rental_uris":{"android":"levelo://app?vid=324823a4-6eda-470c-ac62-93597ac6af4c","ios":"levelo://app?vid=324823a4-6eda-470c-ac62-93597ac6af4c"},"vehicle_type_id":"4","last_reported":1691219131,"current_range_meters":28000,"station_id":"ce4bgt12rcd13ifvqcd0","pricing_plan_id":"free"},{"bike_id":"1521de8a-e32d-4564-ab8f-4935933a745c","system_id":"levelo_inurba_marseille","lat":43.314811,"lon":5.373103,"is_reserved":false,"is_disabled":false,"rental_uris":{"android":"levelo://app?vid=1521de8a-e32d-4564-ab8f-4935933a745c","ios":"levelo://app?vid=1521de8a-e32d-4564-ab8f-4935933a745c"},"vehicle_type_id":"4","last_reported":1691219131,"current_range_meters":31600,"station_id":"ce4bgt12rcd13ifvqcd0","pricing_plan_id":"free"},{"bike_id":"2421a7f8-0864-430b-944a-b889acddd5a4","system_id":"levelo_inurba_marseille","lat":43.314811,"lon":5.373103,"is_reserved":false,"is_disabled":false,"rental_uris":{"android":"levelo://app?vid=2421a7f8-0864-430b-944a-b889acddd5a4","ios":"levelo://app?vid=2421a7f8-0864-430b-944a-b889acddd5a4"},"vehicle_type_id":"4","last_reported":1691219131,"current_range_meters":31200,"station_id":"ce4bgt12rcd13ifvqcd0","pricing_plan_id":"free"},{"bike_id":"45a1094c-c45d-4c9f-8273-d8705a5ebcbb","system_id":"levelo_inurba_marseille","lat":43.314811,"lon":5.373103,"is_reserved":false,"is_disabled":false,"rental_uris":{"android":"levelo://app?vid=45a1094c-c45d-4c9f-8273-d8705a5ebcbb","ios":"levelo://app?vid=45a1094c-c45d-4c9f-8273-d8705a5ebcbb"},"vehicle_type_id":"4","last_reported":1691219131,"current_range_meters":31600,"station_id":"ce4bgt12rcd13ifvqcd0","pricing_plan_id":"free"},{"bike_id":"84c2a162-559a-4aef-854b-45ee046c39c1","system_id":"levelo_inurba_marseille","lat":43.314811,"lon":5.373104,"is_reserved":false,"is_disabled":false,"rental_uris":{"android":"levelo://app?vid=84c2a162-559a-4aef-854b-45ee046c39c1","ios":"levelo://app?vid=84c2a162-559a-4aef-854b-45ee046c39c1"},"vehicle_type_id":"4","last_reported":1691219131,"current_range_meters":30000,"station_id":"ce4bgt12rcd13ifvqcd0","pricing_plan_id":"free"},{"bike_id":"58f584a7-a89d-433f-a2f7-8ab65a6231fe","system_id":"levelo_inurba_marseille","lat":43.314811,"lon":5.373103,"is_reserved":false,"is_disabled":false,"rental_uris":{"android":"levelo://app?vid=58f584a7-a89d-433f-a2f7-8ab65a6231fe","ios":"levelo://app?vid=58f584a7-a89d-433f-a2f7-8ab65a6231fe"},"vehicle_type_id":"4","last_reported":1691219131,"current_range_meters":28800,"station_id":"ce4bgt12rcd13ifvqcd0","pricing_plan_id":"free"},{"bike_id":"feaf43a5-6d82-4938-8e81-696b6e237efc","system_id":"levelo_inurba_marseille","lat":43.314811,"lon":5.373104,"is_reserved":false,"is_disabled":false,"rental_uris":{"android":"levelo://app?vid=feaf43a5-6d82-4938-8e81-696b6e237efc","ios":"levelo://app?vid=feaf43a5-6d82-4938-8e81-696b6e237efc"},"vehicle_type_id":"4","last_reported":1691219131,"current_range_meters":30400,"station_id":"ce4bgt12rcd13ifvqcd0","pricing_plan_id":"free"},{"bike_id":"cede92fa-c9f6-4aa3-926b-00de6cad2891","system_id":"levelo_inurba_marseille","lat":43.314811,"lon":5.373103,"is_reserved":false,"is_disabled":false,"rental_uris":{"android":"levelo://app?vid=cede92fa-c9f6-4aa3-926b-00de6cad2891","ios":"levelo://app?vid=cede92fa-c9f6-4aa3-926b-00de6cad2891"},"vehicle_type_id":"4","last_reported":1691219131,"current_range_meters":7200,"station_id":"ce4bgt12rcd13ifvqcd0","pricing_plan_id":"free"},{"bike_id":"76dcc736-bc34-42cd-b674-0df565540a86","system_id":"levelo_inurba_marseille","lat":43.31501,"lon":5.3731,"is_reserved":false,"is_disabled":false,"rental_uris":{"android":"levelo://app?vid=76dcc736-bc34-42cd-b674-0df565540a86","ios":"levelo://app?vid=76dcc736-bc34-42cd-b674-0df565540a86"},"vehicle_type_id":"4","last_reported":1691219131,"current_range_meters":30400,"station_id":"ce4bgt12rcd13ifvqcd0","pricing_plan_id":"free"},{"bike_id":"7cfb81a3-fd7f-41d1-987d-c1037b7c6b4a","system_id":"levelo_inurba_marseille","lat":43.31432,"lon":5.37421,"is_reserved":false,"is_disabled":false,"rental_uris":{"android":"levelo://app?vid=7cfb81a3-fd7f-41d1-987d-c1037b7c6b4a","ios":"levelo://app?vid=7cfb81a3-fd7f-41d1-987d-c1037b7c6b4a"},"vehicle_type_id":"4","last_reported":1691219131,"current_range_meters":14000,"station_id":"","pricing_plan_id":"free"},{"bike_id":"3c830fb1-82f7-4934-9aba-39db4506027c","system_id":"levelo_inurba_marseille","lat":43.30537,"lon":5.367345,"is_reserved":false,"is_disabled":false,"rental_uris":{"android":"levelo://app?vid=3c830fb1-82f7-4934-9aba-39db4506027c","ios":"levelo://app?vid=3c830fb1-82f7-4934-9aba-39db4506027c"},"vehicle_type_id":"4","last_reported":1691219131,"current_range_meters":31200,"station_id":"ce4bgrp2rcd13ifvqc9g","pricing_plan_id":"free"},{"bike_id":"0860183f-7a52-4cf2-a8d8-8b76166b4de2","system_id":"levelo_inurba_marseille","lat":43.305712,"lon":5.365641,"is_reserved":false,"is_disabled":false,"rental_uris":{"android":"levelo://app?vid=0860183f-7a52-4cf2-a8d8-8b76166b4de2","ios":"levelo://app?vid=0860183f-7a52-4cf2-a8d8-8b76166b4de2"},"vehicle_type_id":"4","last_reported":1691219131,"current_range_meters":27200,"station_id":"ce4bgs12rcd13ifvqcag","pricing_plan_id":"free"},{"bike_id":"be7005bf-b206-49fc-936e-f574ba62db5e","system_id":"levelo_inurba_marseille","lat":43.30546,"lon":5.36531,"is_reserved":false,"is_disabled":false,"rental_uris":{"android":"levelo://app?vid=be7005bf-b206-49fc-936e-f574ba62db5e","ios":"levelo://app?vid=be7005bf-b206-49fc-936e-f574ba62db5e"},"vehicle_type_id":"4","last_reported":1691219131,"current_range_meters":12800,"station_id":"ce4bgs12rcd13ifvqcag","pricing_plan_id":"free"},{"bike_id":"6c5a53a1-cce8-4602-83be-7783cc818ca3","system_id":"levelo_inurba_marseille","lat":43.305989,"lon":5.37225,"is_reserved":false,"is_disabled":false,"rental_uris":{"android":"levelo://app?vid=6c5a53a1-cce8-4602-83be-7783cc818ca3","ios":"levelo://app?vid=6c5a53a1-cce8-4602-83be-7783cc818ca3"},"vehicle_type_id":"4","last_reported":1691219131,"current_range_meters":29200,"station_id":"ce4bgqh2rcd13ifvqc4g","pricing_plan_id":"free"},{"bike_id":"3caa8973-5e65-4475-bcc5-969b36733a6a","system_id":"levelo_inurba_marseille","lat":43.305989,"lon":5.37225,"is_reserved":false,"is_disabled":false,"rental_uris":{"android":"levelo://app?vid=3caa8973-5e65-4475-bcc5-969b36733a6a","ios":"levelo://app?vid=3caa8973-5e65-4475-bcc5-969b36733a6a"},"vehicle_type_id":"4","last_reported":1691219131,"current_range_meters":30800,"station_id":"ce4bgqh2rcd13ifvqc4g","pricing_plan_id":"free"},{"bike_id":"f20ea888-8740-440b-bfeb-8eb2a7c1f652","system_id":"levelo_inurba_marseille","lat":43.305989,"lon":5.37225,"is_reserved":false,"is_disabled":false,"rental_uris":{"android":"levelo://app?vid=f20ea888-8740-440b-bfeb-8eb2a7c1f652","ios":"levelo://app?vid=f20ea888-8740-440b-bfeb-8eb2a7c1f652"},"vehicle_type_id":"4","last_reported":1691219131,"current_range_meters":29600,"station_id":"ce4bgqh2rcd13ifvqc4g","pricing_plan_id":"free"},{"bike_id":"d168a8ec-6ffc-47ac-9629-2240987bcf88","system_id":"levelo_inurba_marseille","lat":43.305989,"lon":5.37225,"is_reserved":false,"is_disabled":false,"rental_uris":{"android":"levelo://app?vid=d168a8ec-6ffc-47ac-9629-2240987bcf88","ios":"levelo://app?vid=d168a8ec-6ffc-47ac-9629-2240987bcf88"},"vehicle_type_id":"4","last_reported":1691219131,"current_range_meters":31200,"station_id":"ce4bgqh2rcd13ifvqc4g","pricing_plan_id":"free"},{"bike_id":"f6456d21-d51b-4bdc-9624-f26edd25f97c","system_id":"levelo_inurba_marseille","lat":43.305989,"lon":5.37225,"is_reserved":false,"is_disabled":false,"rental_uris":{"android":"levelo://app?vid=f6456d21-d51b-4bdc-9624-f26edd25f97c","ios":"levelo://app?vid=f6456d21-d51b-4bdc-9624-f26edd25f97c"},"vehicle_type_id":"4","last_reported":1691219131,"current_range_meters":20000,"station_id":"ce4bgqh2rcd13ifvqc4g","pricing_plan_id":"free"},{"bike_id":"a3304092-2096-420f-9819-b72345d43b22","system_id":"levelo_inurba_marseille","lat":43.305989,"lon":5.37225,"is_reserved":false,"is_disabled":false,"rental_uris":{"android":"levelo://app?vid=a3304092-2096-420f-9819-b72345d43b22","ios":"levelo://app?vid=a3304092-2096-420f-9819-b72345d43b22"},"vehicle_type_id":"4","last_reported":1691219131,"current_range_meters":31200,"station_id":"ce4bgqh2rcd13ifvqc4g","pricing_plan_id":"free"},{"bike_id":"eb1de8ce-533c-40ce-a481-fffb69cb0aa5","system_id":"levelo_inurba_marseille","lat":43.30779,"lon":5.37652,"is_reserved":false,"is_disabled":false,"rental_uris":{"android":"levelo://app?vid=eb1de8ce-533c-40ce-a481-fffb69cb0aa5","ios":"levelo://app?vid=eb1de8ce-533c-40ce-a481-fffb69cb0aa5"},"vehicle_type_id":"4","last_reported":1691219131,"current_range_meters":27200,"station_id":"ce4bgv92rcd13ifvqcq0","pricing_plan_id":"free"},{"bike_id":"40168c04-6ab5-4212-a37e-b53ff283ee0d","system_id":"levelo_inurba_marseille","lat":43.30782,"lon":5.37655,"is_reserved":false,"is_disabled":false,"rental_uris":{"android":"levelo://app?vid=40168c04-6ab5-4212-a37e-b53ff283ee0d","ios":"levelo://app?vid=40168c04-6ab5-4212-a37e-b53ff283ee0d"},"vehicle_type_id":"4","last_reported":1691219131,"current_range_meters":24000,"station_id":"ce4bgv92rcd13ifvqcq0","pricing_plan_id":"free"},{"bike_id":"98204378-ee5f-4653-a841-5c0f80498805","system_id":"levelo_inurba_marseille","lat":43.307945,"lon":5.376487,"is_reserved":false,"is_disabled":false,"rental_uris":{"android":"levelo://app?vid=98204378-ee5f-4653-a841-5c0f80498805","ios":"levelo://app?vid=98204378-ee5f-4653-a841-5c0f80498805"},"vehicle_type_id":"4","last_reported":1691219131,"current_range_meters":10400,"station_id":"ce4bgv92rcd13ifvqcq0","pricing_plan_id":"free"},{"bike_id":"37a1ff06-ef27-4316-a188-90abfaf08048","system_id":"levelo_inurba_marseille","lat":43.30781,"lon":5.37658,"is_reserved":false,"is_disabled":false,"rental_uris":{"android":"levelo://app?vid=37a1ff06-ef27-4316-a188-90abfaf08048","ios":"levelo://app?vid=37a1ff06-ef27-4316-a188-90abfaf08048"},"vehicle_type_id":"4","last_reported":1691219131,"current_range_meters":25600,"station_id":"ce4bgv92rcd13ifvqcq0","pricing_plan_id":"free"},{"bike_id":"6e7d2a81-eb04-467b-8744-5fac68edc62a","system_id":"levelo_inurba_marseille","lat":43.30779,"lon":5.3766,"is_reserved":false,"is_disabled":false,"rental_uris":{"android":"levelo://app?vid=6e7d2a81-eb04-467b-8744-5fac68edc62a","ios":"levelo://app?vid=6e7d2a81-eb04-467b-8744-5fac68edc62a"},"vehicle_type_id":"4","last_reported":1691219131,"current_range_meters":3600,"station_id":"ce4bgv92rcd13ifvqcq0","pricing_plan_id":"free"},{"bike_id":"ee4043ab-c710-4033-9789-b9c939816ac8","system_id":"levelo_inurba_marseille","lat":43.307945,"lon":5.376487,"is_reserved":false,"is_disabled":false,"rental_uris":{"android":"levelo://app?vid=ee4043ab-c710-4033-9789-b9c939816ac8","ios":"levelo://app?vid=ee4043ab-c710-4033-9789-b9c939816ac8"},"vehicle_type_id":"4","last_reported":1691219131,"current_range_meters":16800,"station_id":"ce4bgv92rcd13ifvqcq0","pricing_plan_id":"free"},{"bike_id":"b8caa492-4473-497b-83a8-f40b87c90e82","system_id":"levelo_inurba_marseille","lat":43.317075,"lon":5.377367,"is_reserved":false,"is_disabled":false,"rental_uris":{"android":"levelo://app?vid=b8caa492-4473-497b-83a8-f40b87c90e82","ios":"levelo://app?vid=b8caa492-4473-497b-83a8-f40b87c90e82"},"vehicle_type_id":"4","last_reported":1691219131,"current_range_meters":30000,"station_id":"ce4bgth2rcd13ifvqch0","pricing_plan_id":"free"},{"bike_id":"c1c064bc-d6f2-40cc-a8f7-dc5c38bc60bb","system_id":"levelo_inurba_marseille","lat":43.305712,"lon":5.365641,"is_reserved":false,"is_disabled":false,"rental_uris":{"android":"levelo://app?vid=c1c064bc-d6f2-40cc-a8f7-dc5c38bc60bb","ios":"levelo://app?vid=c1c064bc-d6f2-40cc-a8f7-dc5c38bc60bb"},"vehicle_type_id":"4","last_reported":1691219131,"current_range_meters":25600,"station_id":"ce4bgs12rcd13ifvqcag","pricing_plan_id":"free"},{"bike_id":"4384f90f-acd6-4634-a218-365c819b31b3","system_id":"levelo_inurba_marseille","lat":43.30188,"lon":5.36621,"is_reserved":false,"is_disabled":false,"rental_uris":{"android":"levelo://app?vid=4384f90f-acd6-4634-a218-365c819b31b3","ios":"levelo://app?vid=4384f90f-acd6-4634-a218-365c819b31b3"},"vehicle_type_id":"4","last_reported":1691219131,"current_range_meters":30800,"station_id":"ce4bgrh2rcd13ifvqc8g","pricing_plan_id":"free"},{"bike_id":"6c89fb74-03c0-4a70-8c9d-b63dec2af527","system_id":"levelo_inurba_marseille","lat":43.301939,"lon":5.366286,"is_reserved":false,"is_disabled":false,"rental_uris":{"android":"levelo://app?vid=6c89fb74-03c0-4a70-8c9d-b63dec2af527","ios":"levelo://app?vid=6c89fb74-03c0-4a70-8c9d-b63dec2af527"},"vehicle_type_id":"4","last_reported":1691219131,"current_range_meters":31200,"station_id":"ce4bgrh2rcd13ifvqc8g","pricing_plan_id":"free"},{"bike_id":"b47f13d3-39f8-407d-af04-371769526b7e","system_id":"levelo_inurba_marseille","lat":43.301939,"lon":5.366286,"is_reserved":false,"is_disabled":false,"rental_uris":{"android":"levelo://app?vid=b47f13d3-39f8-407d-af04-371769526b7e","ios":"levelo://app?vid=b47f13d3-39f8-407d-af04-371769526b7e"},"vehicle_type_id":"4","last_reported":1691219131,"current_range_meters":0,"station_id":"ce4bgrh2rcd13ifvqc8g","pricing_plan_id":"free"},{"bike_id":"1cfca094-90e4-4adc-984c-52001b3d4c4b","system_id":"levelo_inurba_marseille","lat":43.304606,"lon":5.379026,"is_reserved":false,"is_disabled":false,"rental_uris":{"android":"levelo://app?vid=1cfca094-90e4-4adc-984c-52001b3d4c4b","ios":"levelo://app?vid=1cfca094-90e4-4adc-984c-52001b3d4c4b"},"vehicle_type_id":"4","last_reported":1691219131,"current_range_meters":28400,"station_id":"ce4bgup2rcd13ifvqcn0","pricing_plan_id":"free"},{"bike_id":"57cd1608-4a05-4ad7-95e5-197548ded004","system_id":"levelo_inurba_marseille","lat":43.304606,"lon":5.379026,"is_reserved":false,"is_disabled":false,"rental_uris":{"android":"levelo://app?vid=57cd1608-4a05-4ad7-95e5-197548ded004","ios":"levelo://app?vid=57cd1608-4a05-4ad7-95e5-197548ded004"},"vehicle_type_id":"4","last_reported":1691219131,"current_range_meters":27200,"station_id":"ce4bgup2rcd13ifvqcn0","pricing_plan_id":"free"},{"bike_id":"dc391821-5552-47d8-b1c7-6f35356f7ddc","system_id":"levelo_inurba_marseille","lat":43.304606,"lon":5.379026,"is_reserved":false,"is_disabled":false,"rental_uris":{"android":"levelo://app?vid=dc391821-5552-47d8-b1c7-6f35356f7ddc","ios":"levelo://app?vid=dc391821-5552-47d8-b1c7-6f35356f7ddc"},"vehicle_type_id":"4","last_reported":1691219131,"current_range_meters":31200,"station_id":"ce4bgup2rcd13ifvqcn0","pricing_plan_id":"free"},{"bike_id":"83cb1884-b329-4cf6-89ec-d66b1737e981","system_id":"levelo_inurba_marseille","lat":43.304606,"lon":5.379026,"is_reserved":false,"is_disabled":false,"rental_uris":{"android":"levelo://app?vid=83cb1884-b329-4cf6-89ec-d66b1737e981","ios":"levelo://app?vid=83cb1884-b329-4cf6-89ec-d66b1737e981"},"vehicle_type_id":"4","last_reported":1691219131,"current_range_meters":31600,"station_id":"ce4bgup2rcd13ifvqcn0","pricing_plan_id":"free"},{"bike_id":"b1245457-b0c9-467e-b42c-0d50560c6121","system_id":"levelo_inurba_marseille","lat":43.304606,"lon":5.379026,"is_reserved":false,"is_disabled":false,"rental_uris":{"android":"levelo://app?vid=b1245457-b0c9-467e-b42c-0d50560c6121","ios":"levelo://app?vid=b1245457-b0c9-467e-b42c-0d50560c6121"},"vehicle_type_id":"4","last_reported":1691219131,"current_range_meters":26000,"station_id":"ce4bgup2rcd13ifvqcn0","pricing_plan_id":"free"},{"bike_id":"984ed13a-0118-4529-a19b-50aad0d064fc","system_id":"levelo_inurba_marseille","lat":43.304606,"lon":5.379026,"is_reserved":false,"is_disabled":false,"rental_uris":{"android":"levelo://app?vid=984ed13a-0118-4529-a19b-50aad0d064fc","ios":"levelo://app?vid=984ed13a-0118-4529-a19b-50aad0d064fc"},"vehicle_type_id":"4","last_reported":1691219131,"current_range_meters":28400,"station_id":"ce4bgup2rcd13ifvqcn0","pricing_plan_id":"free"},{"bike_id":"ba7e618c-dae2-4a01-8b8e-3b8634ad0c9b","system_id":"levelo_inurba_marseille","lat":43.304606,"lon":5.379026,"is_reserved":false,"is_disabled":false,"rental_uris":{"android":"levelo://app?vid=ba7e618c-dae2-4a01-8b8e-3b8634ad0c9b","ios":"levelo://app?vid=ba7e618c-dae2-4a01-8b8e-3b8634ad0c9b"},"vehicle_type_id":"4","last_reported":1691219131,"current_range_meters":31600,"station_id":"ce4bgup2rcd13ifvqcn0","pricing_plan_id":"free"},{"bike_id":"1d2a719d-ac7a-4b39-a516-40faa6426f22","system_id":"levelo_inurba_marseille","lat":43.304606,"lon":5.379026,"is_reserved":false,"is_disabled":false,"rental_uris":{"android":"levelo://app?vid=1d2a719d-ac7a-4b39-a516-40faa6426f22","ios":"levelo://app?vid=1d2a719d-ac7a-4b39-a516-40faa6426f22"},"vehicle_type_id":"4","last_reported":1691219131,"current_range_meters":24800,"station_id":"ce4bgup2rcd13ifvqcn0","pricing_plan_id":"free"},{"bike_id":"377c9ba9-aa8b-4a38-a070-884fea08898c","system_id":"levelo_inurba_marseille","lat":43.304606,"lon":5.379026,"is_reserved":false,"is_disabled":false,"rental_uris":{"android":"levelo://app?vid=377c9ba9-aa8b-4a38-a070-884fea08898c","ios":"levelo://app?vid=377c9ba9-aa8b-4a38-a070-884fea08898c"},"vehicle_type_id":"4","last_reported":1691219131,"current_range_meters":28000,"station_id":"ce4bgup2rcd13ifvqcn0","pricing_plan_id":"free"},{"bike_id":"3967c440-e2a1-492d-8b2a-5ecfec9e0da4","system_id":"levelo_inurba_marseille","lat":43.304606,"lon":5.379026,"is_reserved":false,"is_disabled":false,"rental_uris":{"android":"levelo://app?vid=3967c440-e2a1-492d-8b2a-5ecfec9e0da4","ios":"levelo://app?vid=3967c440-e2a1-492d-8b2a-5ecfec9e0da4"},"vehicle_type_id":"4","last_reported":1691219131,"current_range_meters":19600,"station_id":"ce4bgup2rcd13ifvqcn0","pricing_plan_id":"free"},{"bike_id":"1cf60fd8-a140-4ed9-8f1f-e622edc1d607","system_id":"levelo_inurba_marseille","lat":43.304606,"lon":5.379026,"is_reserved":false,"is_disabled":false,"rental_uris":{"android":"levelo://app?vid=1cf60fd8-a140-4ed9-8f1f-e622edc1d607","ios":"levelo://app?vid=1cf60fd8-a140-4ed9-8f1f-e622edc1d607"},"vehicle_type_id":"4","last_reported":1691219131,"current_range_meters":18400,"station_id":"ce4bgup2rcd13ifvqcn0","pricing_plan_id":"free"},{"bike_id":"1996cd56-68fc-4d64-a481-99494a2fc6a5","system_id":"levelo_inurba_marseille","lat":43.304606,"lon":5.379026,"is_reserved":false,"is_disabled":false,"rental_uris":{"android":"levelo://app?vid=1996cd56-68fc-4d64-a481-99494a2fc6a5","ios":"levelo://app?vid=1996cd56-68fc-4d64-a481-99494a2fc6a5"},"vehicle_type_id":"4","last_reported":1691219131,"current_range_meters":31200,"station_id":"ce4bgup2rcd13ifvqcn0","pricing_plan_id":"free"},{"bike_id":"760ddd77-8b05-45a0-b78f-0410716192e3","system_id":"levelo_inurba_marseille","lat":43.304606,"lon":5.379026,"is_reserved":false,"is_disabled":false,"rental_uris":{"android":"levelo://app?vid=760ddd77-8b05-45a0-b78f-0410716192e3","ios":"levelo://app?vid=760ddd77-8b05-45a0-b78f-0410716192e3"},"vehicle_type_id":"4","last_reported":1691219131,"current_range_meters":22400,"station_id":"ce4bgup2rcd13ifvqcn0","pricing_plan_id":"free"},{"bike_id":"a62412a6-583c-4d4a-a7bc-f8eef34fad6a","system_id":"levelo_inurba_marseille","lat":43.304606,"lon":5.379026,"is_reserved":false,"is_disabled":false,"rental_uris":{"android":"levelo://app?vid=a62412a6-583c-4d4a-a7bc-f8eef34fad6a","ios":"levelo://app?vid=a62412a6-583c-4d4a-a7bc-f8eef34fad6a"},"vehicle_type_id":"4","last_reported":1691219131,"current_range_meters":15200,"station_id":"ce4bgup2rcd13ifvqcn0","pricing_plan_id":"free"},{"bike_id":"9fced043-931f-401c-8921-b68b0442ceb5","system_id":"levelo_inurba_marseille","lat":43.304606,"lon":5.379026,"is_reserved":false,"is_disabled":false,"rental_uris":{"android":"levelo://app?vid=9fced043-931f-401c-8921-b68b0442ceb5","ios":"levelo://app?vid=9fced043-931f-401c-8921-b68b0442ceb5"},"vehicle_type_id":"4","last_reported":1691219131,"current_range_meters":14000,"station_id":"ce4bgup2rcd13ifvqcn0","pricing_plan_id":"free"},{"bike_id":"fd2d3f17-97f6-4ede-bf42-be846583c161","system_id":"levelo_inurba_marseille","lat":43.304606,"lon":5.379026,"is_reserved":false,"is_disabled":false,"rental_uris":{"android":"levelo://app?vid=fd2d3f17-97f6-4ede-bf42-be846583c161","ios":"levelo://app?vid=fd2d3f17-97f6-4ede-bf42-be846583c161"},"vehicle_type_id":"4","last_reported":1691219131,"current_range_meters":25600,"station_id":"ce4bgup2rcd13ifvqcn0","pricing_plan_id":"free"},{"bike_id":"42272e56-1640-4558-8c96-66e82e971759","system_id":"levelo_inurba_marseille","lat":43.30462,"lon":5.37898,"is_reserved":false,"is_disabled":false,"rental_uris":{"android":"levelo://app?vid=42272e56-1640-4558-8c96-66e82e971759","ios":"levelo://app?vid=42272e56-1640-4558-8c96-66e82e971759"},"vehicle_type_id":"4","last_reported":1691219131,"current_range_meters":10800,"station_id":"ce4bgup2rcd13ifvqcn0","pricing_plan_id":"free"},{"bike_id":"60672521-cc43-408d-92af-d67dc9f6feaa","system_id":"levelo_inurba_marseille","lat":43.304606,"lon":5.379026,"is_reserved":false,"is_disabled":false,"rental_uris":{"android":"levelo://app?vid=60672521-cc43-408d-92af-d67dc9f6feaa","ios":"levelo://app?vid=60672521-cc43-408d-92af-d67dc9f6feaa"},"vehicle_type_id":"4","last_reported":1691219131,"current_range_meters":2800,"station_id":"ce4bgup2rcd13ifvqcn0","pricing_plan_id":"free"},{"bike_id":"79ea5429-2576-426f-a282-2b317a95fdc8","system_id":"levelo_inurba_marseille","lat":43.304606,"lon":5.379026,"is_reserved":false,"is_disabled":false,"rental_uris":{"android":"levelo://app?vid=79ea5429-2576-426f-a282-2b317a95fdc8","ios":"levelo://app?vid=79ea5429-2576-426f-a282-2b317a95fdc8"},"vehicle_type_id":"4","last_reported":1691219131,"current_range_meters":22800,"station_id":"ce4bgup2rcd13ifvqcn0","pricing_plan_id":"free"},{"bike_id":"f04b5a42-bfa4-454c-8ccd-c9ba748dd428","system_id":"levelo_inurba_marseille","lat":43.304606,"lon":5.379026,"is_reserved":false,"is_disabled":false,"rental_uris":{"android":"levelo://app?vid=f04b5a42-bfa4-454c-8ccd-c9ba748dd428","ios":"levelo://app?vid=f04b5a42-bfa4-454c-8ccd-c9ba748dd428"},"vehicle_type_id":"4","last_reported":1691219131,"current_range_meters":29200,"station_id":"ce4bgup2rcd13ifvqcn0","pricing_plan_id":"free"},{"bike_id":"45fef61f-30dc-4029-b3d1-83e3c1de7d32","system_id":"levelo_inurba_marseille","lat":43.304606,"lon":5.379026,"is_reserved":false,"is_disabled":false,"rental_uris":{"android":"levelo://app?vid=45fef61f-30dc-4029-b3d1-83e3c1de7d32","ios":"levelo://app?vid=45fef61f-30dc-4029-b3d1-83e3c1de7d32"},"vehicle_type_id":"4","last_reported":1691219131,"current_range_meters":24000,"station_id":"ce4bgup2rcd13ifvqcn0","pricing_plan_id":"free"},{"bike_id":"51f1172f-3b70-4b19-bba4-9c6a3830282b","system_id":"levelo_inurba_marseille","lat":43.304606,"lon":5.379026,"is_reserved":false,"is_disabled":false,"rental_uris":{"android":"levelo://app?vid=51f1172f-3b70-4b19-bba4-9c6a3830282b","ios":"levelo://app?vid=51f1172f-3b70-4b19-bba4-9c6a3830282b"},"vehicle_type_id":"4","last_reported":1691219131,"current_range_meters":29200,"station_id":"ce4bgup2rcd13ifvqcn0","pricing_plan_id":"free"},{"bike_id":"c92c2d48-8bb7-4400-84fd-6570d100ff8b","system_id":"levelo_inurba_marseille","lat":43.304606,"lon":5.379026,"is_reserved":false,"is_disabled":false,"rental_uris":{"android":"levelo://app?vid=c92c2d48-8bb7-4400-84fd-6570d100ff8b","ios":"levelo://app?vid=c92c2d48-8bb7-4400-84fd-6570d100ff8b"},"vehicle_type_id":"4","last_reported":1691219131,"current_range_meters":24400,"station_id":"ce4bgup2rcd13ifvqcn0","pricing_plan_id":"free"},{"bike_id":"8a50fcf8-f361-4ca1-ae02-c7143c23ff44","system_id":"levelo_inurba_marseille","lat":43.304606,"lon":5.379026,"is_reserved":false,"is_disabled":false,"rental_uris":{"android":"levelo://app?vid=8a50fcf8-f361-4ca1-ae02-c7143c23ff44","ios":"levelo://app?vid=8a50fcf8-f361-4ca1-ae02-c7143c23ff44"},"vehicle_type_id":"4","last_reported":1691219131,"current_range_meters":31200,"station_id":"ce4bgup2rcd13ifvqcn0","pricing_plan_id":"free"},{"bike_id":"500f32bf-26c5-4057-ba46-a384fb1e6456","system_id":"levelo_inurba_marseille","lat":43.304606,"lon":5.379026,"is_reserved":false,"is_disabled":false,"rental_uris":{"android":"levelo://app?vid=500f32bf-26c5-4057-ba46-a384fb1e6456","ios":"levelo://app?vid=500f32bf-26c5-4057-ba46-a384fb1e6456"},"vehicle_type_id":"4","last_reported":1691219131,"current_range_meters":24000,"station_id":"ce4bgup2rcd13ifvqcn0","pricing_plan_id":"free"},{"bike_id":"adb25dd8-67db-4ed2-8b6f-e55837503c80","system_id":"levelo_inurba_marseille","lat":43.302784,"lon":5.377158,"is_reserved":false,"is_disabled":false,"rental_uris":{"android":"levelo://app?vid=adb25dd8-67db-4ed2-8b6f-e55837503c80","ios":"levelo://app?vid=adb25dd8-67db-4ed2-8b6f-e55837503c80"},"vehicle_type_id":"4","last_reported":1691219131,"current_range_meters":30400,"station_id":"ce4bguh2rcd13ifvqcj0","pricing_plan_id":"free"},{"bike_id":"ed98e0d5-a7b5-4bae-8b75-6d2af3d6622c","system_id":"levelo_inurba_marseille","lat":43.30275,"lon":5.37708,"is_reserved":false,"is_disabled":false,"rental_uris":{"android":"levelo://app?vid=ed98e0d5-a7b5-4bae-8b75-6d2af3d6622c","ios":"levelo://app?vid=ed98e0d5-a7b5-4bae-8b75-6d2af3d6622c"},"vehicle_type_id":"4","last_reported":1691219131,"current_range_meters":31200,"station_id":"ce4bguh2rcd13ifvqcj0","pricing_plan_id":"free"},{"bike_id":"a9a829a3-8287-4a08-9d59-837699a3b007","system_id":"levelo_inurba_marseille","lat":43.30139,"lon":5.37412,"is_reserved":false,"is_disabled":false,"rental_uris":{"android":"levelo://app?vid=a9a829a3-8287-4a08-9d59-837699a3b007","ios":"levelo://app?vid=a9a829a3-8287-4a08-9d59-837699a3b007"},"vehicle_type_id":"4","last_reported":1691219131,"current_range_meters":31200,"station_id":"ce4bgs92rcd13ifvqcc0","pricing_plan_id":"free"},{"bike_id":"dae4bd09-c10b-48fc-8220-68ba526b6108","system_id":"levelo_inurba_marseille","lat":43.30136,"lon":5.37425,"is_reserved":false,"is_disabled":false,"rental_uris":{"android":"levelo://app?vid=dae4bd09-c10b-48fc-8220-68ba526b6108","ios":"levelo://app?vid=dae4bd09-c10b-48fc-8220-68ba526b6108"},"vehicle_type_id":"4","last_reported":1691219131,"current_range_meters":31200,"station_id":"ce4bgs92rcd13ifvqcc0","pricing_plan_id":"free"},{"bike_id":"5e0a2eb2-d09d-48b9-bdf8-e5e7156363a4","system_id":"levelo_inurba_marseille","lat":43.302784,"lon":5.377158,"is_reserved":false,"is_disabled":false,"rental_uris":{"android":"levelo://app?vid=5e0a2eb2-d09d-48b9-bdf8-e5e7156363a4","ios":"levelo://app?vid=5e0a2eb2-d09d-48b9-bdf8-e5e7156363a4"},"vehicle_type_id":"4","last_reported":1691219131,"current_range_meters":29600,"station_id":"ce4bguh2rcd13ifvqcj0","pricing_plan_id":"free"},{"bike_id":"ec6ed6b9-203a-4de4-b873-0449f8d8115f","system_id":"levelo_inurba_marseille","lat":43.31995,"lon":5.38154,"is_reserved":false,"is_disabled":false,"rental_uris":{"android":"levelo://app?vid=ec6ed6b9-203a-4de4-b873-0449f8d8115f","ios":"levelo://app?vid=ec6ed6b9-203a-4de4-b873-0449f8d8115f"},"vehicle_type_id":"4","last_reported":1691219131,"current_range_meters":22800,"station_id":"ce4bhr12rcd13ifvqhpg","pricing_plan_id":"free"},{"bike_id":"d5f7f396-3296-41b5-bc26-a6ef0187ad90","system_id":"levelo_inurba_marseille","lat":43.31999,"lon":5.3816,"is_reserved":false,"is_disabled":false,"rental_uris":{"android":"levelo://app?vid=d5f7f396-3296-41b5-bc26-a6ef0187ad90","ios":"levelo://app?vid=d5f7f396-3296-41b5-bc26-a6ef0187ad90"},"vehicle_type_id":"4","last_reported":1691219131,"current_range_meters":22400,"station_id":"ce4bhr12rcd13ifvqhpg","pricing_plan_id":"free"},{"bike_id":"2ad57de6-82fc-448d-bdf0-5ead379e5a53","system_id":"levelo_inurba_marseille","lat":43.32001,"lon":5.38161,"is_reserved":false,"is_disabled":false,"rental_uris":{"android":"levelo://app?vid=2ad57de6-82fc-448d-bdf0-5ead379e5a53","ios":"levelo://app?vid=2ad57de6-82fc-448d-bdf0-5ead379e5a53"},"vehicle_type_id":"4","last_reported":1691219131,"current_range_meters":18000,"station_id":"ce4bhr12rcd13ifvqhpg","pricing_plan_id":"free"},{"bike_id":"35656145-5dff-49f2-b6ba-f78509c75276","system_id":"levelo_inurba_marseille","lat":43.313571,"lon":5.384829,"is_reserved":false,"is_disabled":false,"rental_uris":{"android":"levelo://app?vid=35656145-5dff-49f2-b6ba-f78509c75276","ios":"levelo://app?vid=35656145-5dff-49f2-b6ba-f78509c75276"},"vehicle_type_id":"4","last_reported":1691219131,"current_range_meters":31200,"station_id":"ce4bgt92rcd13ifvqcf0","pricing_plan_id":"free"},{"bike_id":"3d779778-f613-4b1a-93dd-9408c2e907a1","system_id":"levelo_inurba_marseille","lat":43.313571,"lon":5.384829,"is_reserved":false,"is_disabled":false,"rental_uris":{"android":"levelo://app?vid=3d779778-f613-4b1a-93dd-9408c2e907a1","ios":"levelo://app?vid=3d779778-f613-4b1a-93dd-9408c2e907a1"},"vehicle_type_id":"4","last_reported":1691219131,"current_range_meters":29200,"station_id":"ce4bgt92rcd13ifvqcf0","pricing_plan_id":"free"},{"bike_id":"3cb7fd70-121e-4eb5-9a01-ecc8718aa1bb","system_id":"levelo_inurba_marseille","lat":43.2994,"lon":5.36545,"is_reserved":false,"is_disabled":false,"rental_uris":{"android":"levelo://app?vid=3cb7fd70-121e-4eb5-9a01-ecc8718aa1bb","ios":"levelo://app?vid=3cb7fd70-121e-4eb5-9a01-ecc8718aa1bb"},"vehicle_type_id":"4","last_reported":1691219131,"current_range_meters":28800,"station_id":"ce4bgm92rcd13ifvqbr0","pricing_plan_id":"free"},{"bike_id":"dadc4826-2bc4-49a2-bc41-09d4e627ff3e","system_id":"levelo_inurba_marseille","lat":43.298433,"lon":5.362774,"is_reserved":false,"is_disabled":false,"rental_uris":{"android":"levelo://app?vid=dadc4826-2bc4-49a2-bc41-09d4e627ff3e","ios":"levelo://app?vid=dadc4826-2bc4-49a2-bc41-09d4e627ff3e"},"vehicle_type_id":"4","last_reported":1691219131,"current_range_meters":21200,"station_id":"ce4bgpp2rcd13ifvqc3g","pricing_plan_id":"free"},{"bike_id":"ed9b8859-eac5-4b77-ab06-67d92a807477","system_id":"levelo_inurba_marseille","lat":43.298433,"lon":5.362774,"is_reserved":false,"is_disabled":false,"rental_uris":{"android":"levelo://app?vid=ed9b8859-eac5-4b77-ab06-67d92a807477","ios":"levelo://app?vid=ed9b8859-eac5-4b77-ab06-67d92a807477"},"vehicle_type_id":"4","last_reported":1691219131,"current_range_meters":30400,"station_id":"ce4bgpp2rcd13ifvqc3g","pricing_plan_id":"free"},{"bike_id":"19eefe59-944f-40e2-944d-e700e10140f1","system_id":"levelo_inurba_marseille","lat":43.305364,"lon":5.384119,"is_reserved":false,"is_disabled":false,"rental_uris":{"android":"levelo://app?vid=19eefe59-944f-40e2-944d-e700e10140f1","ios":"levelo://app?vid=19eefe59-944f-40e2-944d-e700e10140f1"},"vehicle_type_id":"4","last_reported":1691219131,"current_range_meters":18400,"station_id":"ce4bgg92rcd13ifvqb30","pricing_plan_id":"free"},{"bike_id":"850b87b3-a60f-4356-ada5-f6900f648ef7","system_id":"levelo_inurba_marseille","lat":43.298433,"lon":5.362774,"is_reserved":false,"is_disabled":false,"rental_uris":{"android":"levelo://app?vid=850b87b3-a60f-4356-ada5-f6900f648ef7","ios":"levelo://app?vid=850b87b3-a60f-4356-ada5-f6900f648ef7"},"vehicle_type_id":"4","last_reported":1691219131,"current_range_meters":27600,"station_id":"ce4bgpp2rcd13ifvqc3g","pricing_plan_id":"free"},{"bike_id":"c9aa5f68-aa69-4167-9549-a4912b036a91","system_id":"levelo_inurba_marseille","lat":43.305364,"lon":5.384119,"is_reserved":false,"is_disabled":false,"rental_uris":{"android":"levelo://app?vid=c9aa5f68-aa69-4167-9549-a4912b036a91","ios":"levelo://app?vid=c9aa5f68-aa69-4167-9549-a4912b036a91"},"vehicle_type_id":"4","last_reported":1691219131,"current_range_meters":22000,"station_id":"ce4bgg92rcd13ifvqb30","pricing_plan_id":"free"},{"bike_id":"30537d43-af02-4a10-b928-7b9b8cf633d2","system_id":"levelo_inurba_marseille","lat":43.3053,"lon":5.3843,"is_reserved":false,"is_disabled":false,"rental_uris":{"android":"levelo://app?vid=30537d43-af02-4a10-b928-7b9b8cf633d2","ios":"levelo://app?vid=30537d43-af02-4a10-b928-7b9b8cf633d2"},"vehicle_type_id":"4","last_reported":1691219131,"current_range_meters":31200,"station_id":"ce4bgg92rcd13ifvqb30","pricing_plan_id":"free"},{"bike_id":"524d8772-aa1b-409e-ac89-8fe2cf931d65","system_id":"levelo_inurba_marseille","lat":43.3117,"lon":5.38705,"is_reserved":false,"is_disabled":false,"rental_uris":{"android":"levelo://app?vid=524d8772-aa1b-409e-ac89-8fe2cf931d65","ios":"levelo://app?vid=524d8772-aa1b-409e-ac89-8fe2cf931d65"},"vehicle_type_id":"4","last_reported":1691219131,"current_range_meters":15600,"station_id":"ce4bgv12rcd13ifvqcp0","pricing_plan_id":"free"},{"bike_id":"4b926139-4399-4488-b2bf-afe097070f8d","system_id":"levelo_inurba_marseille","lat":43.298433,"lon":5.362774,"is_reserved":false,"is_disabled":false,"rental_uris":{"android":"levelo://app?vid=4b926139-4399-4488-b2bf-afe097070f8d","ios":"levelo://app?vid=4b926139-4399-4488-b2bf-afe097070f8d"},"vehicle_type_id":"4","last_reported":1691219131,"current_range_meters":30400,"station_id":"ce4bgpp2rcd13ifvqc3g","pricing_plan_id":"free"},{"bike_id":"7629d4f5-c3e5-42c7-acad-82b29b68c720","system_id":"levelo_inurba_marseille","lat":43.311722,"lon":5.387247,"is_reserved":false,"is_disabled":false,"rental_uris":{"android":"levelo://app?vid=7629d4f5-c3e5-42c7-acad-82b29b68c720","ios":"levelo://app?vid=7629d4f5-c3e5-42c7-acad-82b29b68c720"},"vehicle_type_id":"4","last_reported":1691219131,"current_range_meters":29200,"station_id":"ce4bgv12rcd13ifvqcp0","pricing_plan_id":"free"},{"bike_id":"05371ed5-5845-44ac-961e-40723c84cebd","system_id":"levelo_inurba_marseille","lat":43.311722,"lon":5.387247,"is_reserved":false,"is_disabled":false,"rental_uris":{"android":"levelo://app?vid=05371ed5-5845-44ac-961e-40723c84cebd","ios":"levelo://app?vid=05371ed5-5845-44ac-961e-40723c84cebd"},"vehicle_type_id":"4","last_reported":1691219131,"current_range_meters":31200,"station_id":"ce4bgv12rcd13ifvqcp0","pricing_plan_id":"free"},{"bike_id":"46b48253-5202-4fa1-b536-389ec2bc6798","system_id":"levelo_inurba_marseille","lat":43.297794,"lon":5.370888,"is_reserved":false,"is_disabled":false,"rental_uris":{"android":"levelo://app?vid=46b48253-5202-4fa1-b536-389ec2bc6798","ios":"levelo://app?vid=46b48253-5202-4fa1-b536-389ec2bc6798"},"vehicle_type_id":"4","last_reported":1691219131,"current_range_meters":30400,"station_id":"ce4bgop2rcd13ifvqc1g","pricing_plan_id":"free"},{"bike_id":"a8e026f5-63fa-48ed-a5ef-254fd7db05d7","system_id":"levelo_inurba_marseille","lat":43.297794,"lon":5.370888,"is_reserved":false,"is_disabled":false,"rental_uris":{"android":"levelo://app?vid=a8e026f5-63fa-48ed-a5ef-254fd7db05d7","ios":"levelo://app?vid=a8e026f5-63fa-48ed-a5ef-254fd7db05d7"},"vehicle_type_id":"4","last_reported":1691219131,"current_range_meters":22800,"station_id":"ce4bgop2rcd13ifvqc1g","pricing_plan_id":"free"},{"bike_id":"fee775f5-e8df-49ff-a57d-d0c63daf5e94","system_id":"levelo_inurba_marseille","lat":43.297794,"lon":5.370888,"is_reserved":false,"is_disabled":false,"rental_uris":{"android":"levelo://app?vid=fee775f5-e8df-49ff-a57d-d0c63daf5e94","ios":"levelo://app?vid=fee775f5-e8df-49ff-a57d-d0c63daf5e94"},"vehicle_type_id":"4","last_reported":1691219131,"current_range_meters":31600,"station_id":"ce4bgop2rcd13ifvqc1g","pricing_plan_id":"free"},{"bike_id":"56f85f01-c617-4138-ace2-2416a3ccd89e","system_id":"levelo_inurba_marseille","lat":43.297794,"lon":5.370888,"is_reserved":false,"is_disabled":false,"rental_uris":{"android":"levelo://app?vid=56f85f01-c617-4138-ace2-2416a3ccd89e","ios":"levelo://app?vid=56f85f01-c617-4138-ace2-2416a3ccd89e"},"vehicle_type_id":"4","last_reported":1691219131,"current_range_meters":31200,"station_id":"ce4bgop2rcd13ifvqc1g","pricing_plan_id":"free"},{"bike_id":"6a907404-faa4-45a4-a5f0-3e1b02038ab4","system_id":"levelo_inurba_marseille","lat":43.297794,"lon":5.370888,"is_reserved":false,"is_disabled":false,"rental_uris":{"android":"levelo://app?vid=6a907404-faa4-45a4-a5f0-3e1b02038ab4","ios":"levelo://app?vid=6a907404-faa4-45a4-a5f0-3e1b02038ab4"},"vehicle_type_id":"4","last_reported":1691219131,"current_range_meters":30400,"station_id":"ce4bgop2rcd13ifvqc1g","pricing_plan_id":"free"},{"bike_id":"abc8463e-683e-4f81-8c59-a83c326e6d83","system_id":"levelo_inurba_marseille","lat":43.297794,"lon":5.370888,"is_reserved":false,"is_disabled":false,"rental_uris":{"android":"levelo://app?vid=abc8463e-683e-4f81-8c59-a83c326e6d83","ios":"levelo://app?vid=abc8463e-683e-4f81-8c59-a83c326e6d83"},"vehicle_type_id":"4","last_reported":1691219131,"current_range_meters":31200,"station_id":"ce4bgop2rcd13ifvqc1g","pricing_plan_id":"free"},{"bike_id":"97c7921e-e1dd-456b-8437-4d1ae5acc261","system_id":"levelo_inurba_marseille","lat":43.297794,"lon":5.370888,"is_reserved":false,"is_disabled":false,"rental_uris":{"android":"levelo://app?vid=97c7921e-e1dd-456b-8437-4d1ae5acc261","ios":"levelo://app?vid=97c7921e-e1dd-456b-8437-4d1ae5acc261"},"vehicle_type_id":"4","last_reported":1691219131,"current_range_meters":23600,"station_id":"ce4bgop2rcd13ifvqc1g","pricing_plan_id":"free"},{"bike_id":"ec41a4e0-a27d-4ed0-8ab7-104b166ffd79","system_id":"levelo_inurba_marseille","lat":43.297794,"lon":5.370888,"is_reserved":false,"is_disabled":false,"rental_uris":{"android":"levelo://app?vid=ec41a4e0-a27d-4ed0-8ab7-104b166ffd79","ios":"levelo://app?vid=ec41a4e0-a27d-4ed0-8ab7-104b166ffd79"},"vehicle_type_id":"4","last_reported":1691219131,"current_range_meters":29200,"station_id":"ce4bgop2rcd13ifvqc1g","pricing_plan_id":"free"},{"bike_id":"58912df3-794e-45b0-b1d9-e3f536e649bb","system_id":"levelo_inurba_marseille","lat":43.297794,"lon":5.370888,"is_reserved":false,"is_disabled":false,"rental_uris":{"android":"levelo://app?vid=58912df3-794e-45b0-b1d9-e3f536e649bb","ios":"levelo://app?vid=58912df3-794e-45b0-b1d9-e3f536e649bb"},"vehicle_type_id":"4","last_reported":1691219131,"current_range_meters":31200,"station_id":"ce4bgop2rcd13ifvqc1g","pricing_plan_id":"free"},{"bike_id":"32cf6803-e632-4a0f-b17b-5190e08dc9f2","system_id":"levelo_inurba_marseille","lat":43.297794,"lon":5.370888,"is_reserved":false,"is_disabled":false,"rental_uris":{"android":"levelo://app?vid=32cf6803-e632-4a0f-b17b-5190e08dc9f2","ios":"levelo://app?vid=32cf6803-e632-4a0f-b17b-5190e08dc9f2"},"vehicle_type_id":"4","last_reported":1691219131,"current_range_meters":22400,"station_id":"ce4bgop2rcd13ifvqc1g","pricing_plan_id":"free"},{"bike_id":"afd1b1e0-4360-4990-9a24-7995d8392af5","system_id":"levelo_inurba_marseille","lat":43.297774,"lon":5.370875,"is_reserved":false,"is_disabled":false,"rental_uris":{"android":"levelo://app?vid=afd1b1e0-4360-4990-9a24-7995d8392af5","ios":"levelo://app?vid=afd1b1e0-4360-4990-9a24-7995d8392af5"},"vehicle_type_id":"4","last_reported":1691219131,"current_range_meters":31200,"station_id":"ce4bgop2rcd13ifvqc1g","pricing_plan_id":"free"},{"bike_id":"211c53db-e61a-47a9-8f9e-3397bc45a0ad","system_id":"levelo_inurba_marseille","lat":43.322872,"lon":5.382756,"is_reserved":false,"is_disabled":false,"rental_uris":{"android":"levelo://app?vid=211c53db-e61a-47a9-8f9e-3397bc45a0ad","ios":"levelo://app?vid=211c53db-e61a-47a9-8f9e-3397bc45a0ad"},"vehicle_type_id":"4","last_reported":1691219131,"current_range_meters":0,"station_id":"ce4bhr12rcd13ifvqhqg","pricing_plan_id":"free"},{"bike_id":"a1ee6760-445e-455a-8450-e3f282609a25","system_id":"levelo_inurba_marseille","lat":43.32817,"lon":5.36693,"is_reserved":false,"is_disabled":false,"rental_uris":{"android":"levelo://app?vid=a1ee6760-445e-455a-8450-e3f282609a25","ios":"levelo://app?vid=a1ee6760-445e-455a-8450-e3f282609a25"},"vehicle_type_id":"4","last_reported":1691219131,"current_range_meters":21600,"station_id":"ce4bhs92rcd13ifvqi0g","pricing_plan_id":"free"},{"bike_id":"ecb22f1f-ccb1-4911-af78-aedc06b9e2f0","system_id":"levelo_inurba_marseille","lat":43.32822,"lon":5.36675,"is_reserved":false,"is_disabled":false,"rental_uris":{"android":"levelo://app?vid=ecb22f1f-ccb1-4911-af78-aedc06b9e2f0","ios":"levelo://app?vid=ecb22f1f-ccb1-4911-af78-aedc06b9e2f0"},"vehicle_type_id":"4","last_reported":1691219131,"current_range_meters":5200,"station_id":"ce4bhs92rcd13ifvqi0g","pricing_plan_id":"free"},{"bike_id":"8ae2a292-4b68-4114-8267-e4d284ceb76e","system_id":"levelo_inurba_marseille","lat":43.328371,"lon":5.366909,"is_reserved":false,"is_disabled":false,"rental_uris":{"android":"levelo://app?vid=8ae2a292-4b68-4114-8267-e4d284ceb76e","ios":"levelo://app?vid=8ae2a292-4b68-4114-8267-e4d284ceb76e"},"vehicle_type_id":"4","last_reported":1691219131,"current_range_meters":24000,"station_id":"ce4bhs92rcd13ifvqi0g","pricing_plan_id":"free"},{"bike_id":"1210a974-cfd1-4147-8585-3155ec45b2d4","system_id":"levelo_inurba_marseille","lat":43.32825,"lon":5.36679,"is_reserved":false,"is_disabled":false,"rental_uris":{"android":"levelo://app?vid=1210a974-cfd1-4147-8585-3155ec45b2d4","ios":"levelo://app?vid=1210a974-cfd1-4147-8585-3155ec45b2d4"},"vehicle_type_id":"4","last_reported":1691219131,"current_range_meters":18400,"station_id":"ce4bhs92rcd13ifvqi0g","pricing_plan_id":"free"},{"bike_id":"79d478e1-3ee7-4283-a640-85273b88a58e","system_id":"levelo_inurba_marseille","lat":43.32828,"lon":5.36685,"is_reserved":false,"is_disabled":false,"rental_uris":{"android":"levelo://app?vid=79d478e1-3ee7-4283-a640-85273b88a58e","ios":"levelo://app?vid=79d478e1-3ee7-4283-a640-85273b88a58e"},"vehicle_type_id":"4","last_reported":1691219131,"current_range_meters":29600,"station_id":"ce4bhs92rcd13ifvqi0g","pricing_plan_id":"free"},{"bike_id":"a2d165f3-2966-4d3d-8414-fa4f0f2e1e32","system_id":"levelo_inurba_marseille","lat":43.328371,"lon":5.366909,"is_reserved":false,"is_disabled":false,"rental_uris":{"android":"levelo://app?vid=a2d165f3-2966-4d3d-8414-fa4f0f2e1e32","ios":"levelo://app?vid=a2d165f3-2966-4d3d-8414-fa4f0f2e1e32"},"vehicle_type_id":"4","last_reported":1691219131,"current_range_meters":24800,"station_id":"ce4bhs92rcd13ifvqi0g","pricing_plan_id":"free"},{"bike_id":"21123ab0-af94-4861-a373-dcbcf04105b5","system_id":"levelo_inurba_marseille","lat":43.328371,"lon":5.366909,"is_reserved":false,"is_disabled":false,"rental_uris":{"android":"levelo://app?vid=21123ab0-af94-4861-a373-dcbcf04105b5","ios":"levelo://app?vid=21123ab0-af94-4861-a373-dcbcf04105b5"},"vehicle_type_id":"4","last_reported":1691219131,"current_range_meters":31200,"station_id":"ce4bhs92rcd13ifvqi0g","pricing_plan_id":"free"},{"bike_id":"bfc37a9c-9b15-47da-9282-cebf1004209d","system_id":"levelo_inurba_marseille","lat":43.32829,"lon":5.36681,"is_reserved":false,"is_disabled":false,"rental_uris":{"android":"levelo://app?vid=bfc37a9c-9b15-47da-9282-cebf1004209d","ios":"levelo://app?vid=bfc37a9c-9b15-47da-9282-cebf1004209d"},"vehicle_type_id":"4","last_reported":1691219131,"current_range_meters":23600,"station_id":"ce4bhs92rcd13ifvqi0g","pricing_plan_id":"free"},{"bike_id":"70df08ad-aacf-44be-9921-61b46d710b54","system_id":"levelo_inurba_marseille","lat":43.3283,"lon":5.36685,"is_reserved":false,"is_disabled":false,"rental_uris":{"android":"levelo://app?vid=70df08ad-aacf-44be-9921-61b46d710b54","ios":"levelo://app?vid=70df08ad-aacf-44be-9921-61b46d710b54"},"vehicle_type_id":"4","last_reported":1691219131,"current_range_meters":30800,"station_id":"ce4bhs92rcd13ifvqi0g","pricing_plan_id":"free"},{"bike_id":"925d80fe-dd88-4a52-a938-71d3f7293e55","system_id":"levelo_inurba_marseille","lat":43.328371,"lon":5.366909,"is_reserved":false,"is_disabled":false,"rental_uris":{"android":"levelo://app?vid=925d80fe-dd88-4a52-a938-71d3f7293e55","ios":"levelo://app?vid=925d80fe-dd88-4a52-a938-71d3f7293e55"},"vehicle_type_id":"4","last_reported":1691219131,"current_range_meters":16000,"station_id":"ce4bhs92rcd13ifvqi0g","pricing_plan_id":"free"},{"bike_id":"bfcdc805-c177-4202-89f2-5e9744440523","system_id":"levelo_inurba_marseille","lat":43.328371,"lon":5.366909,"is_reserved":false,"is_disabled":false,"rental_uris":{"android":"levelo://app?vid=bfcdc805-c177-4202-89f2-5e9744440523","ios":"levelo://app?vid=bfcdc805-c177-4202-89f2-5e9744440523"},"vehicle_type_id":"4","last_reported":1691219131,"current_range_meters":31200,"station_id":"ce4bhs92rcd13ifvqi0g","pricing_plan_id":"free"},{"bike_id":"dc0d3889-70c4-4dba-8f83-071e4628efeb","system_id":"levelo_inurba_marseille","lat":43.328371,"lon":5.366909,"is_reserved":false,"is_disabled":false,"rental_uris":{"android":"levelo://app?vid=dc0d3889-70c4-4dba-8f83-071e4628efeb","ios":"levelo://app?vid=dc0d3889-70c4-4dba-8f83-071e4628efeb"},"vehicle_type_id":"4","last_reported":1691219131,"current_range_meters":31200,"station_id":"ce4bhs92rcd13ifvqi0g","pricing_plan_id":"free"},{"bike_id":"fe66ee89-3412-4a4b-8280-e1c7361866b2","system_id":"levelo_inurba_marseille","lat":43.297163,"lon":5.365866,"is_reserved":false,"is_disabled":false,"rental_uris":{"android":"levelo://app?vid=fe66ee89-3412-4a4b-8280-e1c7361866b2","ios":"levelo://app?vid=fe66ee89-3412-4a4b-8280-e1c7361866b2"},"vehicle_type_id":"4","last_reported":1691219131,"current_range_meters":31200,"station_id":"ce4bgn12rcd13ifvqbt0","pricing_plan_id":"free"},{"bike_id":"a547ddfe-1e74-43fc-b3d0-e7c8b7320de6","system_id":"levelo_inurba_marseille","lat":43.293009,"lon":5.374584,"is_reserved":false,"is_disabled":false,"rental_uris":{"android":"levelo://app?vid=a547ddfe-1e74-43fc-b3d0-e7c8b7320de6","ios":"levelo://app?vid=a547ddfe-1e74-43fc-b3d0-e7c8b7320de6"},"vehicle_type_id":"4","last_reported":1691219131,"current_range_meters":14800,"station_id":"ce4bgi12rcd13ifvqb70","pricing_plan_id":"free"},{"bike_id":"dd789220-e7b5-42c1-b9dc-dc4243148021","system_id":"levelo_inurba_marseille","lat":43.297163,"lon":5.365866,"is_reserved":false,"is_disabled":false,"rental_uris":{"android":"levelo://app?vid=dd789220-e7b5-42c1-b9dc-dc4243148021","ios":"levelo://app?vid=dd789220-e7b5-42c1-b9dc-dc4243148021"},"vehicle_type_id":"4","last_reported":1691219131,"current_range_meters":31200,"station_id":"ce4bgn12rcd13ifvqbt0","pricing_plan_id":"free"},{"bike_id":"a41eae69-3a9f-4659-a005-690d629e9799","system_id":"levelo_inurba_marseille","lat":43.297163,"lon":5.365866,"is_reserved":false,"is_disabled":false,"rental_uris":{"android":"levelo://app?vid=a41eae69-3a9f-4659-a005-690d629e9799","ios":"levelo://app?vid=a41eae69-3a9f-4659-a005-690d629e9799"},"vehicle_type_id":"4","last_reported":1691219131,"current_range_meters":28400,"station_id":"ce4bgn12rcd13ifvqbt0","pricing_plan_id":"free"},{"bike_id":"44bbc643-7d1c-4a10-b2b4-7ccb4f972522","system_id":"levelo_inurba_marseille","lat":43.296129,"lon":5.370777,"is_reserved":false,"is_disabled":false,"rental_uris":{"android":"levelo://app?vid=44bbc643-7d1c-4a10-b2b4-7ccb4f972522","ios":"levelo://app?vid=44bbc643-7d1c-4a10-b2b4-7ccb4f972522"},"vehicle_type_id":"4","last_reported":1691219131,"current_range_meters":29200,"station_id":"ce4bgnh2rcd13ifvqc0g","pricing_plan_id":"free"},{"bike_id":"9e9958c4-2b05-4d5d-981a-3d2329ec2cad","system_id":"levelo_inurba_marseille","lat":43.296129,"lon":5.370777,"is_reserved":false,"is_disabled":false,"rental_uris":{"android":"levelo://app?vid=9e9958c4-2b05-4d5d-981a-3d2329ec2cad","ios":"levelo://app?vid=9e9958c4-2b05-4d5d-981a-3d2329ec2cad"},"vehicle_type_id":"4","last_reported":1691219131,"current_range_meters":21200,"station_id":"ce4bgnh2rcd13ifvqc0g","pricing_plan_id":"free"},{"bike_id":"26d681ad-0015-4436-a085-ff26dfb7cea3","system_id":"levelo_inurba_marseille","lat":43.29732,"lon":5.37686,"is_reserved":false,"is_disabled":false,"rental_uris":{"android":"levelo://app?vid=26d681ad-0015-4436-a085-ff26dfb7cea3","ios":"levelo://app?vid=26d681ad-0015-4436-a085-ff26dfb7cea3"},"vehicle_type_id":"4","last_reported":1691219131,"current_range_meters":30400,"station_id":"ce4bgkh2rcd13ifvqbl0","pricing_plan_id":"free"},{"bike_id":"794ecea3-0ba4-4b77-83cf-c90689b434fe","system_id":"levelo_inurba_marseille","lat":43.296921,"lon":5.376579,"is_reserved":false,"is_disabled":false,"rental_uris":{"android":"levelo://app?vid=794ecea3-0ba4-4b77-83cf-c90689b434fe","ios":"levelo://app?vid=794ecea3-0ba4-4b77-83cf-c90689b434fe"},"vehicle_type_id":"4","last_reported":1691219131,"current_range_meters":14000,"station_id":"ce4bgkh2rcd13ifvqbl0","pricing_plan_id":"free"},{"bike_id":"9dfedb9e-8d37-498b-a8ea-bfb3097c38c7","system_id":"levelo_inurba_marseille","lat":43.29903,"lon":5.38133,"is_reserved":false,"is_disabled":false,"rental_uris":{"android":"levelo://app?vid=9dfedb9e-8d37-498b-a8ea-bfb3097c38c7","ios":"levelo://app?vid=9dfedb9e-8d37-498b-a8ea-bfb3097c38c7"},"vehicle_type_id":"4","last_reported":1691219131,"current_range_meters":27600,"station_id":"ce4bgj12rcd13ifvqbc0","pricing_plan_id":"free"},{"bike_id":"b9a14737-6d8c-4a3a-973e-5885fa6f7e23","system_id":"levelo_inurba_marseille","lat":43.29907,"lon":5.38145,"is_reserved":false,"is_disabled":false,"rental_uris":{"android":"levelo://app?vid=b9a14737-6d8c-4a3a-973e-5885fa6f7e23","ios":"levelo://app?vid=b9a14737-6d8c-4a3a-973e-5885fa6f7e23"},"vehicle_type_id":"4","last_reported":1691219131,"current_range_meters":29200,"station_id":"ce4bgj12rcd13ifvqbc0","pricing_plan_id":"free"},{"bike_id":"6d602fc6-a743-4d69-ae1a-aa6436ba711d","system_id":"levelo_inurba_marseille","lat":43.299028,"lon":5.381509,"is_reserved":false,"is_disabled":false,"rental_uris":{"android":"levelo://app?vid=6d602fc6-a743-4d69-ae1a-aa6436ba711d","ios":"levelo://app?vid=6d602fc6-a743-4d69-ae1a-aa6436ba711d"},"vehicle_type_id":"4","last_reported":1691219131,"current_range_meters":31200,"station_id":"ce4bgj12rcd13ifvqbc0","pricing_plan_id":"free"},{"bike_id":"6bc7bf2a-353b-4254-a83d-420ff01c2f8a","system_id":"levelo_inurba_marseille","lat":43.29902,"lon":5.38142,"is_reserved":false,"is_disabled":false,"rental_uris":{"android":"levelo://app?vid=6bc7bf2a-353b-4254-a83d-420ff01c2f8a","ios":"levelo://app?vid=6bc7bf2a-353b-4254-a83d-420ff01c2f8a"},"vehicle_type_id":"4","last_reported":1691219131,"current_range_meters":30800,"station_id":"ce4bgj12rcd13ifvqbc0","pricing_plan_id":"free"},{"bike_id":"f0b1921d-8fc5-42f6-8214-26455e772ce5","system_id":"levelo_inurba_marseille","lat":43.30941,"lon":5.39027,"is_reserved":false,"is_disabled":false,"rental_uris":{"android":"levelo://app?vid=f0b1921d-8fc5-42f6-8214-26455e772ce5","ios":"levelo://app?vid=f0b1921d-8fc5-42f6-8214-26455e772ce5"},"vehicle_type_id":"4","last_reported":1691219131,"current_range_meters":24400,"station_id":"ce4bgup2rcd13ifvqco0","pricing_plan_id":"free"},{"bike_id":"e57fa417-aecc-4d3e-a938-e770bbbadb9c","system_id":"levelo_inurba_marseille","lat":43.29902,"lon":5.38146,"is_reserved":false,"is_disabled":false,"rental_uris":{"android":"levelo://app?vid=e57fa417-aecc-4d3e-a938-e770bbbadb9c","ios":"levelo://app?vid=e57fa417-aecc-4d3e-a938-e770bbbadb9c"},"vehicle_type_id":"4","last_reported":1691219131,"current_range_meters":30800,"station_id":"ce4bgj12rcd13ifvqbc0","pricing_plan_id":"free"},{"bike_id":"bfbf8d3d-1c66-480f-8c7d-64fb29375bb5","system_id":"levelo_inurba_marseille","lat":43.299028,"lon":5.381509,"is_reserved":false,"is_disabled":false,"rental_uris":{"android":"levelo://app?vid=bfbf8d3d-1c66-480f-8c7d-64fb29375bb5","ios":"levelo://app?vid=bfbf8d3d-1c66-480f-8c7d-64fb29375bb5"},"vehicle_type_id":"4","last_reported":1691219131,"current_range_meters":31200,"station_id":"ce4bgj12rcd13ifvqbc0","pricing_plan_id":"free"},{"bike_id":"27467724-1c32-4658-acc7-92691cac6a69","system_id":"levelo_inurba_marseille","lat":43.30947,"lon":5.39032,"is_reserved":false,"is_disabled":false,"rental_uris":{"android":"levelo://app?vid=27467724-1c32-4658-acc7-92691cac6a69","ios":"levelo://app?vid=27467724-1c32-4658-acc7-92691cac6a69"},"vehicle_type_id":"4","last_reported":1691219131,"current_range_meters":19200,"station_id":"ce4bgup2rcd13ifvqco0","pricing_plan_id":"free"},{"bike_id":"a0163b85-18e5-4828-8d9c-5d727e145ddc","system_id":"levelo_inurba_marseille","lat":43.31753,"lon":5.39014,"is_reserved":false,"is_disabled":false,"rental_uris":{"android":"levelo://app?vid=a0163b85-18e5-4828-8d9c-5d727e145ddc","ios":"levelo://app?vid=a0163b85-18e5-4828-8d9c-5d727e145ddc"},"vehicle_type_id":"4","last_reported":1691219131,"current_range_meters":27200,"station_id":"ce4bhqp2rcd13ifvqhng","pricing_plan_id":"free"},{"bike_id":"2f85dfd1-5d9a-4517-8def-c5ab4b399598","system_id":"levelo_inurba_marseille","lat":43.31759,"lon":5.39013,"is_reserved":false,"is_disabled":false,"rental_uris":{"android":"levelo://app?vid=2f85dfd1-5d9a-4517-8def-c5ab4b399598","ios":"levelo://app?vid=2f85dfd1-5d9a-4517-8def-c5ab4b399598"},"vehicle_type_id":"4","last_reported":1691219131,"current_range_meters":15200,"station_id":"ce4bhqp2rcd13ifvqhng","pricing_plan_id":"free"},{"bike_id":"50f2c09c-534d-43c1-a558-fb4cbe988a1f","system_id":"levelo_inurba_marseille","lat":43.317557,"lon":5.390173,"is_reserved":false,"is_disabled":false,"rental_uris":{"android":"levelo://app?vid=50f2c09c-534d-43c1-a558-fb4cbe988a1f","ios":"levelo://app?vid=50f2c09c-534d-43c1-a558-fb4cbe988a1f"},"vehicle_type_id":"4","last_reported":1691219131,"current_range_meters":12800,"station_id":"ce4bhqp2rcd13ifvqhng","pricing_plan_id":"free"},{"bike_id":"c070a522-6c17-4333-a9ee-bbef4dc643ed","system_id":"levelo_inurba_marseille","lat":43.317557,"lon":5.390173,"is_reserved":false,"is_disabled":false,"rental_uris":{"android":"levelo://app?vid=c070a522-6c17-4333-a9ee-bbef4dc643ed","ios":"levelo://app?vid=c070a522-6c17-4333-a9ee-bbef4dc643ed"},"vehicle_type_id":"4","last_reported":1691219131,"current_range_meters":31600,"station_id":"ce4bhqp2rcd13ifvqhng","pricing_plan_id":"free"},{"bike_id":"4879b09e-5533-49cc-808c-be115b214b19","system_id":"levelo_inurba_marseille","lat":43.317557,"lon":5.390173,"is_reserved":false,"is_disabled":false,"rental_uris":{"android":"levelo://app?vid=4879b09e-5533-49cc-808c-be115b214b19","ios":"levelo://app?vid=4879b09e-5533-49cc-808c-be115b214b19"},"vehicle_type_id":"4","last_reported":1691219131,"current_range_meters":31600,"station_id":"ce4bhqp2rcd13ifvqhng","pricing_plan_id":"free"},{"bike_id":"90569ba5-8bb9-4d2d-b876-dc35e42f9a0c","system_id":"levelo_inurba_marseille","lat":43.317557,"lon":5.390173,"is_reserved":false,"is_disabled":false,"rental_uris":{"android":"levelo://app?vid=90569ba5-8bb9-4d2d-b876-dc35e42f9a0c","ios":"levelo://app?vid=90569ba5-8bb9-4d2d-b876-dc35e42f9a0c"},"vehicle_type_id":"4","last_reported":1691219131,"current_range_meters":31200,"station_id":"ce4bhqp2rcd13ifvqhng","pricing_plan_id":"free"},{"bike_id":"fb5d1b63-b2f2-4d34-b700-b062bf6b4e69","system_id":"levelo_inurba_marseille","lat":43.317557,"lon":5.390173,"is_reserved":false,"is_disabled":false,"rental_uris":{"android":"levelo://app?vid=fb5d1b63-b2f2-4d34-b700-b062bf6b4e69","ios":"levelo://app?vid=fb5d1b63-b2f2-4d34-b700-b062bf6b4e69"},"vehicle_type_id":"4","last_reported":1691219131,"current_range_meters":31200,"station_id":"ce4bhqp2rcd13ifvqhng","pricing_plan_id":"free"},{"bike_id":"b2f3081d-803f-4500-a8ce-732227ecc1a7","system_id":"levelo_inurba_marseille","lat":43.317557,"lon":5.390173,"is_reserved":false,"is_disabled":false,"rental_uris":{"android":"levelo://app?vid=b2f3081d-803f-4500-a8ce-732227ecc1a7","ios":"levelo://app?vid=b2f3081d-803f-4500-a8ce-732227ecc1a7"},"vehicle_type_id":"4","last_reported":1691219131,"current_range_meters":24000,"station_id":"ce4bhqp2rcd13ifvqhng","pricing_plan_id":"free"},{"bike_id":"18a85f18-d874-4a60-8aed-560fb98e5c68","system_id":"levelo_inurba_marseille","lat":43.317557,"lon":5.390173,"is_reserved":false,"is_disabled":false,"rental_uris":{"android":"levelo://app?vid=18a85f18-d874-4a60-8aed-560fb98e5c68","ios":"levelo://app?vid=18a85f18-d874-4a60-8aed-560fb98e5c68"},"vehicle_type_id":"4","last_reported":1691219131,"current_range_meters":28400,"station_id":"ce4bhqp2rcd13ifvqhng","pricing_plan_id":"free"},{"bike_id":"ffe83563-fe7b-4abd-90a1-b737e09347c0","system_id":"levelo_inurba_marseille","lat":43.317557,"lon":5.390173,"is_reserved":false,"is_disabled":false,"rental_uris":{"android":"levelo://app?vid=ffe83563-fe7b-4abd-90a1-b737e09347c0","ios":"levelo://app?vid=ffe83563-fe7b-4abd-90a1-b737e09347c0"},"vehicle_type_id":"4","last_reported":1691219131,"current_range_meters":28000,"station_id":"ce4bhqp2rcd13ifvqhng","pricing_plan_id":"free"},{"bike_id":"7f7c6211-642d-4d58-a323-47337b139ffa","system_id":"levelo_inurba_marseille","lat":43.298037,"lon":5.381066,"is_reserved":false,"is_disabled":false,"rental_uris":{"android":"levelo://app?vid=7f7c6211-642d-4d58-a323-47337b139ffa","ios":"levelo://app?vid=7f7c6211-642d-4d58-a323-47337b139ffa"},"vehicle_type_id":"4","last_reported":1691219131,"current_range_meters":30000,"station_id":"ce4bgip2rcd13ifvqbb0","pricing_plan_id":"free"},{"bike_id":"ca01be96-7783-4888-9952-3431b87df3d2","system_id":"levelo_inurba_marseille","lat":43.295748,"lon":5.37522,"is_reserved":false,"is_disabled":false,"rental_uris":{"android":"levelo://app?vid=ca01be96-7783-4888-9952-3431b87df3d2","ios":"levelo://app?vid=ca01be96-7783-4888-9952-3431b87df3d2"},"vehicle_type_id":"4","last_reported":1691219131,"current_range_meters":30400,"station_id":"ce4bgh92rcd13ifvqb50","pricing_plan_id":"free"},{"bike_id":"4265e2a3-c358-459f-a83e-ee53a459c2ef","system_id":"levelo_inurba_marseille","lat":43.295748,"lon":5.37522,"is_reserved":false,"is_disabled":false,"rental_uris":{"android":"levelo://app?vid=4265e2a3-c358-459f-a83e-ee53a459c2ef","ios":"levelo://app?vid=4265e2a3-c358-459f-a83e-ee53a459c2ef"},"vehicle_type_id":"4","last_reported":1691219131,"current_range_meters":31200,"station_id":"ce4bgh92rcd13ifvqb50","pricing_plan_id":"free"},{"bike_id":"2282a6a6-1c05-486b-a03d-98b71d7a2eb1","system_id":"levelo_inurba_marseille","lat":43.295748,"lon":5.37522,"is_reserved":false,"is_disabled":false,"rental_uris":{"android":"levelo://app?vid=2282a6a6-1c05-486b-a03d-98b71d7a2eb1","ios":"levelo://app?vid=2282a6a6-1c05-486b-a03d-98b71d7a2eb1"},"vehicle_type_id":"4","last_reported":1691219131,"current_range_meters":31200,"station_id":"ce4bgh92rcd13ifvqb50","pricing_plan_id":"free"},{"bike_id":"5a6a2aba-34fa-4fe5-bcb0-4e24aa23d36c","system_id":"levelo_inurba_marseille","lat":43.295748,"lon":5.37522,"is_reserved":false,"is_disabled":false,"rental_uris":{"android":"levelo://app?vid=5a6a2aba-34fa-4fe5-bcb0-4e24aa23d36c","ios":"levelo://app?vid=5a6a2aba-34fa-4fe5-bcb0-4e24aa23d36c"},"vehicle_type_id":"4","last_reported":1691219131,"current_range_meters":26400,"station_id":"ce4bgh92rcd13ifvqb50","pricing_plan_id":"free"},{"bike_id":"4e130d18-387c-4071-84c4-34aae9accbf8","system_id":"levelo_inurba_marseille","lat":43.296263,"lon":5.377094,"is_reserved":false,"is_disabled":false,"rental_uris":{"android":"levelo://app?vid=4e130d18-387c-4071-84c4-34aae9accbf8","ios":"levelo://app?vid=4e130d18-387c-4071-84c4-34aae9accbf8"},"vehicle_type_id":"4","last_reported":1691219131,"current_range_meters":12000,"station_id":"ce4bgi92rcd13ifvqb90","pricing_plan_id":"free"},{"bike_id":"77a06464-b275-4e7c-b84c-ee13a40ed854","system_id":"levelo_inurba_marseille","lat":43.295748,"lon":5.37522,"is_reserved":false,"is_disabled":false,"rental_uris":{"android":"levelo://app?vid=77a06464-b275-4e7c-b84c-ee13a40ed854","ios":"levelo://app?vid=77a06464-b275-4e7c-b84c-ee13a40ed854"},"vehicle_type_id":"4","last_reported":1691219131,"current_range_meters":14400,"station_id":"ce4bgh92rcd13ifvqb50","pricing_plan_id":"free"},{"bike_id":"b97e9a78-cc8e-4ea9-8916-39f7e4fa7a1b","system_id":"levelo_inurba_marseille","lat":43.295748,"lon":5.37522,"is_reserved":false,"is_disabled":false,"rental_uris":{"android":"levelo://app?vid=b97e9a78-cc8e-4ea9-8916-39f7e4fa7a1b","ios":"levelo://app?vid=b97e9a78-cc8e-4ea9-8916-39f7e4fa7a1b"},"vehicle_type_id":"4","last_reported":1691219131,"current_range_meters":22000,"station_id":"ce4bgh92rcd13ifvqb50","pricing_plan_id":"free"},{"bike_id":"d070d3fc-61c9-4204-b6aa-29d63ba1286c","system_id":"levelo_inurba_marseille","lat":43.296277,"lon":5.377108,"is_reserved":false,"is_disabled":false,"rental_uris":{"android":"levelo://app?vid=d070d3fc-61c9-4204-b6aa-29d63ba1286c","ios":"levelo://app?vid=d070d3fc-61c9-4204-b6aa-29d63ba1286c"},"vehicle_type_id":"4","last_reported":1691219131,"current_range_meters":21600,"station_id":"ce4bgi92rcd13ifvqb90","pricing_plan_id":"free"},{"bike_id":"37d747eb-3f5e-4276-8a5a-0cbd9ac6beaa","system_id":"levelo_inurba_marseille","lat":43.304274,"lon":5.388873,"is_reserved":false,"is_disabled":false,"rental_uris":{"android":"levelo://app?vid=37d747eb-3f5e-4276-8a5a-0cbd9ac6beaa","ios":"levelo://app?vid=37d747eb-3f5e-4276-8a5a-0cbd9ac6beaa"},"vehicle_type_id":"4","last_reported":1691219131,"current_range_meters":30800,"station_id":"ce4bgk12rcd13ifvqbi0","pricing_plan_id":"free"},{"bike_id":"6be3a9ed-7609-472f-8b78-04793731e1a9","system_id":"levelo_inurba_marseille","lat":43.295748,"lon":5.37522,"is_reserved":false,"is_disabled":false,"rental_uris":{"android":"levelo://app?vid=6be3a9ed-7609-472f-8b78-04793731e1a9","ios":"levelo://app?vid=6be3a9ed-7609-472f-8b78-04793731e1a9"},"vehicle_type_id":"4","last_reported":1691219131,"current_range_meters":17600,"station_id":"ce4bgh92rcd13ifvqb50","pricing_plan_id":"free"},{"bike_id":"68cd18e3-1d27-4e74-81f0-1e3719c42f46","system_id":"levelo_inurba_marseille","lat":43.295748,"lon":5.37522,"is_reserved":false,"is_disabled":false,"rental_uris":{"android":"levelo://app?vid=68cd18e3-1d27-4e74-81f0-1e3719c42f46","ios":"levelo://app?vid=68cd18e3-1d27-4e74-81f0-1e3719c42f46"},"vehicle_type_id":"4","last_reported":1691219131,"current_range_meters":31200,"station_id":"ce4bgh92rcd13ifvqb50","pricing_plan_id":"free"},{"bike_id":"7b96c461-3ac0-4b50-b15f-75296deba2ca","system_id":"levelo_inurba_marseille","lat":43.295748,"lon":5.37522,"is_reserved":false,"is_disabled":false,"rental_uris":{"android":"levelo://app?vid=7b96c461-3ac0-4b50-b15f-75296deba2ca","ios":"levelo://app?vid=7b96c461-3ac0-4b50-b15f-75296deba2ca"},"vehicle_type_id":"4","last_reported":1691219131,"current_range_meters":30400,"station_id":"ce4bgh92rcd13ifvqb50","pricing_plan_id":"free"},{"bike_id":"a4df99ce-0488-49dd-a888-94686f562e88","system_id":"levelo_inurba_marseille","lat":43.295748,"lon":5.37522,"is_reserved":false,"is_disabled":false,"rental_uris":{"android":"levelo://app?vid=a4df99ce-0488-49dd-a888-94686f562e88","ios":"levelo://app?vid=a4df99ce-0488-49dd-a888-94686f562e88"},"vehicle_type_id":"4","last_reported":1691219131,"current_range_meters":25200,"station_id":"ce4bgh92rcd13ifvqb50","pricing_plan_id":"free"},{"bike_id":"c13fb2e2-a48e-4b1c-9485-80a4e5af628f","system_id":"levelo_inurba_marseille","lat":43.295748,"lon":5.37522,"is_reserved":false,"is_disabled":false,"rental_uris":{"android":"levelo://app?vid=c13fb2e2-a48e-4b1c-9485-80a4e5af628f","ios":"levelo://app?vid=c13fb2e2-a48e-4b1c-9485-80a4e5af628f"},"vehicle_type_id":"4","last_reported":1691219131,"current_range_meters":31200,"station_id":"ce4bgh92rcd13ifvqb50","pricing_plan_id":"free"},{"bike_id":"1c78b035-e523-4d5a-8a08-875953784ea4","system_id":"levelo_inurba_marseille","lat":43.295279,"lon":5.375048,"is_reserved":false,"is_disabled":false,"rental_uris":{"android":"levelo://app?vid=1c78b035-e523-4d5a-8a08-875953784ea4","ios":"levelo://app?vid=1c78b035-e523-4d5a-8a08-875953784ea4"},"vehicle_type_id":"4","last_reported":1691219131,"current_range_meters":28800,"station_id":"ce4bgkp2rcd13ifvqbmg","pricing_plan_id":"free"},{"bike_id":"5f1c231d-5549-420b-a974-1b1406435a60","system_id":"levelo_inurba_marseille","lat":43.323608,"lon":5.388733,"is_reserved":false,"is_disabled":false,"rental_uris":{"android":"levelo://app?vid=5f1c231d-5549-420b-a974-1b1406435a60","ios":"levelo://app?vid=5f1c231d-5549-420b-a974-1b1406435a60"},"vehicle_type_id":"4","last_reported":1691219131,"current_range_meters":22400,"station_id":"ce4bhqp2rcd13ifvqhog","pricing_plan_id":"free"},{"bike_id":"43e03639-4029-4e8d-ad26-7f8f17f1e9de","system_id":"levelo_inurba_marseille","lat":43.32367,"lon":5.388836,"is_reserved":false,"is_disabled":false,"rental_uris":{"android":"levelo://app?vid=43e03639-4029-4e8d-ad26-7f8f17f1e9de","ios":"levelo://app?vid=43e03639-4029-4e8d-ad26-7f8f17f1e9de"},"vehicle_type_id":"4","last_reported":1691219131,"current_range_meters":17600,"station_id":"ce4bhqp2rcd13ifvqhog","pricing_plan_id":"free"},{"bike_id":"3d2edb57-516f-41bc-985e-42a721904578","system_id":"levelo_inurba_marseille","lat":43.32367,"lon":5.388836,"is_reserved":false,"is_disabled":false,"rental_uris":{"android":"levelo://app?vid=3d2edb57-516f-41bc-985e-42a721904578","ios":"levelo://app?vid=3d2edb57-516f-41bc-985e-42a721904578"},"vehicle_type_id":"4","last_reported":1691219131,"current_range_meters":22400,"station_id":"ce4bhqp2rcd13ifvqhog","pricing_plan_id":"free"},{"bike_id":"ee373f4b-d04e-43ef-92b8-3105e264ba5d","system_id":"levelo_inurba_marseille","lat":43.3236,"lon":5.38882,"is_reserved":false,"is_disabled":false,"rental_uris":{"android":"levelo://app?vid=ee373f4b-d04e-43ef-92b8-3105e264ba5d","ios":"levelo://app?vid=ee373f4b-d04e-43ef-92b8-3105e264ba5d"},"vehicle_type_id":"4","last_reported":1691219131,"current_range_meters":23200,"station_id":"ce4bhqp2rcd13ifvqhog","pricing_plan_id":"free"},{"bike_id":"fbc3a92c-f948-48e9-a3fc-f0e8af1a9259","system_id":"levelo_inurba_marseille","lat":43.32364,"lon":5.38882,"is_reserved":false,"is_disabled":false,"rental_uris":{"android":"levelo://app?vid=fbc3a92c-f948-48e9-a3fc-f0e8af1a9259","ios":"levelo://app?vid=fbc3a92c-f948-48e9-a3fc-f0e8af1a9259"},"vehicle_type_id":"4","last_reported":1691219131,"current_range_meters":30800,"station_id":"ce4bhqp2rcd13ifvqhog","pricing_plan_id":"free"},{"bike_id":"696ed9b6-9beb-423c-9d06-defcf66f30b9","system_id":"levelo_inurba_marseille","lat":43.32367,"lon":5.388836,"is_reserved":false,"is_disabled":false,"rental_uris":{"android":"levelo://app?vid=696ed9b6-9beb-423c-9d06-defcf66f30b9","ios":"levelo://app?vid=696ed9b6-9beb-423c-9d06-defcf66f30b9"},"vehicle_type_id":"4","last_reported":1691219131,"current_range_meters":12000,"station_id":"ce4bhqp2rcd13ifvqhog","pricing_plan_id":"free"},{"bike_id":"34ef5601-8765-4b80-bdc1-e9818152ffab","system_id":"levelo_inurba_marseille","lat":43.32367,"lon":5.388836,"is_reserved":false,"is_disabled":false,"rental_uris":{"android":"levelo://app?vid=34ef5601-8765-4b80-bdc1-e9818152ffab","ios":"levelo://app?vid=34ef5601-8765-4b80-bdc1-e9818152ffab"},"vehicle_type_id":"4","last_reported":1691219131,"current_range_meters":26000,"station_id":"ce4bhqp2rcd13ifvqhog","pricing_plan_id":"free"},{"bike_id":"31c4ebe8-2a4f-41b7-966a-7ad502ff3d8a","system_id":"levelo_inurba_marseille","lat":43.32365,"lon":5.38884,"is_reserved":false,"is_disabled":false,"rental_uris":{"android":"levelo://app?vid=31c4ebe8-2a4f-41b7-966a-7ad502ff3d8a","ios":"levelo://app?vid=31c4ebe8-2a4f-41b7-966a-7ad502ff3d8a"},"vehicle_type_id":"4","last_reported":1691219131,"current_range_meters":20800,"station_id":"ce4bhqp2rcd13ifvqhog","pricing_plan_id":"free"},{"bike_id":"b47ca02a-40ba-4dc8-abeb-b1a2c4b62cd0","system_id":"levelo_inurba_marseille","lat":43.3236,"lon":5.38889,"is_reserved":false,"is_disabled":false,"rental_uris":{"android":"levelo://app?vid=b47ca02a-40ba-4dc8-abeb-b1a2c4b62cd0","ios":"levelo://app?vid=b47ca02a-40ba-4dc8-abeb-b1a2c4b62cd0"},"vehicle_type_id":"4","last_reported":1691219131,"current_range_meters":0,"station_id":"ce4bhqp2rcd13ifvqhog","pricing_plan_id":"free"},{"bike_id":"153806a9-c106-4acb-8efe-f81ba29b58d3","system_id":"levelo_inurba_marseille","lat":43.32367,"lon":5.388836,"is_reserved":false,"is_disabled":false,"rental_uris":{"android":"levelo://app?vid=153806a9-c106-4acb-8efe-f81ba29b58d3","ios":"levelo://app?vid=153806a9-c106-4acb-8efe-f81ba29b58d3"},"vehicle_type_id":"4","last_reported":1691219131,"current_range_meters":24800,"station_id":"ce4bhqp2rcd13ifvqhog","pricing_plan_id":"free"},{"bike_id":"6be534a9-96c6-4989-b3bb-e9dea76376c4","system_id":"levelo_inurba_marseille","lat":43.32367,"lon":5.388836,"is_reserved":false,"is_disabled":false,"rental_uris":{"android":"levelo://app?vid=6be534a9-96c6-4989-b3bb-e9dea76376c4","ios":"levelo://app?vid=6be534a9-96c6-4989-b3bb-e9dea76376c4"},"vehicle_type_id":"4","last_reported":1691219131,"current_range_meters":7200,"station_id":"ce4bhqp2rcd13ifvqhog","pricing_plan_id":"free"},{"bike_id":"d80c5892-61c3-4b3d-a0e2-10eff24e8682","system_id":"levelo_inurba_marseille","lat":43.293249,"lon":5.371578,"is_reserved":false,"is_disabled":false,"rental_uris":{"android":"levelo://app?vid=d80c5892-61c3-4b3d-a0e2-10eff24e8682","ios":"levelo://app?vid=d80c5892-61c3-4b3d-a0e2-10eff24e8682"},"vehicle_type_id":"4","last_reported":1691219131,"current_range_meters":25200,"station_id":"ce4bgh92rcd13ifvqb40","pricing_plan_id":"free"},{"bike_id":"04ce7204-785e-4650-8cdf-18d6e5890126","system_id":"levelo_inurba_marseille","lat":43.29275,"lon":5.36841,"is_reserved":false,"is_disabled":false,"rental_uris":{"android":"levelo://app?vid=04ce7204-785e-4650-8cdf-18d6e5890126","ios":"levelo://app?vid=04ce7204-785e-4650-8cdf-18d6e5890126"},"vehicle_type_id":"4","last_reported":1691219131,"current_range_meters":13200,"station_id":"ce4bhbp2rcd13ifvqesg","pricing_plan_id":"free"},{"bike_id":"c5a67bea-fed1-46fd-97c1-635117c6ab08","system_id":"levelo_inurba_marseille","lat":43.293009,"lon":5.374584,"is_reserved":false,"is_disabled":false,"rental_uris":{"android":"levelo://app?vid=c5a67bea-fed1-46fd-97c1-635117c6ab08","ios":"levelo://app?vid=c5a67bea-fed1-46fd-97c1-635117c6ab08"},"vehicle_type_id":"4","last_reported":1691219131,"current_range_meters":30400,"station_id":"ce4bgi12rcd13ifvqb70","pricing_plan_id":"free"},{"bike_id":"273fb184-b1a7-4ae4-8e3f-cd7f76661c8e","system_id":"levelo_inurba_marseille","lat":43.293009,"lon":5.374584,"is_reserved":false,"is_disabled":false,"rental_uris":{"android":"levelo://app?vid=273fb184-b1a7-4ae4-8e3f-cd7f76661c8e","ios":"levelo://app?vid=273fb184-b1a7-4ae4-8e3f-cd7f76661c8e"},"vehicle_type_id":"4","last_reported":1691219131,"current_range_meters":31200,"station_id":"ce4bgi12rcd13ifvqb70","pricing_plan_id":"free"},{"bike_id":"9aa0d0dd-0c65-4f63-88f5-f625a628df5f","system_id":"levelo_inurba_marseille","lat":43.293009,"lon":5.374584,"is_reserved":false,"is_disabled":false,"rental_uris":{"android":"levelo://app?vid=9aa0d0dd-0c65-4f63-88f5-f625a628df5f","ios":"levelo://app?vid=9aa0d0dd-0c65-4f63-88f5-f625a628df5f"},"vehicle_type_id":"4","last_reported":1691219131,"current_range_meters":30000,"station_id":"ce4bgi12rcd13ifvqb70","pricing_plan_id":"free"},{"bike_id":"cf3840f3-5e50-44e9-8df4-142671a82fc3","system_id":"levelo_inurba_marseille","lat":43.302992,"lon":5.392136,"is_reserved":false,"is_disabled":false,"rental_uris":{"android":"levelo://app?vid=cf3840f3-5e50-44e9-8df4-142671a82fc3","ios":"levelo://app?vid=cf3840f3-5e50-44e9-8df4-142671a82fc3"},"vehicle_type_id":"4","last_reported":1691219131,"current_range_meters":27600,"station_id":"ce4bgkh2rcd13ifvqbk0","pricing_plan_id":"free"},{"bike_id":"d156510c-9b47-43b6-aa73-2ef2d2181050","system_id":"levelo_inurba_marseille","lat":43.302992,"lon":5.392136,"is_reserved":false,"is_disabled":false,"rental_uris":{"android":"levelo://app?vid=d156510c-9b47-43b6-aa73-2ef2d2181050","ios":"levelo://app?vid=d156510c-9b47-43b6-aa73-2ef2d2181050"},"vehicle_type_id":"4","last_reported":1691219131,"current_range_meters":30400,"station_id":"ce4bgkh2rcd13ifvqbk0","pricing_plan_id":"free"},{"bike_id":"e9f2bc4b-e727-4cb6-a5ba-f740145edee6","system_id":"levelo_inurba_marseille","lat":43.292311,"lon":5.360731,"is_reserved":false,"is_disabled":false,"rental_uris":{"android":"levelo://app?vid=e9f2bc4b-e727-4cb6-a5ba-f740145edee6","ios":"levelo://app?vid=e9f2bc4b-e727-4cb6-a5ba-f740145edee6"},"vehicle_type_id":"4","last_reported":1691219131,"current_range_meters":30000,"station_id":"ce4bhbh2rcd13ifvqeqg","pricing_plan_id":"free"},{"bike_id":"0348fbb8-5f58-40f2-b926-f5284fa6d4e8","system_id":"levelo_inurba_marseille","lat":43.29226,"lon":5.36057,"is_reserved":false,"is_disabled":false,"rental_uris":{"android":"levelo://app?vid=0348fbb8-5f58-40f2-b926-f5284fa6d4e8","ios":"levelo://app?vid=0348fbb8-5f58-40f2-b926-f5284fa6d4e8"},"vehicle_type_id":"4","last_reported":1691219131,"current_range_meters":0,"station_id":"ce4bhbh2rcd13ifvqeqg","pricing_plan_id":"free"},{"bike_id":"48a4675c-3592-4e86-b588-5cd026951643","system_id":"levelo_inurba_marseille","lat":43.313269,"lon":5.396729,"is_reserved":false,"is_disabled":false,"rental_uris":{"android":"levelo://app?vid=48a4675c-3592-4e86-b588-5cd026951643","ios":"levelo://app?vid=48a4675c-3592-4e86-b588-5cd026951643"},"vehicle_type_id":"4","last_reported":1691219131,"current_range_meters":31200,"station_id":"ce4bgvp2rcd13ifvqcu0","pricing_plan_id":"free"},{"bike_id":"235a57dc-dbaa-4e98-b747-0e89b73763e9","system_id":"levelo_inurba_marseille","lat":43.292,"lon":5.35798,"is_reserved":false,"is_disabled":false,"rental_uris":{"android":"levelo://app?vid=235a57dc-dbaa-4e98-b747-0e89b73763e9","ios":"levelo://app?vid=235a57dc-dbaa-4e98-b747-0e89b73763e9"},"vehicle_type_id":"4","last_reported":1691219131,"current_range_meters":28000,"station_id":"ce4bhb12rcd13ifvqel0","pricing_plan_id":"free"},{"bike_id":"edbde369-89e1-45f8-81b5-f85bad4243bd","system_id":"levelo_inurba_marseille","lat":43.291994,"lon":5.357886,"is_reserved":false,"is_disabled":false,"rental_uris":{"android":"levelo://app?vid=edbde369-89e1-45f8-81b5-f85bad4243bd","ios":"levelo://app?vid=edbde369-89e1-45f8-81b5-f85bad4243bd"},"vehicle_type_id":"4","last_reported":1691219131,"current_range_meters":20000,"station_id":"ce4bhb12rcd13ifvqel0","pricing_plan_id":"free"},{"bike_id":"c259fa64-952d-495c-b966-f6381bf49a42","system_id":"levelo_inurba_marseille","lat":43.308783,"lon":5.39636,"is_reserved":false,"is_disabled":false,"rental_uris":{"android":"levelo://app?vid=c259fa64-952d-495c-b966-f6381bf49a42","ios":"levelo://app?vid=c259fa64-952d-495c-b966-f6381bf49a42"},"vehicle_type_id":"4","last_reported":1691219131,"current_range_meters":18800,"station_id":"ce4bh012rcd13ifvqcv0","pricing_plan_id":"free"},{"bike_id":"0b9e9f78-eb76-491c-9188-e2aef1e2e70f","system_id":"levelo_inurba_marseille","lat":43.308775,"lon":5.39637,"is_reserved":false,"is_disabled":false,"rental_uris":{"android":"levelo://app?vid=0b9e9f78-eb76-491c-9188-e2aef1e2e70f","ios":"levelo://app?vid=0b9e9f78-eb76-491c-9188-e2aef1e2e70f"},"vehicle_type_id":"4","last_reported":1691219131,"current_range_meters":19200,"station_id":"ce4bh012rcd13ifvqcv0","pricing_plan_id":"free"},{"bike_id":"0288d276-f1da-474e-8992-fc865d32c018","system_id":"levelo_inurba_marseille","lat":43.3133,"lon":5.39688,"is_reserved":false,"is_disabled":false,"rental_uris":{"android":"levelo://app?vid=0288d276-f1da-474e-8992-fc865d32c018","ios":"levelo://app?vid=0288d276-f1da-474e-8992-fc865d32c018"},"vehicle_type_id":"4","last_reported":1691219131,"current_range_meters":27600,"station_id":"ce4bgvp2rcd13ifvqcu0","pricing_plan_id":"free"},{"bike_id":"ebbf0889-294e-4a97-b816-80e14ee272d5","system_id":"levelo_inurba_marseille","lat":43.313291,"lon":5.396838,"is_reserved":false,"is_disabled":false,"rental_uris":{"android":"levelo://app?vid=ebbf0889-294e-4a97-b816-80e14ee272d5","ios":"levelo://app?vid=ebbf0889-294e-4a97-b816-80e14ee272d5"},"vehicle_type_id":"4","last_reported":1691219131,"current_range_meters":24400,"station_id":"ce4bgvp2rcd13ifvqcu0","pricing_plan_id":"free"},{"bike_id":"4a008422-29a4-458e-a2c7-038b8d570857","system_id":"levelo_inurba_marseille","lat":43.31331,"lon":5.39689,"is_reserved":false,"is_disabled":false,"rental_uris":{"android":"levelo://app?vid=4a008422-29a4-458e-a2c7-038b8d570857","ios":"levelo://app?vid=4a008422-29a4-458e-a2c7-038b8d570857"},"vehicle_type_id":"4","last_reported":1691219131,"current_range_meters":13200,"station_id":"ce4bgvp2rcd13ifvqcu0","pricing_plan_id":"free"},{"bike_id":"d052577c-b8a4-471b-b73f-c0534c4a03e2","system_id":"levelo_inurba_marseille","lat":43.308867,"lon":5.396434,"is_reserved":false,"is_disabled":false,"rental_uris":{"android":"levelo://app?vid=d052577c-b8a4-471b-b73f-c0534c4a03e2","ios":"levelo://app?vid=d052577c-b8a4-471b-b73f-c0534c4a03e2"},"vehicle_type_id":"4","last_reported":1691219131,"current_range_meters":31200,"station_id":"ce4bh012rcd13ifvqcv0","pricing_plan_id":"free"},{"bike_id":"0c872fac-4908-4c2b-8165-2f366f0421b8","system_id":"levelo_inurba_marseille","lat":43.3132,"lon":5.39691,"is_reserved":false,"is_disabled":false,"rental_uris":{"android":"levelo://app?vid=0c872fac-4908-4c2b-8165-2f366f0421b8","ios":"levelo://app?vid=0c872fac-4908-4c2b-8165-2f366f0421b8"},"vehicle_type_id":"4","last_reported":1691219131,"current_range_meters":27600,"station_id":"ce4bgvp2rcd13ifvqcu0","pricing_plan_id":"free"},{"bike_id":"732d6916-7d23-4824-bd9d-f12772e1f638","system_id":"levelo_inurba_marseille","lat":43.31328,"lon":5.39691,"is_reserved":false,"is_disabled":false,"rental_uris":{"android":"levelo://app?vid=732d6916-7d23-4824-bd9d-f12772e1f638","ios":"levelo://app?vid=732d6916-7d23-4824-bd9d-f12772e1f638"},"vehicle_type_id":"4","last_reported":1691219131,"current_range_meters":26800,"station_id":"ce4bgvp2rcd13ifvqcu0","pricing_plan_id":"free"},{"bike_id":"73ef68a3-c405-4709-8c09-348081e638bc","system_id":"levelo_inurba_marseille","lat":43.29191,"lon":5.35798,"is_reserved":false,"is_disabled":false,"rental_uris":{"android":"levelo://app?vid=73ef68a3-c405-4709-8c09-348081e638bc","ios":"levelo://app?vid=73ef68a3-c405-4709-8c09-348081e638bc"},"vehicle_type_id":"4","last_reported":1691219131,"current_range_meters":26800,"station_id":"ce4bhb12rcd13ifvqel0","pricing_plan_id":"free"},{"bike_id":"75940d41-b8a2-41da-a9e6-9ebe0b8325a7","system_id":"levelo_inurba_marseille","lat":43.31323,"lon":5.39693,"is_reserved":false,"is_disabled":false,"rental_uris":{"android":"levelo://app?vid=75940d41-b8a2-41da-a9e6-9ebe0b8325a7","ios":"levelo://app?vid=75940d41-b8a2-41da-a9e6-9ebe0b8325a7"},"vehicle_type_id":"4","last_reported":1691219131,"current_range_meters":16000,"station_id":"ce4bgvp2rcd13ifvqcu0","pricing_plan_id":"free"},{"bike_id":"4e6846ae-36f1-4235-93d3-4da7c9b10477","system_id":"levelo_inurba_marseille","lat":43.31325,"lon":5.39694,"is_reserved":false,"is_disabled":false,"rental_uris":{"android":"levelo://app?vid=4e6846ae-36f1-4235-93d3-4da7c9b10477","ios":"levelo://app?vid=4e6846ae-36f1-4235-93d3-4da7c9b10477"},"vehicle_type_id":"4","last_reported":1691219131,"current_range_meters":23600,"station_id":"ce4bgvp2rcd13ifvqcu0","pricing_plan_id":"free"},{"bike_id":"d1ffca73-7d13-4241-8f74-14210fca76f7","system_id":"levelo_inurba_marseille","lat":43.313291,"lon":5.396838,"is_reserved":false,"is_disabled":false,"rental_uris":{"android":"levelo://app?vid=d1ffca73-7d13-4241-8f74-14210fca76f7","ios":"levelo://app?vid=d1ffca73-7d13-4241-8f74-14210fca76f7"},"vehicle_type_id":"4","last_reported":1691219131,"current_range_meters":28800,"station_id":"ce4bgvp2rcd13ifvqcu0","pricing_plan_id":"free"},{"bike_id":"152b437f-135a-41a9-8809-789f80214774","system_id":"levelo_inurba_marseille","lat":43.313323,"lon":5.396963,"is_reserved":false,"is_disabled":false,"rental_uris":{"android":"levelo://app?vid=152b437f-135a-41a9-8809-789f80214774","ios":"levelo://app?vid=152b437f-135a-41a9-8809-789f80214774"},"vehicle_type_id":"4","last_reported":1691219131,"current_range_meters":24800,"station_id":"ce4bgvp2rcd13ifvqcu0","pricing_plan_id":"free"},{"bike_id":"ff02c0d7-1cfb-409f-908f-6d85768ea8c5","system_id":"levelo_inurba_marseille","lat":43.313291,"lon":5.396838,"is_reserved":false,"is_disabled":false,"rental_uris":{"android":"levelo://app?vid=ff02c0d7-1cfb-409f-908f-6d85768ea8c5","ios":"levelo://app?vid=ff02c0d7-1cfb-409f-908f-6d85768ea8c5"},"vehicle_type_id":"4","last_reported":1691219131,"current_range_meters":31200,"station_id":"ce4bgvp2rcd13ifvqcu0","pricing_plan_id":"free"},{"bike_id":"8ce13b56-1737-47c1-99cb-f47c5df85884","system_id":"levelo_inurba_marseille","lat":43.31326,"lon":5.39697,"is_reserved":false,"is_disabled":false,"rental_uris":{"android":"levelo://app?vid=8ce13b56-1737-47c1-99cb-f47c5df85884","ios":"levelo://app?vid=8ce13b56-1737-47c1-99cb-f47c5df85884"},"vehicle_type_id":"4","last_reported":1691219131,"current_range_meters":20400,"station_id":"ce4bgvp2rcd13ifvqcu0","pricing_plan_id":"free"},{"bike_id":"4282928a-65ca-455f-9646-806d7e6ca5a3","system_id":"levelo_inurba_marseille","lat":43.31318,"lon":5.39698,"is_reserved":false,"is_disabled":false,"rental_uris":{"android":"levelo://app?vid=4282928a-65ca-455f-9646-806d7e6ca5a3","ios":"levelo://app?vid=4282928a-65ca-455f-9646-806d7e6ca5a3"},"vehicle_type_id":"4","last_reported":1691219131,"current_range_meters":24000,"station_id":"ce4bgvp2rcd13ifvqcu0","pricing_plan_id":"free"},{"bike_id":"40b0dbf0-87f6-4363-b8e9-d1cac15b6861","system_id":"levelo_inurba_marseille","lat":43.31321,"lon":5.39699,"is_reserved":false,"is_disabled":false,"rental_uris":{"android":"levelo://app?vid=40b0dbf0-87f6-4363-b8e9-d1cac15b6861","ios":"levelo://app?vid=40b0dbf0-87f6-4363-b8e9-d1cac15b6861"},"vehicle_type_id":"4","last_reported":1691219131,"current_range_meters":26800,"station_id":"ce4bgvp2rcd13ifvqcu0","pricing_plan_id":"free"},{"bike_id":"6761a8b1-91fb-4cd4-8397-cdcd34da0a44","system_id":"levelo_inurba_marseille","lat":43.31323,"lon":5.39699,"is_reserved":false,"is_disabled":false,"rental_uris":{"android":"levelo://app?vid=6761a8b1-91fb-4cd4-8397-cdcd34da0a44","ios":"levelo://app?vid=6761a8b1-91fb-4cd4-8397-cdcd34da0a44"},"vehicle_type_id":"4","last_reported":1691219131,"current_range_meters":16000,"station_id":"ce4bgvp2rcd13ifvqcu0","pricing_plan_id":"free"},{"bike_id":"40a7725f-bc55-4693-9c45-86bc7b0e8476","system_id":"levelo_inurba_marseille","lat":43.31328,"lon":5.39699,"is_reserved":false,"is_disabled":false,"rental_uris":{"android":"levelo://app?vid=40a7725f-bc55-4693-9c45-86bc7b0e8476","ios":"levelo://app?vid=40a7725f-bc55-4693-9c45-86bc7b0e8476"},"vehicle_type_id":"4","last_reported":1691219131,"current_range_meters":26000,"station_id":"ce4bgvp2rcd13ifvqcu0","pricing_plan_id":"free"},{"bike_id":"aebc54c8-79e4-45f4-b884-c61326e3fc84","system_id":"levelo_inurba_marseille","lat":43.313304,"lon":5.396994,"is_reserved":false,"is_disabled":false,"rental_uris":{"android":"levelo://app?vid=aebc54c8-79e4-45f4-b884-c61326e3fc84","ios":"levelo://app?vid=aebc54c8-79e4-45f4-b884-c61326e3fc84"},"vehicle_type_id":"4","last_reported":1691219131,"current_range_meters":31200,"station_id":"ce4bgvp2rcd13ifvqcu0","pricing_plan_id":"free"},{"bike_id":"ce9af7e8-c390-4052-bc70-643c83bd28f0","system_id":"levelo_inurba_marseille","lat":43.3132,"lon":5.39702,"is_reserved":false,"is_disabled":false,"rental_uris":{"android":"levelo://app?vid=ce9af7e8-c390-4052-bc70-643c83bd28f0","ios":"levelo://app?vid=ce9af7e8-c390-4052-bc70-643c83bd28f0"},"vehicle_type_id":"4","last_reported":1691219131,"current_range_meters":26800,"station_id":"ce4bgvp2rcd13ifvqcu0","pricing_plan_id":"free"},{"bike_id":"12fa8514-0a68-41f7-bb46-e07e792351de","system_id":"levelo_inurba_marseille","lat":43.313294,"lon":5.397021,"is_reserved":false,"is_disabled":false,"rental_uris":{"android":"levelo://app?vid=12fa8514-0a68-41f7-bb46-e07e792351de","ios":"levelo://app?vid=12fa8514-0a68-41f7-bb46-e07e792351de"},"vehicle_type_id":"4","last_reported":1691219131,"current_range_meters":31200,"station_id":"ce4bgvp2rcd13ifvqcu0","pricing_plan_id":"free"},{"bike_id":"6a78cfee-a0d7-4f90-b817-7d7948c89d9c","system_id":"levelo_inurba_marseille","lat":43.3132,"lon":5.39703,"is_reserved":false,"is_disabled":false,"rental_uris":{"android":"levelo://app?vid=6a78cfee-a0d7-4f90-b817-7d7948c89d9c","ios":"levelo://app?vid=6a78cfee-a0d7-4f90-b817-7d7948c89d9c"},"vehicle_type_id":"4","last_reported":1691219131,"current_range_meters":27600,"station_id":"ce4bgvp2rcd13ifvqcu0","pricing_plan_id":"free"},{"bike_id":"12cb0d86-de74-4397-963b-9508e30dc5a3","system_id":"levelo_inurba_marseille","lat":43.290779,"lon":5.371482,"is_reserved":false,"is_disabled":false,"rental_uris":{"android":"levelo://app?vid=12cb0d86-de74-4397-963b-9508e30dc5a3","ios":"levelo://app?vid=12cb0d86-de74-4397-963b-9508e30dc5a3"},"vehicle_type_id":"4","last_reported":1691219131,"current_range_meters":17600,"station_id":"ce4bh5p2rcd13ifvqe4g","pricing_plan_id":"free"},{"bike_id":"89fa53c4-06aa-4137-9826-c9a7656270e3","system_id":"levelo_inurba_marseille","lat":43.289184,"lon":5.366408,"is_reserved":false,"is_disabled":false,"rental_uris":{"android":"levelo://app?vid=89fa53c4-06aa-4137-9826-c9a7656270e3","ios":"levelo://app?vid=89fa53c4-06aa-4137-9826-c9a7656270e3"},"vehicle_type_id":"4","last_reported":1691219131,"current_range_meters":28800,"station_id":"ce4bhap2rcd13ifvqek0","pricing_plan_id":"free"},{"bike_id":"27109c73-1128-4f35-8ebe-4d2333a08f42","system_id":"levelo_inurba_marseille","lat":43.289184,"lon":5.366408,"is_reserved":false,"is_disabled":false,"rental_uris":{"android":"levelo://app?vid=27109c73-1128-4f35-8ebe-4d2333a08f42","ios":"levelo://app?vid=27109c73-1128-4f35-8ebe-4d2333a08f42"},"vehicle_type_id":"4","last_reported":1691219131,"current_range_meters":30800,"station_id":"ce4bhap2rcd13ifvqek0","pricing_plan_id":"free"},{"bike_id":"20baf9c0-8e85-4ffb-a39a-3eca99fbd699","system_id":"levelo_inurba_marseille","lat":43.33035,"lon":5.38916,"is_reserved":false,"is_disabled":false,"rental_uris":{"android":"levelo://app?vid=20baf9c0-8e85-4ffb-a39a-3eca99fbd699","ios":"levelo://app?vid=20baf9c0-8e85-4ffb-a39a-3eca99fbd699"},"vehicle_type_id":"4","last_reported":1691219131,"current_range_meters":31200,"station_id":"ce4bhr92rcd13ifvqhrg","pricing_plan_id":"free"},{"bike_id":"58d9daa4-9c4c-4dbc-a91c-3eee752552f5","system_id":"levelo_inurba_marseille","lat":43.30485,"lon":5.39795,"is_reserved":false,"is_disabled":false,"rental_uris":{"android":"levelo://app?vid=58d9daa4-9c4c-4dbc-a91c-3eee752552f5","ios":"levelo://app?vid=58d9daa4-9c4c-4dbc-a91c-3eee752552f5"},"vehicle_type_id":"4","last_reported":1691219131,"current_range_meters":19200,"station_id":"","pricing_plan_id":"free"},{"bike_id":"37fde894-3336-4087-bf88-b0989bbc514a","system_id":"levelo_inurba_marseille","lat":43.33038,"lon":5.38913,"is_reserved":false,"is_disabled":false,"rental_uris":{"android":"levelo://app?vid=37fde894-3336-4087-bf88-b0989bbc514a","ios":"levelo://app?vid=37fde894-3336-4087-bf88-b0989bbc514a"},"vehicle_type_id":"4","last_reported":1691219131,"current_range_meters":31200,"station_id":"ce4bhr92rcd13ifvqhrg","pricing_plan_id":"free"},{"bike_id":"cedbc9c4-3cd8-4974-be60-104359550a71","system_id":"levelo_inurba_marseille","lat":43.33039,"lon":5.38914,"is_reserved":false,"is_disabled":false,"rental_uris":{"android":"levelo://app?vid=cedbc9c4-3cd8-4974-be60-104359550a71","ios":"levelo://app?vid=cedbc9c4-3cd8-4974-be60-104359550a71"},"vehicle_type_id":"4","last_reported":1691219131,"current_range_meters":31200,"station_id":"ce4bhr92rcd13ifvqhrg","pricing_plan_id":"free"},{"bike_id":"f67edc25-bcc7-41fb-8431-1add679b0933","system_id":"levelo_inurba_marseille","lat":43.33038,"lon":5.38916,"is_reserved":false,"is_disabled":false,"rental_uris":{"android":"levelo://app?vid=f67edc25-bcc7-41fb-8431-1add679b0933","ios":"levelo://app?vid=f67edc25-bcc7-41fb-8431-1add679b0933"},"vehicle_type_id":"4","last_reported":1691219131,"current_range_meters":17200,"station_id":"ce4bhr92rcd13ifvqhrg","pricing_plan_id":"free"},{"bike_id":"b318ced9-0a46-436e-8cde-98a85de4448a","system_id":"levelo_inurba_marseille","lat":43.33037,"lon":5.38918,"is_reserved":false,"is_disabled":false,"rental_uris":{"android":"levelo://app?vid=b318ced9-0a46-436e-8cde-98a85de4448a","ios":"levelo://app?vid=b318ced9-0a46-436e-8cde-98a85de4448a"},"vehicle_type_id":"4","last_reported":1691219131,"current_range_meters":31200,"station_id":"ce4bhr92rcd13ifvqhrg","pricing_plan_id":"free"},{"bike_id":"2dba05d3-f7a4-4dcc-9133-7e306f42ddbb","system_id":"levelo_inurba_marseille","lat":43.33041,"lon":5.38913,"is_reserved":false,"is_disabled":false,"rental_uris":{"android":"levelo://app?vid=2dba05d3-f7a4-4dcc-9133-7e306f42ddbb","ios":"levelo://app?vid=2dba05d3-f7a4-4dcc-9133-7e306f42ddbb"},"vehicle_type_id":"4","last_reported":1691219131,"current_range_meters":31200,"station_id":"ce4bhr92rcd13ifvqhrg","pricing_plan_id":"free"},{"bike_id":"c16feec1-751c-4e1b-bf24-3956b18a7335","system_id":"levelo_inurba_marseille","lat":43.33038,"lon":5.38918,"is_reserved":false,"is_disabled":false,"rental_uris":{"android":"levelo://app?vid=c16feec1-751c-4e1b-bf24-3956b18a7335","ios":"levelo://app?vid=c16feec1-751c-4e1b-bf24-3956b18a7335"},"vehicle_type_id":"4","last_reported":1691219131,"current_range_meters":31200,"station_id":"ce4bhr92rcd13ifvqhrg","pricing_plan_id":"free"},{"bike_id":"9692718f-5e29-4ec7-a5d8-53f40d94ef49","system_id":"levelo_inurba_marseille","lat":43.33038,"lon":5.38919,"is_reserved":false,"is_disabled":false,"rental_uris":{"android":"levelo://app?vid=9692718f-5e29-4ec7-a5d8-53f40d94ef49","ios":"levelo://app?vid=9692718f-5e29-4ec7-a5d8-53f40d94ef49"},"vehicle_type_id":"4","last_reported":1691219131,"current_range_meters":22000,"station_id":"ce4bhr92rcd13ifvqhrg","pricing_plan_id":"free"},{"bike_id":"976f718a-bfdb-4480-a757-e5b9a5d1a5d6","system_id":"levelo_inurba_marseille","lat":43.33041,"lon":5.38915,"is_reserved":false,"is_disabled":false,"rental_uris":{"android":"levelo://app?vid=976f718a-bfdb-4480-a757-e5b9a5d1a5d6","ios":"levelo://app?vid=976f718a-bfdb-4480-a757-e5b9a5d1a5d6"},"vehicle_type_id":"4","last_reported":1691219131,"current_range_meters":26400,"station_id":"ce4bhr92rcd13ifvqhrg","pricing_plan_id":"free"},{"bike_id":"20cb5f5a-181a-4021-97b1-43635f1dcccc","system_id":"levelo_inurba_marseille","lat":43.33039,"lon":5.38919,"is_reserved":false,"is_disabled":false,"rental_uris":{"android":"levelo://app?vid=20cb5f5a-181a-4021-97b1-43635f1dcccc","ios":"levelo://app?vid=20cb5f5a-181a-4021-97b1-43635f1dcccc"},"vehicle_type_id":"4","last_reported":1691219131,"current_range_meters":31200,"station_id":"ce4bhr92rcd13ifvqhrg","pricing_plan_id":"free"},{"bike_id":"20cf3f6d-acf4-4653-bf24-baa04253f77a","system_id":"levelo_inurba_marseille","lat":43.33038,"lon":5.38921,"is_reserved":false,"is_disabled":false,"rental_uris":{"android":"levelo://app?vid=20cf3f6d-acf4-4653-bf24-baa04253f77a","ios":"levelo://app?vid=20cf3f6d-acf4-4653-bf24-baa04253f77a"},"vehicle_type_id":"4","last_reported":1691219131,"current_range_meters":15600,"station_id":"ce4bhr92rcd13ifvqhrg","pricing_plan_id":"free"},{"bike_id":"87a91d50-b0ca-4c64-94ae-7cf78dbb050f","system_id":"levelo_inurba_marseille","lat":43.33038,"lon":5.38922,"is_reserved":false,"is_disabled":false,"rental_uris":{"android":"levelo://app?vid=87a91d50-b0ca-4c64-94ae-7cf78dbb050f","ios":"levelo://app?vid=87a91d50-b0ca-4c64-94ae-7cf78dbb050f"},"vehicle_type_id":"4","last_reported":1691219131,"current_range_meters":14400,"station_id":"ce4bhr92rcd13ifvqhrg","pricing_plan_id":"free"},{"bike_id":"2f2d42a2-8de0-405f-9429-d3eae654394c","system_id":"levelo_inurba_marseille","lat":43.33043,"lon":5.38917,"is_reserved":false,"is_disabled":false,"rental_uris":{"android":"levelo://app?vid=2f2d42a2-8de0-405f-9429-d3eae654394c","ios":"levelo://app?vid=2f2d42a2-8de0-405f-9429-d3eae654394c"},"vehicle_type_id":"4","last_reported":1691219131,"current_range_meters":18000,"station_id":"ce4bhr92rcd13ifvqhrg","pricing_plan_id":"free"},{"bike_id":"34fc0bae-b089-42d1-99d0-10d5b39f2b41","system_id":"levelo_inurba_marseille","lat":43.3304,"lon":5.38922,"is_reserved":false,"is_disabled":false,"rental_uris":{"android":"levelo://app?vid=34fc0bae-b089-42d1-99d0-10d5b39f2b41","ios":"levelo://app?vid=34fc0bae-b089-42d1-99d0-10d5b39f2b41"},"vehicle_type_id":"4","last_reported":1691219131,"current_range_meters":23200,"station_id":"ce4bhr92rcd13ifvqhrg","pricing_plan_id":"free"},{"bike_id":"e6c6e4e8-edee-449e-8936-76c8ef3752c4","system_id":"levelo_inurba_marseille","lat":43.33037,"lon":5.38927,"is_reserved":false,"is_disabled":false,"rental_uris":{"android":"levelo://app?vid=e6c6e4e8-edee-449e-8936-76c8ef3752c4","ios":"levelo://app?vid=e6c6e4e8-edee-449e-8936-76c8ef3752c4"},"vehicle_type_id":"4","last_reported":1691219131,"current_range_meters":20800,"station_id":"ce4bhr92rcd13ifvqhrg","pricing_plan_id":"free"},{"bike_id":"98f910d2-52f4-4465-977e-10142d8cca43","system_id":"levelo_inurba_marseille","lat":43.33042,"lon":5.38921,"is_reserved":false,"is_disabled":false,"rental_uris":{"android":"levelo://app?vid=98f910d2-52f4-4465-977e-10142d8cca43","ios":"levelo://app?vid=98f910d2-52f4-4465-977e-10142d8cca43"},"vehicle_type_id":"4","last_reported":1691219131,"current_range_meters":18000,"station_id":"ce4bhr92rcd13ifvqhrg","pricing_plan_id":"free"},{"bike_id":"8ace282d-a246-40c2-9516-a60b5d85bb41","system_id":"levelo_inurba_marseille","lat":43.33044,"lon":5.38919,"is_reserved":false,"is_disabled":false,"rental_uris":{"android":"levelo://app?vid=8ace282d-a246-40c2-9516-a60b5d85bb41","ios":"levelo://app?vid=8ace282d-a246-40c2-9516-a60b5d85bb41"},"vehicle_type_id":"4","last_reported":1691219131,"current_range_meters":20800,"station_id":"ce4bhr92rcd13ifvqhrg","pricing_plan_id":"free"},{"bike_id":"38c1adea-6867-4940-9699-a628b1958570","system_id":"levelo_inurba_marseille","lat":43.33046,"lon":5.38917,"is_reserved":false,"is_disabled":false,"rental_uris":{"android":"levelo://app?vid=38c1adea-6867-4940-9699-a628b1958570","ios":"levelo://app?vid=38c1adea-6867-4940-9699-a628b1958570"},"vehicle_type_id":"4","last_reported":1691219131,"current_range_meters":29600,"station_id":"ce4bhr92rcd13ifvqhrg","pricing_plan_id":"free"},{"bike_id":"00b2dcdc-2882-40a1-9132-89c3ec15cf18","system_id":"levelo_inurba_marseille","lat":43.33046,"lon":5.38919,"is_reserved":false,"is_disabled":false,"rental_uris":{"android":"levelo://app?vid=00b2dcdc-2882-40a1-9132-89c3ec15cf18","ios":"levelo://app?vid=00b2dcdc-2882-40a1-9132-89c3ec15cf18"},"vehicle_type_id":"4","last_reported":1691219131,"current_range_meters":15600,"station_id":"ce4bhr92rcd13ifvqhrg","pricing_plan_id":"free"},{"bike_id":"9ce62819-7d94-47c9-aff2-f56e39f0ba59","system_id":"levelo_inurba_marseille","lat":43.33041,"lon":5.3893,"is_reserved":false,"is_disabled":false,"rental_uris":{"android":"levelo://app?vid=9ce62819-7d94-47c9-aff2-f56e39f0ba59","ios":"levelo://app?vid=9ce62819-7d94-47c9-aff2-f56e39f0ba59"},"vehicle_type_id":"4","last_reported":1691219131,"current_range_meters":29200,"station_id":"ce4bhr92rcd13ifvqhrg","pricing_plan_id":"free"},{"bike_id":"05bf2cc0-c80b-4d3b-9303-5cea93148e89","system_id":"levelo_inurba_marseille","lat":43.290995,"lon":5.381361,"is_reserved":false,"is_disabled":false,"rental_uris":{"android":"levelo://app?vid=05bf2cc0-c80b-4d3b-9303-5cea93148e89","ios":"levelo://app?vid=05bf2cc0-c80b-4d3b-9303-5cea93148e89"},"vehicle_type_id":"4","last_reported":1691219131,"current_range_meters":30000,"station_id":"ce4bh512rcd13ifvqe2g","pricing_plan_id":"free"},{"bike_id":"48bde62d-340c-4f1e-962a-d0ef522410aa","system_id":"levelo_inurba_marseille","lat":43.289743,"lon":5.378304,"is_reserved":false,"is_disabled":false,"rental_uris":{"android":"levelo://app?vid=48bde62d-340c-4f1e-962a-d0ef522410aa","ios":"levelo://app?vid=48bde62d-340c-4f1e-962a-d0ef522410aa"},"vehicle_type_id":"4","last_reported":1691219131,"current_range_meters":29200,"station_id":"ce4bh9p2rcd13ifvqed0","pricing_plan_id":"free"},{"bike_id":"0439f450-4dd0-43b3-b961-fee9b9db5edf","system_id":"levelo_inurba_marseille","lat":43.289741,"lon":5.378306,"is_reserved":false,"is_disabled":false,"rental_uris":{"android":"levelo://app?vid=0439f450-4dd0-43b3-b961-fee9b9db5edf","ios":"levelo://app?vid=0439f450-4dd0-43b3-b961-fee9b9db5edf"},"vehicle_type_id":"4","last_reported":1691219131,"current_range_meters":27600,"station_id":"ce4bh9p2rcd13ifvqed0","pricing_plan_id":"free"},{"bike_id":"c24a0d56-731d-4a5b-80a3-9ce72977e266","system_id":"levelo_inurba_marseille","lat":43.2901,"lon":5.381269,"is_reserved":false,"is_disabled":false,"rental_uris":{"android":"levelo://app?vid=c24a0d56-731d-4a5b-80a3-9ce72977e266","ios":"levelo://app?vid=c24a0d56-731d-4a5b-80a3-9ce72977e266"},"vehicle_type_id":"4","last_reported":1691219131,"current_range_meters":28800,"station_id":"ce4bh4p2rcd13ifvqe1g","pricing_plan_id":"free"},{"bike_id":"a726a99f-f654-4ca3-a14d-29b0cb2c7782","system_id":"levelo_inurba_marseille","lat":43.28856,"lon":5.358371,"is_reserved":false,"is_disabled":false,"rental_uris":{"android":"levelo://app?vid=a726a99f-f654-4ca3-a14d-29b0cb2c7782","ios":"levelo://app?vid=a726a99f-f654-4ca3-a14d-29b0cb2c7782"},"vehicle_type_id":"4","last_reported":1691219131,"current_range_meters":31600,"station_id":"ce4bhb12rcd13ifvqem0","pricing_plan_id":"free"},{"bike_id":"97f05399-5316-45ea-93b9-a826bc6a957b","system_id":"levelo_inurba_marseille","lat":43.312609,"lon":5.401662,"is_reserved":false,"is_disabled":false,"rental_uris":{"android":"levelo://app?vid=97f05399-5316-45ea-93b9-a826bc6a957b","ios":"levelo://app?vid=97f05399-5316-45ea-93b9-a826bc6a957b"},"vehicle_type_id":"4","last_reported":1691219131,"current_range_meters":0,"station_id":"ce4bh092rcd13ifvqd30","pricing_plan_id":"free"},{"bike_id":"51a05a44-ab6c-48a1-9c26-af3af6db9327","system_id":"levelo_inurba_marseille","lat":43.31281,"lon":5.40167,"is_reserved":false,"is_disabled":false,"rental_uris":{"android":"levelo://app?vid=51a05a44-ab6c-48a1-9c26-af3af6db9327","ios":"levelo://app?vid=51a05a44-ab6c-48a1-9c26-af3af6db9327"},"vehicle_type_id":"4","last_reported":1691219131,"current_range_meters":4000,"station_id":"ce4bh092rcd13ifvqd30","pricing_plan_id":"free"},{"bike_id":"cb3430a5-5a38-4229-9da2-5a370bd5644f","system_id":"levelo_inurba_marseille","lat":43.30935,"lon":5.40136,"is_reserved":false,"is_disabled":false,"rental_uris":{"android":"levelo://app?vid=cb3430a5-5a38-4229-9da2-5a370bd5644f","ios":"levelo://app?vid=cb3430a5-5a38-4229-9da2-5a370bd5644f"},"vehicle_type_id":"4","last_reported":1691219131,"current_range_meters":18800,"station_id":"ce4bgvp2rcd13ifvqct0","pricing_plan_id":"free"},