{"last_updated":1731074908,"ttl":60,"version":"2.2","data":{"bikes":[{"bike_id":"e9c7b155-113d-4557-9e4d-12a2f13c6d57","system_id":"levelo_inurba_marseille","lat":43.3081,"lon":5.38154,"is_reserved":false,"is_disabled":false,"rental_uris":{"android":"levelo://app?vid=e9c7b155-113d-4557-9e4d-12a2f13c6d57","ios":"levelo://app?vid=e9c7b155-113d-4557-9e4d-12a2f13c6d57"},"vehicle_type_id":"4","last_reported":1731074908,"current_range_meters":19600,"station_id":"ce4bgt12rcd13ifvqce0","pricing_plan_id":"cebpf4jnsgd1na2vs0mg"},{"bike_id":"c2e15428-d2ba-434b-9f47-55afdd0f856a","system_id":"levelo_inurba_marseille","lat":43.28268,"lon":5.35067,"is_reserved":false,"is_disabled":false,"rental_uris":{"android":"levelo://app?vid=c2e15428-d2ba-434b-9f47-55afdd0f856a","ios":"levelo://app?vid=c2e15428-d2ba-434b-9f47-55afdd0f856a"},"vehicle_type_id":"4","last_reported":1731074908,"current_range_meters":8400,"station_id":"ce4bhbp2rcd13ifvqerg","pricing_plan_id":"cebpf4jnsgd1na2vs0mg"},{"bike_id":"c55ba6b0-8766-42a5-8448-b05670acebea","system_id":"levelo_inurba_marseille","lat":43.26208,"lon":5.37441,"is_reserved":false,"is_disabled":false,"rental_uris":{"android":"levelo://app?vid=c55ba6b0-8766-42a5-8448-b05670acebea","ios":"levelo://app?vid=c55ba6b0-8766-42a5-8448-b05670acebea"},"vehicle_type_id":"4","last_reported":1731074908,"current_range_meters":27600,"station_id":"ce4bhgp2rcd13ifvqfc0","pricing_plan_id":"cebpf4jnsgd1na2vs0mg"},{"bike_id":"af7d2b74-1cb1-415f-a7da-1d62cad27416","system_id":"levelo_inurba_marseille","lat":43.29038,"lon":5.39964,"is_reserved":false,"is_disabled":false,"rental_uris":{"android":"levelo://app?vid=af7d2b74-1cb1-415f-a7da-1d62cad27416","ios":"levelo://app?vid=af7d2b74-1cb1-415f-a7da-1d62cad27416"},"vehicle_type_id":"4","last_reported":1731074908,"current_range_meters":36000,"station_id":"ce4bh392rcd13ifvqdm0","pricing_plan_id":"cebpf4jnsgd1na2vs0mg"},{"bike_id":"7f774ae5-6cb7-4c53-91e0-4e9519e7a5f3","system_id":"levelo_inurba_marseille","lat":43.31726,"lon":5.42386,"is_reserved":false,"is_disabled":false,"rental_uris":{"android":"levelo://app?vid=7f774ae5-6cb7-4c53-91e0-4e9519e7a5f3","ios":"levelo://app?vid=7f774ae5-6cb7-4c53-91e0-4e9519e7a5f3"},"vehicle_type_id":"4","last_reported":1731074908,"current_range_meters":30400,"station_id":"ce4bhp92rcd13ifvqhbg","pricing_plan_id":"cebpf4jnsgd1na2vs0mg"},{"bike_id":"8dca1985-1c84-47bf-9fde-e37ad3524f58","system_id":"levelo_inurba_marseille","lat":43.29542,"lon":5.375,"is_reserved":false,"is_disabled":false,"rental_uris":{"android":"levelo://app?vid=8dca1985-1c84-47bf-9fde-e37ad3524f58","ios":"levelo://app?vid=8dca1985-1c84-47bf-9fde-e37ad3524f58"},"vehicle_type_id":"4","last_reported":1731074908,"current_range_meters":38800,"station_id":"ce4bgkp2rcd13ifvqbmg","pricing_plan_id":"cebpf4jnsgd1na2vs0mg"},{"bike_id":"41dc0cdc-e2a3-4364-9502-e92dd8e24227","system_id":"levelo_inurba_marseille","lat":43.31352,"lon":5.36716,"is_reserved":false,"is_disabled":false,"rental_uris":{"android":"levelo://app?vid=41dc0cdc-e2a3-4364-9502-e92dd8e24227","ios":"levelo://app?vid=41dc0cdc-e2a3-4364-9502-e92dd8e24227"},"vehicle_type_id":"4","last_reported":1731074908,"current_range_meters":12400,"station_id":"ce4bgr92rcd13ifvqc6g","pricing_plan_id":"cebpf4jnsgd1na2vs0mg"},{"bike_id":"85ec6972-2474-4903-af30-b7a390d3db72","system_id":"levelo_inurba_marseille","lat":43.26215,"lon":5.37452,"is_reserved":false,"is_disabled":false,"rental_uris":{"android":"levelo://app?vid=85ec6972-2474-4903-af30-b7a390d3db72","ios":"levelo://app?vid=85ec6972-2474-4903-af30-b7a390d3db72"},"vehicle_type_id":"4","last_reported":1731074908,"current_range_meters":35600,"station_id":"ce4bhgp2rcd13ifvqfc0","pricing_plan_id":"cebpf4jnsgd1na2vs0mg"},{"bike_id":"c88f1b31-dd3c-4e82-a81a-152198c83c26","system_id":"levelo_inurba_marseille","lat":43.31234,"lon":5.36863,"is_reserved":false,"is_disabled":false,"rental_uris":{"android":"levelo://app?vid=c88f1b31-dd3c-4e82-a81a-152198c83c26","ios":"levelo://app?vid=c88f1b31-dd3c-4e82-a81a-152198c83c26"},"vehicle_type_id":"4","last_reported":1731074908,"current_range_meters":9200,"station_id":"ce4bgl92rcd13ifvqbq0","pricing_plan_id":"cebpf4jnsgd1na2vs0mg"},{"bike_id":"d4ddc17c-a5a4-4ba9-ad4a-e9f523b267da","system_id":"levelo_inurba_marseille","lat":43.3015,"lon":5.37421,"is_reserved":false,"is_disabled":false,"rental_uris":{"android":"levelo://app?vid=d4ddc17c-a5a4-4ba9-ad4a-e9f523b267da","ios":"levelo://app?vid=d4ddc17c-a5a4-4ba9-ad4a-e9f523b267da"},"vehicle_type_id":"4","last_reported":1731074908,"current_range_meters":5600,"station_id":"ce4bgs92rcd13ifvqcc0","pricing_plan_id":"cebpf4jnsgd1na2vs0mg"},{"bike_id":"504e5d62-7828-485f-b5c5-e0859c494a6c","system_id":"levelo_inurba_marseille","lat":43.32477,"lon":5.36591,"is_reserved":false,"is_disabled":false,"rental_uris":{"android":"levelo://app?vid=504e5d62-7828-485f-b5c5-e0859c494a6c","ios":"levelo://app?vid=504e5d62-7828-485f-b5c5-e0859c494a6c"},"vehicle_type_id":"4","last_reported":1731074908,"current_range_meters":36400,"station_id":"ce4bhs12rcd13ifvqhvg","pricing_plan_id":"cebpf4jnsgd1na2vs0mg"},{"bike_id":"74cb9b7e-ecd6-4552-af7e-d09021f8d0af","system_id":"levelo_inurba_marseille","lat":43.27838,"lon":5.39209,"is_reserved":false,"is_disabled":false,"rental_uris":{"android":"levelo://app?vid=74cb9b7e-ecd6-4552-af7e-d09021f8d0af","ios":"levelo://app?vid=74cb9b7e-ecd6-4552-af7e-d09021f8d0af"},"vehicle_type_id":"4","last_reported":1731074908,"current_range_meters":12800,"station_id":"ce4bhjp2rcd13ifvqga0","pricing_plan_id":"cebpf4jnsgd1na2vs0mg"},{"bike_id":"5ebea0ec-96f4-42f4-897f-d2801280b77e","system_id":"levelo_inurba_marseille","lat":43.300338,"lon":5.383353,"is_reserved":false,"is_disabled":false,"rental_uris":{"android":"levelo://app?vid=5ebea0ec-96f4-42f4-897f-d2801280b77e","ios":"levelo://app?vid=5ebea0ec-96f4-42f4-897f-d2801280b77e"},"vehicle_type_id":"4","last_reported":1731074908,"current_range_meters":18800,"station_id":"ce4bhqh2rcd13ifvqhlg","pricing_plan_id":"cebpf4jnsgd1na2vs0mg"},{"bike_id":"e382a5f5-b97c-4326-befe-74fa542b41c7","system_id":"levelo_inurba_marseille","lat":43.23152,"lon":5.4371,"is_reserved":false,"is_disabled":false,"rental_uris":{"android":"levelo://app?vid=e382a5f5-b97c-4326-befe-74fa542b41c7","ios":"levelo://app?vid=e382a5f5-b97c-4326-befe-74fa542b41c7"},"vehicle_type_id":"4","last_reported":1731074908,"current_range_meters":28000,"station_id":"ce4bhmp2rcd13ifvqgog","pricing_plan_id":"cebpf4jnsgd1na2vs0mg"},{"bike_id":"de865947-5c7e-479e-88a7-6f956ab8305c","system_id":"levelo_inurba_marseille","lat":43.31233,"lon":5.36863,"is_reserved":false,"is_disabled":false,"rental_uris":{"android":"levelo://app?vid=de865947-5c7e-479e-88a7-6f956ab8305c","ios":"levelo://app?vid=de865947-5c7e-479e-88a7-6f956ab8305c"},"vehicle_type_id":"4","last_reported":1731074908,"current_range_meters":24800,"station_id":"ce4bgl92rcd13ifvqbq0","pricing_plan_id":"cebpf4jnsgd1na2vs0mg"},{"bike_id":"4d048441-1e1f-4ed2-947c-a5d5c9275dfd","system_id":"levelo_inurba_marseille","lat":43.28108,"lon":5.37845,"is_reserved":false,"is_disabled":false,"rental_uris":{"android":"levelo://app?vid=4d048441-1e1f-4ed2-947c-a5d5c9275dfd","ios":"levelo://app?vid=4d048441-1e1f-4ed2-947c-a5d5c9275dfd"},"vehicle_type_id":"4","last_reported":1731074908,"current_range_meters":22000,"station_id":"ce4bha12rcd13ifvqee0","pricing_plan_id":"cebpf4jnsgd1na2vs0mg"},{"bike_id":"e22b98a5-9773-4f71-85ed-e74c4dff6249","system_id":"levelo_inurba_marseille","lat":43.305,"lon":5.36702,"is_reserved":false,"is_disabled":false,"rental_uris":{"android":"levelo://app?vid=e22b98a5-9773-4f71-85ed-e74c4dff6249","ios":"levelo://app?vid=e22b98a5-9773-4f71-85ed-e74c4dff6249"},"vehicle_type_id":"4","last_reported":1731074908,"current_range_meters":29600,"station_id":"ce4bgrp2rcd13ifvqc9g","pricing_plan_id":"cebpf4jnsgd1na2vs0mg"},{"bike_id":"18e80a43-568d-4d3b-88b4-c7568a83b037","system_id":"levelo_inurba_marseille","lat":43.29272,"lon":5.38435,"is_reserved":false,"is_disabled":false,"rental_uris":{"android":"levelo://app?vid=18e80a43-568d-4d3b-88b4-c7568a83b037","ios":"levelo://app?vid=18e80a43-568d-4d3b-88b4-c7568a83b037"},"vehicle_type_id":"4","last_reported":1731074908,"current_range_meters":16400,"station_id":"ce4bh692rcd13ifvqea0","pricing_plan_id":"cebpf4jnsgd1na2vs0mg"},{"bike_id":"3e1d0ac1-41eb-46d6-868b-1f98af7efa91","system_id":"levelo_inurba_marseille","lat":43.30348,"lon":5.41875,"is_reserved":false,"is_disabled":false,"rental_uris":{"android":"levelo://app?vid=3e1d0ac1-41eb-46d6-868b-1f98af7efa91","ios":"levelo://app?vid=3e1d0ac1-41eb-46d6-868b-1f98af7efa91"},"vehicle_type_id":"4","last_reported":1731074908,"current_range_meters":22800,"station_id":"ce4bhop2rcd13ifvqh7g","pricing_plan_id":"cebpf4jnsgd1na2vs0mg"},{"bike_id":"cc436b9b-6919-457d-a71f-48c9aba53f0a","system_id":"levelo_inurba_marseille","lat":43.28262,"lon":5.35064,"is_reserved":false,"is_disabled":false,"rental_uris":{"android":"levelo://app?vid=cc436b9b-6919-457d-a71f-48c9aba53f0a","ios":"levelo://app?vid=cc436b9b-6919-457d-a71f-48c9aba53f0a"},"vehicle_type_id":"4","last_reported":1731074908,"current_range_meters":6800,"station_id":"ce4bhbp2rcd13ifvqerg","pricing_plan_id":"cebpf4jnsgd1na2vs0mg"},{"bike_id":"ffcb91c1-03a2-4cd4-8247-861601edacb4","system_id":"levelo_inurba_marseille","lat":43.2927,"lon":5.36861,"is_reserved":false,"is_disabled":false,"rental_uris":{"android":"levelo://app?vid=ffcb91c1-03a2-4cd4-8247-861601edacb4","ios":"levelo://app?vid=ffcb91c1-03a2-4cd4-8247-861601edacb4"},"vehicle_type_id":"4","last_reported":1731074908,"current_range_meters":28000,"station_id":"ce4bhbp2rcd13ifvqesg","pricing_plan_id":"cebpf4jnsgd1na2vs0mg"},{"bike_id":"ce23bc23-f800-43e2-93fb-378d92089b6e","system_id":"levelo_inurba_marseille","lat":43.25499,"lon":5.3765,"is_reserved":false,"is_disabled":false,"rental_uris":{"android":"levelo://app?vid=ce23bc23-f800-43e2-93fb-378d92089b6e","ios":"levelo://app?vid=ce23bc23-f800-43e2-93fb-378d92089b6e"},"vehicle_type_id":"4","last_reported":1731074908,"current_range_meters":32000,"station_id":"ce4bhh12rcd13ifvqff0","pricing_plan_id":"cebpf4jnsgd1na2vs0mg"},{"bike_id":"f02f6348-7d80-4075-9fd0-a32acf641868","system_id":"levelo_inurba_marseille","lat":43.25502,"lon":5.3765,"is_reserved":false,"is_disabled":false,"rental_uris":{"android":"levelo://app?vid=f02f6348-7d80-4075-9fd0-a32acf641868","ios":"levelo://app?vid=f02f6348-7d80-4075-9fd0-a32acf641868"},"vehicle_type_id":"4","last_reported":1731074908,"current_range_meters":19600,"station_id":"ce4bhh12rcd13ifvqff0","pricing_plan_id":"cebpf4jnsgd1na2vs0mg"},{"bike_id":"3d32f789-a044-47cc-8444-b1887a88a83f","system_id":"levelo_inurba_marseille","lat":43.305427,"lon":5.36707,"is_reserved":false,"is_disabled":false,"rental_uris":{"android":"levelo://app?vid=3d32f789-a044-47cc-8444-b1887a88a83f","ios":"levelo://app?vid=3d32f789-a044-47cc-8444-b1887a88a83f"},"vehicle_type_id":"4","last_reported":1731074908,"current_range_meters":38000,"station_id":"ce4bgrp2rcd13ifvqc9g","pricing_plan_id":"cebpf4jnsgd1na2vs0mg"},{"bike_id":"3efc08d3-ff41-4556-a244-acadc6b0766c","system_id":"levelo_inurba_marseille","lat":43.32377,"lon":5.38885,"is_reserved":false,"is_disabled":false,"rental_uris":{"android":"levelo://app?vid=3efc08d3-ff41-4556-a244-acadc6b0766c","ios":"levelo://app?vid=3efc08d3-ff41-4556-a244-acadc6b0766c"},"vehicle_type_id":"4","last_reported":1731074908,"current_range_meters":30000,"station_id":"ce4bh2h2rcd13ifvqdh0","pricing_plan_id":"cebpf4jnsgd1na2vs0mg"},{"bike_id":"5bab6221-d224-4de9-800a-2a2c0ef314d6","system_id":"levelo_inurba_marseille","lat":43.29628,"lon":5.37707,"is_reserved":false,"is_disabled":false,"rental_uris":{"android":"levelo://app?vid=5bab6221-d224-4de9-800a-2a2c0ef314d6","ios":"levelo://app?vid=5bab6221-d224-4de9-800a-2a2c0ef314d6"},"vehicle_type_id":"4","last_reported":1731074908,"current_range_meters":9200,"station_id":"ce4bgi92rcd13ifvqb90","pricing_plan_id":"cebpf4jnsgd1na2vs0mg"},{"bike_id":"533a9f77-d491-4dcc-a301-f4805bc01f05","system_id":"levelo_inurba_marseille","lat":43.24386,"lon":5.37057,"is_reserved":false,"is_disabled":false,"rental_uris":{"android":"levelo://app?vid=533a9f77-d491-4dcc-a301-f4805bc01f05","ios":"levelo://app?vid=533a9f77-d491-4dcc-a301-f4805bc01f05"},"vehicle_type_id":"4","last_reported":1731074908,"current_range_meters":36400,"station_id":"ce4bhhh2rcd13ifvqfk0","pricing_plan_id":"cebpf4jnsgd1na2vs0mg"},{"bike_id":"29f61311-5504-466e-a9c0-71976ba063b5","system_id":"levelo_inurba_marseille","lat":43.30952,"lon":5.39033,"is_reserved":false,"is_disabled":false,"rental_uris":{"android":"levelo://app?vid=29f61311-5504-466e-a9c0-71976ba063b5","ios":"levelo://app?vid=29f61311-5504-466e-a9c0-71976ba063b5"},"vehicle_type_id":"4","last_reported":1731074908,"current_range_meters":38800,"station_id":"ce4bgup2rcd13ifvqco0","pricing_plan_id":"cebpf4jnsgd1na2vs0mg"},{"bike_id":"1ed8831a-a3da-44b2-8f67-fa4791d6ae74","system_id":"levelo_inurba_marseille","lat":43.28159,"lon":5.42641,"is_reserved":false,"is_disabled":false,"rental_uris":{"android":"levelo://app?vid=1ed8831a-a3da-44b2-8f67-fa4791d6ae74","ios":"levelo://app?vid=1ed8831a-a3da-44b2-8f67-fa4791d6ae74"},"vehicle_type_id":"4","last_reported":1731074908,"current_range_meters":32000,"station_id":"ce4bhnh2rcd13ifvqgug","pricing_plan_id":"cebpf4jnsgd1na2vs0mg"},{"bike_id":"9a8a394b-8918-4b67-bd87-3777ee8901d6","system_id":"levelo_inurba_marseille","lat":43.28707,"lon":5.37954,"is_reserved":false,"is_disabled":false,"rental_uris":{"android":"levelo://app?vid=9a8a394b-8918-4b67-bd87-3777ee8901d6","ios":"levelo://app?vid=9a8a394b-8918-4b67-bd87-3777ee8901d6"},"vehicle_type_id":"4","last_reported":1731074908,"current_range_meters":22800,"station_id":"ce4bh9p2rcd13ifvqec0","pricing_plan_id":"cebpf4jnsgd1na2vs0mg"},{"bike_id":"22c2910c-c395-401a-9c60-3a72ab53ce1d","system_id":"levelo_inurba_marseille","lat":43.26543,"lon":5.39502,"is_reserved":false,"is_disabled":false,"rental_uris":{"android":"levelo://app?vid=22c2910c-c395-401a-9c60-3a72ab53ce1d","ios":"levelo://app?vid=22c2910c-c395-401a-9c60-3a72ab53ce1d"},"vehicle_type_id":"4","last_reported":1731074908,"current_range_meters":30800,"station_id":"ce4bhh12rcd13ifvqfg0","pricing_plan_id":"cebpf4jnsgd1na2vs0mg"},{"bike_id":"f4ef053d-e709-4411-bdd9-de1d0f41e46f","system_id":"levelo_inurba_marseille","lat":43.2293,"lon":5.35374,"is_reserved":false,"is_disabled":false,"rental_uris":{"android":"levelo://app?vid=f4ef053d-e709-4411-bdd9-de1d0f41e46f","ios":"levelo://app?vid=f4ef053d-e709-4411-bdd9-de1d0f41e46f"},"vehicle_type_id":"4","last_reported":1731074908,"current_range_meters":39200,"station_id":"cpo3532slgdg3j2ikp40","pricing_plan_id":"cebpf4jnsgd1na2vs0mg"},{"bike_id":"7b28e8d2-008b-42bf-8db3-b456cc7125ae","system_id":"levelo_inurba_marseille","lat":43.31336,"lon":5.39693,"is_reserved":false,"is_disabled":false,"rental_uris":{"android":"levelo://app?vid=7b28e8d2-008b-42bf-8db3-b456cc7125ae","ios":"levelo://app?vid=7b28e8d2-008b-42bf-8db3-b456cc7125ae"},"vehicle_type_id":"4","last_reported":1731074908,"current_range_meters":38400,"station_id":"ce4bgvp2rcd13ifvqcu0","pricing_plan_id":"cebpf4jnsgd1na2vs0mg"},{"bike_id":"33e2e127-b1c0-4156-80b5-b675713f59cd","system_id":"levelo_inurba_marseille","lat":43.25579,"lon":5.38251,"is_reserved":false,"is_disabled":false,"rental_uris":{"android":"levelo://app?vid=33e2e127-b1c0-4156-80b5-b675713f59cd","ios":"levelo://app?vid=33e2e127-b1c0-4156-80b5-b675713f59cd"},"vehicle_type_id":"4","last_reported":1731074908,"current_range_meters":38800,"station_id":"ce4bhih2rcd13ifvqfs0","pricing_plan_id":"cebpf4jnsgd1na2vs0mg"},{"bike_id":"f597fde7-52ce-4988-8180-e84ad5cda757","system_id":"levelo_inurba_marseille","lat":43.28263,"lon":5.35063,"is_reserved":false,"is_disabled":false,"rental_uris":{"android":"levelo://app?vid=f597fde7-52ce-4988-8180-e84ad5cda757","ios":"levelo://app?vid=f597fde7-52ce-4988-8180-e84ad5cda757"},"vehicle_type_id":"4","last_reported":1731074908,"current_range_meters":3200,"station_id":"ce4bhbp2rcd13ifvqerg","pricing_plan_id":"cebpf4jnsgd1na2vs0mg"},{"bike_id":"707defd1-f536-4b0b-8df9-45bced001472","system_id":"levelo_inurba_marseille","lat":43.31335,"lon":5.39697,"is_reserved":false,"is_disabled":false,"rental_uris":{"android":"levelo://app?vid=707defd1-f536-4b0b-8df9-45bced001472","ios":"levelo://app?vid=707defd1-f536-4b0b-8df9-45bced001472"},"vehicle_type_id":"4","last_reported":1731074908,"current_range_meters":25600,"station_id":"ce4bgvp2rcd13ifvqcu0","pricing_plan_id":"cebpf4jnsgd1na2vs0mg"},{"bike_id":"9c9acf5c-eb3a-496d-a659-484a8b3560fd","system_id":"levelo_inurba_marseille","lat":43.303,"lon":5.39214,"is_reserved":false,"is_disabled":false,"rental_uris":{"android":"levelo://app?vid=9c9acf5c-eb3a-496d-a659-484a8b3560fd","ios":"levelo://app?vid=9c9acf5c-eb3a-496d-a659-484a8b3560fd"},"vehicle_type_id":"4","last_reported":1731074908,"current_range_meters":24800,"station_id":"ce4bgkh2rcd13ifvqbk0","pricing_plan_id":"cebpf4jnsgd1na2vs0mg"},{"bike_id":"7a419be2-700a-40fe-9a2e-c4d1abef876c","system_id":"levelo_inurba_marseille","lat":43.23155,"lon":5.43706,"is_reserved":false,"is_disabled":false,"rental_uris":{"android":"levelo://app?vid=7a419be2-700a-40fe-9a2e-c4d1abef876c","ios":"levelo://app?vid=7a419be2-700a-40fe-9a2e-c4d1abef876c"},"vehicle_type_id":"4","last_reported":1731074908,"current_range_meters":4000,"station_id":"ce4bhmp2rcd13ifvqgog","pricing_plan_id":"cebpf4jnsgd1na2vs0mg"},{"bike_id":"cb9df839-e00f-4428-af35-f37fd3417b9b","system_id":"levelo_inurba_marseille","lat":43.25866,"lon":5.39896,"is_reserved":false,"is_disabled":false,"rental_uris":{"android":"levelo://app?vid=cb9df839-e00f-4428-af35-f37fd3417b9b","ios":"levelo://app?vid=cb9df839-e00f-4428-af35-f37fd3417b9b"},"vehicle_type_id":"4","last_reported":1731074908,"current_range_meters":32800,"station_id":"ce4bhl92rcd13ifvqghg","pricing_plan_id":"cebpf4jnsgd1na2vs0mg"},{"bike_id":"ca10a5c3-f3ce-4f91-8de9-8bcbe8db6bbe","system_id":"levelo_inurba_marseille","lat":43.24364,"lon":5.386,"is_reserved":false,"is_disabled":false,"rental_uris":{"android":"levelo://app?vid=ca10a5c3-f3ce-4f91-8de9-8bcbe8db6bbe","ios":"levelo://app?vid=ca10a5c3-f3ce-4f91-8de9-8bcbe8db6bbe"},"vehicle_type_id":"4","last_reported":1731074908,"current_range_meters":27600,"station_id":"","pricing_plan_id":"cebpf4jnsgd1na2vs0mg"},{"bike_id":"e352ca09-fdd3-4612-9237-be9f973669b3","system_id":"levelo_inurba_marseille","lat":43.3089,"lon":5.37191,"is_reserved":false,"is_disabled":false,"rental_uris":{"android":"levelo://app?vid=e352ca09-fdd3-4612-9237-be9f973669b3","ios":"levelo://app?vid=e352ca09-fdd3-4612-9237-be9f973669b3"},"vehicle_type_id":"4","last_reported":1731074908,"current_range_meters":29600,"station_id":"ce4bguh2rcd13ifvqckg","pricing_plan_id":"cebpf4jnsgd1na2vs0mg"},{"bike_id":"d77a4b1b-c8d3-413e-a327-40bf481ca2d7","system_id":"levelo_inurba_marseille","lat":43.29908,"lon":5.38158,"is_reserved":false,"is_disabled":false,"rental_uris":{"android":"levelo://app?vid=d77a4b1b-c8d3-413e-a327-40bf481ca2d7","ios":"levelo://app?vid=d77a4b1b-c8d3-413e-a327-40bf481ca2d7"},"vehicle_type_id":"4","last_reported":1731074908,"current_range_meters":38000,"station_id":"ce4bh5p2rcd13ifvqe4g","pricing_plan_id":"cebpf4jnsgd1na2vs0mg"},{"bike_id":"8d7e5922-664a-4a28-aea6-8506137867d9","system_id":"levelo_inurba_marseille","lat":43.26214,"lon":5.37449,"is_reserved":false,"is_disabled":false,"rental_uris":{"android":"levelo://app?vid=8d7e5922-664a-4a28-aea6-8506137867d9","ios":"levelo://app?vid=8d7e5922-664a-4a28-aea6-8506137867d9"},"vehicle_type_id":"4","last_reported":1731074908,"current_range_meters":18800,"station_id":"ce4bhgp2rcd13ifvqfc0","pricing_plan_id":"cebpf4jnsgd1na2vs0mg"},{"bike_id":"0f9189da-7281-44e1-bbd8-749cb29cbd04","system_id":"levelo_inurba_marseille","lat":43.27662,"lon":5.38887,"is_reserved":false,"is_disabled":false,"rental_uris":{"android":"levelo://app?vid=0f9189da-7281-44e1-bbd8-749cb29cbd04","ios":"levelo://app?vid=0f9189da-7281-44e1-bbd8-749cb29cbd04"},"vehicle_type_id":"4","last_reported":1731074908,"current_range_meters":19200,"station_id":"ce4bhi12rcd13ifvqfo0","pricing_plan_id":"cebpf4jnsgd1na2vs0mg"},{"bike_id":"897bc6a5-d3b3-4949-b1bf-b7efb4b0cb92","system_id":"levelo_inurba_marseille","lat":43.30516,"lon":5.36702,"is_reserved":false,"is_disabled":false,"rental_uris":{"android":"levelo://app?vid=897bc6a5-d3b3-4949-b1bf-b7efb4b0cb92","ios":"levelo://app?vid=897bc6a5-d3b3-4949-b1bf-b7efb4b0cb92"},"vehicle_type_id":"4","last_reported":1731074908,"current_range_meters":38800,"station_id":"ce4bgrp2rcd13ifvqc9g","pricing_plan_id":"cebpf4jnsgd1na2vs0mg"},{"bike_id":"2739282c-7ec4-425c-8fba-8d26e1f46de3","system_id":"levelo_inurba_marseille","lat":43.2455,"lon":5.3953,"is_reserved":false,"is_disabled":false,"rental_uris":{"android":"levelo://app?vid=2739282c-7ec4-425c-8fba-8d26e1f46de3","ios":"levelo://app?vid=2739282c-7ec4-425c-8fba-8d26e1f46de3"},"vehicle_type_id":"4","last_reported":1731074908,"current_range_meters":37600,"station_id":"ce4bhlp2rcd13ifvqgjg","pricing_plan_id":"cebpf4jnsgd1na2vs0mg"},{"bike_id":"b8fdd341-0697-41ca-82c9-e4253415f4e6","system_id":"levelo_inurba_marseille","lat":43.23055,"lon":5.35495,"is_reserved":false,"is_disabled":false,"rental_uris":{"android":"levelo://app?vid=b8fdd341-0697-41ca-82c9-e4253415f4e6","ios":"levelo://app?vid=b8fdd341-0697-41ca-82c9-e4253415f4e6"},"vehicle_type_id":"4","last_reported":1731074908,"current_range_meters":36800,"station_id":"cpo3342slgdg3j2ifvpg","pricing_plan_id":"cebpf4jnsgd1na2vs0mg"},{"bike_id":"9b96d1a7-1bb0-4837-8ce5-5f6325109a7b","system_id":"levelo_inurba_marseille","lat":43.23194,"lon":5.39988,"is_reserved":false,"is_disabled":false,"rental_uris":{"android":"levelo://app?vid=9b96d1a7-1bb0-4837-8ce5-5f6325109a7b","ios":"levelo://app?vid=9b96d1a7-1bb0-4837-8ce5-5f6325109a7b"},"vehicle_type_id":"4","last_reported":1731074908,"current_range_meters":39200,"station_id":"ce4bhn12rcd13ifvqgqg","pricing_plan_id":"cebpf4jnsgd1na2vs0mg"},{"bike_id":"255e493f-baaf-4748-98f0-8ed03d01c784","system_id":"levelo_inurba_marseille","lat":43.24175,"lon":5.39735,"is_reserved":false,"is_disabled":false,"rental_uris":{"android":"levelo://app?vid=255e493f-baaf-4748-98f0-8ed03d01c784","ios":"levelo://app?vid=255e493f-baaf-4748-98f0-8ed03d01c784"},"vehicle_type_id":"4","last_reported":1731074908,"current_range_meters":26800,"station_id":"ce4bhn12rcd13ifvqgpg","pricing_plan_id":"cebpf4jnsgd1na2vs0mg"},{"bike_id":"aeb81673-845d-4bc1-9f5a-5e96b758c450","system_id":"levelo_inurba_marseille","lat":43.2511,"lon":5.40324,"is_reserved":false,"is_disabled":false,"rental_uris":{"android":"levelo://app?vid=aeb81673-845d-4bc1-9f5a-5e96b758c450","ios":"levelo://app?vid=aeb81673-845d-4bc1-9f5a-5e96b758c450"},"vehicle_type_id":"4","last_reported":1731074908,"current_range_meters":26800,"station_id":"ce4bhlh2rcd13ifvqgig","pricing_plan_id":"cebpf4jnsgd1na2vs0mg"},{"bike_id":"ffa6a709-cf7b-41fd-acb6-77573eab6973","system_id":"levelo_inurba_marseille","lat":43.32486,"lon":5.36563,"is_reserved":false,"is_disabled":false,"rental_uris":{"android":"levelo://app?vid=ffa6a709-cf7b-41fd-acb6-77573eab6973","ios":"levelo://app?vid=ffa6a709-cf7b-41fd-acb6-77573eab6973"},"vehicle_type_id":"4","last_reported":1731074908,"current_range_meters":13600,"station_id":"ce4bhs12rcd13ifvqhvg","pricing_plan_id":"cebpf4jnsgd1na2vs0mg"},{"bike_id":"70cb8752-7cdc-473d-8547-9e63a42728da","system_id":"levelo_inurba_marseille","lat":43.2306,"lon":5.3549,"is_reserved":false,"is_disabled":false,"rental_uris":{"android":"levelo://app?vid=70cb8752-7cdc-473d-8547-9e63a42728da","ios":"levelo://app?vid=70cb8752-7cdc-473d-8547-9e63a42728da"},"vehicle_type_id":"4","last_reported":1731074908,"current_range_meters":27200,"station_id":"cpo3342slgdg3j2ifvpg","pricing_plan_id":"cebpf4jnsgd1na2vs0mg"},{"bike_id":"4802c2a1-a48e-4236-8e2b-3acfb188550f","system_id":"levelo_inurba_marseille","lat":43.25583,"lon":5.38235,"is_reserved":false,"is_disabled":false,"rental_uris":{"android":"levelo://app?vid=4802c2a1-a48e-4236-8e2b-3acfb188550f","ios":"levelo://app?vid=4802c2a1-a48e-4236-8e2b-3acfb188550f"},"vehicle_type_id":"4","last_reported":1731074908,"current_range_meters":9200,"station_id":"ce4bhih2rcd13ifvqfs0","pricing_plan_id":"cebpf4jnsgd1na2vs0mg"},{"bike_id":"2d3e7ea8-6b0d-4d0c-98f3-4a2a16ad8465","system_id":"levelo_inurba_marseille","lat":43.2896,"lon":5.36638,"is_reserved":false,"is_disabled":false,"rental_uris":{"android":"levelo://app?vid=2d3e7ea8-6b0d-4d0c-98f3-4a2a16ad8465","ios":"levelo://app?vid=2d3e7ea8-6b0d-4d0c-98f3-4a2a16ad8465"},"vehicle_type_id":"4","last_reported":1731074908,"current_range_meters":38000,"station_id":"ce4bhap2rcd13ifvqek0","pricing_plan_id":"cebpf4jnsgd1na2vs0mg"},{"bike_id":"1fa66a94-8f13-4b14-9f4f-7350c4c2f490","system_id":"levelo_inurba_marseille","lat":43.29806,"lon":5.38103,"is_reserved":false,"is_disabled":false,"rental_uris":{"android":"levelo://app?vid=1fa66a94-8f13-4b14-9f4f-7350c4c2f490","ios":"levelo://app?vid=1fa66a94-8f13-4b14-9f4f-7350c4c2f490"},"vehicle_type_id":"4","last_reported":1731074908,"current_range_meters":27200,"station_id":"ce4bgip2rcd13ifvqbb0","pricing_plan_id":"cebpf4jnsgd1na2vs0mg"},{"bike_id":"7f05fe3b-bbec-4b9d-b378-a91691f9ad90","system_id":"levelo_inurba_marseille","lat":43.31889,"lon":5.40737,"is_reserved":false,"is_disabled":false,"rental_uris":{"android":"levelo://app?vid=7f05fe3b-bbec-4b9d-b378-a91691f9ad90","ios":"levelo://app?vid=7f05fe3b-bbec-4b9d-b378-a91691f9ad90"},"vehicle_type_id":"4","last_reported":1731074908,"current_range_meters":38000,"station_id":"ce4bhq12rcd13ifvqhig","pricing_plan_id":"cebpf4jnsgd1na2vs0mg"},{"bike_id":"84734344-4100-498f-90db-13a43f921e51","system_id":"levelo_inurba_marseille","lat":43.29621,"lon":5.37152,"is_reserved":false,"is_disabled":false,"rental_uris":{"android":"levelo://app?vid=84734344-4100-498f-90db-13a43f921e51","ios":"levelo://app?vid=84734344-4100-498f-90db-13a43f921e51"},"vehicle_type_id":"4","last_reported":1731074908,"current_range_meters":28800,"station_id":"ce4bgnh2rcd13ifvqc0g","pricing_plan_id":"cebpf4jnsgd1na2vs0mg"},{"bike_id":"82bcb5cc-eff7-40fa-ae6c-a3c17f56dccf","system_id":"levelo_inurba_marseille","lat":43.31996,"lon":5.38169,"is_reserved":false,"is_disabled":false,"rental_uris":{"android":"levelo://app?vid=82bcb5cc-eff7-40fa-ae6c-a3c17f56dccf","ios":"levelo://app?vid=82bcb5cc-eff7-40fa-ae6c-a3c17f56dccf"},"vehicle_type_id":"4","last_reported":1731074908,"current_range_meters":16000,"station_id":"ce4bhr12rcd13ifvqhpg","pricing_plan_id":"cebpf4jnsgd1na2vs0mg"},{"bike_id":"f4092c5e-2627-44f5-a8d5-a9eec5eca611","system_id":"levelo_inurba_marseille","lat":43.32479,"lon":5.36567,"is_reserved":false,"is_disabled":false,"rental_uris":{"android":"levelo://app?vid=f4092c5e-2627-44f5-a8d5-a9eec5eca611","ios":"levelo://app?vid=f4092c5e-2627-44f5-a8d5-a9eec5eca611"},"vehicle_type_id":"4","last_reported":1731074908,"current_range_meters":6400,"station_id":"ce4bhs12rcd13ifvqhvg","pricing_plan_id":"cebpf4jnsgd1na2vs0mg"},{"bike_id":"a77d95f8-1237-461c-b90c-b3583a177300","system_id":"levelo_inurba_marseille","lat":43.29195,"lon":5.3932,"is_reserved":false,"is_disabled":false,"rental_uris":{"android":"levelo://app?vid=a77d95f8-1237-461c-b90c-b3583a177300","ios":"levelo://app?vid=a77d95f8-1237-461c-b90c-b3583a177300"},"vehicle_type_id":"4","last_reported":1731074908,"current_range_meters":38000,"station_id":"ce4bh192rcd13ifvqdd0","pricing_plan_id":"cebpf4jnsgd1na2vs0mg"},{"bike_id":"00dba508-ac1e-49f4-85bb-3c680aae859e","system_id":"levelo_inurba_marseille","lat":43.299773,"lon":5.371861,"is_reserved":false,"is_disabled":false,"rental_uris":{"android":"levelo://app?vid=00dba508-ac1e-49f4-85bb-3c680aae859e","ios":"levelo://app?vid=00dba508-ac1e-49f4-85bb-3c680aae859e"},"vehicle_type_id":"4","last_reported":1731074908,"current_range_meters":32000,"station_id":"ce4bh192rcd13ifvqdd0","pricing_plan_id":"cebpf4jnsgd1na2vs0mg"},{"bike_id":"a8b2228a-d066-4a90-b10a-4a4e0f9f43f2","system_id":"levelo_inurba_marseille","lat":43.26489,"lon":5.39546,"is_reserved":false,"is_disabled":false,"rental_uris":{"android":"levelo://app?vid=a8b2228a-d066-4a90-b10a-4a4e0f9f43f2","ios":"levelo://app?vid=a8b2228a-d066-4a90-b10a-4a4e0f9f43f2"},"vehicle_type_id":"4","last_reported":1731074908,"current_range_meters":26800,"station_id":"ce4bhi12rcd13ifvqfq0","pricing_plan_id":"cebpf4jnsgd1na2vs0mg"},{"bike_id":"c68419ae-5304-473c-904a-721cc7490645","system_id":"levelo_inurba_marseille","lat":43.26565,"lon":5.37287,"is_reserved":false,"is_disabled":false,"rental_uris":{"android":"levelo://app?vid=c68419ae-5304-473c-904a-721cc7490645","ios":"levelo://app?vid=c68419ae-5304-473c-904a-721cc7490645"},"vehicle_type_id":"4","last_reported":1731074908,"current_range_meters":26800,"station_id":"ce4bhg12rcd13ifvqf70","pricing_plan_id":"cebpf4jnsgd1na2vs0mg"},{"bike_id":"b4a9b982-0d09-4959-9186-3153c383a403","system_id":"levelo_inurba_marseille","lat":43.23966,"lon":5.3663,"is_reserved":false,"is_disabled":false,"rental_uris":{"android":"levelo://app?vid=b4a9b982-0d09-4959-9186-3153c383a403","ios":"levelo://app?vid=b4a9b982-0d09-4959-9186-3153c383a403"},"vehicle_type_id":"4","last_reported":1731074908,"current_range_meters":20400,"station_id":"ce4bhi12rcd13ifvqfp0","pricing_plan_id":"cebpf4jnsgd1na2vs0mg"},{"bike_id":"f2b88fdd-2e0b-4b5e-888c-35155555732c","system_id":"levelo_inurba_marseille","lat":43.31998,"lon":5.38148,"is_reserved":false,"is_disabled":false,"rental_uris":{"android":"levelo://app?vid=f2b88fdd-2e0b-4b5e-888c-35155555732c","ios":"levelo://app?vid=f2b88fdd-2e0b-4b5e-888c-35155555732c"},"vehicle_type_id":"4","last_reported":1731074908,"current_range_meters":35600,"station_id":"ce4bhr12rcd13ifvqhpg","pricing_plan_id":"cebpf4jnsgd1na2vs0mg"},{"bike_id":"a3b99355-bf98-41fa-b64a-368059675b8a","system_id":"levelo_inurba_marseille","lat":43.30128,"lon":5.39884,"is_reserved":false,"is_disabled":false,"rental_uris":{"android":"levelo://app?vid=a3b99355-bf98-41fa-b64a-368059675b8a","ios":"levelo://app?vid=a3b99355-bf98-41fa-b64a-368059675b8a"},"vehicle_type_id":"4","last_reported":1731074908,"current_range_meters":30000,"station_id":"ce4bh0h2rcd13ifvqd40","pricing_plan_id":"cebpf4jnsgd1na2vs0mg"},{"bike_id":"d40cdce1-11f6-4d7c-8178-9cc127fd9f08","system_id":"levelo_inurba_marseille","lat":43.29259,"lon":5.40919,"is_reserved":false,"is_disabled":false,"rental_uris":{"android":"levelo://app?vid=d40cdce1-11f6-4d7c-8178-9cc127fd9f08","ios":"levelo://app?vid=d40cdce1-11f6-4d7c-8178-9cc127fd9f08"},"vehicle_type_id":"4","last_reported":1731074908,"current_range_meters":8400,"station_id":"ce4bh192rcd13ifvqdc0","pricing_plan_id":"cebpf4jnsgd1na2vs0mg"},{"bike_id":"cceb39b3-49fa-4fb1-8d6d-3af58b2358d7","system_id":"levelo_inurba_marseille","lat":43.26205,"lon":5.37935,"is_reserved":false,"is_disabled":false,"rental_uris":{"android":"levelo://app?vid=cceb39b3-49fa-4fb1-8d6d-3af58b2358d7","ios":"levelo://app?vid=cceb39b3-49fa-4fb1-8d6d-3af58b2358d7"},"vehicle_type_id":"4","last_reported":1731074908,"current_range_meters":38400,"station_id":"ce4bhjp2rcd13ifvqg90","pricing_plan_id":"cebpf4jnsgd1na2vs0mg"},{"bike_id":"047084c7-d852-4f65-86aa-80834fb6177d","system_id":"levelo_inurba_marseille","lat":43.29172,"lon":5.3717,"is_reserved":false,"is_disabled":false,"rental_uris":{"android":"levelo://app?vid=047084c7-d852-4f65-86aa-80834fb6177d","ios":"levelo://app?vid=047084c7-d852-4f65-86aa-80834fb6177d"},"vehicle_type_id":"4","last_reported":1731074908,"current_range_meters":36400,"station_id":"ce4bha92rcd13ifvqeh0","pricing_plan_id":"cebpf4jnsgd1na2vs0mg"},{"bike_id":"d3608781-7a95-4a80-9c45-48f596cb3e4b","system_id":"levelo_inurba_marseille","lat":43.33744,"lon":5.37459,"is_reserved":false,"is_disabled":false,"rental_uris":{"android":"levelo://app?vid=d3608781-7a95-4a80-9c45-48f596cb3e4b","ios":"levelo://app?vid=d3608781-7a95-4a80-9c45-48f596cb3e4b"},"vehicle_type_id":"4","last_reported":1731074908,"current_range_meters":20000,"station_id":"","pricing_plan_id":"cebpf4jnsgd1na2vs0mg"},{"bike_id":"065cc511-f6c2-41de-9ebc-8db637bb7c30","system_id":"levelo_inurba_marseille","lat":43.30137,"lon":5.37421,"is_reserved":false,"is_disabled":false,"rental_uris":{"android":"levelo://app?vid=065cc511-f6c2-41de-9ebc-8db637bb7c30","ios":"levelo://app?vid=065cc511-f6c2-41de-9ebc-8db637bb7c30"},"vehicle_type_id":"4","last_reported":1731074908,"current_range_meters":36800,"station_id":"ce4bgs92rcd13ifvqcc0","pricing_plan_id":"cebpf4jnsgd1na2vs0mg"},{"bike_id":"af609ee6-a964-4375-8ba7-491d8f765af3","system_id":"levelo_inurba_marseille","lat":43.33725,"lon":5.3919,"is_reserved":false,"is_disabled":false,"rental_uris":{"android":"levelo://app?vid=af609ee6-a964-4375-8ba7-491d8f765af3","ios":"levelo://app?vid=af609ee6-a964-4375-8ba7-491d8f765af3"},"vehicle_type_id":"4","last_reported":1731074908,"current_range_meters":38800,"station_id":"ce4bhr92rcd13ifvqhsg","pricing_plan_id":"cebpf4jnsgd1na2vs0mg"},{"bike_id":"04cd3841-a84b-4b91-bc27-bb10f63e2a0f","system_id":"levelo_inurba_marseille","lat":43.26806,"lon":5.4026,"is_reserved":false,"is_disabled":false,"rental_uris":{"android":"levelo://app?vid=04cd3841-a84b-4b91-bc27-bb10f63e2a0f","ios":"levelo://app?vid=04cd3841-a84b-4b91-bc27-bb10f63e2a0f"},"vehicle_type_id":"4","last_reported":1731074908,"current_range_meters":28000,"station_id":"ce501612rcd8frsf0b60","pricing_plan_id":"cebpf4jnsgd1na2vs0mg"},{"bike_id":"781005c8-e92d-4538-ad39-54fa82b03703","system_id":"levelo_inurba_marseille","lat":43.30293,"lon":5.37705,"is_reserved":false,"is_disabled":false,"rental_uris":{"android":"levelo://app?vid=781005c8-e92d-4538-ad39-54fa82b03703","ios":"levelo://app?vid=781005c8-e92d-4538-ad39-54fa82b03703"},"vehicle_type_id":"4","last_reported":1731074908,"current_range_meters":38800,"station_id":"ce4bguh2rcd13ifvqcj0","pricing_plan_id":"cebpf4jnsgd1na2vs0mg"},{"bike_id":"d9b6972c-3620-40e1-bc45-221c19919928","system_id":"levelo_inurba_marseille","lat":43.27818,"lon":5.40713,"is_reserved":false,"is_disabled":false,"rental_uris":{"android":"levelo://app?vid=d9b6972c-3620-40e1-bc45-221c19919928","ios":"levelo://app?vid=d9b6972c-3620-40e1-bc45-221c19919928"},"vehicle_type_id":"4","last_reported":1731074908,"current_range_meters":25600,"station_id":"ce4bhnh2rcd13ifvqgtg","pricing_plan_id":"cebpf4jnsgd1na2vs0mg"},{"bike_id":"29824cde-4cdc-4355-9b22-a5922a403deb","system_id":"levelo_inurba_marseille","lat":43.337444,"lon":5.374475,"is_reserved":false,"is_disabled":false,"rental_uris":{"android":"levelo://app?vid=29824cde-4cdc-4355-9b22-a5922a403deb","ios":"levelo://app?vid=29824cde-4cdc-4355-9b22-a5922a403deb"},"vehicle_type_id":"4","last_reported":1731074908,"current_range_meters":38000,"station_id":"","pricing_plan_id":"cebpf4jnsgd1na2vs0mg"},{"bike_id":"9d6649c1-0c16-40f5-a22e-bdb16c2d8275","system_id":"levelo_inurba_marseille","lat":43.298167,"lon":5.382133,"is_reserved":false,"is_disabled":false,"rental_uris":{"android":"levelo://app?vid=9d6649c1-0c16-40f5-a22e-bdb16c2d8275","ios":"levelo://app?vid=9d6649c1-0c16-40f5-a22e-bdb16c2d8275"},"vehicle_type_id":"4","last_reported":1731074908,"current_range_meters":5600,"station_id":"ce4bgqh2rcd13ifvqc4g","pricing_plan_id":"cebpf4jnsgd1na2vs0mg"},{"bike_id":"80d5c89e-745d-46d6-9ab9-4f5ea40b6def","system_id":"levelo_inurba_marseille","lat":43.27194,"lon":5.40992,"is_reserved":false,"is_disabled":false,"rental_uris":{"android":"levelo://app?vid=80d5c89e-745d-46d6-9ab9-4f5ea40b6def","ios":"levelo://app?vid=80d5c89e-745d-46d6-9ab9-4f5ea40b6def"},"vehicle_type_id":"4","last_reported":1731074908,"current_range_meters":36800,"station_id":"ce4bhl12rcd13ifvqgf0","pricing_plan_id":"cebpf4jnsgd1na2vs0mg"},{"bike_id":"eccb9bf1-4a0c-4df5-8229-bf46f21c4329","system_id":"levelo_inurba_marseille","lat":43.31717,"lon":5.42407,"is_reserved":false,"is_disabled":false,"rental_uris":{"android":"levelo://app?vid=eccb9bf1-4a0c-4df5-8229-bf46f21c4329","ios":"levelo://app?vid=eccb9bf1-4a0c-4df5-8229-bf46f21c4329"},"vehicle_type_id":"4","last_reported":1731074908,"current_range_meters":37600,"station_id":"ce4bhp92rcd13ifvqhbg","pricing_plan_id":"cebpf4jnsgd1na2vs0mg"},{"bike_id":"ef288286-229d-4b9a-a189-8d61840dcffb","system_id":"levelo_inurba_marseille","lat":43.23198,"lon":5.35548,"is_reserved":false,"is_disabled":false,"rental_uris":{"android":"levelo://app?vid=ef288286-229d-4b9a-a189-8d61840dcffb","ios":"levelo://app?vid=ef288286-229d-4b9a-a189-8d61840dcffb"},"vehicle_type_id":"4","last_reported":1731074908,"current_range_meters":38400,"station_id":"ce4bhu92rcd13ifvqi70","pricing_plan_id":"cebpf4jnsgd1na2vs0mg"},{"bike_id":"68a16cb1-5aff-45bf-9786-11e01f81ed1f","system_id":"levelo_inurba_marseille","lat":43.26211,"lon":5.37444,"is_reserved":false,"is_disabled":false,"rental_uris":{"android":"levelo://app?vid=68a16cb1-5aff-45bf-9786-11e01f81ed1f","ios":"levelo://app?vid=68a16cb1-5aff-45bf-9786-11e01f81ed1f"},"vehicle_type_id":"4","last_reported":1731074908,"current_range_meters":38000,"station_id":"ce4bhgp2rcd13ifvqfc0","pricing_plan_id":"cebpf4jnsgd1na2vs0mg"},{"bike_id":"ab67649f-9575-47a2-9f9a-f5b93bd0554b","system_id":"levelo_inurba_marseille","lat":43.28106,"lon":5.37843,"is_reserved":false,"is_disabled":false,"rental_uris":{"android":"levelo://app?vid=ab67649f-9575-47a2-9f9a-f5b93bd0554b","ios":"levelo://app?vid=ab67649f-9575-47a2-9f9a-f5b93bd0554b"},"vehicle_type_id":"4","last_reported":1731074908,"current_range_meters":35600,"station_id":"ce4bha12rcd13ifvqee0","pricing_plan_id":"cebpf4jnsgd1na2vs0mg"},{"bike_id":"cb840506-fc64-4fb3-ac5c-c5a532d2fcdc","system_id":"levelo_inurba_marseille","lat":43.28943,"lon":5.36403,"is_reserved":false,"is_disabled":false,"rental_uris":{"android":"levelo://app?vid=cb840506-fc64-4fb3-ac5c-c5a532d2fcdc","ios":"levelo://app?vid=cb840506-fc64-4fb3-ac5c-c5a532d2fcdc"},"vehicle_type_id":"4","last_reported":1731074908,"current_range_meters":38800,"station_id":"ce4bhc92rcd13ifvqetg","pricing_plan_id":"cebpf4jnsgd1na2vs0mg"},{"bike_id":"ad688e82-3a20-418c-8ea0-53545a55bdfa","system_id":"levelo_inurba_marseille","lat":43.28933,"lon":5.36389,"is_reserved":false,"is_disabled":false,"rental_uris":{"android":"levelo://app?vid=ad688e82-3a20-418c-8ea0-53545a55bdfa","ios":"levelo://app?vid=ad688e82-3a20-418c-8ea0-53545a55bdfa"},"vehicle_type_id":"4","last_reported":1731074908,"current_range_meters":16400,"station_id":"ce4bhc92rcd13ifvqetg","pricing_plan_id":"cebpf4jnsgd1na2vs0mg"},{"bike_id":"87aab627-0f86-4693-aea1-8a46d1a5989f","system_id":"levelo_inurba_marseille","lat":43.25859,"lon":5.39907,"is_reserved":false,"is_disabled":false,"rental_uris":{"android":"levelo://app?vid=87aab627-0f86-4693-aea1-8a46d1a5989f","ios":"levelo://app?vid=87aab627-0f86-4693-aea1-8a46d1a5989f"},"vehicle_type_id":"4","last_reported":1731074908,"current_range_meters":36000,"station_id":"ce4bhl92rcd13ifvqghg","pricing_plan_id":"cebpf4jnsgd1na2vs0mg"},{"bike_id":"795d93dc-58cd-47d3-954f-fe5d9510e8f0","system_id":"levelo_inurba_marseille","lat":43.23153,"lon":5.4371,"is_reserved":false,"is_disabled":false,"rental_uris":{"android":"levelo://app?vid=795d93dc-58cd-47d3-954f-fe5d9510e8f0","ios":"levelo://app?vid=795d93dc-58cd-47d3-954f-fe5d9510e8f0"},"vehicle_type_id":"4","last_reported":1731074908,"current_range_meters":22400,"station_id":"ce4bhmp2rcd13ifvqgog","pricing_plan_id":"cebpf4jnsgd1na2vs0mg"},{"bike_id":"0cd587b0-4fd2-44c7-97ec-4dfaa1004c69","system_id":"levelo_inurba_marseille","lat":43.295929,"lon":5.38097,"is_reserved":false,"is_disabled":false,"rental_uris":{"android":"levelo://app?vid=0cd587b0-4fd2-44c7-97ec-4dfaa1004c69","ios":"levelo://app?vid=0cd587b0-4fd2-44c7-97ec-4dfaa1004c69"},"vehicle_type_id":"4","last_reported":1731074908,"current_range_meters":23200,"station_id":"ce4bgl12rcd13ifvqbo0","pricing_plan_id":"cebpf4jnsgd1na2vs0mg"},{"bike_id":"f159a216-3f34-4840-a87f-14cfda860195","system_id":"levelo_inurba_marseille","lat":43.307983,"lon":5.435309,"is_reserved":false,"is_disabled":false,"rental_uris":{"android":"levelo://app?vid=f159a216-3f34-4840-a87f-14cfda860195","ios":"levelo://app?vid=f159a216-3f34-4840-a87f-14cfda860195"},"vehicle_type_id":"4","last_reported":1731074908,"current_range_meters":35600,"station_id":"ce4bhph2rcd13ifvqheg","pricing_plan_id":"cebpf4jnsgd1na2vs0mg"},{"bike_id":"12ab8a2b-bf2e-44a7-8096-67ee8e37b5b1","system_id":"levelo_inurba_marseille","lat":43.26937,"lon":5.40271,"is_reserved":false,"is_disabled":false,"rental_uris":{"android":"levelo://app?vid=12ab8a2b-bf2e-44a7-8096-67ee8e37b5b1","ios":"levelo://app?vid=12ab8a2b-bf2e-44a7-8096-67ee8e37b5b1"},"vehicle_type_id":"4","last_reported":1731074908,"current_range_meters":39200,"station_id":"cjm6bp8fraef2m0cb0m0","pricing_plan_id":"cebpf4jnsgd1na2vs0mg"},{"bike_id":"a30aac20-0bde-49f6-8006-0baa9606d9c8","system_id":"levelo_inurba_marseille","lat":43.31226,"lon":5.36865,"is_reserved":false,"is_disabled":false,"rental_uris":{"android":"levelo://app?vid=a30aac20-0bde-49f6-8006-0baa9606d9c8","ios":"levelo://app?vid=a30aac20-0bde-49f6-8006-0baa9606d9c8"},"vehicle_type_id":"4","last_reported":1731074908,"current_range_meters":17200,"station_id":"ce4bgl92rcd13ifvqbq0","pricing_plan_id":"cebpf4jnsgd1na2vs0mg"},{"bike_id":"841c9df1-f0db-4c1b-b9a9-575f56c5769d","system_id":"levelo_inurba_marseille","lat":43.29208,"lon":5.39329,"is_reserved":false,"is_disabled":false,"rental_uris":{"android":"levelo://app?vid=841c9df1-f0db-4c1b-b9a9-575f56c5769d","ios":"levelo://app?vid=841c9df1-f0db-4c1b-b9a9-575f56c5769d"},"vehicle_type_id":"4","last_reported":1731074908,"current_range_meters":38000,"station_id":"ce4bh192rcd13ifvqdd0","pricing_plan_id":"cebpf4jnsgd1na2vs0mg"},{"bike_id":"efb330b1-5f87-4bab-a84a-8bb2ad39b6db","system_id":"levelo_inurba_marseille","lat":43.31501,"lon":5.37308,"is_reserved":false,"is_disabled":false,"rental_uris":{"android":"levelo://app?vid=efb330b1-5f87-4bab-a84a-8bb2ad39b6db","ios":"levelo://app?vid=efb330b1-5f87-4bab-a84a-8bb2ad39b6db"},"vehicle_type_id":"4","last_reported":1731074908,"current_range_meters":18800,"station_id":"ce4bgt12rcd13ifvqcd0","pricing_plan_id":"cebpf4jnsgd1na2vs0mg"},{"bike_id":"8faa22dc-5f3c-4af6-b84b-f554e09d6313","system_id":"levelo_inurba_marseille","lat":43.337444,"lon":5.374475,"is_reserved":false,"is_disabled":false,"rental_uris":{"android":"levelo://app?vid=8faa22dc-5f3c-4af6-b84b-f554e09d6313","ios":"levelo://app?vid=8faa22dc-5f3c-4af6-b84b-f554e09d6313"},"vehicle_type_id":"4","last_reported":1731074908,"current_range_meters":38000,"station_id":"","pricing_plan_id":"cebpf4jnsgd1na2vs0mg"},{"bike_id":"22a21434-6031-47be-8568-25c2979ed55a","system_id":"levelo_inurba_marseille","lat":43.28459,"lon":5.35892,"is_reserved":false,"is_disabled":false,"rental_uris":{"android":"levelo://app?vid=22a21434-6031-47be-8568-25c2979ed55a","ios":"levelo://app?vid=22a21434-6031-47be-8568-25c2979ed55a"},"vehicle_type_id":"4","last_reported":1731074908,"current_range_meters":37600,"station_id":"ce4bhah2rcd13ifvqei0","pricing_plan_id":"cebpf4jnsgd1na2vs0mg"},{"bike_id":"fe7758a6-a8c6-4638-9576-39fc56b8883f","system_id":"levelo_inurba_marseille","lat":43.25865,"lon":5.39899,"is_reserved":false,"is_disabled":false,"rental_uris":{"android":"levelo://app?vid=fe7758a6-a8c6-4638-9576-39fc56b8883f","ios":"levelo://app?vid=fe7758a6-a8c6-4638-9576-39fc56b8883f"},"vehicle_type_id":"4","last_reported":1731074908,"current_range_meters":33600,"station_id":"ce4bhl92rcd13ifvqghg","pricing_plan_id":"cebpf4jnsgd1na2vs0mg"},{"bike_id":"f63b3b09-393e-4ad3-b2a1-5c8a4b607f25","system_id":"levelo_inurba_marseille","lat":43.24394,"lon":5.37051,"is_reserved":false,"is_disabled":false,"rental_uris":{"android":"levelo://app?vid=f63b3b09-393e-4ad3-b2a1-5c8a4b607f25","ios":"levelo://app?vid=f63b3b09-393e-4ad3-b2a1-5c8a4b607f25"},"vehicle_type_id":"4","last_reported":1731074908,"current_range_meters":19600,"station_id":"ce4bhhh2rcd13ifvqfk0","pricing_plan_id":"cebpf4jnsgd1na2vs0mg"},{"bike_id":"03e35c28-530c-4e0b-af68-3bfb1b5b8bf8","system_id":"levelo_inurba_marseille","lat":43.30883,"lon":5.372,"is_reserved":false,"is_disabled":false,"rental_uris":{"android":"levelo://app?vid=03e35c28-530c-4e0b-af68-3bfb1b5b8bf8","ios":"levelo://app?vid=03e35c28-530c-4e0b-af68-3bfb1b5b8bf8"},"vehicle_type_id":"4","last_reported":1731074908,"current_range_meters":10000,"station_id":"ce4bguh2rcd13ifvqckg","pricing_plan_id":"cebpf4jnsgd1na2vs0mg"},{"bike_id":"8bbf68a2-8f83-410f-836c-28e3bb524f4c","system_id":"levelo_inurba_marseille","lat":43.23966,"lon":5.3664,"is_reserved":false,"is_disabled":false,"rental_uris":{"android":"levelo://app?vid=8bbf68a2-8f83-410f-836c-28e3bb524f4c","ios":"levelo://app?vid=8bbf68a2-8f83-410f-836c-28e3bb524f4c"},"vehicle_type_id":"4","last_reported":1731074908,"current_range_meters":33200,"station_id":"ce4bhi12rcd13ifvqfp0","pricing_plan_id":"cebpf4jnsgd1na2vs0mg"},{"bike_id":"e52ae572-e9bf-48de-99b0-aec892a5dd2a","system_id":"levelo_inurba_marseille","lat":43.31322,"lon":5.39693,"is_reserved":false,"is_disabled":false,"rental_uris":{"android":"levelo://app?vid=e52ae572-e9bf-48de-99b0-aec892a5dd2a","ios":"levelo://app?vid=e52ae572-e9bf-48de-99b0-aec892a5dd2a"},"vehicle_type_id":"4","last_reported":1731074908,"current_range_meters":38800,"station_id":"ce4bgvp2rcd13ifvqcu0","pricing_plan_id":"cebpf4jnsgd1na2vs0mg"},{"bike_id":"2971af5c-694e-4fbb-a638-0656f0be40cd","system_id":"levelo_inurba_marseille","lat":43.31893,"lon":5.40739,"is_reserved":false,"is_disabled":false,"rental_uris":{"android":"levelo://app?vid=2971af5c-694e-4fbb-a638-0656f0be40cd","ios":"levelo://app?vid=2971af5c-694e-4fbb-a638-0656f0be40cd"},"vehicle_type_id":"4","last_reported":1731074908,"current_range_meters":38000,"station_id":"ce4bhq12rcd13ifvqhig","pricing_plan_id":"cebpf4jnsgd1na2vs0mg"},{"bike_id":"1d3dd540-ae19-4c9a-a261-e20abd3f91e6","system_id":"levelo_inurba_marseille","lat":43.302005,"lon":5.397703,"is_reserved":false,"is_disabled":false,"rental_uris":{"android":"levelo://app?vid=1d3dd540-ae19-4c9a-a261-e20abd3f91e6","ios":"levelo://app?vid=1d3dd540-ae19-4c9a-a261-e20abd3f91e6"},"vehicle_type_id":"4","last_reported":1731074908,"current_range_meters":24400,"station_id":"ce4bh0h2rcd13ifvqd40","pricing_plan_id":"cebpf4jnsgd1na2vs0mg"},{"bike_id":"9c7bfd48-60b7-40bf-bd5b-3a3ac1346faf","system_id":"levelo_inurba_marseille","lat":43.26939,"lon":5.40258,"is_reserved":false,"is_disabled":false,"rental_uris":{"android":"levelo://app?vid=9c7bfd48-60b7-40bf-bd5b-3a3ac1346faf","ios":"levelo://app?vid=9c7bfd48-60b7-40bf-bd5b-3a3ac1346faf"},"vehicle_type_id":"4","last_reported":1731074908,"current_range_meters":2800,"station_id":"cjm6bp8fraef2m0cb0m0","pricing_plan_id":"cebpf4jnsgd1na2vs0mg"},{"bike_id":"c7022000-40bb-4946-aca4-3a5058fa7b80","system_id":"levelo_inurba_marseille","lat":43.26553,"lon":5.37305,"is_reserved":false,"is_disabled":false,"rental_uris":{"android":"levelo://app?vid=c7022000-40bb-4946-aca4-3a5058fa7b80","ios":"levelo://app?vid=c7022000-40bb-4946-aca4-3a5058fa7b80"},"vehicle_type_id":"4","last_reported":1731074908,"current_range_meters":8800,"station_id":"ce4bhg12rcd13ifvqf70","pricing_plan_id":"cebpf4jnsgd1na2vs0mg"},{"bike_id":"eefd0687-4492-41ad-9368-b877bab02ae1","system_id":"levelo_inurba_marseille","lat":43.31229,"lon":5.3688,"is_reserved":false,"is_disabled":false,"rental_uris":{"android":"levelo://app?vid=eefd0687-4492-41ad-9368-b877bab02ae1","ios":"levelo://app?vid=eefd0687-4492-41ad-9368-b877bab02ae1"},"vehicle_type_id":"4","last_reported":1731074908,"current_range_meters":38400,"station_id":"ce4bgl92rcd13ifvqbq0","pricing_plan_id":"cebpf4jnsgd1na2vs0mg"},{"bike_id":"6bbe3f1c-a12b-4b0d-9b91-a5c7de629161","system_id":"levelo_inurba_marseille","lat":43.29579,"lon":5.36738,"is_reserved":false,"is_disabled":false,"rental_uris":{"android":"levelo://app?vid=6bbe3f1c-a12b-4b0d-9b91-a5c7de629161","ios":"levelo://app?vid=6bbe3f1c-a12b-4b0d-9b91-a5c7de629161"},"vehicle_type_id":"4","last_reported":1731074908,"current_range_meters":17200,"station_id":"ce4bgph2rcd13ifvqc2g","pricing_plan_id":"cebpf4jnsgd1na2vs0mg"},{"bike_id":"9cac0d1d-52d1-4be4-b090-753e72c0d7ce","system_id":"levelo_inurba_marseille","lat":43.31491,"lon":5.37312,"is_reserved":false,"is_disabled":false,"rental_uris":{"android":"levelo://app?vid=9cac0d1d-52d1-4be4-b090-753e72c0d7ce","ios":"levelo://app?vid=9cac0d1d-52d1-4be4-b090-753e72c0d7ce"},"vehicle_type_id":"4","last_reported":1731074908,"current_range_meters":11200,"station_id":"ce4bgt12rcd13ifvqcd0","pricing_plan_id":"cebpf4jnsgd1na2vs0mg"},{"bike_id":"0be0f67f-6897-4030-961d-da161612ea30","system_id":"levelo_inurba_marseille","lat":43.30125,"lon":5.3988,"is_reserved":false,"is_disabled":false,"rental_uris":{"android":"levelo://app?vid=0be0f67f-6897-4030-961d-da161612ea30","ios":"levelo://app?vid=0be0f67f-6897-4030-961d-da161612ea30"},"vehicle_type_id":"4","last_reported":1731074908,"current_range_meters":14800,"station_id":"ce4bh0h2rcd13ifvqd40","pricing_plan_id":"cebpf4jnsgd1na2vs0mg"},{"bike_id":"1f3ba906-6e07-4370-b207-43e1aae1c14a","system_id":"levelo_inurba_marseille","lat":43.31349,"lon":5.36718,"is_reserved":false,"is_disabled":false,"rental_uris":{"android":"levelo://app?vid=1f3ba906-6e07-4370-b207-43e1aae1c14a","ios":"levelo://app?vid=1f3ba906-6e07-4370-b207-43e1aae1c14a"},"vehicle_type_id":"4","last_reported":1731074908,"current_range_meters":12000,"station_id":"ce4bgr92rcd13ifvqc6g","pricing_plan_id":"cebpf4jnsgd1na2vs0mg"},{"bike_id":"9472b0d5-1806-414f-be65-ae4f9b89127a","system_id":"levelo_inurba_marseille","lat":43.28942,"lon":5.3663,"is_reserved":false,"is_disabled":false,"rental_uris":{"android":"levelo://app?vid=9472b0d5-1806-414f-be65-ae4f9b89127a","ios":"levelo://app?vid=9472b0d5-1806-414f-be65-ae4f9b89127a"},"vehicle_type_id":"4","last_reported":1731074908,"current_range_meters":38800,"station_id":"ce4bhap2rcd13ifvqek0","pricing_plan_id":"cebpf4jnsgd1na2vs0mg"},{"bike_id":"b07c950e-3e0e-4348-848b-922c27d2cb3c","system_id":"levelo_inurba_marseille","lat":43.28919,"lon":5.38398,"is_reserved":false,"is_disabled":false,"rental_uris":{"android":"levelo://app?vid=b07c950e-3e0e-4348-848b-922c27d2cb3c","ios":"levelo://app?vid=b07c950e-3e0e-4348-848b-922c27d2cb3c"},"vehicle_type_id":"4","last_reported":1731074908,"current_range_meters":37600,"station_id":"ce4bh612rcd13ifvqe6g","pricing_plan_id":"cebpf4jnsgd1na2vs0mg"},{"bike_id":"d6fdae69-642e-4d84-a8fd-edeb75ed0ef4","system_id":"levelo_inurba_marseille","lat":43.22932,"lon":5.35376,"is_reserved":false,"is_disabled":false,"rental_uris":{"android":"levelo://app?vid=d6fdae69-642e-4d84-a8fd-edeb75ed0ef4","ios":"levelo://app?vid=d6fdae69-642e-4d84-a8fd-edeb75ed0ef4"},"vehicle_type_id":"4","last_reported":1731074908,"current_range_meters":39200,"station_id":"cpo3532slgdg3j2ikp40","pricing_plan_id":"cebpf4jnsgd1na2vs0mg"},{"bike_id":"c2b60d06-ccc3-4ea3-a717-66e41e62fce9","system_id":"levelo_inurba_marseille","lat":43.30891,"lon":5.37194,"is_reserved":false,"is_disabled":false,"rental_uris":{"android":"levelo://app?vid=c2b60d06-ccc3-4ea3-a717-66e41e62fce9","ios":"levelo://app?vid=c2b60d06-ccc3-4ea3-a717-66e41e62fce9"},"vehicle_type_id":"4","last_reported":1731074908,"current_range_meters":12800,"station_id":"ce4bguh2rcd13ifvqckg","pricing_plan_id":"cebpf4jnsgd1na2vs0mg"},{"bike_id":"bdc2614c-f690-4a70-b4fe-4ce04e111f7f","system_id":"levelo_inurba_marseille","lat":43.31364,"lon":5.36706,"is_reserved":false,"is_disabled":false,"rental_uris":{"android":"levelo://app?vid=bdc2614c-f690-4a70-b4fe-4ce04e111f7f","ios":"levelo://app?vid=bdc2614c-f690-4a70-b4fe-4ce04e111f7f"},"vehicle_type_id":"4","last_reported":1731074908,"current_range_meters":38800,"station_id":"ce4bgr92rcd13ifvqc6g","pricing_plan_id":"cebpf4jnsgd1na2vs0mg"},{"bike_id":"990c12eb-f5c5-495d-8bc6-f71e7aa21213","system_id":"levelo_inurba_marseille","lat":43.24393,"lon":5.37053,"is_reserved":false,"is_disabled":false,"rental_uris":{"android":"levelo://app?vid=990c12eb-f5c5-495d-8bc6-f71e7aa21213","ios":"levelo://app?vid=990c12eb-f5c5-495d-8bc6-f71e7aa21213"},"vehicle_type_id":"4","last_reported":1731074908,"current_range_meters":39200,"station_id":"ce4bhhh2rcd13ifvqfk0","pricing_plan_id":"cebpf4jnsgd1na2vs0mg"},{"bike_id":"611b7c78-f1a7-48a7-bdea-986ae6d4bc7b","system_id":"levelo_inurba_marseille","lat":43.29975,"lon":5.37169,"is_reserved":false,"is_disabled":false,"rental_uris":{"android":"levelo://app?vid=611b7c78-f1a7-48a7-bdea-986ae6d4bc7b","ios":"levelo://app?vid=611b7c78-f1a7-48a7-bdea-986ae6d4bc7b"},"vehicle_type_id":"4","last_reported":1731074908,"current_range_meters":26800,"station_id":"ce4bgr92rcd13ifvqc7g","pricing_plan_id":"cebpf4jnsgd1na2vs0mg"},{"bike_id":"5fb44a42-3e17-4422-b1b6-9555dccd055a","system_id":"levelo_inurba_marseille","lat":43.28616,"lon":5.3706,"is_reserved":false,"is_disabled":false,"rental_uris":{"android":"levelo://app?vid=5fb44a42-3e17-4422-b1b6-9555dccd055a","ios":"levelo://app?vid=5fb44a42-3e17-4422-b1b6-9555dccd055a"},"vehicle_type_id":"4","last_reported":1731074908,"current_range_meters":13600,"station_id":"ce4bht12rcd13ifvqi60","pricing_plan_id":"cebpf4jnsgd1na2vs0mg"},{"bike_id":"86d64521-d332-4842-b4fb-5fa4820d8c81","system_id":"levelo_inurba_marseille","lat":43.337444,"lon":5.374475,"is_reserved":false,"is_disabled":false,"rental_uris":{"android":"levelo://app?vid=86d64521-d332-4842-b4fb-5fa4820d8c81","ios":"levelo://app?vid=86d64521-d332-4842-b4fb-5fa4820d8c81"},"vehicle_type_id":"4","last_reported":1731074908,"current_range_meters":37600,"station_id":"","pricing_plan_id":"cebpf4jnsgd1na2vs0mg"},{"bike_id":"bc1124c3-6344-405c-89bb-711ee5ab8f44","system_id":"levelo_inurba_marseille","lat":43.3125,"lon":5.39667,"is_reserved":false,"is_disabled":false,"rental_uris":{"android":"levelo://app?vid=bc1124c3-6344-405c-89bb-711ee5ab8f44","ios":"levelo://app?vid=bc1124c3-6344-405c-89bb-711ee5ab8f44"},"vehicle_type_id":"4","last_reported":1731074908,"current_range_meters":38400,"station_id":"ce4bgvp2rcd13ifvqcu0","pricing_plan_id":"cebpf4jnsgd1na2vs0mg"},{"bike_id":"bde08989-23ea-4b54-bef5-ef219bd6bfde","system_id":"levelo_inurba_marseille","lat":43.25501,"lon":5.37651,"is_reserved":false,"is_disabled":false,"rental_uris":{"android":"levelo://app?vid=bde08989-23ea-4b54-bef5-ef219bd6bfde","ios":"levelo://app?vid=bde08989-23ea-4b54-bef5-ef219bd6bfde"},"vehicle_type_id":"4","last_reported":1731074908,"current_range_meters":38800,"station_id":"ce4bhh12rcd13ifvqff0","pricing_plan_id":"cebpf4jnsgd1na2vs0mg"},{"bike_id":"7267f367-27af-4a7f-873e-8336747c5d6d","system_id":"levelo_inurba_marseille","lat":43.29854,"lon":5.36273,"is_reserved":false,"is_disabled":false,"rental_uris":{"android":"levelo://app?vid=7267f367-27af-4a7f-873e-8336747c5d6d","ios":"levelo://app?vid=7267f367-27af-4a7f-873e-8336747c5d6d"},"vehicle_type_id":"4","last_reported":1731074908,"current_range_meters":28400,"station_id":"ce4bgpp2rcd13ifvqc3g","pricing_plan_id":"cebpf4jnsgd1na2vs0mg"},{"bike_id":"448d3bf9-78cb-439a-a23b-0e48f1b89013","system_id":"levelo_inurba_marseille","lat":43.32369,"lon":5.38887,"is_reserved":false,"is_disabled":false,"rental_uris":{"android":"levelo://app?vid=448d3bf9-78cb-439a-a23b-0e48f1b89013","ios":"levelo://app?vid=448d3bf9-78cb-439a-a23b-0e48f1b89013"},"vehicle_type_id":"4","last_reported":1731074908,"current_range_meters":18000,"station_id":"ce4bhqp2rcd13ifvqhog","pricing_plan_id":"cebpf4jnsgd1na2vs0mg"},{"bike_id":"887f561a-2cff-4e98-929e-7c44a27643a8","system_id":"levelo_inurba_marseille","lat":43.29792,"lon":5.38092,"is_reserved":false,"is_disabled":false,"rental_uris":{"android":"levelo://app?vid=887f561a-2cff-4e98-929e-7c44a27643a8","ios":"levelo://app?vid=887f561a-2cff-4e98-929e-7c44a27643a8"},"vehicle_type_id":"4","last_reported":1731074908,"current_range_meters":12800,"station_id":"ce4bgip2rcd13ifvqbb0","pricing_plan_id":"cebpf4jnsgd1na2vs0mg"},{"bike_id":"8df7d8c9-008d-4b49-aa60-f1cb80e863ce","system_id":"levelo_inurba_marseille","lat":43.28702,"lon":5.39984,"is_reserved":false,"is_disabled":false,"rental_uris":{"android":"levelo://app?vid=8df7d8c9-008d-4b49-aa60-f1cb80e863ce","ios":"levelo://app?vid=8df7d8c9-008d-4b49-aa60-f1cb80e863ce"},"vehicle_type_id":"4","last_reported":1731074908,"current_range_meters":14800,"station_id":"ce4bho92rcd13ifvqh3g","pricing_plan_id":"cebpf4jnsgd1na2vs0mg"},{"bike_id":"cbce48b0-a8cf-40c1-900b-3647d9e2f5fd","system_id":"levelo_inurba_marseille","lat":43.27685,"lon":5.38897,"is_reserved":false,"is_disabled":false,"rental_uris":{"android":"levelo://app?vid=cbce48b0-a8cf-40c1-900b-3647d9e2f5fd","ios":"levelo://app?vid=cbce48b0-a8cf-40c1-900b-3647d9e2f5fd"},"vehicle_type_id":"4","last_reported":1731074908,"current_range_meters":25600,"station_id":"ce4bhi12rcd13ifvqfo0","pricing_plan_id":"cebpf4jnsgd1na2vs0mg"},{"bike_id":"30c759a2-6df1-49dd-8b4a-2f09b3c85fab","system_id":"levelo_inurba_marseille","lat":43.28117,"lon":5.37833,"is_reserved":false,"is_disabled":false,"rental_uris":{"android":"levelo://app?vid=30c759a2-6df1-49dd-8b4a-2f09b3c85fab","ios":"levelo://app?vid=30c759a2-6df1-49dd-8b4a-2f09b3c85fab"},"vehicle_type_id":"4","last_reported":1731074908,"current_range_meters":27600,"station_id":"ce4bha12rcd13ifvqee0","pricing_plan_id":"cebpf4jnsgd1na2vs0mg"},{"bike_id":"73ab35f1-bfdb-4678-85b3-28a9d7db8a08","system_id":"levelo_inurba_marseille","lat":43.28417,"lon":5.34995,"is_reserved":false,"is_disabled":false,"rental_uris":{"android":"levelo://app?vid=73ab35f1-bfdb-4678-85b3-28a9d7db8a08","ios":"levelo://app?vid=73ab35f1-bfdb-4678-85b3-28a9d7db8a08"},"vehicle_type_id":"4","last_reported":1731074908,"current_range_meters":39200,"station_id":"ce4bhbh2rcd13ifvqepg","pricing_plan_id":"cebpf4jnsgd1na2vs0mg"},{"bike_id":"9cc9453e-c05b-488e-8c62-da6a62672930","system_id":"levelo_inurba_marseille","lat":43.31078,"lon":5.38356,"is_reserved":false,"is_disabled":false,"rental_uris":{"android":"levelo://app?vid=9cc9453e-c05b-488e-8c62-da6a62672930","ios":"levelo://app?vid=9cc9453e-c05b-488e-8c62-da6a62672930"},"vehicle_type_id":"4","last_reported":1731074908,"current_range_meters":36000,"station_id":"ce4bgv92rcd13ifvqcr0","pricing_plan_id":"cebpf4jnsgd1na2vs0mg"},{"bike_id":"7681c751-2a40-4a19-b638-44494a945313","system_id":"levelo_inurba_marseille","lat":43.30952,"lon":5.39044,"is_reserved":false,"is_disabled":false,"rental_uris":{"android":"levelo://app?vid=7681c751-2a40-4a19-b638-44494a945313","ios":"levelo://app?vid=7681c751-2a40-4a19-b638-44494a945313"},"vehicle_type_id":"4","last_reported":1731074908,"current_range_meters":22800,"station_id":"ce4bgup2rcd13ifvqco0","pricing_plan_id":"cebpf4jnsgd1na2vs0mg"},{"bike_id":"ad4bc2d6-fac1-474b-b4fe-1d5ea42806a0","system_id":"levelo_inurba_marseille","lat":43.28271,"lon":5.35076,"is_reserved":false,"is_disabled":false,"rental_uris":{"android":"levelo://app?vid=ad4bc2d6-fac1-474b-b4fe-1d5ea42806a0","ios":"levelo://app?vid=ad4bc2d6-fac1-474b-b4fe-1d5ea42806a0"},"vehicle_type_id":"4","last_reported":1731074908,"current_range_meters":6400,"station_id":"ce4bhbp2rcd13ifvqerg","pricing_plan_id":"cebpf4jnsgd1na2vs0mg"},{"bike_id":"4f6128d8-e871-40a0-be04-821c5a2691a8","system_id":"levelo_inurba_marseille","lat":43.29555,"lon":5.42296,"is_reserved":false,"is_disabled":false,"rental_uris":{"android":"levelo://app?vid=4f6128d8-e871-40a0-be04-821c5a2691a8","ios":"levelo://app?vid=4f6128d8-e871-40a0-be04-821c5a2691a8"},"vehicle_type_id":"4","last_reported":1731074908,"current_range_meters":18800,"station_id":"ce4bhph2rcd13ifvqhdg","pricing_plan_id":"cebpf4jnsgd1na2vs0mg"},{"bike_id":"f6762cfa-9682-44e6-ab14-e1186ac13749","system_id":"levelo_inurba_marseille","lat":43.30146,"lon":5.37412,"is_reserved":false,"is_disabled":false,"rental_uris":{"android":"levelo://app?vid=f6762cfa-9682-44e6-ab14-e1186ac13749","ios":"levelo://app?vid=f6762cfa-9682-44e6-ab14-e1186ac13749"},"vehicle_type_id":"4","last_reported":1731074908,"current_range_meters":4400,"station_id":"ce4bgs92rcd13ifvqcc0","pricing_plan_id":"cebpf4jnsgd1na2vs0mg"},{"bike_id":"f210d639-7132-4470-847a-0d20570bd17a","system_id":"levelo_inurba_marseille","lat":43.27077,"lon":5.42292,"is_reserved":false,"is_disabled":false,"rental_uris":{"android":"levelo://app?vid=f210d639-7132-4470-847a-0d20570bd17a","ios":"levelo://app?vid=f210d639-7132-4470-847a-0d20570bd17a"},"vehicle_type_id":"4","last_reported":1731074908,"current_range_meters":35600,"station_id":"ce4bhk92rcd13ifvqgb0","pricing_plan_id":"cebpf4jnsgd1na2vs0mg"},{"bike_id":"ee57e61c-d077-4b8f-9842-5b05c01839e5","system_id":"levelo_inurba_marseille","lat":43.2782,"lon":5.40725,"is_reserved":false,"is_disabled":false,"rental_uris":{"android":"levelo://app?vid=ee57e61c-d077-4b8f-9842-5b05c01839e5","ios":"levelo://app?vid=ee57e61c-d077-4b8f-9842-5b05c01839e5"},"vehicle_type_id":"4","last_reported":1731074908,"current_range_meters":8800,"station_id":"ce4bhnh2rcd13ifvqgtg","pricing_plan_id":"cebpf4jnsgd1na2vs0mg"},{"bike_id":"960b24ca-c618-4f14-9ff8-a56b4c9521fa","system_id":"levelo_inurba_marseille","lat":43.30162,"lon":5.38085,"is_reserved":false,"is_disabled":false,"rental_uris":{"android":"levelo://app?vid=960b24ca-c618-4f14-9ff8-a56b4c9521fa","ios":"levelo://app?vid=960b24ca-c618-4f14-9ff8-a56b4c9521fa"},"vehicle_type_id":"4","last_reported":1731074908,"current_range_meters":33600,"station_id":"ce4bgjp2rcd13ifvqbh0","pricing_plan_id":"cebpf4jnsgd1na2vs0mg"},{"bike_id":"ff72051d-7e8f-46d3-bc5a-ce8f35154003","system_id":"levelo_inurba_marseille","lat":43.28625,"lon":5.35105,"is_reserved":false,"is_disabled":false,"rental_uris":{"android":"levelo://app?vid=ff72051d-7e8f-46d3-bc5a-ce8f35154003","ios":"levelo://app?vid=ff72051d-7e8f-46d3-bc5a-ce8f35154003"},"vehicle_type_id":"4","last_reported":1731074908,"current_range_meters":38800,"station_id":"ce4bhch2rcd13ifvqeug","pricing_plan_id":"cebpf4jnsgd1na2vs0mg"},{"bike_id":"6acc49ff-f495-4956-abb0-e02a5d3f178f","system_id":"levelo_inurba_marseille","lat":43.28435,"lon":5.39194,"is_reserved":false,"is_disabled":false,"rental_uris":{"android":"levelo://app?vid=6acc49ff-f495-4956-abb0-e02a5d3f178f","ios":"levelo://app?vid=6acc49ff-f495-4956-abb0-e02a5d3f178f"},"vehicle_type_id":"4","last_reported":1731074908,"current_range_meters":16000,"station_id":"ce4bhoh2rcd13ifvqh5g","pricing_plan_id":"cebpf4jnsgd1na2vs0mg"},{"bike_id":"1b23b6c0-9779-4a9c-9ef0-ae7906244709","system_id":"levelo_inurba_marseille","lat":43.32472,"lon":5.36575,"is_reserved":false,"is_disabled":false,"rental_uris":{"android":"levelo://app?vid=1b23b6c0-9779-4a9c-9ef0-ae7906244709","ios":"levelo://app?vid=1b23b6c0-9779-4a9c-9ef0-ae7906244709"},"vehicle_type_id":"4","last_reported":1731074908,"current_range_meters":36400,"station_id":"ce4bhs12rcd13ifvqhvg","pricing_plan_id":"cebpf4jnsgd1na2vs0mg"},{"bike_id":"1d7c7472-07e9-478e-9770-7d1bbe4b462d","system_id":"levelo_inurba_marseille","lat":43.33757,"lon":5.37471,"is_reserved":false,"is_disabled":false,"rental_uris":{"android":"levelo://app?vid=1d7c7472-07e9-478e-9770-7d1bbe4b462d","ios":"levelo://app?vid=1d7c7472-07e9-478e-9770-7d1bbe4b462d"},"vehicle_type_id":"4","last_reported":1731074908,"current_range_meters":36000,"station_id":"","pricing_plan_id":"cebpf4jnsgd1na2vs0mg"},{"bike_id":"6dd7052e-82e0-433b-bd8b-fbc14cfa833c","system_id":"levelo_inurba_marseille","lat":43.23967,"lon":5.36631,"is_reserved":false,"is_disabled":false,"rental_uris":{"android":"levelo://app?vid=6dd7052e-82e0-433b-bd8b-fbc14cfa833c","ios":"levelo://app?vid=6dd7052e-82e0-433b-bd8b-fbc14cfa833c"},"vehicle_type_id":"4","last_reported":1731074908,"current_range_meters":18000,"station_id":"ce4bhi12rcd13ifvqfp0","pricing_plan_id":"cebpf4jnsgd1na2vs0mg"},{"bike_id":"7523d551-6c6b-4056-8b9d-907021a21a00","system_id":"levelo_inurba_marseille","lat":43.31348,"lon":5.36722,"is_reserved":false,"is_disabled":false,"rental_uris":{"android":"levelo://app?vid=7523d551-6c6b-4056-8b9d-907021a21a00","ios":"levelo://app?vid=7523d551-6c6b-4056-8b9d-907021a21a00"},"vehicle_type_id":"4","last_reported":1731074908,"current_range_meters":22000,"station_id":"ce4bgr92rcd13ifvqc6g","pricing_plan_id":"cebpf4jnsgd1na2vs0mg"},{"bike_id":"af4daf64-18f9-41ec-b8bd-1df711ac30af","system_id":"levelo_inurba_marseille","lat":43.31227,"lon":5.36877,"is_reserved":false,"is_disabled":false,"rental_uris":{"android":"levelo://app?vid=af4daf64-18f9-41ec-b8bd-1df711ac30af","ios":"levelo://app?vid=af4daf64-18f9-41ec-b8bd-1df711ac30af"},"vehicle_type_id":"4","last_reported":1731074908,"current_range_meters":30400,"station_id":"ce4bgl92rcd13ifvqbq0","pricing_plan_id":"cebpf4jnsgd1na2vs0mg"},{"bike_id":"4ab8f480-a7fa-4940-b3c1-9b376f9de617","system_id":"levelo_inurba_marseille","lat":43.27205,"lon":5.3918,"is_reserved":false,"is_disabled":false,"rental_uris":{"android":"levelo://app?vid=4ab8f480-a7fa-4940-b3c1-9b376f9de617","ios":"levelo://app?vid=4ab8f480-a7fa-4940-b3c1-9b376f9de617"},"vehicle_type_id":"4","last_reported":1731074908,"current_range_meters":19600,"station_id":"ce4bhhp2rcd13ifvqfm0","pricing_plan_id":"cebpf4jnsgd1na2vs0mg"},{"bike_id":"bd9d7180-121c-41fd-a444-72a1252584b0","system_id":"levelo_inurba_marseille","lat":43.25586,"lon":5.38236,"is_reserved":false,"is_disabled":false,"rental_uris":{"android":"levelo://app?vid=bd9d7180-121c-41fd-a444-72a1252584b0","ios":"levelo://app?vid=bd9d7180-121c-41fd-a444-72a1252584b0"},"vehicle_type_id":"4","last_reported":1731074908,"current_range_meters":9600,"station_id":"ce4bhih2rcd13ifvqfs0","pricing_plan_id":"cebpf4jnsgd1na2vs0mg"},{"bike_id":"92bbe5af-b5d9-48fc-afb8-3b15fc8d3190","system_id":"levelo_inurba_marseille","lat":43.31726,"lon":5.42399,"is_reserved":false,"is_disabled":false,"rental_uris":{"android":"levelo://app?vid=92bbe5af-b5d9-48fc-afb8-3b15fc8d3190","ios":"levelo://app?vid=92bbe5af-b5d9-48fc-afb8-3b15fc8d3190"},"vehicle_type_id":"4","last_reported":1731074908,"current_range_meters":28400,"station_id":"ce4bhp92rcd13ifvqhbg","pricing_plan_id":"cebpf4jnsgd1na2vs0mg"},{"bike_id":"6db2b8ab-31e3-4398-b857-38df6a63999d","system_id":"levelo_inurba_marseille","lat":43.30287,"lon":5.37702,"is_reserved":false,"is_disabled":false,"rental_uris":{"android":"levelo://app?vid=6db2b8ab-31e3-4398-b857-38df6a63999d","ios":"levelo://app?vid=6db2b8ab-31e3-4398-b857-38df6a63999d"},"vehicle_type_id":"4","last_reported":1731074908,"current_range_meters":38000,"station_id":"ce4bguh2rcd13ifvqcj0","pricing_plan_id":"cebpf4jnsgd1na2vs0mg"},{"bike_id":"886adc96-241e-4fc1-b5cb-5845eaf73407","system_id":"levelo_inurba_marseille","lat":43.29199,"lon":5.35808,"is_reserved":false,"is_disabled":false,"rental_uris":{"android":"levelo://app?vid=886adc96-241e-4fc1-b5cb-5845eaf73407","ios":"levelo://app?vid=886adc96-241e-4fc1-b5cb-5845eaf73407"},"vehicle_type_id":"4","last_reported":1731074908,"current_range_meters":25200,"station_id":"ce4bhb12rcd13ifvqel0","pricing_plan_id":"cebpf4jnsgd1na2vs0mg"},{"bike_id":"ae6411f3-ae31-4f90-8975-cbb8b6d77600","system_id":"levelo_inurba_marseille","lat":43.32481,"lon":5.36562,"is_reserved":false,"is_disabled":false,"rental_uris":{"android":"levelo://app?vid=ae6411f3-ae31-4f90-8975-cbb8b6d77600","ios":"levelo://app?vid=ae6411f3-ae31-4f90-8975-cbb8b6d77600"},"vehicle_type_id":"4","last_reported":1731074908,"current_range_meters":10800,"station_id":"ce4bhs12rcd13ifvqhvg","pricing_plan_id":"cebpf4jnsgd1na2vs0mg"},{"bike_id":"9e8012c6-b116-4f7e-bcf1-1a167c1db760","system_id":"levelo_inurba_marseille","lat":43.30547,"lon":5.36541,"is_reserved":false,"is_disabled":false,"rental_uris":{"android":"levelo://app?vid=9e8012c6-b116-4f7e-bcf1-1a167c1db760","ios":"levelo://app?vid=9e8012c6-b116-4f7e-bcf1-1a167c1db760"},"vehicle_type_id":"4","last_reported":1731074908,"current_range_meters":26800,"station_id":"ce4bgs12rcd13ifvqcag","pricing_plan_id":"cebpf4jnsgd1na2vs0mg"},{"bike_id":"7a001719-7d30-4be7-b71f-41877307ae9a","system_id":"levelo_inurba_marseille","lat":43.28109,"lon":5.37841,"is_reserved":false,"is_disabled":false,"rental_uris":{"android":"levelo://app?vid=7a001719-7d30-4be7-b71f-41877307ae9a","ios":"levelo://app?vid=7a001719-7d30-4be7-b71f-41877307ae9a"},"vehicle_type_id":"4","last_reported":1731074908,"current_range_meters":38000,"station_id":"ce4bha12rcd13ifvqee0","pricing_plan_id":"cebpf4jnsgd1na2vs0mg"},{"bike_id":"4adc051b-cab2-444f-a4c6-933d4708baf0","system_id":"levelo_inurba_marseille","lat":43.31716,"lon":5.42395,"is_reserved":false,"is_disabled":false,"rental_uris":{"android":"levelo://app?vid=4adc051b-cab2-444f-a4c6-933d4708baf0","ios":"levelo://app?vid=4adc051b-cab2-444f-a4c6-933d4708baf0"},"vehicle_type_id":"4","last_reported":1731074908,"current_range_meters":14000,"station_id":"ce4bhp92rcd13ifvqhbg","pricing_plan_id":"cebpf4jnsgd1na2vs0mg"},{"bike_id":"e25a463c-7ebd-4227-92a7-041a2c690f67","system_id":"levelo_inurba_marseille","lat":43.303,"lon":5.37705,"is_reserved":false,"is_disabled":false,"rental_uris":{"android":"levelo://app?vid=e25a463c-7ebd-4227-92a7-041a2c690f67","ios":"levelo://app?vid=e25a463c-7ebd-4227-92a7-041a2c690f67"},"vehicle_type_id":"4","last_reported":1731074908,"current_range_meters":14800,"station_id":"ce4bguh2rcd13ifvqcj0","pricing_plan_id":"cebpf4jnsgd1na2vs0mg"},{"bike_id":"712e4f2a-5cfe-4d8d-9cd8-052c2394481a","system_id":"levelo_inurba_marseille","lat":43.285828,"lon":5.397422,"is_reserved":false,"is_disabled":false,"rental_uris":{"android":"levelo://app?vid=712e4f2a-5cfe-4d8d-9cd8-052c2394481a","ios":"levelo://app?vid=712e4f2a-5cfe-4d8d-9cd8-052c2394481a"},"vehicle_type_id":"4","last_reported":1731074908,"current_range_meters":18800,"station_id":"","pricing_plan_id":"cebpf4jnsgd1na2vs0mg"},{"bike_id":"fe234b70-78d3-458d-be67-253d3b8f30c3","system_id":"levelo_inurba_marseille","lat":43.26937,"lon":5.38924,"is_reserved":false,"is_disabled":false,"rental_uris":{"android":"levelo://app?vid=fe234b70-78d3-458d-be67-253d3b8f30c3","ios":"levelo://app?vid=fe234b70-78d3-458d-be67-253d3b8f30c3"},"vehicle_type_id":"4","last_reported":1731074908,"current_range_meters":25200,"station_id":"ce4bhhh2rcd13ifvqfl0","pricing_plan_id":"cebpf4jnsgd1na2vs0mg"},{"bike_id":"9d187e41-e8d8-4fdb-9fe7-5f6de266c1ef","system_id":"levelo_inurba_marseille","lat":43.30288,"lon":5.37701,"is_reserved":false,"is_disabled":false,"rental_uris":{"android":"levelo://app?vid=9d187e41-e8d8-4fdb-9fe7-5f6de266c1ef","ios":"levelo://app?vid=9d187e41-e8d8-4fdb-9fe7-5f6de266c1ef"},"vehicle_type_id":"4","last_reported":1731074908,"current_range_meters":39200,"station_id":"ce4bguh2rcd13ifvqcj0","pricing_plan_id":"cebpf4jnsgd1na2vs0mg"},{"bike_id":"749b6536-6758-4ecd-bafb-b83126efda4c","system_id":"levelo_inurba_marseille","lat":43.29536,"lon":5.3757,"is_reserved":false,"is_disabled":false,"rental_uris":{"android":"levelo://app?vid=749b6536-6758-4ecd-bafb-b83126efda4c","ios":"levelo://app?vid=749b6536-6758-4ecd-bafb-b83126efda4c"},"vehicle_type_id":"4","last_reported":1731074908,"current_range_meters":20000,"station_id":"","pricing_plan_id":"cebpf4jnsgd1na2vs0mg"},{"bike_id":"2d2562ea-568b-428f-9d02-f01744f33d1f","system_id":"levelo_inurba_marseille","lat":43.29784,"lon":5.37101,"is_reserved":false,"is_disabled":false,"rental_uris":{"android":"levelo://app?vid=2d2562ea-568b-428f-9d02-f01744f33d1f","ios":"levelo://app?vid=2d2562ea-568b-428f-9d02-f01744f33d1f"},"vehicle_type_id":"4","last_reported":1731074908,"current_range_meters":28400,"station_id":"ce4bgop2rcd13ifvqc1g","pricing_plan_id":"cebpf4jnsgd1na2vs0mg"},{"bike_id":"6f86bfba-49ab-4d11-b93c-fa50ce1c0c33","system_id":"levelo_inurba_marseille","lat":43.29809,"lon":5.38107,"is_reserved":false,"is_disabled":false,"rental_uris":{"android":"levelo://app?vid=6f86bfba-49ab-4d11-b93c-fa50ce1c0c33","ios":"levelo://app?vid=6f86bfba-49ab-4d11-b93c-fa50ce1c0c33"},"vehicle_type_id":"4","last_reported":1731074908,"current_range_meters":38800,"station_id":"ce4bgip2rcd13ifvqbb0","pricing_plan_id":"cebpf4jnsgd1na2vs0mg"},{"bike_id":"4f6b28ea-f931-4257-a782-678788c0a229","system_id":"levelo_inurba_marseille","lat":43.29278,"lon":5.36847,"is_reserved":false,"is_disabled":false,"rental_uris":{"android":"levelo://app?vid=4f6b28ea-f931-4257-a782-678788c0a229","ios":"levelo://app?vid=4f6b28ea-f931-4257-a782-678788c0a229"},"vehicle_type_id":"4","last_reported":1731074908,"current_range_meters":24400,"station_id":"ce4bhbp2rcd13ifvqesg","pricing_plan_id":"cebpf4jnsgd1na2vs0mg"},{"bike_id":"13b91987-4cbd-41a1-bfc5-da30da6f3031","system_id":"levelo_inurba_marseille","lat":43.31229,"lon":5.36874,"is_reserved":false,"is_disabled":false,"rental_uris":{"android":"levelo://app?vid=13b91987-4cbd-41a1-bfc5-da30da6f3031","ios":"levelo://app?vid=13b91987-4cbd-41a1-bfc5-da30da6f3031"},"vehicle_type_id":"4","last_reported":1731074908,"current_range_meters":28400,"station_id":"ce4bgl92rcd13ifvqbq0","pricing_plan_id":"cebpf4jnsgd1na2vs0mg"},{"bike_id":"5209f6c7-271c-417e-8966-d222b3ad5a7a","system_id":"levelo_inurba_marseille","lat":43.27561,"lon":5.38423,"is_reserved":false,"is_disabled":false,"rental_uris":{"android":"levelo://app?vid=5209f6c7-271c-417e-8966-d222b3ad5a7a","ios":"levelo://app?vid=5209f6c7-271c-417e-8966-d222b3ad5a7a"},"vehicle_type_id":"4","last_reported":1731074908,"current_range_meters":14800,"station_id":"ce4bhh92rcd13ifvqfi0","pricing_plan_id":"cebpf4jnsgd1na2vs0mg"},{"bike_id":"2bbcb9cc-f8b8-4b14-879a-f3df66920005","system_id":"levelo_inurba_marseille","lat":43.31229,"lon":5.3685,"is_reserved":false,"is_disabled":false,"rental_uris":{"android":"levelo://app?vid=2bbcb9cc-f8b8-4b14-879a-f3df66920005","ios":"levelo://app?vid=2bbcb9cc-f8b8-4b14-879a-f3df66920005"},"vehicle_type_id":"4","last_reported":1731074908,"current_range_meters":20000,"station_id":"ce4bgl92rcd13ifvqbq0","pricing_plan_id":"cebpf4jnsgd1na2vs0mg"},{"bike_id":"9bf1ad50-3417-42d2-b68f-80550f98b064","system_id":"levelo_inurba_marseille","lat":43.27669,"lon":5.3891,"is_reserved":false,"is_disabled":false,"rental_uris":{"android":"levelo://app?vid=9bf1ad50-3417-42d2-b68f-80550f98b064","ios":"levelo://app?vid=9bf1ad50-3417-42d2-b68f-80550f98b064"},"vehicle_type_id":"4","last_reported":1731074908,"current_range_meters":38000,"station_id":"ce4bhi12rcd13ifvqfo0","pricing_plan_id":"cebpf4jnsgd1na2vs0mg"},{"bike_id":"eaa1be72-46a3-40be-bbca-431d9c8cac8f","system_id":"levelo_inurba_marseille","lat":43.29281,"lon":5.40122,"is_reserved":false,"is_disabled":false,"rental_uris":{"android":"levelo://app?vid=eaa1be72-46a3-40be-bbca-431d9c8cac8f","ios":"levelo://app?vid=eaa1be72-46a3-40be-bbca-431d9c8cac8f"},"vehicle_type_id":"4","last_reported":1731074908,"current_range_meters":25200,"station_id":"ce4bh312rcd13ifvqdk0","pricing_plan_id":"cebpf4jnsgd1na2vs0mg"},{"bike_id":"d7c37007-5ba2-499f-b899-913405840f97","system_id":"levelo_inurba_marseille","lat":43.29628,"lon":5.37718,"is_reserved":false,"is_disabled":false,"rental_uris":{"android":"levelo://app?vid=d7c37007-5ba2-499f-b899-913405840f97","ios":"levelo://app?vid=d7c37007-5ba2-499f-b899-913405840f97"},"vehicle_type_id":"4","last_reported":1731074908,"current_range_meters":4800,"station_id":"ce4bgi92rcd13ifvqb90","pricing_plan_id":"cebpf4jnsgd1na2vs0mg"},{"bike_id":"f50e857c-e79e-4585-b438-3487e1d543d2","system_id":"levelo_inurba_marseille","lat":43.23965,"lon":5.36632,"is_reserved":false,"is_disabled":false,"rental_uris":{"android":"levelo://app?vid=f50e857c-e79e-4585-b438-3487e1d543d2","ios":"levelo://app?vid=f50e857c-e79e-4585-b438-3487e1d543d2"},"vehicle_type_id":"4","last_reported":1731074908,"current_range_meters":8000,"station_id":"ce4bhi12rcd13ifvqfp0","pricing_plan_id":"cebpf4jnsgd1na2vs0mg"},{"bike_id":"9bf6cf1f-d187-4f3a-9c2e-9363666e8dfa","system_id":"levelo_inurba_marseille","lat":43.25501,"lon":5.37651,"is_reserved":false,"is_disabled":false,"rental_uris":{"android":"levelo://app?vid=9bf6cf1f-d187-4f3a-9c2e-9363666e8dfa","ios":"levelo://app?vid=9bf6cf1f-d187-4f3a-9c2e-9363666e8dfa"},"vehicle_type_id":"4","last_reported":1731074908,"current_range_meters":28000,"station_id":"ce4bhh12rcd13ifvqff0","pricing_plan_id":"cebpf4jnsgd1na2vs0mg"},{"bike_id":"d9af5e3a-8f7a-4432-be49-b823312daf5d","system_id":"levelo_inurba_marseille","lat":43.28853,"lon":5.35851,"is_reserved":false,"is_disabled":false,"rental_uris":{"android":"levelo://app?vid=d9af5e3a-8f7a-4432-be49-b823312daf5d","ios":"levelo://app?vid=d9af5e3a-8f7a-4432-be49-b823312daf5d"},"vehicle_type_id":"4","last_reported":1731074908,"current_range_meters":33200,"station_id":"ce4bhb12rcd13ifvqem0","pricing_plan_id":"cebpf4jnsgd1na2vs0mg"},{"bike_id":"359ea3bc-6e89-41c8-b166-4c2d3ae00e2a","system_id":"levelo_inurba_marseille","lat":43.27807,"lon":5.407,"is_reserved":false,"is_disabled":false,"rental_uris":{"android":"levelo://app?vid=359ea3bc-6e89-41c8-b166-4c2d3ae00e2a","ios":"levelo://app?vid=359ea3bc-6e89-41c8-b166-4c2d3ae00e2a"},"vehicle_type_id":"4","last_reported":1731074908,"current_range_meters":28000,"station_id":"ce4bhnh2rcd13ifvqgtg","pricing_plan_id":"cebpf4jnsgd1na2vs0mg"},{"bike_id":"4da14e1b-131c-41ff-a192-5be6d8c75907","system_id":"levelo_inurba_marseille","lat":43.24817,"lon":5.37458,"is_reserved":false,"is_disabled":false,"rental_uris":{"android":"levelo://app?vid=4da14e1b-131c-41ff-a192-5be6d8c75907","ios":"levelo://app?vid=4da14e1b-131c-41ff-a192-5be6d8c75907"},"vehicle_type_id":"4","last_reported":1731074908,"current_range_meters":16000,"station_id":"ce4bhgh2rcd13ifvqfb0","pricing_plan_id":"cebpf4jnsgd1na2vs0mg"},{"bike_id":"0e0ce3b2-9a8e-4f07-88b1-9cbc2e9ddfea","system_id":"levelo_inurba_marseille","lat":43.27831,"lon":5.39205,"is_reserved":false,"is_disabled":false,"rental_uris":{"android":"levelo://app?vid=0e0ce3b2-9a8e-4f07-88b1-9cbc2e9ddfea","ios":"levelo://app?vid=0e0ce3b2-9a8e-4f07-88b1-9cbc2e9ddfea"},"vehicle_type_id":"4","last_reported":1731074908,"current_range_meters":26000,"station_id":"ce4bhjp2rcd13ifvqga0","pricing_plan_id":"cebpf4jnsgd1na2vs0mg"},{"bike_id":"df1d09e1-93ae-4690-a1a7-b2d0dfc29687","system_id":"levelo_inurba_marseille","lat":43.28935,"lon":5.36637,"is_reserved":false,"is_disabled":false,"rental_uris":{"android":"levelo://app?vid=df1d09e1-93ae-4690-a1a7-b2d0dfc29687","ios":"levelo://app?vid=df1d09e1-93ae-4690-a1a7-b2d0dfc29687"},"vehicle_type_id":"4","last_reported":1731074908,"current_range_meters":16800,"station_id":"ce4bhap2rcd13ifvqek0","pricing_plan_id":"cebpf4jnsgd1na2vs0mg"},{"bike_id":"3abb8fb2-fb72-4408-91d2-d59626d63f9e","system_id":"levelo_inurba_marseille","lat":43.29017,"lon":5.38131,"is_reserved":false,"is_disabled":false,"rental_uris":{"android":"levelo://app?vid=3abb8fb2-fb72-4408-91d2-d59626d63f9e","ios":"levelo://app?vid=3abb8fb2-fb72-4408-91d2-d59626d63f9e"},"vehicle_type_id":"4","last_reported":1731074908,"current_range_meters":37600,"station_id":"ce4bh4p2rcd13ifvqe1g","pricing_plan_id":"cebpf4jnsgd1na2vs0mg"},{"bike_id":"498762ca-a96b-45f1-a52e-35efd3fef939","system_id":"levelo_inurba_marseille","lat":43.27422,"lon":5.39422,"is_reserved":false,"is_disabled":false,"rental_uris":{"android":"levelo://app?vid=498762ca-a96b-45f1-a52e-35efd3fef939","ios":"levelo://app?vid=498762ca-a96b-45f1-a52e-35efd3fef939"},"vehicle_type_id":"4","last_reported":1731074908,"current_range_meters":28800,"station_id":"ce4bhdp2rcd13ifvqf20","pricing_plan_id":"cebpf4jnsgd1na2vs0mg"},{"bike_id":"5dddcce2-35f0-4716-8a42-23c2049a1eb9","system_id":"levelo_inurba_marseille","lat":43.303,"lon":5.36883,"is_reserved":false,"is_disabled":false,"rental_uris":{"android":"levelo://app?vid=5dddcce2-35f0-4716-8a42-23c2049a1eb9","ios":"levelo://app?vid=5dddcce2-35f0-4716-8a42-23c2049a1eb9"},"vehicle_type_id":"4","last_reported":1731074908,"current_range_meters":22800,"station_id":"ce4bgqh2rcd13ifvqc5g","pricing_plan_id":"cebpf4jnsgd1na2vs0mg"},{"bike_id":"ff989801-f59b-46d1-867b-7c2b6eab1cca","system_id":"levelo_inurba_marseille","lat":43.337444,"lon":5.374475,"is_reserved":false,"is_disabled":false,"rental_uris":{"android":"levelo://app?vid=ff989801-f59b-46d1-867b-7c2b6eab1cca","ios":"levelo://app?vid=ff989801-f59b-46d1-867b-7c2b6eab1cca"},"vehicle_type_id":"4","last_reported":1731074908,"current_range_meters":38000,"station_id":"","pricing_plan_id":"cebpf4jnsgd1na2vs0mg"},{"bike_id":"eab9e695-9a87-4479-8d9c-13db92e6b0f4","system_id":"levelo_inurba_marseille","lat":43.29583,"lon":5.36742,"is_reserved":false,"is_disabled":false,"rental_uris":{"android":"levelo://app?vid=eab9e695-9a87-4479-8d9c-13db92e6b0f4","ios":"levelo://app?vid=eab9e695-9a87-4479-8d9c-13db92e6b0f4"},"vehicle_type_id":"4","last_reported":1731074908,"current_range_meters":39200,"station_id":"ce4bgph2rcd13ifvqc2g","pricing_plan_id":"cebpf4jnsgd1na2vs0mg"},{"bike_id":"0f445d8d-c5c6-4426-9c60-d64eb330cd19","system_id":"levelo_inurba_marseille","lat":43.32289,"lon":5.38275,"is_reserved":false,"is_disabled":false,"rental_uris":{"android":"levelo://app?vid=0f445d8d-c5c6-4426-9c60-d64eb330cd19","ios":"levelo://app?vid=0f445d8d-c5c6-4426-9c60-d64eb330cd19"},"vehicle_type_id":"4","last_reported":1731074908,"current_range_meters":38000,"station_id":"ce4bhr12rcd13ifvqhqg","pricing_plan_id":"cebpf4jnsgd1na2vs0mg"},{"bike_id":"17f82b42-6551-4c0a-8ff1-d994768496b0","system_id":"levelo_inurba_marseille","lat":43.31482,"lon":5.37314,"is_reserved":false,"is_disabled":false,"rental_uris":{"android":"levelo://app?vid=17f82b42-6551-4c0a-8ff1-d994768496b0","ios":"levelo://app?vid=17f82b42-6551-4c0a-8ff1-d994768496b0"},"vehicle_type_id":"4","last_reported":1731074908,"current_range_meters":22400,"station_id":"ce4bgt12rcd13ifvqcd0","pricing_plan_id":"cebpf4jnsgd1na2vs0mg"},{"bike_id":"acd3a113-4782-472a-9aa3-24b77925a532","system_id":"levelo_inurba_marseille","lat":43.3016,"lon":5.37426,"is_reserved":false,"is_disabled":false,"rental_uris":{"android":"levelo://app?vid=acd3a113-4782-472a-9aa3-24b77925a532","ios":"levelo://app?vid=acd3a113-4782-472a-9aa3-24b77925a532"},"vehicle_type_id":"4","last_reported":1731074908,"current_range_meters":34800,"station_id":"ce4bgs92rcd13ifvqcc0","pricing_plan_id":"cebpf4jnsgd1na2vs0mg"},{"bike_id":"d115c69c-dc61-4019-86ca-8f3ef1285cfb","system_id":"levelo_inurba_marseille","lat":43.22929,"lon":5.3538,"is_reserved":false,"is_disabled":false,"rental_uris":{"android":"levelo://app?vid=d115c69c-dc61-4019-86ca-8f3ef1285cfb","ios":"levelo://app?vid=d115c69c-dc61-4019-86ca-8f3ef1285cfb"},"vehicle_type_id":"4","last_reported":1731074908,"current_range_meters":36800,"station_id":"cpo3532slgdg3j2ikp40","pricing_plan_id":"cebpf4jnsgd1na2vs0mg"},{"bike_id":"bdc0e56f-8ec1-460e-8532-2976e16b80ef","system_id":"levelo_inurba_marseille","lat":43.33755,"lon":5.37455,"is_reserved":false,"is_disabled":false,"rental_uris":{"android":"levelo://app?vid=bdc0e56f-8ec1-460e-8532-2976e16b80ef","ios":"levelo://app?vid=bdc0e56f-8ec1-460e-8532-2976e16b80ef"},"vehicle_type_id":"4","last_reported":1731074908,"current_range_meters":33600,"station_id":"","pricing_plan_id":"cebpf4jnsgd1na2vs0mg"},{"bike_id":"38a4a02e-8ffb-4441-a0bf-ae520b916e11","system_id":"levelo_inurba_marseille","lat":43.29736,"lon":5.37695,"is_reserved":false,"is_disabled":false,"rental_uris":{"android":"levelo://app?vid=38a4a02e-8ffb-4441-a0bf-ae520b916e11","ios":"levelo://app?vid=38a4a02e-8ffb-4441-a0bf-ae520b916e11"},"vehicle_type_id":"4","last_reported":1731074908,"current_range_meters":39200,"station_id":"ce4bgkh2rcd13ifvqbl0","pricing_plan_id":"cebpf4jnsgd1na2vs0mg"},{"bike_id":"0def2c40-935c-4e60-a5e8-8e45a6388ffb","system_id":"levelo_inurba_marseille","lat":43.25868,"lon":5.39908,"is_reserved":false,"is_disabled":false,"rental_uris":{"android":"levelo://app?vid=0def2c40-935c-4e60-a5e8-8e45a6388ffb","ios":"levelo://app?vid=0def2c40-935c-4e60-a5e8-8e45a6388ffb"},"vehicle_type_id":"4","last_reported":1731074908,"current_range_meters":36400,"station_id":"ce4bhl92rcd13ifvqghg","pricing_plan_id":"cebpf4jnsgd1na2vs0mg"},{"bike_id":"6ba9ca98-cdab-46e8-bcb3-d22861a3b09f","system_id":"levelo_inurba_marseille","lat":43.26212,"lon":5.37442,"is_reserved":false,"is_disabled":false,"rental_uris":{"android":"levelo://app?vid=6ba9ca98-cdab-46e8-bcb3-d22861a3b09f","ios":"levelo://app?vid=6ba9ca98-cdab-46e8-bcb3-d22861a3b09f"},"vehicle_type_id":"4","last_reported":1731074908,"current_range_meters":36400,"station_id":"ce4bhgp2rcd13ifvqfc0","pricing_plan_id":"cebpf4jnsgd1na2vs0mg"},{"bike_id":"d1b1ee68-49f3-4748-befd-3a49c0cc974e","system_id":"levelo_inurba_marseille","lat":43.31223,"lon":5.36851,"is_reserved":false,"is_disabled":false,"rental_uris":{"android":"levelo://app?vid=d1b1ee68-49f3-4748-befd-3a49c0cc974e","ios":"levelo://app?vid=d1b1ee68-49f3-4748-befd-3a49c0cc974e"},"vehicle_type_id":"4","last_reported":1731074908,"current_range_meters":31200,"station_id":"ce4bgl92rcd13ifvqbq0","pricing_plan_id":"cebpf4jnsgd1na2vs0mg"},{"bike_id":"a70f44b0-4ed6-4fd2-8a77-6ae02fd60b6a","system_id":"levelo_inurba_marseille","lat":43.32539,"lon":5.4146,"is_reserved":false,"is_disabled":false,"rental_uris":{"android":"levelo://app?vid=a70f44b0-4ed6-4fd2-8a77-6ae02fd60b6a","ios":"levelo://app?vid=a70f44b0-4ed6-4fd2-8a77-6ae02fd60b6a"},"vehicle_type_id":"4","last_reported":1731074908,"current_range_meters":38800,"station_id":"ce4bhq12rcd13ifvqhhg","pricing_plan_id":"cebpf4jnsgd1na2vs0mg"},{"bike_id":"ed366f95-9ba9-4569-a29b-9d8d122c6858","system_id":"levelo_inurba_marseille","lat":43.27815,"lon":5.40711,"is_reserved":false,"is_disabled":false,"rental_uris":{"android":"levelo://app?vid=ed366f95-9ba9-4569-a29b-9d8d122c6858","ios":"levelo://app?vid=ed366f95-9ba9-4569-a29b-9d8d122c6858"},"vehicle_type_id":"4","last_reported":1731074908,"current_range_meters":30800,"station_id":"ce4bhnh2rcd13ifvqgtg","pricing_plan_id":"cebpf4jnsgd1na2vs0mg"},{"bike_id":"63cbaa32-336c-4506-8abe-7731d5d4c91e","system_id":"levelo_inurba_marseille","lat":43.29373,"lon":5.37836,"is_reserved":false,"is_disabled":false,"rental_uris":{"android":"levelo://app?vid=63cbaa32-336c-4506-8abe-7731d5d4c91e","ios":"levelo://app?vid=63cbaa32-336c-4506-8abe-7731d5d4c91e"},"vehicle_type_id":"4","last_reported":1731074908,"current_range_meters":29600,"station_id":"ce4bgjh2rcd13ifvqbf0","pricing_plan_id":"cebpf4jnsgd1na2vs0mg"},{"bike_id":"ecad47f4-30a3-4070-8536-6ef6ebeaea7a","system_id":"levelo_inurba_marseille","lat":43.25117,"lon":5.40335,"is_reserved":false,"is_disabled":false,"rental_uris":{"android":"levelo://app?vid=ecad47f4-30a3-4070-8536-6ef6ebeaea7a","ios":"levelo://app?vid=ecad47f4-30a3-4070-8536-6ef6ebeaea7a"},"vehicle_type_id":"4","last_reported":1731074908,"current_range_meters":2800,"station_id":"ce4bhlh2rcd13ifvqgig","pricing_plan_id":"cebpf4jnsgd1na2vs0mg"},{"bike_id":"7881b347-431d-4b4a-89ed-22299eed5d97","system_id":"levelo_inurba_marseille","lat":43.28421,"lon":5.34991,"is_reserved":false,"is_disabled":false,"rental_uris":{"android":"levelo://app?vid=7881b347-431d-4b4a-89ed-22299eed5d97","ios":"levelo://app?vid=7881b347-431d-4b4a-89ed-22299eed5d97"},"vehicle_type_id":"4","last_reported":1731074908,"current_range_meters":20800,"station_id":"ce4bhbh2rcd13ifvqepg","pricing_plan_id":"cebpf4jnsgd1na2vs0mg"},{"bike_id":"119bf5cb-1c5d-440c-a233-881d5f45c6cb","system_id":"levelo_inurba_marseille","lat":43.28975,"lon":5.37835,"is_reserved":false,"is_disabled":false,"rental_uris":{"android":"levelo://app?vid=119bf5cb-1c5d-440c-a233-881d5f45c6cb","ios":"levelo://app?vid=119bf5cb-1c5d-440c-a233-881d5f45c6cb"},"vehicle_type_id":"4","last_reported":1731074908,"current_range_meters":20000,"station_id":"ce4bh9p2rcd13ifvqed0","pricing_plan_id":"cebpf4jnsgd1na2vs0mg"},{"bike_id":"cb07647e-f203-4251-af81-a72b9d79b2ea","system_id":"levelo_inurba_marseille","lat":43.295746,"lon":5.399734,"is_reserved":false,"is_disabled":false,"rental_uris":{"android":"levelo://app?vid=cb07647e-f203-4251-af81-a72b9d79b2ea","ios":"levelo://app?vid=cb07647e-f203-4251-af81-a72b9d79b2ea"},"vehicle_type_id":"4","last_reported":1731074908,"current_range_meters":10800,"station_id":"ce4bh312rcd13ifvqdj0","pricing_plan_id":"cebpf4jnsgd1na2vs0mg"},{"bike_id":"d3ba1181-4785-49b3-be66-9c9a1f895c58","system_id":"levelo_inurba_marseille","lat":43.29036,"lon":5.37571,"is_reserved":false,"is_disabled":false,"rental_uris":{"android":"levelo://app?vid=d3ba1181-4785-49b3-be66-9c9a1f895c58","ios":"levelo://app?vid=d3ba1181-4785-49b3-be66-9c9a1f895c58"},"vehicle_type_id":"4","last_reported":1731074908,"current_range_meters":30800,"station_id":"ce4bh692rcd13ifvqe90","pricing_plan_id":"cebpf4jnsgd1na2vs0mg"},{"bike_id":"e52420d4-63e9-418f-89d3-416320262e35","system_id":"levelo_inurba_marseille","lat":43.23965,"lon":5.36649,"is_reserved":false,"is_disabled":false,"rental_uris":{"android":"levelo://app?vid=e52420d4-63e9-418f-89d3-416320262e35","ios":"levelo://app?vid=e52420d4-63e9-418f-89d3-416320262e35"},"vehicle_type_id":"4","last_reported":1731074908,"current_range_meters":39200,"station_id":"ce4bhi12rcd13ifvqfp0","pricing_plan_id":"cebpf4jnsgd1na2vs0mg"},{"bike_id":"6c44739f-e667-459b-bde8-023881f6aa11","system_id":"levelo_inurba_marseille","lat":43.2962,"lon":5.37731,"is_reserved":false,"is_disabled":false,"rental_uris":{"android":"levelo://app?vid=6c44739f-e667-459b-bde8-023881f6aa11","ios":"levelo://app?vid=6c44739f-e667-459b-bde8-023881f6aa11"},"vehicle_type_id":"4","last_reported":1731074908,"current_range_meters":38800,"station_id":"ce4bgi92rcd13ifvqb90","pricing_plan_id":"cebpf4jnsgd1na2vs0mg"},{"bike_id":"02f3bd69-c440-439f-96d2-1f56246cbb70","system_id":"levelo_inurba_marseille","lat":43.23055,"lon":5.35489,"is_reserved":false,"is_disabled":false,"rental_uris":{"android":"levelo://app?vid=02f3bd69-c440-439f-96d2-1f56246cbb70","ios":"levelo://app?vid=02f3bd69-c440-439f-96d2-1f56246cbb70"},"vehicle_type_id":"4","last_reported":1731074908,"current_range_meters":32400,"station_id":"cpo3342slgdg3j2ifvpg","pricing_plan_id":"cebpf4jnsgd1na2vs0mg"},{"bike_id":"bf910532-c36d-4142-b790-0993375eb461","system_id":"levelo_inurba_marseille","lat":43.29619,"lon":5.38119,"is_reserved":false,"is_disabled":false,"rental_uris":{"android":"levelo://app?vid=bf910532-c36d-4142-b790-0993375eb461","ios":"levelo://app?vid=bf910532-c36d-4142-b790-0993375eb461"},"vehicle_type_id":"4","last_reported":1731074908,"current_range_meters":30800,"station_id":"ce4bgl12rcd13ifvqbo0","pricing_plan_id":"cebpf4jnsgd1na2vs0mg"},{"bike_id":"04c33c41-7d2c-4ad1-9547-7c592fdb82f1","system_id":"levelo_inurba_marseille","lat":43.31761,"lon":5.39026,"is_reserved":false,"is_disabled":false,"rental_uris":{"android":"levelo://app?vid=04c33c41-7d2c-4ad1-9547-7c592fdb82f1","ios":"levelo://app?vid=04c33c41-7d2c-4ad1-9547-7c592fdb82f1"},"vehicle_type_id":"4","last_reported":1731074908,"current_range_meters":38400,"station_id":"ce4bhqp2rcd13ifvqhng","pricing_plan_id":"cebpf4jnsgd1na2vs0mg"},{"bike_id":"bae1c90c-a753-41e1-945b-3d5c3e259263","system_id":"levelo_inurba_marseille","lat":43.31365,"lon":5.38501,"is_reserved":false,"is_disabled":false,"rental_uris":{"android":"levelo://app?vid=bae1c90c-a753-41e1-945b-3d5c3e259263","ios":"levelo://app?vid=bae1c90c-a753-41e1-945b-3d5c3e259263"},"vehicle_type_id":"4","last_reported":1731074908,"current_range_meters":12800,"station_id":"ce4bgt92rcd13ifvqcf0","pricing_plan_id":"cebpf4jnsgd1na2vs0mg"},{"bike_id":"1b31d83e-3be8-4b8e-83ee-f6cd6581af1c","system_id":"levelo_inurba_marseille","lat":43.26943,"lon":5.38923,"is_reserved":false,"is_disabled":false,"rental_uris":{"android":"levelo://app?vid=1b31d83e-3be8-4b8e-83ee-f6cd6581af1c","ios":"levelo://app?vid=1b31d83e-3be8-4b8e-83ee-f6cd6581af1c"},"vehicle_type_id":"4","last_reported":1731074908,"current_range_meters":24400,"station_id":"ce4bhhh2rcd13ifvqfl0","pricing_plan_id":"cebpf4jnsgd1na2vs0mg"},{"bike_id":"a28cfdeb-e930-467b-915e-09543549bbe8","system_id":"levelo_inurba_marseille","lat":43.31237,"lon":5.36877,"is_reserved":false,"is_disabled":false,"rental_uris":{"android":"levelo://app?vid=a28cfdeb-e930-467b-915e-09543549bbe8","ios":"levelo://app?vid=a28cfdeb-e930-467b-915e-09543549bbe8"},"vehicle_type_id":"4","last_reported":1731074908,"current_range_meters":8400,"station_id":"ce4bgl92rcd13ifvqbq0","pricing_plan_id":"cebpf4jnsgd1na2vs0mg"},{"bike_id":"3ce0f3d9-d960-4108-9dfd-f7d25984343b","system_id":"levelo_inurba_marseille","lat":43.26202,"lon":5.37936,"is_reserved":false,"is_disabled":false,"rental_uris":{"android":"levelo://app?vid=3ce0f3d9-d960-4108-9dfd-f7d25984343b","ios":"levelo://app?vid=3ce0f3d9-d960-4108-9dfd-f7d25984343b"},"vehicle_type_id":"4","last_reported":1731074908,"current_range_meters":38800,"station_id":"ce4bhjp2rcd13ifvqg90","pricing_plan_id":"cebpf4jnsgd1na2vs0mg"},{"bike_id":"f3675469-de76-4a89-b0b1-0596e5dc5664","system_id":"levelo_inurba_marseille","lat":43.29566,"lon":5.367483,"is_reserved":false,"is_disabled":false,"rental_uris":{"android":"levelo://app?vid=f3675469-de76-4a89-b0b1-0596e5dc5664","ios":"levelo://app?vid=f3675469-de76-4a89-b0b1-0596e5dc5664"},"vehicle_type_id":"4","last_reported":1731074908,"current_range_meters":17200,"station_id":"ce4bgph2rcd13ifvqc2g","pricing_plan_id":"cebpf4jnsgd1na2vs0mg"},{"bike_id":"fd515ccb-69db-4b35-9e23-78fd6ae69930","system_id":"levelo_inurba_marseille","lat":43.28722,"lon":5.36078,"is_reserved":false,"is_disabled":false,"rental_uris":{"android":"levelo://app?vid=fd515ccb-69db-4b35-9e23-78fd6ae69930","ios":"levelo://app?vid=fd515ccb-69db-4b35-9e23-78fd6ae69930"},"vehicle_type_id":"4","last_reported":1731074908,"current_range_meters":31200,"station_id":"cki0cbj6b192h4jlfktg","pricing_plan_id":"cebpf4jnsgd1na2vs0mg"},{"bike_id":"d76f6347-395f-4e57-8af4-c524e2667097","system_id":"levelo_inurba_marseille","lat":43.28938,"lon":5.36633,"is_reserved":false,"is_disabled":false,"rental_uris":{"android":"levelo://app?vid=d76f6347-395f-4e57-8af4-c524e2667097","ios":"levelo://app?vid=d76f6347-395f-4e57-8af4-c524e2667097"},"vehicle_type_id":"4","last_reported":1731074908,"current_range_meters":18800,"station_id":"ce4bhap2rcd13ifvqek0","pricing_plan_id":"cebpf4jnsgd1na2vs0mg"},{"bike_id":"5ff265e3-ff12-4921-96f3-63d05d31bed9","system_id":"levelo_inurba_marseille","lat":43.31374,"lon":5.38495,"is_reserved":false,"is_disabled":false,"rental_uris":{"android":"levelo://app?vid=5ff265e3-ff12-4921-96f3-63d05d31bed9","ios":"levelo://app?vid=5ff265e3-ff12-4921-96f3-63d05d31bed9"},"vehicle_type_id":"4","last_reported":1731074908,"current_range_meters":14000,"station_id":"ce4bgt92rcd13ifvqcf0","pricing_plan_id":"cebpf4jnsgd1na2vs0mg"},{"bike_id":"c3397603-d8a8-4ef9-b5ba-96ecfb6daef0","system_id":"levelo_inurba_marseille","lat":43.23144,"lon":5.43717,"is_reserved":false,"is_disabled":false,"rental_uris":{"android":"levelo://app?vid=c3397603-d8a8-4ef9-b5ba-96ecfb6daef0","ios":"levelo://app?vid=c3397603-d8a8-4ef9-b5ba-96ecfb6daef0"},"vehicle_type_id":"4","last_reported":1731074908,"current_range_meters":19600,"station_id":"ce4bhmp2rcd13ifvqgog","pricing_plan_id":"cebpf4jnsgd1na2vs0mg"},{"bike_id":"fd2a55f2-9c5b-4957-9643-7c2a5395e474","system_id":"levelo_inurba_marseille","lat":43.29581,"lon":5.36736,"is_reserved":false,"is_disabled":false,"rental_uris":{"android":"levelo://app?vid=fd2a55f2-9c5b-4957-9643-7c2a5395e474","ios":"levelo://app?vid=fd2a55f2-9c5b-4957-9643-7c2a5395e474"},"vehicle_type_id":"4","last_reported":1731074908,"current_range_meters":16800,"station_id":"ce4bgph2rcd13ifvqc2g","pricing_plan_id":"cebpf4jnsgd1na2vs0mg"},{"bike_id":"5d1b96d9-8007-4e72-94dc-da50b23830e4","system_id":"levelo_inurba_marseille","lat":43.31491,"lon":5.3731,"is_reserved":false,"is_disabled":false,"rental_uris":{"android":"levelo://app?vid=5d1b96d9-8007-4e72-94dc-da50b23830e4","ios":"levelo://app?vid=5d1b96d9-8007-4e72-94dc-da50b23830e4"},"vehicle_type_id":"4","last_reported":1731074908,"current_range_meters":25600,"station_id":"ce4bgt12rcd13ifvqcd0","pricing_plan_id":"cebpf4jnsgd1na2vs0mg"},{"bike_id":"692a78bd-ec81-41e1-a11d-e1889abe5871","system_id":"levelo_inurba_marseille","lat":43.31358,"lon":5.36714,"is_reserved":false,"is_disabled":false,"rental_uris":{"android":"levelo://app?vid=692a78bd-ec81-41e1-a11d-e1889abe5871","ios":"levelo://app?vid=692a78bd-ec81-41e1-a11d-e1889abe5871"},"vehicle_type_id":"4","last_reported":1731074908,"current_range_meters":38800,"station_id":"ce4bgr92rcd13ifvqc6g","pricing_plan_id":"cebpf4jnsgd1na2vs0mg"},{"bike_id":"22c450cd-71d7-41c8-8d6d-31cb420ce2b6","system_id":"levelo_inurba_marseille","lat":43.28423,"lon":5.34995,"is_reserved":false,"is_disabled":false,"rental_uris":{"android":"levelo://app?vid=22c450cd-71d7-41c8-8d6d-31cb420ce2b6","ios":"levelo://app?vid=22c450cd-71d7-41c8-8d6d-31cb420ce2b6"},"vehicle_type_id":"4","last_reported":1731074908,"current_range_meters":16800,"station_id":"ce4bhbh2rcd13ifvqepg","pricing_plan_id":"cebpf4jnsgd1na2vs0mg"},{"bike_id":"b52cee34-16bd-4cea-a610-87eafac0719e","system_id":"levelo_inurba_marseille","lat":43.2418,"lon":5.39732,"is_reserved":false,"is_disabled":false,"rental_uris":{"android":"levelo://app?vid=b52cee34-16bd-4cea-a610-87eafac0719e","ios":"levelo://app?vid=b52cee34-16bd-4cea-a610-87eafac0719e"},"vehicle_type_id":"4","last_reported":1731074908,"current_range_meters":32000,"station_id":"ce4bhn12rcd13ifvqgpg","pricing_plan_id":"cebpf4jnsgd1na2vs0mg"},{"bike_id":"bd2750af-804e-4e44-8734-1c2de3d03c10","system_id":"levelo_inurba_marseille","lat":43.29098,"lon":5.38145,"is_reserved":false,"is_disabled":false,"rental_uris":{"android":"levelo://app?vid=bd2750af-804e-4e44-8734-1c2de3d03c10","ios":"levelo://app?vid=bd2750af-804e-4e44-8734-1c2de3d03c10"},"vehicle_type_id":"4","last_reported":1731074908,"current_range_meters":31200,"station_id":"ce4bh512rcd13ifvqe2g","pricing_plan_id":"cebpf4jnsgd1na2vs0mg"},{"bike_id":"e0953a32-3dfd-416e-90cb-7d58c750eef4","system_id":"levelo_inurba_marseille","lat":43.28083,"lon":5.39696,"is_reserved":false,"is_disabled":false,"rental_uris":{"android":"levelo://app?vid=e0953a32-3dfd-416e-90cb-7d58c750eef4","ios":"levelo://app?vid=e0953a32-3dfd-416e-90cb-7d58c750eef4"},"vehicle_type_id":"4","last_reported":1731074908,"current_range_meters":14800,"station_id":"ce4bho12rcd13ifvqh2g","pricing_plan_id":"cebpf4jnsgd1na2vs0mg"},{"bike_id":"11916bc5-c662-4e28-b0c0-4403f2293fbb","system_id":"levelo_inurba_marseille","lat":43.33757,"lon":5.3744,"is_reserved":false,"is_disabled":false,"rental_uris":{"android":"levelo://app?vid=11916bc5-c662-4e28-b0c0-4403f2293fbb","ios":"levelo://app?vid=11916bc5-c662-4e28-b0c0-4403f2293fbb"},"vehicle_type_id":"4","last_reported":1731074908,"current_range_meters":37600,"station_id":"","pricing_plan_id":"cebpf4jnsgd1na2vs0mg"},{"bike_id":"41a5051b-2cdc-4ed0-95cd-517d0a9db626","system_id":"levelo_inurba_marseille","lat":43.29251,"lon":5.4091,"is_reserved":false,"is_disabled":false,"rental_uris":{"android":"levelo://app?vid=41a5051b-2cdc-4ed0-95cd-517d0a9db626","ios":"levelo://app?vid=41a5051b-2cdc-4ed0-95cd-517d0a9db626"},"vehicle_type_id":"4","last_reported":1731074908,"current_range_meters":35600,"station_id":"ce4bh192rcd13ifvqdc0","pricing_plan_id":"cebpf4jnsgd1na2vs0mg"},{"bike_id":"a43fa9f0-7b83-4192-82be-e8df965f1426","system_id":"levelo_inurba_marseille","lat":43.29553,"lon":5.4229,"is_reserved":false,"is_disabled":false,"rental_uris":{"android":"levelo://app?vid=a43fa9f0-7b83-4192-82be-e8df965f1426","ios":"levelo://app?vid=a43fa9f0-7b83-4192-82be-e8df965f1426"},"vehicle_type_id":"4","last_reported":1731074908,"current_range_meters":18000,"station_id":"ce4bhph2rcd13ifvqhdg","pricing_plan_id":"cebpf4jnsgd1na2vs0mg"},{"bike_id":"63158c13-e29f-4859-b75c-99a10e8ccf2a","system_id":"levelo_inurba_marseille","lat":43.280596,"lon":5.400917,"is_reserved":false,"is_disabled":false,"rental_uris":{"android":"levelo://app?vid=63158c13-e29f-4859-b75c-99a10e8ccf2a","ios":"levelo://app?vid=63158c13-e29f-4859-b75c-99a10e8ccf2a"},"vehicle_type_id":"4","last_reported":1731074908,"current_range_meters":20000,"station_id":"ce4bho92rcd13ifvqh4g","pricing_plan_id":"cebpf4jnsgd1na2vs0mg"},{"bike_id":"82ee39fb-80cb-45e2-96fc-f298d0e6d2de","system_id":"levelo_inurba_marseille","lat":43.32481,"lon":5.36581,"is_reserved":false,"is_disabled":false,"rental_uris":{"android":"levelo://app?vid=82ee39fb-80cb-45e2-96fc-f298d0e6d2de","ios":"levelo://app?vid=82ee39fb-80cb-45e2-96fc-f298d0e6d2de"},"vehicle_type_id":"4","last_reported":1731074908,"current_range_meters":38800,"station_id":"ce4bhs12rcd13ifvqhvg","pricing_plan_id":"cebpf4jnsgd1na2vs0mg"},