{"last_updated":1679573622,"ttl":30,"version":"2.2","data":{"bikes":[{"bike_id":"8c84fbe8-39ca-43b5-b18a-28d96eebfacd","system_id":"levelo_inurba_marseille","lat":43.312239,"lon":5.368562,"is_reserved":false,"is_disabled":false,"rental_uris":{"android":"levelo://app?vid=8c84fbe8-39ca-43b5-b18a-28d96eebfacd","ios":"levelo://app?vid=8c84fbe8-39ca-43b5-b18a-28d96eebfacd"},"vehicle_type_id":"4","last_reported":1679573623,"current_range_meters":14800,"station_id":"ce4bgl92rcd13ifvqbq0","pricing_plan_id":"free"},{"bike_id":"050bee26-3369-4905-ab1a-352f52cdce09","system_id":"levelo_inurba_marseille","lat":43.30906,"lon":5.36857,"is_reserved":false,"is_disabled":false,"rental_uris":{"android":"levelo://app?vid=050bee26-3369-4905-ab1a-352f52cdce09","ios":"levelo://app?vid=050bee26-3369-4905-ab1a-352f52cdce09"},"vehicle_type_id":"4","last_reported":1679573623,"current_range_meters":31200,"station_id":"ce4bgn92rcd13ifvqbvg","pricing_plan_id":"free"},{"bike_id":"a6b35650-5de4-45d7-81db-2b32f7083139","system_id":"levelo_inurba_marseille","lat":43.3149,"lon":5.37306,"is_reserved":false,"is_disabled":false,"rental_uris":{"android":"levelo://app?vid=a6b35650-5de4-45d7-81db-2b32f7083139","ios":"levelo://app?vid=a6b35650-5de4-45d7-81db-2b32f7083139"},"vehicle_type_id":"4","last_reported":1679573623,"current_range_meters":20800,"station_id":"ce4bgt12rcd13ifvqcd0","pricing_plan_id":"free"},{"bike_id":"afbdd95c-5d17-4963-9526-5668ab50823d","system_id":"levelo_inurba_marseille","lat":43.314873,"lon":5.373079,"is_reserved":false,"is_disabled":false,"rental_uris":{"android":"levelo://app?vid=afbdd95c-5d17-4963-9526-5668ab50823d","ios":"levelo://app?vid=afbdd95c-5d17-4963-9526-5668ab50823d"},"vehicle_type_id":"4","last_reported":1679573623,"current_range_meters":0,"station_id":"","pricing_plan_id":"free"},{"bike_id":"641f72f0-2911-4450-a868-8289fd59de75","system_id":"levelo_inurba_marseille","lat":43.314811,"lon":5.373103,"is_reserved":false,"is_disabled":false,"rental_uris":{"android":"levelo://app?vid=641f72f0-2911-4450-a868-8289fd59de75","ios":"levelo://app?vid=641f72f0-2911-4450-a868-8289fd59de75"},"vehicle_type_id":"4","last_reported":1679573623,"current_range_meters":23600,"station_id":"ce4bgt12rcd13ifvqcd0","pricing_plan_id":"free"},{"bike_id":"c2624689-b2a4-483c-88a9-8a2aa9c5f46a","system_id":"levelo_inurba_marseille","lat":43.31489,"lon":5.3731,"is_reserved":false,"is_disabled":false,"rental_uris":{"android":"levelo://app?vid=c2624689-b2a4-483c-88a9-8a2aa9c5f46a","ios":"levelo://app?vid=c2624689-b2a4-483c-88a9-8a2aa9c5f46a"},"vehicle_type_id":"4","last_reported":1679573623,"current_range_meters":24000,"station_id":"ce4bgt12rcd13ifvqcd0","pricing_plan_id":"free"},{"bike_id":"c47d454e-71b5-4d88-9ae7-51318d74e6be","system_id":"levelo_inurba_marseille","lat":43.31494,"lon":5.37307,"is_reserved":false,"is_disabled":false,"rental_uris":{"android":"levelo://app?vid=c47d454e-71b5-4d88-9ae7-51318d74e6be","ios":"levelo://app?vid=c47d454e-71b5-4d88-9ae7-51318d74e6be"},"vehicle_type_id":"4","last_reported":1679573623,"current_range_meters":22000,"station_id":"","pricing_plan_id":"free"},{"bike_id":"22654aef-c242-4932-ad80-4adedda785d8","system_id":"levelo_inurba_marseille","lat":43.31499,"lon":5.37308,"is_reserved":false,"is_disabled":false,"rental_uris":{"android":"levelo://app?vid=22654aef-c242-4932-ad80-4adedda785d8","ios":"levelo://app?vid=22654aef-c242-4932-ad80-4adedda785d8"},"vehicle_type_id":"4","last_reported":1679573623,"current_range_meters":400,"station_id":"","pricing_plan_id":"free"},{"bike_id":"48defe9c-bd99-4c34-9564-b82cba954d14","system_id":"levelo_inurba_marseille","lat":43.31499,"lon":5.37309,"is_reserved":false,"is_disabled":false,"rental_uris":{"android":"levelo://app?vid=48defe9c-bd99-4c34-9564-b82cba954d14","ios":"levelo://app?vid=48defe9c-bd99-4c34-9564-b82cba954d14"},"vehicle_type_id":"4","last_reported":1679573623,"current_range_meters":16800,"station_id":"ce4bgt12rcd13ifvqcd0","pricing_plan_id":"free"},{"bike_id":"76f0e29e-4b7e-4981-989c-58155c095515","system_id":"levelo_inurba_marseille","lat":43.314811,"lon":5.373104,"is_reserved":false,"is_disabled":false,"rental_uris":{"android":"levelo://app?vid=76f0e29e-4b7e-4981-989c-58155c095515","ios":"levelo://app?vid=76f0e29e-4b7e-4981-989c-58155c095515"},"vehicle_type_id":"4","last_reported":1679573623,"current_range_meters":17200,"station_id":"ce4bgt12rcd13ifvqcd0","pricing_plan_id":"free"},{"bike_id":"64cd6fc0-4765-49dc-a023-0f29e42af836","system_id":"levelo_inurba_marseille","lat":43.30888,"lon":5.37198,"is_reserved":false,"is_disabled":false,"rental_uris":{"android":"levelo://app?vid=64cd6fc0-4765-49dc-a023-0f29e42af836","ios":"levelo://app?vid=64cd6fc0-4765-49dc-a023-0f29e42af836"},"vehicle_type_id":"4","last_reported":1679573623,"current_range_meters":12800,"station_id":"","pricing_plan_id":"free"},{"bike_id":"7ac93d0f-e7e7-4b3c-b587-c5fc7cd4264c","system_id":"levelo_inurba_marseille","lat":43.30883,"lon":5.371965,"is_reserved":false,"is_disabled":false,"rental_uris":{"android":"levelo://app?vid=7ac93d0f-e7e7-4b3c-b587-c5fc7cd4264c","ios":"levelo://app?vid=7ac93d0f-e7e7-4b3c-b587-c5fc7cd4264c"},"vehicle_type_id":"4","last_reported":1679573623,"current_range_meters":2000,"station_id":"","pricing_plan_id":"free"},{"bike_id":"801f2106-78c5-46de-a5fc-d1ffa20eca9c","system_id":"levelo_inurba_marseille","lat":43.308733,"lon":5.371897,"is_reserved":false,"is_disabled":false,"rental_uris":{"android":"levelo://app?vid=801f2106-78c5-46de-a5fc-d1ffa20eca9c","ios":"levelo://app?vid=801f2106-78c5-46de-a5fc-d1ffa20eca9c"},"vehicle_type_id":"4","last_reported":1679573623,"current_range_meters":25600,"station_id":"ce4bguh2rcd13ifvqckg","pricing_plan_id":"free"},{"bike_id":"10496fdd-57d5-4873-afe3-56dd0ddc11c6","system_id":"levelo_inurba_marseille","lat":43.30872,"lon":5.37189,"is_reserved":false,"is_disabled":false,"rental_uris":{"android":"levelo://app?vid=10496fdd-57d5-4873-afe3-56dd0ddc11c6","ios":"levelo://app?vid=10496fdd-57d5-4873-afe3-56dd0ddc11c6"},"vehicle_type_id":"4","last_reported":1679573623,"current_range_meters":10000,"station_id":"","pricing_plan_id":"free"},{"bike_id":"733a25d3-c759-4af4-96ef-295c3058470b","system_id":"levelo_inurba_marseille","lat":43.314143,"lon":5.37568,"is_reserved":false,"is_disabled":false,"rental_uris":{"android":"levelo://app?vid=733a25d3-c759-4af4-96ef-295c3058470b","ios":"levelo://app?vid=733a25d3-c759-4af4-96ef-295c3058470b"},"vehicle_type_id":"4","last_reported":1679573623,"current_range_meters":0,"station_id":"","pricing_plan_id":"free"},{"bike_id":"a993c2c7-bb9c-40ff-b767-9a90fec87f3f","system_id":"levelo_inurba_marseille","lat":43.30545,"lon":5.367046,"is_reserved":false,"is_disabled":false,"rental_uris":{"android":"levelo://app?vid=a993c2c7-bb9c-40ff-b767-9a90fec87f3f","ios":"levelo://app?vid=a993c2c7-bb9c-40ff-b767-9a90fec87f3f"},"vehicle_type_id":"4","last_reported":1679573623,"current_range_meters":0,"station_id":"","pricing_plan_id":"free"},{"bike_id":"a40f496d-93b8-4ca2-a659-16d0fcbfd7aa","system_id":"levelo_inurba_marseille","lat":43.30529,"lon":5.36707,"is_reserved":false,"is_disabled":false,"rental_uris":{"android":"levelo://app?vid=a40f496d-93b8-4ca2-a659-16d0fcbfd7aa","ios":"levelo://app?vid=a40f496d-93b8-4ca2-a659-16d0fcbfd7aa"},"vehicle_type_id":"4","last_reported":1679573623,"current_range_meters":1200,"station_id":"","pricing_plan_id":"free"},{"bike_id":"0faa753f-1751-4fba-90f5-e1ea71ecff18","system_id":"levelo_inurba_marseille","lat":43.317075,"lon":5.377367,"is_reserved":false,"is_disabled":false,"rental_uris":{"android":"levelo://app?vid=0faa753f-1751-4fba-90f5-e1ea71ecff18","ios":"levelo://app?vid=0faa753f-1751-4fba-90f5-e1ea71ecff18"},"vehicle_type_id":"4","last_reported":1679573623,"current_range_meters":8800,"station_id":"ce4bgth2rcd13ifvqch0","pricing_plan_id":"free"},{"bike_id":"1d987c2e-a6f3-4992-be66-5114e2748413","system_id":"levelo_inurba_marseille","lat":43.30182,"lon":5.36601,"is_reserved":false,"is_disabled":false,"rental_uris":{"android":"levelo://app?vid=1d987c2e-a6f3-4992-be66-5114e2748413","ios":"levelo://app?vid=1d987c2e-a6f3-4992-be66-5114e2748413"},"vehicle_type_id":"4","last_reported":1679573623,"current_range_meters":21200,"station_id":"ce4bgrh2rcd13ifvqc8g","pricing_plan_id":"free"},{"bike_id":"b37ac19d-ad8f-4527-a998-c7b4d9618571","system_id":"levelo_inurba_marseille","lat":43.308012,"lon":5.381511,"is_reserved":false,"is_disabled":false,"rental_uris":{"android":"levelo://app?vid=b37ac19d-ad8f-4527-a998-c7b4d9618571","ios":"levelo://app?vid=b37ac19d-ad8f-4527-a998-c7b4d9618571"},"vehicle_type_id":"4","last_reported":1679573623,"current_range_meters":0,"station_id":"ce4bgt12rcd13ifvqce0","pricing_plan_id":"free"},{"bike_id":"e3e8e601-f817-4b8e-8642-198782ac298e","system_id":"levelo_inurba_marseille","lat":43.304606,"lon":5.379026,"is_reserved":false,"is_disabled":false,"rental_uris":{"android":"levelo://app?vid=e3e8e601-f817-4b8e-8642-198782ac298e","ios":"levelo://app?vid=e3e8e601-f817-4b8e-8642-198782ac298e"},"vehicle_type_id":"4","last_reported":1679573623,"current_range_meters":31600,"station_id":"ce4bgup2rcd13ifvqcn0","pricing_plan_id":"free"},{"bike_id":"32b69ff0-374f-4f6d-b6e2-69ff27d76dfb","system_id":"levelo_inurba_marseille","lat":43.304606,"lon":5.379026,"is_reserved":false,"is_disabled":false,"rental_uris":{"android":"levelo://app?vid=32b69ff0-374f-4f6d-b6e2-69ff27d76dfb","ios":"levelo://app?vid=32b69ff0-374f-4f6d-b6e2-69ff27d76dfb"},"vehicle_type_id":"4","last_reported":1679573623,"current_range_meters":31200,"station_id":"ce4bgup2rcd13ifvqcn0","pricing_plan_id":"free"},{"bike_id":"8fc2a7ac-2898-4e67-a1ff-1368ce07a709","system_id":"levelo_inurba_marseille","lat":43.304606,"lon":5.379026,"is_reserved":false,"is_disabled":false,"rental_uris":{"android":"levelo://app?vid=8fc2a7ac-2898-4e67-a1ff-1368ce07a709","ios":"levelo://app?vid=8fc2a7ac-2898-4e67-a1ff-1368ce07a709"},"vehicle_type_id":"4","last_reported":1679573623,"current_range_meters":31600,"station_id":"ce4bgup2rcd13ifvqcn0","pricing_plan_id":"free"},{"bike_id":"8fa08759-e17f-4490-9e08-914f96ef2bd3","system_id":"levelo_inurba_marseille","lat":43.304606,"lon":5.379026,"is_reserved":false,"is_disabled":false,"rental_uris":{"android":"levelo://app?vid=8fa08759-e17f-4490-9e08-914f96ef2bd3","ios":"levelo://app?vid=8fa08759-e17f-4490-9e08-914f96ef2bd3"},"vehicle_type_id":"4","last_reported":1679573623,"current_range_meters":31600,"station_id":"ce4bgup2rcd13ifvqcn0","pricing_plan_id":"free"},{"bike_id":"41619c77-3e9d-4fe6-97e1-b1e7359e6e97","system_id":"levelo_inurba_marseille","lat":43.304606,"lon":5.379026,"is_reserved":false,"is_disabled":false,"rental_uris":{"android":"levelo://app?vid=41619c77-3e9d-4fe6-97e1-b1e7359e6e97","ios":"levelo://app?vid=41619c77-3e9d-4fe6-97e1-b1e7359e6e97"},"vehicle_type_id":"4","last_reported":1679573623,"current_range_meters":24000,"station_id":"ce4bgup2rcd13ifvqcn0","pricing_plan_id":"free"},{"bike_id":"51c14d59-162d-4a76-a380-1ba8d18a1e5d","system_id":"levelo_inurba_marseille","lat":43.304606,"lon":5.379026,"is_reserved":false,"is_disabled":false,"rental_uris":{"android":"levelo://app?vid=51c14d59-162d-4a76-a380-1ba8d18a1e5d","ios":"levelo://app?vid=51c14d59-162d-4a76-a380-1ba8d18a1e5d"},"vehicle_type_id":"4","last_reported":1679573623,"current_range_meters":22000,"station_id":"ce4bgup2rcd13ifvqcn0","pricing_plan_id":"free"},{"bike_id":"d0d150e9-d8d9-495f-84b5-8065ef278172","system_id":"levelo_inurba_marseille","lat":43.304606,"lon":5.379026,"is_reserved":false,"is_disabled":false,"rental_uris":{"android":"levelo://app?vid=d0d150e9-d8d9-495f-84b5-8065ef278172","ios":"levelo://app?vid=d0d150e9-d8d9-495f-84b5-8065ef278172"},"vehicle_type_id":"4","last_reported":1679573623,"current_range_meters":4400,"station_id":"ce4bgup2rcd13ifvqcn0","pricing_plan_id":"free"},{"bike_id":"7fe644fb-e957-4601-9345-e8c1c91d7bb9","system_id":"levelo_inurba_marseille","lat":43.304606,"lon":5.379026,"is_reserved":false,"is_disabled":false,"rental_uris":{"android":"levelo://app?vid=7fe644fb-e957-4601-9345-e8c1c91d7bb9","ios":"levelo://app?vid=7fe644fb-e957-4601-9345-e8c1c91d7bb9"},"vehicle_type_id":"4","last_reported":1679573623,"current_range_meters":25600,"station_id":"ce4bgup2rcd13ifvqcn0","pricing_plan_id":"free"},{"bike_id":"a0dbb080-663a-4d25-9094-7a1a7bfb558f","system_id":"levelo_inurba_marseille","lat":43.30471,"lon":5.37912,"is_reserved":false,"is_disabled":false,"rental_uris":{"android":"levelo://app?vid=a0dbb080-663a-4d25-9094-7a1a7bfb558f","ios":"levelo://app?vid=a0dbb080-663a-4d25-9094-7a1a7bfb558f"},"vehicle_type_id":"4","last_reported":1679573623,"current_range_meters":6800,"station_id":"ce4bgup2rcd13ifvqcn0","pricing_plan_id":"free"},{"bike_id":"12414de8-eb03-46fe-a0c9-83100b7ddc76","system_id":"levelo_inurba_marseille","lat":43.304606,"lon":5.379026,"is_reserved":false,"is_disabled":false,"rental_uris":{"android":"levelo://app?vid=12414de8-eb03-46fe-a0c9-83100b7ddc76","ios":"levelo://app?vid=12414de8-eb03-46fe-a0c9-83100b7ddc76"},"vehicle_type_id":"4","last_reported":1679573623,"current_range_meters":22800,"station_id":"ce4bgup2rcd13ifvqcn0","pricing_plan_id":"free"},{"bike_id":"7559240d-b6a8-4ed8-9265-1f8651080963","system_id":"levelo_inurba_marseille","lat":43.304606,"lon":5.379026,"is_reserved":false,"is_disabled":false,"rental_uris":{"android":"levelo://app?vid=7559240d-b6a8-4ed8-9265-1f8651080963","ios":"levelo://app?vid=7559240d-b6a8-4ed8-9265-1f8651080963"},"vehicle_type_id":"4","last_reported":1679573623,"current_range_meters":31600,"station_id":"ce4bgup2rcd13ifvqcn0","pricing_plan_id":"free"},{"bike_id":"a76d6254-c8a3-4812-9a2c-3eb34da978d5","system_id":"levelo_inurba_marseille","lat":43.304606,"lon":5.379026,"is_reserved":false,"is_disabled":false,"rental_uris":{"android":"levelo://app?vid=a76d6254-c8a3-4812-9a2c-3eb34da978d5","ios":"levelo://app?vid=a76d6254-c8a3-4812-9a2c-3eb34da978d5"},"vehicle_type_id":"4","last_reported":1679573623,"current_range_meters":11200,"station_id":"ce4bgup2rcd13ifvqcn0","pricing_plan_id":"free"},{"bike_id":"68be45f5-c953-4701-a434-c42f614b3ee0","system_id":"levelo_inurba_marseille","lat":43.304542,"lon":5.378926,"is_reserved":false,"is_disabled":false,"rental_uris":{"android":"levelo://app?vid=68be45f5-c953-4701-a434-c42f614b3ee0","ios":"levelo://app?vid=68be45f5-c953-4701-a434-c42f614b3ee0"},"vehicle_type_id":"4","last_reported":1679573623,"current_range_meters":24800,"station_id":"","pricing_plan_id":"free"},{"bike_id":"6be266be-1842-49cf-b7b9-8aa033afba82","system_id":"levelo_inurba_marseille","lat":43.304606,"lon":5.379026,"is_reserved":false,"is_disabled":false,"rental_uris":{"android":"levelo://app?vid=6be266be-1842-49cf-b7b9-8aa033afba82","ios":"levelo://app?vid=6be266be-1842-49cf-b7b9-8aa033afba82"},"vehicle_type_id":"4","last_reported":1679573623,"current_range_meters":30800,"station_id":"ce4bgup2rcd13ifvqcn0","pricing_plan_id":"free"},{"bike_id":"45439447-6def-4bdf-bd5c-a9f789e9a98c","system_id":"levelo_inurba_marseille","lat":43.304606,"lon":5.379026,"is_reserved":false,"is_disabled":false,"rental_uris":{"android":"levelo://app?vid=45439447-6def-4bdf-bd5c-a9f789e9a98c","ios":"levelo://app?vid=45439447-6def-4bdf-bd5c-a9f789e9a98c"},"vehicle_type_id":"4","last_reported":1679573623,"current_range_meters":31600,"station_id":"ce4bgup2rcd13ifvqcn0","pricing_plan_id":"free"},{"bike_id":"33b672aa-341f-484b-86f7-63291af0482a","system_id":"levelo_inurba_marseille","lat":43.304606,"lon":5.379026,"is_reserved":false,"is_disabled":false,"rental_uris":{"android":"levelo://app?vid=33b672aa-341f-484b-86f7-63291af0482a","ios":"levelo://app?vid=33b672aa-341f-484b-86f7-63291af0482a"},"vehicle_type_id":"4","last_reported":1679573623,"current_range_meters":29200,"station_id":"ce4bgup2rcd13ifvqcn0","pricing_plan_id":"free"},{"bike_id":"a7860a5f-7aa7-48fc-9c5a-a0a9eade1ff9","system_id":"levelo_inurba_marseille","lat":43.304606,"lon":5.379026,"is_reserved":false,"is_disabled":false,"rental_uris":{"android":"levelo://app?vid=a7860a5f-7aa7-48fc-9c5a-a0a9eade1ff9","ios":"levelo://app?vid=a7860a5f-7aa7-48fc-9c5a-a0a9eade1ff9"},"vehicle_type_id":"4","last_reported":1679573623,"current_range_meters":10000,"station_id":"ce4bgup2rcd13ifvqcn0","pricing_plan_id":"free"},{"bike_id":"c9026f57-08f2-456d-89b8-39940b9ad899","system_id":"levelo_inurba_marseille","lat":43.304606,"lon":5.379026,"is_reserved":false,"is_disabled":false,"rental_uris":{"android":"levelo://app?vid=c9026f57-08f2-456d-89b8-39940b9ad899","ios":"levelo://app?vid=c9026f57-08f2-456d-89b8-39940b9ad899"},"vehicle_type_id":"4","last_reported":1679573623,"current_range_meters":31600,"station_id":"ce4bgup2rcd13ifvqcn0","pricing_plan_id":"free"},{"bike_id":"332592fe-48f4-482d-9db7-7e0cb4f008be","system_id":"levelo_inurba_marseille","lat":43.304606,"lon":5.379026,"is_reserved":false,"is_disabled":false,"rental_uris":{"android":"levelo://app?vid=332592fe-48f4-482d-9db7-7e0cb4f008be","ios":"levelo://app?vid=332592fe-48f4-482d-9db7-7e0cb4f008be"},"vehicle_type_id":"4","last_reported":1679573623,"current_range_meters":31600,"station_id":"ce4bgup2rcd13ifvqcn0","pricing_plan_id":"free"},{"bike_id":"c89f4bcb-40b0-446d-a17e-14acea71d66b","system_id":"levelo_inurba_marseille","lat":43.300396,"lon":5.370722,"is_reserved":false,"is_disabled":false,"rental_uris":{"android":"levelo://app?vid=c89f4bcb-40b0-446d-a17e-14acea71d66b","ios":"levelo://app?vid=c89f4bcb-40b0-446d-a17e-14acea71d66b"},"vehicle_type_id":"4","last_reported":1679573623,"current_range_meters":0,"station_id":"","pricing_plan_id":"free"},{"bike_id":"92e61656-a717-4f6f-8e73-ac390c74a34e","system_id":"levelo_inurba_marseille","lat":43.29852,"lon":5.36281,"is_reserved":false,"is_disabled":false,"rental_uris":{"android":"levelo://app?vid=92e61656-a717-4f6f-8e73-ac390c74a34e","ios":"levelo://app?vid=92e61656-a717-4f6f-8e73-ac390c74a34e"},"vehicle_type_id":"4","last_reported":1679573623,"current_range_meters":28800,"station_id":"","pricing_plan_id":"free"},{"bike_id":"0f9cab1c-8ddf-4946-a3a1-7327ce4094bf","system_id":"levelo_inurba_marseille","lat":43.299243,"lon":5.374807,"is_reserved":false,"is_disabled":false,"rental_uris":{"android":"levelo://app?vid=0f9cab1c-8ddf-4946-a3a1-7327ce4094bf","ios":"levelo://app?vid=0f9cab1c-8ddf-4946-a3a1-7327ce4094bf"},"vehicle_type_id":"4","last_reported":1679573623,"current_range_meters":18400,"station_id":"ce4bgjh2rcd13ifvqbg0","pricing_plan_id":"free"},{"bike_id":"77964579-d306-4735-be53-f48d581762b9","system_id":"levelo_inurba_marseille","lat":43.299243,"lon":5.374807,"is_reserved":false,"is_disabled":false,"rental_uris":{"android":"levelo://app?vid=77964579-d306-4735-be53-f48d581762b9","ios":"levelo://app?vid=77964579-d306-4735-be53-f48d581762b9"},"vehicle_type_id":"4","last_reported":1679573623,"current_range_meters":19600,"station_id":"ce4bgjh2rcd13ifvqbg0","pricing_plan_id":"free"},{"bike_id":"8973c10f-7a2f-4f1e-be6f-748d1cd28211","system_id":"levelo_inurba_marseille","lat":43.299243,"lon":5.374807,"is_reserved":false,"is_disabled":false,"rental_uris":{"android":"levelo://app?vid=8973c10f-7a2f-4f1e-be6f-748d1cd28211","ios":"levelo://app?vid=8973c10f-7a2f-4f1e-be6f-748d1cd28211"},"vehicle_type_id":"4","last_reported":1679573623,"current_range_meters":27200,"station_id":"ce4bgjh2rcd13ifvqbg0","pricing_plan_id":"free"},{"bike_id":"355feb30-1523-41c8-95d5-3ae96a51d18b","system_id":"levelo_inurba_marseille","lat":43.328371,"lon":5.366909,"is_reserved":false,"is_disabled":false,"rental_uris":{"android":"levelo://app?vid=355feb30-1523-41c8-95d5-3ae96a51d18b","ios":"levelo://app?vid=355feb30-1523-41c8-95d5-3ae96a51d18b"},"vehicle_type_id":"4","last_reported":1679573623,"current_range_meters":0,"station_id":"ce4bhs92rcd13ifvqi0g","pricing_plan_id":"free"},{"bike_id":"1d063dbb-ea74-4f58-b446-5c3678c4aa58","system_id":"levelo_inurba_marseille","lat":43.296131,"lon":5.370791,"is_reserved":false,"is_disabled":false,"rental_uris":{"android":"levelo://app?vid=1d063dbb-ea74-4f58-b446-5c3678c4aa58","ios":"levelo://app?vid=1d063dbb-ea74-4f58-b446-5c3678c4aa58"},"vehicle_type_id":"4","last_reported":1679573623,"current_range_meters":19600,"station_id":"ce4bgnh2rcd13ifvqc0g","pricing_plan_id":"free"},{"bike_id":"c26a6c04-3b08-4b5f-a222-bcd0aa386982","system_id":"levelo_inurba_marseille","lat":43.296921,"lon":5.376579,"is_reserved":false,"is_disabled":false,"rental_uris":{"android":"levelo://app?vid=c26a6c04-3b08-4b5f-a222-bcd0aa386982","ios":"levelo://app?vid=c26a6c04-3b08-4b5f-a222-bcd0aa386982"},"vehicle_type_id":"4","last_reported":1679573623,"current_range_meters":24400,"station_id":"ce4bgkh2rcd13ifvqbl0","pricing_plan_id":"free"},{"bike_id":"4956ddd3-94bf-4659-8096-4015bcd78f2a","system_id":"levelo_inurba_marseille","lat":43.297367,"lon":5.376996,"is_reserved":false,"is_disabled":false,"rental_uris":{"android":"levelo://app?vid=4956ddd3-94bf-4659-8096-4015bcd78f2a","ios":"levelo://app?vid=4956ddd3-94bf-4659-8096-4015bcd78f2a"},"vehicle_type_id":"4","last_reported":1679573623,"current_range_meters":5600,"station_id":"","pricing_plan_id":"free"},{"bike_id":"480180db-92d0-4989-b7cf-4c33f94697ef","system_id":"levelo_inurba_marseille","lat":43.309589,"lon":5.390258,"is_reserved":false,"is_disabled":false,"rental_uris":{"android":"levelo://app?vid=480180db-92d0-4989-b7cf-4c33f94697ef","ios":"levelo://app?vid=480180db-92d0-4989-b7cf-4c33f94697ef"},"vehicle_type_id":"4","last_reported":1679573623,"current_range_meters":7600,"station_id":"ce4bgup2rcd13ifvqco0","pricing_plan_id":"free"},{"bike_id":"c0cf267f-7f9c-4e2b-929d-731abf2e66ee","system_id":"levelo_inurba_marseille","lat":43.299028,"lon":5.381509,"is_reserved":false,"is_disabled":false,"rental_uris":{"android":"levelo://app?vid=c0cf267f-7f9c-4e2b-929d-731abf2e66ee","ios":"levelo://app?vid=c0cf267f-7f9c-4e2b-929d-731abf2e66ee"},"vehicle_type_id":"4","last_reported":1679573623,"current_range_meters":6000,"station_id":"ce4bgj12rcd13ifvqbc0","pricing_plan_id":"free"},{"bike_id":"da9f09ac-ab8c-4869-868b-e6963672544b","system_id":"levelo_inurba_marseille","lat":43.299028,"lon":5.381509,"is_reserved":false,"is_disabled":false,"rental_uris":{"android":"levelo://app?vid=da9f09ac-ab8c-4869-868b-e6963672544b","ios":"levelo://app?vid=da9f09ac-ab8c-4869-868b-e6963672544b"},"vehicle_type_id":"4","last_reported":1679573623,"current_range_meters":22800,"station_id":"ce4bgj12rcd13ifvqbc0","pricing_plan_id":"free"},{"bike_id":"58816b84-aee4-4fde-86fd-b0de1d546f42","system_id":"levelo_inurba_marseille","lat":43.309589,"lon":5.390258,"is_reserved":false,"is_disabled":false,"rental_uris":{"android":"levelo://app?vid=58816b84-aee4-4fde-86fd-b0de1d546f42","ios":"levelo://app?vid=58816b84-aee4-4fde-86fd-b0de1d546f42"},"vehicle_type_id":"4","last_reported":1679573623,"current_range_meters":29200,"station_id":"ce4bgup2rcd13ifvqco0","pricing_plan_id":"free"},{"bike_id":"e3fd3ea6-7821-46a1-8d0d-bf908f918847","system_id":"levelo_inurba_marseille","lat":43.30951,"lon":5.39042,"is_reserved":false,"is_disabled":false,"rental_uris":{"android":"levelo://app?vid=e3fd3ea6-7821-46a1-8d0d-bf908f918847","ios":"levelo://app?vid=e3fd3ea6-7821-46a1-8d0d-bf908f918847"},"vehicle_type_id":"4","last_reported":1679573623,"current_range_meters":27600,"station_id":"ce4bgup2rcd13ifvqco0","pricing_plan_id":"free"},{"bike_id":"0829a485-6f16-4509-b58b-2cad8fe98669","system_id":"levelo_inurba_marseille","lat":43.317557,"lon":5.390173,"is_reserved":false,"is_disabled":false,"rental_uris":{"android":"levelo://app?vid=0829a485-6f16-4509-b58b-2cad8fe98669","ios":"levelo://app?vid=0829a485-6f16-4509-b58b-2cad8fe98669"},"vehicle_type_id":"4","last_reported":1679573623,"current_range_meters":20000,"station_id":"ce4bhqp2rcd13ifvqhng","pricing_plan_id":"free"},{"bike_id":"6b0c226f-b5b8-4272-a7e9-874197c1129e","system_id":"levelo_inurba_marseille","lat":43.317557,"lon":5.390173,"is_reserved":false,"is_disabled":false,"rental_uris":{"android":"levelo://app?vid=6b0c226f-b5b8-4272-a7e9-874197c1129e","ios":"levelo://app?vid=6b0c226f-b5b8-4272-a7e9-874197c1129e"},"vehicle_type_id":"4","last_reported":1679573623,"current_range_meters":22800,"station_id":"ce4bhqp2rcd13ifvqhng","pricing_plan_id":"free"},{"bike_id":"2ad0229d-a1c7-45cd-9ee6-d0b1b9207152","system_id":"levelo_inurba_marseille","lat":43.29637,"lon":5.37629,"is_reserved":false,"is_disabled":false,"rental_uris":{"android":"levelo://app?vid=2ad0229d-a1c7-45cd-9ee6-d0b1b9207152","ios":"levelo://app?vid=2ad0229d-a1c7-45cd-9ee6-d0b1b9207152"},"vehicle_type_id":"4","last_reported":1679573623,"current_range_meters":8000,"station_id":"","pricing_plan_id":"free"},{"bike_id":"108aa967-3521-463a-aee7-062a5c868cc6","system_id":"levelo_inurba_marseille","lat":43.231919,"lon":5.355532,"is_reserved":false,"is_disabled":false,"rental_uris":{"android":"levelo://app?vid=108aa967-3521-463a-aee7-062a5c868cc6","ios":"levelo://app?vid=108aa967-3521-463a-aee7-062a5c868cc6"},"vehicle_type_id":"4","last_reported":1679573623,"current_range_meters":31600,"station_id":"ce4bhu92rcd13ifvqi70","pricing_plan_id":"free"},{"bike_id":"5794b800-e146-412b-9eaa-21068e5a3c77","system_id":"levelo_inurba_marseille","lat":43.298037,"lon":5.381066,"is_reserved":false,"is_disabled":false,"rental_uris":{"android":"levelo://app?vid=5794b800-e146-412b-9eaa-21068e5a3c77","ios":"levelo://app?vid=5794b800-e146-412b-9eaa-21068e5a3c77"},"vehicle_type_id":"4","last_reported":1679573623,"current_range_meters":24000,"station_id":"ce4bgip2rcd13ifvqbb0","pricing_plan_id":"free"},{"bike_id":"8506c0ba-458f-44c6-aa75-52420c976629","system_id":"levelo_inurba_marseille","lat":43.304385,"lon":5.388885,"is_reserved":false,"is_disabled":false,"rental_uris":{"android":"levelo://app?vid=8506c0ba-458f-44c6-aa75-52420c976629","ios":"levelo://app?vid=8506c0ba-458f-44c6-aa75-52420c976629"},"vehicle_type_id":"4","last_reported":1679573623,"current_range_meters":27200,"station_id":"","pricing_plan_id":"free"},{"bike_id":"6be1653b-f62f-4372-b496-ac340aeb8298","system_id":"levelo_inurba_marseille","lat":43.298037,"lon":5.381066,"is_reserved":false,"is_disabled":false,"rental_uris":{"android":"levelo://app?vid=6be1653b-f62f-4372-b496-ac340aeb8298","ios":"levelo://app?vid=6be1653b-f62f-4372-b496-ac340aeb8298"},"vehicle_type_id":"4","last_reported":1679573623,"current_range_meters":0,"station_id":"ce4bgip2rcd13ifvqbb0","pricing_plan_id":"free"},{"bike_id":"ef54eb2b-a737-4f46-860c-6e4866f4e33c","system_id":"levelo_inurba_marseille","lat":43.295279,"lon":5.375048,"is_reserved":false,"is_disabled":false,"rental_uris":{"android":"levelo://app?vid=ef54eb2b-a737-4f46-860c-6e4866f4e33c","ios":"levelo://app?vid=ef54eb2b-a737-4f46-860c-6e4866f4e33c"},"vehicle_type_id":"4","last_reported":1679573623,"current_range_meters":6000,"station_id":"ce4bgkp2rcd13ifvqbmg","pricing_plan_id":"free"},{"bike_id":"9f1d592c-619e-489b-a782-5d9389d7b901","system_id":"levelo_inurba_marseille","lat":43.299707,"lon":5.384859,"is_reserved":false,"is_disabled":false,"rental_uris":{"android":"levelo://app?vid=9f1d592c-619e-489b-a782-5d9389d7b901","ios":"levelo://app?vid=9f1d592c-619e-489b-a782-5d9389d7b901"},"vehicle_type_id":"4","last_reported":1679573623,"current_range_meters":10000,"station_id":"ce4bgj92rcd13ifvqbd0","pricing_plan_id":"free"},{"bike_id":"03de4b78-eb0c-4b5d-8886-a534734f44ed","system_id":"levelo_inurba_marseille","lat":43.299707,"lon":5.384859,"is_reserved":false,"is_disabled":false,"rental_uris":{"android":"levelo://app?vid=03de4b78-eb0c-4b5d-8886-a534734f44ed","ios":"levelo://app?vid=03de4b78-eb0c-4b5d-8886-a534734f44ed"},"vehicle_type_id":"4","last_reported":1679573623,"current_range_meters":2000,"station_id":"ce4bgj92rcd13ifvqbd0","pricing_plan_id":"free"},{"bike_id":"705086bd-e811-4a13-b2da-5678c037bb84","system_id":"levelo_inurba_marseille","lat":43.299707,"lon":5.384859,"is_reserved":false,"is_disabled":false,"rental_uris":{"android":"levelo://app?vid=705086bd-e811-4a13-b2da-5678c037bb84","ios":"levelo://app?vid=705086bd-e811-4a13-b2da-5678c037bb84"},"vehicle_type_id":"4","last_reported":1679573623,"current_range_meters":0,"station_id":"ce4bgj92rcd13ifvqbd0","pricing_plan_id":"free"},{"bike_id":"af84e20a-86b1-4357-924a-7579e769dc0d","system_id":"levelo_inurba_marseille","lat":43.299717,"lon":5.384845,"is_reserved":false,"is_disabled":false,"rental_uris":{"android":"levelo://app?vid=af84e20a-86b1-4357-924a-7579e769dc0d","ios":"levelo://app?vid=af84e20a-86b1-4357-924a-7579e769dc0d"},"vehicle_type_id":"4","last_reported":1679573623,"current_range_meters":22800,"station_id":"ce4bgj92rcd13ifvqbd0","pricing_plan_id":"free"},{"bike_id":"2c07a709-b05a-4ed6-8c4e-3a9bf712ed9f","system_id":"levelo_inurba_marseille","lat":43.299717,"lon":5.384845,"is_reserved":false,"is_disabled":false,"rental_uris":{"android":"levelo://app?vid=2c07a709-b05a-4ed6-8c4e-3a9bf712ed9f","ios":"levelo://app?vid=2c07a709-b05a-4ed6-8c4e-3a9bf712ed9f"},"vehicle_type_id":"4","last_reported":1679573623,"current_range_meters":800,"station_id":"ce4bgj92rcd13ifvqbd0","pricing_plan_id":"free"},{"bike_id":"3e68577b-a2b4-444e-94e6-034753c1a185","system_id":"levelo_inurba_marseille","lat":43.32372,"lon":5.38883,"is_reserved":false,"is_disabled":false,"rental_uris":{"android":"levelo://app?vid=3e68577b-a2b4-444e-94e6-034753c1a185","ios":"levelo://app?vid=3e68577b-a2b4-444e-94e6-034753c1a185"},"vehicle_type_id":"4","last_reported":1679573623,"current_range_meters":13600,"station_id":"ce4bhqp2rcd13ifvqhog","pricing_plan_id":"free"},{"bike_id":"de8e7b05-d5f8-4539-b715-8e09fe443242","system_id":"levelo_inurba_marseille","lat":43.293009,"lon":5.374584,"is_reserved":false,"is_disabled":false,"rental_uris":{"android":"levelo://app?vid=de8e7b05-d5f8-4539-b715-8e09fe443242","ios":"levelo://app?vid=de8e7b05-d5f8-4539-b715-8e09fe443242"},"vehicle_type_id":"4","last_reported":1679573623,"current_range_meters":14800,"station_id":"ce4bgi12rcd13ifvqb70","pricing_plan_id":"free"},{"bike_id":"e8bc267a-5943-4ccf-9f3a-67e4bbf282fb","system_id":"levelo_inurba_marseille","lat":43.293063,"lon":5.371737,"is_reserved":false,"is_disabled":false,"rental_uris":{"android":"levelo://app?vid=e8bc267a-5943-4ccf-9f3a-67e4bbf282fb","ios":"levelo://app?vid=e8bc267a-5943-4ccf-9f3a-67e4bbf282fb"},"vehicle_type_id":"4","last_reported":1679573623,"current_range_meters":0,"station_id":"","pricing_plan_id":"free"},{"bike_id":"3dd35a5d-11e8-43f0-be19-386dec652e13","system_id":"levelo_inurba_marseille","lat":43.293249,"lon":5.371578,"is_reserved":false,"is_disabled":false,"rental_uris":{"android":"levelo://app?vid=3dd35a5d-11e8-43f0-be19-386dec652e13","ios":"levelo://app?vid=3dd35a5d-11e8-43f0-be19-386dec652e13"},"vehicle_type_id":"4","last_reported":1679573623,"current_range_meters":28400,"station_id":"ce4bgh92rcd13ifvqb40","pricing_plan_id":"free"},{"bike_id":"d45ac294-039f-4b77-a5bc-61bc5c196b91","system_id":"levelo_inurba_marseille","lat":43.305994,"lon":5.393687,"is_reserved":false,"is_disabled":false,"rental_uris":{"android":"levelo://app?vid=d45ac294-039f-4b77-a5bc-61bc5c196b91","ios":"levelo://app?vid=d45ac294-039f-4b77-a5bc-61bc5c196b91"},"vehicle_type_id":"4","last_reported":1679573623,"current_range_meters":18000,"station_id":"ce4bh0p2rcd13ifvqd80","pricing_plan_id":"free"},{"bike_id":"e97f0b8b-d04e-493b-8c14-4dc0bcff2a98","system_id":"levelo_inurba_marseille","lat":43.293791,"lon":5.378552,"is_reserved":false,"is_disabled":false,"rental_uris":{"android":"levelo://app?vid=e97f0b8b-d04e-493b-8c14-4dc0bcff2a98","ios":"levelo://app?vid=e97f0b8b-d04e-493b-8c14-4dc0bcff2a98"},"vehicle_type_id":"4","last_reported":1679573623,"current_range_meters":0,"station_id":"ce4bgjh2rcd13ifvqbf0","pricing_plan_id":"free"},{"bike_id":"9927d97d-5627-4656-a525-a8f6dadb31b5","system_id":"levelo_inurba_marseille","lat":43.2936,"lon":5.37835,"is_reserved":false,"is_disabled":false,"rental_uris":{"android":"levelo://app?vid=9927d97d-5627-4656-a525-a8f6dadb31b5","ios":"levelo://app?vid=9927d97d-5627-4656-a525-a8f6dadb31b5"},"vehicle_type_id":"4","last_reported":1679573623,"current_range_meters":1200,"station_id":"ce4bgjh2rcd13ifvqbf0","pricing_plan_id":"free"},{"bike_id":"6f764198-0735-41f6-a3dc-afcdb4d4a7a6","system_id":"levelo_inurba_marseille","lat":43.30085,"lon":5.390856,"is_reserved":false,"is_disabled":false,"rental_uris":{"android":"levelo://app?vid=6f764198-0735-41f6-a3dc-afcdb4d4a7a6","ios":"levelo://app?vid=6f764198-0735-41f6-a3dc-afcdb4d4a7a6"},"vehicle_type_id":"4","last_reported":1679573623,"current_range_meters":4400,"station_id":"ce4bh192rcd13ifvqdb0","pricing_plan_id":"free"},{"bike_id":"e6f3f029-1eeb-43fe-93ab-74aa939c89c1","system_id":"levelo_inurba_marseille","lat":43.30095,"lon":5.39076,"is_reserved":false,"is_disabled":false,"rental_uris":{"android":"levelo://app?vid=e6f3f029-1eeb-43fe-93ab-74aa939c89c1","ios":"levelo://app?vid=e6f3f029-1eeb-43fe-93ab-74aa939c89c1"},"vehicle_type_id":"4","last_reported":1679573623,"current_range_meters":22800,"station_id":"","pricing_plan_id":"free"},{"bike_id":"1d225f4a-de90-4a5e-aa86-2af9d3a45d9e","system_id":"levelo_inurba_marseille","lat":43.292311,"lon":5.360731,"is_reserved":false,"is_disabled":false,"rental_uris":{"android":"levelo://app?vid=1d225f4a-de90-4a5e-aa86-2af9d3a45d9e","ios":"levelo://app?vid=1d225f4a-de90-4a5e-aa86-2af9d3a45d9e"},"vehicle_type_id":"4","last_reported":1679573623,"current_range_meters":3600,"station_id":"ce4bhbh2rcd13ifvqeqg","pricing_plan_id":"free"},{"bike_id":"493e8b9f-f28f-49f5-84f4-563622986273","system_id":"levelo_inurba_marseille","lat":43.292663,"lon":5.376394,"is_reserved":false,"is_disabled":false,"rental_uris":{"android":"levelo://app?vid=493e8b9f-f28f-49f5-84f4-563622986273","ios":"levelo://app?vid=493e8b9f-f28f-49f5-84f4-563622986273"},"vehicle_type_id":"4","last_reported":1679573623,"current_range_meters":6400,"station_id":"ce4bgi12rcd13ifvqb80","pricing_plan_id":"free"},{"bike_id":"0ccdd8b4-30a1-4de3-88cc-5e11688ef16d","system_id":"levelo_inurba_marseille","lat":43.31329,"lon":5.39694,"is_reserved":false,"is_disabled":false,"rental_uris":{"android":"levelo://app?vid=0ccdd8b4-30a1-4de3-88cc-5e11688ef16d","ios":"levelo://app?vid=0ccdd8b4-30a1-4de3-88cc-5e11688ef16d"},"vehicle_type_id":"4","last_reported":1679573623,"current_range_meters":20800,"station_id":"ce4bgvp2rcd13ifvqcu0","pricing_plan_id":"free"},{"bike_id":"fb92fb41-29fb-4cc0-a6f2-919163448911","system_id":"levelo_inurba_marseille","lat":43.309038,"lon":5.396546,"is_reserved":false,"is_disabled":false,"rental_uris":{"android":"levelo://app?vid=fb92fb41-29fb-4cc0-a6f2-919163448911","ios":"levelo://app?vid=fb92fb41-29fb-4cc0-a6f2-919163448911"},"vehicle_type_id":"4","last_reported":1679573623,"current_range_meters":22400,"station_id":"ce4bh012rcd13ifvqcv0","pricing_plan_id":"free"},{"bike_id":"f9eff9e2-f831-4942-9837-959baaa68b42","system_id":"levelo_inurba_marseille","lat":43.309038,"lon":5.396546,"is_reserved":false,"is_disabled":false,"rental_uris":{"android":"levelo://app?vid=f9eff9e2-f831-4942-9837-959baaa68b42","ios":"levelo://app?vid=f9eff9e2-f831-4942-9837-959baaa68b42"},"vehicle_type_id":"4","last_reported":1679573623,"current_range_meters":18000,"station_id":"ce4bh012rcd13ifvqcv0","pricing_plan_id":"free"},{"bike_id":"aae467db-0749-4b68-951a-937b69d272f2","system_id":"levelo_inurba_marseille","lat":43.29529,"lon":5.385581,"is_reserved":false,"is_disabled":false,"rental_uris":{"android":"levelo://app?vid=aae467db-0749-4b68-951a-937b69d272f2","ios":"levelo://app?vid=aae467db-0749-4b68-951a-937b69d272f2"},"vehicle_type_id":"4","last_reported":1679573623,"current_range_meters":21600,"station_id":"ce4bgih2rcd13ifvqba0","pricing_plan_id":"free"},{"bike_id":"9b5dc3a1-82ed-4a75-9cd7-963bea610593","system_id":"levelo_inurba_marseille","lat":43.29529,"lon":5.385581,"is_reserved":false,"is_disabled":false,"rental_uris":{"android":"levelo://app?vid=9b5dc3a1-82ed-4a75-9cd7-963bea610593","ios":"levelo://app?vid=9b5dc3a1-82ed-4a75-9cd7-963bea610593"},"vehicle_type_id":"4","last_reported":1679573623,"current_range_meters":28400,"station_id":"ce4bgih2rcd13ifvqba0","pricing_plan_id":"free"},{"bike_id":"a29b7014-c0f5-4cb5-abdd-c2ebbe43b3f6","system_id":"levelo_inurba_marseille","lat":43.290479,"lon":5.359043,"is_reserved":false,"is_disabled":false,"rental_uris":{"android":"levelo://app?vid=a29b7014-c0f5-4cb5-abdd-c2ebbe43b3f6","ios":"levelo://app?vid=a29b7014-c0f5-4cb5-abdd-c2ebbe43b3f6"},"vehicle_type_id":"4","last_reported":1679573623,"current_range_meters":0,"station_id":"ce4bha92rcd13ifvqeg0","pricing_plan_id":"free"},{"bike_id":"a66932f0-94e0-4583-abe5-2f9bffe525a9","system_id":"levelo_inurba_marseille","lat":43.289184,"lon":5.366408,"is_reserved":false,"is_disabled":false,"rental_uris":{"android":"levelo://app?vid=a66932f0-94e0-4583-abe5-2f9bffe525a9","ios":"levelo://app?vid=a66932f0-94e0-4583-abe5-2f9bffe525a9"},"vehicle_type_id":"4","last_reported":1679573623,"current_range_meters":2800,"station_id":"ce4bhap2rcd13ifvqek0","pricing_plan_id":"free"},{"bike_id":"fbd91361-52b4-4afd-9539-b71babf8f831","system_id":"levelo_inurba_marseille","lat":43.290319,"lon":5.375732,"is_reserved":false,"is_disabled":false,"rental_uris":{"android":"levelo://app?vid=fbd91361-52b4-4afd-9539-b71babf8f831","ios":"levelo://app?vid=fbd91361-52b4-4afd-9539-b71babf8f831"},"vehicle_type_id":"4","last_reported":1679573623,"current_range_meters":20000,"station_id":"ce4bh692rcd13ifvqe90","pricing_plan_id":"free"},{"bike_id":"d7ee31a2-03d7-41cb-8477-618f59d0443b","system_id":"levelo_inurba_marseille","lat":43.294155,"lon":5.386246,"is_reserved":false,"is_disabled":false,"rental_uris":{"android":"levelo://app?vid=d7ee31a2-03d7-41cb-8477-618f59d0443b","ios":"levelo://app?vid=d7ee31a2-03d7-41cb-8477-618f59d0443b"},"vehicle_type_id":"4","last_reported":1679573623,"current_range_meters":5200,"station_id":"ce4bh2h2rcd13ifvqdh0","pricing_plan_id":"free"},{"bike_id":"1270f53c-7809-473c-aa77-20fb1592102e","system_id":"levelo_inurba_marseille","lat":43.294162,"lon":5.386292,"is_reserved":false,"is_disabled":false,"rental_uris":{"android":"levelo://app?vid=1270f53c-7809-473c-aa77-20fb1592102e","ios":"levelo://app?vid=1270f53c-7809-473c-aa77-20fb1592102e"},"vehicle_type_id":"4","last_reported":1679573623,"current_range_meters":19200,"station_id":"ce4bh2h2rcd13ifvqdh0","pricing_plan_id":"free"},{"bike_id":"91b1ff87-943c-45c3-8391-4aa4e38502ad","system_id":"levelo_inurba_marseille","lat":43.28939,"lon":5.36635,"is_reserved":false,"is_disabled":false,"rental_uris":{"android":"levelo://app?vid=91b1ff87-943c-45c3-8391-4aa4e38502ad","ios":"levelo://app?vid=91b1ff87-943c-45c3-8391-4aa4e38502ad"},"vehicle_type_id":"4","last_reported":1679573623,"current_range_meters":20000,"station_id":"","pricing_plan_id":"free"},{"bike_id":"3f9e2046-2bb4-4a35-b6a1-ff03d6423791","system_id":"levelo_inurba_marseille","lat":43.304306,"lon":5.397372,"is_reserved":false,"is_disabled":false,"rental_uris":{"android":"levelo://app?vid=3f9e2046-2bb4-4a35-b6a1-ff03d6423791","ios":"levelo://app?vid=3f9e2046-2bb4-4a35-b6a1-ff03d6423791"},"vehicle_type_id":"4","last_reported":1679573623,"current_range_meters":24800,"station_id":"","pricing_plan_id":"free"},{"bike_id":"7d62725d-bbfb-48e4-a3c1-76affbffa21f","system_id":"levelo_inurba_marseille","lat":43.30418,"lon":5.39743,"is_reserved":false,"is_disabled":false,"rental_uris":{"android":"levelo://app?vid=7d62725d-bbfb-48e4-a3c1-76affbffa21f","ios":"levelo://app?vid=7d62725d-bbfb-48e4-a3c1-76affbffa21f"},"vehicle_type_id":"4","last_reported":1679573623,"current_range_meters":0,"station_id":"ce4bh092rcd13ifvqd20","pricing_plan_id":"free"},{"bike_id":"12fec15d-74e0-45b8-8e69-9b76ebe128f9","system_id":"levelo_inurba_marseille","lat":43.292669,"lon":5.38449,"is_reserved":false,"is_disabled":false,"rental_uris":{"android":"levelo://app?vid=12fec15d-74e0-45b8-8e69-9b76ebe128f9","ios":"levelo://app?vid=12fec15d-74e0-45b8-8e69-9b76ebe128f9"},"vehicle_type_id":"4","last_reported":1679573623,"current_range_meters":0,"station_id":"ce4bh692rcd13ifvqea0","pricing_plan_id":"free"},{"bike_id":"091d0dd9-6fdb-439e-bd29-60783af3c16b","system_id":"levelo_inurba_marseille","lat":43.29012,"lon":5.356178,"is_reserved":false,"is_disabled":false,"rental_uris":{"android":"levelo://app?vid=091d0dd9-6fdb-439e-bd29-60783af3c16b","ios":"levelo://app?vid=091d0dd9-6fdb-439e-bd29-60783af3c16b"},"vehicle_type_id":"4","last_reported":1679573623,"current_range_meters":3600,"station_id":"","pricing_plan_id":"free"},{"bike_id":"816a8d58-cc1d-447e-939b-6738ba9a9caf","system_id":"levelo_inurba_marseille","lat":43.330476,"lon":5.38911,"is_reserved":false,"is_disabled":false,"rental_uris":{"android":"levelo://app?vid=816a8d58-cc1d-447e-939b-6738ba9a9caf","ios":"levelo://app?vid=816a8d58-cc1d-447e-939b-6738ba9a9caf"},"vehicle_type_id":"4","last_reported":1679573623,"current_range_meters":30000,"station_id":"","pricing_plan_id":"free"},{"bike_id":"3935f934-c3e0-45cd-992f-0df79df7b2bd","system_id":"levelo_inurba_marseille","lat":43.290104,"lon":5.356111,"is_reserved":false,"is_disabled":false,"rental_uris":{"android":"levelo://app?vid=3935f934-c3e0-45cd-992f-0df79df7b2bd","ios":"levelo://app?vid=3935f934-c3e0-45cd-992f-0df79df7b2bd"},"vehicle_type_id":"4","last_reported":1679573623,"current_range_meters":8400,"station_id":"ce4bhb92rcd13ifvqen0","pricing_plan_id":"free"},{"bike_id":"1df20fee-b9ac-4b30-ba62-48202f8ace40","system_id":"levelo_inurba_marseille","lat":43.291073,"lon":5.381309,"is_reserved":false,"is_disabled":false,"rental_uris":{"android":"levelo://app?vid=1df20fee-b9ac-4b30-ba62-48202f8ace40","ios":"levelo://app?vid=1df20fee-b9ac-4b30-ba62-48202f8ace40"},"vehicle_type_id":"4","last_reported":1679573623,"current_range_meters":8800,"station_id":"ce4bh512rcd13ifvqe2g","pricing_plan_id":"free"},{"bike_id":"806ce6c0-9bfb-4d87-9f86-2a3c46c39a3c","system_id":"levelo_inurba_marseille","lat":43.29095,"lon":5.38114,"is_reserved":false,"is_disabled":false,"rental_uris":{"android":"levelo://app?vid=806ce6c0-9bfb-4d87-9f86-2a3c46c39a3c","ios":"levelo://app?vid=806ce6c0-9bfb-4d87-9f86-2a3c46c39a3c"},"vehicle_type_id":"4","last_reported":1679573623,"current_range_meters":21200,"station_id":"ce4bh512rcd13ifvqe2g","pricing_plan_id":"free"},{"bike_id":"f84377b2-5450-4ec7-9cac-abea4a0a84fa","system_id":"levelo_inurba_marseille","lat":43.295169,"lon":5.390426,"is_reserved":false,"is_disabled":false,"rental_uris":{"android":"levelo://app?vid=f84377b2-5450-4ec7-9cac-abea4a0a84fa","ios":"levelo://app?vid=f84377b2-5450-4ec7-9cac-abea4a0a84fa"},"vehicle_type_id":"4","last_reported":1679573623,"current_range_meters":29200,"station_id":"ce4bh3p2rcd13ifvqdp0","pricing_plan_id":"free"},{"bike_id":"3a78d559-f1ad-4a6b-852b-30d9450da55e","system_id":"levelo_inurba_marseille","lat":43.28856,"lon":5.358371,"is_reserved":false,"is_disabled":false,"rental_uris":{"android":"levelo://app?vid=3a78d559-f1ad-4a6b-852b-30d9450da55e","ios":"levelo://app?vid=3a78d559-f1ad-4a6b-852b-30d9450da55e"},"vehicle_type_id":"4","last_reported":1679573623,"current_range_meters":0,"station_id":"ce4bhb12rcd13ifvqem0","pricing_plan_id":"free"},{"bike_id":"3c48aa3a-2c2a-47bc-aa49-3b9d6c619592","system_id":"levelo_inurba_marseille","lat":43.30646,"lon":5.40083,"is_reserved":false,"is_disabled":false,"rental_uris":{"android":"levelo://app?vid=3c48aa3a-2c2a-47bc-aa49-3b9d6c619592","ios":"levelo://app?vid=3c48aa3a-2c2a-47bc-aa49-3b9d6c619592"},"vehicle_type_id":"4","last_reported":1679573623,"current_range_meters":31600,"station_id":"","pricing_plan_id":"free"},{"bike_id":"59bfe657-f465-4802-bd77-66997c79cce4","system_id":"levelo_inurba_marseille","lat":43.30642,"lon":5.401031,"is_reserved":false,"is_disabled":false,"rental_uris":{"android":"levelo://app?vid=59bfe657-f465-4802-bd77-66997c79cce4","ios":"levelo://app?vid=59bfe657-f465-4802-bd77-66997c79cce4"},"vehicle_type_id":"4","last_reported":1679573623,"current_range_meters":24000,"station_id":"ce4bh112rcd13ifvqda0","pricing_plan_id":"free"},{"bike_id":"6680a0e7-e420-4cb3-b647-7ba7827e32f3","system_id":"levelo_inurba_marseille","lat":43.30649,"lon":5.40092,"is_reserved":false,"is_disabled":false,"rental_uris":{"android":"levelo://app?vid=6680a0e7-e420-4cb3-b647-7ba7827e32f3","ios":"levelo://app?vid=6680a0e7-e420-4cb3-b647-7ba7827e32f3"},"vehicle_type_id":"4","last_reported":1679573623,"current_range_meters":22000,"station_id":"ce4bh112rcd13ifvqda0","pricing_plan_id":"free"},{"bike_id":"a28df322-f3f4-4813-a269-48d5327fef8a","system_id":"levelo_inurba_marseille","lat":43.30642,"lon":5.401031,"is_reserved":false,"is_disabled":false,"rental_uris":{"android":"levelo://app?vid=a28df322-f3f4-4813-a269-48d5327fef8a","ios":"levelo://app?vid=a28df322-f3f4-4813-a269-48d5327fef8a"},"vehicle_type_id":"4","last_reported":1679573623,"current_range_meters":23200,"station_id":"ce4bh112rcd13ifvqda0","pricing_plan_id":"free"},{"bike_id":"7c1a281d-12d8-454c-a192-5cf94ad3ee4d","system_id":"levelo_inurba_marseille","lat":43.30642,"lon":5.401031,"is_reserved":false,"is_disabled":false,"rental_uris":{"android":"levelo://app?vid=7c1a281d-12d8-454c-a192-5cf94ad3ee4d","ios":"levelo://app?vid=7c1a281d-12d8-454c-a192-5cf94ad3ee4d"},"vehicle_type_id":"4","last_reported":1679573623,"current_range_meters":19200,"station_id":"ce4bh112rcd13ifvqda0","pricing_plan_id":"free"},{"bike_id":"d406cdfd-8be6-42f6-bf47-8576c200b2c0","system_id":"levelo_inurba_marseille","lat":43.301117,"lon":5.398795,"is_reserved":false,"is_disabled":false,"rental_uris":{"android":"levelo://app?vid=d406cdfd-8be6-42f6-bf47-8576c200b2c0","ios":"levelo://app?vid=d406cdfd-8be6-42f6-bf47-8576c200b2c0"},"vehicle_type_id":"4","last_reported":1679573623,"current_range_meters":29600,"station_id":"ce4bh0h2rcd13ifvqd40","pricing_plan_id":"free"},{"bike_id":"905466ac-cae9-4f35-b661-9a674d0ecd77","system_id":"levelo_inurba_marseille","lat":43.30132,"lon":5.398645,"is_reserved":false,"is_disabled":false,"rental_uris":{"android":"levelo://app?vid=905466ac-cae9-4f35-b661-9a674d0ecd77","ios":"levelo://app?vid=905466ac-cae9-4f35-b661-9a674d0ecd77"},"vehicle_type_id":"4","last_reported":1679573623,"current_range_meters":28400,"station_id":"","pricing_plan_id":"free"},{"bike_id":"4fb5696b-98a3-4e20-8568-6d75ddf9f3b0","system_id":"levelo_inurba_marseille","lat":43.301117,"lon":5.398795,"is_reserved":false,"is_disabled":false,"rental_uris":{"android":"levelo://app?vid=4fb5696b-98a3-4e20-8568-6d75ddf9f3b0","ios":"levelo://app?vid=4fb5696b-98a3-4e20-8568-6d75ddf9f3b0"},"vehicle_type_id":"4","last_reported":1679573623,"current_range_meters":0,"station_id":"ce4bh0h2rcd13ifvqd40","pricing_plan_id":"free"},{"bike_id":"23521ef8-006d-4711-9aef-d2167e060ab6","system_id":"levelo_inurba_marseille","lat":43.298681,"lon":5.397225,"is_reserved":false,"is_disabled":false,"rental_uris":{"android":"levelo://app?vid=23521ef8-006d-4711-9aef-d2167e060ab6","ios":"levelo://app?vid=23521ef8-006d-4711-9aef-d2167e060ab6"},"vehicle_type_id":"4","last_reported":1679573623,"current_range_meters":20400,"station_id":"ce4bh0h2rcd13ifvqd50","pricing_plan_id":"free"},{"bike_id":"58023829-b126-4214-8018-490d7478576b","system_id":"levelo_inurba_marseille","lat":43.298681,"lon":5.397225,"is_reserved":false,"is_disabled":false,"rental_uris":{"android":"levelo://app?vid=58023829-b126-4214-8018-490d7478576b","ios":"levelo://app?vid=58023829-b126-4214-8018-490d7478576b"},"vehicle_type_id":"4","last_reported":1679573623,"current_range_meters":22800,"station_id":"ce4bh0h2rcd13ifvqd50","pricing_plan_id":"free"},{"bike_id":"03a4816a-88a0-40a0-8fdd-725550ea28b5","system_id":"levelo_inurba_marseille","lat":43.29541,"lon":5.3941,"is_reserved":false,"is_disabled":false,"rental_uris":{"android":"levelo://app?vid=03a4816a-88a0-40a0-8fdd-725550ea28b5","ios":"levelo://app?vid=03a4816a-88a0-40a0-8fdd-725550ea28b5"},"vehicle_type_id":"4","last_reported":1679573623,"current_range_meters":25600,"station_id":"ce4bh212rcd13ifvqde0","pricing_plan_id":"free"},{"bike_id":"872a2263-fd28-4ba5-b5f0-47bb47b39001","system_id":"levelo_inurba_marseille","lat":43.29533,"lon":5.39404,"is_reserved":false,"is_disabled":false,"rental_uris":{"android":"levelo://app?vid=872a2263-fd28-4ba5-b5f0-47bb47b39001","ios":"levelo://app?vid=872a2263-fd28-4ba5-b5f0-47bb47b39001"},"vehicle_type_id":"4","last_reported":1679573623,"current_range_meters":23200,"station_id":"","pricing_plan_id":"free"},{"bike_id":"16ebf8e8-3266-4c48-b62d-809895313b07","system_id":"levelo_inurba_marseille","lat":43.302759,"lon":5.400793,"is_reserved":false,"is_disabled":false,"rental_uris":{"android":"levelo://app?vid=16ebf8e8-3266-4c48-b62d-809895313b07","ios":"levelo://app?vid=16ebf8e8-3266-4c48-b62d-809895313b07"},"vehicle_type_id":"4","last_reported":1679573623,"current_range_meters":10400,"station_id":"ce4bgvh2rcd13ifvqcs0","pricing_plan_id":"free"},{"bike_id":"9e583875-1067-436f-b0a0-b1e6e85e2d9f","system_id":"levelo_inurba_marseille","lat":43.28607,"lon":5.37063,"is_reserved":false,"is_disabled":false,"rental_uris":{"android":"levelo://app?vid=9e583875-1067-436f-b0a0-b1e6e85e2d9f","ios":"levelo://app?vid=9e583875-1067-436f-b0a0-b1e6e85e2d9f"},"vehicle_type_id":"4","last_reported":1679573623,"current_range_meters":6800,"station_id":"ce4bht12rcd13ifvqi60","pricing_plan_id":"free"},{"bike_id":"f4c5ac3c-f86a-4e18-8b40-8815eeaefd48","system_id":"levelo_inurba_marseille","lat":43.28606,"lon":5.37068,"is_reserved":false,"is_disabled":false,"rental_uris":{"android":"levelo://app?vid=f4c5ac3c-f86a-4e18-8b40-8815eeaefd48","ios":"levelo://app?vid=f4c5ac3c-f86a-4e18-8b40-8815eeaefd48"},"vehicle_type_id":"4","last_reported":1679573623,"current_range_meters":18000,"station_id":"","pricing_plan_id":"free"},{"bike_id":"091a07cb-62f9-4978-8a51-ce0d543cec3e","system_id":"levelo_inurba_marseille","lat":43.316517,"lon":5.404375,"is_reserved":false,"is_disabled":false,"rental_uris":{"android":"levelo://app?vid=091a07cb-62f9-4978-8a51-ce0d543cec3e","ios":"levelo://app?vid=091a07cb-62f9-4978-8a51-ce0d543cec3e"},"vehicle_type_id":"4","last_reported":1679573623,"current_range_meters":0,"station_id":"ce4bh012rcd13ifvqd00","pricing_plan_id":"free"},{"bike_id":"290bcf70-3444-4741-a3bc-8a5529151ca5","system_id":"levelo_inurba_marseille","lat":43.31651,"lon":5.40436,"is_reserved":false,"is_disabled":false,"rental_uris":{"android":"levelo://app?vid=290bcf70-3444-4741-a3bc-8a5529151ca5","ios":"levelo://app?vid=290bcf70-3444-4741-a3bc-8a5529151ca5"},"vehicle_type_id":"4","last_reported":1679573623,"current_range_meters":18800,"station_id":"ce4bh012rcd13ifvqd00","pricing_plan_id":"free"},{"bike_id":"e397b8f7-5721-4467-9197-11e51f6bed68","system_id":"levelo_inurba_marseille","lat":43.316584,"lon":5.405013,"is_reserved":false,"is_disabled":false,"rental_uris":{"android":"levelo://app?vid=e397b8f7-5721-4467-9197-11e51f6bed68","ios":"levelo://app?vid=e397b8f7-5721-4467-9197-11e51f6bed68"},"vehicle_type_id":"4","last_reported":1679573623,"current_range_meters":7600,"station_id":"","pricing_plan_id":"free"},{"bike_id":"c51233d6-5f19-4fa5-bb32-1f5292b0a8a9","system_id":"levelo_inurba_marseille","lat":43.284534,"lon":5.358662,"is_reserved":false,"is_disabled":false,"rental_uris":{"android":"levelo://app?vid=c51233d6-5f19-4fa5-bb32-1f5292b0a8a9","ios":"levelo://app?vid=c51233d6-5f19-4fa5-bb32-1f5292b0a8a9"},"vehicle_type_id":"4","last_reported":1679573623,"current_range_meters":20400,"station_id":"ce4bhah2rcd13ifvqei0","pricing_plan_id":"free"},{"bike_id":"3b624078-dfb8-41dc-a16f-8899227127f6","system_id":"levelo_inurba_marseille","lat":43.295695,"lon":5.399754,"is_reserved":false,"is_disabled":false,"rental_uris":{"android":"levelo://app?vid=3b624078-dfb8-41dc-a16f-8899227127f6","ios":"levelo://app?vid=3b624078-dfb8-41dc-a16f-8899227127f6"},"vehicle_type_id":"4","last_reported":1679573623,"current_range_meters":0,"station_id":"","pricing_plan_id":"free"},{"bike_id":"f84eb5d8-38fa-4b6c-abe6-e5d4c378487e","system_id":"levelo_inurba_marseille","lat":43.323405,"lon":5.4062,"is_reserved":false,"is_disabled":false,"rental_uris":{"android":"levelo://app?vid=f84eb5d8-38fa-4b6c-abe6-e5d4c378487e","ios":"levelo://app?vid=f84eb5d8-38fa-4b6c-abe6-e5d4c378487e"},"vehicle_type_id":"4","last_reported":1679573623,"current_range_meters":31600,"station_id":"","pricing_plan_id":"free"},{"bike_id":"fdf78d4b-48da-49b3-8177-37afbce99640","system_id":"levelo_inurba_marseille","lat":43.32336,"lon":5.40623,"is_reserved":false,"is_disabled":false,"rental_uris":{"android":"levelo://app?vid=fdf78d4b-48da-49b3-8177-37afbce99640","ios":"levelo://app?vid=fdf78d4b-48da-49b3-8177-37afbce99640"},"vehicle_type_id":"4","last_reported":1679573623,"current_range_meters":14000,"station_id":"ce4bhq92rcd13ifvqhjg","pricing_plan_id":"free"},{"bike_id":"24262ee9-4702-44bc-8654-5ec6beebd6f0","system_id":"levelo_inurba_marseille","lat":43.32338,"lon":5.40622,"is_reserved":false,"is_disabled":false,"rental_uris":{"android":"levelo://app?vid=24262ee9-4702-44bc-8654-5ec6beebd6f0","ios":"levelo://app?vid=24262ee9-4702-44bc-8654-5ec6beebd6f0"},"vehicle_type_id":"4","last_reported":1679573623,"current_range_meters":18800,"station_id":"ce4bhq92rcd13ifvqhjg","pricing_plan_id":"free"},{"bike_id":"2d7872fd-fd0b-4552-b4ba-62cbf2ae031f","system_id":"levelo_inurba_marseille","lat":43.32339,"lon":5.40622,"is_reserved":false,"is_disabled":false,"rental_uris":{"android":"levelo://app?vid=2d7872fd-fd0b-4552-b4ba-62cbf2ae031f","ios":"levelo://app?vid=2d7872fd-fd0b-4552-b4ba-62cbf2ae031f"},"vehicle_type_id":"4","last_reported":1679573623,"current_range_meters":20000,"station_id":"ce4bhq92rcd13ifvqhjg","pricing_plan_id":"free"},{"bike_id":"410e81db-5a5c-4c9b-8bc7-76dc44557773","system_id":"levelo_inurba_marseille","lat":43.32338,"lon":5.406231,"is_reserved":false,"is_disabled":false,"rental_uris":{"android":"levelo://app?vid=410e81db-5a5c-4c9b-8bc7-76dc44557773","ios":"levelo://app?vid=410e81db-5a5c-4c9b-8bc7-76dc44557773"},"vehicle_type_id":"4","last_reported":1679573623,"current_range_meters":26800,"station_id":"","pricing_plan_id":"free"},{"bike_id":"ee78e21c-083b-4f75-96aa-50c0a981bb4f","system_id":"levelo_inurba_marseille","lat":43.32342,"lon":5.40627,"is_reserved":false,"is_disabled":false,"rental_uris":{"android":"levelo://app?vid=ee78e21c-083b-4f75-96aa-50c0a981bb4f","ios":"levelo://app?vid=ee78e21c-083b-4f75-96aa-50c0a981bb4f"},"vehicle_type_id":"4","last_reported":1679573623,"current_range_meters":26400,"station_id":"ce4bhq92rcd13ifvqhjg","pricing_plan_id":"free"},{"bike_id":"1a6bd71f-8000-40e6-9684-cb3efbd3ac0e","system_id":"levelo_inurba_marseille","lat":43.284793,"lon":5.384119,"is_reserved":false,"is_disabled":false,"rental_uris":{"android":"levelo://app?vid=1a6bd71f-8000-40e6-9684-cb3efbd3ac0e","ios":"levelo://app?vid=1a6bd71f-8000-40e6-9684-cb3efbd3ac0e"},"vehicle_type_id":"4","last_reported":1679573623,"current_range_meters":8800,"station_id":"ce4bh512rcd13ifvqe3g","pricing_plan_id":"free"},{"bike_id":"ad846042-fa99-4486-b936-3f4011314b90","system_id":"levelo_inurba_marseille","lat":43.28466,"lon":5.38404,"is_reserved":false,"is_disabled":false,"rental_uris":{"android":"levelo://app?vid=ad846042-fa99-4486-b936-3f4011314b90","ios":"levelo://app?vid=ad846042-fa99-4486-b936-3f4011314b90"},"vehicle_type_id":"4","last_reported":1679573623,"current_range_meters":28000,"station_id":"ce4bh512rcd13ifvqe3g","pricing_plan_id":"free"},{"bike_id":"33928546-f6d6-477d-8a11-6fc5bc7aba69","system_id":"levelo_inurba_marseille","lat":43.283505,"lon":5.381078,"is_reserved":false,"is_disabled":false,"rental_uris":{"android":"levelo://app?vid=33928546-f6d6-477d-8a11-6fc5bc7aba69","ios":"levelo://app?vid=33928546-f6d6-477d-8a11-6fc5bc7aba69"},"vehicle_type_id":"4","last_reported":1679573623,"current_range_meters":0,"station_id":"","pricing_plan_id":"free"},{"bike_id":"020d55bb-b923-4102-bccf-f79dfb287fcd","system_id":"levelo_inurba_marseille","lat":43.28425,"lon":5.34985,"is_reserved":false,"is_disabled":false,"rental_uris":{"android":"levelo://app?vid=020d55bb-b923-4102-bccf-f79dfb287fcd","ios":"levelo://app?vid=020d55bb-b923-4102-bccf-f79dfb287fcd"},"vehicle_type_id":"4","last_reported":1679573623,"current_range_meters":7600,"station_id":"","pricing_plan_id":"free"},{"bike_id":"271bbd93-0108-404a-9402-5277d9d39813","system_id":"levelo_inurba_marseille","lat":43.28342,"lon":5.38114,"is_reserved":false,"is_disabled":false,"rental_uris":{"android":"levelo://app?vid=271bbd93-0108-404a-9402-5277d9d39813","ios":"levelo://app?vid=271bbd93-0108-404a-9402-5277d9d39813"},"vehicle_type_id":"4","last_reported":1679573623,"current_range_meters":27600,"station_id":"","pricing_plan_id":"free"},{"bike_id":"54b4f0b2-04d9-4f5b-8f60-ba39b6bd8f44","system_id":"levelo_inurba_marseille","lat":43.289363,"lon":5.396322,"is_reserved":false,"is_disabled":false,"rental_uris":{"android":"levelo://app?vid=54b4f0b2-04d9-4f5b-8f60-ba39b6bd8f44","ios":"levelo://app?vid=54b4f0b2-04d9-4f5b-8f60-ba39b6bd8f44"},"vehicle_type_id":"4","last_reported":1679573623,"current_range_meters":400,"station_id":"ce4bh3h2rcd13ifvqdn0","pricing_plan_id":"free"},{"bike_id":"b450a5ab-29a1-404a-9b5d-296c3f2ea162","system_id":"levelo_inurba_marseille","lat":43.29275,"lon":5.40116,"is_reserved":false,"is_disabled":false,"rental_uris":{"android":"levelo://app?vid=b450a5ab-29a1-404a-9b5d-296c3f2ea162","ios":"levelo://app?vid=b450a5ab-29a1-404a-9b5d-296c3f2ea162"},"vehicle_type_id":"4","last_reported":1679573623,"current_range_meters":10000,"station_id":"ce4bh312rcd13ifvqdk0","pricing_plan_id":"free"},{"bike_id":"da8cc30f-63fe-4547-95d9-d2a2eb159538","system_id":"levelo_inurba_marseille","lat":43.282685,"lon":5.350665,"is_reserved":false,"is_disabled":false,"rental_uris":{"android":"levelo://app?vid=da8cc30f-63fe-4547-95d9-d2a2eb159538","ios":"levelo://app?vid=da8cc30f-63fe-4547-95d9-d2a2eb159538"},"vehicle_type_id":"4","last_reported":1679573623,"current_range_meters":21600,"station_id":"","pricing_plan_id":"free"},{"bike_id":"2d7774c6-3c19-48ee-b348-dc7e0754cfa8","system_id":"levelo_inurba_marseille","lat":43.290412,"lon":5.399633,"is_reserved":false,"is_disabled":false,"rental_uris":{"android":"levelo://app?vid=2d7774c6-3c19-48ee-b348-dc7e0754cfa8","ios":"levelo://app?vid=2d7774c6-3c19-48ee-b348-dc7e0754cfa8"},"vehicle_type_id":"4","last_reported":1679573623,"current_range_meters":400,"station_id":"ce4bh392rcd13ifvqdm0","pricing_plan_id":"free"},{"bike_id":"4eeca61a-5b0b-4c11-b7ac-d9c75e4ab781","system_id":"levelo_inurba_marseille","lat":43.290412,"lon":5.399633,"is_reserved":false,"is_disabled":false,"rental_uris":{"android":"levelo://app?vid=4eeca61a-5b0b-4c11-b7ac-d9c75e4ab781","ios":"levelo://app?vid=4eeca61a-5b0b-4c11-b7ac-d9c75e4ab781"},"vehicle_type_id":"4","last_reported":1679573623,"current_range_meters":2000,"station_id":"ce4bh392rcd13ifvqdm0","pricing_plan_id":"free"},{"bike_id":"07d3b1b7-4e37-4758-a839-10ffdbc9f9e2","system_id":"levelo_inurba_marseille","lat":43.29041,"lon":5.399634,"is_reserved":false,"is_disabled":false,"rental_uris":{"android":"levelo://app?vid=07d3b1b7-4e37-4758-a839-10ffdbc9f9e2","ios":"levelo://app?vid=07d3b1b7-4e37-4758-a839-10ffdbc9f9e2"},"vehicle_type_id":"4","last_reported":1679573623,"current_range_meters":7200,"station_id":"ce4bh392rcd13ifvqdm0","pricing_plan_id":"free"},{"bike_id":"92de611d-9d33-4f54-8b46-0a872ad846b5","system_id":"levelo_inurba_marseille","lat":43.296263,"lon":5.40601,"is_reserved":false,"is_disabled":false,"rental_uris":{"android":"levelo://app?vid=92de611d-9d33-4f54-8b46-0a872ad846b5","ios":"levelo://app?vid=92de611d-9d33-4f54-8b46-0a872ad846b5"},"vehicle_type_id":"4","last_reported":1679573623,"current_range_meters":4800,"station_id":"ce4bh0h2rcd13ifvqd60","pricing_plan_id":"free"},{"bike_id":"9083e176-35c1-4cbe-a4b6-43bb0bb7a7dd","system_id":"levelo_inurba_marseille","lat":43.28712,"lon":5.399845,"is_reserved":false,"is_disabled":false,"rental_uris":{"android":"levelo://app?vid=9083e176-35c1-4cbe-a4b6-43bb0bb7a7dd","ios":"levelo://app?vid=9083e176-35c1-4cbe-a4b6-43bb0bb7a7dd"},"vehicle_type_id":"4","last_reported":1679573623,"current_range_meters":28000,"station_id":"ce4bhg12rcd13ifvqf80","pricing_plan_id":"free"},{"bike_id":"a34b73da-efb2-4065-8478-4c95406f75ac","system_id":"levelo_inurba_marseille","lat":43.320045,"lon":5.415048,"is_reserved":false,"is_disabled":false,"rental_uris":{"android":"levelo://app?vid=a34b73da-efb2-4065-8478-4c95406f75ac","ios":"levelo://app?vid=a34b73da-efb2-4065-8478-4c95406f75ac"},"vehicle_type_id":"4","last_reported":1679573623,"current_range_meters":0,"station_id":"ce4bhq92rcd13ifvqhkg","pricing_plan_id":"free"},{"bike_id":"71d35e63-48db-4337-9d09-6127a38fcb56","system_id":"levelo_inurba_marseille","lat":43.320045,"lon":5.415048,"is_reserved":false,"is_disabled":false,"rental_uris":{"android":"levelo://app?vid=71d35e63-48db-4337-9d09-6127a38fcb56","ios":"levelo://app?vid=71d35e63-48db-4337-9d09-6127a38fcb56"},"vehicle_type_id":"4","last_reported":1679573623,"current_range_meters":18000,"station_id":"ce4bhq92rcd13ifvqhkg","pricing_plan_id":"free"},{"bike_id":"feb9df6e-a607-450f-8a3d-7fb12f0abd77","system_id":"levelo_inurba_marseille","lat":43.325243,"lon":5.414326,"is_reserved":false,"is_disabled":false,"rental_uris":{"android":"levelo://app?vid=feb9df6e-a607-450f-8a3d-7fb12f0abd77","ios":"levelo://app?vid=feb9df6e-a607-450f-8a3d-7fb12f0abd77"},"vehicle_type_id":"4","last_reported":1679573623,"current_range_meters":16400,"station_id":"ce4bhq12rcd13ifvqhhg","pricing_plan_id":"free"},{"bike_id":"f326217a-1ee0-4b67-9cf3-512a4f5ab1bb","system_id":"levelo_inurba_marseille","lat":43.292571,"lon":5.409107,"is_reserved":false,"is_disabled":false,"rental_uris":{"android":"levelo://app?vid=f326217a-1ee0-4b67-9cf3-512a4f5ab1bb","ios":"levelo://app?vid=f326217a-1ee0-4b67-9cf3-512a4f5ab1bb"},"vehicle_type_id":"4","last_reported":1679573623,"current_range_meters":23200,"station_id":"ce4bh192rcd13ifvqdc0","pricing_plan_id":"free"},{"bike_id":"6e8b01cb-59df-4f20-941b-b1f5481b7364","system_id":"levelo_inurba_marseille","lat":43.32538,"lon":5.414293,"is_reserved":false,"is_disabled":false,"rental_uris":{"android":"levelo://app?vid=6e8b01cb-59df-4f20-941b-b1f5481b7364","ios":"levelo://app?vid=6e8b01cb-59df-4f20-941b-b1f5481b7364"},"vehicle_type_id":"4","last_reported":1679573623,"current_range_meters":18000,"station_id":"ce4bhq12rcd13ifvqhhg","pricing_plan_id":"free"},{"bike_id":"34c8f40a-07d2-43a8-85e9-87de1e94e56e","system_id":"levelo_inurba_marseille","lat":43.325233,"lon":5.414318,"is_reserved":false,"is_disabled":false,"rental_uris":{"android":"levelo://app?vid=34c8f40a-07d2-43a8-85e9-87de1e94e56e","ios":"levelo://app?vid=34c8f40a-07d2-43a8-85e9-87de1e94e56e"},"vehicle_type_id":"4","last_reported":1679573623,"current_range_meters":8800,"station_id":"ce4bhq12rcd13ifvqhhg","pricing_plan_id":"free"},{"bike_id":"95604fea-a466-485d-aa43-0efefb9cb4b2","system_id":"levelo_inurba_marseille","lat":43.325243,"lon":5.414326,"is_reserved":false,"is_disabled":false,"rental_uris":{"android":"levelo://app?vid=95604fea-a466-485d-aa43-0efefb9cb4b2","ios":"levelo://app?vid=95604fea-a466-485d-aa43-0efefb9cb4b2"},"vehicle_type_id":"4","last_reported":1679573623,"current_range_meters":800,"station_id":"ce4bhq12rcd13ifvqhhg","pricing_plan_id":"free"},{"bike_id":"486cb8e4-67b7-45e2-9724-d7d9be4887e6","system_id":"levelo_inurba_marseille","lat":43.325378,"lon":5.41434,"is_reserved":false,"is_disabled":false,"rental_uris":{"android":"levelo://app?vid=486cb8e4-67b7-45e2-9724-d7d9be4887e6","ios":"levelo://app?vid=486cb8e4-67b7-45e2-9724-d7d9be4887e6"},"vehicle_type_id":"4","last_reported":1679573623,"current_range_meters":15600,"station_id":"","pricing_plan_id":"free"},{"bike_id":"f8311332-baa5-469d-a8cd-bd440b82eb1e","system_id":"levelo_inurba_marseille","lat":43.3254,"lon":5.41441,"is_reserved":false,"is_disabled":false,"rental_uris":{"android":"levelo://app?vid=f8311332-baa5-469d-a8cd-bd440b82eb1e","ios":"levelo://app?vid=f8311332-baa5-469d-a8cd-bd440b82eb1e"},"vehicle_type_id":"4","last_reported":1679573623,"current_range_meters":6800,"station_id":"ce4bhq12rcd13ifvqhhg","pricing_plan_id":"free"},{"bike_id":"e0391a88-01fe-4364-8633-23e2afd96e22","system_id":"levelo_inurba_marseille","lat":43.276179,"lon":5.361009,"is_reserved":false,"is_disabled":false,"rental_uris":{"android":"levelo://app?vid=e0391a88-01fe-4364-8633-23e2afd96e22","ios":"levelo://app?vid=e0391a88-01fe-4364-8633-23e2afd96e22"},"vehicle_type_id":"4","last_reported":1679573623,"current_range_meters":3600,"station_id":"ce4bgj92rcd13ifvqbe0","pricing_plan_id":"free"},{"bike_id":"a7be7575-c21e-4b88-9427-e8dccc03a199","system_id":"levelo_inurba_marseille","lat":43.280784,"lon":5.396622,"is_reserved":false,"is_disabled":false,"rental_uris":{"android":"levelo://app?vid=a7be7575-c21e-4b88-9427-e8dccc03a199","ios":"levelo://app?vid=a7be7575-c21e-4b88-9427-e8dccc03a199"},"vehicle_type_id":"4","last_reported":1679573623,"current_range_meters":22400,"station_id":"ce4bho12rcd13ifvqh2g","pricing_plan_id":"free"},{"bike_id":"32b4a219-5b95-424b-8a38-b3eeea3ac110","system_id":"levelo_inurba_marseille","lat":43.280784,"lon":5.396622,"is_reserved":false,"is_disabled":false,"rental_uris":{"android":"levelo://app?vid=32b4a219-5b95-424b-8a38-b3eeea3ac110","ios":"levelo://app?vid=32b4a219-5b95-424b-8a38-b3eeea3ac110"},"vehicle_type_id":"4","last_reported":1679573623,"current_range_meters":23200,"station_id":"ce4bho12rcd13ifvqh2g","pricing_plan_id":"free"},{"bike_id":"fd8b490e-62cc-4e46-8934-5ce84addea4b","system_id":"levelo_inurba_marseille","lat":43.280784,"lon":5.396622,"is_reserved":false,"is_disabled":false,"rental_uris":{"android":"levelo://app?vid=fd8b490e-62cc-4e46-8934-5ce84addea4b","ios":"levelo://app?vid=fd8b490e-62cc-4e46-8934-5ce84addea4b"},"vehicle_type_id":"4","last_reported":1679573623,"current_range_meters":23600,"station_id":"ce4bho12rcd13ifvqh2g","pricing_plan_id":"free"},{"bike_id":"40570cdb-1967-4006-a7d9-d559138550cd","system_id":"levelo_inurba_marseille","lat":43.280784,"lon":5.396622,"is_reserved":false,"is_disabled":false,"rental_uris":{"android":"levelo://app?vid=40570cdb-1967-4006-a7d9-d559138550cd","ios":"levelo://app?vid=40570cdb-1967-4006-a7d9-d559138550cd"},"vehicle_type_id":"4","last_reported":1679573623,"current_range_meters":18400,"station_id":"ce4bho12rcd13ifvqh2g","pricing_plan_id":"free"},{"bike_id":"de80496c-df90-4335-9581-045ff948030b","system_id":"levelo_inurba_marseille","lat":43.27378,"lon":5.36251,"is_reserved":false,"is_disabled":false,"rental_uris":{"android":"levelo://app?vid=de80496c-df90-4335-9581-045ff948030b","ios":"levelo://app?vid=de80496c-df90-4335-9581-045ff948030b"},"vehicle_type_id":"4","last_reported":1679573623,"current_range_meters":0,"station_id":"ce4bhbh2rcd13ifvqeo0","pricing_plan_id":"free"},{"bike_id":"4e65ce2f-0a92-4856-9d9f-c993d170e3b6","system_id":"levelo_inurba_marseille","lat":43.273613,"lon":5.362705,"is_reserved":false,"is_disabled":false,"rental_uris":{"android":"levelo://app?vid=4e65ce2f-0a92-4856-9d9f-c993d170e3b6","ios":"levelo://app?vid=4e65ce2f-0a92-4856-9d9f-c993d170e3b6"},"vehicle_type_id":"4","last_reported":1679573623,"current_range_meters":27200,"station_id":"ce4bhbh2rcd13ifvqeo0","pricing_plan_id":"free"},{"bike_id":"8be6d4cc-f7c6-44f5-8ced-a4d8c833f7f5","system_id":"levelo_inurba_marseille","lat":43.273772,"lon":5.362576,"is_reserved":false,"is_disabled":false,"rental_uris":{"android":"levelo://app?vid=8be6d4cc-f7c6-44f5-8ced-a4d8c833f7f5","ios":"levelo://app?vid=8be6d4cc-f7c6-44f5-8ced-a4d8c833f7f5"},"vehicle_type_id":"4","last_reported":1679573623,"current_range_meters":12800,"station_id":"","pricing_plan_id":"free"},{"bike_id":"0d075507-5815-44a9-b9cc-1809c078054b","system_id":"levelo_inurba_marseille","lat":43.273613,"lon":5.362705,"is_reserved":false,"is_disabled":false,"rental_uris":{"android":"levelo://app?vid=0d075507-5815-44a9-b9cc-1809c078054b","ios":"levelo://app?vid=0d075507-5815-44a9-b9cc-1809c078054b"},"vehicle_type_id":"4","last_reported":1679573623,"current_range_meters":31600,"station_id":"ce4bhbh2rcd13ifvqeo0","pricing_plan_id":"free"},{"bike_id":"b37b623c-ec92-4633-9524-e2a3c5236eb8","system_id":"levelo_inurba_marseille","lat":43.273613,"lon":5.362705,"is_reserved":false,"is_disabled":false,"rental_uris":{"android":"levelo://app?vid=b37b623c-ec92-4633-9524-e2a3c5236eb8","ios":"levelo://app?vid=b37b623c-ec92-4633-9524-e2a3c5236eb8"},"vehicle_type_id":"4","last_reported":1679573623,"current_range_meters":31600,"station_id":"ce4bhbh2rcd13ifvqeo0","pricing_plan_id":"free"},{"bike_id":"c29900e5-6a60-4ad4-ab4e-196e5c2dcf27","system_id":"levelo_inurba_marseille","lat":43.27374,"lon":5.362575,"is_reserved":false,"is_disabled":false,"rental_uris":{"android":"levelo://app?vid=c29900e5-6a60-4ad4-ab4e-196e5c2dcf27","ios":"levelo://app?vid=c29900e5-6a60-4ad4-ab4e-196e5c2dcf27"},"vehicle_type_id":"4","last_reported":1679573623,"current_range_meters":28800,"station_id":"ce4bhbh2rcd13ifvqeo0","pricing_plan_id":"free"},{"bike_id":"10cdcc7e-dfe0-44d3-9e03-21bd78465d3d","system_id":"levelo_inurba_marseille","lat":43.273613,"lon":5.362705,"is_reserved":false,"is_disabled":false,"rental_uris":{"android":"levelo://app?vid=10cdcc7e-dfe0-44d3-9e03-21bd78465d3d","ios":"levelo://app?vid=10cdcc7e-dfe0-44d3-9e03-21bd78465d3d"},"vehicle_type_id":"4","last_reported":1679573623,"current_range_meters":31600,"station_id":"ce4bhbh2rcd13ifvqeo0","pricing_plan_id":"free"},{"bike_id":"d9f38b8a-c40b-45f2-bb28-0c9eab71c319","system_id":"levelo_inurba_marseille","lat":43.33612,"lon":5.410321,"is_reserved":false,"is_disabled":false,"rental_uris":{"android":"levelo://app?vid=d9f38b8a-c40b-45f2-bb28-0c9eab71c319","ios":"levelo://app?vid=d9f38b8a-c40b-45f2-bb28-0c9eab71c319"},"vehicle_type_id":"4","last_reported":1679573623,"current_range_meters":2000,"station_id":"ce4bhqh2rcd13ifvqhmg","pricing_plan_id":"free"},{"bike_id":"37c92eb3-4605-4ec8-b204-e3b25a6f9e88","system_id":"levelo_inurba_marseille","lat":43.33605,"lon":5.41039,"is_reserved":false,"is_disabled":false,"rental_uris":{"android":"levelo://app?vid=37c92eb3-4605-4ec8-b204-e3b25a6f9e88","ios":"levelo://app?vid=37c92eb3-4605-4ec8-b204-e3b25a6f9e88"},"vehicle_type_id":"4","last_reported":1679573623,"current_range_meters":12400,"station_id":"","pricing_plan_id":"free"},{"bike_id":"ca672485-467c-4230-a8d7-f219fa3543b4","system_id":"levelo_inurba_marseille","lat":43.336133,"lon":5.41034,"is_reserved":false,"is_disabled":false,"rental_uris":{"android":"levelo://app?vid=ca672485-467c-4230-a8d7-f219fa3543b4","ios":"levelo://app?vid=ca672485-467c-4230-a8d7-f219fa3543b4"},"vehicle_type_id":"4","last_reported":1679573623,"current_range_meters":15200,"station_id":"","pricing_plan_id":"free"},{"bike_id":"47146573-b500-47af-8d74-237c91c6bd7e","system_id":"levelo_inurba_marseille","lat":43.273129,"lon":5.390725,"is_reserved":false,"is_disabled":false,"rental_uris":{"android":"levelo://app?vid=47146573-b500-47af-8d74-237c91c6bd7e","ios":"levelo://app?vid=47146573-b500-47af-8d74-237c91c6bd7e"},"vehicle_type_id":"4","last_reported":1679573623,"current_range_meters":4000,"station_id":"ce4bhgp2rcd13ifvqfe0","pricing_plan_id":"free"},{"bike_id":"bc4507b6-81ca-42b6-856e-c3190e961148","system_id":"levelo_inurba_marseille","lat":43.295523,"lon":5.422926,"is_reserved":false,"is_disabled":false,"rental_uris":{"android":"levelo://app?vid=bc4507b6-81ca-42b6-856e-c3190e961148","ios":"levelo://app?vid=bc4507b6-81ca-42b6-856e-c3190e961148"},"vehicle_type_id":"4","last_reported":1679573623,"current_range_meters":17600,"station_id":"ce4bhph2rcd13ifvqhdg","pricing_plan_id":"free"},{"bike_id":"8c8007cb-52cd-4558-87a1-9105178e7bdc","system_id":"levelo_inurba_marseille","lat":43.295523,"lon":5.422926,"is_reserved":false,"is_disabled":false,"rental_uris":{"android":"levelo://app?vid=8c8007cb-52cd-4558-87a1-9105178e7bdc","ios":"levelo://app?vid=8c8007cb-52cd-4558-87a1-9105178e7bdc"},"vehicle_type_id":"4","last_reported":1679573623,"current_range_meters":15600,"station_id":"ce4bhph2rcd13ifvqhdg","pricing_plan_id":"free"},{"bike_id":"1cbd526c-065f-477e-b097-3e3624055a5f","system_id":"levelo_inurba_marseille","lat":43.295523,"lon":5.422926,"is_reserved":false,"is_disabled":false,"rental_uris":{"android":"levelo://app?vid=1cbd526c-065f-477e-b097-3e3624055a5f","ios":"levelo://app?vid=1cbd526c-065f-477e-b097-3e3624055a5f"},"vehicle_type_id":"4","last_reported":1679573623,"current_range_meters":28000,"station_id":"ce4bhph2rcd13ifvqhdg","pricing_plan_id":"free"},{"bike_id":"16b3aa94-354d-4b47-a3d4-e22ebe0da02a","system_id":"levelo_inurba_marseille","lat":43.29559,"lon":5.42293,"is_reserved":false,"is_disabled":false,"rental_uris":{"android":"levelo://app?vid=16b3aa94-354d-4b47-a3d4-e22ebe0da02a","ios":"levelo://app?vid=16b3aa94-354d-4b47-a3d4-e22ebe0da02a"},"vehicle_type_id":"4","last_reported":1679573623,"current_range_meters":29200,"station_id":"ce4bhph2rcd13ifvqhdg","pricing_plan_id":"free"},{"bike_id":"19eec120-420b-4b44-a82a-9970640f3e16","system_id":"levelo_inurba_marseille","lat":43.295523,"lon":5.422926,"is_reserved":false,"is_disabled":false,"rental_uris":{"android":"levelo://app?vid=19eec120-420b-4b44-a82a-9970640f3e16","ios":"levelo://app?vid=19eec120-420b-4b44-a82a-9970640f3e16"},"vehicle_type_id":"4","last_reported":1679573623,"current_range_meters":6800,"station_id":"ce4bhph2rcd13ifvqhdg","pricing_plan_id":"free"},{"bike_id":"7b6f71e1-ef65-4b07-922a-d58fe200ef63","system_id":"levelo_inurba_marseille","lat":43.295467,"lon":5.422899,"is_reserved":false,"is_disabled":false,"rental_uris":{"android":"levelo://app?vid=7b6f71e1-ef65-4b07-922a-d58fe200ef63","ios":"levelo://app?vid=7b6f71e1-ef65-4b07-922a-d58fe200ef63"},"vehicle_type_id":"4","last_reported":1679573623,"current_range_meters":16400,"station_id":"","pricing_plan_id":"free"},{"bike_id":"9bfcd5c9-d864-4b95-ba77-5a1cf3d4c13b","system_id":"levelo_inurba_marseille","lat":43.328234,"lon":5.425356,"is_reserved":false,"is_disabled":false,"rental_uris":{"android":"levelo://app?vid=9bfcd5c9-d864-4b95-ba77-5a1cf3d4c13b","ios":"levelo://app?vid=9bfcd5c9-d864-4b95-ba77-5a1cf3d4c13b"},"vehicle_type_id":"4","last_reported":1679573623,"current_range_meters":0,"station_id":"","pricing_plan_id":"free"},{"bike_id":"a04c4ac4-1d44-4f9e-bb5f-bd344ea7133b","system_id":"levelo_inurba_marseille","lat":43.27813,"lon":5.40717,"is_reserved":false,"is_disabled":false,"rental_uris":{"android":"levelo://app?vid=a04c4ac4-1d44-4f9e-bb5f-bd344ea7133b","ios":"levelo://app?vid=a04c4ac4-1d44-4f9e-bb5f-bd344ea7133b"},"vehicle_type_id":"4","last_reported":1679573623,"current_range_meters":7200,"station_id":"","pricing_plan_id":"free"},{"bike_id":"94115a32-d2f4-483e-87e8-a14a95e239a8","system_id":"levelo_inurba_marseille","lat":43.269467,"lon":5.386439,"is_reserved":false,"is_disabled":false,"rental_uris":{"android":"levelo://app?vid=94115a32-d2f4-483e-87e8-a14a95e239a8","ios":"levelo://app?vid=94115a32-d2f4-483e-87e8-a14a95e239a8"},"vehicle_type_id":"4","last_reported":1679573623,"current_range_meters":2400,"station_id":"ce4bhh92rcd13ifvqfh0","pricing_plan_id":"free"},{"bike_id":"ce60fdf9-2b3d-4732-b2a2-51690cd7724b","system_id":"levelo_inurba_marseille","lat":43.26947,"lon":5.38623,"is_reserved":false,"is_disabled":false,"rental_uris":{"android":"levelo://app?vid=ce60fdf9-2b3d-4732-b2a2-51690cd7724b","ios":"levelo://app?vid=ce60fdf9-2b3d-4732-b2a2-51690cd7724b"},"vehicle_type_id":"4","last_reported":1679573623,"current_range_meters":0,"station_id":"","pricing_plan_id":"free"},{"bike_id":"e07c778c-6f19-4637-91ed-542401dbb80e","system_id":"levelo_inurba_marseille","lat":43.269467,"lon":5.386439,"is_reserved":false,"is_disabled":false,"rental_uris":{"android":"levelo://app?vid=e07c778c-6f19-4637-91ed-542401dbb80e","ios":"levelo://app?vid=e07c778c-6f19-4637-91ed-542401dbb80e"},"vehicle_type_id":"4","last_reported":1679573623,"current_range_meters":30000,"station_id":"ce4bhh92rcd13ifvqfh0","pricing_plan_id":"free"},{"bike_id":"de600c91-a297-4e97-8094-844dd70079b9","system_id":"levelo_inurba_marseille","lat":43.269467,"lon":5.386439,"is_reserved":false,"is_disabled":false,"rental_uris":{"android":"levelo://app?vid=de600c91-a297-4e97-8094-844dd70079b9","ios":"levelo://app?vid=de600c91-a297-4e97-8094-844dd70079b9"},"vehicle_type_id":"4","last_reported":1679573623,"current_range_meters":9600,"station_id":"ce4bhh92rcd13ifvqfh0","pricing_plan_id":"free"},{"bike_id":"6fe87f49-0fc5-4784-87a4-b6f5659de2af","system_id":"levelo_inurba_marseille","lat":43.32472,"lon":5.427569,"is_reserved":false,"is_disabled":false,"rental_uris":{"android":"levelo://app?vid=6fe87f49-0fc5-4784-87a4-b6f5659de2af","ios":"levelo://app?vid=6fe87f49-0fc5-4784-87a4-b6f5659de2af"},"vehicle_type_id":"4","last_reported":1679573623,"current_range_meters":800,"station_id":"","pricing_plan_id":"free"},{"bike_id":"c71a9c8c-1944-4fec-bd07-b19b2ff01cea","system_id":"levelo_inurba_marseille","lat":43.269319,"lon":5.389397,"is_reserved":false,"is_disabled":false,"rental_uris":{"android":"levelo://app?vid=c71a9c8c-1944-4fec-bd07-b19b2ff01cea","ios":"levelo://app?vid=c71a9c8c-1944-4fec-bd07-b19b2ff01cea"},"vehicle_type_id":"4","last_reported":1679573623,"current_range_meters":25600,"station_id":"ce4bhhh2rcd13ifvqfl0","pricing_plan_id":"free"},{"bike_id":"ec11ee40-1449-4668-89a0-5cb67ac0d12e","system_id":"levelo_inurba_marseille","lat":43.26681,"lon":5.382694,"is_reserved":false,"is_disabled":false,"rental_uris":{"android":"levelo://app?vid=ec11ee40-1449-4668-89a0-5cb67ac0d12e","ios":"levelo://app?vid=ec11ee40-1449-4668-89a0-5cb67ac0d12e"},"vehicle_type_id":"4","last_reported":1679573623,"current_range_meters":21200,"station_id":"ce4bhg92rcd13ifvqf90","pricing_plan_id":"free"},{"bike_id":"7fb29735-ed86-4f43-9ae8-0a277c88d2d5","system_id":"levelo_inurba_marseille","lat":43.26681,"lon":5.382694,"is_reserved":false,"is_disabled":false,"rental_uris":{"android":"levelo://app?vid=7fb29735-ed86-4f43-9ae8-0a277c88d2d5","ios":"levelo://app?vid=7fb29735-ed86-4f43-9ae8-0a277c88d2d5"},"vehicle_type_id":"4","last_reported":1679573623,"current_range_meters":3600,"station_id":"ce4bhg92rcd13ifvqf90","pricing_plan_id":"free"},{"bike_id":"6c950989-ddab-431a-a596-1d872f0a2219","system_id":"levelo_inurba_marseille","lat":43.26681,"lon":5.382694,"is_reserved":false,"is_disabled":false,"rental_uris":{"android":"levelo://app?vid=6c950989-ddab-431a-a596-1d872f0a2219","ios":"levelo://app?vid=6c950989-ddab-431a-a596-1d872f0a2219"},"vehicle_type_id":"4","last_reported":1679573623,"current_range_meters":30400,"station_id":"ce4bhg92rcd13ifvqf90","pricing_plan_id":"free"},{"bike_id":"bdceccce-7c1b-46f4-8ae4-a253fdc2d8b5","system_id":"levelo_inurba_marseille","lat":43.26684,"lon":5.38272,"is_reserved":false,"is_disabled":false,"rental_uris":{"android":"levelo://app?vid=bdceccce-7c1b-46f4-8ae4-a253fdc2d8b5","ios":"levelo://app?vid=bdceccce-7c1b-46f4-8ae4-a253fdc2d8b5"},"vehicle_type_id":"4","last_reported":1679573623,"current_range_meters":12800,"station_id":"ce4bhg92rcd13ifvqf90","pricing_plan_id":"free"},{"bike_id":"e1af575a-bc14-4b67-801c-25041b3eeb03","system_id":"levelo_inurba_marseille","lat":43.265714,"lon":5.372891,"is_reserved":false,"is_disabled":false,"rental_uris":{"android":"levelo://app?vid=e1af575a-bc14-4b67-801c-25041b3eeb03","ios":"levelo://app?vid=e1af575a-bc14-4b67-801c-25041b3eeb03"},"vehicle_type_id":"4","last_reported":1679573623,"current_range_meters":5200,"station_id":"ce4bhg12rcd13ifvqf70","pricing_plan_id":"free"},{"bike_id":"8b7a2ac5-7e14-4028-8bbb-fab14eb0e465","system_id":"levelo_inurba_marseille","lat":43.265714,"lon":5.372891,"is_reserved":false,"is_disabled":false,"rental_uris":{"android":"levelo://app?vid=8b7a2ac5-7e14-4028-8bbb-fab14eb0e465","ios":"levelo://app?vid=8b7a2ac5-7e14-4028-8bbb-fab14eb0e465"},"vehicle_type_id":"4","last_reported":1679573623,"current_range_meters":11200,"station_id":"ce4bhg12rcd13ifvqf70","pricing_plan_id":"free"},{"bike_id":"b2d1b2ed-12e2-4509-bb70-a1bb9544598b","system_id":"levelo_inurba_marseille","lat":43.265714,"lon":5.372891,"is_reserved":false,"is_disabled":false,"rental_uris":{"android":"levelo://app?vid=b2d1b2ed-12e2-4509-bb70-a1bb9544598b","ios":"levelo://app?vid=b2d1b2ed-12e2-4509-bb70-a1bb9544598b"},"vehicle_type_id":"4","last_reported":1679573623,"current_range_meters":6400,"station_id":"ce4bhg12rcd13ifvqf70","pricing_plan_id":"free"},{"bike_id":"da5e98a1-cfb5-4fd4-a8b0-30ba7d13f326","system_id":"levelo_inurba_marseille","lat":43.265714,"lon":5.372891,"is_reserved":false,"is_disabled":false,"rental_uris":{"android":"levelo://app?vid=da5e98a1-cfb5-4fd4-a8b0-30ba7d13f326","ios":"levelo://app?vid=da5e98a1-cfb5-4fd4-a8b0-30ba7d13f326"},"vehicle_type_id":"4","last_reported":1679573623,"current_range_meters":9600,"station_id":"ce4bhg12rcd13ifvqf70","pricing_plan_id":"free"},{"bike_id":"2badafb1-cfa4-48e0-b751-e363fb37e4c7","system_id":"levelo_inurba_marseille","lat":43.26681,"lon":5.382694,"is_reserved":false,"is_disabled":false,"rental_uris":{"android":"levelo://app?vid=2badafb1-cfa4-48e0-b751-e363fb37e4c7","ios":"levelo://app?vid=2badafb1-cfa4-48e0-b751-e363fb37e4c7"},"vehicle_type_id":"4","last_reported":1679573623,"current_range_meters":15600,"station_id":"ce4bhg92rcd13ifvqf90","pricing_plan_id":"free"},{"bike_id":"bb628a89-4eaa-4666-a9fd-e5c5f6b23cb6","system_id":"levelo_inurba_marseille","lat":43.26557,"lon":5.37279,"is_reserved":false,"is_disabled":false,"rental_uris":{"android":"levelo://app?vid=bb628a89-4eaa-4666-a9fd-e5c5f6b23cb6","ios":"levelo://app?vid=bb628a89-4eaa-4666-a9fd-e5c5f6b23cb6"},"vehicle_type_id":"4","last_reported":1679573623,"current_range_meters":13600,"station_id":"","pricing_plan_id":"free"},{"bike_id":"5f9097c8-0af5-49a2-9bff-5c4cc6e8d968","system_id":"levelo_inurba_marseille","lat":43.265714,"lon":5.372891,"is_reserved":false,"is_disabled":false,"rental_uris":{"android":"levelo://app?vid=5f9097c8-0af5-49a2-9bff-5c4cc6e8d968","ios":"levelo://app?vid=5f9097c8-0af5-49a2-9bff-5c4cc6e8d968"},"vehicle_type_id":"4","last_reported":1679573623,"current_range_meters":9200,"station_id":"ce4bhg12rcd13ifvqf70","pricing_plan_id":"free"},{"bike_id":"4b48c4ce-f141-4a47-831e-1168e5245f20","system_id":"levelo_inurba_marseille","lat":43.265714,"lon":5.372891,"is_reserved":false,"is_disabled":false,"rental_uris":{"android":"levelo://app?vid=4b48c4ce-f141-4a47-831e-1168e5245f20","ios":"levelo://app?vid=4b48c4ce-f141-4a47-831e-1168e5245f20"},"vehicle_type_id":"4","last_reported":1679573623,"current_range_meters":5600,"station_id":"ce4bhg12rcd13ifvqf70","pricing_plan_id":"free"},{"bike_id":"a14de34e-5230-4355-9f77-b3f5e1378647","system_id":"levelo_inurba_marseille","lat":43.331823,"lon":5.431753,"is_reserved":false,"is_disabled":false,"rental_uris":{"android":"levelo://app?vid=a14de34e-5230-4355-9f77-b3f5e1378647","ios":"levelo://app?vid=a14de34e-5230-4355-9f77-b3f5e1378647"},"vehicle_type_id":"4","last_reported":1679573623,"current_range_meters":18000,"station_id":"","pricing_plan_id":"free"},{"bike_id":"22a6e4c8-39e7-424a-97cb-2a7b0a419612","system_id":"levelo_inurba_marseille","lat":43.261782,"lon":5.374515,"is_reserved":false,"is_disabled":false,"rental_uris":{"android":"levelo://app?vid=22a6e4c8-39e7-424a-97cb-2a7b0a419612","ios":"levelo://app?vid=22a6e4c8-39e7-424a-97cb-2a7b0a419612"},"vehicle_type_id":"4","last_reported":1679573623,"current_range_meters":2400,"station_id":"ce4bhgp2rcd13ifvqfc0","pricing_plan_id":"free"},{"bike_id":"438b37aa-396e-40d1-b5b6-c25f080a907f","system_id":"levelo_inurba_marseille","lat":43.267959,"lon":5.402685,"is_reserved":false,"is_disabled":false,"rental_uris":{"android":"levelo://app?vid=438b37aa-396e-40d1-b5b6-c25f080a907f","ios":"levelo://app?vid=438b37aa-396e-40d1-b5b6-c25f080a907f"},"vehicle_type_id":"4","last_reported":1679573623,"current_range_meters":6400,"station_id":"ce501612rcd8frsf0b60","pricing_plan_id":"free"},{"bike_id":"bb65461c-bcdb-4c4a-8abf-d290110c2d86","system_id":"levelo_inurba_marseille","lat":43.267959,"lon":5.402687,"is_reserved":false,"is_disabled":false,"rental_uris":{"android":"levelo://app?vid=bb65461c-bcdb-4c4a-8abf-d290110c2d86","ios":"levelo://app?vid=bb65461c-bcdb-4c4a-8abf-d290110c2d86"},"vehicle_type_id":"4","last_reported":1679573623,"current_range_meters":10000,"station_id":"ce501612rcd8frsf0b60","pricing_plan_id":"free"},{"bike_id":"b470c619-3d4a-4fef-a478-456edb3b9074","system_id":"levelo_inurba_marseille","lat":43.260219,"lon":5.37546,"is_reserved":false,"is_disabled":false,"rental_uris":{"android":"levelo://app?vid=b470c619-3d4a-4fef-a478-456edb3b9074","ios":"levelo://app?vid=b470c619-3d4a-4fef-a478-456edb3b9074"},"vehicle_type_id":"4","last_reported":1679573623,"current_range_meters":0,"station_id":"ce4bhgh2rcd13ifvqfa0","pricing_plan_id":"free"},{"bike_id":"572bdcf2-973b-4269-8abc-3fa8a2c27293","system_id":"levelo_inurba_marseille","lat":43.260912,"lon":5.397584,"is_reserved":false,"is_disabled":false,"rental_uris":{"android":"levelo://app?vid=572bdcf2-973b-4269-8abc-3fa8a2c27293","ios":"levelo://app?vid=572bdcf2-973b-4269-8abc-3fa8a2c27293"},"vehicle_type_id":"4","last_reported":1679573623,"current_range_meters":15600,"station_id":"ce4bhi12rcd13ifvqfq0","pricing_plan_id":"free"},{"bike_id":"3213d609-9370-49ff-9c81-f3f9923b6d6d","system_id":"levelo_inurba_marseille","lat":43.260912,"lon":5.397584,"is_reserved":false,"is_disabled":false,"rental_uris":{"android":"levelo://app?vid=3213d609-9370-49ff-9c81-f3f9923b6d6d","ios":"levelo://app?vid=3213d609-9370-49ff-9c81-f3f9923b6d6d"},"vehicle_type_id":"4","last_reported":1679573623,"current_range_meters":3200,"station_id":"ce4bhi12rcd13ifvqfq0","pricing_plan_id":"free"},{"bike_id":"efb638da-dc93-4f2c-a7c8-48e38bb36206","system_id":"levelo_inurba_marseille","lat":43.255756,"lon":5.382303,"is_reserved":false,"is_disabled":false,"rental_uris":{"android":"levelo://app?vid=efb638da-dc93-4f2c-a7c8-48e38bb36206","ios":"levelo://app?vid=efb638da-dc93-4f2c-a7c8-48e38bb36206"},"vehicle_type_id":"4","last_reported":1679573623,"current_range_meters":2800,"station_id":"ce4bhih2rcd13ifvqfs0","pricing_plan_id":"free"},{"bike_id":"19bb6497-706e-4efe-81f7-01fa77858d3a","system_id":"levelo_inurba_marseille","lat":43.254947,"lon":5.376454,"is_reserved":false,"is_disabled":false,"rental_uris":{"android":"levelo://app?vid=19bb6497-706e-4efe-81f7-01fa77858d3a","ios":"levelo://app?vid=19bb6497-706e-4efe-81f7-01fa77858d3a"},"vehicle_type_id":"4","last_reported":1679573623,"current_range_meters":7200,"station_id":"ce4bhh12rcd13ifvqff0","pricing_plan_id":"free"},{"bike_id":"7cf23b8a-af92-460e-aff6-9b1e449a221d","system_id":"levelo_inurba_marseille","lat":43.27076,"lon":5.42278,"is_reserved":false,"is_disabled":false,"rental_uris":{"android":"levelo://app?vid=7cf23b8a-af92-460e-aff6-9b1e449a221d","ios":"levelo://app?vid=7cf23b8a-af92-460e-aff6-9b1e449a221d"},"vehicle_type_id":"4","last_reported":1679573623,"current_range_meters":1200,"station_id":"ce4bhk92rcd13ifvqgb0","pricing_plan_id":"free"},{"bike_id":"0d5dd001-5fe2-4596-a1c1-12babd18cf07","system_id":"levelo_inurba_marseille","lat":43.27071,"lon":5.42284,"is_reserved":false,"is_disabled":false,"rental_uris":{"android":"levelo://app?vid=0d5dd001-5fe2-4596-a1c1-12babd18cf07","ios":"levelo://app?vid=0d5dd001-5fe2-4596-a1c1-12babd18cf07"},"vehicle_type_id":"4","last_reported":1679573623,"current_range_meters":800,"station_id":"ce4bhk92rcd13ifvqgb0","pricing_plan_id":"free"},{"bike_id":"b6d6e650-1fd4-42d9-826f-f11e804eb975","system_id":"levelo_inurba_marseille","lat":43.258658,"lon":5.398935,"is_reserved":false,"is_disabled":false,"rental_uris":{"android":"levelo://app?vid=b6d6e650-1fd4-42d9-826f-f11e804eb975","ios":"levelo://app?vid=b6d6e650-1fd4-42d9-826f-f11e804eb975"},"vehicle_type_id":"4","last_reported":1679573623,"current_range_meters":13200,"station_id":"ce4bhl92rcd13ifvqghg","pricing_plan_id":"free"},{"bike_id":"96c7d8a3-3747-48e1-a484-b40973392037","system_id":"levelo_inurba_marseille","lat":43.250966,"lon":5.395186,"is_reserved":false,"is_disabled":false,"rental_uris":{"android":"levelo://app?vid=96c7d8a3-3747-48e1-a484-b40973392037","ios":"levelo://app?vid=96c7d8a3-3747-48e1-a484-b40973392037"},"vehicle_type_id":"4","last_reported":1679573623,"current_range_meters":12000,"station_id":"ce4bhm12rcd13ifvqgkg","pricing_plan_id":"free"},{"bike_id":"3e0f2867-0147-44de-a331-a48834d5f72c","system_id":"levelo_inurba_marseille","lat":43.25122,"lon":5.40323,"is_reserved":false,"is_disabled":false,"rental_uris":{"android":"levelo://app?vid=3e0f2867-0147-44de-a331-a48834d5f72c","ios":"levelo://app?vid=3e0f2867-0147-44de-a331-a48834d5f72c"},"vehicle_type_id":"4","last_reported":1679573623,"current_range_meters":0,"station_id":"ce4bhlh2rcd13ifvqgig","pricing_plan_id":"free"},{"bike_id":"823d55ec-6820-4e77-98f6-75c749e9e952","system_id":"levelo_inurba_marseille","lat":43.25117,"lon":5.40374,"is_reserved":false,"is_disabled":false,"rental_uris":{"android":"levelo://app?vid=823d55ec-6820-4e77-98f6-75c749e9e952","ios":"levelo://app?vid=823d55ec-6820-4e77-98f6-75c749e9e952"},"vehicle_type_id":"4","last_reported":1679573623,"current_range_meters":23200,"station_id":"","pricing_plan_id":"free"},{"bike_id":"a799b814-e87d-43ac-8a37-da0fb079c15e","system_id":"levelo_inurba_marseille","lat":43.240623,"lon":5.377642,"is_reserved":false,"is_disabled":false,"rental_uris":{"android":"levelo://app?vid=a799b814-e87d-43ac-8a37-da0fb079c15e","ios":"levelo://app?vid=a799b814-e87d-43ac-8a37-da0fb079c15e"},"vehicle_type_id":"4","last_reported":1679573623,"current_range_meters":21200,"station_id":"ce4bhnp2rcd13ifvqgvg","pricing_plan_id":"free"},{"bike_id":"d69223d0-f9f5-4430-bc97-1088250dc2bc","system_id":"levelo_inurba_marseille","lat":43.240623,"lon":5.377642,"is_reserved":false,"is_disabled":false,"rental_uris":{"android":"levelo://app?vid=d69223d0-f9f5-4430-bc97-1088250dc2bc","ios":"levelo://app?vid=d69223d0-f9f5-4430-bc97-1088250dc2bc"},"vehicle_type_id":"4","last_reported":1679573623,"current_range_meters":5200,"station_id":"ce4bhnp2rcd13ifvqgvg","pricing_plan_id":"free"},{"bike_id":"569d3bbd-65dc-4255-8c5c-06ff055b3105","system_id":"levelo_inurba_marseille","lat":43.241782,"lon":5.397264,"is_reserved":false,"is_disabled":false,"rental_uris":{"android":"levelo://app?vid=569d3bbd-65dc-4255-8c5c-06ff055b3105","ios":"levelo://app?vid=569d3bbd-65dc-4255-8c5c-06ff055b3105"},"vehicle_type_id":"4","last_reported":1679573623,"current_range_meters":17200,"station_id":"ce4bhn12rcd13ifvqgpg","pricing_plan_id":"free"},{"bike_id":"769a695b-a29f-46d0-8780-72e7d99f657c","system_id":"levelo_inurba_marseille","lat":43.231919,"lon":5.355532,"is_reserved":false,"is_disabled":false,"rental_uris":{"android":"levelo://app?vid=769a695b-a29f-46d0-8780-72e7d99f657c","ios":"levelo://app?vid=769a695b-a29f-46d0-8780-72e7d99f657c"},"vehicle_type_id":"4","last_reported":1679573623,"current_range_meters":4800,"station_id":"ce4bhu92rcd13ifvqi70","pricing_plan_id":"free"},{"bike_id":"6916cc09-ef2f-4e78-b019-f46de5fe537f","system_id":"levelo_inurba_marseille","lat":43.231919,"lon":5.355532,"is_reserved":false,"is_disabled":false,"rental_uris":{"android":"levelo://app?vid=6916cc09-ef2f-4e78-b019-f46de5fe537f","ios":"levelo://app?vid=6916cc09-ef2f-4e78-b019-f46de5fe537f"},"vehicle_type_id":"4","last_reported":1679573623,"current_range_meters":28800,"station_id":"ce4bhu92rcd13ifvqi70","pricing_plan_id":"free"},{"bike_id":"ca3f1582-ad7f-4964-be95-4b6686f8048e","system_id":"levelo_inurba_marseille","lat":43.231919,"lon":5.355532,"is_reserved":false,"is_disabled":false,"rental_uris":{"android":"levelo://app?vid=ca3f1582-ad7f-4964-be95-4b6686f8048e","ios":"levelo://app?vid=ca3f1582-ad7f-4964-be95-4b6686f8048e"},"vehicle_type_id":"4","last_reported":1679573623,"current_range_meters":23600,"station_id":"ce4bhu92rcd13ifvqi70","pricing_plan_id":"free"}]}}