{"last_updated":1761871969,"ttl":60,"version":"2.2","data":{"bikes":[{"bike_id":"aacc01e3-6d9f-491a-b1ed-d10f639e29e2","system_id":"levelo_inurba_marseille","lat":43.337444,"lon":5.374475,"is_reserved":false,"is_disabled":false,"rental_uris":{"android":"levelo://app?vid=aacc01e3-6d9f-491a-b1ed-d10f639e29e2","ios":"levelo://app?vid=aacc01e3-6d9f-491a-b1ed-d10f639e29e2"},"vehicle_type_id":"4","last_reported":1761871969,"current_range_meters":0,"station_id":"","pricing_plan_id":"cebpf4jnsgd1na2vs0mg"},{"bike_id":"35ef2eb9-fe09-4124-a7ab-f792dcbd6ddc","system_id":"levelo_inurba_marseille","lat":43.337444,"lon":5.374475,"is_reserved":false,"is_disabled":false,"rental_uris":{"android":"levelo://app?vid=35ef2eb9-fe09-4124-a7ab-f792dcbd6ddc","ios":"levelo://app?vid=35ef2eb9-fe09-4124-a7ab-f792dcbd6ddc"},"vehicle_type_id":"4","last_reported":1761871969,"current_range_meters":0,"station_id":"","pricing_plan_id":"cebpf4jnsgd1na2vs0mg"},{"bike_id":"49ddb7e7-127c-434c-8992-2e05f2e3428d","system_id":"levelo_inurba_marseille","lat":43.337444,"lon":5.374475,"is_reserved":false,"is_disabled":false,"rental_uris":{"android":"levelo://app?vid=49ddb7e7-127c-434c-8992-2e05f2e3428d","ios":"levelo://app?vid=49ddb7e7-127c-434c-8992-2e05f2e3428d"},"vehicle_type_id":"4","last_reported":1761871969,"current_range_meters":0,"station_id":"","pricing_plan_id":"cebpf4jnsgd1na2vs0mg"},{"bike_id":"b3b460c5-2faa-45c2-8fde-7b54e8b4eaf5","system_id":"levelo_inurba_marseille","lat":43.337444,"lon":5.374475,"is_reserved":false,"is_disabled":false,"rental_uris":{"android":"levelo://app?vid=b3b460c5-2faa-45c2-8fde-7b54e8b4eaf5","ios":"levelo://app?vid=b3b460c5-2faa-45c2-8fde-7b54e8b4eaf5"},"vehicle_type_id":"4","last_reported":1761871969,"current_range_meters":0,"station_id":"","pricing_plan_id":"cebpf4jnsgd1na2vs0mg"},{"bike_id":"6b8eeff3-ec31-445f-be43-f1e3ba63fb37","system_id":"levelo_inurba_marseille","lat":43.337416,"lon":5.374586,"is_reserved":false,"is_disabled":false,"rental_uris":{"android":"levelo://app?vid=6b8eeff3-ec31-445f-be43-f1e3ba63fb37","ios":"levelo://app?vid=6b8eeff3-ec31-445f-be43-f1e3ba63fb37"},"vehicle_type_id":"4","last_reported":1761871969,"current_range_meters":0,"station_id":"","pricing_plan_id":"cebpf4jnsgd1na2vs0mg"},{"bike_id":"e0e86d10-d79a-47b9-82ad-a00ae7a62a8a","system_id":"levelo_inurba_marseille","lat":43.337444,"lon":5.374475,"is_reserved":false,"is_disabled":false,"rental_uris":{"android":"levelo://app?vid=e0e86d10-d79a-47b9-82ad-a00ae7a62a8a","ios":"levelo://app?vid=e0e86d10-d79a-47b9-82ad-a00ae7a62a8a"},"vehicle_type_id":"4","last_reported":1761871969,"current_range_meters":0,"station_id":"","pricing_plan_id":"cebpf4jnsgd1na2vs0mg"},{"bike_id":"548f1c45-4f2a-4cfe-b981-5bc1daecb21b","system_id":"levelo_inurba_marseille","lat":43.337444,"lon":5.374475,"is_reserved":false,"is_disabled":false,"rental_uris":{"android":"levelo://app?vid=548f1c45-4f2a-4cfe-b981-5bc1daecb21b","ios":"levelo://app?vid=548f1c45-4f2a-4cfe-b981-5bc1daecb21b"},"vehicle_type_id":"4","last_reported":1761871969,"current_range_meters":0,"station_id":"","pricing_plan_id":"cebpf4jnsgd1na2vs0mg"},{"bike_id":"5260dce0-6ede-4de4-b006-1466527b5fbe","system_id":"levelo_inurba_marseille","lat":43.337444,"lon":5.374475,"is_reserved":false,"is_disabled":false,"rental_uris":{"android":"levelo://app?vid=5260dce0-6ede-4de4-b006-1466527b5fbe","ios":"levelo://app?vid=5260dce0-6ede-4de4-b006-1466527b5fbe"},"vehicle_type_id":"4","last_reported":1761871969,"current_range_meters":0,"station_id":"","pricing_plan_id":"cebpf4jnsgd1na2vs0mg"},{"bike_id":"fb1816a3-8e74-463a-88d2-d6b63cf0a426","system_id":"levelo_inurba_marseille","lat":43.337444,"lon":5.374475,"is_reserved":false,"is_disabled":false,"rental_uris":{"android":"levelo://app?vid=fb1816a3-8e74-463a-88d2-d6b63cf0a426","ios":"levelo://app?vid=fb1816a3-8e74-463a-88d2-d6b63cf0a426"},"vehicle_type_id":"4","last_reported":1761871969,"current_range_meters":0,"station_id":"","pricing_plan_id":"cebpf4jnsgd1na2vs0mg"},{"bike_id":"3c881d8d-608f-4c39-9df3-b2aa54f8afcf","system_id":"levelo_inurba_marseille","lat":43.337444,"lon":5.374475,"is_reserved":false,"is_disabled":false,"rental_uris":{"android":"levelo://app?vid=3c881d8d-608f-4c39-9df3-b2aa54f8afcf","ios":"levelo://app?vid=3c881d8d-608f-4c39-9df3-b2aa54f8afcf"},"vehicle_type_id":"4","last_reported":1761871969,"current_range_meters":0,"station_id":"","pricing_plan_id":"cebpf4jnsgd1na2vs0mg"},{"bike_id":"a26e4937-215f-44d2-a8de-a7d3ec75d32b","system_id":"levelo_inurba_marseille","lat":43.337444,"lon":5.374475,"is_reserved":false,"is_disabled":false,"rental_uris":{"android":"levelo://app?vid=a26e4937-215f-44d2-a8de-a7d3ec75d32b","ios":"levelo://app?vid=a26e4937-215f-44d2-a8de-a7d3ec75d32b"},"vehicle_type_id":"4","last_reported":1761871969,"current_range_meters":0,"station_id":"","pricing_plan_id":"cebpf4jnsgd1na2vs0mg"},{"bike_id":"fadc4e19-b9ad-4402-a5bc-a0eff5c2b634","system_id":"levelo_inurba_marseille","lat":43.337444,"lon":5.374475,"is_reserved":false,"is_disabled":false,"rental_uris":{"android":"levelo://app?vid=fadc4e19-b9ad-4402-a5bc-a0eff5c2b634","ios":"levelo://app?vid=fadc4e19-b9ad-4402-a5bc-a0eff5c2b634"},"vehicle_type_id":"4","last_reported":1761871969,"current_range_meters":0,"station_id":"","pricing_plan_id":"cebpf4jnsgd1na2vs0mg"},{"bike_id":"e294c151-4441-4e4a-a116-13c66dfb9429","system_id":"levelo_inurba_marseille","lat":43.337444,"lon":5.374475,"is_reserved":false,"is_disabled":false,"rental_uris":{"android":"levelo://app?vid=e294c151-4441-4e4a-a116-13c66dfb9429","ios":"levelo://app?vid=e294c151-4441-4e4a-a116-13c66dfb9429"},"vehicle_type_id":"4","last_reported":1761871969,"current_range_meters":0,"station_id":"","pricing_plan_id":"cebpf4jnsgd1na2vs0mg"},{"bike_id":"0baff1cc-f548-40f7-a934-77958566d6a5","system_id":"levelo_inurba_marseille","lat":43.337444,"lon":5.374475,"is_reserved":false,"is_disabled":false,"rental_uris":{"android":"levelo://app?vid=0baff1cc-f548-40f7-a934-77958566d6a5","ios":"levelo://app?vid=0baff1cc-f548-40f7-a934-77958566d6a5"},"vehicle_type_id":"4","last_reported":1761871969,"current_range_meters":0,"station_id":"","pricing_plan_id":"cebpf4jnsgd1na2vs0mg"},{"bike_id":"1310c5d0-e39d-4b9c-84d7-1872f297ff18","system_id":"levelo_inurba_marseille","lat":43.337444,"lon":5.374475,"is_reserved":false,"is_disabled":false,"rental_uris":{"android":"levelo://app?vid=1310c5d0-e39d-4b9c-84d7-1872f297ff18","ios":"levelo://app?vid=1310c5d0-e39d-4b9c-84d7-1872f297ff18"},"vehicle_type_id":"4","last_reported":1761871969,"current_range_meters":0,"station_id":"","pricing_plan_id":"cebpf4jnsgd1na2vs0mg"},{"bike_id":"01eaacf7-8682-4054-bf38-52456d06e6f6","system_id":"levelo_inurba_marseille","lat":43.337444,"lon":5.374475,"is_reserved":false,"is_disabled":false,"rental_uris":{"android":"levelo://app?vid=01eaacf7-8682-4054-bf38-52456d06e6f6","ios":"levelo://app?vid=01eaacf7-8682-4054-bf38-52456d06e6f6"},"vehicle_type_id":"4","last_reported":1761871969,"current_range_meters":0,"station_id":"","pricing_plan_id":"cebpf4jnsgd1na2vs0mg"},{"bike_id":"4dbab57a-b708-409a-b815-3b9a5d92f753","system_id":"levelo_inurba_marseille","lat":43.337444,"lon":5.374475,"is_reserved":false,"is_disabled":false,"rental_uris":{"android":"levelo://app?vid=4dbab57a-b708-409a-b815-3b9a5d92f753","ios":"levelo://app?vid=4dbab57a-b708-409a-b815-3b9a5d92f753"},"vehicle_type_id":"4","last_reported":1761871969,"current_range_meters":0,"station_id":"","pricing_plan_id":"cebpf4jnsgd1na2vs0mg"},{"bike_id":"00f1260a-63f9-4663-ac1e-51258f9213bd","system_id":"levelo_inurba_marseille","lat":43.337444,"lon":5.374475,"is_reserved":false,"is_disabled":false,"rental_uris":{"android":"levelo://app?vid=00f1260a-63f9-4663-ac1e-51258f9213bd","ios":"levelo://app?vid=00f1260a-63f9-4663-ac1e-51258f9213bd"},"vehicle_type_id":"4","last_reported":1761871969,"current_range_meters":0,"station_id":"","pricing_plan_id":"cebpf4jnsgd1na2vs0mg"},{"bike_id":"50aa746e-d71a-437c-bb7a-ed648a03f81b","system_id":"levelo_inurba_marseille","lat":43.337444,"lon":5.374475,"is_reserved":false,"is_disabled":false,"rental_uris":{"android":"levelo://app?vid=50aa746e-d71a-437c-bb7a-ed648a03f81b","ios":"levelo://app?vid=50aa746e-d71a-437c-bb7a-ed648a03f81b"},"vehicle_type_id":"4","last_reported":1761871969,"current_range_meters":0,"station_id":"","pricing_plan_id":"cebpf4jnsgd1na2vs0mg"},{"bike_id":"3e68cf6e-17b6-46f5-8b08-d049449e0ca4","system_id":"levelo_inurba_marseille","lat":43.337444,"lon":5.374475,"is_reserved":false,"is_disabled":false,"rental_uris":{"android":"levelo://app?vid=3e68cf6e-17b6-46f5-8b08-d049449e0ca4","ios":"levelo://app?vid=3e68cf6e-17b6-46f5-8b08-d049449e0ca4"},"vehicle_type_id":"4","last_reported":1761871969,"current_range_meters":0,"station_id":"","pricing_plan_id":"cebpf4jnsgd1na2vs0mg"},{"bike_id":"b06c4997-7e4f-467a-922f-92f2f2e27e9d","system_id":"levelo_inurba_marseille","lat":43.337444,"lon":5.374475,"is_reserved":false,"is_disabled":false,"rental_uris":{"android":"levelo://app?vid=b06c4997-7e4f-467a-922f-92f2f2e27e9d","ios":"levelo://app?vid=b06c4997-7e4f-467a-922f-92f2f2e27e9d"},"vehicle_type_id":"4","last_reported":1761871969,"current_range_meters":0,"station_id":"","pricing_plan_id":"cebpf4jnsgd1na2vs0mg"},{"bike_id":"bb49b980-4cfb-49a5-9add-f3f9d4fc6db5","system_id":"levelo_inurba_marseille","lat":43.337444,"lon":5.374475,"is_reserved":false,"is_disabled":false,"rental_uris":{"android":"levelo://app?vid=bb49b980-4cfb-49a5-9add-f3f9d4fc6db5","ios":"levelo://app?vid=bb49b980-4cfb-49a5-9add-f3f9d4fc6db5"},"vehicle_type_id":"4","last_reported":1761871969,"current_range_meters":0,"station_id":"","pricing_plan_id":"cebpf4jnsgd1na2vs0mg"},{"bike_id":"b97206fc-6c94-4378-926a-a788d4f71c09","system_id":"levelo_inurba_marseille","lat":43.337444,"lon":5.374475,"is_reserved":false,"is_disabled":false,"rental_uris":{"android":"levelo://app?vid=b97206fc-6c94-4378-926a-a788d4f71c09","ios":"levelo://app?vid=b97206fc-6c94-4378-926a-a788d4f71c09"},"vehicle_type_id":"4","last_reported":1761871969,"current_range_meters":0,"station_id":"","pricing_plan_id":"cebpf4jnsgd1na2vs0mg"},{"bike_id":"37d7ebf5-2b3d-4af3-a7cd-4f29f464d5a0","system_id":"levelo_inurba_marseille","lat":43.337444,"lon":5.374475,"is_reserved":false,"is_disabled":false,"rental_uris":{"android":"levelo://app?vid=37d7ebf5-2b3d-4af3-a7cd-4f29f464d5a0","ios":"levelo://app?vid=37d7ebf5-2b3d-4af3-a7cd-4f29f464d5a0"},"vehicle_type_id":"4","last_reported":1761871969,"current_range_meters":0,"station_id":"","pricing_plan_id":"cebpf4jnsgd1na2vs0mg"},{"bike_id":"4ce4318f-b763-4325-8589-2aecbcc80add","system_id":"levelo_inurba_marseille","lat":43.337444,"lon":5.374475,"is_reserved":false,"is_disabled":false,"rental_uris":{"android":"levelo://app?vid=4ce4318f-b763-4325-8589-2aecbcc80add","ios":"levelo://app?vid=4ce4318f-b763-4325-8589-2aecbcc80add"},"vehicle_type_id":"4","last_reported":1761871969,"current_range_meters":0,"station_id":"","pricing_plan_id":"cebpf4jnsgd1na2vs0mg"},{"bike_id":"a6a3a590-5c2a-4683-a516-e9f5572de0f8","system_id":"levelo_inurba_marseille","lat":43.337444,"lon":5.374475,"is_reserved":false,"is_disabled":false,"rental_uris":{"android":"levelo://app?vid=a6a3a590-5c2a-4683-a516-e9f5572de0f8","ios":"levelo://app?vid=a6a3a590-5c2a-4683-a516-e9f5572de0f8"},"vehicle_type_id":"4","last_reported":1761871969,"current_range_meters":0,"station_id":"","pricing_plan_id":"cebpf4jnsgd1na2vs0mg"},{"bike_id":"111bdd74-3ae9-48f5-979c-2e177e7747d9","system_id":"levelo_inurba_marseille","lat":43.337444,"lon":5.374475,"is_reserved":false,"is_disabled":false,"rental_uris":{"android":"levelo://app?vid=111bdd74-3ae9-48f5-979c-2e177e7747d9","ios":"levelo://app?vid=111bdd74-3ae9-48f5-979c-2e177e7747d9"},"vehicle_type_id":"4","last_reported":1761871969,"current_range_meters":0,"station_id":"","pricing_plan_id":"cebpf4jnsgd1na2vs0mg"},{"bike_id":"b9d871b8-65b0-40af-afa3-0bf2492a45a9","system_id":"levelo_inurba_marseille","lat":43.337444,"lon":5.374475,"is_reserved":false,"is_disabled":false,"rental_uris":{"android":"levelo://app?vid=b9d871b8-65b0-40af-afa3-0bf2492a45a9","ios":"levelo://app?vid=b9d871b8-65b0-40af-afa3-0bf2492a45a9"},"vehicle_type_id":"4","last_reported":1761871969,"current_range_meters":0,"station_id":"","pricing_plan_id":"cebpf4jnsgd1na2vs0mg"},{"bike_id":"5bec735e-fcf4-48c7-8bdc-29590fc410b1","system_id":"levelo_inurba_marseille","lat":43.337444,"lon":5.374475,"is_reserved":false,"is_disabled":false,"rental_uris":{"android":"levelo://app?vid=5bec735e-fcf4-48c7-8bdc-29590fc410b1","ios":"levelo://app?vid=5bec735e-fcf4-48c7-8bdc-29590fc410b1"},"vehicle_type_id":"4","last_reported":1761871969,"current_range_meters":0,"station_id":"","pricing_plan_id":"cebpf4jnsgd1na2vs0mg"},{"bike_id":"026e76ec-bb30-48a3-8407-a17635ff5e4d","system_id":"levelo_inurba_marseille","lat":43.337444,"lon":5.374475,"is_reserved":false,"is_disabled":false,"rental_uris":{"android":"levelo://app?vid=026e76ec-bb30-48a3-8407-a17635ff5e4d","ios":"levelo://app?vid=026e76ec-bb30-48a3-8407-a17635ff5e4d"},"vehicle_type_id":"4","last_reported":1761871969,"current_range_meters":0,"station_id":"","pricing_plan_id":"cebpf4jnsgd1na2vs0mg"},{"bike_id":"46d34bff-7ac4-476c-bd3e-8e7dba53c807","system_id":"levelo_inurba_marseille","lat":43.337444,"lon":5.374475,"is_reserved":false,"is_disabled":false,"rental_uris":{"android":"levelo://app?vid=46d34bff-7ac4-476c-bd3e-8e7dba53c807","ios":"levelo://app?vid=46d34bff-7ac4-476c-bd3e-8e7dba53c807"},"vehicle_type_id":"4","last_reported":1761871969,"current_range_meters":0,"station_id":"","pricing_plan_id":"cebpf4jnsgd1na2vs0mg"},{"bike_id":"2c7e37d6-d4ca-47ae-a0e0-a648dd4e1706","system_id":"levelo_inurba_marseille","lat":43.337444,"lon":5.374475,"is_reserved":false,"is_disabled":false,"rental_uris":{"android":"levelo://app?vid=2c7e37d6-d4ca-47ae-a0e0-a648dd4e1706","ios":"levelo://app?vid=2c7e37d6-d4ca-47ae-a0e0-a648dd4e1706"},"vehicle_type_id":"4","last_reported":1761871969,"current_range_meters":0,"station_id":"","pricing_plan_id":"cebpf4jnsgd1na2vs0mg"},{"bike_id":"94eee6a6-2463-4d2a-b222-3ef19356212a","system_id":"levelo_inurba_marseille","lat":43.337444,"lon":5.374475,"is_reserved":false,"is_disabled":false,"rental_uris":{"android":"levelo://app?vid=94eee6a6-2463-4d2a-b222-3ef19356212a","ios":"levelo://app?vid=94eee6a6-2463-4d2a-b222-3ef19356212a"},"vehicle_type_id":"4","last_reported":1761871969,"current_range_meters":0,"station_id":"","pricing_plan_id":"cebpf4jnsgd1na2vs0mg"},{"bike_id":"4592e008-320c-4bcd-ae3b-d140e613f684","system_id":"levelo_inurba_marseille","lat":43.337444,"lon":5.374475,"is_reserved":false,"is_disabled":false,"rental_uris":{"android":"levelo://app?vid=4592e008-320c-4bcd-ae3b-d140e613f684","ios":"levelo://app?vid=4592e008-320c-4bcd-ae3b-d140e613f684"},"vehicle_type_id":"4","last_reported":1761871969,"current_range_meters":0,"station_id":"","pricing_plan_id":"cebpf4jnsgd1na2vs0mg"},{"bike_id":"5807ce94-1b62-42db-8c77-9488accc83d5","system_id":"levelo_inurba_marseille","lat":43.337444,"lon":5.374475,"is_reserved":false,"is_disabled":false,"rental_uris":{"android":"levelo://app?vid=5807ce94-1b62-42db-8c77-9488accc83d5","ios":"levelo://app?vid=5807ce94-1b62-42db-8c77-9488accc83d5"},"vehicle_type_id":"4","last_reported":1761871969,"current_range_meters":0,"station_id":"","pricing_plan_id":"cebpf4jnsgd1na2vs0mg"},{"bike_id":"f6adb9c1-4a78-4322-baec-aa5f6f5d93b6","system_id":"levelo_inurba_marseille","lat":43.337745,"lon":5.374164,"is_reserved":false,"is_disabled":false,"rental_uris":{"android":"levelo://app?vid=f6adb9c1-4a78-4322-baec-aa5f6f5d93b6","ios":"levelo://app?vid=f6adb9c1-4a78-4322-baec-aa5f6f5d93b6"},"vehicle_type_id":"4","last_reported":1761871969,"current_range_meters":2800,"station_id":"","pricing_plan_id":"cebpf4jnsgd1na2vs0mg"},{"bike_id":"8ea80026-9ba8-4595-9ad6-123bbf8727cd","system_id":"levelo_inurba_marseille","lat":43.30423,"lon":5.41292,"is_reserved":false,"is_disabled":true,"rental_uris":{"android":"levelo://app?vid=8ea80026-9ba8-4595-9ad6-123bbf8727cd","ios":"levelo://app?vid=8ea80026-9ba8-4595-9ad6-123bbf8727cd"},"vehicle_type_id":"4","last_reported":1761871969,"current_range_meters":3200,"station_id":"ce4bhop2rcd13ifvqh8g","pricing_plan_id":"cebpf4jnsgd1na2vs0mg"},{"bike_id":"5cb3f363-ac2f-4bc2-ad50-da3965e1e89b","system_id":"levelo_inurba_marseille","lat":43.24596,"lon":5.41571,"is_reserved":false,"is_disabled":false,"rental_uris":{"android":"levelo://app?vid=5cb3f363-ac2f-4bc2-ad50-da3965e1e89b","ios":"levelo://app?vid=5cb3f363-ac2f-4bc2-ad50-da3965e1e89b"},"vehicle_type_id":"4","last_reported":1761871969,"current_range_meters":3200,"station_id":"","pricing_plan_id":"cebpf4jnsgd1na2vs0mg"},{"bike_id":"fb24d37e-f8c9-4384-8dcf-aac53eeeef3a","system_id":"levelo_inurba_marseille","lat":43.27371,"lon":5.36257,"is_reserved":false,"is_disabled":false,"rental_uris":{"android":"levelo://app?vid=fb24d37e-f8c9-4384-8dcf-aac53eeeef3a","ios":"levelo://app?vid=fb24d37e-f8c9-4384-8dcf-aac53eeeef3a"},"vehicle_type_id":"4","last_reported":1761871969,"current_range_meters":3600,"station_id":"ce4bhbh2rcd13ifvqeo0","pricing_plan_id":"cebpf4jnsgd1na2vs0mg"},{"bike_id":"1ef5e637-d597-44b6-8ddf-7846196798c2","system_id":"levelo_inurba_marseille","lat":43.31367,"lon":5.385,"is_reserved":false,"is_disabled":false,"rental_uris":{"android":"levelo://app?vid=1ef5e637-d597-44b6-8ddf-7846196798c2","ios":"levelo://app?vid=1ef5e637-d597-44b6-8ddf-7846196798c2"},"vehicle_type_id":"4","last_reported":1761871969,"current_range_meters":3600,"station_id":"ce4bgt92rcd13ifvqcf0","pricing_plan_id":"cebpf4jnsgd1na2vs0mg"},{"bike_id":"ae8ebe94-fc0f-4409-8f77-39eb5c613a67","system_id":"levelo_inurba_marseille","lat":43.337444,"lon":5.374475,"is_reserved":false,"is_disabled":false,"rental_uris":{"android":"levelo://app?vid=ae8ebe94-fc0f-4409-8f77-39eb5c613a67","ios":"levelo://app?vid=ae8ebe94-fc0f-4409-8f77-39eb5c613a67"},"vehicle_type_id":"4","last_reported":1761871969,"current_range_meters":4400,"station_id":"","pricing_plan_id":"cebpf4jnsgd1na2vs0mg"},{"bike_id":"620e5477-098f-4fb2-9b42-6d70c4dc56d5","system_id":"levelo_inurba_marseille","lat":43.30172,"lon":5.38075,"is_reserved":false,"is_disabled":false,"rental_uris":{"android":"levelo://app?vid=620e5477-098f-4fb2-9b42-6d70c4dc56d5","ios":"levelo://app?vid=620e5477-098f-4fb2-9b42-6d70c4dc56d5"},"vehicle_type_id":"4","last_reported":1761871969,"current_range_meters":4400,"station_id":"ce4bgjp2rcd13ifvqbh0","pricing_plan_id":"cebpf4jnsgd1na2vs0mg"},{"bike_id":"197230c2-9bcf-471b-bea1-a7f2f30ab23f","system_id":"levelo_inurba_marseille","lat":43.29207,"lon":5.39317,"is_reserved":false,"is_disabled":false,"rental_uris":{"android":"levelo://app?vid=197230c2-9bcf-471b-bea1-a7f2f30ab23f","ios":"levelo://app?vid=197230c2-9bcf-471b-bea1-a7f2f30ab23f"},"vehicle_type_id":"4","last_reported":1761871969,"current_range_meters":4400,"station_id":"ce4bh192rcd13ifvqdd0","pricing_plan_id":"cebpf4jnsgd1na2vs0mg"},{"bike_id":"ec16bd93-6ad8-4ba9-8f07-4037ce9e9366","system_id":"levelo_inurba_marseille","lat":43.28733,"lon":5.36075,"is_reserved":false,"is_disabled":false,"rental_uris":{"android":"levelo://app?vid=ec16bd93-6ad8-4ba9-8f07-4037ce9e9366","ios":"levelo://app?vid=ec16bd93-6ad8-4ba9-8f07-4037ce9e9366"},"vehicle_type_id":"4","last_reported":1761871969,"current_range_meters":4800,"station_id":"cki0cbj6b192h4jlfktg","pricing_plan_id":"cebpf4jnsgd1na2vs0mg"},{"bike_id":"bdbe7573-5d0c-4c65-b2f6-650fe44677ee","system_id":"levelo_inurba_marseille","lat":43.24069,"lon":5.377679,"is_reserved":false,"is_disabled":false,"rental_uris":{"android":"levelo://app?vid=bdbe7573-5d0c-4c65-b2f6-650fe44677ee","ios":"levelo://app?vid=bdbe7573-5d0c-4c65-b2f6-650fe44677ee"},"vehicle_type_id":"4","last_reported":1761871969,"current_range_meters":4800,"station_id":"ce4bhnp2rcd13ifvqgvg","pricing_plan_id":"cebpf4jnsgd1na2vs0mg"},{"bike_id":"7db30370-454c-4ea0-a81d-1531212ebfce","system_id":"levelo_inurba_marseille","lat":43.295959,"lon":5.391612,"is_reserved":false,"is_disabled":true,"rental_uris":{"android":"levelo://app?vid=7db30370-454c-4ea0-a81d-1531212ebfce","ios":"levelo://app?vid=7db30370-454c-4ea0-a81d-1531212ebfce"},"vehicle_type_id":"4","last_reported":1761871969,"current_range_meters":4800,"station_id":"","pricing_plan_id":"cebpf4jnsgd1na2vs0mg"},{"bike_id":"e2e35269-30a5-4900-acfa-b3db6a523382","system_id":"levelo_inurba_marseille","lat":43.28146,"lon":5.37394,"is_reserved":false,"is_disabled":false,"rental_uris":{"android":"levelo://app?vid=e2e35269-30a5-4900-acfa-b3db6a523382","ios":"levelo://app?vid=e2e35269-30a5-4900-acfa-b3db6a523382"},"vehicle_type_id":"4","last_reported":1761871969,"current_range_meters":5600,"station_id":"","pricing_plan_id":"cebpf4jnsgd1na2vs0mg"},{"bike_id":"c6698ab8-b9c1-4ef6-8d1d-6b190a79e8e9","system_id":"levelo_inurba_marseille","lat":43.30968,"lon":5.3727,"is_reserved":false,"is_disabled":false,"rental_uris":{"android":"levelo://app?vid=c6698ab8-b9c1-4ef6-8d1d-6b190a79e8e9","ios":"levelo://app?vid=c6698ab8-b9c1-4ef6-8d1d-6b190a79e8e9"},"vehicle_type_id":"4","last_reported":1761871969,"current_range_meters":6000,"station_id":"","pricing_plan_id":"cebpf4jnsgd1na2vs0mg"},{"bike_id":"a9640c4a-acc8-4e5d-987d-02b20493be64","system_id":"levelo_inurba_marseille","lat":43.27963,"lon":5.38746,"is_reserved":false,"is_disabled":false,"rental_uris":{"android":"levelo://app?vid=a9640c4a-acc8-4e5d-987d-02b20493be64","ios":"levelo://app?vid=a9640c4a-acc8-4e5d-987d-02b20493be64"},"vehicle_type_id":"4","last_reported":1761871969,"current_range_meters":6000,"station_id":"ce4bhg12rcd13ifvqf80","pricing_plan_id":"cebpf4jnsgd1na2vs0mg"},{"bike_id":"e85dc3bf-df6a-446b-914b-75189d622bbb","system_id":"levelo_inurba_marseille","lat":43.30185,"lon":5.38578,"is_reserved":false,"is_disabled":false,"rental_uris":{"android":"levelo://app?vid=e85dc3bf-df6a-446b-914b-75189d622bbb","ios":"levelo://app?vid=e85dc3bf-df6a-446b-914b-75189d622bbb"},"vehicle_type_id":"4","last_reported":1761871969,"current_range_meters":6000,"station_id":"","pricing_plan_id":"cebpf4jnsgd1na2vs0mg"},{"bike_id":"3ac65f13-3b2c-4d2f-b9b1-b563d58bebf7","system_id":"levelo_inurba_marseille","lat":43.31123,"lon":5.37753,"is_reserved":false,"is_disabled":false,"rental_uris":{"android":"levelo://app?vid=3ac65f13-3b2c-4d2f-b9b1-b563d58bebf7","ios":"levelo://app?vid=3ac65f13-3b2c-4d2f-b9b1-b563d58bebf7"},"vehicle_type_id":"4","last_reported":1761871969,"current_range_meters":6000,"station_id":"ce4bgt92rcd13ifvqcg0","pricing_plan_id":"cebpf4jnsgd1na2vs0mg"},{"bike_id":"7632d16b-d979-4d51-bdc3-d7a8dfdd012b","system_id":"levelo_inurba_marseille","lat":43.33033,"lon":5.39035,"is_reserved":false,"is_disabled":false,"rental_uris":{"android":"levelo://app?vid=7632d16b-d979-4d51-bdc3-d7a8dfdd012b","ios":"levelo://app?vid=7632d16b-d979-4d51-bdc3-d7a8dfdd012b"},"vehicle_type_id":"4","last_reported":1761871969,"current_range_meters":6000,"station_id":"ce4bhr92rcd13ifvqhrg","pricing_plan_id":"cebpf4jnsgd1na2vs0mg"},{"bike_id":"939094c0-e804-49f9-9d7f-a9320b690e8b","system_id":"levelo_inurba_marseille","lat":43.25867,"lon":5.39894,"is_reserved":false,"is_disabled":false,"rental_uris":{"android":"levelo://app?vid=939094c0-e804-49f9-9d7f-a9320b690e8b","ios":"levelo://app?vid=939094c0-e804-49f9-9d7f-a9320b690e8b"},"vehicle_type_id":"4","last_reported":1761871969,"current_range_meters":6400,"station_id":"ce4bhl92rcd13ifvqghg","pricing_plan_id":"cebpf4jnsgd1na2vs0mg"},{"bike_id":"baeea4d6-b0b3-4e83-af9b-0fb2379be4c2","system_id":"levelo_inurba_marseille","lat":43.23963,"lon":5.3663,"is_reserved":false,"is_disabled":false,"rental_uris":{"android":"levelo://app?vid=baeea4d6-b0b3-4e83-af9b-0fb2379be4c2","ios":"levelo://app?vid=baeea4d6-b0b3-4e83-af9b-0fb2379be4c2"},"vehicle_type_id":"4","last_reported":1761871969,"current_range_meters":6400,"station_id":"ce4bhi12rcd13ifvqfp0","pricing_plan_id":"cebpf4jnsgd1na2vs0mg"},{"bike_id":"847a5ce2-6977-4160-82f0-f3e1e11a4d4d","system_id":"levelo_inurba_marseille","lat":43.279434,"lon":5.410495,"is_reserved":false,"is_disabled":false,"rental_uris":{"android":"levelo://app?vid=847a5ce2-6977-4160-82f0-f3e1e11a4d4d","ios":"levelo://app?vid=847a5ce2-6977-4160-82f0-f3e1e11a4d4d"},"vehicle_type_id":"4","last_reported":1761871969,"current_range_meters":6800,"station_id":"ce4bhnp2rcd13ifvqh0g","pricing_plan_id":"cebpf4jnsgd1na2vs0mg"},{"bike_id":"ada49a78-4ba0-4202-84cc-dc1fb9ca9296","system_id":"levelo_inurba_marseille","lat":43.3093,"lon":5.4014,"is_reserved":false,"is_disabled":false,"rental_uris":{"android":"levelo://app?vid=ada49a78-4ba0-4202-84cc-dc1fb9ca9296","ios":"levelo://app?vid=ada49a78-4ba0-4202-84cc-dc1fb9ca9296"},"vehicle_type_id":"4","last_reported":1761871969,"current_range_meters":6800,"station_id":"ce4bgvp2rcd13ifvqct0","pricing_plan_id":"cebpf4jnsgd1na2vs0mg"},{"bike_id":"78abc191-d83d-47fd-ba50-61243a381451","system_id":"levelo_inurba_marseille","lat":43.265696,"lon":5.372958,"is_reserved":false,"is_disabled":false,"rental_uris":{"android":"levelo://app?vid=78abc191-d83d-47fd-ba50-61243a381451","ios":"levelo://app?vid=78abc191-d83d-47fd-ba50-61243a381451"},"vehicle_type_id":"4","last_reported":1761871969,"current_range_meters":6800,"station_id":"ce4bhg12rcd13ifvqf70","pricing_plan_id":"cebpf4jnsgd1na2vs0mg"},{"bike_id":"8dbf5717-e215-40e8-96a7-f5ec79f3d133","system_id":"levelo_inurba_marseille","lat":43.24073,"lon":5.37758,"is_reserved":false,"is_disabled":false,"rental_uris":{"android":"levelo://app?vid=8dbf5717-e215-40e8-96a7-f5ec79f3d133","ios":"levelo://app?vid=8dbf5717-e215-40e8-96a7-f5ec79f3d133"},"vehicle_type_id":"4","last_reported":1761871969,"current_range_meters":7200,"station_id":"ce4bhnp2rcd13ifvqgvg","pricing_plan_id":"cebpf4jnsgd1na2vs0mg"},{"bike_id":"d9a3637a-3954-4c82-b9fc-b5f917758005","system_id":"levelo_inurba_marseille","lat":43.282048,"lon":5.390559,"is_reserved":false,"is_disabled":true,"rental_uris":{"android":"levelo://app?vid=d9a3637a-3954-4c82-b9fc-b5f917758005","ios":"levelo://app?vid=d9a3637a-3954-4c82-b9fc-b5f917758005"},"vehicle_type_id":"4","last_reported":1761871969,"current_range_meters":7200,"station_id":"ce4bhn92rcd13ifvqgsg","pricing_plan_id":"cebpf4jnsgd1na2vs0mg"},{"bike_id":"faee4aed-34d1-4e59-9f3e-bc2337688920","system_id":"levelo_inurba_marseille","lat":43.317117,"lon":5.436915,"is_reserved":false,"is_disabled":true,"rental_uris":{"android":"levelo://app?vid=faee4aed-34d1-4e59-9f3e-bc2337688920","ios":"levelo://app?vid=faee4aed-34d1-4e59-9f3e-bc2337688920"},"vehicle_type_id":"4","last_reported":1761871969,"current_range_meters":7200,"station_id":"ce4bhp92rcd13ifvqhcg","pricing_plan_id":"cebpf4jnsgd1na2vs0mg"},{"bike_id":"d0ec133a-6df4-42fe-b520-5dce0c16e051","system_id":"levelo_inurba_marseille","lat":43.28675,"lon":5.36325,"is_reserved":false,"is_disabled":false,"rental_uris":{"android":"levelo://app?vid=d0ec133a-6df4-42fe-b520-5dce0c16e051","ios":"levelo://app?vid=d0ec133a-6df4-42fe-b520-5dce0c16e051"},"vehicle_type_id":"4","last_reported":1761871969,"current_range_meters":8000,"station_id":"ce4bhah2rcd13ifvqej0","pricing_plan_id":"cebpf4jnsgd1na2vs0mg"},{"bike_id":"a0cdcbbe-9c33-4dad-8eab-969bdc2939b6","system_id":"levelo_inurba_marseille","lat":43.231822,"lon":5.399865,"is_reserved":false,"is_disabled":false,"rental_uris":{"android":"levelo://app?vid=a0cdcbbe-9c33-4dad-8eab-969bdc2939b6","ios":"levelo://app?vid=a0cdcbbe-9c33-4dad-8eab-969bdc2939b6"},"vehicle_type_id":"4","last_reported":1761871969,"current_range_meters":8000,"station_id":"ce4bhn12rcd13ifvqgqg","pricing_plan_id":"cebpf4jnsgd1na2vs0mg"},{"bike_id":"85afd5da-6093-45b2-8e67-e004b6249797","system_id":"levelo_inurba_marseille","lat":43.284377,"lon":5.391879,"is_reserved":false,"is_disabled":true,"rental_uris":{"android":"levelo://app?vid=85afd5da-6093-45b2-8e67-e004b6249797","ios":"levelo://app?vid=85afd5da-6093-45b2-8e67-e004b6249797"},"vehicle_type_id":"4","last_reported":1761871969,"current_range_meters":8000,"station_id":"ce4bhoh2rcd13ifvqh5g","pricing_plan_id":"cebpf4jnsgd1na2vs0mg"},{"bike_id":"cc2e82cb-5ccb-439b-b8b9-bc00f724273f","system_id":"levelo_inurba_marseille","lat":43.229729,"lon":5.437075,"is_reserved":false,"is_disabled":false,"rental_uris":{"android":"levelo://app?vid=cc2e82cb-5ccb-439b-b8b9-bc00f724273f","ios":"levelo://app?vid=cc2e82cb-5ccb-439b-b8b9-bc00f724273f"},"vehicle_type_id":"4","last_reported":1761871969,"current_range_meters":8000,"station_id":"","pricing_plan_id":"cebpf4jnsgd1na2vs0mg"},{"bike_id":"4042a8e6-9f9d-4750-97a0-8691b363476d","system_id":"levelo_inurba_marseille","lat":43.28863,"lon":5.39661,"is_reserved":false,"is_disabled":false,"rental_uris":{"android":"levelo://app?vid=4042a8e6-9f9d-4750-97a0-8691b363476d","ios":"levelo://app?vid=4042a8e6-9f9d-4750-97a0-8691b363476d"},"vehicle_type_id":"4","last_reported":1761871969,"current_range_meters":8400,"station_id":"","pricing_plan_id":"cebpf4jnsgd1na2vs0mg"},{"bike_id":"0a481d9a-9123-4a65-a86c-60ab22d1b23b","system_id":"levelo_inurba_marseille","lat":43.28103,"lon":5.37831,"is_reserved":false,"is_disabled":false,"rental_uris":{"android":"levelo://app?vid=0a481d9a-9123-4a65-a86c-60ab22d1b23b","ios":"levelo://app?vid=0a481d9a-9123-4a65-a86c-60ab22d1b23b"},"vehicle_type_id":"4","last_reported":1761871969,"current_range_meters":8400,"station_id":"ce4bha12rcd13ifvqee0","pricing_plan_id":"cebpf4jnsgd1na2vs0mg"},{"bike_id":"675fbbed-ce78-4d60-9402-95ebf4cc8856","system_id":"levelo_inurba_marseille","lat":43.30325,"lon":5.40437,"is_reserved":false,"is_disabled":false,"rental_uris":{"android":"levelo://app?vid=675fbbed-ce78-4d60-9402-95ebf4cc8856","ios":"levelo://app?vid=675fbbed-ce78-4d60-9402-95ebf4cc8856"},"vehicle_type_id":"4","last_reported":1761871969,"current_range_meters":8400,"station_id":"ce4bh012rcd13ifvqd10","pricing_plan_id":"cebpf4jnsgd1na2vs0mg"},{"bike_id":"46f3e991-c55b-4d9d-9a37-f9e3e15f4f3f","system_id":"levelo_inurba_marseille","lat":43.211982,"lon":5.350624,"is_reserved":false,"is_disabled":false,"rental_uris":{"android":"levelo://app?vid=46f3e991-c55b-4d9d-9a37-f9e3e15f4f3f","ios":"levelo://app?vid=46f3e991-c55b-4d9d-9a37-f9e3e15f4f3f"},"vehicle_type_id":"4","last_reported":1761871969,"current_range_meters":8400,"station_id":"st_cvj6sg6p6f1abm77japg","pricing_plan_id":"cebpf4jnsgd1na2vs0mg"},{"bike_id":"99090b5e-22e9-4015-b9f6-26f8b5b662be","system_id":"levelo_inurba_marseille","lat":43.28044,"lon":5.36952,"is_reserved":false,"is_disabled":false,"rental_uris":{"android":"levelo://app?vid=99090b5e-22e9-4015-b9f6-26f8b5b662be","ios":"levelo://app?vid=99090b5e-22e9-4015-b9f6-26f8b5b662be"},"vehicle_type_id":"4","last_reported":1761871969,"current_range_meters":8400,"station_id":"ce4bha12rcd13ifvqef0","pricing_plan_id":"cebpf4jnsgd1na2vs0mg"},{"bike_id":"9040e6ff-4581-4048-9ee4-d5be01b56b04","system_id":"levelo_inurba_marseille","lat":43.24669,"lon":5.38152,"is_reserved":false,"is_disabled":false,"rental_uris":{"android":"levelo://app?vid=9040e6ff-4581-4048-9ee4-d5be01b56b04","ios":"levelo://app?vid=9040e6ff-4581-4048-9ee4-d5be01b56b04"},"vehicle_type_id":"4","last_reported":1761871969,"current_range_meters":8400,"station_id":"ce4bhih2rcd13ifvqfr0","pricing_plan_id":"cebpf4jnsgd1na2vs0mg"},{"bike_id":"f3feeff6-d410-4cea-8ba1-9870dc4ec990","system_id":"levelo_inurba_marseille","lat":43.31004,"lon":5.37927,"is_reserved":false,"is_disabled":false,"rental_uris":{"android":"levelo://app?vid=f3feeff6-d410-4cea-8ba1-9870dc4ec990","ios":"levelo://app?vid=f3feeff6-d410-4cea-8ba1-9870dc4ec990"},"vehicle_type_id":"4","last_reported":1761871969,"current_range_meters":8400,"station_id":"","pricing_plan_id":"cebpf4jnsgd1na2vs0mg"},{"bike_id":"22878d24-6d09-4c78-8701-97568c72061f","system_id":"levelo_inurba_marseille","lat":43.30804,"lon":5.37671,"is_reserved":false,"is_disabled":false,"rental_uris":{"android":"levelo://app?vid=22878d24-6d09-4c78-8701-97568c72061f","ios":"levelo://app?vid=22878d24-6d09-4c78-8701-97568c72061f"},"vehicle_type_id":"4","last_reported":1761871969,"current_range_meters":8800,"station_id":"ce4bgv92rcd13ifvqcq0","pricing_plan_id":"cebpf4jnsgd1na2vs0mg"},{"bike_id":"ab51cbf5-8fec-4e8c-ae67-08339ec1ea29","system_id":"levelo_inurba_marseille","lat":43.31071,"lon":5.38344,"is_reserved":false,"is_disabled":false,"rental_uris":{"android":"levelo://app?vid=ab51cbf5-8fec-4e8c-ae67-08339ec1ea29","ios":"levelo://app?vid=ab51cbf5-8fec-4e8c-ae67-08339ec1ea29"},"vehicle_type_id":"4","last_reported":1761871969,"current_range_meters":8800,"station_id":"ce4bgv92rcd13ifvqcr0","pricing_plan_id":"cebpf4jnsgd1na2vs0mg"},{"bike_id":"042eb4d1-99b1-43de-9077-0ac524ce70f9","system_id":"levelo_inurba_marseille","lat":43.279126,"lon":5.395811,"is_reserved":false,"is_disabled":false,"rental_uris":{"android":"levelo://app?vid=042eb4d1-99b1-43de-9077-0ac524ce70f9","ios":"levelo://app?vid=042eb4d1-99b1-43de-9077-0ac524ce70f9"},"vehicle_type_id":"4","last_reported":1761871969,"current_range_meters":8800,"station_id":"ce4bhf92rcd13ifvqf40","pricing_plan_id":"cebpf4jnsgd1na2vs0mg"},{"bike_id":"3a217d2d-0c7e-4d79-a702-b9135e90946e","system_id":"levelo_inurba_marseille","lat":43.28159,"lon":5.42631,"is_reserved":false,"is_disabled":false,"rental_uris":{"android":"levelo://app?vid=3a217d2d-0c7e-4d79-a702-b9135e90946e","ios":"levelo://app?vid=3a217d2d-0c7e-4d79-a702-b9135e90946e"},"vehicle_type_id":"4","last_reported":1761871969,"current_range_meters":8800,"station_id":"ce4bhnh2rcd13ifvqgug","pricing_plan_id":"cebpf4jnsgd1na2vs0mg"},{"bike_id":"53c1e4c1-be5b-45c9-b2c7-e603e7ed276a","system_id":"levelo_inurba_marseille","lat":43.257169,"lon":5.411116,"is_reserved":false,"is_disabled":false,"rental_uris":{"android":"levelo://app?vid=53c1e4c1-be5b-45c9-b2c7-e603e7ed276a","ios":"levelo://app?vid=53c1e4c1-be5b-45c9-b2c7-e603e7ed276a"},"vehicle_type_id":"4","last_reported":1761871969,"current_range_meters":8800,"station_id":"ce4bhkp2rcd13ifvqgd0","pricing_plan_id":"cebpf4jnsgd1na2vs0mg"},{"bike_id":"5f5666a5-d032-4e1e-b253-47ea3c6f3d8e","system_id":"levelo_inurba_marseille","lat":43.28213,"lon":5.39056,"is_reserved":false,"is_disabled":false,"rental_uris":{"android":"levelo://app?vid=5f5666a5-d032-4e1e-b253-47ea3c6f3d8e","ios":"levelo://app?vid=5f5666a5-d032-4e1e-b253-47ea3c6f3d8e"},"vehicle_type_id":"4","last_reported":1761871969,"current_range_meters":8800,"station_id":"ce4bhn92rcd13ifvqgsg","pricing_plan_id":"cebpf4jnsgd1na2vs0mg"},{"bike_id":"1e73e3bb-a72d-4d5e-8834-88e1188adc1d","system_id":"levelo_inurba_marseille","lat":43.29888,"lon":5.38422,"is_reserved":false,"is_disabled":false,"rental_uris":{"android":"levelo://app?vid=1e73e3bb-a72d-4d5e-8834-88e1188adc1d","ios":"levelo://app?vid=1e73e3bb-a72d-4d5e-8834-88e1188adc1d"},"vehicle_type_id":"4","last_reported":1761871969,"current_range_meters":9200,"station_id":"","pricing_plan_id":"cebpf4jnsgd1na2vs0mg"},{"bike_id":"59fc4896-d387-43ff-9fc6-2d5ab0606c0c","system_id":"levelo_inurba_marseille","lat":43.28461,"lon":5.35888,"is_reserved":false,"is_disabled":false,"rental_uris":{"android":"levelo://app?vid=59fc4896-d387-43ff-9fc6-2d5ab0606c0c","ios":"levelo://app?vid=59fc4896-d387-43ff-9fc6-2d5ab0606c0c"},"vehicle_type_id":"4","last_reported":1761871969,"current_range_meters":9200,"station_id":"ce4bhah2rcd13ifvqei0","pricing_plan_id":"cebpf4jnsgd1na2vs0mg"},{"bike_id":"8d725e48-703a-4cc3-8d83-e643d9c2a108","system_id":"levelo_inurba_marseille","lat":43.30797,"lon":5.43515,"is_reserved":false,"is_disabled":false,"rental_uris":{"android":"levelo://app?vid=8d725e48-703a-4cc3-8d83-e643d9c2a108","ios":"levelo://app?vid=8d725e48-703a-4cc3-8d83-e643d9c2a108"},"vehicle_type_id":"4","last_reported":1761871969,"current_range_meters":9200,"station_id":"","pricing_plan_id":"cebpf4jnsgd1na2vs0mg"},{"bike_id":"eb5a1371-1544-4237-81ed-a57acf2690e3","system_id":"levelo_inurba_marseille","lat":43.28367,"lon":5.38633,"is_reserved":false,"is_disabled":false,"rental_uris":{"android":"levelo://app?vid=eb5a1371-1544-4237-81ed-a57acf2690e3","ios":"levelo://app?vid=eb5a1371-1544-4237-81ed-a57acf2690e3"},"vehicle_type_id":"4","last_reported":1761871969,"current_range_meters":9600,"station_id":"ce4bh492rcd13ifvqdvg","pricing_plan_id":"cebpf4jnsgd1na2vs0mg"},{"bike_id":"6fff56e2-dc33-4322-9554-e738206d1bc0","system_id":"levelo_inurba_marseille","lat":43.21186,"lon":5.35068,"is_reserved":false,"is_disabled":false,"rental_uris":{"android":"levelo://app?vid=6fff56e2-dc33-4322-9554-e738206d1bc0","ios":"levelo://app?vid=6fff56e2-dc33-4322-9554-e738206d1bc0"},"vehicle_type_id":"4","last_reported":1761871969,"current_range_meters":9600,"station_id":"st_cvj6sg6p6f1abm77japg","pricing_plan_id":"cebpf4jnsgd1na2vs0mg"},{"bike_id":"59c8dc23-6a88-453c-9305-cf11fe5fdcf0","system_id":"levelo_inurba_marseille","lat":43.23151,"lon":5.43716,"is_reserved":false,"is_disabled":false,"rental_uris":{"android":"levelo://app?vid=59c8dc23-6a88-453c-9305-cf11fe5fdcf0","ios":"levelo://app?vid=59c8dc23-6a88-453c-9305-cf11fe5fdcf0"},"vehicle_type_id":"4","last_reported":1761871969,"current_range_meters":9600,"station_id":"ce4bhmp2rcd13ifvqgog","pricing_plan_id":"cebpf4jnsgd1na2vs0mg"},{"bike_id":"299b6d25-0432-40b3-b88d-599bdb7cfc7b","system_id":"levelo_inurba_marseille","lat":43.29541,"lon":5.39025,"is_reserved":false,"is_disabled":true,"rental_uris":{"android":"levelo://app?vid=299b6d25-0432-40b3-b88d-599bdb7cfc7b","ios":"levelo://app?vid=299b6d25-0432-40b3-b88d-599bdb7cfc7b"},"vehicle_type_id":"4","last_reported":1761871969,"current_range_meters":9600,"station_id":"ce4bh3p2rcd13ifvqdp0","pricing_plan_id":"cebpf4jnsgd1na2vs0mg"},{"bike_id":"2db2a9a1-d059-4ac4-9b86-ca30546cc040","system_id":"levelo_inurba_marseille","lat":43.29839,"lon":5.3628,"is_reserved":false,"is_disabled":false,"rental_uris":{"android":"levelo://app?vid=2db2a9a1-d059-4ac4-9b86-ca30546cc040","ios":"levelo://app?vid=2db2a9a1-d059-4ac4-9b86-ca30546cc040"},"vehicle_type_id":"4","last_reported":1761871969,"current_range_meters":9600,"station_id":"ce4bgpp2rcd13ifvqc3g","pricing_plan_id":"cebpf4jnsgd1na2vs0mg"},{"bike_id":"9e3564a3-3b3b-4a4a-a9e5-f73e91e05ce8","system_id":"levelo_inurba_marseille","lat":43.309105,"lon":5.368464,"is_reserved":false,"is_disabled":true,"rental_uris":{"android":"levelo://app?vid=9e3564a3-3b3b-4a4a-a9e5-f73e91e05ce8","ios":"levelo://app?vid=9e3564a3-3b3b-4a4a-a9e5-f73e91e05ce8"},"vehicle_type_id":"4","last_reported":1761871969,"current_range_meters":9600,"station_id":"ce4bgn92rcd13ifvqbvg","pricing_plan_id":"cebpf4jnsgd1na2vs0mg"},{"bike_id":"5d9d3525-7a41-4126-a5b1-68a6bb3fb552","system_id":"levelo_inurba_marseille","lat":43.28942,"lon":5.39642,"is_reserved":false,"is_disabled":false,"rental_uris":{"android":"levelo://app?vid=5d9d3525-7a41-4126-a5b1-68a6bb3fb552","ios":"levelo://app?vid=5d9d3525-7a41-4126-a5b1-68a6bb3fb552"},"vehicle_type_id":"4","last_reported":1761871969,"current_range_meters":9600,"station_id":"ce4bh3h2rcd13ifvqdn0","pricing_plan_id":"cebpf4jnsgd1na2vs0mg"},{"bike_id":"e1e2a457-df19-4b98-90a8-25aeb1c4995a","system_id":"levelo_inurba_marseille","lat":43.260217,"lon":5.417475,"is_reserved":false,"is_disabled":false,"rental_uris":{"android":"levelo://app?vid=e1e2a457-df19-4b98-90a8-25aeb1c4995a","ios":"levelo://app?vid=e1e2a457-df19-4b98-90a8-25aeb1c4995a"},"vehicle_type_id":"4","last_reported":1761871969,"current_range_meters":10000,"station_id":"","pricing_plan_id":"cebpf4jnsgd1na2vs0mg"},{"bike_id":"942cb668-9ab0-4e5e-8a02-78f93e17c71e","system_id":"levelo_inurba_marseille","lat":43.29995,"lon":5.38317,"is_reserved":false,"is_disabled":false,"rental_uris":{"android":"levelo://app?vid=942cb668-9ab0-4e5e-8a02-78f93e17c71e","ios":"levelo://app?vid=942cb668-9ab0-4e5e-8a02-78f93e17c71e"},"vehicle_type_id":"4","last_reported":1761871969,"current_range_meters":10000,"station_id":"","pricing_plan_id":"cebpf4jnsgd1na2vs0mg"},{"bike_id":"22219237-c8df-4ea1-8cfc-d971c5dcd449","system_id":"levelo_inurba_marseille","lat":43.24034,"lon":5.37771,"is_reserved":false,"is_disabled":false,"rental_uris":{"android":"levelo://app?vid=22219237-c8df-4ea1-8cfc-d971c5dcd449","ios":"levelo://app?vid=22219237-c8df-4ea1-8cfc-d971c5dcd449"},"vehicle_type_id":"4","last_reported":1761871969,"current_range_meters":10000,"station_id":"ce4bhnp2rcd13ifvqgvg","pricing_plan_id":"cebpf4jnsgd1na2vs0mg"},{"bike_id":"003dc589-afc6-47c4-a84a-e90cd5f91109","system_id":"levelo_inurba_marseille","lat":43.29541,"lon":5.39031,"is_reserved":false,"is_disabled":true,"rental_uris":{"android":"levelo://app?vid=003dc589-afc6-47c4-a84a-e90cd5f91109","ios":"levelo://app?vid=003dc589-afc6-47c4-a84a-e90cd5f91109"},"vehicle_type_id":"4","last_reported":1761871969,"current_range_meters":10000,"station_id":"ce4bh3p2rcd13ifvqdp0","pricing_plan_id":"cebpf4jnsgd1na2vs0mg"},{"bike_id":"688e0991-23bb-4f67-a97d-b9bb7704a66a","system_id":"levelo_inurba_marseille","lat":43.29255,"lon":5.39101,"is_reserved":false,"is_disabled":false,"rental_uris":{"android":"levelo://app?vid=688e0991-23bb-4f67-a97d-b9bb7704a66a","ios":"levelo://app?vid=688e0991-23bb-4f67-a97d-b9bb7704a66a"},"vehicle_type_id":"4","last_reported":1761871969,"current_range_meters":10000,"station_id":"","pricing_plan_id":"cebpf4jnsgd1na2vs0mg"},{"bike_id":"eb98d852-e103-4ef2-ad42-c16d73c8a137","system_id":"levelo_inurba_marseille","lat":43.28449,"lon":5.39187,"is_reserved":false,"is_disabled":false,"rental_uris":{"android":"levelo://app?vid=eb98d852-e103-4ef2-ad42-c16d73c8a137","ios":"levelo://app?vid=eb98d852-e103-4ef2-ad42-c16d73c8a137"},"vehicle_type_id":"4","last_reported":1761871969,"current_range_meters":10000,"station_id":"ce4bhoh2rcd13ifvqh5g","pricing_plan_id":"cebpf4jnsgd1na2vs0mg"},{"bike_id":"f4a5a183-0926-486a-8550-d668b3972be5","system_id":"levelo_inurba_marseille","lat":43.29799,"lon":5.40395,"is_reserved":false,"is_disabled":false,"rental_uris":{"android":"levelo://app?vid=f4a5a183-0926-486a-8550-d668b3972be5","ios":"levelo://app?vid=f4a5a183-0926-486a-8550-d668b3972be5"},"vehicle_type_id":"4","last_reported":1761871969,"current_range_meters":10000,"station_id":"ce4bh112rcd13ifvqd90","pricing_plan_id":"cebpf4jnsgd1na2vs0mg"},{"bike_id":"92cd4286-2795-4dfc-aa9c-1856b13fec66","system_id":"levelo_inurba_marseille","lat":43.30962,"lon":5.40213,"is_reserved":false,"is_disabled":false,"rental_uris":{"android":"levelo://app?vid=92cd4286-2795-4dfc-aa9c-1856b13fec66","ios":"levelo://app?vid=92cd4286-2795-4dfc-aa9c-1856b13fec66"},"vehicle_type_id":"4","last_reported":1761871969,"current_range_meters":10000,"station_id":"ce4bgvp2rcd13ifvqct0","pricing_plan_id":"cebpf4jnsgd1na2vs0mg"},{"bike_id":"3126ce35-4101-4b06-a7b2-19548fb25089","system_id":"levelo_inurba_marseille","lat":43.21195,"lon":5.35061,"is_reserved":false,"is_disabled":false,"rental_uris":{"android":"levelo://app?vid=3126ce35-4101-4b06-a7b2-19548fb25089","ios":"levelo://app?vid=3126ce35-4101-4b06-a7b2-19548fb25089"},"vehicle_type_id":"4","last_reported":1761871969,"current_range_meters":10000,"station_id":"st_cvj6sg6p6f1abm77japg","pricing_plan_id":"cebpf4jnsgd1na2vs0mg"},{"bike_id":"6c3f8b32-c115-4971-ab70-7ce53698f0ed","system_id":"levelo_inurba_marseille","lat":43.28163,"lon":5.42648,"is_reserved":false,"is_disabled":false,"rental_uris":{"android":"levelo://app?vid=6c3f8b32-c115-4971-ab70-7ce53698f0ed","ios":"levelo://app?vid=6c3f8b32-c115-4971-ab70-7ce53698f0ed"},"vehicle_type_id":"4","last_reported":1761871969,"current_range_meters":10000,"station_id":"ce4bhnh2rcd13ifvqgug","pricing_plan_id":"cebpf4jnsgd1na2vs0mg"},{"bike_id":"cef16cfa-31dd-4eb2-aa82-7f9a91ec0f7a","system_id":"levelo_inurba_marseille","lat":43.28074,"lon":5.39664,"is_reserved":false,"is_disabled":false,"rental_uris":{"android":"levelo://app?vid=cef16cfa-31dd-4eb2-aa82-7f9a91ec0f7a","ios":"levelo://app?vid=cef16cfa-31dd-4eb2-aa82-7f9a91ec0f7a"},"vehicle_type_id":"4","last_reported":1761871969,"current_range_meters":10800,"station_id":"ce4bho12rcd13ifvqh2g","pricing_plan_id":"cebpf4jnsgd1na2vs0mg"},{"bike_id":"e59cb4d4-b6bb-4336-8c70-3d7304028786","system_id":"levelo_inurba_marseille","lat":43.23179,"lon":5.39986,"is_reserved":false,"is_disabled":false,"rental_uris":{"android":"levelo://app?vid=e59cb4d4-b6bb-4336-8c70-3d7304028786","ios":"levelo://app?vid=e59cb4d4-b6bb-4336-8c70-3d7304028786"},"vehicle_type_id":"4","last_reported":1761871969,"current_range_meters":10800,"station_id":"ce4bhn12rcd13ifvqgqg","pricing_plan_id":"cebpf4jnsgd1na2vs0mg"},{"bike_id":"0b1b4eb2-08ad-4740-b0ed-46827b0ff964","system_id":"levelo_inurba_marseille","lat":43.30778,"lon":5.37644,"is_reserved":false,"is_disabled":false,"rental_uris":{"android":"levelo://app?vid=0b1b4eb2-08ad-4740-b0ed-46827b0ff964","ios":"levelo://app?vid=0b1b4eb2-08ad-4740-b0ed-46827b0ff964"},"vehicle_type_id":"4","last_reported":1761871969,"current_range_meters":10800,"station_id":"ce4bgv92rcd13ifvqcq0","pricing_plan_id":"cebpf4jnsgd1na2vs0mg"},{"bike_id":"ef077506-ad53-48c6-96ed-57184394616c","system_id":"levelo_inurba_marseille","lat":43.304752,"lon":5.367117,"is_reserved":false,"is_disabled":false,"rental_uris":{"android":"levelo://app?vid=ef077506-ad53-48c6-96ed-57184394616c","ios":"levelo://app?vid=ef077506-ad53-48c6-96ed-57184394616c"},"vehicle_type_id":"4","last_reported":1761871969,"current_range_meters":11200,"station_id":"","pricing_plan_id":"cebpf4jnsgd1na2vs0mg"},{"bike_id":"af413fbb-2a00-4115-b167-2e5fdfbea215","system_id":"levelo_inurba_marseille","lat":43.29291,"lon":5.36854,"is_reserved":false,"is_disabled":false,"rental_uris":{"android":"levelo://app?vid=af413fbb-2a00-4115-b167-2e5fdfbea215","ios":"levelo://app?vid=af413fbb-2a00-4115-b167-2e5fdfbea215"},"vehicle_type_id":"4","last_reported":1761871969,"current_range_meters":11200,"station_id":"ce4bhbp2rcd13ifvqesg","pricing_plan_id":"cebpf4jnsgd1na2vs0mg"},{"bike_id":"e7fbda8d-e4b1-4d1d-8e59-650ead40058d","system_id":"levelo_inurba_marseille","lat":43.24641,"lon":5.431427,"is_reserved":false,"is_disabled":false,"rental_uris":{"android":"levelo://app?vid=e7fbda8d-e4b1-4d1d-8e59-650ead40058d","ios":"levelo://app?vid=e7fbda8d-e4b1-4d1d-8e59-650ead40058d"},"vehicle_type_id":"4","last_reported":1761871969,"current_range_meters":11200,"station_id":"st_d2m6c4gdas8pm72e190g","pricing_plan_id":"cebpf4jnsgd1na2vs0mg"},{"bike_id":"5a111d64-fcac-44e4-98be-55be4170f069","system_id":"levelo_inurba_marseille","lat":43.28157,"lon":5.42636,"is_reserved":false,"is_disabled":false,"rental_uris":{"android":"levelo://app?vid=5a111d64-fcac-44e4-98be-55be4170f069","ios":"levelo://app?vid=5a111d64-fcac-44e4-98be-55be4170f069"},"vehicle_type_id":"4","last_reported":1761871969,"current_range_meters":11200,"station_id":"ce4bhnh2rcd13ifvqgug","pricing_plan_id":"cebpf4jnsgd1na2vs0mg"},{"bike_id":"4c1b2049-b590-4ae2-a090-9d731b00e193","system_id":"levelo_inurba_marseille","lat":43.27079,"lon":5.42261,"is_reserved":false,"is_disabled":false,"rental_uris":{"android":"levelo://app?vid=4c1b2049-b590-4ae2-a090-9d731b00e193","ios":"levelo://app?vid=4c1b2049-b590-4ae2-a090-9d731b00e193"},"vehicle_type_id":"4","last_reported":1761871969,"current_range_meters":11200,"station_id":"ce4bhk92rcd13ifvqgb0","pricing_plan_id":"cebpf4jnsgd1na2vs0mg"},{"bike_id":"f6946de9-6fd5-486c-846e-6aac0ac8e59f","system_id":"levelo_inurba_marseille","lat":43.21193,"lon":5.35084,"is_reserved":false,"is_disabled":false,"rental_uris":{"android":"levelo://app?vid=f6946de9-6fd5-486c-846e-6aac0ac8e59f","ios":"levelo://app?vid=f6946de9-6fd5-486c-846e-6aac0ac8e59f"},"vehicle_type_id":"4","last_reported":1761871969,"current_range_meters":11200,"station_id":"st_cvj6sg6p6f1abm77japg","pricing_plan_id":"cebpf4jnsgd1na2vs0mg"},{"bike_id":"bd43bf2d-d103-4900-8015-35353dbf95d9","system_id":"levelo_inurba_marseille","lat":43.3032,"lon":5.40445,"is_reserved":false,"is_disabled":false,"rental_uris":{"android":"levelo://app?vid=bd43bf2d-d103-4900-8015-35353dbf95d9","ios":"levelo://app?vid=bd43bf2d-d103-4900-8015-35353dbf95d9"},"vehicle_type_id":"4","last_reported":1761871969,"current_range_meters":11600,"station_id":"ce4bh012rcd13ifvqd10","pricing_plan_id":"cebpf4jnsgd1na2vs0mg"},{"bike_id":"a159c7fa-4c33-479a-9130-82f09aa8b34d","system_id":"levelo_inurba_marseille","lat":43.25087,"lon":5.39503,"is_reserved":false,"is_disabled":false,"rental_uris":{"android":"levelo://app?vid=a159c7fa-4c33-479a-9130-82f09aa8b34d","ios":"levelo://app?vid=a159c7fa-4c33-479a-9130-82f09aa8b34d"},"vehicle_type_id":"4","last_reported":1761871969,"current_range_meters":11600,"station_id":"ce4bhm12rcd13ifvqgkg","pricing_plan_id":"cebpf4jnsgd1na2vs0mg"},{"bike_id":"781be9e8-1fba-4218-b4b0-c9ba19a4ce6d","system_id":"levelo_inurba_marseille","lat":43.28938,"lon":5.3663,"is_reserved":false,"is_disabled":false,"rental_uris":{"android":"levelo://app?vid=781be9e8-1fba-4218-b4b0-c9ba19a4ce6d","ios":"levelo://app?vid=781be9e8-1fba-4218-b4b0-c9ba19a4ce6d"},"vehicle_type_id":"4","last_reported":1761871969,"current_range_meters":12000,"station_id":"ce4bhap2rcd13ifvqek0","pricing_plan_id":"cebpf4jnsgd1na2vs0mg"},{"bike_id":"007896d7-a74d-4bb8-b312-9f7c544e6281","system_id":"levelo_inurba_marseille","lat":43.291977,"lon":5.357994,"is_reserved":false,"is_disabled":false,"rental_uris":{"android":"levelo://app?vid=007896d7-a74d-4bb8-b312-9f7c544e6281","ios":"levelo://app?vid=007896d7-a74d-4bb8-b312-9f7c544e6281"},"vehicle_type_id":"4","last_reported":1761871969,"current_range_meters":12000,"station_id":"ce4bhb12rcd13ifvqel0","pricing_plan_id":"cebpf4jnsgd1na2vs0mg"},{"bike_id":"dcc563f4-816a-4fc2-b184-b97722b6ecf3","system_id":"levelo_inurba_marseille","lat":43.30949,"lon":5.40154,"is_reserved":false,"is_disabled":true,"rental_uris":{"android":"levelo://app?vid=dcc563f4-816a-4fc2-b184-b97722b6ecf3","ios":"levelo://app?vid=dcc563f4-816a-4fc2-b184-b97722b6ecf3"},"vehicle_type_id":"4","last_reported":1761871969,"current_range_meters":12000,"station_id":"ce4bgvp2rcd13ifvqct0","pricing_plan_id":"cebpf4jnsgd1na2vs0mg"},{"bike_id":"6031e130-bc2f-4945-be2d-739bc30e9d8e","system_id":"levelo_inurba_marseille","lat":43.28539,"lon":5.44103,"is_reserved":false,"is_disabled":false,"rental_uris":{"android":"levelo://app?vid=6031e130-bc2f-4945-be2d-739bc30e9d8e","ios":"levelo://app?vid=6031e130-bc2f-4945-be2d-739bc30e9d8e"},"vehicle_type_id":"4","last_reported":1761871969,"current_range_meters":12400,"station_id":"st_d3j3df2ikq2c7380ej80","pricing_plan_id":"cebpf4jnsgd1na2vs0mg"},{"bike_id":"a18dbf48-2c4d-4fa4-a4c5-c9871d73c9a0","system_id":"levelo_inurba_marseille","lat":43.301994,"lon":5.383462,"is_reserved":false,"is_disabled":false,"rental_uris":{"android":"levelo://app?vid=a18dbf48-2c4d-4fa4-a4c5-c9871d73c9a0","ios":"levelo://app?vid=a18dbf48-2c4d-4fa4-a4c5-c9871d73c9a0"},"vehicle_type_id":"4","last_reported":1761871969,"current_range_meters":12400,"station_id":"ce4bgup2rcd13ifvqcn0","pricing_plan_id":"cebpf4jnsgd1na2vs0mg"},{"bike_id":"196a7d4a-05f1-40ba-beda-a1fd200da649","system_id":"levelo_inurba_marseille","lat":43.28418,"lon":5.37515,"is_reserved":false,"is_disabled":false,"rental_uris":{"android":"levelo://app?vid=196a7d4a-05f1-40ba-beda-a1fd200da649","ios":"levelo://app?vid=196a7d4a-05f1-40ba-beda-a1fd200da649"},"vehicle_type_id":"4","last_reported":1761871969,"current_range_meters":12400,"station_id":"ce4bh412rcd13ifvqds0","pricing_plan_id":"cebpf4jnsgd1na2vs0mg"},{"bike_id":"1e8a0780-86e0-4951-9971-bcc7f61989fb","system_id":"levelo_inurba_marseille","lat":43.24629,"lon":5.43139,"is_reserved":false,"is_disabled":false,"rental_uris":{"android":"levelo://app?vid=1e8a0780-86e0-4951-9971-bcc7f61989fb","ios":"levelo://app?vid=1e8a0780-86e0-4951-9971-bcc7f61989fb"},"vehicle_type_id":"4","last_reported":1761871969,"current_range_meters":12400,"station_id":"st_d2m6c4gdas8pm72e190g","pricing_plan_id":"cebpf4jnsgd1na2vs0mg"},{"bike_id":"f1ebec42-de39-49cb-aa79-a7d00cd08ff7","system_id":"levelo_inurba_marseille","lat":43.33028,"lon":5.39032,"is_reserved":false,"is_disabled":false,"rental_uris":{"android":"levelo://app?vid=f1ebec42-de39-49cb-aa79-a7d00cd08ff7","ios":"levelo://app?vid=f1ebec42-de39-49cb-aa79-a7d00cd08ff7"},"vehicle_type_id":"4","last_reported":1761871969,"current_range_meters":12400,"station_id":"ce4bhr92rcd13ifvqhrg","pricing_plan_id":"cebpf4jnsgd1na2vs0mg"},{"bike_id":"dd457ba3-9e07-42fa-81ff-1ce7b1782007","system_id":"levelo_inurba_marseille","lat":43.29826,"lon":5.381058,"is_reserved":false,"is_disabled":false,"rental_uris":{"android":"levelo://app?vid=dd457ba3-9e07-42fa-81ff-1ce7b1782007","ios":"levelo://app?vid=dd457ba3-9e07-42fa-81ff-1ce7b1782007"},"vehicle_type_id":"4","last_reported":1761871969,"current_range_meters":12400,"station_id":"ce4bgip2rcd13ifvqbb0","pricing_plan_id":"cebpf4jnsgd1na2vs0mg"},{"bike_id":"7f597b80-e60b-4d55-8e6a-3e68b1031742","system_id":"levelo_inurba_marseille","lat":43.25088,"lon":5.39537,"is_reserved":false,"is_disabled":false,"rental_uris":{"android":"levelo://app?vid=7f597b80-e60b-4d55-8e6a-3e68b1031742","ios":"levelo://app?vid=7f597b80-e60b-4d55-8e6a-3e68b1031742"},"vehicle_type_id":"4","last_reported":1761871969,"current_range_meters":12800,"station_id":"ce4bhm12rcd13ifvqgkg","pricing_plan_id":"cebpf4jnsgd1na2vs0mg"},{"bike_id":"9b93b5e1-c939-4745-bf85-2d21945442dc","system_id":"levelo_inurba_marseille","lat":43.29956,"lon":5.364,"is_reserved":false,"is_disabled":false,"rental_uris":{"android":"levelo://app?vid=9b93b5e1-c939-4745-bf85-2d21945442dc","ios":"levelo://app?vid=9b93b5e1-c939-4745-bf85-2d21945442dc"},"vehicle_type_id":"4","last_reported":1761871969,"current_range_meters":12800,"station_id":"","pricing_plan_id":"cebpf4jnsgd1na2vs0mg"},{"bike_id":"926593f6-579b-4bc9-b774-62aba5138a9f","system_id":"levelo_inurba_marseille","lat":43.3136,"lon":5.38491,"is_reserved":false,"is_disabled":false,"rental_uris":{"android":"levelo://app?vid=926593f6-579b-4bc9-b774-62aba5138a9f","ios":"levelo://app?vid=926593f6-579b-4bc9-b774-62aba5138a9f"},"vehicle_type_id":"4","last_reported":1761871969,"current_range_meters":12800,"station_id":"ce4bgt92rcd13ifvqcf0","pricing_plan_id":"cebpf4jnsgd1na2vs0mg"},{"bike_id":"2ec8fd1b-3b42-4f93-a828-68bd711efa51","system_id":"levelo_inurba_marseille","lat":43.24623,"lon":5.43137,"is_reserved":false,"is_disabled":false,"rental_uris":{"android":"levelo://app?vid=2ec8fd1b-3b42-4f93-a828-68bd711efa51","ios":"levelo://app?vid=2ec8fd1b-3b42-4f93-a828-68bd711efa51"},"vehicle_type_id":"4","last_reported":1761871969,"current_range_meters":12800,"station_id":"st_d2m6c4gdas8pm72e190g","pricing_plan_id":"cebpf4jnsgd1na2vs0mg"},{"bike_id":"ae4f5ebf-7e10-441c-a913-32e5d05d068e","system_id":"levelo_inurba_marseille","lat":43.302277,"lon":5.395111,"is_reserved":false,"is_disabled":false,"rental_uris":{"android":"levelo://app?vid=ae4f5ebf-7e10-441c-a913-32e5d05d068e","ios":"levelo://app?vid=ae4f5ebf-7e10-441c-a913-32e5d05d068e"},"vehicle_type_id":"4","last_reported":1761871969,"current_range_meters":12800,"station_id":"","pricing_plan_id":"cebpf4jnsgd1na2vs0mg"},{"bike_id":"08b2eda2-0e70-4be1-8cbd-085b9bda286c","system_id":"levelo_inurba_marseille","lat":43.2992,"lon":5.36528,"is_reserved":false,"is_disabled":false,"rental_uris":{"android":"levelo://app?vid=08b2eda2-0e70-4be1-8cbd-085b9bda286c","ios":"levelo://app?vid=08b2eda2-0e70-4be1-8cbd-085b9bda286c"},"vehicle_type_id":"4","last_reported":1761871969,"current_range_meters":12800,"station_id":"ce4bgm92rcd13ifvqbr0","pricing_plan_id":"cebpf4jnsgd1na2vs0mg"},{"bike_id":"6c217aef-b0fa-4a0b-9315-76d92babf8b7","system_id":"levelo_inurba_marseille","lat":43.29798,"lon":5.40402,"is_reserved":false,"is_disabled":false,"rental_uris":{"android":"levelo://app?vid=6c217aef-b0fa-4a0b-9315-76d92babf8b7","ios":"levelo://app?vid=6c217aef-b0fa-4a0b-9315-76d92babf8b7"},"vehicle_type_id":"4","last_reported":1761871969,"current_range_meters":12800,"station_id":"ce4bh112rcd13ifvqd90","pricing_plan_id":"cebpf4jnsgd1na2vs0mg"},{"bike_id":"b61e1e59-261f-4781-9885-10fc3dd1eaf7","system_id":"levelo_inurba_marseille","lat":43.30475,"lon":5.36881,"is_reserved":false,"is_disabled":false,"rental_uris":{"android":"levelo://app?vid=b61e1e59-261f-4781-9885-10fc3dd1eaf7","ios":"levelo://app?vid=b61e1e59-261f-4781-9885-10fc3dd1eaf7"},"vehicle_type_id":"4","last_reported":1761871969,"current_range_meters":12800,"station_id":"","pricing_plan_id":"cebpf4jnsgd1na2vs0mg"},{"bike_id":"382a3ba7-d376-4cdb-8ec1-2ca215a52431","system_id":"levelo_inurba_marseille","lat":43.31066,"lon":5.383427,"is_reserved":false,"is_disabled":false,"rental_uris":{"android":"levelo://app?vid=382a3ba7-d376-4cdb-8ec1-2ca215a52431","ios":"levelo://app?vid=382a3ba7-d376-4cdb-8ec1-2ca215a52431"},"vehicle_type_id":"4","last_reported":1761871969,"current_range_meters":12800,"station_id":"ce4bgv92rcd13ifvqcr0","pricing_plan_id":"cebpf4jnsgd1na2vs0mg"},{"bike_id":"c0a1ab8d-72ff-4114-b274-fdab8f1c3cb0","system_id":"levelo_inurba_marseille","lat":43.24697,"lon":5.38206,"is_reserved":false,"is_disabled":false,"rental_uris":{"android":"levelo://app?vid=c0a1ab8d-72ff-4114-b274-fdab8f1c3cb0","ios":"levelo://app?vid=c0a1ab8d-72ff-4114-b274-fdab8f1c3cb0"},"vehicle_type_id":"4","last_reported":1761871969,"current_range_meters":13600,"station_id":"","pricing_plan_id":"cebpf4jnsgd1na2vs0mg"},{"bike_id":"69daedd1-e532-426c-b096-24cfed29fb24","system_id":"levelo_inurba_marseille","lat":43.2795,"lon":5.4104,"is_reserved":false,"is_disabled":false,"rental_uris":{"android":"levelo://app?vid=69daedd1-e532-426c-b096-24cfed29fb24","ios":"levelo://app?vid=69daedd1-e532-426c-b096-24cfed29fb24"},"vehicle_type_id":"4","last_reported":1761871969,"current_range_meters":13600,"station_id":"ce4bhnp2rcd13ifvqh0g","pricing_plan_id":"cebpf4jnsgd1na2vs0mg"},{"bike_id":"4d7d62ab-4ac7-4f11-a006-c751970e74e0","system_id":"levelo_inurba_marseille","lat":43.25336,"lon":5.42158,"is_reserved":false,"is_disabled":false,"rental_uris":{"android":"levelo://app?vid=4d7d62ab-4ac7-4f11-a006-c751970e74e0","ios":"levelo://app?vid=4d7d62ab-4ac7-4f11-a006-c751970e74e0"},"vehicle_type_id":"4","last_reported":1761871969,"current_range_meters":13600,"station_id":"st_d2m65c5bi1j21697t3ng","pricing_plan_id":"cebpf4jnsgd1na2vs0mg"},{"bike_id":"a0d564f2-5ac0-4238-b3be-1fed830781ea","system_id":"levelo_inurba_marseille","lat":43.273801,"lon":5.362358,"is_reserved":false,"is_disabled":false,"rental_uris":{"android":"levelo://app?vid=a0d564f2-5ac0-4238-b3be-1fed830781ea","ios":"levelo://app?vid=a0d564f2-5ac0-4238-b3be-1fed830781ea"},"vehicle_type_id":"4","last_reported":1761871969,"current_range_meters":13600,"station_id":"","pricing_plan_id":"cebpf4jnsgd1na2vs0mg"},{"bike_id":"c2b29e2a-9ddf-4599-9569-ebeda3771708","system_id":"levelo_inurba_marseille","lat":43.21193,"lon":5.35109,"is_reserved":false,"is_disabled":false,"rental_uris":{"android":"levelo://app?vid=c2b29e2a-9ddf-4599-9569-ebeda3771708","ios":"levelo://app?vid=c2b29e2a-9ddf-4599-9569-ebeda3771708"},"vehicle_type_id":"4","last_reported":1761871969,"current_range_meters":13600,"station_id":"st_cvj6sg6p6f1abm77japg","pricing_plan_id":"cebpf4jnsgd1na2vs0mg"},{"bike_id":"6cff0b09-c0ed-4824-8047-f6f13f64ac4a","system_id":"levelo_inurba_marseille","lat":43.30375,"lon":5.42485,"is_reserved":false,"is_disabled":false,"rental_uris":{"android":"levelo://app?vid=6cff0b09-c0ed-4824-8047-f6f13f64ac4a","ios":"levelo://app?vid=6cff0b09-c0ed-4824-8047-f6f13f64ac4a"},"vehicle_type_id":"4","last_reported":1761871969,"current_range_meters":14000,"station_id":"ce4bhoh2rcd13ifvqh6g","pricing_plan_id":"cebpf4jnsgd1na2vs0mg"},{"bike_id":"13b5bebc-2277-4643-9efc-b419c3a09bbd","system_id":"levelo_inurba_marseille","lat":43.22935,"lon":5.35375,"is_reserved":false,"is_disabled":false,"rental_uris":{"android":"levelo://app?vid=13b5bebc-2277-4643-9efc-b419c3a09bbd","ios":"levelo://app?vid=13b5bebc-2277-4643-9efc-b419c3a09bbd"},"vehicle_type_id":"4","last_reported":1761871969,"current_range_meters":14000,"station_id":"cpo3532slgdg3j2ikp40","pricing_plan_id":"cebpf4jnsgd1na2vs0mg"},{"bike_id":"d3e4191f-8708-4957-a7db-efe93d73dc66","system_id":"levelo_inurba_marseille","lat":43.28544,"lon":5.4409,"is_reserved":false,"is_disabled":false,"rental_uris":{"android":"levelo://app?vid=d3e4191f-8708-4957-a7db-efe93d73dc66","ios":"levelo://app?vid=d3e4191f-8708-4957-a7db-efe93d73dc66"},"vehicle_type_id":"4","last_reported":1761871969,"current_range_meters":14000,"station_id":"st_d3j3df2ikq2c7380ej80","pricing_plan_id":"cebpf4jnsgd1na2vs0mg"},{"bike_id":"47972640-69bb-4a59-bd48-645eeb85cfd0","system_id":"levelo_inurba_marseille","lat":43.28702,"lon":5.37385,"is_reserved":false,"is_disabled":false,"rental_uris":{"android":"levelo://app?vid=47972640-69bb-4a59-bd48-645eeb85cfd0","ios":"levelo://app?vid=47972640-69bb-4a59-bd48-645eeb85cfd0"},"vehicle_type_id":"4","last_reported":1761871969,"current_range_meters":14000,"station_id":"ce4bh3p2rcd13ifvqdq0","pricing_plan_id":"cebpf4jnsgd1na2vs0mg"},{"bike_id":"02471e56-ad43-4c01-89da-630478758450","system_id":"levelo_inurba_marseille","lat":43.30344,"lon":5.40434,"is_reserved":false,"is_disabled":false,"rental_uris":{"android":"levelo://app?vid=02471e56-ad43-4c01-89da-630478758450","ios":"levelo://app?vid=02471e56-ad43-4c01-89da-630478758450"},"vehicle_type_id":"4","last_reported":1761871969,"current_range_meters":14000,"station_id":"ce4bh012rcd13ifvqd10","pricing_plan_id":"cebpf4jnsgd1na2vs0mg"},{"bike_id":"5980c72d-b7df-4732-a966-644d6de8f03b","system_id":"levelo_inurba_marseille","lat":43.248181,"lon":5.37471,"is_reserved":false,"is_disabled":false,"rental_uris":{"android":"levelo://app?vid=5980c72d-b7df-4732-a966-644d6de8f03b","ios":"levelo://app?vid=5980c72d-b7df-4732-a966-644d6de8f03b"},"vehicle_type_id":"4","last_reported":1761871969,"current_range_meters":14000,"station_id":"ce4bhgh2rcd13ifvqfb0","pricing_plan_id":"cebpf4jnsgd1na2vs0mg"},{"bike_id":"f9f5725b-4420-4974-8696-29f60feee800","system_id":"levelo_inurba_marseille","lat":43.33611,"lon":5.41049,"is_reserved":false,"is_disabled":false,"rental_uris":{"android":"levelo://app?vid=f9f5725b-4420-4974-8696-29f60feee800","ios":"levelo://app?vid=f9f5725b-4420-4974-8696-29f60feee800"},"vehicle_type_id":"4","last_reported":1761871969,"current_range_meters":14400,"station_id":"ce4bhqh2rcd13ifvqhmg","pricing_plan_id":"cebpf4jnsgd1na2vs0mg"},{"bike_id":"960e6fa4-4740-4586-b1d8-4bb7b95af038","system_id":"levelo_inurba_marseille","lat":43.24983,"lon":5.405,"is_reserved":false,"is_disabled":false,"rental_uris":{"android":"levelo://app?vid=960e6fa4-4740-4586-b1d8-4bb7b95af038","ios":"levelo://app?vid=960e6fa4-4740-4586-b1d8-4bb7b95af038"},"vehicle_type_id":"4","last_reported":1761871969,"current_range_meters":14400,"station_id":"st_d2ngiaodas8pm72gd1h0","pricing_plan_id":"cebpf4jnsgd1na2vs0mg"},{"bike_id":"ea26f597-91d1-4f54-b158-8d3bda3cc998","system_id":"levelo_inurba_marseille","lat":43.32269,"lon":5.38271,"is_reserved":false,"is_disabled":false,"rental_uris":{"android":"levelo://app?vid=ea26f597-91d1-4f54-b158-8d3bda3cc998","ios":"levelo://app?vid=ea26f597-91d1-4f54-b158-8d3bda3cc998"},"vehicle_type_id":"4","last_reported":1761871969,"current_range_meters":14400,"station_id":"ce4bhr12rcd13ifvqhqg","pricing_plan_id":"cebpf4jnsgd1na2vs0mg"},{"bike_id":"516995d3-31b4-460f-8436-1dc3fc004b9c","system_id":"levelo_inurba_marseille","lat":43.29267,"lon":5.40899,"is_reserved":false,"is_disabled":false,"rental_uris":{"android":"levelo://app?vid=516995d3-31b4-460f-8436-1dc3fc004b9c","ios":"levelo://app?vid=516995d3-31b4-460f-8436-1dc3fc004b9c"},"vehicle_type_id":"4","last_reported":1761871969,"current_range_meters":14400,"station_id":"ce4bh192rcd13ifvqdc0","pricing_plan_id":"cebpf4jnsgd1na2vs0mg"},{"bike_id":"47a0604b-ebf0-481c-99c8-f92e88b99a63","system_id":"levelo_inurba_marseille","lat":43.307751,"lon":5.376439,"is_reserved":false,"is_disabled":false,"rental_uris":{"android":"levelo://app?vid=47a0604b-ebf0-481c-99c8-f92e88b99a63","ios":"levelo://app?vid=47a0604b-ebf0-481c-99c8-f92e88b99a63"},"vehicle_type_id":"4","last_reported":1761871969,"current_range_meters":14400,"station_id":"ce4bgv92rcd13ifvqcq0","pricing_plan_id":"cebpf4jnsgd1na2vs0mg"},{"bike_id":"28bbf614-7806-40a7-b631-19d992de53ed","system_id":"levelo_inurba_marseille","lat":43.22933,"lon":5.35361,"is_reserved":false,"is_disabled":false,"rental_uris":{"android":"levelo://app?vid=28bbf614-7806-40a7-b631-19d992de53ed","ios":"levelo://app?vid=28bbf614-7806-40a7-b631-19d992de53ed"},"vehicle_type_id":"4","last_reported":1761871969,"current_range_meters":14400,"station_id":"cpo3532slgdg3j2ikp40","pricing_plan_id":"cebpf4jnsgd1na2vs0mg"},{"bike_id":"c0381cfe-4020-45a1-a90a-c73928248165","system_id":"levelo_inurba_marseille","lat":43.28452,"lon":5.37507,"is_reserved":false,"is_disabled":false,"rental_uris":{"android":"levelo://app?vid=c0381cfe-4020-45a1-a90a-c73928248165","ios":"levelo://app?vid=c0381cfe-4020-45a1-a90a-c73928248165"},"vehicle_type_id":"4","last_reported":1761871969,"current_range_meters":14400,"station_id":"","pricing_plan_id":"cebpf4jnsgd1na2vs0mg"},{"bike_id":"0ea07904-84f7-4751-a79c-34eb67ef8001","system_id":"levelo_inurba_marseille","lat":43.24556,"lon":5.39531,"is_reserved":false,"is_disabled":false,"rental_uris":{"android":"levelo://app?vid=0ea07904-84f7-4751-a79c-34eb67ef8001","ios":"levelo://app?vid=0ea07904-84f7-4751-a79c-34eb67ef8001"},"vehicle_type_id":"4","last_reported":1761871969,"current_range_meters":14800,"station_id":"ce4bhlp2rcd13ifvqgjg","pricing_plan_id":"cebpf4jnsgd1na2vs0mg"},{"bike_id":"0e8e0a18-4139-452e-bab3-cb99f058b247","system_id":"levelo_inurba_marseille","lat":43.29496,"lon":5.41987,"is_reserved":false,"is_disabled":true,"rental_uris":{"android":"levelo://app?vid=0e8e0a18-4139-452e-bab3-cb99f058b247","ios":"levelo://app?vid=0e8e0a18-4139-452e-bab3-cb99f058b247"},"vehicle_type_id":"4","last_reported":1761871969,"current_range_meters":14800,"station_id":"","pricing_plan_id":"cebpf4jnsgd1na2vs0mg"},{"bike_id":"8433d1f6-7e80-4ba9-875a-d2eeb57ed4b1","system_id":"levelo_inurba_marseille","lat":43.26492,"lon":5.395255,"is_reserved":false,"is_disabled":false,"rental_uris":{"android":"levelo://app?vid=8433d1f6-7e80-4ba9-875a-d2eeb57ed4b1","ios":"levelo://app?vid=8433d1f6-7e80-4ba9-875a-d2eeb57ed4b1"},"vehicle_type_id":"4","last_reported":1761871969,"current_range_meters":14800,"station_id":"ce4bhi12rcd13ifvqfq0","pricing_plan_id":"cebpf4jnsgd1na2vs0mg"},{"bike_id":"88327406-ba65-4ce0-831c-3da476dbb691","system_id":"levelo_inurba_marseille","lat":43.23771,"lon":5.36635,"is_reserved":false,"is_disabled":false,"rental_uris":{"android":"levelo://app?vid=88327406-ba65-4ce0-831c-3da476dbb691","ios":"levelo://app?vid=88327406-ba65-4ce0-831c-3da476dbb691"},"vehicle_type_id":"4","last_reported":1761871969,"current_range_meters":14800,"station_id":"st_d3nk18o9ro0c73en2l3g","pricing_plan_id":"cebpf4jnsgd1na2vs0mg"},{"bike_id":"138ff61d-8859-4ecb-a94c-3a8ea01a7893","system_id":"levelo_inurba_marseille","lat":43.2795,"lon":5.41021,"is_reserved":false,"is_disabled":false,"rental_uris":{"android":"levelo://app?vid=138ff61d-8859-4ecb-a94c-3a8ea01a7893","ios":"levelo://app?vid=138ff61d-8859-4ecb-a94c-3a8ea01a7893"},"vehicle_type_id":"4","last_reported":1761871969,"current_range_meters":14800,"station_id":"ce4bhnp2rcd13ifvqh0g","pricing_plan_id":"cebpf4jnsgd1na2vs0mg"},{"bike_id":"b8f404d3-62c4-4489-a471-d37212346558","system_id":"levelo_inurba_marseille","lat":43.31052,"lon":5.37864,"is_reserved":false,"is_disabled":false,"rental_uris":{"android":"levelo://app?vid=b8f404d3-62c4-4489-a471-d37212346558","ios":"levelo://app?vid=b8f404d3-62c4-4489-a471-d37212346558"},"vehicle_type_id":"4","last_reported":1761871969,"current_range_meters":14800,"station_id":"","pricing_plan_id":"cebpf4jnsgd1na2vs0mg"},{"bike_id":"9a28c307-938e-4357-a480-21088151146d","system_id":"levelo_inurba_marseille","lat":43.27786,"lon":5.43795,"is_reserved":false,"is_disabled":false,"rental_uris":{"android":"levelo://app?vid=9a28c307-938e-4357-a480-21088151146d","ios":"levelo://app?vid=9a28c307-938e-4357-a480-21088151146d"},"vehicle_type_id":"4","last_reported":1761871969,"current_range_meters":14800,"station_id":"","pricing_plan_id":"cebpf4jnsgd1na2vs0mg"},{"bike_id":"a3ba9ae1-19bb-4e14-8a8f-cd2d005b5815","system_id":"levelo_inurba_marseille","lat":43.287933,"lon":5.366422,"is_reserved":false,"is_disabled":false,"rental_uris":{"android":"levelo://app?vid=a3ba9ae1-19bb-4e14-8a8f-cd2d005b5815","ios":"levelo://app?vid=a3ba9ae1-19bb-4e14-8a8f-cd2d005b5815"},"vehicle_type_id":"4","last_reported":1761871969,"current_range_meters":15200,"station_id":"","pricing_plan_id":"cebpf4jnsgd1na2vs0mg"},{"bike_id":"75e2e341-989f-4547-9afe-4acc1fa290f9","system_id":"levelo_inurba_marseille","lat":43.27206,"lon":5.39188,"is_reserved":false,"is_disabled":false,"rental_uris":{"android":"levelo://app?vid=75e2e341-989f-4547-9afe-4acc1fa290f9","ios":"levelo://app?vid=75e2e341-989f-4547-9afe-4acc1fa290f9"},"vehicle_type_id":"4","last_reported":1761871969,"current_range_meters":15200,"station_id":"ce4bhhp2rcd13ifvqfm0","pricing_plan_id":"cebpf4jnsgd1na2vs0mg"},{"bike_id":"80c53fab-d9fd-4b9a-94e7-e3f3183e35da","system_id":"levelo_inurba_marseille","lat":43.33029,"lon":5.39047,"is_reserved":false,"is_disabled":false,"rental_uris":{"android":"levelo://app?vid=80c53fab-d9fd-4b9a-94e7-e3f3183e35da","ios":"levelo://app?vid=80c53fab-d9fd-4b9a-94e7-e3f3183e35da"},"vehicle_type_id":"4","last_reported":1761871969,"current_range_meters":15200,"station_id":"ce4bhr92rcd13ifvqhrg","pricing_plan_id":"cebpf4jnsgd1na2vs0mg"},{"bike_id":"2662fe9b-aa47-4e6a-8505-64d896678582","system_id":"levelo_inurba_marseille","lat":43.2257,"lon":5.41619,"is_reserved":false,"is_disabled":false,"rental_uris":{"android":"levelo://app?vid=2662fe9b-aa47-4e6a-8505-64d896678582","ios":"levelo://app?vid=2662fe9b-aa47-4e6a-8505-64d896678582"},"vehicle_type_id":"4","last_reported":1761871969,"current_range_meters":15200,"station_id":"st_d2o4gvlbi1j2169b742g","pricing_plan_id":"cebpf4jnsgd1na2vs0mg"},{"bike_id":"7afafebc-9388-4b96-826a-eb1746b15f9a","system_id":"levelo_inurba_marseille","lat":43.27078,"lon":5.42263,"is_reserved":false,"is_disabled":false,"rental_uris":{"android":"levelo://app?vid=7afafebc-9388-4b96-826a-eb1746b15f9a","ios":"levelo://app?vid=7afafebc-9388-4b96-826a-eb1746b15f9a"},"vehicle_type_id":"4","last_reported":1761871969,"current_range_meters":15200,"station_id":"ce4bhk92rcd13ifvqgb0","pricing_plan_id":"cebpf4jnsgd1na2vs0mg"},{"bike_id":"57c11d9d-a98d-4899-9919-cbc2aae50fc9","system_id":"levelo_inurba_marseille","lat":43.32078,"lon":5.41534,"is_reserved":false,"is_disabled":false,"rental_uris":{"android":"levelo://app?vid=57c11d9d-a98d-4899-9919-cbc2aae50fc9","ios":"levelo://app?vid=57c11d9d-a98d-4899-9919-cbc2aae50fc9"},"vehicle_type_id":"4","last_reported":1761871969,"current_range_meters":15200,"station_id":"ce4bhq92rcd13ifvqhkg","pricing_plan_id":"cebpf4jnsgd1na2vs0mg"},{"bike_id":"aad6a064-c048-4ba9-a156-1745b89548aa","system_id":"levelo_inurba_marseille","lat":43.283178,"lon":5.411018,"is_reserved":false,"is_disabled":false,"rental_uris":{"android":"levelo://app?vid=aad6a064-c048-4ba9-a156-1745b89548aa","ios":"levelo://app?vid=aad6a064-c048-4ba9-a156-1745b89548aa"},"vehicle_type_id":"4","last_reported":1761871969,"current_range_meters":15200,"station_id":"","pricing_plan_id":"cebpf4jnsgd1na2vs0mg"},{"bike_id":"8a0ff850-cf9f-4e75-bc3f-994489f28f31","system_id":"levelo_inurba_marseille","lat":43.22571,"lon":5.41635,"is_reserved":false,"is_disabled":false,"rental_uris":{"android":"levelo://app?vid=8a0ff850-cf9f-4e75-bc3f-994489f28f31","ios":"levelo://app?vid=8a0ff850-cf9f-4e75-bc3f-994489f28f31"},"vehicle_type_id":"4","last_reported":1761871969,"current_range_meters":15200,"station_id":"st_d2o4gvlbi1j2169b742g","pricing_plan_id":"cebpf4jnsgd1na2vs0mg"},{"bike_id":"46835159-5dd5-4fc9-a732-591f6a5307e4","system_id":"levelo_inurba_marseille","lat":43.31351,"lon":5.37912,"is_reserved":false,"is_disabled":false,"rental_uris":{"android":"levelo://app?vid=46835159-5dd5-4fc9-a732-591f6a5307e4","ios":"levelo://app?vid=46835159-5dd5-4fc9-a732-591f6a5307e4"},"vehicle_type_id":"4","last_reported":1761871969,"current_range_meters":15200,"station_id":"","pricing_plan_id":"cebpf4jnsgd1na2vs0mg"},{"bike_id":"bf249e9a-ea64-452d-bc1b-e8d78d39e8c4","system_id":"levelo_inurba_marseille","lat":43.231858,"lon":5.399786,"is_reserved":false,"is_disabled":false,"rental_uris":{"android":"levelo://app?vid=bf249e9a-ea64-452d-bc1b-e8d78d39e8c4","ios":"levelo://app?vid=bf249e9a-ea64-452d-bc1b-e8d78d39e8c4"},"vehicle_type_id":"4","last_reported":1761871969,"current_range_meters":15200,"station_id":"ce4bhn12rcd13ifvqgqg","pricing_plan_id":"cebpf4jnsgd1na2vs0mg"},{"bike_id":"e7fb0e33-80c0-4637-a149-f55372751984","system_id":"levelo_inurba_marseille","lat":43.246316,"lon":5.37984,"is_reserved":false,"is_disabled":false,"rental_uris":{"android":"levelo://app?vid=e7fb0e33-80c0-4637-a149-f55372751984","ios":"levelo://app?vid=e7fb0e33-80c0-4637-a149-f55372751984"},"vehicle_type_id":"4","last_reported":1761871969,"current_range_meters":16000,"station_id":"ce4bhih2rcd13ifvqfr0","pricing_plan_id":"cebpf4jnsgd1na2vs0mg"},{"bike_id":"0ddd52f3-af9c-49de-9bf2-944301dde1b1","system_id":"levelo_inurba_marseille","lat":43.27798,"lon":5.40743,"is_reserved":false,"is_disabled":false,"rental_uris":{"android":"levelo://app?vid=0ddd52f3-af9c-49de-9bf2-944301dde1b1","ios":"levelo://app?vid=0ddd52f3-af9c-49de-9bf2-944301dde1b1"},"vehicle_type_id":"4","last_reported":1761871969,"current_range_meters":16000,"station_id":"ce4bhnh2rcd13ifvqgtg","pricing_plan_id":"cebpf4jnsgd1na2vs0mg"},{"bike_id":"a4dac4fa-66e6-48be-a654-6e17cdc7ca0b","system_id":"levelo_inurba_marseille","lat":43.337571,"lon":5.374323,"is_reserved":false,"is_disabled":false,"rental_uris":{"android":"levelo://app?vid=a4dac4fa-66e6-48be-a654-6e17cdc7ca0b","ios":"levelo://app?vid=a4dac4fa-66e6-48be-a654-6e17cdc7ca0b"},"vehicle_type_id":"4","last_reported":1761871969,"current_range_meters":16000,"station_id":"","pricing_plan_id":"cebpf4jnsgd1na2vs0mg"},{"bike_id":"1213ff01-604d-4b83-b3a2-60440c4b245e","system_id":"levelo_inurba_marseille","lat":43.23785,"lon":5.36629,"is_reserved":false,"is_disabled":false,"rental_uris":{"android":"levelo://app?vid=1213ff01-604d-4b83-b3a2-60440c4b245e","ios":"levelo://app?vid=1213ff01-604d-4b83-b3a2-60440c4b245e"},"vehicle_type_id":"4","last_reported":1761871969,"current_range_meters":16000,"station_id":"st_d3nk18o9ro0c73en2l3g","pricing_plan_id":"cebpf4jnsgd1na2vs0mg"},{"bike_id":"8eb40e96-a7a6-4bfc-986c-c6ecaebb67ac","system_id":"levelo_inurba_marseille","lat":43.28365,"lon":5.38095,"is_reserved":false,"is_disabled":false,"rental_uris":{"android":"levelo://app?vid=8eb40e96-a7a6-4bfc-986c-c6ecaebb67ac","ios":"levelo://app?vid=8eb40e96-a7a6-4bfc-986c-c6ecaebb67ac"},"vehicle_type_id":"4","last_reported":1761871969,"current_range_meters":16000,"station_id":"ce4bh412rcd13ifvqdr0","pricing_plan_id":"cebpf4jnsgd1na2vs0mg"},{"bike_id":"2649fb3a-e1de-445d-915b-62fbc28e76a5","system_id":"levelo_inurba_marseille","lat":43.2762,"lon":5.36095,"is_reserved":false,"is_disabled":false,"rental_uris":{"android":"levelo://app?vid=2649fb3a-e1de-445d-915b-62fbc28e76a5","ios":"levelo://app?vid=2649fb3a-e1de-445d-915b-62fbc28e76a5"},"vehicle_type_id":"4","last_reported":1761871969,"current_range_meters":16000,"station_id":"ce4bgj92rcd13ifvqbe0","pricing_plan_id":"cebpf4jnsgd1na2vs0mg"},{"bike_id":"1282d74a-548d-440e-84c8-e15be2e1b590","system_id":"levelo_inurba_marseille","lat":43.26115,"lon":5.37855,"is_reserved":false,"is_disabled":false,"rental_uris":{"android":"levelo://app?vid=1282d74a-548d-440e-84c8-e15be2e1b590","ios":"levelo://app?vid=1282d74a-548d-440e-84c8-e15be2e1b590"},"vehicle_type_id":"4","last_reported":1761871969,"current_range_meters":16400,"station_id":"","pricing_plan_id":"cebpf4jnsgd1na2vs0mg"},{"bike_id":"609eccca-b55b-4605-87cd-a8fbec0dfdd6","system_id":"levelo_inurba_marseille","lat":43.29638,"lon":5.4061,"is_reserved":false,"is_disabled":false,"rental_uris":{"android":"levelo://app?vid=609eccca-b55b-4605-87cd-a8fbec0dfdd6","ios":"levelo://app?vid=609eccca-b55b-4605-87cd-a8fbec0dfdd6"},"vehicle_type_id":"4","last_reported":1761871969,"current_range_meters":16400,"station_id":"ce4bh0h2rcd13ifvqd60","pricing_plan_id":"cebpf4jnsgd1na2vs0mg"},{"bike_id":"f6722368-9cf7-4a08-86fa-a64de38b9829","system_id":"levelo_inurba_marseille","lat":43.27559,"lon":5.384349,"is_reserved":false,"is_disabled":false,"rental_uris":{"android":"levelo://app?vid=f6722368-9cf7-4a08-86fa-a64de38b9829","ios":"levelo://app?vid=f6722368-9cf7-4a08-86fa-a64de38b9829"},"vehicle_type_id":"4","last_reported":1761871969,"current_range_meters":16400,"station_id":"ce4bhh92rcd13ifvqfi0","pricing_plan_id":"cebpf4jnsgd1na2vs0mg"},{"bike_id":"79ab418a-79c0-4a6e-993b-761280f132d6","system_id":"levelo_inurba_marseille","lat":43.28481,"lon":5.48389,"is_reserved":false,"is_disabled":false,"rental_uris":{"android":"levelo://app?vid=79ab418a-79c0-4a6e-993b-761280f132d6","ios":"levelo://app?vid=79ab418a-79c0-4a6e-993b-761280f132d6"},"vehicle_type_id":"4","last_reported":1761871969,"current_range_meters":16400,"station_id":"st_d3svhcjqgbts73a3dn0g","pricing_plan_id":"cebpf4jnsgd1na2vs0mg"},{"bike_id":"d3173905-3c9f-4639-b7f0-7933d51eab66","system_id":"levelo_inurba_marseille","lat":43.2534,"lon":5.42179,"is_reserved":false,"is_disabled":false,"rental_uris":{"android":"levelo://app?vid=d3173905-3c9f-4639-b7f0-7933d51eab66","ios":"levelo://app?vid=d3173905-3c9f-4639-b7f0-7933d51eab66"},"vehicle_type_id":"4","last_reported":1761871969,"current_range_meters":16400,"station_id":"st_d2m65c5bi1j21697t3ng","pricing_plan_id":"cebpf4jnsgd1na2vs0mg"},{"bike_id":"ad554042-17be-4e7a-abcb-5142fefcc30a","system_id":"levelo_inurba_marseille","lat":43.33773,"lon":5.37474,"is_reserved":false,"is_disabled":true,"rental_uris":{"android":"levelo://app?vid=ad554042-17be-4e7a-abcb-5142fefcc30a","ios":"levelo://app?vid=ad554042-17be-4e7a-abcb-5142fefcc30a"},"vehicle_type_id":"4","last_reported":1761871969,"current_range_meters":16400,"station_id":"","pricing_plan_id":"cebpf4jnsgd1na2vs0mg"},{"bike_id":"709dc3cb-272e-4021-beff-59c84c7800d8","system_id":"levelo_inurba_marseille","lat":43.24645,"lon":5.38889,"is_reserved":false,"is_disabled":false,"rental_uris":{"android":"levelo://app?vid=709dc3cb-272e-4021-beff-59c84c7800d8","ios":"levelo://app?vid=709dc3cb-272e-4021-beff-59c84c7800d8"},"vehicle_type_id":"4","last_reported":1761871969,"current_range_meters":16800,"station_id":"ce4bhg12rcd13ifvqf60","pricing_plan_id":"cebpf4jnsgd1na2vs0mg"},{"bike_id":"9da932a5-8f71-41d5-90d3-bb657dc1c603","system_id":"levelo_inurba_marseille","lat":43.276635,"lon":5.388816,"is_reserved":false,"is_disabled":false,"rental_uris":{"android":"levelo://app?vid=9da932a5-8f71-41d5-90d3-bb657dc1c603","ios":"levelo://app?vid=9da932a5-8f71-41d5-90d3-bb657dc1c603"},"vehicle_type_id":"4","last_reported":1761871969,"current_range_meters":16800,"station_id":"ce4bhi12rcd13ifvqfo0","pricing_plan_id":"cebpf4jnsgd1na2vs0mg"},{"bike_id":"10550d20-c29a-421a-ad3c-0acbf44c0aaf","system_id":"levelo_inurba_marseille","lat":43.24796,"lon":5.3747,"is_reserved":false,"is_disabled":false,"rental_uris":{"android":"levelo://app?vid=10550d20-c29a-421a-ad3c-0acbf44c0aaf","ios":"levelo://app?vid=10550d20-c29a-421a-ad3c-0acbf44c0aaf"},"vehicle_type_id":"4","last_reported":1761871969,"current_range_meters":16800,"station_id":"ce4bhgh2rcd13ifvqfb0","pricing_plan_id":"cebpf4jnsgd1na2vs0mg"},{"bike_id":"ee261a32-9de1-4b9e-a923-6c91e1e26176","system_id":"levelo_inurba_marseille","lat":43.28484,"lon":5.48364,"is_reserved":false,"is_disabled":false,"rental_uris":{"android":"levelo://app?vid=ee261a32-9de1-4b9e-a923-6c91e1e26176","ios":"levelo://app?vid=ee261a32-9de1-4b9e-a923-6c91e1e26176"},"vehicle_type_id":"4","last_reported":1761871969,"current_range_meters":16800,"station_id":"st_d3svhcjqgbts73a3dn0g","pricing_plan_id":"cebpf4jnsgd1na2vs0mg"},{"bike_id":"20becc26-222d-4fd7-a0af-b39aa7873ead","system_id":"levelo_inurba_marseille","lat":43.265615,"lon":5.372932,"is_reserved":false,"is_disabled":false,"rental_uris":{"android":"levelo://app?vid=20becc26-222d-4fd7-a0af-b39aa7873ead","ios":"levelo://app?vid=20becc26-222d-4fd7-a0af-b39aa7873ead"},"vehicle_type_id":"4","last_reported":1761871969,"current_range_meters":16800,"station_id":"ce4bhg12rcd13ifvqf70","pricing_plan_id":"cebpf4jnsgd1na2vs0mg"},{"bike_id":"3ca52d28-0253-4183-be5a-7286cd190908","system_id":"levelo_inurba_marseille","lat":43.27949,"lon":5.41028,"is_reserved":false,"is_disabled":false,"rental_uris":{"android":"levelo://app?vid=3ca52d28-0253-4183-be5a-7286cd190908","ios":"levelo://app?vid=3ca52d28-0253-4183-be5a-7286cd190908"},"vehicle_type_id":"4","last_reported":1761871969,"current_range_meters":17200,"station_id":"ce4bhnp2rcd13ifvqh0g","pricing_plan_id":"cebpf4jnsgd1na2vs0mg"},{"bike_id":"3b8d8128-20c3-4189-8013-ffc8bbfec252","system_id":"levelo_inurba_marseille","lat":43.28614,"lon":5.35102,"is_reserved":false,"is_disabled":false,"rental_uris":{"android":"levelo://app?vid=3b8d8128-20c3-4189-8013-ffc8bbfec252","ios":"levelo://app?vid=3b8d8128-20c3-4189-8013-ffc8bbfec252"},"vehicle_type_id":"4","last_reported":1761871969,"current_range_meters":17200,"station_id":"ce4bhch2rcd13ifvqeug","pricing_plan_id":"cebpf4jnsgd1na2vs0mg"},{"bike_id":"d367e803-0cc0-433f-bfa1-60ffe7c595bd","system_id":"levelo_inurba_marseille","lat":43.307391,"lon":5.424442,"is_reserved":false,"is_disabled":false,"rental_uris":{"android":"levelo://app?vid=d367e803-0cc0-433f-bfa1-60ffe7c595bd","ios":"levelo://app?vid=d367e803-0cc0-433f-bfa1-60ffe7c595bd"},"vehicle_type_id":"4","last_reported":1761871969,"current_range_meters":17200,"station_id":"st_cvj6ca6bvosntc0bfgr0","pricing_plan_id":"cebpf4jnsgd1na2vs0mg"},{"bike_id":"14bf380a-0a43-4ae3-aac3-e33047dea600","system_id":"levelo_inurba_marseille","lat":43.29271,"lon":5.36844,"is_reserved":false,"is_disabled":true,"rental_uris":{"android":"levelo://app?vid=14bf380a-0a43-4ae3-aac3-e33047dea600","ios":"levelo://app?vid=14bf380a-0a43-4ae3-aac3-e33047dea600"},"vehicle_type_id":"4","last_reported":1761871969,"current_range_meters":17200,"station_id":"ce4bhbp2rcd13ifvqesg","pricing_plan_id":"cebpf4jnsgd1na2vs0mg"},{"bike_id":"319b8584-93f2-449c-b056-ea3f20ebc971","system_id":"levelo_inurba_marseille","lat":43.28525,"lon":5.43012,"is_reserved":false,"is_disabled":false,"rental_uris":{"android":"levelo://app?vid=319b8584-93f2-449c-b056-ea3f20ebc971","ios":"levelo://app?vid=319b8584-93f2-449c-b056-ea3f20ebc971"},"vehicle_type_id":"4","last_reported":1761871969,"current_range_meters":17200,"station_id":"","pricing_plan_id":"cebpf4jnsgd1na2vs0mg"},{"bike_id":"d2999510-f948-4c68-9a9e-18959de98038","system_id":"levelo_inurba_marseille","lat":43.31064,"lon":5.38353,"is_reserved":false,"is_disabled":false,"rental_uris":{"android":"levelo://app?vid=d2999510-f948-4c68-9a9e-18959de98038","ios":"levelo://app?vid=d2999510-f948-4c68-9a9e-18959de98038"},"vehicle_type_id":"4","last_reported":1761871969,"current_range_meters":17600,"station_id":"ce4bgv92rcd13ifvqcr0","pricing_plan_id":"cebpf4jnsgd1na2vs0mg"},{"bike_id":"6cd59db7-cb12-4301-8385-22b87d7a5cfd","system_id":"levelo_inurba_marseille","lat":43.285578,"lon":5.441013,"is_reserved":false,"is_disabled":false,"rental_uris":{"android":"levelo://app?vid=6cd59db7-cb12-4301-8385-22b87d7a5cfd","ios":"levelo://app?vid=6cd59db7-cb12-4301-8385-22b87d7a5cfd"},"vehicle_type_id":"4","last_reported":1761871969,"current_range_meters":17600,"station_id":"st_d3j3df2ikq2c7380ej80","pricing_plan_id":"cebpf4jnsgd1na2vs0mg"},{"bike_id":"9c949a45-353c-4fea-a7b1-2aa63358177a","system_id":"levelo_inurba_marseille","lat":43.310755,"lon":5.383533,"is_reserved":false,"is_disabled":false,"rental_uris":{"android":"levelo://app?vid=9c949a45-353c-4fea-a7b1-2aa63358177a","ios":"levelo://app?vid=9c949a45-353c-4fea-a7b1-2aa63358177a"},"vehicle_type_id":"4","last_reported":1761871969,"current_range_meters":17600,"station_id":"ce4bgv92rcd13ifvqcr0","pricing_plan_id":"cebpf4jnsgd1na2vs0mg"},{"bike_id":"90cc4e35-1e9a-4d48-878d-a3997094c0ce","system_id":"levelo_inurba_marseille","lat":43.246479,"lon":5.431354,"is_reserved":false,"is_disabled":false,"rental_uris":{"android":"levelo://app?vid=90cc4e35-1e9a-4d48-878d-a3997094c0ce","ios":"levelo://app?vid=90cc4e35-1e9a-4d48-878d-a3997094c0ce"},"vehicle_type_id":"4","last_reported":1761871969,"current_range_meters":17600,"station_id":"st_d2m6c4gdas8pm72e190g","pricing_plan_id":"cebpf4jnsgd1na2vs0mg"},{"bike_id":"1c005448-08df-4d9b-8378-de7620914b2d","system_id":"levelo_inurba_marseille","lat":43.30637,"lon":5.37191,"is_reserved":false,"is_disabled":false,"rental_uris":{"android":"levelo://app?vid=1c005448-08df-4d9b-8378-de7620914b2d","ios":"levelo://app?vid=1c005448-08df-4d9b-8378-de7620914b2d"},"vehicle_type_id":"4","last_reported":1761871969,"current_range_meters":17600,"station_id":"ce4bgqh2rcd13ifvqc4g","pricing_plan_id":"cebpf4jnsgd1na2vs0mg"},{"bike_id":"0dc930ae-88e6-493c-ab95-8df0b3ac1f8b","system_id":"levelo_inurba_marseille","lat":43.29889,"lon":5.43661,"is_reserved":false,"is_disabled":false,"rental_uris":{"android":"levelo://app?vid=0dc930ae-88e6-493c-ab95-8df0b3ac1f8b","ios":"levelo://app?vid=0dc930ae-88e6-493c-ab95-8df0b3ac1f8b"},"vehicle_type_id":"4","last_reported":1761871969,"current_range_meters":18000,"station_id":"ce4bhpp2rcd13ifvqhfg","pricing_plan_id":"cebpf4jnsgd1na2vs0mg"},{"bike_id":"2f0cad5b-8a2e-4763-9c70-80fa3630d860","system_id":"levelo_inurba_marseille","lat":43.31998,"lon":5.38136,"is_reserved":false,"is_disabled":false,"rental_uris":{"android":"levelo://app?vid=2f0cad5b-8a2e-4763-9c70-80fa3630d860","ios":"levelo://app?vid=2f0cad5b-8a2e-4763-9c70-80fa3630d860"},"vehicle_type_id":"4","last_reported":1761871969,"current_range_meters":18000,"station_id":"ce4bhr12rcd13ifvqhpg","pricing_plan_id":"cebpf4jnsgd1na2vs0mg"},{"bike_id":"e689a1c3-c0a6-4360-9617-9d3223325b8c","system_id":"levelo_inurba_marseille","lat":43.25084,"lon":5.39507,"is_reserved":false,"is_disabled":false,"rental_uris":{"android":"levelo://app?vid=e689a1c3-c0a6-4360-9617-9d3223325b8c","ios":"levelo://app?vid=e689a1c3-c0a6-4360-9617-9d3223325b8c"},"vehicle_type_id":"4","last_reported":1761871969,"current_range_meters":18000,"station_id":"ce4bhm12rcd13ifvqgkg","pricing_plan_id":"cebpf4jnsgd1na2vs0mg"},{"bike_id":"e974006c-e3c8-4c1a-9a8d-ea5c7e7acb49","system_id":"levelo_inurba_marseille","lat":43.28543,"lon":5.44091,"is_reserved":false,"is_disabled":false,"rental_uris":{"android":"levelo://app?vid=e974006c-e3c8-4c1a-9a8d-ea5c7e7acb49","ios":"levelo://app?vid=e974006c-e3c8-4c1a-9a8d-ea5c7e7acb49"},"vehicle_type_id":"4","last_reported":1761871969,"current_range_meters":18000,"station_id":"st_d3j3df2ikq2c7380ej80","pricing_plan_id":"cebpf4jnsgd1na2vs0mg"},{"bike_id":"9e616a1f-080b-4bfc-b976-40ec117c7812","system_id":"levelo_inurba_marseille","lat":43.26571,"lon":5.38981,"is_reserved":false,"is_disabled":true,"rental_uris":{"android":"levelo://app?vid=9e616a1f-080b-4bfc-b976-40ec117c7812","ios":"levelo://app?vid=9e616a1f-080b-4bfc-b976-40ec117c7812"},"vehicle_type_id":"4","last_reported":1761871969,"current_range_meters":18000,"station_id":"ce4bhe12rcd13ifvqf30","pricing_plan_id":"cebpf4jnsgd1na2vs0mg"},{"bike_id":"ab0969b2-ee26-4f19-85ab-c14d4e191d57","system_id":"levelo_inurba_marseille","lat":43.30929,"lon":5.40146,"is_reserved":false,"is_disabled":false,"rental_uris":{"android":"levelo://app?vid=ab0969b2-ee26-4f19-85ab-c14d4e191d57","ios":"levelo://app?vid=ab0969b2-ee26-4f19-85ab-c14d4e191d57"},"vehicle_type_id":"4","last_reported":1761871969,"current_range_meters":18000,"station_id":"ce4bgvp2rcd13ifvqct0","pricing_plan_id":"cebpf4jnsgd1na2vs0mg"},{"bike_id":"4a779dc6-17a1-477c-8273-bcfee0d0fe7f","system_id":"levelo_inurba_marseille","lat":43.30915,"lon":5.40142,"is_reserved":false,"is_disabled":false,"rental_uris":{"android":"levelo://app?vid=4a779dc6-17a1-477c-8273-bcfee0d0fe7f","ios":"levelo://app?vid=4a779dc6-17a1-477c-8273-bcfee0d0fe7f"},"vehicle_type_id":"4","last_reported":1761871969,"current_range_meters":18000,"station_id":"ce4bgvp2rcd13ifvqct0","pricing_plan_id":"cebpf4jnsgd1na2vs0mg"},{"bike_id":"76f709ee-66ae-4349-ad46-c0bc259acdc4","system_id":"levelo_inurba_marseille","lat":43.29273,"lon":5.3843,"is_reserved":false,"is_disabled":false,"rental_uris":{"android":"levelo://app?vid=76f709ee-66ae-4349-ad46-c0bc259acdc4","ios":"levelo://app?vid=76f709ee-66ae-4349-ad46-c0bc259acdc4"},"vehicle_type_id":"4","last_reported":1761871969,"current_range_meters":18000,"station_id":"ce4bh692rcd13ifvqea0","pricing_plan_id":"cebpf4jnsgd1na2vs0mg"},{"bike_id":"c015c7a2-82a9-4665-ab56-4c69e7c6c92c","system_id":"levelo_inurba_marseille","lat":43.27915,"lon":5.395866,"is_reserved":false,"is_disabled":false,"rental_uris":{"android":"levelo://app?vid=c015c7a2-82a9-4665-ab56-4c69e7c6c92c","ios":"levelo://app?vid=c015c7a2-82a9-4665-ab56-4c69e7c6c92c"},"vehicle_type_id":"4","last_reported":1761871969,"current_range_meters":18000,"station_id":"ce4bhf92rcd13ifvqf40","pricing_plan_id":"cebpf4jnsgd1na2vs0mg"},{"bike_id":"5a6f7d94-16c4-4bbc-813d-2517809625c2","system_id":"levelo_inurba_marseille","lat":43.32002,"lon":5.38135,"is_reserved":false,"is_disabled":false,"rental_uris":{"android":"levelo://app?vid=5a6f7d94-16c4-4bbc-813d-2517809625c2","ios":"levelo://app?vid=5a6f7d94-16c4-4bbc-813d-2517809625c2"},"vehicle_type_id":"4","last_reported":1761871969,"current_range_meters":18000,"station_id":"ce4bhr12rcd13ifvqhpg","pricing_plan_id":"cebpf4jnsgd1na2vs0mg"},{"bike_id":"41eacc65-ef0c-4f17-8036-e1e667518eae","system_id":"levelo_inurba_marseille","lat":43.29039,"lon":5.39981,"is_reserved":false,"is_disabled":false,"rental_uris":{"android":"levelo://app?vid=41eacc65-ef0c-4f17-8036-e1e667518eae","ios":"levelo://app?vid=41eacc65-ef0c-4f17-8036-e1e667518eae"},"vehicle_type_id":"4","last_reported":1761871969,"current_range_meters":18000,"station_id":"ce4bh392rcd13ifvqdm0","pricing_plan_id":"cebpf4jnsgd1na2vs0mg"},{"bike_id":"1a77fe62-2536-43f5-a256-826db41f5c6b","system_id":"levelo_inurba_marseille","lat":43.25328,"lon":5.42173,"is_reserved":false,"is_disabled":false,"rental_uris":{"android":"levelo://app?vid=1a77fe62-2536-43f5-a256-826db41f5c6b","ios":"levelo://app?vid=1a77fe62-2536-43f5-a256-826db41f5c6b"},"vehicle_type_id":"4","last_reported":1761871969,"current_range_meters":18000,"station_id":"st_d2m65c5bi1j21697t3ng","pricing_plan_id":"cebpf4jnsgd1na2vs0mg"},{"bike_id":"a9cdbb07-222c-4ae2-b8a0-add1896b5ebf","system_id":"levelo_inurba_marseille","lat":43.26073,"lon":5.39389,"is_reserved":false,"is_disabled":false,"rental_uris":{"android":"levelo://app?vid=a9cdbb07-222c-4ae2-b8a0-add1896b5ebf","ios":"levelo://app?vid=a9cdbb07-222c-4ae2-b8a0-add1896b5ebf"},"vehicle_type_id":"4","last_reported":1761871969,"current_range_meters":18800,"station_id":"ce4bhh92rcd13ifvqfj0","pricing_plan_id":"cebpf4jnsgd1na2vs0mg"},{"bike_id":"1823a0d3-0875-448f-8699-d95e481be325","system_id":"levelo_inurba_marseille","lat":43.310717,"lon":5.383584,"is_reserved":false,"is_disabled":false,"rental_uris":{"android":"levelo://app?vid=1823a0d3-0875-448f-8699-d95e481be325","ios":"levelo://app?vid=1823a0d3-0875-448f-8699-d95e481be325"},"vehicle_type_id":"4","last_reported":1761871969,"current_range_meters":18800,"station_id":"ce4bgv92rcd13ifvqcr0","pricing_plan_id":"cebpf4jnsgd1na2vs0mg"},{"bike_id":"e7ead618-cc2b-4c53-bc61-330caff21889","system_id":"levelo_inurba_marseille","lat":43.253386,"lon":5.421685,"is_reserved":false,"is_disabled":false,"rental_uris":{"android":"levelo://app?vid=e7ead618-cc2b-4c53-bc61-330caff21889","ios":"levelo://app?vid=e7ead618-cc2b-4c53-bc61-330caff21889"},"vehicle_type_id":"4","last_reported":1761871969,"current_range_meters":18800,"station_id":"st_d2m65c5bi1j21697t3ng","pricing_plan_id":"cebpf4jnsgd1na2vs0mg"},{"bike_id":"1cd8c4b7-c2b1-43f0-a1af-b943b24e4154","system_id":"levelo_inurba_marseille","lat":43.30282,"lon":5.40063,"is_reserved":false,"is_disabled":false,"rental_uris":{"android":"levelo://app?vid=1cd8c4b7-c2b1-43f0-a1af-b943b24e4154","ios":"levelo://app?vid=1cd8c4b7-c2b1-43f0-a1af-b943b24e4154"},"vehicle_type_id":"4","last_reported":1761871969,"current_range_meters":18800,"station_id":"ce4bgvh2rcd13ifvqcs0","pricing_plan_id":"cebpf4jnsgd1na2vs0mg"},{"bike_id":"57eee411-e5e3-47c5-8454-02b34dfc88c4","system_id":"levelo_inurba_marseille","lat":43.31382,"lon":5.38497,"is_reserved":false,"is_disabled":false,"rental_uris":{"android":"levelo://app?vid=57eee411-e5e3-47c5-8454-02b34dfc88c4","ios":"levelo://app?vid=57eee411-e5e3-47c5-8454-02b34dfc88c4"},"vehicle_type_id":"4","last_reported":1761871969,"current_range_meters":18800,"station_id":"ce4bgt92rcd13ifvqcf0","pricing_plan_id":"cebpf4jnsgd1na2vs0mg"},{"bike_id":"6c371dfb-e785-4888-8426-5f27b3e801a9","system_id":"levelo_inurba_marseille","lat":43.28697,"lon":5.37333,"is_reserved":false,"is_disabled":false,"rental_uris":{"android":"levelo://app?vid=6c371dfb-e785-4888-8426-5f27b3e801a9","ios":"levelo://app?vid=6c371dfb-e785-4888-8426-5f27b3e801a9"},"vehicle_type_id":"4","last_reported":1761871969,"current_range_meters":18800,"station_id":"ce4bh3p2rcd13ifvqdq0","pricing_plan_id":"cebpf4jnsgd1na2vs0mg"},{"bike_id":"74c92432-071a-4cbc-9f12-0b0b3a01b2a6","system_id":"levelo_inurba_marseille","lat":43.28201,"lon":5.39054,"is_reserved":false,"is_disabled":false,"rental_uris":{"android":"levelo://app?vid=74c92432-071a-4cbc-9f12-0b0b3a01b2a6","ios":"levelo://app?vid=74c92432-071a-4cbc-9f12-0b0b3a01b2a6"},"vehicle_type_id":"4","last_reported":1761871969,"current_range_meters":18800,"station_id":"ce4bhn92rcd13ifvqgsg","pricing_plan_id":"cebpf4jnsgd1na2vs0mg"},{"bike_id":"5520c76b-01be-41fc-bd60-376896635d08","system_id":"levelo_inurba_marseille","lat":43.28407,"lon":5.37507,"is_reserved":false,"is_disabled":false,"rental_uris":{"android":"levelo://app?vid=5520c76b-01be-41fc-bd60-376896635d08","ios":"levelo://app?vid=5520c76b-01be-41fc-bd60-376896635d08"},"vehicle_type_id":"4","last_reported":1761871969,"current_range_meters":19200,"station_id":"ce4bh412rcd13ifvqds0","pricing_plan_id":"cebpf4jnsgd1na2vs0mg"},{"bike_id":"be584dff-101a-4aeb-b0dd-3ca58ff74674","system_id":"levelo_inurba_marseille","lat":43.30546,"lon":5.38428,"is_reserved":false,"is_disabled":false,"rental_uris":{"android":"levelo://app?vid=be584dff-101a-4aeb-b0dd-3ca58ff74674","ios":"levelo://app?vid=be584dff-101a-4aeb-b0dd-3ca58ff74674"},"vehicle_type_id":"4","last_reported":1761871969,"current_range_meters":19200,"station_id":"ce4bgg92rcd13ifvqb30","pricing_plan_id":"cebpf4jnsgd1na2vs0mg"},{"bike_id":"b1529460-35c1-49c7-a059-1efcb986b42d","system_id":"levelo_inurba_marseille","lat":43.287839,"lon":5.385559,"is_reserved":false,"is_disabled":false,"rental_uris":{"android":"levelo://app?vid=b1529460-35c1-49c7-a059-1efcb986b42d","ios":"levelo://app?vid=b1529460-35c1-49c7-a059-1efcb986b42d"},"vehicle_type_id":"4","last_reported":1761871969,"current_range_meters":19200,"station_id":"","pricing_plan_id":"cebpf4jnsgd1na2vs0mg"},{"bike_id":"b1e81361-2b17-4ef1-8a58-6def5753471b","system_id":"levelo_inurba_marseille","lat":43.33753,"lon":5.37484,"is_reserved":false,"is_disabled":false,"rental_uris":{"android":"levelo://app?vid=b1e81361-2b17-4ef1-8a58-6def5753471b","ios":"levelo://app?vid=b1e81361-2b17-4ef1-8a58-6def5753471b"},"vehicle_type_id":"4","last_reported":1761871969,"current_range_meters":19200,"station_id":"","pricing_plan_id":"cebpf4jnsgd1na2vs0mg"},{"bike_id":"9ea9f5b7-d963-4546-b85c-1d443d48cac7","system_id":"levelo_inurba_marseille","lat":43.27214,"lon":5.39193,"is_reserved":false,"is_disabled":true,"rental_uris":{"android":"levelo://app?vid=9ea9f5b7-d963-4546-b85c-1d443d48cac7","ios":"levelo://app?vid=9ea9f5b7-d963-4546-b85c-1d443d48cac7"},"vehicle_type_id":"4","last_reported":1761871969,"current_range_meters":19200,"station_id":"ce4bhhp2rcd13ifvqfm0","pricing_plan_id":"cebpf4jnsgd1na2vs0mg"},{"bike_id":"3ce91350-fc6e-4786-864c-58e7be61720c","system_id":"levelo_inurba_marseille","lat":43.28933,"lon":5.36621,"is_reserved":false,"is_disabled":false,"rental_uris":{"android":"levelo://app?vid=3ce91350-fc6e-4786-864c-58e7be61720c","ios":"levelo://app?vid=3ce91350-fc6e-4786-864c-58e7be61720c"},"vehicle_type_id":"4","last_reported":1761871969,"current_range_meters":19200,"station_id":"ce4bhap2rcd13ifvqek0","pricing_plan_id":"cebpf4jnsgd1na2vs0mg"},{"bike_id":"505ad562-9af7-419e-be5b-eabc702a1a47","system_id":"levelo_inurba_marseille","lat":43.28856,"lon":5.35846,"is_reserved":false,"is_disabled":false,"rental_uris":{"android":"levelo://app?vid=505ad562-9af7-419e-be5b-eabc702a1a47","ios":"levelo://app?vid=505ad562-9af7-419e-be5b-eabc702a1a47"},"vehicle_type_id":"4","last_reported":1761871969,"current_range_meters":19200,"station_id":"ce4bhb12rcd13ifvqem0","pricing_plan_id":"cebpf4jnsgd1na2vs0mg"},{"bike_id":"52b117f2-4c01-4f66-887d-006722496528","system_id":"levelo_inurba_marseille","lat":43.30883,"lon":5.37154,"is_reserved":false,"is_disabled":false,"rental_uris":{"android":"levelo://app?vid=52b117f2-4c01-4f66-887d-006722496528","ios":"levelo://app?vid=52b117f2-4c01-4f66-887d-006722496528"},"vehicle_type_id":"4","last_reported":1761871969,"current_range_meters":19200,"station_id":"ce4bguh2rcd13ifvqckg","pricing_plan_id":"cebpf4jnsgd1na2vs0mg"},{"bike_id":"efab51bb-2873-49b5-8a21-1850eb33cbaf","system_id":"levelo_inurba_marseille","lat":43.24061,"lon":5.37762,"is_reserved":false,"is_disabled":false,"rental_uris":{"android":"levelo://app?vid=efab51bb-2873-49b5-8a21-1850eb33cbaf","ios":"levelo://app?vid=efab51bb-2873-49b5-8a21-1850eb33cbaf"},"vehicle_type_id":"4","last_reported":1761871969,"current_range_meters":19200,"station_id":"ce4bhnp2rcd13ifvqgvg","pricing_plan_id":"cebpf4jnsgd1na2vs0mg"},{"bike_id":"859bd123-0d20-48f1-9f0f-d434bb125ef1","system_id":"levelo_inurba_marseille","lat":43.30302,"lon":5.39198,"is_reserved":false,"is_disabled":true,"rental_uris":{"android":"levelo://app?vid=859bd123-0d20-48f1-9f0f-d434bb125ef1","ios":"levelo://app?vid=859bd123-0d20-48f1-9f0f-d434bb125ef1"},"vehicle_type_id":"4","last_reported":1761871969,"current_range_meters":19200,"station_id":"ce4bgkh2rcd13ifvqbk0","pricing_plan_id":"cebpf4jnsgd1na2vs0mg"},{"bike_id":"1fd613a7-8f1b-4e74-9412-0797ddbd231e","system_id":"levelo_inurba_marseille","lat":43.296136,"lon":5.377042,"is_reserved":false,"is_disabled":true,"rental_uris":{"android":"levelo://app?vid=1fd613a7-8f1b-4e74-9412-0797ddbd231e","ios":"levelo://app?vid=1fd613a7-8f1b-4e74-9412-0797ddbd231e"},"vehicle_type_id":"4","last_reported":1761871969,"current_range_meters":19200,"station_id":"ce4bgi92rcd13ifvqb90","pricing_plan_id":"cebpf4jnsgd1na2vs0mg"},{"bike_id":"c2686a17-bb9a-48e2-ae7d-a65e3ec7d887","system_id":"levelo_inurba_marseille","lat":43.31369,"lon":5.385,"is_reserved":false,"is_disabled":false,"rental_uris":{"android":"levelo://app?vid=c2686a17-bb9a-48e2-ae7d-a65e3ec7d887","ios":"levelo://app?vid=c2686a17-bb9a-48e2-ae7d-a65e3ec7d887"},"vehicle_type_id":"4","last_reported":1761871969,"current_range_meters":19200,"station_id":"ce4bgt92rcd13ifvqcf0","pricing_plan_id":"cebpf4jnsgd1na2vs0mg"},{"bike_id":"6de65277-13c1-4750-8ef6-98ffdbb9d7de","system_id":"levelo_inurba_marseille","lat":43.289337,"lon":5.366456,"is_reserved":false,"is_disabled":false,"rental_uris":{"android":"levelo://app?vid=6de65277-13c1-4750-8ef6-98ffdbb9d7de","ios":"levelo://app?vid=6de65277-13c1-4750-8ef6-98ffdbb9d7de"},"vehicle_type_id":"4","last_reported":1761871969,"current_range_meters":19200,"station_id":"ce4bhap2rcd13ifvqek0","pricing_plan_id":"cebpf4jnsgd1na2vs0mg"},{"bike_id":"33fb74ff-b00a-42bd-b7ef-62a81ee75bb0","system_id":"levelo_inurba_marseille","lat":43.3089,"lon":5.39637,"is_reserved":false,"is_disabled":false,"rental_uris":{"android":"levelo://app?vid=33fb74ff-b00a-42bd-b7ef-62a81ee75bb0","ios":"levelo://app?vid=33fb74ff-b00a-42bd-b7ef-62a81ee75bb0"},"vehicle_type_id":"4","last_reported":1761871969,"current_range_meters":19200,"station_id":"ce4bh012rcd13ifvqcv0","pricing_plan_id":"cebpf4jnsgd1na2vs0mg"},{"bike_id":"53c3b37a-5a5d-472c-9ab8-af6f1fe1273d","system_id":"levelo_inurba_marseille","lat":43.28936,"lon":5.36635,"is_reserved":false,"is_disabled":false,"rental_uris":{"android":"levelo://app?vid=53c3b37a-5a5d-472c-9ab8-af6f1fe1273d","ios":"levelo://app?vid=53c3b37a-5a5d-472c-9ab8-af6f1fe1273d"},