{"last_updated":1756318487,"ttl":60,"version":"2.2","data":{"bikes":[{"bike_id":"897d942a-dd7c-4eb6-becb-106132f485d0","system_id":"levelo_inurba_marseille","lat":43.301477,"lon":5.380656,"is_reserved":false,"is_disabled":false,"rental_uris":{"android":"levelo://app?vid=897d942a-dd7c-4eb6-becb-106132f485d0","ios":"levelo://app?vid=897d942a-dd7c-4eb6-becb-106132f485d0"},"vehicle_type_id":"4","last_reported":1756318487,"current_range_meters":2800,"station_id":"ce4bgjp2rcd13ifvqbh0","pricing_plan_id":"cebpf4jnsgd1na2vs0mg"},{"bike_id":"03be758f-3e6d-4c72-8876-95a4359600d6","system_id":"levelo_inurba_marseille","lat":43.33776,"lon":5.37526,"is_reserved":false,"is_disabled":false,"rental_uris":{"android":"levelo://app?vid=03be758f-3e6d-4c72-8876-95a4359600d6","ios":"levelo://app?vid=03be758f-3e6d-4c72-8876-95a4359600d6"},"vehicle_type_id":"4","last_reported":1756318487,"current_range_meters":2800,"station_id":"","pricing_plan_id":"cebpf4jnsgd1na2vs0mg"},{"bike_id":"5f9aab52-646b-44c7-a2f8-1a4275ad32bd","system_id":"levelo_inurba_marseille","lat":43.27934,"lon":5.41039,"is_reserved":false,"is_disabled":false,"rental_uris":{"android":"levelo://app?vid=5f9aab52-646b-44c7-a2f8-1a4275ad32bd","ios":"levelo://app?vid=5f9aab52-646b-44c7-a2f8-1a4275ad32bd"},"vehicle_type_id":"4","last_reported":1756318487,"current_range_meters":2800,"station_id":"ce4bhnp2rcd13ifvqh0g","pricing_plan_id":"cebpf4jnsgd1na2vs0mg"},{"bike_id":"1c78b999-b436-414a-b8e7-a08f36a3194e","system_id":"levelo_inurba_marseille","lat":43.295807,"lon":5.375201,"is_reserved":false,"is_disabled":false,"rental_uris":{"android":"levelo://app?vid=1c78b999-b436-414a-b8e7-a08f36a3194e","ios":"levelo://app?vid=1c78b999-b436-414a-b8e7-a08f36a3194e"},"vehicle_type_id":"4","last_reported":1756318487,"current_range_meters":2000,"station_id":"ce4bgh92rcd13ifvqb50","pricing_plan_id":"cebpf4jnsgd1na2vs0mg"},{"bike_id":"d97e0228-246d-4dc8-a487-4de939b0d8ac","system_id":"levelo_inurba_marseille","lat":43.27168,"lon":5.40993,"is_reserved":false,"is_disabled":false,"rental_uris":{"android":"levelo://app?vid=d97e0228-246d-4dc8-a487-4de939b0d8ac","ios":"levelo://app?vid=d97e0228-246d-4dc8-a487-4de939b0d8ac"},"vehicle_type_id":"4","last_reported":1756318487,"current_range_meters":800,"station_id":"ce4bhl12rcd13ifvqgf0","pricing_plan_id":"cebpf4jnsgd1na2vs0mg"},{"bike_id":"468998d0-e0e3-4a51-b596-a83ffd743786","system_id":"levelo_inurba_marseille","lat":43.29297,"lon":5.374579,"is_reserved":false,"is_disabled":false,"rental_uris":{"android":"levelo://app?vid=468998d0-e0e3-4a51-b596-a83ffd743786","ios":"levelo://app?vid=468998d0-e0e3-4a51-b596-a83ffd743786"},"vehicle_type_id":"4","last_reported":1756318487,"current_range_meters":2800,"station_id":"ce4bgi12rcd13ifvqb70","pricing_plan_id":"cebpf4jnsgd1na2vs0mg"},{"bike_id":"16be216b-6622-446d-bf19-76f24c6060b4","system_id":"levelo_inurba_marseille","lat":43.29609,"lon":5.39577,"is_reserved":false,"is_disabled":false,"rental_uris":{"android":"levelo://app?vid=16be216b-6622-446d-bf19-76f24c6060b4","ios":"levelo://app?vid=16be216b-6622-446d-bf19-76f24c6060b4"},"vehicle_type_id":"4","last_reported":1756318487,"current_range_meters":2800,"station_id":"","pricing_plan_id":"cebpf4jnsgd1na2vs0mg"},{"bike_id":"23047d3c-4b28-435e-9909-b7832e017200","system_id":"levelo_inurba_marseille","lat":43.29862,"lon":5.384153,"is_reserved":false,"is_disabled":false,"rental_uris":{"android":"levelo://app?vid=23047d3c-4b28-435e-9909-b7832e017200","ios":"levelo://app?vid=23047d3c-4b28-435e-9909-b7832e017200"},"vehicle_type_id":"4","last_reported":1756318487,"current_range_meters":4000,"station_id":"ce4bgj92rcd13ifvqbd0","pricing_plan_id":"cebpf4jnsgd1na2vs0mg"},{"bike_id":"d88faa66-129e-4e59-9a5d-0aebabc177e6","system_id":"levelo_inurba_marseille","lat":43.26933,"lon":5.38923,"is_reserved":false,"is_disabled":false,"rental_uris":{"android":"levelo://app?vid=d88faa66-129e-4e59-9a5d-0aebabc177e6","ios":"levelo://app?vid=d88faa66-129e-4e59-9a5d-0aebabc177e6"},"vehicle_type_id":"4","last_reported":1756318487,"current_range_meters":3200,"station_id":"ce4bhhh2rcd13ifvqfl0","pricing_plan_id":"cebpf4jnsgd1na2vs0mg"},{"bike_id":"74283928-77f8-4461-bae1-cca5bd6e6414","system_id":"levelo_inurba_marseille","lat":43.2952,"lon":5.38542,"is_reserved":false,"is_disabled":false,"rental_uris":{"android":"levelo://app?vid=74283928-77f8-4461-bae1-cca5bd6e6414","ios":"levelo://app?vid=74283928-77f8-4461-bae1-cca5bd6e6414"},"vehicle_type_id":"4","last_reported":1756318487,"current_range_meters":3200,"station_id":"ce4bgih2rcd13ifvqba0","pricing_plan_id":"cebpf4jnsgd1na2vs0mg"},{"bike_id":"82497651-afea-49f9-9641-e41857a2c275","system_id":"levelo_inurba_marseille","lat":43.3361,"lon":5.41034,"is_reserved":false,"is_disabled":false,"rental_uris":{"android":"levelo://app?vid=82497651-afea-49f9-9641-e41857a2c275","ios":"levelo://app?vid=82497651-afea-49f9-9641-e41857a2c275"},"vehicle_type_id":"4","last_reported":1756318487,"current_range_meters":3200,"station_id":"ce4bhqh2rcd13ifvqhmg","pricing_plan_id":"cebpf4jnsgd1na2vs0mg"},{"bike_id":"3739e3f4-a1a9-467e-986c-e8f802ae1ce8","system_id":"levelo_inurba_marseille","lat":43.28154,"lon":5.42618,"is_reserved":false,"is_disabled":false,"rental_uris":{"android":"levelo://app?vid=3739e3f4-a1a9-467e-986c-e8f802ae1ce8","ios":"levelo://app?vid=3739e3f4-a1a9-467e-986c-e8f802ae1ce8"},"vehicle_type_id":"4","last_reported":1756318487,"current_range_meters":3600,"station_id":"ce4bhnh2rcd13ifvqgug","pricing_plan_id":"cebpf4jnsgd1na2vs0mg"},{"bike_id":"e84fb384-a1cd-40d5-a46c-ee1d1e05d089","system_id":"levelo_inurba_marseille","lat":43.28266,"lon":5.35067,"is_reserved":false,"is_disabled":false,"rental_uris":{"android":"levelo://app?vid=e84fb384-a1cd-40d5-a46c-ee1d1e05d089","ios":"levelo://app?vid=e84fb384-a1cd-40d5-a46c-ee1d1e05d089"},"vehicle_type_id":"4","last_reported":1756318487,"current_range_meters":3600,"station_id":"ce4bhbp2rcd13ifvqerg","pricing_plan_id":"cebpf4jnsgd1na2vs0mg"},{"bike_id":"9dc26a70-b694-4cb0-ba22-63b650a8d39e","system_id":"levelo_inurba_marseille","lat":43.23177,"lon":5.39994,"is_reserved":false,"is_disabled":false,"rental_uris":{"android":"levelo://app?vid=9dc26a70-b694-4cb0-ba22-63b650a8d39e","ios":"levelo://app?vid=9dc26a70-b694-4cb0-ba22-63b650a8d39e"},"vehicle_type_id":"4","last_reported":1756318487,"current_range_meters":3600,"station_id":"ce4bhn12rcd13ifvqgqg","pricing_plan_id":"cebpf4jnsgd1na2vs0mg"},{"bike_id":"47715a0e-b9a2-42f0-9317-e43100f80c1c","system_id":"levelo_inurba_marseille","lat":43.29194,"lon":5.35786,"is_reserved":false,"is_disabled":false,"rental_uris":{"android":"levelo://app?vid=47715a0e-b9a2-42f0-9317-e43100f80c1c","ios":"levelo://app?vid=47715a0e-b9a2-42f0-9317-e43100f80c1c"},"vehicle_type_id":"4","last_reported":1756318487,"current_range_meters":3200,"station_id":"ce4bhb12rcd13ifvqel0","pricing_plan_id":"cebpf4jnsgd1na2vs0mg"},{"bike_id":"844e4b0b-7d85-409f-b144-cdcf11019f48","system_id":"levelo_inurba_marseille","lat":43.29277,"lon":5.36853,"is_reserved":false,"is_disabled":false,"rental_uris":{"android":"levelo://app?vid=844e4b0b-7d85-409f-b144-cdcf11019f48","ios":"levelo://app?vid=844e4b0b-7d85-409f-b144-cdcf11019f48"},"vehicle_type_id":"4","last_reported":1756318487,"current_range_meters":3600,"station_id":"ce4bhbp2rcd13ifvqesg","pricing_plan_id":"cebpf4jnsgd1na2vs0mg"},{"bike_id":"fa7e9fd4-ef2d-4c8c-b3a1-f7c13b8c66a6","system_id":"levelo_inurba_marseille","lat":43.29842,"lon":5.36268,"is_reserved":false,"is_disabled":false,"rental_uris":{"android":"levelo://app?vid=fa7e9fd4-ef2d-4c8c-b3a1-f7c13b8c66a6","ios":"levelo://app?vid=fa7e9fd4-ef2d-4c8c-b3a1-f7c13b8c66a6"},"vehicle_type_id":"4","last_reported":1756318487,"current_range_meters":4000,"station_id":"ce4bgpp2rcd13ifvqc3g","pricing_plan_id":"cebpf4jnsgd1na2vs0mg"},{"bike_id":"eaeb0eea-a819-4280-86a6-0b0cb2e7701a","system_id":"levelo_inurba_marseille","lat":43.22924,"lon":5.35371,"is_reserved":false,"is_disabled":false,"rental_uris":{"android":"levelo://app?vid=eaeb0eea-a819-4280-86a6-0b0cb2e7701a","ios":"levelo://app?vid=eaeb0eea-a819-4280-86a6-0b0cb2e7701a"},"vehicle_type_id":"4","last_reported":1756318487,"current_range_meters":4400,"station_id":"cpo3532slgdg3j2ikp40","pricing_plan_id":"cebpf4jnsgd1na2vs0mg"},{"bike_id":"cec7534a-6ac7-49eb-a624-88c8bfbff840","system_id":"levelo_inurba_marseille","lat":43.28851,"lon":5.39315,"is_reserved":false,"is_disabled":false,"rental_uris":{"android":"levelo://app?vid=cec7534a-6ac7-49eb-a624-88c8bfbff840","ios":"levelo://app?vid=cec7534a-6ac7-49eb-a624-88c8bfbff840"},"vehicle_type_id":"4","last_reported":1756318487,"current_range_meters":4400,"station_id":"ce4bh2p2rcd13ifvqdi0","pricing_plan_id":"cebpf4jnsgd1na2vs0mg"},{"bike_id":"3add44d8-49b4-46c3-a778-11b696c2bd26","system_id":"levelo_inurba_marseille","lat":43.21186,"lon":5.35083,"is_reserved":false,"is_disabled":false,"rental_uris":{"android":"levelo://app?vid=3add44d8-49b4-46c3-a778-11b696c2bd26","ios":"levelo://app?vid=3add44d8-49b4-46c3-a778-11b696c2bd26"},"vehicle_type_id":"4","last_reported":1756318487,"current_range_meters":4400,"station_id":"st_cvj6sg6p6f1abm77japg","pricing_plan_id":"cebpf4jnsgd1na2vs0mg"},{"bike_id":"3a8b134a-3743-4c3a-a67a-59bcb3f19a1e","system_id":"levelo_inurba_marseille","lat":43.28443,"lon":5.39201,"is_reserved":false,"is_disabled":false,"rental_uris":{"android":"levelo://app?vid=3a8b134a-3743-4c3a-a67a-59bcb3f19a1e","ios":"levelo://app?vid=3a8b134a-3743-4c3a-a67a-59bcb3f19a1e"},"vehicle_type_id":"4","last_reported":1756318487,"current_range_meters":4800,"station_id":"ce4bhoh2rcd13ifvqh5g","pricing_plan_id":"cebpf4jnsgd1na2vs0mg"},{"bike_id":"cdf809f2-0ec3-46a0-9b68-a34c20622d7c","system_id":"levelo_inurba_marseille","lat":43.26194,"lon":5.37433,"is_reserved":false,"is_disabled":false,"rental_uris":{"android":"levelo://app?vid=cdf809f2-0ec3-46a0-9b68-a34c20622d7c","ios":"levelo://app?vid=cdf809f2-0ec3-46a0-9b68-a34c20622d7c"},"vehicle_type_id":"4","last_reported":1756318487,"current_range_meters":4800,"station_id":"ce4bhgp2rcd13ifvqfc0","pricing_plan_id":"cebpf4jnsgd1na2vs0mg"},{"bike_id":"22574ee2-d41e-487c-94b1-fca27c25b2b0","system_id":"levelo_inurba_marseille","lat":43.28853,"lon":5.39312,"is_reserved":false,"is_disabled":false,"rental_uris":{"android":"levelo://app?vid=22574ee2-d41e-487c-94b1-fca27c25b2b0","ios":"levelo://app?vid=22574ee2-d41e-487c-94b1-fca27c25b2b0"},"vehicle_type_id":"4","last_reported":1756318487,"current_range_meters":5600,"station_id":"ce4bh2p2rcd13ifvqdi0","pricing_plan_id":"cebpf4jnsgd1na2vs0mg"},{"bike_id":"72a2e1b4-92a0-4070-a9f9-8b328edbb8bd","system_id":"levelo_inurba_marseille","lat":43.28458,"lon":5.35887,"is_reserved":false,"is_disabled":false,"rental_uris":{"android":"levelo://app?vid=72a2e1b4-92a0-4070-a9f9-8b328edbb8bd","ios":"levelo://app?vid=72a2e1b4-92a0-4070-a9f9-8b328edbb8bd"},"vehicle_type_id":"4","last_reported":1756318487,"current_range_meters":3600,"station_id":"ce4bhah2rcd13ifvqei0","pricing_plan_id":"cebpf4jnsgd1na2vs0mg"},{"bike_id":"333efd37-9d8e-4452-98d7-03968be1c1b0","system_id":"levelo_inurba_marseille","lat":43.28722,"lon":5.37941,"is_reserved":false,"is_disabled":false,"rental_uris":{"android":"levelo://app?vid=333efd37-9d8e-4452-98d7-03968be1c1b0","ios":"levelo://app?vid=333efd37-9d8e-4452-98d7-03968be1c1b0"},"vehicle_type_id":"4","last_reported":1756318487,"current_range_meters":5600,"station_id":"ce4bh9p2rcd13ifvqec0","pricing_plan_id":"cebpf4jnsgd1na2vs0mg"},{"bike_id":"0f42b87c-4b64-4632-8a37-f315695dea84","system_id":"levelo_inurba_marseille","lat":43.260069,"lon":5.397912,"is_reserved":false,"is_disabled":false,"rental_uris":{"android":"levelo://app?vid=0f42b87c-4b64-4632-8a37-f315695dea84","ios":"levelo://app?vid=0f42b87c-4b64-4632-8a37-f315695dea84"},"vehicle_type_id":"4","last_reported":1756318487,"current_range_meters":5600,"station_id":"ce4bhip2rcd13ifvqft0","pricing_plan_id":"cebpf4jnsgd1na2vs0mg"},{"bike_id":"0dca0f10-702c-4a84-987c-659d1d9bd912","system_id":"levelo_inurba_marseille","lat":43.30878,"lon":5.37174,"is_reserved":false,"is_disabled":true,"rental_uris":{"android":"levelo://app?vid=0dca0f10-702c-4a84-987c-659d1d9bd912","ios":"levelo://app?vid=0dca0f10-702c-4a84-987c-659d1d9bd912"},"vehicle_type_id":"4","last_reported":1756318487,"current_range_meters":6000,"station_id":"ce4bguh2rcd13ifvqckg","pricing_plan_id":"cebpf4jnsgd1na2vs0mg"},{"bike_id":"fa41c9e0-4ecc-4647-90b5-dd1c95c86762","system_id":"levelo_inurba_marseille","lat":43.30302,"lon":5.36889,"is_reserved":false,"is_disabled":false,"rental_uris":{"android":"levelo://app?vid=fa41c9e0-4ecc-4647-90b5-dd1c95c86762","ios":"levelo://app?vid=fa41c9e0-4ecc-4647-90b5-dd1c95c86762"},"vehicle_type_id":"4","last_reported":1756318487,"current_range_meters":9200,"station_id":"ce4bgqh2rcd13ifvqc5g","pricing_plan_id":"cebpf4jnsgd1na2vs0mg"},{"bike_id":"79a4fbf2-296f-4070-a326-b7c5bee27e44","system_id":"levelo_inurba_marseille","lat":43.29629,"lon":5.37723,"is_reserved":false,"is_disabled":false,"rental_uris":{"android":"levelo://app?vid=79a4fbf2-296f-4070-a326-b7c5bee27e44","ios":"levelo://app?vid=79a4fbf2-296f-4070-a326-b7c5bee27e44"},"vehicle_type_id":"4","last_reported":1756318487,"current_range_meters":6400,"station_id":"ce4bgi92rcd13ifvqb90","pricing_plan_id":"cebpf4jnsgd1na2vs0mg"},{"bike_id":"23d1a3f4-edef-483d-9025-25f0723780ec","system_id":"levelo_inurba_marseille","lat":43.27617,"lon":5.36105,"is_reserved":false,"is_disabled":false,"rental_uris":{"android":"levelo://app?vid=23d1a3f4-edef-483d-9025-25f0723780ec","ios":"levelo://app?vid=23d1a3f4-edef-483d-9025-25f0723780ec"},"vehicle_type_id":"4","last_reported":1756318487,"current_range_meters":4800,"station_id":"ce4bgj92rcd13ifvqbe0","pricing_plan_id":"cebpf4jnsgd1na2vs0mg"},{"bike_id":"9eddc19c-4d66-4671-81a8-5ffa7a68db07","system_id":"levelo_inurba_marseille","lat":43.21187,"lon":5.35075,"is_reserved":false,"is_disabled":false,"rental_uris":{"android":"levelo://app?vid=9eddc19c-4d66-4671-81a8-5ffa7a68db07","ios":"levelo://app?vid=9eddc19c-4d66-4671-81a8-5ffa7a68db07"},"vehicle_type_id":"4","last_reported":1756318487,"current_range_meters":6000,"station_id":"st_cvj6sg6p6f1abm77japg","pricing_plan_id":"cebpf4jnsgd1na2vs0mg"},{"bike_id":"0534fd98-d8d7-46c6-9650-068609381a60","system_id":"levelo_inurba_marseille","lat":43.28607,"lon":5.35102,"is_reserved":false,"is_disabled":false,"rental_uris":{"android":"levelo://app?vid=0534fd98-d8d7-46c6-9650-068609381a60","ios":"levelo://app?vid=0534fd98-d8d7-46c6-9650-068609381a60"},"vehicle_type_id":"4","last_reported":1756318487,"current_range_meters":6000,"station_id":"ce4bhch2rcd13ifvqeug","pricing_plan_id":"cebpf4jnsgd1na2vs0mg"},{"bike_id":"6641a108-77c0-432e-b44f-0e9cc4e08ed0","system_id":"levelo_inurba_marseille","lat":43.270677,"lon":5.422701,"is_reserved":false,"is_disabled":false,"rental_uris":{"android":"levelo://app?vid=6641a108-77c0-432e-b44f-0e9cc4e08ed0","ios":"levelo://app?vid=6641a108-77c0-432e-b44f-0e9cc4e08ed0"},"vehicle_type_id":"4","last_reported":1756318487,"current_range_meters":6400,"station_id":"ce4bhk92rcd13ifvqgb0","pricing_plan_id":"cebpf4jnsgd1na2vs0mg"},{"bike_id":"249cac9f-782c-4e7b-a30a-c3b794b8fa5c","system_id":"levelo_inurba_marseille","lat":43.28854,"lon":5.39307,"is_reserved":false,"is_disabled":false,"rental_uris":{"android":"levelo://app?vid=249cac9f-782c-4e7b-a30a-c3b794b8fa5c","ios":"levelo://app?vid=249cac9f-782c-4e7b-a30a-c3b794b8fa5c"},"vehicle_type_id":"4","last_reported":1756318487,"current_range_meters":6400,"station_id":"ce4bh2p2rcd13ifvqdi0","pricing_plan_id":"cebpf4jnsgd1na2vs0mg"},{"bike_id":"f6ca0241-6c92-4355-8ac1-e26910c509f8","system_id":"levelo_inurba_marseille","lat":43.28852,"lon":5.39317,"is_reserved":false,"is_disabled":false,"rental_uris":{"android":"levelo://app?vid=f6ca0241-6c92-4355-8ac1-e26910c509f8","ios":"levelo://app?vid=f6ca0241-6c92-4355-8ac1-e26910c509f8"},"vehicle_type_id":"4","last_reported":1756318487,"current_range_meters":6400,"station_id":"ce4bh2p2rcd13ifvqdi0","pricing_plan_id":"cebpf4jnsgd1na2vs0mg"},{"bike_id":"eeb42e78-373a-42a8-ad92-d1dc5831d4c3","system_id":"levelo_inurba_marseille","lat":43.248135,"lon":5.374659,"is_reserved":false,"is_disabled":true,"rental_uris":{"android":"levelo://app?vid=eeb42e78-373a-42a8-ad92-d1dc5831d4c3","ios":"levelo://app?vid=eeb42e78-373a-42a8-ad92-d1dc5831d4c3"},"vehicle_type_id":"4","last_reported":1756318487,"current_range_meters":6400,"station_id":"ce4bhgh2rcd13ifvqfb0","pricing_plan_id":"cebpf4jnsgd1na2vs0mg"},{"bike_id":"6d5595af-d67e-4b9b-aa00-22cd8edcf2d1","system_id":"levelo_inurba_marseille","lat":43.28933,"lon":5.36642,"is_reserved":false,"is_disabled":false,"rental_uris":{"android":"levelo://app?vid=6d5595af-d67e-4b9b-aa00-22cd8edcf2d1","ios":"levelo://app?vid=6d5595af-d67e-4b9b-aa00-22cd8edcf2d1"},"vehicle_type_id":"4","last_reported":1756318487,"current_range_meters":6400,"station_id":"ce4bhap2rcd13ifvqek0","pricing_plan_id":"cebpf4jnsgd1na2vs0mg"},{"bike_id":"74145815-36b3-428d-a6fa-8a92b99c3fac","system_id":"levelo_inurba_marseille","lat":43.29557,"lon":5.42303,"is_reserved":false,"is_disabled":false,"rental_uris":{"android":"levelo://app?vid=74145815-36b3-428d-a6fa-8a92b99c3fac","ios":"levelo://app?vid=74145815-36b3-428d-a6fa-8a92b99c3fac"},"vehicle_type_id":"4","last_reported":1756318487,"current_range_meters":6400,"station_id":"ce4bhph2rcd13ifvqhdg","pricing_plan_id":"cebpf4jnsgd1na2vs0mg"},{"bike_id":"b4a1c2dd-b096-4839-91a9-0abcc1c89882","system_id":"levelo_inurba_marseille","lat":43.29225,"lon":5.36068,"is_reserved":false,"is_disabled":false,"rental_uris":{"android":"levelo://app?vid=b4a1c2dd-b096-4839-91a9-0abcc1c89882","ios":"levelo://app?vid=b4a1c2dd-b096-4839-91a9-0abcc1c89882"},"vehicle_type_id":"4","last_reported":1756318487,"current_range_meters":6400,"station_id":"ce4bhbh2rcd13ifvqeqg","pricing_plan_id":"cebpf4jnsgd1na2vs0mg"},{"bike_id":"b2a6ca44-19ec-4227-8c74-8b8ac6b46ab5","system_id":"levelo_inurba_marseille","lat":43.29225,"lon":5.36071,"is_reserved":false,"is_disabled":false,"rental_uris":{"android":"levelo://app?vid=b2a6ca44-19ec-4227-8c74-8b8ac6b46ab5","ios":"levelo://app?vid=b2a6ca44-19ec-4227-8c74-8b8ac6b46ab5"},"vehicle_type_id":"4","last_reported":1756318487,"current_range_meters":6400,"station_id":"ce4bhbh2rcd13ifvqeqg","pricing_plan_id":"cebpf4jnsgd1na2vs0mg"},{"bike_id":"165a26d4-3a8c-46b7-8d50-368cef615f24","system_id":"levelo_inurba_marseille","lat":43.28838,"lon":5.39304,"is_reserved":false,"is_disabled":false,"rental_uris":{"android":"levelo://app?vid=165a26d4-3a8c-46b7-8d50-368cef615f24","ios":"levelo://app?vid=165a26d4-3a8c-46b7-8d50-368cef615f24"},"vehicle_type_id":"4","last_reported":1756318487,"current_range_meters":6800,"station_id":"ce4bh2p2rcd13ifvqdi0","pricing_plan_id":"cebpf4jnsgd1na2vs0mg"},{"bike_id":"2732b203-8d34-41ae-80bd-b4f151d77aad","system_id":"levelo_inurba_marseille","lat":43.3025,"lon":5.40541,"is_reserved":false,"is_disabled":false,"rental_uris":{"android":"levelo://app?vid=2732b203-8d34-41ae-80bd-b4f151d77aad","ios":"levelo://app?vid=2732b203-8d34-41ae-80bd-b4f151d77aad"},"vehicle_type_id":"4","last_reported":1756318487,"current_range_meters":6800,"station_id":"","pricing_plan_id":"cebpf4jnsgd1na2vs0mg"},{"bike_id":"0c9d3e54-6288-49b3-907c-e03d7bfa6307","system_id":"levelo_inurba_marseille","lat":43.29631,"lon":5.40593,"is_reserved":false,"is_disabled":false,"rental_uris":{"android":"levelo://app?vid=0c9d3e54-6288-49b3-907c-e03d7bfa6307","ios":"levelo://app?vid=0c9d3e54-6288-49b3-907c-e03d7bfa6307"},"vehicle_type_id":"4","last_reported":1756318487,"current_range_meters":6800,"station_id":"ce4bh0h2rcd13ifvqd60","pricing_plan_id":"cebpf4jnsgd1na2vs0mg"},{"bike_id":"11f01b62-fd62-4029-8fed-c1fa764ddd33","system_id":"levelo_inurba_marseille","lat":43.28288,"lon":5.35073,"is_reserved":false,"is_disabled":false,"rental_uris":{"android":"levelo://app?vid=11f01b62-fd62-4029-8fed-c1fa764ddd33","ios":"levelo://app?vid=11f01b62-fd62-4029-8fed-c1fa764ddd33"},"vehicle_type_id":"4","last_reported":1756318487,"current_range_meters":9600,"station_id":"ce4bhbp2rcd13ifvqerg","pricing_plan_id":"cebpf4jnsgd1na2vs0mg"},{"bike_id":"0d502687-08ef-4491-8893-8a03d8688be8","system_id":"levelo_inurba_marseille","lat":43.29603,"lon":5.36135,"is_reserved":false,"is_disabled":false,"rental_uris":{"android":"levelo://app?vid=0d502687-08ef-4491-8893-8a03d8688be8","ios":"levelo://app?vid=0d502687-08ef-4491-8893-8a03d8688be8"},"vehicle_type_id":"4","last_reported":1756318487,"current_range_meters":6800,"station_id":"","pricing_plan_id":"cebpf4jnsgd1na2vs0mg"},{"bike_id":"919403d1-9d41-4322-8f42-253c1dba9d3b","system_id":"levelo_inurba_marseille","lat":43.21757,"lon":5.34598,"is_reserved":false,"is_disabled":false,"rental_uris":{"android":"levelo://app?vid=919403d1-9d41-4322-8f42-253c1dba9d3b","ios":"levelo://app?vid=919403d1-9d41-4322-8f42-253c1dba9d3b"},"vehicle_type_id":"4","last_reported":1756318487,"current_range_meters":7200,"station_id":"st_cvj6r9ubvosntc0bgbag","pricing_plan_id":"cebpf4jnsgd1na2vs0mg"},{"bike_id":"b4355a8b-6620-41c5-aaa4-2b969fb59e8f","system_id":"levelo_inurba_marseille","lat":43.2619,"lon":5.37452,"is_reserved":false,"is_disabled":true,"rental_uris":{"android":"levelo://app?vid=b4355a8b-6620-41c5-aaa4-2b969fb59e8f","ios":"levelo://app?vid=b4355a8b-6620-41c5-aaa4-2b969fb59e8f"},"vehicle_type_id":"4","last_reported":1756318487,"current_range_meters":7200,"station_id":"ce4bhgp2rcd13ifvqfc0","pricing_plan_id":"cebpf4jnsgd1na2vs0mg"},{"bike_id":"e2081cf8-b131-4033-8498-d32014fd666a","system_id":"levelo_inurba_marseille","lat":43.29848,"lon":5.36287,"is_reserved":false,"is_disabled":false,"rental_uris":{"android":"levelo://app?vid=e2081cf8-b131-4033-8498-d32014fd666a","ios":"levelo://app?vid=e2081cf8-b131-4033-8498-d32014fd666a"},"vehicle_type_id":"4","last_reported":1756318487,"current_range_meters":7200,"station_id":"ce4bgpp2rcd13ifvqc3g","pricing_plan_id":"cebpf4jnsgd1na2vs0mg"},{"bike_id":"def8aed4-5bc2-40a6-b52c-27e5b1cd5a76","system_id":"levelo_inurba_marseille","lat":43.26556,"lon":5.37286,"is_reserved":false,"is_disabled":false,"rental_uris":{"android":"levelo://app?vid=def8aed4-5bc2-40a6-b52c-27e5b1cd5a76","ios":"levelo://app?vid=def8aed4-5bc2-40a6-b52c-27e5b1cd5a76"},"vehicle_type_id":"4","last_reported":1756318487,"current_range_meters":8000,"station_id":"ce4bhg12rcd13ifvqf70","pricing_plan_id":"cebpf4jnsgd1na2vs0mg"},{"bike_id":"713793eb-3afb-4946-82fa-6c638017e9d0","system_id":"levelo_inurba_marseille","lat":43.31758,"lon":5.390063,"is_reserved":false,"is_disabled":false,"rental_uris":{"android":"levelo://app?vid=713793eb-3afb-4946-82fa-6c638017e9d0","ios":"levelo://app?vid=713793eb-3afb-4946-82fa-6c638017e9d0"},"vehicle_type_id":"4","last_reported":1756318487,"current_range_meters":8000,"station_id":"ce4bhqp2rcd13ifvqhng","pricing_plan_id":"cebpf4jnsgd1na2vs0mg"},{"bike_id":"d40f5502-5e62-4427-bfb4-5d4f6edbab89","system_id":"levelo_inurba_marseille","lat":43.284625,"lon":5.358825,"is_reserved":false,"is_disabled":false,"rental_uris":{"android":"levelo://app?vid=d40f5502-5e62-4427-bfb4-5d4f6edbab89","ios":"levelo://app?vid=d40f5502-5e62-4427-bfb4-5d4f6edbab89"},"vehicle_type_id":"4","last_reported":1756318487,"current_range_meters":8000,"station_id":"ce4bhah2rcd13ifvqei0","pricing_plan_id":"cebpf4jnsgd1na2vs0mg"},{"bike_id":"1f865916-94c2-4eb6-9ab9-6b42ea1a26b8","system_id":"levelo_inurba_marseille","lat":43.28856,"lon":5.39325,"is_reserved":false,"is_disabled":true,"rental_uris":{"android":"levelo://app?vid=1f865916-94c2-4eb6-9ab9-6b42ea1a26b8","ios":"levelo://app?vid=1f865916-94c2-4eb6-9ab9-6b42ea1a26b8"},"vehicle_type_id":"4","last_reported":1756318487,"current_range_meters":8000,"station_id":"ce4bh2p2rcd13ifvqdi0","pricing_plan_id":"cebpf4jnsgd1na2vs0mg"},{"bike_id":"69a01144-4cb0-4f43-b8a7-d8bba1210d75","system_id":"levelo_inurba_marseille","lat":43.315783,"lon":5.374496,"is_reserved":false,"is_disabled":false,"rental_uris":{"android":"levelo://app?vid=69a01144-4cb0-4f43-b8a7-d8bba1210d75","ios":"levelo://app?vid=69a01144-4cb0-4f43-b8a7-d8bba1210d75"},"vehicle_type_id":"4","last_reported":1756318487,"current_range_meters":8000,"station_id":"","pricing_plan_id":"cebpf4jnsgd1na2vs0mg"},{"bike_id":"61e4d790-1e8f-4442-af8a-4056c25a423c","system_id":"levelo_inurba_marseille","lat":43.29848,"lon":5.36286,"is_reserved":false,"is_disabled":false,"rental_uris":{"android":"levelo://app?vid=61e4d790-1e8f-4442-af8a-4056c25a423c","ios":"levelo://app?vid=61e4d790-1e8f-4442-af8a-4056c25a423c"},"vehicle_type_id":"4","last_reported":1756318487,"current_range_meters":8000,"station_id":"ce4bgpp2rcd13ifvqc3g","pricing_plan_id":"cebpf4jnsgd1na2vs0mg"},{"bike_id":"16aea030-6560-40eb-a718-3993b4feff43","system_id":"levelo_inurba_marseille","lat":43.25117,"lon":5.40317,"is_reserved":false,"is_disabled":false,"rental_uris":{"android":"levelo://app?vid=16aea030-6560-40eb-a718-3993b4feff43","ios":"levelo://app?vid=16aea030-6560-40eb-a718-3993b4feff43"},"vehicle_type_id":"4","last_reported":1756318487,"current_range_meters":8000,"station_id":"ce4bhlh2rcd13ifvqgig","pricing_plan_id":"cebpf4jnsgd1na2vs0mg"},{"bike_id":"b9adeff4-d1ac-4177-a409-9b57c61c25f8","system_id":"levelo_inurba_marseille","lat":43.26208,"lon":5.37451,"is_reserved":false,"is_disabled":false,"rental_uris":{"android":"levelo://app?vid=b9adeff4-d1ac-4177-a409-9b57c61c25f8","ios":"levelo://app?vid=b9adeff4-d1ac-4177-a409-9b57c61c25f8"},"vehicle_type_id":"4","last_reported":1756318487,"current_range_meters":8000,"station_id":"ce4bhgp2rcd13ifvqfc0","pricing_plan_id":"cebpf4jnsgd1na2vs0mg"},{"bike_id":"42e08b70-6966-4f72-be76-c6cf72ad2a07","system_id":"levelo_inurba_marseille","lat":43.29584,"lon":5.36753,"is_reserved":false,"is_disabled":false,"rental_uris":{"android":"levelo://app?vid=42e08b70-6966-4f72-be76-c6cf72ad2a07","ios":"levelo://app?vid=42e08b70-6966-4f72-be76-c6cf72ad2a07"},"vehicle_type_id":"4","last_reported":1756318487,"current_range_meters":8000,"station_id":"ce4bgph2rcd13ifvqc2g","pricing_plan_id":"cebpf4jnsgd1na2vs0mg"},{"bike_id":"6df995a3-0855-45e5-a251-91f9ab132d3e","system_id":"levelo_inurba_marseille","lat":43.30424,"lon":5.3975,"is_reserved":false,"is_disabled":false,"rental_uris":{"android":"levelo://app?vid=6df995a3-0855-45e5-a251-91f9ab132d3e","ios":"levelo://app?vid=6df995a3-0855-45e5-a251-91f9ab132d3e"},"vehicle_type_id":"4","last_reported":1756318487,"current_range_meters":6800,"station_id":"ce4bh092rcd13ifvqd20","pricing_plan_id":"cebpf4jnsgd1na2vs0mg"},{"bike_id":"50d76241-5f7a-47dd-a439-df7b36dd51d7","system_id":"levelo_inurba_marseille","lat":43.26204,"lon":5.37449,"is_reserved":false,"is_disabled":false,"rental_uris":{"android":"levelo://app?vid=50d76241-5f7a-47dd-a439-df7b36dd51d7","ios":"levelo://app?vid=50d76241-5f7a-47dd-a439-df7b36dd51d7"},"vehicle_type_id":"4","last_reported":1756318487,"current_range_meters":8400,"station_id":"ce4bhgp2rcd13ifvqfc0","pricing_plan_id":"cebpf4jnsgd1na2vs0mg"},{"bike_id":"0f2017f4-e5c1-46a2-a7d8-e957ce265a72","system_id":"levelo_inurba_marseille","lat":43.33769,"lon":5.37492,"is_reserved":false,"is_disabled":false,"rental_uris":{"android":"levelo://app?vid=0f2017f4-e5c1-46a2-a7d8-e957ce265a72","ios":"levelo://app?vid=0f2017f4-e5c1-46a2-a7d8-e957ce265a72"},"vehicle_type_id":"4","last_reported":1756318487,"current_range_meters":8400,"station_id":"","pricing_plan_id":"cebpf4jnsgd1na2vs0mg"},{"bike_id":"3eb38be6-4fa2-458c-876d-a39b74b64b9c","system_id":"levelo_inurba_marseille","lat":43.27624,"lon":5.36105,"is_reserved":false,"is_disabled":false,"rental_uris":{"android":"levelo://app?vid=3eb38be6-4fa2-458c-876d-a39b74b64b9c","ios":"levelo://app?vid=3eb38be6-4fa2-458c-876d-a39b74b64b9c"},"vehicle_type_id":"4","last_reported":1756318487,"current_range_meters":11200,"station_id":"ce4bgj92rcd13ifvqbe0","pricing_plan_id":"cebpf4jnsgd1na2vs0mg"},{"bike_id":"5380da7f-6b19-4580-97ff-de1349ab1162","system_id":"levelo_inurba_marseille","lat":43.26214,"lon":5.37441,"is_reserved":false,"is_disabled":false,"rental_uris":{"android":"levelo://app?vid=5380da7f-6b19-4580-97ff-de1349ab1162","ios":"levelo://app?vid=5380da7f-6b19-4580-97ff-de1349ab1162"},"vehicle_type_id":"4","last_reported":1756318487,"current_range_meters":8400,"station_id":"ce4bhgp2rcd13ifvqfc0","pricing_plan_id":"cebpf4jnsgd1na2vs0mg"},{"bike_id":"51842e17-ef10-4624-a23e-c8a182427991","system_id":"levelo_inurba_marseille","lat":43.31608,"lon":5.38188,"is_reserved":false,"is_disabled":false,"rental_uris":{"android":"levelo://app?vid=51842e17-ef10-4624-a23e-c8a182427991","ios":"levelo://app?vid=51842e17-ef10-4624-a23e-c8a182427991"},"vehicle_type_id":"4","last_reported":1756318487,"current_range_meters":8400,"station_id":"","pricing_plan_id":"cebpf4jnsgd1na2vs0mg"},{"bike_id":"359b406c-5aa1-4c45-8f00-5dc48db3496f","system_id":"levelo_inurba_marseille","lat":43.28158,"lon":5.42674,"is_reserved":false,"is_disabled":false,"rental_uris":{"android":"levelo://app?vid=359b406c-5aa1-4c45-8f00-5dc48db3496f","ios":"levelo://app?vid=359b406c-5aa1-4c45-8f00-5dc48db3496f"},"vehicle_type_id":"4","last_reported":1756318487,"current_range_meters":8400,"station_id":"ce4bhnh2rcd13ifvqgug","pricing_plan_id":"cebpf4jnsgd1na2vs0mg"},{"bike_id":"24df2c59-c2ae-4cf6-8d73-b821e9ca9612","system_id":"levelo_inurba_marseille","lat":43.27983,"lon":5.39988,"is_reserved":false,"is_disabled":true,"rental_uris":{"android":"levelo://app?vid=24df2c59-c2ae-4cf6-8d73-b821e9ca9612","ios":"levelo://app?vid=24df2c59-c2ae-4cf6-8d73-b821e9ca9612"},"vehicle_type_id":"4","last_reported":1756318487,"current_range_meters":8400,"station_id":"ce4bho92rcd13ifvqh4g","pricing_plan_id":"cebpf4jnsgd1na2vs0mg"},{"bike_id":"218988c9-eebb-4a78-9206-b547f8645623","system_id":"levelo_inurba_marseille","lat":43.28442,"lon":5.39195,"is_reserved":false,"is_disabled":false,"rental_uris":{"android":"levelo://app?vid=218988c9-eebb-4a78-9206-b547f8645623","ios":"levelo://app?vid=218988c9-eebb-4a78-9206-b547f8645623"},"vehicle_type_id":"4","last_reported":1756318487,"current_range_meters":8800,"station_id":"ce4bhoh2rcd13ifvqh5g","pricing_plan_id":"cebpf4jnsgd1na2vs0mg"},{"bike_id":"594eb3c1-83ae-4d98-b251-25dae58acfe3","system_id":"levelo_inurba_marseille","lat":43.30408,"lon":5.413,"is_reserved":false,"is_disabled":true,"rental_uris":{"android":"levelo://app?vid=594eb3c1-83ae-4d98-b251-25dae58acfe3","ios":"levelo://app?vid=594eb3c1-83ae-4d98-b251-25dae58acfe3"},"vehicle_type_id":"4","last_reported":1756318487,"current_range_meters":8800,"station_id":"ce4bhop2rcd13ifvqh8g","pricing_plan_id":"cebpf4jnsgd1na2vs0mg"},{"bike_id":"a79b6166-93d1-40ff-986d-a995e819e2c5","system_id":"levelo_inurba_marseille","lat":43.32372,"lon":5.38874,"is_reserved":false,"is_disabled":false,"rental_uris":{"android":"levelo://app?vid=a79b6166-93d1-40ff-986d-a995e819e2c5","ios":"levelo://app?vid=a79b6166-93d1-40ff-986d-a995e819e2c5"},"vehicle_type_id":"4","last_reported":1756318487,"current_range_meters":8800,"station_id":"ce4bhqp2rcd13ifvqhog","pricing_plan_id":"cebpf4jnsgd1na2vs0mg"},{"bike_id":"1d1bfe91-5725-413c-9846-63d8f4b0295a","system_id":"levelo_inurba_marseille","lat":43.31323,"lon":5.39689,"is_reserved":false,"is_disabled":false,"rental_uris":{"android":"levelo://app?vid=1d1bfe91-5725-413c-9846-63d8f4b0295a","ios":"levelo://app?vid=1d1bfe91-5725-413c-9846-63d8f4b0295a"},"vehicle_type_id":"4","last_reported":1756318487,"current_range_meters":8800,"station_id":"ce4bgvp2rcd13ifvqcu0","pricing_plan_id":"cebpf4jnsgd1na2vs0mg"},{"bike_id":"39002f5b-a23e-4630-90a0-e2481b8443c4","system_id":"levelo_inurba_marseille","lat":43.25006,"lon":5.389113,"is_reserved":false,"is_disabled":false,"rental_uris":{"android":"levelo://app?vid=39002f5b-a23e-4630-90a0-e2481b8443c4","ios":"levelo://app?vid=39002f5b-a23e-4630-90a0-e2481b8443c4"},"vehicle_type_id":"4","last_reported":1756318487,"current_range_meters":8800,"station_id":"","pricing_plan_id":"cebpf4jnsgd1na2vs0mg"},{"bike_id":"8005181e-a4eb-491e-8400-56217ae58775","system_id":"levelo_inurba_marseille","lat":43.28851,"lon":5.39313,"is_reserved":false,"is_disabled":false,"rental_uris":{"android":"levelo://app?vid=8005181e-a4eb-491e-8400-56217ae58775","ios":"levelo://app?vid=8005181e-a4eb-491e-8400-56217ae58775"},"vehicle_type_id":"4","last_reported":1756318487,"current_range_meters":8800,"station_id":"ce4bh2p2rcd13ifvqdi0","pricing_plan_id":"cebpf4jnsgd1na2vs0mg"},{"bike_id":"b0157075-4c16-4e3e-80f2-86eb0de621b4","system_id":"levelo_inurba_marseille","lat":43.26179,"lon":5.37441,"is_reserved":false,"is_disabled":false,"rental_uris":{"android":"levelo://app?vid=b0157075-4c16-4e3e-80f2-86eb0de621b4","ios":"levelo://app?vid=b0157075-4c16-4e3e-80f2-86eb0de621b4"},"vehicle_type_id":"4","last_reported":1756318487,"current_range_meters":8800,"station_id":"ce4bhgp2rcd13ifvqfc0","pricing_plan_id":"cebpf4jnsgd1na2vs0mg"},{"bike_id":"e8e6e6c8-3c7a-414c-b4cc-03f8a4651a65","system_id":"levelo_inurba_marseille","lat":43.26934,"lon":5.38928,"is_reserved":false,"is_disabled":false,"rental_uris":{"android":"levelo://app?vid=e8e6e6c8-3c7a-414c-b4cc-03f8a4651a65","ios":"levelo://app?vid=e8e6e6c8-3c7a-414c-b4cc-03f8a4651a65"},"vehicle_type_id":"4","last_reported":1756318487,"current_range_meters":8800,"station_id":"ce4bhhh2rcd13ifvqfl0","pricing_plan_id":"cebpf4jnsgd1na2vs0mg"},{"bike_id":"a76c7778-49dc-45f0-bfb8-3736c502443c","system_id":"levelo_inurba_marseille","lat":43.289368,"lon":5.366418,"is_reserved":false,"is_disabled":false,"rental_uris":{"android":"levelo://app?vid=a76c7778-49dc-45f0-bfb8-3736c502443c","ios":"levelo://app?vid=a76c7778-49dc-45f0-bfb8-3736c502443c"},"vehicle_type_id":"4","last_reported":1756318487,"current_range_meters":8800,"station_id":"ce4bhap2rcd13ifvqek0","pricing_plan_id":"cebpf4jnsgd1na2vs0mg"},{"bike_id":"5516602b-0dcd-485e-89c7-43c6fceb5d11","system_id":"levelo_inurba_marseille","lat":43.25729,"lon":5.41114,"is_reserved":false,"is_disabled":false,"rental_uris":{"android":"levelo://app?vid=5516602b-0dcd-485e-89c7-43c6fceb5d11","ios":"levelo://app?vid=5516602b-0dcd-485e-89c7-43c6fceb5d11"},"vehicle_type_id":"4","last_reported":1756318487,"current_range_meters":8800,"station_id":"ce4bhkp2rcd13ifvqgd0","pricing_plan_id":"cebpf4jnsgd1na2vs0mg"},{"bike_id":"2c851c57-28fc-49db-95ef-5d608f2ab94b","system_id":"levelo_inurba_marseille","lat":43.29035,"lon":5.38656,"is_reserved":false,"is_disabled":false,"rental_uris":{"android":"levelo://app?vid=2c851c57-28fc-49db-95ef-5d608f2ab94b","ios":"levelo://app?vid=2c851c57-28fc-49db-95ef-5d608f2ab94b"},"vehicle_type_id":"4","last_reported":1756318487,"current_range_meters":6400,"station_id":"ce4bh4p2rcd13ifvqe0g","pricing_plan_id":"cebpf4jnsgd1na2vs0mg"},{"bike_id":"41e14cde-ed23-4f51-bc2d-e032846c5a9d","system_id":"levelo_inurba_marseille","lat":43.29578,"lon":5.36746,"is_reserved":false,"is_disabled":false,"rental_uris":{"android":"levelo://app?vid=41e14cde-ed23-4f51-bc2d-e032846c5a9d","ios":"levelo://app?vid=41e14cde-ed23-4f51-bc2d-e032846c5a9d"},"vehicle_type_id":"4","last_reported":1756318487,"current_range_meters":9200,"station_id":"ce4bgph2rcd13ifvqc2g","pricing_plan_id":"cebpf4jnsgd1na2vs0mg"},{"bike_id":"e9099ed8-f39c-4735-a545-38ff6ccc85d8","system_id":"levelo_inurba_marseille","lat":43.32366,"lon":5.3888,"is_reserved":false,"is_disabled":false,"rental_uris":{"android":"levelo://app?vid=e9099ed8-f39c-4735-a545-38ff6ccc85d8","ios":"levelo://app?vid=e9099ed8-f39c-4735-a545-38ff6ccc85d8"},"vehicle_type_id":"4","last_reported":1756318487,"current_range_meters":9200,"station_id":"ce4bhqp2rcd13ifvqhog","pricing_plan_id":"cebpf4jnsgd1na2vs0mg"},{"bike_id":"00f7766a-a965-4911-b058-9fa3a24c1018","system_id":"levelo_inurba_marseille","lat":43.29871,"lon":5.43633,"is_reserved":false,"is_disabled":false,"rental_uris":{"android":"levelo://app?vid=00f7766a-a965-4911-b058-9fa3a24c1018","ios":"levelo://app?vid=00f7766a-a965-4911-b058-9fa3a24c1018"},"vehicle_type_id":"4","last_reported":1756318487,"current_range_meters":9200,"station_id":"ce4bhpp2rcd13ifvqhfg","pricing_plan_id":"cebpf4jnsgd1na2vs0mg"},{"bike_id":"a21c8ecc-ab26-4186-a33d-0ee72599780b","system_id":"levelo_inurba_marseille","lat":43.25089,"lon":5.3951,"is_reserved":false,"is_disabled":true,"rental_uris":{"android":"levelo://app?vid=a21c8ecc-ab26-4186-a33d-0ee72599780b","ios":"levelo://app?vid=a21c8ecc-ab26-4186-a33d-0ee72599780b"},"vehicle_type_id":"4","last_reported":1756318487,"current_range_meters":9200,"station_id":"ce4bhm12rcd13ifvqgkg","pricing_plan_id":"cebpf4jnsgd1na2vs0mg"},{"bike_id":"15f1e515-7d83-41b1-b92b-5a06e251d22b","system_id":"levelo_inurba_marseille","lat":43.26192,"lon":5.37446,"is_reserved":false,"is_disabled":false,"rental_uris":{"android":"levelo://app?vid=15f1e515-7d83-41b1-b92b-5a06e251d22b","ios":"levelo://app?vid=15f1e515-7d83-41b1-b92b-5a06e251d22b"},"vehicle_type_id":"4","last_reported":1756318487,"current_range_meters":9200,"station_id":"ce4bhgp2rcd13ifvqfc0","pricing_plan_id":"cebpf4jnsgd1na2vs0mg"},{"bike_id":"bd6b0212-6a8d-4845-8e60-756a33d3b64c","system_id":"levelo_inurba_marseille","lat":43.32348,"lon":5.4062,"is_reserved":false,"is_disabled":false,"rental_uris":{"android":"levelo://app?vid=bd6b0212-6a8d-4845-8e60-756a33d3b64c","ios":"levelo://app?vid=bd6b0212-6a8d-4845-8e60-756a33d3b64c"},"vehicle_type_id":"4","last_reported":1756318487,"current_range_meters":9200,"station_id":"ce4bhq92rcd13ifvqhjg","pricing_plan_id":"cebpf4jnsgd1na2vs0mg"},{"bike_id":"8ffd9f38-ee07-4843-a9c0-357f2c8f9b57","system_id":"levelo_inurba_marseille","lat":43.29573,"lon":5.36751,"is_reserved":false,"is_disabled":false,"rental_uris":{"android":"levelo://app?vid=8ffd9f38-ee07-4843-a9c0-357f2c8f9b57","ios":"levelo://app?vid=8ffd9f38-ee07-4843-a9c0-357f2c8f9b57"},"vehicle_type_id":"4","last_reported":1756318487,"current_range_meters":9200,"station_id":"ce4bgph2rcd13ifvqc2g","pricing_plan_id":"cebpf4jnsgd1na2vs0mg"},{"bike_id":"a6ef8657-5b8a-423b-993f-c3df43dec0a0","system_id":"levelo_inurba_marseille","lat":43.326998,"lon":5.392208,"is_reserved":false,"is_disabled":false,"rental_uris":{"android":"levelo://app?vid=a6ef8657-5b8a-423b-993f-c3df43dec0a0","ios":"levelo://app?vid=a6ef8657-5b8a-423b-993f-c3df43dec0a0"},"vehicle_type_id":"4","last_reported":1756318487,"current_range_meters":9200,"station_id":"","pricing_plan_id":"cebpf4jnsgd1na2vs0mg"},{"bike_id":"eb22dec0-bfff-46be-ac9e-3150673df06e","system_id":"levelo_inurba_marseille","lat":43.26209,"lon":5.37439,"is_reserved":false,"is_disabled":false,"rental_uris":{"android":"levelo://app?vid=eb22dec0-bfff-46be-ac9e-3150673df06e","ios":"levelo://app?vid=eb22dec0-bfff-46be-ac9e-3150673df06e"},"vehicle_type_id":"4","last_reported":1756318487,"current_range_meters":9200,"station_id":"ce4bhgp2rcd13ifvqfc0","pricing_plan_id":"cebpf4jnsgd1na2vs0mg"},{"bike_id":"5d7222f6-1d37-42d8-a4c5-b36e3fb605f8","system_id":"levelo_inurba_marseille","lat":43.25823,"lon":5.39437,"is_reserved":false,"is_disabled":false,"rental_uris":{"android":"levelo://app?vid=5d7222f6-1d37-42d8-a4c5-b36e3fb605f8","ios":"levelo://app?vid=5d7222f6-1d37-42d8-a4c5-b36e3fb605f8"},"vehicle_type_id":"4","last_reported":1756318487,"current_range_meters":9200,"station_id":"ce4bhip2rcd13ifvqft0","pricing_plan_id":"cebpf4jnsgd1na2vs0mg"},{"bike_id":"759d948a-980f-4eab-bc69-876f1ff95eb8","system_id":"levelo_inurba_marseille","lat":43.28854,"lon":5.39327,"is_reserved":false,"is_disabled":true,"rental_uris":{"android":"levelo://app?vid=759d948a-980f-4eab-bc69-876f1ff95eb8","ios":"levelo://app?vid=759d948a-980f-4eab-bc69-876f1ff95eb8"},"vehicle_type_id":"4","last_reported":1756318487,"current_range_meters":9200,"station_id":"ce4bh2p2rcd13ifvqdi0","pricing_plan_id":"cebpf4jnsgd1na2vs0mg"},{"bike_id":"0c59a51c-431c-4068-8caf-e765a581fc7c","system_id":"levelo_inurba_marseille","lat":43.27811,"lon":5.40719,"is_reserved":false,"is_disabled":false,"rental_uris":{"android":"levelo://app?vid=0c59a51c-431c-4068-8caf-e765a581fc7c","ios":"levelo://app?vid=0c59a51c-431c-4068-8caf-e765a581fc7c"},"vehicle_type_id":"4","last_reported":1756318487,"current_range_meters":9600,"station_id":"ce4bhnh2rcd13ifvqgtg","pricing_plan_id":"cebpf4jnsgd1na2vs0mg"},{"bike_id":"ce5632e8-0219-4c99-8fb5-60733073b5b2","system_id":"levelo_inurba_marseille","lat":43.23176,"lon":5.39988,"is_reserved":false,"is_disabled":false,"rental_uris":{"android":"levelo://app?vid=ce5632e8-0219-4c99-8fb5-60733073b5b2","ios":"levelo://app?vid=ce5632e8-0219-4c99-8fb5-60733073b5b2"},"vehicle_type_id":"4","last_reported":1756318487,"current_range_meters":9200,"station_id":"ce4bhn12rcd13ifvqgqg","pricing_plan_id":"cebpf4jnsgd1na2vs0mg"},{"bike_id":"da644426-2b5f-40f5-88ab-e0efc0674782","system_id":"levelo_inurba_marseille","lat":43.29701,"lon":5.36615,"is_reserved":false,"is_disabled":false,"rental_uris":{"android":"levelo://app?vid=da644426-2b5f-40f5-88ab-e0efc0674782","ios":"levelo://app?vid=da644426-2b5f-40f5-88ab-e0efc0674782"},"vehicle_type_id":"4","last_reported":1756318487,"current_range_meters":8800,"station_id":"ce4bgn12rcd13ifvqbt0","pricing_plan_id":"cebpf4jnsgd1na2vs0mg"},{"bike_id":"53f71592-a929-48e3-b985-8725708086f6","system_id":"levelo_inurba_marseille","lat":43.28612,"lon":5.3706,"is_reserved":false,"is_disabled":false,"rental_uris":{"android":"levelo://app?vid=53f71592-a929-48e3-b985-8725708086f6","ios":"levelo://app?vid=53f71592-a929-48e3-b985-8725708086f6"},"vehicle_type_id":"4","last_reported":1756318487,"current_range_meters":9600,"station_id":"ce4bht12rcd13ifvqi60","pricing_plan_id":"cebpf4jnsgd1na2vs0mg"},{"bike_id":"efa4cc8a-6991-462e-8ab7-b72260bc29a3","system_id":"levelo_inurba_marseille","lat":43.27939,"lon":5.403315,"is_reserved":false,"is_disabled":false,"rental_uris":{"android":"levelo://app?vid=efa4cc8a-6991-462e-8ab7-b72260bc29a3","ios":"levelo://app?vid=efa4cc8a-6991-462e-8ab7-b72260bc29a3"},"vehicle_type_id":"4","last_reported":1756318487,"current_range_meters":9600,"station_id":"ce4bhnp2rcd13ifvqh0g","pricing_plan_id":"cebpf4jnsgd1na2vs0mg"},{"bike_id":"1d7023ef-959e-48df-b075-0a4bd90cc9ae","system_id":"levelo_inurba_marseille","lat":43.27365,"lon":5.36253,"is_reserved":false,"is_disabled":true,"rental_uris":{"android":"levelo://app?vid=1d7023ef-959e-48df-b075-0a4bd90cc9ae","ios":"levelo://app?vid=1d7023ef-959e-48df-b075-0a4bd90cc9ae"},"vehicle_type_id":"4","last_reported":1756318487,"current_range_meters":9600,"station_id":"ce4bhbh2rcd13ifvqeo0","pricing_plan_id":"cebpf4jnsgd1na2vs0mg"},{"bike_id":"92147711-67f0-417c-91b5-afc1e056833d","system_id":"levelo_inurba_marseille","lat":43.29013,"lon":5.3813,"is_reserved":false,"is_disabled":false,"rental_uris":{"android":"levelo://app?vid=92147711-67f0-417c-91b5-afc1e056833d","ios":"levelo://app?vid=92147711-67f0-417c-91b5-afc1e056833d"},"vehicle_type_id":"4","last_reported":1756318487,"current_range_meters":9600,"station_id":"ce4bh4p2rcd13ifvqe1g","pricing_plan_id":"cebpf4jnsgd1na2vs0mg"},{"bike_id":"ecb9adb3-66e1-4749-b24f-3fd50d7d7c7b","system_id":"levelo_inurba_marseille","lat":43.311226,"lon":5.377667,"is_reserved":false,"is_disabled":false,"rental_uris":{"android":"levelo://app?vid=ecb9adb3-66e1-4749-b24f-3fd50d7d7c7b","ios":"levelo://app?vid=ecb9adb3-66e1-4749-b24f-3fd50d7d7c7b"},"vehicle_type_id":"4","last_reported":1756318487,"current_range_meters":9600,"station_id":"ce4bgt92rcd13ifvqcg0","pricing_plan_id":"cebpf4jnsgd1na2vs0mg"},{"bike_id":"9b55fa53-3e05-43a1-a0b1-d6f7d45e07ea","system_id":"levelo_inurba_marseille","lat":43.29754,"lon":5.37096,"is_reserved":false,"is_disabled":false,"rental_uris":{"android":"levelo://app?vid=9b55fa53-3e05-43a1-a0b1-d6f7d45e07ea","ios":"levelo://app?vid=9b55fa53-3e05-43a1-a0b1-d6f7d45e07ea"},"vehicle_type_id":"4","last_reported":1756318487,"current_range_meters":9600,"station_id":"ce4bgop2rcd13ifvqc1g","pricing_plan_id":"cebpf4jnsgd1na2vs0mg"},{"bike_id":"e38ce90d-475c-4e68-b30f-a767342df96b","system_id":"levelo_inurba_marseille","lat":43.2776,"lon":5.4063,"is_reserved":false,"is_disabled":false,"rental_uris":{"android":"levelo://app?vid=e38ce90d-475c-4e68-b30f-a767342df96b","ios":"levelo://app?vid=e38ce90d-475c-4e68-b30f-a767342df96b"},"vehicle_type_id":"4","last_reported":1756318487,"current_range_meters":9600,"station_id":"ce4bhnp2rcd13ifvqh0g","pricing_plan_id":"cebpf4jnsgd1na2vs0mg"},{"bike_id":"ce297a97-a3d1-49a9-a32a-9688a034bb89","system_id":"levelo_inurba_marseille","lat":43.30304,"lon":5.36919,"is_reserved":false,"is_disabled":false,"rental_uris":{"android":"levelo://app?vid=ce297a97-a3d1-49a9-a32a-9688a034bb89","ios":"levelo://app?vid=ce297a97-a3d1-49a9-a32a-9688a034bb89"},"vehicle_type_id":"4","last_reported":1756318487,"current_range_meters":9600,"station_id":"ce4bgqh2rcd13ifvqc5g","pricing_plan_id":"cebpf4jnsgd1na2vs0mg"},{"bike_id":"a134b4f2-0eb1-44bf-90a6-b55287c842ea","system_id":"levelo_inurba_marseille","lat":43.27499,"lon":5.42453,"is_reserved":false,"is_disabled":false,"rental_uris":{"android":"levelo://app?vid=a134b4f2-0eb1-44bf-90a6-b55287c842ea","ios":"levelo://app?vid=a134b4f2-0eb1-44bf-90a6-b55287c842ea"},"vehicle_type_id":"4","last_reported":1756318487,"current_range_meters":9600,"station_id":"ce4bhn92rcd13ifvqgrg","pricing_plan_id":"cebpf4jnsgd1na2vs0mg"},{"bike_id":"1546df9e-d1cb-482b-8d1f-d121540fd829","system_id":"levelo_inurba_marseille","lat":43.211876,"lon":5.35075,"is_reserved":false,"is_disabled":false,"rental_uris":{"android":"levelo://app?vid=1546df9e-d1cb-482b-8d1f-d121540fd829","ios":"levelo://app?vid=1546df9e-d1cb-482b-8d1f-d121540fd829"},"vehicle_type_id":"4","last_reported":1756318487,"current_range_meters":9600,"station_id":"st_cvj6sg6p6f1abm77japg","pricing_plan_id":"cebpf4jnsgd1na2vs0mg"},{"bike_id":"38d8ef3e-e8d7-4990-bcc0-c58cc350dc96","system_id":"levelo_inurba_marseille","lat":43.2602,"lon":5.37553,"is_reserved":false,"is_disabled":true,"rental_uris":{"android":"levelo://app?vid=38d8ef3e-e8d7-4990-bcc0-c58cc350dc96","ios":"levelo://app?vid=38d8ef3e-e8d7-4990-bcc0-c58cc350dc96"},"vehicle_type_id":"4","last_reported":1756318487,"current_range_meters":9600,"station_id":"ce4bhgh2rcd13ifvqfa0","pricing_plan_id":"cebpf4jnsgd1na2vs0mg"},{"bike_id":"f949884f-b034-445b-a0e2-8715385ee3d3","system_id":"levelo_inurba_marseille","lat":43.29866,"lon":5.39728,"is_reserved":false,"is_disabled":false,"rental_uris":{"android":"levelo://app?vid=f949884f-b034-445b-a0e2-8715385ee3d3","ios":"levelo://app?vid=f949884f-b034-445b-a0e2-8715385ee3d3"},"vehicle_type_id":"4","last_reported":1756318487,"current_range_meters":9600,"station_id":"ce4bh0h2rcd13ifvqd50","pricing_plan_id":"cebpf4jnsgd1na2vs0mg"},{"bike_id":"cf244a64-5a41-417e-98d2-fcbf9a671399","system_id":"levelo_inurba_marseille","lat":43.28166,"lon":5.42637,"is_reserved":false,"is_disabled":false,"rental_uris":{"android":"levelo://app?vid=cf244a64-5a41-417e-98d2-fcbf9a671399","ios":"levelo://app?vid=cf244a64-5a41-417e-98d2-fcbf9a671399"},"vehicle_type_id":"4","last_reported":1756318487,"current_range_meters":10000,"station_id":"ce4bhnh2rcd13ifvqgug","pricing_plan_id":"cebpf4jnsgd1na2vs0mg"},{"bike_id":"09c5dc97-7035-4eb9-9abb-fcc6dcd48355","system_id":"levelo_inurba_marseille","lat":43.29556,"lon":5.42294,"is_reserved":false,"is_disabled":false,"rental_uris":{"android":"levelo://app?vid=09c5dc97-7035-4eb9-9abb-fcc6dcd48355","ios":"levelo://app?vid=09c5dc97-7035-4eb9-9abb-fcc6dcd48355"},"vehicle_type_id":"4","last_reported":1756318487,"current_range_meters":10000,"station_id":"ce4bhph2rcd13ifvqhdg","pricing_plan_id":"cebpf4jnsgd1na2vs0mg"},{"bike_id":"2d0e77b8-c9d8-4e57-b6d3-0a222f73256a","system_id":"levelo_inurba_marseille","lat":43.2619,"lon":5.37451,"is_reserved":false,"is_disabled":true,"rental_uris":{"android":"levelo://app?vid=2d0e77b8-c9d8-4e57-b6d3-0a222f73256a","ios":"levelo://app?vid=2d0e77b8-c9d8-4e57-b6d3-0a222f73256a"},"vehicle_type_id":"4","last_reported":1756318487,"current_range_meters":10000,"station_id":"ce4bhgp2rcd13ifvqfc0","pricing_plan_id":"cebpf4jnsgd1na2vs0mg"},{"bike_id":"6edb1530-71b8-45ee-838f-f07e5a0e8ab9","system_id":"levelo_inurba_marseille","lat":43.262013,"lon":5.374436,"is_reserved":false,"is_disabled":false,"rental_uris":{"android":"levelo://app?vid=6edb1530-71b8-45ee-838f-f07e5a0e8ab9","ios":"levelo://app?vid=6edb1530-71b8-45ee-838f-f07e5a0e8ab9"},"vehicle_type_id":"4","last_reported":1756318487,"current_range_meters":10000,"station_id":"ce4bhgp2rcd13ifvqfc0","pricing_plan_id":"cebpf4jnsgd1na2vs0mg"},{"bike_id":"e337d582-364a-4312-af91-67d0c81052aa","system_id":"levelo_inurba_marseille","lat":43.32536,"lon":5.36447,"is_reserved":false,"is_disabled":false,"rental_uris":{"android":"levelo://app?vid=e337d582-364a-4312-af91-67d0c81052aa","ios":"levelo://app?vid=e337d582-364a-4312-af91-67d0c81052aa"},"vehicle_type_id":"4","last_reported":1756318487,"current_range_meters":10000,"station_id":"","pricing_plan_id":"cebpf4jnsgd1na2vs0mg"},{"bike_id":"6c9ca4c0-4b36-428f-add4-025bf11a8d36","system_id":"levelo_inurba_marseille","lat":43.25088,"lon":5.39526,"is_reserved":false,"is_disabled":false,"rental_uris":{"android":"levelo://app?vid=6c9ca4c0-4b36-428f-add4-025bf11a8d36","ios":"levelo://app?vid=6c9ca4c0-4b36-428f-add4-025bf11a8d36"},"vehicle_type_id":"4","last_reported":1756318487,"current_range_meters":10000,"station_id":"ce4bhm12rcd13ifvqgkg","pricing_plan_id":"cebpf4jnsgd1na2vs0mg"},{"bike_id":"50ae7619-e5e5-43b3-a8e1-eab111e244a1","system_id":"levelo_inurba_marseille","lat":43.24172,"lon":5.364,"is_reserved":false,"is_disabled":false,"rental_uris":{"android":"levelo://app?vid=50ae7619-e5e5-43b3-a8e1-eab111e244a1","ios":"levelo://app?vid=50ae7619-e5e5-43b3-a8e1-eab111e244a1"},"vehicle_type_id":"4","last_reported":1756318487,"current_range_meters":14000,"station_id":"cpo36qri1sfpv3e86is0","pricing_plan_id":"cebpf4jnsgd1na2vs0mg"},{"bike_id":"5bce688b-fc81-4596-8277-b66f54be87c1","system_id":"levelo_inurba_marseille","lat":43.33768,"lon":5.37438,"is_reserved":false,"is_disabled":false,"rental_uris":{"android":"levelo://app?vid=5bce688b-fc81-4596-8277-b66f54be87c1","ios":"levelo://app?vid=5bce688b-fc81-4596-8277-b66f54be87c1"},"vehicle_type_id":"4","last_reported":1756318487,"current_range_meters":10800,"station_id":"","pricing_plan_id":"cebpf4jnsgd1na2vs0mg"},{"bike_id":"2a93253d-ada4-45a7-a3e4-d408551e0a33","system_id":"levelo_inurba_marseille","lat":43.262003,"lon":5.374513,"is_reserved":false,"is_disabled":false,"rental_uris":{"android":"levelo://app?vid=2a93253d-ada4-45a7-a3e4-d408551e0a33","ios":"levelo://app?vid=2a93253d-ada4-45a7-a3e4-d408551e0a33"},"vehicle_type_id":"4","last_reported":1756318487,"current_range_meters":10800,"station_id":"ce4bhgp2rcd13ifvqfc0","pricing_plan_id":"cebpf4jnsgd1na2vs0mg"},{"bike_id":"ad1aa29f-22b0-4c8d-b963-5343cab8b6c8","system_id":"levelo_inurba_marseille","lat":43.26185,"lon":5.37462,"is_reserved":false,"is_disabled":false,"rental_uris":{"android":"levelo://app?vid=ad1aa29f-22b0-4c8d-b963-5343cab8b6c8","ios":"levelo://app?vid=ad1aa29f-22b0-4c8d-b963-5343cab8b6c8"},"vehicle_type_id":"4","last_reported":1756318487,"current_range_meters":10800,"station_id":"ce4bhgp2rcd13ifvqfc0","pricing_plan_id":"cebpf4jnsgd1na2vs0mg"},{"bike_id":"64c06664-1c5d-4f3e-9408-ac6396da34e2","system_id":"levelo_inurba_marseille","lat":43.261933,"lon":5.374477,"is_reserved":false,"is_disabled":false,"rental_uris":{"android":"levelo://app?vid=64c06664-1c5d-4f3e-9408-ac6396da34e2","ios":"levelo://app?vid=64c06664-1c5d-4f3e-9408-ac6396da34e2"},"vehicle_type_id":"4","last_reported":1756318487,"current_range_meters":11200,"station_id":"ce4bhgp2rcd13ifvqfc0","pricing_plan_id":"cebpf4jnsgd1na2vs0mg"},{"bike_id":"a7c879e6-fbdc-41cc-b936-a235aa17adb5","system_id":"levelo_inurba_marseille","lat":43.33131,"lon":5.38164,"is_reserved":false,"is_disabled":false,"rental_uris":{"android":"levelo://app?vid=a7c879e6-fbdc-41cc-b936-a235aa17adb5","ios":"levelo://app?vid=a7c879e6-fbdc-41cc-b936-a235aa17adb5"},"vehicle_type_id":"4","last_reported":1756318487,"current_range_meters":11200,"station_id":"","pricing_plan_id":"cebpf4jnsgd1na2vs0mg"},{"bike_id":"b79f626f-4cce-45e0-9b7e-79f3f3a6033f","system_id":"levelo_inurba_marseille","lat":43.24634,"lon":5.43179,"is_reserved":false,"is_disabled":false,"rental_uris":{"android":"levelo://app?vid=b79f626f-4cce-45e0-9b7e-79f3f3a6033f","ios":"levelo://app?vid=b79f626f-4cce-45e0-9b7e-79f3f3a6033f"},"vehicle_type_id":"4","last_reported":1756318487,"current_range_meters":11200,"station_id":"st_d2m6c4gdas8pm72e190g","pricing_plan_id":"cebpf4jnsgd1na2vs0mg"},{"bike_id":"3d28f2f2-2f31-4d89-9abd-75b872416ec3","system_id":"levelo_inurba_marseille","lat":43.28618,"lon":5.35101,"is_reserved":false,"is_disabled":false,"rental_uris":{"android":"levelo://app?vid=3d28f2f2-2f31-4d89-9abd-75b872416ec3","ios":"levelo://app?vid=3d28f2f2-2f31-4d89-9abd-75b872416ec3"},"vehicle_type_id":"4","last_reported":1756318487,"current_range_meters":11200,"station_id":"ce4bhch2rcd13ifvqeug","pricing_plan_id":"cebpf4jnsgd1na2vs0mg"},{"bike_id":"23c09b6a-8163-465b-b420-f35a21f356ca","system_id":"levelo_inurba_marseille","lat":43.28857,"lon":5.39306,"is_reserved":false,"is_disabled":false,"rental_uris":{"android":"levelo://app?vid=23c09b6a-8163-465b-b420-f35a21f356ca","ios":"levelo://app?vid=23c09b6a-8163-465b-b420-f35a21f356ca"},"vehicle_type_id":"4","last_reported":1756318487,"current_range_meters":11200,"station_id":"ce4bh2p2rcd13ifvqdi0","pricing_plan_id":"cebpf4jnsgd1na2vs0mg"},{"bike_id":"23504bc9-a906-4dff-af0c-8195d23e18e3","system_id":"levelo_inurba_marseille","lat":43.292311,"lon":5.360687,"is_reserved":false,"is_disabled":false,"rental_uris":{"android":"levelo://app?vid=23504bc9-a906-4dff-af0c-8195d23e18e3","ios":"levelo://app?vid=23504bc9-a906-4dff-af0c-8195d23e18e3"},"vehicle_type_id":"4","last_reported":1756318487,"current_range_meters":11200,"station_id":"ce4bhbh2rcd13ifvqeqg","pricing_plan_id":"cebpf4jnsgd1na2vs0mg"},{"bike_id":"ceb3ea6a-4b80-48b6-9a4b-a695c15529bf","system_id":"levelo_inurba_marseille","lat":43.3089,"lon":5.372,"is_reserved":false,"is_disabled":false,"rental_uris":{"android":"levelo://app?vid=ceb3ea6a-4b80-48b6-9a4b-a695c15529bf","ios":"levelo://app?vid=ceb3ea6a-4b80-48b6-9a4b-a695c15529bf"},"vehicle_type_id":"4","last_reported":1756318487,"current_range_meters":11200,"station_id":"ce4bguh2rcd13ifvqckg","pricing_plan_id":"cebpf4jnsgd1na2vs0mg"},{"bike_id":"4aa04cf0-c98a-4b86-9c20-0afc960e7cd0","system_id":"levelo_inurba_marseille","lat":43.26216,"lon":5.37472,"is_reserved":false,"is_disabled":false,"rental_uris":{"android":"levelo://app?vid=4aa04cf0-c98a-4b86-9c20-0afc960e7cd0","ios":"levelo://app?vid=4aa04cf0-c98a-4b86-9c20-0afc960e7cd0"},"vehicle_type_id":"4","last_reported":1756318487,"current_range_meters":11600,"station_id":"ce4bhgp2rcd13ifvqfc0","pricing_plan_id":"cebpf4jnsgd1na2vs0mg"},{"bike_id":"6327418d-7a53-4b12-87d6-79bf378934ee","system_id":"levelo_inurba_marseille","lat":43.23192,"lon":5.35572,"is_reserved":false,"is_disabled":false,"rental_uris":{"android":"levelo://app?vid=6327418d-7a53-4b12-87d6-79bf378934ee","ios":"levelo://app?vid=6327418d-7a53-4b12-87d6-79bf378934ee"},"vehicle_type_id":"4","last_reported":1756318487,"current_range_meters":11600,"station_id":"ce4bhu92rcd13ifvqi70","pricing_plan_id":"cebpf4jnsgd1na2vs0mg"},{"bike_id":"8b8601ff-72f1-447e-bef9-12af006ae23b","system_id":"levelo_inurba_marseille","lat":43.29853,"lon":5.36286,"is_reserved":false,"is_disabled":false,"rental_uris":{"android":"levelo://app?vid=8b8601ff-72f1-447e-bef9-12af006ae23b","ios":"levelo://app?vid=8b8601ff-72f1-447e-bef9-12af006ae23b"},"vehicle_type_id":"4","last_reported":1756318487,"current_range_meters":11600,"station_id":"ce4bgpp2rcd13ifvqc3g","pricing_plan_id":"cebpf4jnsgd1na2vs0mg"},{"bike_id":"7845e271-aca5-4e50-aece-864b48316733","system_id":"levelo_inurba_marseille","lat":43.25118,"lon":5.40317,"is_reserved":false,"is_disabled":false,"rental_uris":{"android":"levelo://app?vid=7845e271-aca5-4e50-aece-864b48316733","ios":"levelo://app?vid=7845e271-aca5-4e50-aece-864b48316733"},"vehicle_type_id":"4","last_reported":1756318487,"current_range_meters":11600,"station_id":"ce4bhlh2rcd13ifvqgig","pricing_plan_id":"cebpf4jnsgd1na2vs0mg"},{"bike_id":"641a17cd-ac70-40de-a730-2aad203f8697","system_id":"levelo_inurba_marseille","lat":43.29284,"lon":5.40124,"is_reserved":false,"is_disabled":false,"rental_uris":{"android":"levelo://app?vid=641a17cd-ac70-40de-a730-2aad203f8697","ios":"levelo://app?vid=641a17cd-ac70-40de-a730-2aad203f8697"},"vehicle_type_id":"4","last_reported":1756318487,"current_range_meters":14000,"station_id":"ce4bh312rcd13ifvqdk0","pricing_plan_id":"cebpf4jnsgd1na2vs0mg"},{"bike_id":"e5eabf25-4e1c-476e-b130-9f83cdcfc80c","system_id":"levelo_inurba_marseille","lat":43.2983,"lon":5.41718,"is_reserved":false,"is_disabled":false,"rental_uris":{"android":"levelo://app?vid=e5eabf25-4e1c-476e-b130-9f83cdcfc80c","ios":"levelo://app?vid=e5eabf25-4e1c-476e-b130-9f83cdcfc80c"},"vehicle_type_id":"4","last_reported":1756318487,"current_range_meters":12000,"station_id":"","pricing_plan_id":"cebpf4jnsgd1na2vs0mg"},{"bike_id":"1e852faa-0778-4e8a-a9c8-6c774f7c3cf4","system_id":"levelo_inurba_marseille","lat":43.26029,"lon":5.37559,"is_reserved":false,"is_disabled":false,"rental_uris":{"android":"levelo://app?vid=1e852faa-0778-4e8a-a9c8-6c774f7c3cf4","ios":"levelo://app?vid=1e852faa-0778-4e8a-a9c8-6c774f7c3cf4"},"vehicle_type_id":"4","last_reported":1756318487,"current_range_meters":12000,"station_id":"ce4bhgh2rcd13ifvqfa0","pricing_plan_id":"cebpf4jnsgd1na2vs0mg"},{"bike_id":"f9bee4e7-3272-4bb4-b05c-cd5fb342938a","system_id":"levelo_inurba_marseille","lat":43.32107,"lon":5.36783,"is_reserved":false,"is_disabled":false,"rental_uris":{"android":"levelo://app?vid=f9bee4e7-3272-4bb4-b05c-cd5fb342938a","ios":"levelo://app?vid=f9bee4e7-3272-4bb4-b05c-cd5fb342938a"},"vehicle_type_id":"4","last_reported":1756318487,"current_range_meters":12000,"station_id":"ce4bhrh2rcd13ifvqhug","pricing_plan_id":"cebpf4jnsgd1na2vs0mg"},{"bike_id":"5b401052-7adf-4133-94a3-d3042a5b6072","system_id":"levelo_inurba_marseille","lat":43.28269,"lon":5.35068,"is_reserved":false,"is_disabled":false,"rental_uris":{"android":"levelo://app?vid=5b401052-7adf-4133-94a3-d3042a5b6072","ios":"levelo://app?vid=5b401052-7adf-4133-94a3-d3042a5b6072"},"vehicle_type_id":"4","last_reported":1756318487,"current_range_meters":12000,"station_id":"ce4bhbp2rcd13ifvqerg","pricing_plan_id":"cebpf4jnsgd1na2vs0mg"},{"bike_id":"a482de0f-9b2b-4fad-af1c-030f1cac8fcb","system_id":"levelo_inurba_marseille","lat":43.31881,"lon":5.40736,"is_reserved":false,"is_disabled":false,"rental_uris":{"android":"levelo://app?vid=a482de0f-9b2b-4fad-af1c-030f1cac8fcb","ios":"levelo://app?vid=a482de0f-9b2b-4fad-af1c-030f1cac8fcb"},"vehicle_type_id":"4","last_reported":1756318487,"current_range_meters":12000,"station_id":"ce4bhq12rcd13ifvqhig","pricing_plan_id":"cebpf4jnsgd1na2vs0mg"},{"bike_id":"b5ae0016-67e1-4c37-91cb-4d986fbc09a4","system_id":"levelo_inurba_marseille","lat":43.2462,"lon":5.43151,"is_reserved":false,"is_disabled":false,"rental_uris":{"android":"levelo://app?vid=b5ae0016-67e1-4c37-91cb-4d986fbc09a4","ios":"levelo://app?vid=b5ae0016-67e1-4c37-91cb-4d986fbc09a4"},"vehicle_type_id":"4","last_reported":1756318487,"current_range_meters":12400,"station_id":"st_d2m6c4gdas8pm72e190g","pricing_plan_id":"cebpf4jnsgd1na2vs0mg"},{"bike_id":"9064aa63-b537-4bff-b4d9-858211b1ca74","system_id":"levelo_inurba_marseille","lat":43.296211,"lon":5.371519,"is_reserved":false,"is_disabled":false,"rental_uris":{"android":"levelo://app?vid=9064aa63-b537-4bff-b4d9-858211b1ca74","ios":"levelo://app?vid=9064aa63-b537-4bff-b4d9-858211b1ca74"},"vehicle_type_id":"4","last_reported":1756318487,"current_range_meters":12400,"station_id":"ce4bgnh2rcd13ifvqc0g","pricing_plan_id":"cebpf4jnsgd1na2vs0mg"},{"bike_id":"3448e159-471f-45cf-b0bc-dcb672574311","system_id":"levelo_inurba_marseille","lat":43.261951,"lon":5.374503,"is_reserved":false,"is_disabled":true,"rental_uris":{"android":"levelo://app?vid=3448e159-471f-45cf-b0bc-dcb672574311","ios":"levelo://app?vid=3448e159-471f-45cf-b0bc-dcb672574311"},"vehicle_type_id":"4","last_reported":1756318487,"current_range_meters":12400,"station_id":"ce4bhgp2rcd13ifvqfc0","pricing_plan_id":"cebpf4jnsgd1na2vs0mg"},{"bike_id":"6935e91e-33e4-4ecc-ad34-a4f3142df9a1","system_id":"levelo_inurba_marseille","lat":43.28569,"lon":5.39496,"is_reserved":false,"is_disabled":false,"rental_uris":{"android":"levelo://app?vid=6935e91e-33e4-4ecc-ad34-a4f3142df9a1","ios":"levelo://app?vid=6935e91e-33e4-4ecc-ad34-a4f3142df9a1"},"vehicle_type_id":"4","last_reported":1756318487,"current_range_meters":12000,"station_id":"ce4bh292rcd13ifvqdg0","pricing_plan_id":"cebpf4jnsgd1na2vs0mg"},{"bike_id":"ba921a58-9e9a-4cb0-a6af-607f467902e7","system_id":"levelo_inurba_marseille","lat":43.28664,"lon":5.3635,"is_reserved":false,"is_disabled":false,"rental_uris":{"android":"levelo://app?vid=ba921a58-9e9a-4cb0-a6af-607f467902e7","ios":"levelo://app?vid=ba921a58-9e9a-4cb0-a6af-607f467902e7"},"vehicle_type_id":"4","last_reported":1756318487,"current_range_meters":12400,"station_id":"ce4bhah2rcd13ifvqej0","pricing_plan_id":"cebpf4jnsgd1na2vs0mg"},{"bike_id":"9308f021-ec84-4fe8-8c25-145b6405b7e0","system_id":"levelo_inurba_marseille","lat":43.30552,"lon":5.36699,"is_reserved":false,"is_disabled":true,"rental_uris":{"android":"levelo://app?vid=9308f021-ec84-4fe8-8c25-145b6405b7e0","ios":"levelo://app?vid=9308f021-ec84-4fe8-8c25-145b6405b7e0"},"vehicle_type_id":"4","last_reported":1756318487,"current_range_meters":12400,"station_id":"ce4bgrp2rcd13ifvqc9g","pricing_plan_id":"cebpf4jnsgd1na2vs0mg"},{"bike_id":"851053e8-d3be-4f09-af43-d2598eb82f5e","system_id":"levelo_inurba_marseille","lat":43.265592,"lon":5.372867,"is_reserved":false,"is_disabled":false,"rental_uris":{"android":"levelo://app?vid=851053e8-d3be-4f09-af43-d2598eb82f5e","ios":"levelo://app?vid=851053e8-d3be-4f09-af43-d2598eb82f5e"},"vehicle_type_id":"4","last_reported":1756318487,"current_range_meters":12400,"station_id":"ce4bhg12rcd13ifvqf70","pricing_plan_id":"cebpf4jnsgd1na2vs0mg"},{"bike_id":"c1958a2f-16b1-4890-aaea-ef5b1dd3e6e5","system_id":"levelo_inurba_marseille","lat":43.261985,"lon":5.379233,"is_reserved":false,"is_disabled":false,"rental_uris":{"android":"levelo://app?vid=c1958a2f-16b1-4890-aaea-ef5b1dd3e6e5","ios":"levelo://app?vid=c1958a2f-16b1-4890-aaea-ef5b1dd3e6e5"},"vehicle_type_id":"4","last_reported":1756318487,"current_range_meters":12400,"station_id":"ce4bhjp2rcd13ifvqg90","pricing_plan_id":"cebpf4jnsgd1na2vs0mg"},{"bike_id":"321aacaa-ebe4-4ef8-974a-5c6a8da001e2","system_id":"levelo_inurba_marseille","lat":43.29234,"lon":5.38443,"is_reserved":false,"is_disabled":false,"rental_uris":{"android":"levelo://app?vid=321aacaa-ebe4-4ef8-974a-5c6a8da001e2","ios":"levelo://app?vid=321aacaa-ebe4-4ef8-974a-5c6a8da001e2"},"vehicle_type_id":"4","last_reported":1756318487,"current_range_meters":12800,"station_id":"ce4bh692rcd13ifvqea0","pricing_plan_id":"cebpf4jnsgd1na2vs0mg"},{"bike_id":"c35da96e-2b19-4eef-a9ec-2d0dd767b4fb","system_id":"levelo_inurba_marseille","lat":43.26563,"lon":5.39012,"is_reserved":false,"is_disabled":false,"rental_uris":{"android":"levelo://app?vid=c35da96e-2b19-4eef-a9ec-2d0dd767b4fb","ios":"levelo://app?vid=c35da96e-2b19-4eef-a9ec-2d0dd767b4fb"},"vehicle_type_id":"4","last_reported":1756318487,"current_range_meters":12800,"station_id":"ce4bhe12rcd13ifvqf30","pricing_plan_id":"cebpf4jnsgd1na2vs0mg"},{"bike_id":"deea2183-4297-45dc-b252-5e5dabf475d9","system_id":"levelo_inurba_marseille","lat":43.26209,"lon":5.37464,"is_reserved":false,"is_disabled":false,"rental_uris":{"android":"levelo://app?vid=deea2183-4297-45dc-b252-5e5dabf475d9","ios":"levelo://app?vid=deea2183-4297-45dc-b252-5e5dabf475d9"},"vehicle_type_id":"4","last_reported":1756318487,"current_range_meters":12800,"station_id":"ce4bhgp2rcd13ifvqfc0","pricing_plan_id":"cebpf4jnsgd1na2vs0mg"},{"bike_id":"0f969274-ed3a-4d5e-b4e6-7a3984afd615","system_id":"levelo_inurba_marseille","lat":43.2602,"lon":5.37553,"is_reserved":false,"is_disabled":false,"rental_uris":{"android":"levelo://app?vid=0f969274-ed3a-4d5e-b4e6-7a3984afd615","ios":"levelo://app?vid=0f969274-ed3a-4d5e-b4e6-7a3984afd615"},"vehicle_type_id":"4","last_reported":1756318487,"current_range_meters":12800,"station_id":"ce4bhgh2rcd13ifvqfa0","pricing_plan_id":"cebpf4jnsgd1na2vs0mg"},{"bike_id":"1adb4095-0d72-49c9-b242-4f37f889e7ef","system_id":"levelo_inurba_marseille","lat":43.28441,"lon":5.39189,"is_reserved":false,"is_disabled":false,"rental_uris":{"android":"levelo://app?vid=1adb4095-0d72-49c9-b242-4f37f889e7ef","ios":"levelo://app?vid=1adb4095-0d72-49c9-b242-4f37f889e7ef"},"vehicle_type_id":"4","last_reported":1756318487,"current_range_meters":12800,"station_id":"ce4bhoh2rcd13ifvqh5g","pricing_plan_id":"cebpf4jnsgd1na2vs0mg"},{"bike_id":"4f3fd7a3-175e-4bdd-b170-7cdb7a386c2e","system_id":"levelo_inurba_marseille","lat":43.29553,"lon":5.42296,"is_reserved":false,"is_disabled":false,"rental_uris":{"android":"levelo://app?vid=4f3fd7a3-175e-4bdd-b170-7cdb7a386c2e","ios":"levelo://app?vid=4f3fd7a3-175e-4bdd-b170-7cdb7a386c2e"},"vehicle_type_id":"4","last_reported":1756318487,"current_range_meters":12800,"station_id":"ce4bhph2rcd13ifvqhdg","pricing_plan_id":"cebpf4jnsgd1na2vs0mg"},{"bike_id":"c51577f8-b087-49d7-9597-e59a6922b0ef","system_id":"levelo_inurba_marseille","lat":43.23968,"lon":5.3663,"is_reserved":false,"is_disabled":false,"rental_uris":{"android":"levelo://app?vid=c51577f8-b087-49d7-9597-e59a6922b0ef","ios":"levelo://app?vid=c51577f8-b087-49d7-9597-e59a6922b0ef"},"vehicle_type_id":"4","last_reported":1756318487,"current_range_meters":16000,"station_id":"ce4bhi12rcd13ifvqfp0","pricing_plan_id":"cebpf4jnsgd1na2vs0mg"},{"bike_id":"0626399e-81d7-4997-a225-594f90f81658","system_id":"levelo_inurba_marseille","lat":43.27939,"lon":5.4105,"is_reserved":false,"is_disabled":false,"rental_uris":{"android":"levelo://app?vid=0626399e-81d7-4997-a225-594f90f81658","ios":"levelo://app?vid=0626399e-81d7-4997-a225-594f90f81658"},"vehicle_type_id":"4","last_reported":1756318487,"current_range_meters":13600,"station_id":"ce4bhnp2rcd13ifvqh0g","pricing_plan_id":"cebpf4jnsgd1na2vs0mg"},{"bike_id":"2d35c570-724e-42d6-9b57-babd6cb61039","system_id":"levelo_inurba_marseille","lat":43.26029,"lon":5.375488,"is_reserved":false,"is_disabled":false,"rental_uris":{"android":"levelo://app?vid=2d35c570-724e-42d6-9b57-babd6cb61039","ios":"levelo://app?vid=2d35c570-724e-42d6-9b57-babd6cb61039"},"vehicle_type_id":"4","last_reported":1756318487,"current_range_meters":13600,"station_id":"ce4bhgh2rcd13ifvqfa0","pricing_plan_id":"cebpf4jnsgd1na2vs0mg"},{"bike_id":"96207dea-7bbf-4883-ab9a-820d9c447ab3","system_id":"levelo_inurba_marseille","lat":43.28416,"lon":5.34984,"is_reserved":false,"is_disabled":false,"rental_uris":{"android":"levelo://app?vid=96207dea-7bbf-4883-ab9a-820d9c447ab3","ios":"levelo://app?vid=96207dea-7bbf-4883-ab9a-820d9c447ab3"},"vehicle_type_id":"4","last_reported":1756318487,"current_range_meters":13600,"station_id":"ce4bhbh2rcd13ifvqepg","pricing_plan_id":"cebpf4jnsgd1na2vs0mg"},{"bike_id":"3ce18fbc-ec38-4f9e-9dd9-9a3dee5c503d","system_id":"levelo_inurba_marseille","lat":43.26068,"lon":5.37572,"is_reserved":false,"is_disabled":true,"rental_uris":{"android":"levelo://app?vid=3ce18fbc-ec38-4f9e-9dd9-9a3dee5c503d","ios":"levelo://app?vid=3ce18fbc-ec38-4f9e-9dd9-9a3dee5c503d"},"vehicle_type_id":"4","last_reported":1756318487,"current_range_meters":13600,"station_id":"","pricing_plan_id":"cebpf4jnsgd1na2vs0mg"},{"bike_id":"da56be69-d1d8-4e58-9211-9f80a01d3f01","system_id":"levelo_inurba_marseille","lat":43.26548,"lon":5.37293,"is_reserved":false,"is_disabled":false,"rental_uris":{"android":"levelo://app?vid=da56be69-d1d8-4e58-9211-9f80a01d3f01","ios":"levelo://app?vid=da56be69-d1d8-4e58-9211-9f80a01d3f01"},"vehicle_type_id":"4","last_reported":1756318487,"current_range_meters":13600,"station_id":"","pricing_plan_id":"cebpf4jnsgd1na2vs0mg"},{"bike_id":"3dff11d5-3872-4ffe-8cce-b5631d6c6058","system_id":"levelo_inurba_marseille","lat":43.32268,"lon":5.38696,"is_reserved":false,"is_disabled":false,"rental_uris":{"android":"levelo://app?vid=3dff11d5-3872-4ffe-8cce-b5631d6c6058","ios":"levelo://app?vid=3dff11d5-3872-4ffe-8cce-b5631d6c6058"},"vehicle_type_id":"4","last_reported":1756318487,"current_range_meters":13600,"station_id":"","pricing_plan_id":"cebpf4jnsgd1na2vs0mg"},{"bike_id":"07f3c348-251f-475b-bdcc-b91dd94163be","system_id":"levelo_inurba_marseille","lat":43.21744,"lon":5.34608,"is_reserved":false,"is_disabled":true,"rental_uris":{"android":"levelo://app?vid=07f3c348-251f-475b-bdcc-b91dd94163be","ios":"levelo://app?vid=07f3c348-251f-475b-bdcc-b91dd94163be"},"vehicle_type_id":"4","last_reported":1756318487,"current_range_meters":13600,"station_id":"st_cvj6r9ubvosntc0bgbag","pricing_plan_id":"cebpf4jnsgd1na2vs0mg"},{"bike_id":"0e979985-4bba-4b2d-9419-827cff4838ac","system_id":"levelo_inurba_marseille","lat":43.303316,"lon":5.453511,"is_reserved":false,"is_disabled":false,"rental_uris":{"android":"levelo://app?vid=0e979985-4bba-4b2d-9419-827cff4838ac","ios":"levelo://app?vid=0e979985-4bba-4b2d-9419-827cff4838ac"},"vehicle_type_id":"4","last_reported":1756318487,"current_range_meters":13600,"station_id":"","pricing_plan_id":"cebpf4jnsgd1na2vs0mg"},{"bike_id":"685105d1-bcda-4899-9d64-d94adf158a64","system_id":"levelo_inurba_marseille","lat":43.314676,"lon":5.373608,"is_reserved":false,"is_disabled":true,"rental_uris":{"android":"levelo://app?vid=685105d1-bcda-4899-9d64-d94adf158a64","ios":"levelo://app?vid=685105d1-bcda-4899-9d64-d94adf158a64"},"vehicle_type_id":"4","last_reported":1756318487,"current_range_meters":14000,"station_id":"","pricing_plan_id":"cebpf4jnsgd1na2vs0mg"},{"bike_id":"b7ee4414-f1f6-4748-b2c7-6f690de92d81","system_id":"levelo_inurba_marseille","lat":43.21186,"lon":5.35099,"is_reserved":false,"is_disabled":false,"rental_uris":{"android":"levelo://app?vid=b7ee4414-f1f6-4748-b2c7-6f690de92d81","ios":"levelo://app?vid=b7ee4414-f1f6-4748-b2c7-6f690de92d81"},"vehicle_type_id":"4","last_reported":1756318487,"current_range_meters":14000,"station_id":"st_cvj6sg6p6f1abm77japg","pricing_plan_id":"cebpf4jnsgd1na2vs0mg"},{"bike_id":"623e440b-8f41-4de5-bb4c-a1494cd2d781","system_id":"levelo_inurba_marseille","lat":43.27379,"lon":5.36242,"is_reserved":false,"is_disabled":true,"rental_uris":{"android":"levelo://app?vid=623e440b-8f41-4de5-bb4c-a1494cd2d781","ios":"levelo://app?vid=623e440b-8f41-4de5-bb4c-a1494cd2d781"},"vehicle_type_id":"4","last_reported":1756318487,"current_range_meters":14000,"station_id":"ce4bhbh2rcd13ifvqeo0","pricing_plan_id":"cebpf4jnsgd1na2vs0mg"},{"bike_id":"5bd97bf2-681a-44b8-9da4-6a386f7ab9cc","system_id":"levelo_inurba_marseille","lat":43.28864,"lon":5.39316,"is_reserved":false,"is_disabled":false,"rental_uris":{"android":"levelo://app?vid=5bd97bf2-681a-44b8-9da4-6a386f7ab9cc","ios":"levelo://app?vid=5bd97bf2-681a-44b8-9da4-6a386f7ab9cc"},"vehicle_type_id":"4","last_reported":1756318487,"current_range_meters":14000,"station_id":"ce4bh2p2rcd13ifvqdi0","pricing_plan_id":"cebpf4jnsgd1na2vs0mg"},{"bike_id":"b544be72-e517-4e78-baea-097b0c331889","system_id":"levelo_inurba_marseille","lat":43.248184,"lon":5.374706,"is_reserved":false,"is_disabled":false,"rental_uris":{"android":"levelo://app?vid=b544be72-e517-4e78-baea-097b0c331889","ios":"levelo://app?vid=b544be72-e517-4e78-baea-097b0c331889"},"vehicle_type_id":"4","last_reported":1756318487,"current_range_meters":14400,"station_id":"ce4bhgh2rcd13ifvqfb0","pricing_plan_id":"cebpf4jnsgd1na2vs0mg"},{"bike_id":"a8a5f834-b2c0-4417-9230-fbeefed5d598","system_id":"levelo_inurba_marseille","lat":43.28853,"lon":5.39319,"is_reserved":false,"is_disabled":false,"rental_uris":{"android":"levelo://app?vid=a8a5f834-b2c0-4417-9230-fbeefed5d598","ios":"levelo://app?vid=a8a5f834-b2c0-4417-9230-fbeefed5d598"},"vehicle_type_id":"4","last_reported":1756318487,"current_range_meters":14400,"station_id":"ce4bh2p2rcd13ifvqdi0","pricing_plan_id":"cebpf4jnsgd1na2vs0mg"},{"bike_id":"db526668-1205-422f-99f2-dc09210cda94","system_id":"levelo_inurba_marseille","lat":43.29258,"lon":5.36875,"is_reserved":false,"is_disabled":false,"rental_uris":{"android":"levelo://app?vid=db526668-1205-422f-99f2-dc09210cda94","ios":"levelo://app?vid=db526668-1205-422f-99f2-dc09210cda94"},"vehicle_type_id":"4","last_reported":1756318487,"current_range_meters":14400,"station_id":"ce4bhbp2rcd13ifvqesg","pricing_plan_id":"cebpf4jnsgd1na2vs0mg"},{"bike_id":"064887b2-9e63-44f9-8778-ad23a8de1c69","system_id":"levelo_inurba_marseille","lat":43.26022,"lon":5.37556,"is_reserved":false,"is_disabled":false,"rental_uris":{"android":"levelo://app?vid=064887b2-9e63-44f9-8778-ad23a8de1c69","ios":"levelo://app?vid=064887b2-9e63-44f9-8778-ad23a8de1c69"},"vehicle_type_id":"4","last_reported":1756318487,"current_range_meters":14400,"station_id":"ce4bhgh2rcd13ifvqfa0","pricing_plan_id":"cebpf4jnsgd1na2vs0mg"},{"bike_id":"f67c8e5e-7af8-4847-a4ce-1e12088b4291","system_id":"levelo_inurba_marseille","lat":43.33026,"lon":5.39247,"is_reserved":false,"is_disabled":false,"rental_uris":{"android":"levelo://app?vid=f67c8e5e-7af8-4847-a4ce-1e12088b4291","ios":"levelo://app?vid=f67c8e5e-7af8-4847-a4ce-1e12088b4291"},"vehicle_type_id":"4","last_reported":1756318487,"current_range_meters":14400,"station_id":"","pricing_plan_id":"cebpf4jnsgd1na2vs0mg"},{"bike_id":"52f4f38b-4c90-49e9-b7c6-6f29d5adcdf6","system_id":"levelo_inurba_marseille","lat":43.2118,"lon":5.35075,"is_reserved":false,"is_disabled":false,"rental_uris":{"android":"levelo://app?vid=52f4f38b-4c90-49e9-b7c6-6f29d5adcdf6","ios":"levelo://app?vid=52f4f38b-4c90-49e9-b7c6-6f29d5adcdf6"},"vehicle_type_id":"4","last_reported":1756318487,"current_range_meters":14400,"station_id":"st_cvj6sg6p6f1abm77japg","pricing_plan_id":"cebpf4jnsgd1na2vs0mg"},{"bike_id":"3d399bfe-7fbc-42b7-a070-a73b13325d3f","system_id":"levelo_inurba_marseille","lat":43.23057,"lon":5.35535,"is_reserved":false,"is_disabled":false,"rental_uris":{"android":"levelo://app?vid=3d399bfe-7fbc-42b7-a070-a73b13325d3f","ios":"levelo://app?vid=3d399bfe-7fbc-42b7-a070-a73b13325d3f"},"vehicle_type_id":"4","last_reported":1756318487,"current_range_meters":14400,"station_id":"cpo3342slgdg3j2ifvpg","pricing_plan_id":"cebpf4jnsgd1na2vs0mg"},{"bike_id":"901693be-e0fd-48c6-abfc-fe8f5561b51a","system_id":"levelo_inurba_marseille","lat":43.26021,"lon":5.37554,"is_reserved":false,"is_disabled":false,"rental_uris":{"android":"levelo://app?vid=901693be-e0fd-48c6-abfc-fe8f5561b51a","ios":"levelo://app?vid=901693be-e0fd-48c6-abfc-fe8f5561b51a"},"vehicle_type_id":"4","last_reported":1756318487,"current_range_meters":14400,"station_id":"ce4bhgh2rcd13ifvqfa0","pricing_plan_id":"cebpf4jnsgd1na2vs0mg"},{"bike_id":"4ebb3e14-554c-495b-bafb-11ded3664817","system_id":"levelo_inurba_marseille","lat":43.23964,"lon":5.36633,"is_reserved":false,"is_disabled":false,"rental_uris":{"android":"levelo://app?vid=4ebb3e14-554c-495b-bafb-11ded3664817","ios":"levelo://app?vid=4ebb3e14-554c-495b-bafb-11ded3664817"},"vehicle_type_id":"4","last_reported":1756318487,"current_range_meters":14400,"station_id":"ce4bhi12rcd13ifvqfp0","pricing_plan_id":"cebpf4jnsgd1na2vs0mg"},{"bike_id":"5c26a54e-1e97-4ad3-a16d-614ad930b130","system_id":"levelo_inurba_marseille","lat":43.32111,"lon":5.3677,"is_reserved":false,"is_disabled":false,"rental_uris":{"android":"levelo://app?vid=5c26a54e-1e97-4ad3-a16d-614ad930b130","ios":"levelo://app?vid=5c26a54e-1e97-4ad3-a16d-614ad930b130"},"vehicle_type_id":"4","last_reported":1756318487,"current_range_meters":14800,"station_id":"ce4bhrh2rcd13ifvqhug","pricing_plan_id":"cebpf4jnsgd1na2vs0mg"},{"bike_id":"cb3a9350-7199-4d4e-9ca3-16eeb7368712","system_id":"levelo_inurba_marseille","lat":43.28257,"lon":5.35092,"is_reserved":false,"is_disabled":false,"rental_uris":{"android":"levelo://app?vid=cb3a9350-7199-4d4e-9ca3-16eeb7368712","ios":"levelo://app?vid=cb3a9350-7199-4d4e-9ca3-16eeb7368712"},"vehicle_type_id":"4","last_reported":1756318487,"current_range_meters":14800,"station_id":"ce4bhbp2rcd13ifvqerg","pricing_plan_id":"cebpf4jnsgd1na2vs0mg"},{"bike_id":"814645c9-7af5-4408-879c-1836489b0342","system_id":"levelo_inurba_marseille","lat":43.265523,"lon":5.372797,"is_reserved":false,"is_disabled":false,"rental_uris":{"android":"levelo://app?vid=814645c9-7af5-4408-879c-1836489b0342","ios":"levelo://app?vid=814645c9-7af5-4408-879c-1836489b0342"},"vehicle_type_id":"4","last_reported":1756318487,"current_range_meters":14800,"station_id":"ce4bhg12rcd13ifvqf70","pricing_plan_id":"cebpf4jnsgd1na2vs0mg"},{"bike_id":"dd7083cc-5aa5-45e8-aa01-f809713272d1","system_id":"levelo_inurba_marseille","lat":43.21198,"lon":5.35073,"is_reserved":false,"is_disabled":false,"rental_uris":{"android":"levelo://app?vid=dd7083cc-5aa5-45e8-aa01-f809713272d1","ios":"levelo://app?vid=dd7083cc-5aa5-45e8-aa01-f809713272d1"},"vehicle_type_id":"4","last_reported":1756318487,"current_range_meters":14800,"station_id":"st_cvj6sg6p6f1abm77japg","pricing_plan_id":"cebpf4jnsgd1na2vs0mg"},{"bike_id":"11a38367-deb6-4141-b3c1-0cba6ea43c8d","system_id":"levelo_inurba_marseille","lat":43.29002,"lon":5.35601,"is_reserved":false,"is_disabled":true,"rental_uris":{"android":"levelo://app?vid=11a38367-deb6-4141-b3c1-0cba6ea43c8d","ios":"levelo://app?vid=11a38367-deb6-4141-b3c1-0cba6ea43c8d"},"vehicle_type_id":"4","last_reported":1756318487,"current_range_meters":15200,"station_id":"ce4bhb92rcd13ifvqen0","pricing_plan_id":"cebpf4jnsgd1na2vs0mg"},{"bike_id":"a449fb2f-f1b0-4299-81dc-23d84745d332","system_id":"levelo_inurba_marseille","lat":43.26182,"lon":5.37928,"is_reserved":false,"is_disabled":false,"rental_uris":{"android":"levelo://app?vid=a449fb2f-f1b0-4299-81dc-23d84745d332","ios":"levelo://app?vid=a449fb2f-f1b0-4299-81dc-23d84745d332"},"vehicle_type_id":"4","last_reported":1756318487,"current_range_meters":15200,"station_id":"ce4bhjp2rcd13ifvqg90","pricing_plan_id":"cebpf4jnsgd1na2vs0mg"},{"bike_id":"70e6f21c-9b9a-42cf-bfe3-0e3c3217c905","system_id":"levelo_inurba_marseille","lat":43.28446,"lon":5.39209,"is_reserved":false,"is_disabled":false,"rental_uris":{"android":"levelo://app?vid=70e6f21c-9b9a-42cf-bfe3-0e3c3217c905","ios":"levelo://app?vid=70e6f21c-9b9a-42cf-bfe3-0e3c3217c905"},"vehicle_type_id":"4","last_reported":1756318487,"current_range_meters":15200,"station_id":"ce4bhoh2rcd13ifvqh5g","pricing_plan_id":"cebpf4jnsgd1na2vs0mg"},{"bike_id":"2069bb10-8fc4-46cb-b293-68ee5a76feb7","system_id":"levelo_inurba_marseille","lat":43.26183,"lon":5.37455,"is_reserved":false,"is_disabled":false,"rental_uris":{"android":"levelo://app?vid=2069bb10-8fc4-46cb-b293-68ee5a76feb7","ios":"levelo://app?vid=2069bb10-8fc4-46cb-b293-68ee5a76feb7"},"vehicle_type_id":"4","last_reported":1756318487,"current_range_meters":15200,"station_id":"ce4bhgp2rcd13ifvqfc0","pricing_plan_id":"cebpf4jnsgd1na2vs0mg"},{"bike_id":"c561b3be-23f4-46ed-8d38-1fc2450f503d","system_id":"levelo_inurba_marseille","lat":43.23654,"lon":5.36221,"is_reserved":false,"is_disabled":false,"rental_uris":{"android":"levelo://app?vid=c561b3be-23f4-46ed-8d38-1fc2450f503d","ios":"levelo://app?vid=c561b3be-23f4-46ed-8d38-1fc2450f503d"},"vehicle_type_id":"4","last_reported":1756318487,"current_range_meters":15200,"station_id":"","pricing_plan_id":"cebpf4jnsgd1na2vs0mg"},{"bike_id":"06e88d00-bf15-4da4-a864-67e66e9864ff","system_id":"levelo_inurba_marseille","lat":43.31991,"lon":5.38134,"is_reserved":false,"is_disabled":false,"rental_uris":{"android":"levelo://app?vid=06e88d00-bf15-4da4-a864-67e66e9864ff","ios":"levelo://app?vid=06e88d00-bf15-4da4-a864-67e66e9864ff"},"vehicle_type_id":"4","last_reported":1756318487,"current_range_meters":14800,"station_id":"ce4bhr12rcd13ifvqhpg","pricing_plan_id":"cebpf4jnsgd1na2vs0mg"},{"bike_id":"d4a1c419-c333-431b-a3bc-3aa17f334726","system_id":"levelo_inurba_marseille","lat":43.26204,"lon":5.37458,"is_reserved":false,"is_disabled":false,"rental_uris":{"android":"levelo://app?vid=d4a1c419-c333-431b-a3bc-3aa17f334726","ios":"levelo://app?vid=d4a1c419-c333-431b-a3bc-3aa17f334726"},"vehicle_type_id":"4","last_reported":1756318487,"current_range_meters":15200,"station_id":"ce4bhgp2rcd13ifvqfc0","pricing_plan_id":"cebpf4jnsgd1na2vs0mg"},{"bike_id":"191b8562-39fd-4efd-9cb3-23d3b4c5d9c8","system_id":"levelo_inurba_marseille","lat":43.29275,"lon":5.36846,"is_reserved":false,"is_disabled":false,"rental_uris":{"android":"levelo://app?vid=191b8562-39fd-4efd-9cb3-23d3b4c5d9c8","ios":"levelo://app?vid=191b8562-39fd-4efd-9cb3-23d3b4c5d9c8"},"vehicle_type_id":"4","last_reported":1756318487,"current_range_meters":15200,"station_id":"ce4bhbp2rcd13ifvqesg","pricing_plan_id":"cebpf4jnsgd1na2vs0mg"},{"bike_id":"b9c69a36-5ca5-4157-93c3-54bb682eeb14","system_id":"levelo_inurba_marseille","lat":43.28613,"lon":5.35108,"is_reserved":false,"is_disabled":false,"rental_uris":{"android":"levelo://app?vid=b9c69a36-5ca5-4157-93c3-54bb682eeb14","ios":"levelo://app?vid=b9c69a36-5ca5-4157-93c3-54bb682eeb14"},"vehicle_type_id":"4","last_reported":1756318487,"current_range_meters":16000,"station_id":"ce4bhch2rcd13ifvqeug","pricing_plan_id":"cebpf4jnsgd1na2vs0mg"},{"bike_id":"d810acf0-5bd2-4bf1-848d-31cd30d105e6","system_id":"levelo_inurba_marseille","lat":43.269831,"lon":5.392782,"is_reserved":false,"is_disabled":false,"rental_uris":{"android":"levelo://app?vid=d810acf0-5bd2-4bf1-848d-31cd30d105e6","ios":"levelo://app?vid=d810acf0-5bd2-4bf1-848d-31cd30d105e6"},"vehicle_type_id":"4","last_reported":1756318487,"current_range_meters":16000,"station_id":"","pricing_plan_id":"cebpf4jnsgd1na2vs0mg"},{"bike_id":"5dd83fad-2449-4d56-be74-c8599abb9a5e","system_id":"levelo_inurba_marseille","lat":43.26208,"lon":5.3746,"is_reserved":false,"is_disabled":false,"rental_uris":{"android":"levelo://app?vid=5dd83fad-2449-4d56-be74-c8599abb9a5e","ios":"levelo://app?vid=5dd83fad-2449-4d56-be74-c8599abb9a5e"},"vehicle_type_id":"4","last_reported":1756318487,"current_range_meters":16000,"station_id":"ce4bhgp2rcd13ifvqfc0","pricing_plan_id":"cebpf4jnsgd1na2vs0mg"},{"bike_id":"19eabc24-80d3-4327-b947-9ec7f85cd494","system_id":"levelo_inurba_marseille","lat":43.27324,"lon":5.39099,"is_reserved":false,"is_disabled":true,"rental_uris":{"android":"levelo://app?vid=19eabc24-80d3-4327-b947-9ec7f85cd494","ios":"levelo://app?vid=19eabc24-80d3-4327-b947-9ec7f85cd494"},"vehicle_type_id":"4","last_reported":1756318487,"current_range_meters":16000,"station_id":"ce4bhgp2rcd13ifvqfe0","pricing_plan_id":"cebpf4jnsgd1na2vs0mg"},{"bike_id":"ffd21136-ae47-45ee-8fc5-e7f85ea84802","system_id":"levelo_inurba_marseille","lat":43.29826,"lon":5.38304,"is_reserved":false,"is_disabled":false,"rental_uris":{"android":"levelo://app?vid=ffd21136-ae47-45ee-8fc5-e7f85ea84802","ios":"levelo://app?vid=ffd21136-ae47-45ee-8fc5-e7f85ea84802"},"vehicle_type_id":"4","last_reported":1756318487,"current_range_meters":16000,"station_id":"","pricing_plan_id":"cebpf4jnsgd1na2vs0mg"},{"bike_id":"e648a047-961d-4d82-a8ac-7d907da57214","system_id":"levelo_inurba_marseille","lat":43.29845,"lon":5.36275,"is_reserved":false,"is_disabled":false,"rental_uris":{"android":"levelo://app?vid=e648a047-961d-4d82-a8ac-7d907da57214","ios":"levelo://app?vid=e648a047-961d-4d82-a8ac-7d907da57214"},"vehicle_type_id":"4","last_reported":1756318487,"current_range_meters":16000,"station_id":"ce4bgpp2rcd13ifvqc3g","pricing_plan_id":"cebpf4jnsgd1na2vs0mg"},{"bike_id":"4390fec5-e5b7-4b30-b7e4-8bd8c36aab99","system_id":"levelo_inurba_marseille","lat":43.26029,"lon":5.37562,"is_reserved":false,"is_disabled":false,"rental_uris":{"android":"levelo://app?vid=4390fec5-e5b7-4b30-b7e4-8bd8c36aab99","ios":"levelo://app?vid=4390fec5-e5b7-4b30-b7e4-8bd8c36aab99"},"vehicle_type_id":"4","last_reported":1756318487,"current_range_meters":16000,"station_id":"ce4bhgh2rcd13ifvqfa0","pricing_plan_id":"cebpf4jnsgd1na2vs0mg"},{"bike_id":"0439c206-9670-49d1-8271-a25688fd0518","system_id":"levelo_inurba_marseille","lat":43.21181,"lon":5.35064,"is_reserved":false,"is_disabled":false,"rental_uris":{"android":"levelo://app?vid=0439c206-9670-49d1-8271-a25688fd0518","ios":"levelo://app?vid=0439c206-9670-49d1-8271-a25688fd0518"},"vehicle_type_id":"4","last_reported":1756318487,"current_range_meters":16000,"station_id":"st_cvj6sg6p6f1abm77japg","pricing_plan_id":"cebpf4jnsgd1na2vs0mg"},{"bike_id":"94c44f36-d45b-48d8-9eb0-02cde482dcfd","system_id":"levelo_inurba_marseille","lat":43.26025,"lon":5.37543,"is_reserved":false,"is_disabled":false,"rental_uris":{"android":"levelo://app?vid=94c44f36-d45b-48d8-9eb0-02cde482dcfd","ios":"levelo://app?vid=94c44f36-d45b-48d8-9eb0-02cde482dcfd"},"vehicle_type_id":"4","last_reported":1756318487,"current_range_meters":16000,"station_id":"ce4bhgh2rcd13ifvqfa0","pricing_plan_id":"cebpf4jnsgd1na2vs0mg"},{"bike_id":"7c7233dc-a88d-4663-a217-aa8e29c80ac8","system_id":"levelo_inurba_marseille","lat":43.301576,"lon":5.374164,"is_reserved":false,"is_disabled":false,"rental_uris":{"android":"levelo://app?vid=7c7233dc-a88d-4663-a217-aa8e29c80ac8","ios":"levelo://app?vid=7c7233dc-a88d-4663-a217-aa8e29c80ac8"},"vehicle_type_id":"4","last_reported":1756318487,"current_range_meters":14800,"station_id":"ce4bgs92rcd13ifvqcc0","pricing_plan_id":"cebpf4jnsgd1na2vs0mg"},{"bike_id":"737ddd72-0205-45a1-a74b-f3d1e401da80","system_id":"levelo_inurba_marseille","lat":43.26572,"lon":5.3901,"is_reserved":false,"is_disabled":false,"rental_uris":{"android":"levelo://app?vid=737ddd72-0205-45a1-a74b-f3d1e401da80","ios":"levelo://app?vid=737ddd72-0205-45a1-a74b-f3d1e401da80"},"vehicle_type_id":"4","last_reported":1756318487,"current_range_meters":16000,"station_id":"ce4bhe12rcd13ifvqf30","pricing_plan_id":"cebpf4jnsgd1na2vs0mg"},{"bike_id":"feded75c-b64f-4d09-af8b-e87db9db28a2","system_id":"levelo_inurba_marseille","lat":43.2984,"lon":5.36267,"is_reserved":false,"is_disabled":false,"rental_uris":{"android":"levelo://app?vid=feded75c-b64f-4d09-af8b-e87db9db28a2","ios":"levelo://app?vid=feded75c-b64f-4d09-af8b-e87db9db28a2"},"vehicle_type_id":"4","last_reported":1756318487,"current_range_meters":16000,"station_id":"ce4bgpp2rcd13ifvqc3g","pricing_plan_id":"cebpf4jnsgd1na2vs0mg"},{"bike_id":"ea341be7-92e8-4597-8f5d-72ecaf4e2b76","system_id":"levelo_inurba_marseille","lat":43.29267,"lon":5.36861,"is_reserved":false,"is_disabled":false,"rental_uris":{"android":"levelo://app?vid=ea341be7-92e8-4597-8f5d-72ecaf4e2b76","ios":"levelo://app?vid=ea341be7-92e8-4597-8f5d-72ecaf4e2b76"},"vehicle_type_id":"4","last_reported":1756318487,"current_range_meters":16400,"station_id":"ce4bhbp2rcd13ifvqesg","pricing_plan_id":"cebpf4jnsgd1na2vs0mg"},{"bike_id":"a029d878-b479-4ed1-b5e6-f040cdc84263","system_id":"levelo_inurba_marseille","lat":43.26557,"lon":5.37286,"is_reserved":false,"is_disabled":false,"rental_uris":{"android":"levelo://app?vid=a029d878-b479-4ed1-b5e6-f040cdc84263","ios":"levelo://app?vid=a029d878-b479-4ed1-b5e6-f040cdc84263"},"vehicle_type_id":"4","last_reported":1756318487,"current_range_meters":16400,"station_id":"ce4bhg12rcd13ifvqf70","pricing_plan_id":"cebpf4jnsgd1na2vs0mg"},{"bike_id":"1ead3eee-c052-4307-9f25-b0a932f0b7f7","system_id":"levelo_inurba_marseille","lat":43.26196,"lon":5.37459,"is_reserved":false,"is_disabled":false,"rental_uris":{"android":"levelo://app?vid=1ead3eee-c052-4307-9f25-b0a932f0b7f7","ios":"levelo://app?vid=1ead3eee-c052-4307-9f25-b0a932f0b7f7"},"vehicle_type_id":"4","last_reported":1756318487,"current_range_meters":16400,"station_id":"ce4bhgp2rcd13ifvqfc0","pricing_plan_id":"cebpf4jnsgd1na2vs0mg"},{"bike_id":"c67682e4-ad86-4b65-b4ef-e774963b7e60","system_id":"levelo_inurba_marseille","lat":43.232,"lon":5.35563,"is_reserved":false,"is_disabled":false,"rental_uris":{"android":"levelo://app?vid=c67682e4-ad86-4b65-b4ef-e774963b7e60","ios":"levelo://app?vid=c67682e4-ad86-4b65-b4ef-e774963b7e60"},"vehicle_type_id":"4","last_reported":1756318487,"current_range_meters":16400,"station_id":"ce4bhu92rcd13ifvqi70","pricing_plan_id":"cebpf4jnsgd1na2vs0mg"},{"bike_id":"e2ed59d4-5e68-4b95-8af3-fd543b1621d1","system_id":"levelo_inurba_marseille","lat":43.29532,"lon":5.37548,"is_reserved":false,"is_disabled":false,"rental_uris":{"android":"levelo://app?vid=e2ed59d4-5e68-4b95-8af3-fd543b1621d1","ios":"levelo://app?vid=e2ed59d4-5e68-4b95-8af3-fd543b1621d1"},"vehicle_type_id":"4","last_reported":1756318487,"current_range_meters":16400,"station_id":"ce4bgkp2rcd13ifvqbmg","pricing_plan_id":"cebpf4jnsgd1na2vs0mg"},{"bike_id":"59d6deaa-8469-4acf-b8b3-cd575b2e0c6f","system_id":"levelo_inurba_marseille","lat":43.29267,"lon":5.36831,"is_reserved":false,"is_disabled":false,"rental_uris":{"android":"levelo://app?vid=59d6deaa-8469-4acf-b8b3-cd575b2e0c6f","ios":"levelo://app?vid=59d6deaa-8469-4acf-b8b3-cd575b2e0c6f"},"vehicle_type_id":"4","last_reported":1756318487,"current_range_meters":16400,"station_id":"ce4bhbp2rcd13ifvqesg","pricing_plan_id":"cebpf4jnsgd1na2vs0mg"},{"bike_id":"e6c593a6-25b4-4483-b874-06f613c8942f","system_id":"levelo_inurba_marseille","lat":43.21751,"lon":5.34602,"is_reserved":false,"is_disabled":false,"rental_uris":{"android":"levelo://app?vid=e6c593a6-25b4-4483-b874-06f613c8942f","ios":"levelo://app?vid=e6c593a6-25b4-4483-b874-06f613c8942f"},"vehicle_type_id":"4","last_reported":1756318487,"current_range_meters":16400,"station_id":"st_cvj6r9ubvosntc0bgbag","pricing_plan_id":"cebpf4jnsgd1na2vs0mg"},{"bike_id":"7e8dca62-4c7a-423b-be70-e3968491278d","system_id":"levelo_inurba_marseille","lat":43.26555,"lon":5.37286,"is_reserved":false,"is_disabled":false,"rental_uris":{"android":"levelo://app?vid=7e8dca62-4c7a-423b-be70-e3968491278d","ios":"levelo://app?vid=7e8dca62-4c7a-423b-be70-e3968491278d"},"vehicle_type_id":"4","last_reported":1756318487,"current_range_meters":16400,"station_id":"ce4bhg12rcd13ifvqf70","pricing_plan_id":"cebpf4jnsgd1na2vs0mg"},{"bike_id":"20250588-9eb8-4f44-b53e-7a101ec540f9","system_id":"levelo_inurba_marseille","lat":43.29786,"lon":5.37115,"is_reserved":false,"is_disabled":false,"rental_uris":{"android":"levelo://app?vid=20250588-9eb8-4f44-b53e-7a101ec540f9","ios":"levelo://app?vid=20250588-9eb8-4f44-b53e-7a101ec540f9"},"vehicle_type_id":"4","last_reported":1756318487,"current_range_meters":16000,"station_id":"ce4bgop2rcd13ifvqc1g","pricing_plan_id":"cebpf4jnsgd1na2vs0mg"},{"bike_id":"eedb7545-5fce-43e9-a8f9-4ffe16024c6e","system_id":"levelo_inurba_marseille","lat":43.30295,"lon":5.36889,"is_reserved":false,"is_disabled":false,"rental_uris":{"android":"levelo://app?vid=eedb7545-5fce-43e9-a8f9-4ffe16024c6e","ios":"levelo://app?vid=eedb7545-5fce-43e9-a8f9-4ffe16024c6e"},"vehicle_type_id":"4","last_reported":1756318487,"current_range_meters":16400,"station_id":"ce4bgqh2rcd13ifvqc5g","pricing_plan_id":"cebpf4jnsgd1na2vs0mg"},{"bike_id":"651c04c7-c2f3-4258-98c4-2abdeb471500","system_id":"levelo_inurba_marseille","lat":43.26544,"lon":5.37298,"is_reserved":false,"is_disabled":false,"rental_uris":{"android":"levelo://app?vid=651c04c7-c2f3-4258-98c4-2abdeb471500","ios":"levelo://app?vid=651c04c7-c2f3-4258-98c4-2abdeb471500"},"vehicle_type_id":"4","last_reported":1756318487,"current_range_meters":16400,"station_id":"ce4bhg12rcd13ifvqf70","pricing_plan_id":"cebpf4jnsgd1na2vs0mg"},{"bike_id":"5e1cfa7c-2650-4ffe-93aa-d6eecfdeeb16","system_id":"levelo_inurba_marseille","lat":43.326551,"lon":5.409924,"is_reserved":false,"is_disabled":false,"rental_uris":{"android":"levelo://app?vid=5e1cfa7c-2650-4ffe-93aa-d6eecfdeeb16","ios":"levelo://app?vid=5e1cfa7c-2650-4ffe-93aa-d6eecfdeeb16"},"vehicle_type_id":"4","last_reported":1756318487,"current_range_meters":16400,"station_id":"ce4bhpp2rcd13ifvqhgg","pricing_plan_id":"cebpf4jnsgd1na2vs0mg"},{"bike_id":"ba0c3c03-98f4-49cd-b732-8edfb13e3a09","system_id":"levelo_inurba_marseille","lat":43.26031,"lon":5.37553,"is_reserved":false,"is_disabled":false,"rental_uris":{"android":"levelo://app?vid=ba0c3c03-98f4-49cd-b732-8edfb13e3a09","ios":"levelo://app?vid=ba0c3c03-98f4-49cd-b732-8edfb13e3a09"},"vehicle_type_id":"4","last_reported":1756318487,"current_range_meters":16800,"station_id":"ce4bhgh2rcd13ifvqfa0","pricing_plan_id":"cebpf4jnsgd1na2vs0mg"},{"bike_id":"ffe6df59-3fc1-4d81-9326-f6f6418e7718","system_id":"levelo_inurba_marseille","lat":43.29773,"lon":5.3734,"is_reserved":false,"is_disabled":false,"rental_uris":{"android":"levelo://app?vid=ffe6df59-3fc1-4d81-9326-f6f6418e7718","ios":"levelo://app?vid=ffe6df59-3fc1-4d81-9326-f6f6418e7718"},"vehicle_type_id":"4","last_reported":1756318487,"current_range_meters":16800,"station_id":"","pricing_plan_id":"cebpf4jnsgd1na2vs0mg"},{"bike_id":"68155d7e-a087-42cf-94b4-7e9b0a4c993e","system_id":"levelo_inurba_marseille","lat":43.294678,"lon":5.395335,"is_reserved":false,"is_disabled":false,"rental_uris":{"android":"levelo://app?vid=68155d7e-a087-42cf-94b4-7e9b0a4c993e","ios":"levelo://app?vid=68155d7e-a087-42cf-94b4-7e9b0a4c993e"},"vehicle_type_id":"4","last_reported":1756318487,"current_range_meters":16800,"station_id":"ce4bh3h2rcd13ifvqdo0","pricing_plan_id":"cebpf4jnsgd1na2vs0mg"},{"bike_id":"23ae6fed-deff-411b-8b6e-f95e32ccd4d0","system_id":"levelo_inurba_marseille","lat":43.32146,"lon":5.36686,"is_reserved":false,"is_disabled":false,"rental_uris":{"android":"levelo://app?vid=23ae6fed-deff-411b-8b6e-f95e32ccd4d0","ios":"levelo://app?vid=23ae6fed-deff-411b-8b6e-f95e32ccd4d0"},"vehicle_type_id":"4","last_reported":1756318487,"current_range_meters":16800,"station_id":"","pricing_plan_id":"cebpf4jnsgd1na2vs0mg"},{"bike_id":"038138a4-6527-44af-8928-445bff4183b4","system_id":"levelo_inurba_marseille","lat":43.26555,"lon":5.40321,"is_reserved":false,"is_disabled":false,"rental_uris":{"android":"levelo://app?vid=038138a4-6527-44af-8928-445bff4183b4","ios":"levelo://app?vid=038138a4-6527-44af-8928-445bff4183b4"},"vehicle_type_id":"4","last_reported":1756318487,"current_range_meters":16800,"station_id":"ce4bhmp2rcd13ifvqgng","pricing_plan_id":"cebpf4jnsgd1na2vs0mg"},{"bike_id":"07aba97e-bd4d-4c1d-907c-0a6283c9284b","system_id":"levelo_inurba_marseille","lat":43.28715,"lon":5.37393,"is_reserved":false,"is_disabled":false,"rental_uris":{"android":"levelo://app?vid=07aba97e-bd4d-4c1d-907c-0a6283c9284b","ios":"levelo://app?vid=07aba97e-bd4d-4c1d-907c-0a6283c9284b"},"vehicle_type_id":"4","last_reported":1756318487,"current_range_meters":16800,"station_id":"ce4bh3p2rcd13ifvqdq0","pricing_plan_id":"cebpf4jnsgd1na2vs0mg"},{"bike_id":"b46342de-d269-4e9b-b610-f67dd3f6cdf4","system_id":"levelo_inurba_marseille","lat":43.29583,"lon":5.36741,"is_reserved":false,"is_disabled":false,"rental_uris":{"android":"levelo://app?vid=b46342de-d269-4e9b-b610-f67dd3f6cdf4","ios":"levelo://app?vid=b46342de-d269-4e9b-b610-f67dd3f6cdf4"},"vehicle_type_id":"4","last_reported":1756318487,"current_range_meters":16800,"station_id":"ce4bgph2rcd13ifvqc2g","pricing_plan_id":"cebpf4jnsgd1na2vs0mg"},{"bike_id":"9d937481-8d9a-4a3d-b717-994a4162f4d3","system_id":"levelo_inurba_marseille","lat":43.23198,"lon":5.35585,"is_reserved":false,"is_disabled":false,"rental_uris":{"android":"levelo://app?vid=9d937481-8d9a-4a3d-b717-994a4162f4d3","ios":"levelo://app?vid=9d937481-8d9a-4a3d-b717-994a4162f4d3"},"vehicle_type_id":"4","last_reported":1756318487,"current_range_meters":16800,"station_id":"ce4bhu92rcd13ifvqi70","pricing_plan_id":"cebpf4jnsgd1na2vs0mg"},{"bike_id":"00c7aa63-8fe8-405a-bb03-8f3d8e0ee318","system_id":"levelo_inurba_marseille","lat":43.298462,"lon":5.362788,"is_reserved":false,"is_disabled":false,"rental_uris":{"android":"levelo://app?vid=00c7aa63-8fe8-405a-bb03-8f3d8e0ee318","ios":"levelo://app?vid=00c7aa63-8fe8-405a-bb03-8f3d8e0ee318"},"vehicle_type_id":"4","last_reported":1756318487,"current_range_meters":16800,"station_id":"ce4bgpp2rcd13ifvqc3g","pricing_plan_id":"cebpf4jnsgd1na2vs0mg"},{"bike_id":"f3267b78-0af1-4748-a75a-6b4e3d5e35e6","system_id":"levelo_inurba_marseille","lat":43.31723,"lon":5.43713,"is_reserved":false,"is_disabled":false,"rental_uris":{"android":"levelo://app?vid=f3267b78-0af1-4748-a75a-6b4e3d5e35e6","ios":"levelo://app?vid=f3267b78-0af1-4748-a75a-6b4e3d5e35e6"},"vehicle_type_id":"4","last_reported":1756318487,"current_range_meters":16800,"station_id":"ce4bhp92rcd13ifvqhcg","pricing_plan_id":"cebpf4jnsgd1na2vs0mg"},{"bike_id":"4812d634-ec58-43c1-a979-0e5362542a78","system_id":"levelo_inurba_marseille","lat":43.29022,"lon":5.38645,"is_reserved":false,"is_disabled":false,"rental_uris":{"android":"levelo://app?vid=4812d634-ec58-43c1-a979-0e5362542a78","ios":"levelo://app?vid=4812d634-ec58-43c1-a979-0e5362542a78"},"vehicle_type_id":"4","last_reported":1756318487,"current_range_meters":16800,"station_id":"ce4bh4p2rcd13ifvqe0g","pricing_plan_id":"cebpf4jnsgd1na2vs0mg"},{"bike_id":"8df4d72a-2534-4225-b0d0-5b48bd4c7385","system_id":"levelo_inurba_marseille","lat":43.294395,"lon":5.397608,"is_reserved":false,"is_disabled":false,"rental_uris":{"android":"levelo://app?vid=8df4d72a-2534-4225-b0d0-5b48bd4c7385","ios":"levelo://app?vid=8df4d72a-2534-4225-b0d0-5b48bd4c7385"},"vehicle_type_id":"4","last_reported":1756318487,"current_range_meters":17200,"station_id":"ce4bh3h2rcd13ifvqdo0","pricing_plan_id":"cebpf4jnsgd1na2vs0mg"},{"bike_id":"732585b6-e1c9-44ac-93e0-e9f0c870a220","system_id":"levelo_inurba_marseille","lat":43.29276,"lon":5.38445,"is_reserved":false,"is_disabled":false,"rental_uris":{"android":"levelo://app?vid=732585b6-e1c9-44ac-93e0-e9f0c870a220","ios":"levelo://app?vid=732585b6-e1c9-44ac-93e0-e9f0c870a220"},"vehicle_type_id":"4","last_reported":1756318487,"current_range_meters":17200,"station_id":"ce4bh692rcd13ifvqea0","pricing_plan_id":"cebpf4jnsgd1na2vs0mg"},{"bike_id":"ca04a5b9-6d7d-4988-8f0e-f552b7bdb96f","system_id":"levelo_inurba_marseille","lat":43.28669,"lon":5.3634,"is_reserved":false,"is_disabled":false,"rental_uris":{"android":"levelo://app?vid=ca04a5b9-6d7d-4988-8f0e-f552b7bdb96f","ios":"levelo://app?vid=ca04a5b9-6d7d-4988-8f0e-f552b7bdb96f"},"vehicle_type_id":"4","last_reported":1756318487,"current_range_meters":18000,"station_id":"ce4bhah2rcd13ifvqej0","pricing_plan_id":"cebpf4jnsgd1na2vs0mg"},{"bike_id":"89b8acbc-b215-475a-8441-30d3f29cd601","system_id":"levelo_inurba_marseille","lat":43.27373,"lon":5.36257,"is_reserved":false,"is_disabled":false,"rental_uris":{"android":"levelo://app?vid=89b8acbc-b215-475a-8441-30d3f29cd601","ios":"levelo://app?vid=89b8acbc-b215-475a-8441-30d3f29cd601"},"vehicle_type_id":"4","last_reported":1756318487,"current_range_meters":17200,"station_id":"ce4bhbh2rcd13ifvqeo0","pricing_plan_id":"cebpf4jnsgd1na2vs0mg"},{"bike_id":"05d97e45-19dc-4128-88fe-ffa6fa61464f","system_id":"levelo_inurba_marseille","lat":43.26213,"lon":5.37453,"is_reserved":false,"is_disabled":false,"rental_uris":{"android":"levelo://app?vid=05d97e45-19dc-4128-88fe-ffa6fa61464f","ios":"levelo://app?vid=05d97e45-19dc-4128-88fe-ffa6fa61464f"},"vehicle_type_id":"4","last_reported":1756318487,"current_range_meters":17200,"station_id":"ce4bhgp2rcd13ifvqfc0","pricing_plan_id":"cebpf4jnsgd1na2vs0mg"},{"bike_id":"a5111d90-7a2c-4331-ac7f-caad20168099","system_id":"levelo_inurba_marseille","lat":43.26228,"lon":5.37451,"is_reserved":false,"is_disabled":false,"rental_uris":{"android":"levelo://app?vid=a5111d90-7a2c-4331-ac7f-caad20168099","ios":"levelo://app?vid=a5111d90-7a2c-4331-ac7f-caad20168099"},"vehicle_type_id":"4","last_reported":1756318487,"current_range_meters":17200,"station_id":"ce4bhgp2rcd13ifvqfc0","pricing_plan_id":"cebpf4jnsgd1na2vs0mg"},{"bike_id":"086e12eb-242e-4645-8fe3-05a62b40f96e","system_id":"levelo_inurba_marseille","lat":43.24632,"lon":5.43146,"is_reserved":false,"is_disabled":false,"rental_uris":{"android":"levelo://app?vid=086e12eb-242e-4645-8fe3-05a62b40f96e","ios":"levelo://app?vid=086e12eb-242e-4645-8fe3-05a62b40f96e"},"vehicle_type_id":"4","last_reported":1756318487,"current_range_meters":17200,"station_id":"st_d2m6c4gdas8pm72e190g","pricing_plan_id":"cebpf4jnsgd1na2vs0mg"},{"bike_id":"0793473c-7c91-4d1f-8ffb-c00486129b1d","system_id":"levelo_inurba_marseille","lat":43.30104,"lon":5.39086,"is_reserved":false,"is_disabled":true,"rental_uris":{"android":"levelo://app?vid=0793473c-7c91-4d1f-8ffb-c00486129b1d","ios":"levelo://app?vid=0793473c-7c91-4d1f-8ffb-c00486129b1d"},