{"last_updated":1719169617,"ttl":30,"version":"2.2","data":{"bikes":[{"bike_id":"e475c574-0a77-403c-8451-5ff9028868a0","system_id":"levelo_inurba_marseille","lat":43.31341,"lon":5.367098,"is_reserved":false,"is_disabled":false,"rental_uris":{"android":"levelo://app?vid=e475c574-0a77-403c-8451-5ff9028868a0","ios":"levelo://app?vid=e475c574-0a77-403c-8451-5ff9028868a0"},"vehicle_type_id":"4","last_reported":1719169617,"current_range_meters":27600,"station_id":"ce4bgr92rcd13ifvqc6g","pricing_plan_id":"cebpf4jnsgd1na2vs0mg"},{"bike_id":"1362f636-3ee8-453b-a853-aa335d7c18d2","system_id":"levelo_inurba_marseille","lat":43.312239,"lon":5.368562,"is_reserved":false,"is_disabled":false,"rental_uris":{"android":"levelo://app?vid=1362f636-3ee8-453b-a853-aa335d7c18d2","ios":"levelo://app?vid=1362f636-3ee8-453b-a853-aa335d7c18d2"},"vehicle_type_id":"4","last_reported":1719169617,"current_range_meters":16800,"station_id":"ce4bgl92rcd13ifvqbq0","pricing_plan_id":"cebpf4jnsgd1na2vs0mg"},{"bike_id":"0e50797e-0732-4861-b9cc-3ad08dca1066","system_id":"levelo_inurba_marseille","lat":43.309076,"lon":5.368465,"is_reserved":false,"is_disabled":false,"rental_uris":{"android":"levelo://app?vid=0e50797e-0732-4861-b9cc-3ad08dca1066","ios":"levelo://app?vid=0e50797e-0732-4861-b9cc-3ad08dca1066"},"vehicle_type_id":"4","last_reported":1719169617,"current_range_meters":8400,"station_id":"ce4bgn92rcd13ifvqbvg","pricing_plan_id":"cebpf4jnsgd1na2vs0mg"},{"bike_id":"45323afa-3eba-40cb-b48f-2a318f99eee2","system_id":"levelo_inurba_marseille","lat":43.309076,"lon":5.368465,"is_reserved":false,"is_disabled":false,"rental_uris":{"android":"levelo://app?vid=45323afa-3eba-40cb-b48f-2a318f99eee2","ios":"levelo://app?vid=45323afa-3eba-40cb-b48f-2a318f99eee2"},"vehicle_type_id":"4","last_reported":1719169617,"current_range_meters":29600,"station_id":"ce4bgn92rcd13ifvqbvg","pricing_plan_id":"cebpf4jnsgd1na2vs0mg"},{"bike_id":"f4a42bec-11f8-449b-8b12-451c72c88961","system_id":"levelo_inurba_marseille","lat":43.309076,"lon":5.368465,"is_reserved":false,"is_disabled":false,"rental_uris":{"android":"levelo://app?vid=f4a42bec-11f8-449b-8b12-451c72c88961","ios":"levelo://app?vid=f4a42bec-11f8-449b-8b12-451c72c88961"},"vehicle_type_id":"4","last_reported":1719169617,"current_range_meters":8800,"station_id":"ce4bgn92rcd13ifvqbvg","pricing_plan_id":"cebpf4jnsgd1na2vs0mg"},{"bike_id":"4c3dc44d-04a8-4a2f-9767-814a21702430","system_id":"levelo_inurba_marseille","lat":43.309076,"lon":5.368465,"is_reserved":false,"is_disabled":false,"rental_uris":{"android":"levelo://app?vid=4c3dc44d-04a8-4a2f-9767-814a21702430","ios":"levelo://app?vid=4c3dc44d-04a8-4a2f-9767-814a21702430"},"vehicle_type_id":"4","last_reported":1719169617,"current_range_meters":4800,"station_id":"ce4bgn92rcd13ifvqbvg","pricing_plan_id":"cebpf4jnsgd1na2vs0mg"},{"bike_id":"1a4394df-7f58-4113-83e1-87c9a75ec5f4","system_id":"levelo_inurba_marseille","lat":43.309076,"lon":5.368465,"is_reserved":false,"is_disabled":false,"rental_uris":{"android":"levelo://app?vid=1a4394df-7f58-4113-83e1-87c9a75ec5f4","ios":"levelo://app?vid=1a4394df-7f58-4113-83e1-87c9a75ec5f4"},"vehicle_type_id":"4","last_reported":1719169617,"current_range_meters":20400,"station_id":"ce4bgn92rcd13ifvqbvg","pricing_plan_id":"cebpf4jnsgd1na2vs0mg"},{"bike_id":"b0e5548c-22b8-4a3a-903e-cfb52c5aef1a","system_id":"levelo_inurba_marseille","lat":43.309076,"lon":5.368465,"is_reserved":false,"is_disabled":false,"rental_uris":{"android":"levelo://app?vid=b0e5548c-22b8-4a3a-903e-cfb52c5aef1a","ios":"levelo://app?vid=b0e5548c-22b8-4a3a-903e-cfb52c5aef1a"},"vehicle_type_id":"4","last_reported":1719169617,"current_range_meters":31200,"station_id":"ce4bgn92rcd13ifvqbvg","pricing_plan_id":"cebpf4jnsgd1na2vs0mg"},{"bike_id":"2179d430-32ae-44cf-978f-9b8e67f12654","system_id":"levelo_inurba_marseille","lat":43.314811,"lon":5.373103,"is_reserved":false,"is_disabled":false,"rental_uris":{"android":"levelo://app?vid=2179d430-32ae-44cf-978f-9b8e67f12654","ios":"levelo://app?vid=2179d430-32ae-44cf-978f-9b8e67f12654"},"vehicle_type_id":"4","last_reported":1719169617,"current_range_meters":11200,"station_id":"ce4bgt12rcd13ifvqcd0","pricing_plan_id":"cebpf4jnsgd1na2vs0mg"},{"bike_id":"6e5d4d6e-d912-471c-ba56-198dee06eeed","system_id":"levelo_inurba_marseille","lat":43.309039,"lon":5.371797,"is_reserved":false,"is_disabled":false,"rental_uris":{"android":"levelo://app?vid=6e5d4d6e-d912-471c-ba56-198dee06eeed","ios":"levelo://app?vid=6e5d4d6e-d912-471c-ba56-198dee06eeed"},"vehicle_type_id":"4","last_reported":1719169617,"current_range_meters":23600,"station_id":"ce4bguh2rcd13ifvqckg","pricing_plan_id":"cebpf4jnsgd1na2vs0mg"},{"bike_id":"3e6229a9-daa1-4e8e-b7ec-60b28f97252f","system_id":"levelo_inurba_marseille","lat":43.314519,"lon":5.373631,"is_reserved":false,"is_disabled":false,"rental_uris":{"android":"levelo://app?vid=3e6229a9-daa1-4e8e-b7ec-60b28f97252f","ios":"levelo://app?vid=3e6229a9-daa1-4e8e-b7ec-60b28f97252f"},"vehicle_type_id":"4","last_reported":1719169617,"current_range_meters":400,"station_id":"","pricing_plan_id":"cebpf4jnsgd1na2vs0mg"},{"bike_id":"7d365277-a755-4f9f-b997-f028c0dd908e","system_id":"levelo_inurba_marseille","lat":43.309039,"lon":5.371797,"is_reserved":false,"is_disabled":false,"rental_uris":{"android":"levelo://app?vid=7d365277-a755-4f9f-b997-f028c0dd908e","ios":"levelo://app?vid=7d365277-a755-4f9f-b997-f028c0dd908e"},"vehicle_type_id":"4","last_reported":1719169617,"current_range_meters":11600,"station_id":"ce4bguh2rcd13ifvqckg","pricing_plan_id":"cebpf4jnsgd1na2vs0mg"},{"bike_id":"a14660e8-12bd-4c23-88fd-f6b4288b05eb","system_id":"levelo_inurba_marseille","lat":43.309034,"lon":5.371783,"is_reserved":false,"is_disabled":false,"rental_uris":{"android":"levelo://app?vid=a14660e8-12bd-4c23-88fd-f6b4288b05eb","ios":"levelo://app?vid=a14660e8-12bd-4c23-88fd-f6b4288b05eb"},"vehicle_type_id":"4","last_reported":1719169617,"current_range_meters":20000,"station_id":"ce4bguh2rcd13ifvqckg","pricing_plan_id":"cebpf4jnsgd1na2vs0mg"},{"bike_id":"20f31c62-307b-4c16-93b6-6fcc5accd677","system_id":"levelo_inurba_marseille","lat":43.31458,"lon":5.373641,"is_reserved":false,"is_disabled":false,"rental_uris":{"android":"levelo://app?vid=20f31c62-307b-4c16-93b6-6fcc5accd677","ios":"levelo://app?vid=20f31c62-307b-4c16-93b6-6fcc5accd677"},"vehicle_type_id":"4","last_reported":1719169617,"current_range_meters":11200,"station_id":"","pricing_plan_id":"cebpf4jnsgd1na2vs0mg"},{"bike_id":"77460ccb-960a-4153-8783-e0a172f31a95","system_id":"levelo_inurba_marseille","lat":43.31451,"lon":5.373676,"is_reserved":false,"is_disabled":false,"rental_uris":{"android":"levelo://app?vid=77460ccb-960a-4153-8783-e0a172f31a95","ios":"levelo://app?vid=77460ccb-960a-4153-8783-e0a172f31a95"},"vehicle_type_id":"4","last_reported":1719169617,"current_range_meters":4800,"station_id":"","pricing_plan_id":"cebpf4jnsgd1na2vs0mg"},{"bike_id":"24d509b5-ef37-465b-b8cc-6a71986a5c4f","system_id":"levelo_inurba_marseille","lat":43.31467,"lon":5.37369,"is_reserved":false,"is_disabled":false,"rental_uris":{"android":"levelo://app?vid=24d509b5-ef37-465b-b8cc-6a71986a5c4f","ios":"levelo://app?vid=24d509b5-ef37-465b-b8cc-6a71986a5c4f"},"vehicle_type_id":"4","last_reported":1719169617,"current_range_meters":22000,"station_id":"","pricing_plan_id":"cebpf4jnsgd1na2vs0mg"},{"bike_id":"d7c21ce2-a776-470c-b443-51e8cb8311e6","system_id":"levelo_inurba_marseille","lat":43.31472,"lon":5.37367,"is_reserved":false,"is_disabled":false,"rental_uris":{"android":"levelo://app?vid=d7c21ce2-a776-470c-b443-51e8cb8311e6","ios":"levelo://app?vid=d7c21ce2-a776-470c-b443-51e8cb8311e6"},"vehicle_type_id":"4","last_reported":1719169617,"current_range_meters":9200,"station_id":"","pricing_plan_id":"cebpf4jnsgd1na2vs0mg"},{"bike_id":"84c20ea0-8eca-472f-815a-fc3c9508882b","system_id":"levelo_inurba_marseille","lat":43.306204,"lon":5.368994,"is_reserved":false,"is_disabled":false,"rental_uris":{"android":"levelo://app?vid=84c20ea0-8eca-472f-815a-fc3c9508882b","ios":"levelo://app?vid=84c20ea0-8eca-472f-815a-fc3c9508882b"},"vehicle_type_id":"4","last_reported":1719169617,"current_range_meters":0,"station_id":"","pricing_plan_id":"cebpf4jnsgd1na2vs0mg"},{"bike_id":"6e87333c-6281-4d4d-917d-dd35ff082455","system_id":"levelo_inurba_marseille","lat":43.30543,"lon":5.36717,"is_reserved":false,"is_disabled":false,"rental_uris":{"android":"levelo://app?vid=6e87333c-6281-4d4d-917d-dd35ff082455","ios":"levelo://app?vid=6e87333c-6281-4d4d-917d-dd35ff082455"},"vehicle_type_id":"4","last_reported":1719169617,"current_range_meters":25200,"station_id":"ce4bgrp2rcd13ifvqc9g","pricing_plan_id":"cebpf4jnsgd1na2vs0mg"},{"bike_id":"3daed2b8-3272-4117-92c4-777635be6764","system_id":"levelo_inurba_marseille","lat":43.305714,"lon":5.365633,"is_reserved":false,"is_disabled":false,"rental_uris":{"android":"levelo://app?vid=3daed2b8-3272-4117-92c4-777635be6764","ios":"levelo://app?vid=3daed2b8-3272-4117-92c4-777635be6764"},"vehicle_type_id":"4","last_reported":1719169617,"current_range_meters":31200,"station_id":"ce4bgs12rcd13ifvqcag","pricing_plan_id":"cebpf4jnsgd1na2vs0mg"},{"bike_id":"a43e7e1e-e283-47ba-bb74-77104a25b45c","system_id":"levelo_inurba_marseille","lat":43.30532,"lon":5.36661,"is_reserved":false,"is_disabled":false,"rental_uris":{"android":"levelo://app?vid=a43e7e1e-e283-47ba-bb74-77104a25b45c","ios":"levelo://app?vid=a43e7e1e-e283-47ba-bb74-77104a25b45c"},"vehicle_type_id":"4","last_reported":1719169617,"current_range_meters":17200,"station_id":"","pricing_plan_id":"cebpf4jnsgd1na2vs0mg"},{"bike_id":"5a70ddbd-d4d3-42ab-be44-bc6e9504b38b","system_id":"levelo_inurba_marseille","lat":43.305706,"lon":5.365654,"is_reserved":false,"is_disabled":false,"rental_uris":{"android":"levelo://app?vid=5a70ddbd-d4d3-42ab-be44-bc6e9504b38b","ios":"levelo://app?vid=5a70ddbd-d4d3-42ab-be44-bc6e9504b38b"},"vehicle_type_id":"4","last_reported":1719169617,"current_range_meters":24400,"station_id":"ce4bgs12rcd13ifvqcag","pricing_plan_id":"cebpf4jnsgd1na2vs0mg"},{"bike_id":"938a3c50-0839-40f3-90cb-d9614e2e5025","system_id":"levelo_inurba_marseille","lat":43.305989,"lon":5.37225,"is_reserved":false,"is_disabled":false,"rental_uris":{"android":"levelo://app?vid=938a3c50-0839-40f3-90cb-d9614e2e5025","ios":"levelo://app?vid=938a3c50-0839-40f3-90cb-d9614e2e5025"},"vehicle_type_id":"4","last_reported":1719169617,"current_range_meters":18800,"station_id":"ce4bgqh2rcd13ifvqc4g","pricing_plan_id":"cebpf4jnsgd1na2vs0mg"},{"bike_id":"b6576c23-f892-4ead-bfe8-5a5e66e12f54","system_id":"levelo_inurba_marseille","lat":43.311131,"lon":5.377651,"is_reserved":false,"is_disabled":false,"rental_uris":{"android":"levelo://app?vid=b6576c23-f892-4ead-bfe8-5a5e66e12f54","ios":"levelo://app?vid=b6576c23-f892-4ead-bfe8-5a5e66e12f54"},"vehicle_type_id":"4","last_reported":1719169617,"current_range_meters":1600,"station_id":"ce4bgt92rcd13ifvqcg0","pricing_plan_id":"cebpf4jnsgd1na2vs0mg"},{"bike_id":"de8c416a-cdf5-46c9-9b40-4239d87a94f1","system_id":"levelo_inurba_marseille","lat":43.317075,"lon":5.377367,"is_reserved":false,"is_disabled":false,"rental_uris":{"android":"levelo://app?vid=de8c416a-cdf5-46c9-9b40-4239d87a94f1","ios":"levelo://app?vid=de8c416a-cdf5-46c9-9b40-4239d87a94f1"},"vehicle_type_id":"4","last_reported":1719169617,"current_range_meters":28000,"station_id":"ce4bgth2rcd13ifvqch0","pricing_plan_id":"cebpf4jnsgd1na2vs0mg"},{"bike_id":"e67dce6d-b218-41cb-a709-571137343dc0","system_id":"levelo_inurba_marseille","lat":43.317075,"lon":5.377367,"is_reserved":false,"is_disabled":false,"rental_uris":{"android":"levelo://app?vid=e67dce6d-b218-41cb-a709-571137343dc0","ios":"levelo://app?vid=e67dce6d-b218-41cb-a709-571137343dc0"},"vehicle_type_id":"4","last_reported":1719169617,"current_range_meters":0,"station_id":"ce4bgth2rcd13ifvqch0","pricing_plan_id":"cebpf4jnsgd1na2vs0mg"},{"bike_id":"0131b14e-f4f3-4cf6-afd8-39bd955d48f7","system_id":"levelo_inurba_marseille","lat":43.315289,"lon":5.380349,"is_reserved":false,"is_disabled":false,"rental_uris":{"android":"levelo://app?vid=0131b14e-f4f3-4cf6-afd8-39bd955d48f7","ios":"levelo://app?vid=0131b14e-f4f3-4cf6-afd8-39bd955d48f7"},"vehicle_type_id":"4","last_reported":1719169617,"current_range_meters":12800,"station_id":"ce4bhsp2rcd13ifvqi50","pricing_plan_id":"cebpf4jnsgd1na2vs0mg"},{"bike_id":"9a8c11f5-4a16-4822-8b1a-ea2db891bbf2","system_id":"levelo_inurba_marseille","lat":43.31536,"lon":5.38026,"is_reserved":false,"is_disabled":false,"rental_uris":{"android":"levelo://app?vid=9a8c11f5-4a16-4822-8b1a-ea2db891bbf2","ios":"levelo://app?vid=9a8c11f5-4a16-4822-8b1a-ea2db891bbf2"},"vehicle_type_id":"4","last_reported":1719169617,"current_range_meters":6000,"station_id":"ce4bhsp2rcd13ifvqi50","pricing_plan_id":"cebpf4jnsgd1na2vs0mg"},{"bike_id":"a0def87f-de94-421b-bf88-9105838298ce","system_id":"levelo_inurba_marseille","lat":43.315289,"lon":5.380349,"is_reserved":false,"is_disabled":false,"rental_uris":{"android":"levelo://app?vid=a0def87f-de94-421b-bf88-9105838298ce","ios":"levelo://app?vid=a0def87f-de94-421b-bf88-9105838298ce"},"vehicle_type_id":"4","last_reported":1719169617,"current_range_meters":4800,"station_id":"ce4bhsp2rcd13ifvqi50","pricing_plan_id":"cebpf4jnsgd1na2vs0mg"},{"bike_id":"cb0d51e5-d665-455b-b0e6-fbb2cbda4230","system_id":"levelo_inurba_marseille","lat":43.31538,"lon":5.3804,"is_reserved":false,"is_disabled":false,"rental_uris":{"android":"levelo://app?vid=cb0d51e5-d665-455b-b0e6-fbb2cbda4230","ios":"levelo://app?vid=cb0d51e5-d665-455b-b0e6-fbb2cbda4230"},"vehicle_type_id":"4","last_reported":1719169617,"current_range_meters":0,"station_id":"ce4bhsp2rcd13ifvqi50","pricing_plan_id":"cebpf4jnsgd1na2vs0mg"},{"bike_id":"6311bc2e-0ba7-4e09-b1f8-3491ddde7c96","system_id":"levelo_inurba_marseille","lat":43.315289,"lon":5.380349,"is_reserved":false,"is_disabled":false,"rental_uris":{"android":"levelo://app?vid=6311bc2e-0ba7-4e09-b1f8-3491ddde7c96","ios":"levelo://app?vid=6311bc2e-0ba7-4e09-b1f8-3491ddde7c96"},"vehicle_type_id":"4","last_reported":1719169617,"current_range_meters":12800,"station_id":"ce4bhsp2rcd13ifvqi50","pricing_plan_id":"cebpf4jnsgd1na2vs0mg"},{"bike_id":"1bc920c8-8b89-437c-9cde-5783116c5366","system_id":"levelo_inurba_marseille","lat":43.315293,"lon":5.380349,"is_reserved":false,"is_disabled":false,"rental_uris":{"android":"levelo://app?vid=1bc920c8-8b89-437c-9cde-5783116c5366","ios":"levelo://app?vid=1bc920c8-8b89-437c-9cde-5783116c5366"},"vehicle_type_id":"4","last_reported":1719169617,"current_range_meters":1600,"station_id":"ce4bhsp2rcd13ifvqi50","pricing_plan_id":"cebpf4jnsgd1na2vs0mg"},{"bike_id":"42651d17-7994-4eba-854e-a9dc677fc80a","system_id":"levelo_inurba_marseille","lat":43.301939,"lon":5.366286,"is_reserved":false,"is_disabled":false,"rental_uris":{"android":"levelo://app?vid=42651d17-7994-4eba-854e-a9dc677fc80a","ios":"levelo://app?vid=42651d17-7994-4eba-854e-a9dc677fc80a"},"vehicle_type_id":"4","last_reported":1719169617,"current_range_meters":4400,"station_id":"ce4bgrh2rcd13ifvqc8g","pricing_plan_id":"cebpf4jnsgd1na2vs0mg"},{"bike_id":"30faf188-9424-4f9a-a180-925339cc023f","system_id":"levelo_inurba_marseille","lat":43.303046,"lon":5.368981,"is_reserved":false,"is_disabled":false,"rental_uris":{"android":"levelo://app?vid=30faf188-9424-4f9a-a180-925339cc023f","ios":"levelo://app?vid=30faf188-9424-4f9a-a180-925339cc023f"},"vehicle_type_id":"4","last_reported":1719169617,"current_range_meters":0,"station_id":"ce4bgqh2rcd13ifvqc5g","pricing_plan_id":"cebpf4jnsgd1na2vs0mg"},{"bike_id":"c8d74784-cfa3-4dc0-a55e-c53d6b6b7590","system_id":"levelo_inurba_marseille","lat":43.31322,"lon":5.38197,"is_reserved":false,"is_disabled":false,"rental_uris":{"android":"levelo://app?vid=c8d74784-cfa3-4dc0-a55e-c53d6b6b7590","ios":"levelo://app?vid=c8d74784-cfa3-4dc0-a55e-c53d6b6b7590"},"vehicle_type_id":"4","last_reported":1719169617,"current_range_meters":18000,"station_id":"","pricing_plan_id":"cebpf4jnsgd1na2vs0mg"},{"bike_id":"dd5f3d4d-6f36-4926-8417-bae2a3da8315","system_id":"levelo_inurba_marseille","lat":43.311728,"lon":5.382512,"is_reserved":false,"is_disabled":false,"rental_uris":{"android":"levelo://app?vid=dd5f3d4d-6f36-4926-8417-bae2a3da8315","ios":"levelo://app?vid=dd5f3d4d-6f36-4926-8417-bae2a3da8315"},"vehicle_type_id":"4","last_reported":1719169617,"current_range_meters":0,"station_id":"","pricing_plan_id":"cebpf4jnsgd1na2vs0mg"},{"bike_id":"add948a9-1b36-4fbf-b521-f3757ba07323","system_id":"levelo_inurba_marseille","lat":43.308012,"lon":5.381511,"is_reserved":false,"is_disabled":false,"rental_uris":{"android":"levelo://app?vid=add948a9-1b36-4fbf-b521-f3757ba07323","ios":"levelo://app?vid=add948a9-1b36-4fbf-b521-f3757ba07323"},"vehicle_type_id":"4","last_reported":1719169617,"current_range_meters":7600,"station_id":"ce4bgt12rcd13ifvqce0","pricing_plan_id":"cebpf4jnsgd1na2vs0mg"},{"bike_id":"3d0259a6-bedf-4be0-b945-baf1f5513f15","system_id":"levelo_inurba_marseille","lat":43.308012,"lon":5.381511,"is_reserved":false,"is_disabled":false,"rental_uris":{"android":"levelo://app?vid=3d0259a6-bedf-4be0-b945-baf1f5513f15","ios":"levelo://app?vid=3d0259a6-bedf-4be0-b945-baf1f5513f15"},"vehicle_type_id":"4","last_reported":1719169617,"current_range_meters":0,"station_id":"ce4bgt12rcd13ifvqce0","pricing_plan_id":"cebpf4jnsgd1na2vs0mg"},{"bike_id":"5685f2c1-0711-4754-b963-2e47bf660b91","system_id":"levelo_inurba_marseille","lat":43.324771,"lon":5.36557,"is_reserved":false,"is_disabled":false,"rental_uris":{"android":"levelo://app?vid=5685f2c1-0711-4754-b963-2e47bf660b91","ios":"levelo://app?vid=5685f2c1-0711-4754-b963-2e47bf660b91"},"vehicle_type_id":"4","last_reported":1719169617,"current_range_meters":11600,"station_id":"ce4bhs12rcd13ifvqhvg","pricing_plan_id":"cebpf4jnsgd1na2vs0mg"},{"bike_id":"93aa81c1-4fce-4b54-903b-97a944a38bb2","system_id":"levelo_inurba_marseille","lat":43.324771,"lon":5.36557,"is_reserved":false,"is_disabled":false,"rental_uris":{"android":"levelo://app?vid=93aa81c1-4fce-4b54-903b-97a944a38bb2","ios":"levelo://app?vid=93aa81c1-4fce-4b54-903b-97a944a38bb2"},"vehicle_type_id":"4","last_reported":1719169617,"current_range_meters":21200,"station_id":"ce4bhs12rcd13ifvqhvg","pricing_plan_id":"cebpf4jnsgd1na2vs0mg"},{"bike_id":"ed54688d-21fe-454f-9cbb-1919527e262d","system_id":"levelo_inurba_marseille","lat":43.324771,"lon":5.36557,"is_reserved":false,"is_disabled":false,"rental_uris":{"android":"levelo://app?vid=ed54688d-21fe-454f-9cbb-1919527e262d","ios":"levelo://app?vid=ed54688d-21fe-454f-9cbb-1919527e262d"},"vehicle_type_id":"4","last_reported":1719169617,"current_range_meters":13600,"station_id":"ce4bhs12rcd13ifvqhvg","pricing_plan_id":"cebpf4jnsgd1na2vs0mg"},{"bike_id":"17f35877-0e3d-4fcb-b17e-8eb1fb688c76","system_id":"levelo_inurba_marseille","lat":43.310804,"lon":5.38359,"is_reserved":false,"is_disabled":false,"rental_uris":{"android":"levelo://app?vid=17f35877-0e3d-4fcb-b17e-8eb1fb688c76","ios":"levelo://app?vid=17f35877-0e3d-4fcb-b17e-8eb1fb688c76"},"vehicle_type_id":"4","last_reported":1719169617,"current_range_meters":0,"station_id":"ce4bgv92rcd13ifvqcr0","pricing_plan_id":"cebpf4jnsgd1na2vs0mg"},{"bike_id":"1a4f2c81-ebfe-44d9-a7f2-ea232755513a","system_id":"levelo_inurba_marseille","lat":43.310804,"lon":5.38359,"is_reserved":false,"is_disabled":false,"rental_uris":{"android":"levelo://app?vid=1a4f2c81-ebfe-44d9-a7f2-ea232755513a","ios":"levelo://app?vid=1a4f2c81-ebfe-44d9-a7f2-ea232755513a"},"vehicle_type_id":"4","last_reported":1719169617,"current_range_meters":4800,"station_id":"ce4bgv92rcd13ifvqcr0","pricing_plan_id":"cebpf4jnsgd1na2vs0mg"},{"bike_id":"2405d6b0-6b0d-48cf-bb4e-94dceb542ce9","system_id":"levelo_inurba_marseille","lat":43.30279,"lon":5.37717,"is_reserved":false,"is_disabled":false,"rental_uris":{"android":"levelo://app?vid=2405d6b0-6b0d-48cf-bb4e-94dceb542ce9","ios":"levelo://app?vid=2405d6b0-6b0d-48cf-bb4e-94dceb542ce9"},"vehicle_type_id":"4","last_reported":1719169617,"current_range_meters":0,"station_id":"ce4bguh2rcd13ifvqcj0","pricing_plan_id":"cebpf4jnsgd1na2vs0mg"},{"bike_id":"c8f7bc0e-dd19-4614-bdce-d6f4b2d33f73","system_id":"levelo_inurba_marseille","lat":43.301429,"lon":5.37413,"is_reserved":false,"is_disabled":false,"rental_uris":{"android":"levelo://app?vid=c8f7bc0e-dd19-4614-bdce-d6f4b2d33f73","ios":"levelo://app?vid=c8f7bc0e-dd19-4614-bdce-d6f4b2d33f73"},"vehicle_type_id":"4","last_reported":1719169617,"current_range_meters":20000,"station_id":"ce4bgs92rcd13ifvqcc0","pricing_plan_id":"cebpf4jnsgd1na2vs0mg"},{"bike_id":"5ef65539-4c8a-40c4-851c-9bb6449f2000","system_id":"levelo_inurba_marseille","lat":43.302784,"lon":5.377158,"is_reserved":false,"is_disabled":false,"rental_uris":{"android":"levelo://app?vid=5ef65539-4c8a-40c4-851c-9bb6449f2000","ios":"levelo://app?vid=5ef65539-4c8a-40c4-851c-9bb6449f2000"},"vehicle_type_id":"4","last_reported":1719169617,"current_range_meters":4800,"station_id":"ce4bguh2rcd13ifvqcj0","pricing_plan_id":"cebpf4jnsgd1na2vs0mg"},{"bike_id":"5117386e-8954-49fc-927a-93838b14aaf3","system_id":"levelo_inurba_marseille","lat":43.319935,"lon":5.381699,"is_reserved":false,"is_disabled":false,"rental_uris":{"android":"levelo://app?vid=5117386e-8954-49fc-927a-93838b14aaf3","ios":"levelo://app?vid=5117386e-8954-49fc-927a-93838b14aaf3"},"vehicle_type_id":"4","last_reported":1719169617,"current_range_meters":0,"station_id":"ce4bhr12rcd13ifvqhpg","pricing_plan_id":"cebpf4jnsgd1na2vs0mg"},{"bike_id":"4c2edc37-559d-49d3-af9c-ee3f58d96b7a","system_id":"levelo_inurba_marseille","lat":43.319935,"lon":5.381699,"is_reserved":false,"is_disabled":false,"rental_uris":{"android":"levelo://app?vid=4c2edc37-559d-49d3-af9c-ee3f58d96b7a","ios":"levelo://app?vid=4c2edc37-559d-49d3-af9c-ee3f58d96b7a"},"vehicle_type_id":"4","last_reported":1719169617,"current_range_meters":8400,"station_id":"ce4bhr12rcd13ifvqhpg","pricing_plan_id":"cebpf4jnsgd1na2vs0mg"},{"bike_id":"cb880c96-41b4-472d-8710-57471ffb0343","system_id":"levelo_inurba_marseille","lat":43.313571,"lon":5.384829,"is_reserved":false,"is_disabled":false,"rental_uris":{"android":"levelo://app?vid=cb880c96-41b4-472d-8710-57471ffb0343","ios":"levelo://app?vid=cb880c96-41b4-472d-8710-57471ffb0343"},"vehicle_type_id":"4","last_reported":1719169617,"current_range_meters":1200,"station_id":"ce4bgt92rcd13ifvqcf0","pricing_plan_id":"cebpf4jnsgd1na2vs0mg"},{"bike_id":"c7c30020-1dea-4ae4-a51d-b9c3c5ffb1aa","system_id":"levelo_inurba_marseille","lat":43.313571,"lon":5.384829,"is_reserved":false,"is_disabled":false,"rental_uris":{"android":"levelo://app?vid=c7c30020-1dea-4ae4-a51d-b9c3c5ffb1aa","ios":"levelo://app?vid=c7c30020-1dea-4ae4-a51d-b9c3c5ffb1aa"},"vehicle_type_id":"4","last_reported":1719169617,"current_range_meters":28800,"station_id":"ce4bgt92rcd13ifvqcf0","pricing_plan_id":"cebpf4jnsgd1na2vs0mg"},{"bike_id":"a1dc4f9d-ee2c-4af4-ab2f-a0cfcff825a6","system_id":"levelo_inurba_marseille","lat":43.29975,"lon":5.37173,"is_reserved":false,"is_disabled":false,"rental_uris":{"android":"levelo://app?vid=a1dc4f9d-ee2c-4af4-ab2f-a0cfcff825a6","ios":"levelo://app?vid=a1dc4f9d-ee2c-4af4-ab2f-a0cfcff825a6"},"vehicle_type_id":"4","last_reported":1719169617,"current_range_meters":0,"station_id":"ce4bgr92rcd13ifvqc7g","pricing_plan_id":"cebpf4jnsgd1na2vs0mg"},{"bike_id":"ed660266-4f39-450d-9708-04e33493d2d2","system_id":"levelo_inurba_marseille","lat":43.29997,"lon":5.37584,"is_reserved":false,"is_disabled":false,"rental_uris":{"android":"levelo://app?vid=ed660266-4f39-450d-9708-04e33493d2d2","ios":"levelo://app?vid=ed660266-4f39-450d-9708-04e33493d2d2"},"vehicle_type_id":"4","last_reported":1719169617,"current_range_meters":0,"station_id":"","pricing_plan_id":"cebpf4jnsgd1na2vs0mg"},{"bike_id":"926f8ef5-4a9e-4cc8-aa94-62f1e397a87f","system_id":"levelo_inurba_marseille","lat":43.298433,"lon":5.362774,"is_reserved":false,"is_disabled":false,"rental_uris":{"android":"levelo://app?vid=926f8ef5-4a9e-4cc8-aa94-62f1e397a87f","ios":"levelo://app?vid=926f8ef5-4a9e-4cc8-aa94-62f1e397a87f"},"vehicle_type_id":"4","last_reported":1719169617,"current_range_meters":13600,"station_id":"ce4bgpp2rcd13ifvqc3g","pricing_plan_id":"cebpf4jnsgd1na2vs0mg"},{"bike_id":"c9ee78fc-f6ec-4d1a-8001-292f892fe7fe","system_id":"levelo_inurba_marseille","lat":43.311722,"lon":5.387247,"is_reserved":false,"is_disabled":false,"rental_uris":{"android":"levelo://app?vid=c9ee78fc-f6ec-4d1a-8001-292f892fe7fe","ios":"levelo://app?vid=c9ee78fc-f6ec-4d1a-8001-292f892fe7fe"},"vehicle_type_id":"4","last_reported":1719169617,"current_range_meters":29600,"station_id":"ce4bgv12rcd13ifvqcp0","pricing_plan_id":"cebpf4jnsgd1na2vs0mg"},{"bike_id":"0f6c80ce-7e93-4080-8bbe-ee17bea8b87f","system_id":"levelo_inurba_marseille","lat":43.298433,"lon":5.362774,"is_reserved":false,"is_disabled":false,"rental_uris":{"android":"levelo://app?vid=0f6c80ce-7e93-4080-8bbe-ee17bea8b87f","ios":"levelo://app?vid=0f6c80ce-7e93-4080-8bbe-ee17bea8b87f"},"vehicle_type_id":"4","last_reported":1719169617,"current_range_meters":24800,"station_id":"ce4bgpp2rcd13ifvqc3g","pricing_plan_id":"cebpf4jnsgd1na2vs0mg"},{"bike_id":"4b13cfe8-434c-4e9f-8d1f-55521f0469f0","system_id":"levelo_inurba_marseille","lat":43.299243,"lon":5.374807,"is_reserved":false,"is_disabled":false,"rental_uris":{"android":"levelo://app?vid=4b13cfe8-434c-4e9f-8d1f-55521f0469f0","ios":"levelo://app?vid=4b13cfe8-434c-4e9f-8d1f-55521f0469f0"},"vehicle_type_id":"4","last_reported":1719169617,"current_range_meters":23200,"station_id":"ce4bgjh2rcd13ifvqbg0","pricing_plan_id":"cebpf4jnsgd1na2vs0mg"},{"bike_id":"0ed323e2-ff52-4494-9505-7735fcc55719","system_id":"levelo_inurba_marseille","lat":43.311722,"lon":5.387247,"is_reserved":false,"is_disabled":false,"rental_uris":{"android":"levelo://app?vid=0ed323e2-ff52-4494-9505-7735fcc55719","ios":"levelo://app?vid=0ed323e2-ff52-4494-9505-7735fcc55719"},"vehicle_type_id":"4","last_reported":1719169617,"current_range_meters":2400,"station_id":"ce4bgv12rcd13ifvqcp0","pricing_plan_id":"cebpf4jnsgd1na2vs0mg"},{"bike_id":"defb0a8f-4a43-41e4-8d50-b64589928dad","system_id":"levelo_inurba_marseille","lat":43.299243,"lon":5.374807,"is_reserved":false,"is_disabled":false,"rental_uris":{"android":"levelo://app?vid=defb0a8f-4a43-41e4-8d50-b64589928dad","ios":"levelo://app?vid=defb0a8f-4a43-41e4-8d50-b64589928dad"},"vehicle_type_id":"4","last_reported":1719169617,"current_range_meters":23200,"station_id":"ce4bgjh2rcd13ifvqbg0","pricing_plan_id":"cebpf4jnsgd1na2vs0mg"},{"bike_id":"391b6e36-7ea3-4748-ae74-a05146ce56b8","system_id":"levelo_inurba_marseille","lat":43.299075,"lon":5.374723,"is_reserved":false,"is_disabled":false,"rental_uris":{"android":"levelo://app?vid=391b6e36-7ea3-4748-ae74-a05146ce56b8","ios":"levelo://app?vid=391b6e36-7ea3-4748-ae74-a05146ce56b8"},"vehicle_type_id":"4","last_reported":1719169617,"current_range_meters":26000,"station_id":"ce4bgjh2rcd13ifvqbg0","pricing_plan_id":"cebpf4jnsgd1na2vs0mg"},{"bike_id":"0f1f9124-f073-48a6-b50a-d16d78b34079","system_id":"levelo_inurba_marseille","lat":43.311722,"lon":5.387247,"is_reserved":false,"is_disabled":false,"rental_uris":{"android":"levelo://app?vid=0f1f9124-f073-48a6-b50a-d16d78b34079","ios":"levelo://app?vid=0f1f9124-f073-48a6-b50a-d16d78b34079"},"vehicle_type_id":"4","last_reported":1719169617,"current_range_meters":400,"station_id":"ce4bgv12rcd13ifvqcp0","pricing_plan_id":"cebpf4jnsgd1na2vs0mg"},{"bike_id":"0e0e1733-6cf9-4de6-b1cc-7d8047fd60e8","system_id":"levelo_inurba_marseille","lat":43.322872,"lon":5.382756,"is_reserved":false,"is_disabled":false,"rental_uris":{"android":"levelo://app?vid=0e0e1733-6cf9-4de6-b1cc-7d8047fd60e8","ios":"levelo://app?vid=0e0e1733-6cf9-4de6-b1cc-7d8047fd60e8"},"vehicle_type_id":"4","last_reported":1719169617,"current_range_meters":13200,"station_id":"ce4bhr12rcd13ifvqhqg","pricing_plan_id":"cebpf4jnsgd1na2vs0mg"},{"bike_id":"d5452f93-9547-42d6-8c9c-f1720b03d848","system_id":"levelo_inurba_marseille","lat":43.297163,"lon":5.365866,"is_reserved":false,"is_disabled":false,"rental_uris":{"android":"levelo://app?vid=d5452f93-9547-42d6-8c9c-f1720b03d848","ios":"levelo://app?vid=d5452f93-9547-42d6-8c9c-f1720b03d848"},"vehicle_type_id":"4","last_reported":1719169617,"current_range_meters":0,"station_id":"ce4bgn12rcd13ifvqbt0","pricing_plan_id":"cebpf4jnsgd1na2vs0mg"},{"bike_id":"ddbc5345-0dac-43a8-9ef3-a353910ccfac","system_id":"levelo_inurba_marseille","lat":43.297163,"lon":5.365866,"is_reserved":false,"is_disabled":false,"rental_uris":{"android":"levelo://app?vid=ddbc5345-0dac-43a8-9ef3-a353910ccfac","ios":"levelo://app?vid=ddbc5345-0dac-43a8-9ef3-a353910ccfac"},"vehicle_type_id":"4","last_reported":1719169617,"current_range_meters":24400,"station_id":"ce4bgn12rcd13ifvqbt0","pricing_plan_id":"cebpf4jnsgd1na2vs0mg"},{"bike_id":"96b50a4c-b267-477b-8e9f-7908a9376059","system_id":"levelo_inurba_marseille","lat":43.299028,"lon":5.381509,"is_reserved":false,"is_disabled":false,"rental_uris":{"android":"levelo://app?vid=96b50a4c-b267-477b-8e9f-7908a9376059","ios":"levelo://app?vid=96b50a4c-b267-477b-8e9f-7908a9376059"},"vehicle_type_id":"4","last_reported":1719169617,"current_range_meters":14800,"station_id":"ce4bgj12rcd13ifvqbc0","pricing_plan_id":"cebpf4jnsgd1na2vs0mg"},{"bike_id":"20863057-1607-4953-97c3-47338baa1b26","system_id":"levelo_inurba_marseille","lat":43.299028,"lon":5.381509,"is_reserved":false,"is_disabled":false,"rental_uris":{"android":"levelo://app?vid=20863057-1607-4953-97c3-47338baa1b26","ios":"levelo://app?vid=20863057-1607-4953-97c3-47338baa1b26"},"vehicle_type_id":"4","last_reported":1719169617,"current_range_meters":3600,"station_id":"ce4bgj12rcd13ifvqbc0","pricing_plan_id":"cebpf4jnsgd1na2vs0mg"},{"bike_id":"454182c7-d66f-45bc-a8a8-890b23bb4b01","system_id":"levelo_inurba_marseille","lat":43.29719,"lon":5.37888,"is_reserved":false,"is_disabled":false,"rental_uris":{"android":"levelo://app?vid=454182c7-d66f-45bc-a8a8-890b23bb4b01","ios":"levelo://app?vid=454182c7-d66f-45bc-a8a8-890b23bb4b01"},"vehicle_type_id":"4","last_reported":1719169617,"current_range_meters":2400,"station_id":"","pricing_plan_id":"cebpf4jnsgd1na2vs0mg"},{"bike_id":"86223d7a-dbfa-4c23-8ab7-6b089a4d1e3d","system_id":"levelo_inurba_marseille","lat":43.304274,"lon":5.388873,"is_reserved":false,"is_disabled":false,"rental_uris":{"android":"levelo://app?vid=86223d7a-dbfa-4c23-8ab7-6b089a4d1e3d","ios":"levelo://app?vid=86223d7a-dbfa-4c23-8ab7-6b089a4d1e3d"},"vehicle_type_id":"4","last_reported":1719169617,"current_range_meters":7600,"station_id":"ce4bgk12rcd13ifvqbi0","pricing_plan_id":"cebpf4jnsgd1na2vs0mg"},{"bike_id":"5ea4495e-2cc0-45c1-ab07-a0fd5c8eed55","system_id":"levelo_inurba_marseille","lat":43.298037,"lon":5.381066,"is_reserved":false,"is_disabled":false,"rental_uris":{"android":"levelo://app?vid=5ea4495e-2cc0-45c1-ab07-a0fd5c8eed55","ios":"levelo://app?vid=5ea4495e-2cc0-45c1-ab07-a0fd5c8eed55"},"vehicle_type_id":"4","last_reported":1719169617,"current_range_meters":3200,"station_id":"ce4bgip2rcd13ifvqbb0","pricing_plan_id":"cebpf4jnsgd1na2vs0mg"},{"bike_id":"bc877c3c-954a-4c7d-bccb-f32a046df197","system_id":"levelo_inurba_marseille","lat":43.29619,"lon":5.37708,"is_reserved":false,"is_disabled":false,"rental_uris":{"android":"levelo://app?vid=bc877c3c-954a-4c7d-bccb-f32a046df197","ios":"levelo://app?vid=bc877c3c-954a-4c7d-bccb-f32a046df197"},"vehicle_type_id":"4","last_reported":1719169617,"current_range_meters":23200,"station_id":"ce4bgi92rcd13ifvqb90","pricing_plan_id":"cebpf4jnsgd1na2vs0mg"},{"bike_id":"5af3f6b6-129f-4093-991c-52937272585f","system_id":"levelo_inurba_marseille","lat":43.296277,"lon":5.377108,"is_reserved":false,"is_disabled":false,"rental_uris":{"android":"levelo://app?vid=5af3f6b6-129f-4093-991c-52937272585f","ios":"levelo://app?vid=5af3f6b6-129f-4093-991c-52937272585f"},"vehicle_type_id":"4","last_reported":1719169617,"current_range_meters":8400,"station_id":"ce4bgi92rcd13ifvqb90","pricing_plan_id":"cebpf4jnsgd1na2vs0mg"},{"bike_id":"07d04a1c-c561-4871-ba14-2001be26c0c6","system_id":"levelo_inurba_marseille","lat":43.29611,"lon":5.37712,"is_reserved":false,"is_disabled":false,"rental_uris":{"android":"levelo://app?vid=07d04a1c-c561-4871-ba14-2001be26c0c6","ios":"levelo://app?vid=07d04a1c-c561-4871-ba14-2001be26c0c6"},"vehicle_type_id":"4","last_reported":1719169617,"current_range_meters":0,"station_id":"ce4bgi92rcd13ifvqb90","pricing_plan_id":"cebpf4jnsgd1na2vs0mg"},{"bike_id":"e01ec865-a514-40d6-8f43-6d4e4307025d","system_id":"levelo_inurba_marseille","lat":43.296057,"lon":5.377143,"is_reserved":false,"is_disabled":false,"rental_uris":{"android":"levelo://app?vid=e01ec865-a514-40d6-8f43-6d4e4307025d","ios":"levelo://app?vid=e01ec865-a514-40d6-8f43-6d4e4307025d"},"vehicle_type_id":"4","last_reported":1719169617,"current_range_meters":0,"station_id":"ce4bgi92rcd13ifvqb90","pricing_plan_id":"cebpf4jnsgd1na2vs0mg"},{"bike_id":"5f8e1f7f-439a-4294-943b-f72581654e80","system_id":"levelo_inurba_marseille","lat":43.299707,"lon":5.384859,"is_reserved":false,"is_disabled":false,"rental_uris":{"android":"levelo://app?vid=5f8e1f7f-439a-4294-943b-f72581654e80","ios":"levelo://app?vid=5f8e1f7f-439a-4294-943b-f72581654e80"},"vehicle_type_id":"4","last_reported":1719169617,"current_range_meters":30000,"station_id":"ce4bgj92rcd13ifvqbd0","pricing_plan_id":"cebpf4jnsgd1na2vs0mg"},{"bike_id":"fbb1508e-9429-43ad-8a97-261b804be564","system_id":"levelo_inurba_marseille","lat":43.299717,"lon":5.384845,"is_reserved":false,"is_disabled":false,"rental_uris":{"android":"levelo://app?vid=fbb1508e-9429-43ad-8a97-261b804be564","ios":"levelo://app?vid=fbb1508e-9429-43ad-8a97-261b804be564"},"vehicle_type_id":"4","last_reported":1719169617,"current_range_meters":0,"station_id":"ce4bgj92rcd13ifvqbd0","pricing_plan_id":"cebpf4jnsgd1na2vs0mg"},{"bike_id":"6bad653e-5c1f-4282-976e-1f149ce020b7","system_id":"levelo_inurba_marseille","lat":43.299717,"lon":5.384845,"is_reserved":false,"is_disabled":false,"rental_uris":{"android":"levelo://app?vid=6bad653e-5c1f-4282-976e-1f149ce020b7","ios":"levelo://app?vid=6bad653e-5c1f-4282-976e-1f149ce020b7"},"vehicle_type_id":"4","last_reported":1719169617,"current_range_meters":400,"station_id":"ce4bgj92rcd13ifvqbd0","pricing_plan_id":"cebpf4jnsgd1na2vs0mg"},{"bike_id":"24391ba7-6fa5-4035-bea2-1e83b3b6e4d4","system_id":"levelo_inurba_marseille","lat":43.299717,"lon":5.384845,"is_reserved":false,"is_disabled":false,"rental_uris":{"android":"levelo://app?vid=24391ba7-6fa5-4035-bea2-1e83b3b6e4d4","ios":"levelo://app?vid=24391ba7-6fa5-4035-bea2-1e83b3b6e4d4"},"vehicle_type_id":"4","last_reported":1719169617,"current_range_meters":1200,"station_id":"ce4bgj92rcd13ifvqbd0","pricing_plan_id":"cebpf4jnsgd1na2vs0mg"},{"bike_id":"c972c809-6ba3-4240-8e19-cb59bc8a1528","system_id":"levelo_inurba_marseille","lat":43.32362,"lon":5.38875,"is_reserved":false,"is_disabled":false,"rental_uris":{"android":"levelo://app?vid=c972c809-6ba3-4240-8e19-cb59bc8a1528","ios":"levelo://app?vid=c972c809-6ba3-4240-8e19-cb59bc8a1528"},"vehicle_type_id":"4","last_reported":1719169617,"current_range_meters":2400,"station_id":"ce4bhqp2rcd13ifvqhog","pricing_plan_id":"cebpf4jnsgd1na2vs0mg"},{"bike_id":"543f2f7d-78d6-428d-8505-5b93dc980b51","system_id":"levelo_inurba_marseille","lat":43.32367,"lon":5.388836,"is_reserved":false,"is_disabled":false,"rental_uris":{"android":"levelo://app?vid=543f2f7d-78d6-428d-8505-5b93dc980b51","ios":"levelo://app?vid=543f2f7d-78d6-428d-8505-5b93dc980b51"},"vehicle_type_id":"4","last_reported":1719169617,"current_range_meters":0,"station_id":"ce4bhqp2rcd13ifvqhog","pricing_plan_id":"cebpf4jnsgd1na2vs0mg"},{"bike_id":"70974be6-b31a-4cc3-a1f1-cb1f22cff056","system_id":"levelo_inurba_marseille","lat":43.29602,"lon":5.381084,"is_reserved":false,"is_disabled":false,"rental_uris":{"android":"levelo://app?vid=70974be6-b31a-4cc3-a1f1-cb1f22cff056","ios":"levelo://app?vid=70974be6-b31a-4cc3-a1f1-cb1f22cff056"},"vehicle_type_id":"4","last_reported":1719169617,"current_range_meters":2400,"station_id":"ce4bgl12rcd13ifvqbo0","pricing_plan_id":"cebpf4jnsgd1na2vs0mg"},{"bike_id":"c8358964-dd88-4b33-976f-17e1c7fbd448","system_id":"levelo_inurba_marseille","lat":43.29602,"lon":5.381084,"is_reserved":false,"is_disabled":false,"rental_uris":{"android":"levelo://app?vid=c8358964-dd88-4b33-976f-17e1c7fbd448","ios":"levelo://app?vid=c8358964-dd88-4b33-976f-17e1c7fbd448"},"vehicle_type_id":"4","last_reported":1719169617,"current_range_meters":6000,"station_id":"ce4bgl12rcd13ifvqbo0","pricing_plan_id":"cebpf4jnsgd1na2vs0mg"},{"bike_id":"9e489938-ef25-4bd0-959e-e0b7eb84f2b2","system_id":"levelo_inurba_marseille","lat":43.29602,"lon":5.381084,"is_reserved":false,"is_disabled":false,"rental_uris":{"android":"levelo://app?vid=9e489938-ef25-4bd0-959e-e0b7eb84f2b2","ios":"levelo://app?vid=9e489938-ef25-4bd0-959e-e0b7eb84f2b2"},"vehicle_type_id":"4","last_reported":1719169617,"current_range_meters":4800,"station_id":"ce4bgl12rcd13ifvqbo0","pricing_plan_id":"cebpf4jnsgd1na2vs0mg"},{"bike_id":"b6cfafc9-d2b7-4f64-a7a1-06a9dced5725","system_id":"levelo_inurba_marseille","lat":43.29602,"lon":5.381084,"is_reserved":false,"is_disabled":false,"rental_uris":{"android":"levelo://app?vid=b6cfafc9-d2b7-4f64-a7a1-06a9dced5725","ios":"levelo://app?vid=b6cfafc9-d2b7-4f64-a7a1-06a9dced5725"},"vehicle_type_id":"4","last_reported":1719169617,"current_range_meters":24000,"station_id":"ce4bgl12rcd13ifvqbo0","pricing_plan_id":"cebpf4jnsgd1na2vs0mg"},{"bike_id":"e4da11c5-4096-47ba-9876-897fec18012c","system_id":"levelo_inurba_marseille","lat":43.29309,"lon":5.37177,"is_reserved":false,"is_disabled":false,"rental_uris":{"android":"levelo://app?vid=e4da11c5-4096-47ba-9876-897fec18012c","ios":"levelo://app?vid=e4da11c5-4096-47ba-9876-897fec18012c"},"vehicle_type_id":"4","last_reported":1719169617,"current_range_meters":0,"station_id":"ce4bgh92rcd13ifvqb40","pricing_plan_id":"cebpf4jnsgd1na2vs0mg"},{"bike_id":"f296b334-a7a9-4810-8c0e-b910d7656629","system_id":"levelo_inurba_marseille","lat":43.293259,"lon":5.371586,"is_reserved":false,"is_disabled":false,"rental_uris":{"android":"levelo://app?vid=f296b334-a7a9-4810-8c0e-b910d7656629","ios":"levelo://app?vid=f296b334-a7a9-4810-8c0e-b910d7656629"},"vehicle_type_id":"4","last_reported":1719169617,"current_range_meters":30400,"station_id":"ce4bgh92rcd13ifvqb40","pricing_plan_id":"cebpf4jnsgd1na2vs0mg"},{"bike_id":"861f40c2-0e35-42b4-8b2e-ca47a952a80a","system_id":"levelo_inurba_marseille","lat":43.293259,"lon":5.371586,"is_reserved":false,"is_disabled":false,"rental_uris":{"android":"levelo://app?vid=861f40c2-0e35-42b4-8b2e-ca47a952a80a","ios":"levelo://app?vid=861f40c2-0e35-42b4-8b2e-ca47a952a80a"},"vehicle_type_id":"4","last_reported":1719169617,"current_range_meters":21600,"station_id":"ce4bgh92rcd13ifvqb40","pricing_plan_id":"cebpf4jnsgd1na2vs0mg"},{"bike_id":"439232cb-2931-4a84-99b7-0742ae327d79","system_id":"levelo_inurba_marseille","lat":43.292749,"lon":5.368402,"is_reserved":false,"is_disabled":false,"rental_uris":{"android":"levelo://app?vid=439232cb-2931-4a84-99b7-0742ae327d79","ios":"levelo://app?vid=439232cb-2931-4a84-99b7-0742ae327d79"},"vehicle_type_id":"4","last_reported":1719169617,"current_range_meters":0,"station_id":"ce4bhbp2rcd13ifvqesg","pricing_plan_id":"cebpf4jnsgd1na2vs0mg"},{"bike_id":"3e906535-7263-4b2e-ba23-04f06d48b307","system_id":"levelo_inurba_marseille","lat":43.292749,"lon":5.368402,"is_reserved":false,"is_disabled":false,"rental_uris":{"android":"levelo://app?vid=3e906535-7263-4b2e-ba23-04f06d48b307","ios":"levelo://app?vid=3e906535-7263-4b2e-ba23-04f06d48b307"},"vehicle_type_id":"4","last_reported":1719169617,"current_range_meters":3200,"station_id":"ce4bhbp2rcd13ifvqesg","pricing_plan_id":"cebpf4jnsgd1na2vs0mg"},{"bike_id":"532adb43-33d4-432d-b6b0-35b1ffe2e8cb","system_id":"levelo_inurba_marseille","lat":43.292749,"lon":5.368402,"is_reserved":false,"is_disabled":false,"rental_uris":{"android":"levelo://app?vid=532adb43-33d4-432d-b6b0-35b1ffe2e8cb","ios":"levelo://app?vid=532adb43-33d4-432d-b6b0-35b1ffe2e8cb"},"vehicle_type_id":"4","last_reported":1719169617,"current_range_meters":0,"station_id":"ce4bhbp2rcd13ifvqesg","pricing_plan_id":"cebpf4jnsgd1na2vs0mg"},{"bike_id":"72a5928b-6405-4660-b8e4-3ee34b03d1bb","system_id":"levelo_inurba_marseille","lat":43.293011,"lon":5.374717,"is_reserved":false,"is_disabled":false,"rental_uris":{"android":"levelo://app?vid=72a5928b-6405-4660-b8e4-3ee34b03d1bb","ios":"levelo://app?vid=72a5928b-6405-4660-b8e4-3ee34b03d1bb"},"vehicle_type_id":"4","last_reported":1719169617,"current_range_meters":0,"station_id":"ce4bgi12rcd13ifvqb70","pricing_plan_id":"cebpf4jnsgd1na2vs0mg"},{"bike_id":"2701bb1c-29fd-460b-bbe4-2889505ae615","system_id":"levelo_inurba_marseille","lat":43.30309,"lon":5.39208,"is_reserved":false,"is_disabled":false,"rental_uris":{"android":"levelo://app?vid=2701bb1c-29fd-460b-bbe4-2889505ae615","ios":"levelo://app?vid=2701bb1c-29fd-460b-bbe4-2889505ae615"},"vehicle_type_id":"4","last_reported":1719169617,"current_range_meters":0,"station_id":"ce4bgkh2rcd13ifvqbk0","pricing_plan_id":"cebpf4jnsgd1na2vs0mg"},{"bike_id":"7d132410-8216-4e61-8a96-82e9a84088c3","system_id":"levelo_inurba_marseille","lat":43.295196,"lon":5.39397,"is_reserved":false,"is_disabled":false,"rental_uris":{"android":"levelo://app?vid=7d132410-8216-4e61-8a96-82e9a84088c3","ios":"levelo://app?vid=7d132410-8216-4e61-8a96-82e9a84088c3"},"vehicle_type_id":"4","last_reported":1719169617,"current_range_meters":11600,"station_id":"ce4bh292rcd13ifvqdf0","pricing_plan_id":"cebpf4jnsgd1na2vs0mg"},{"bike_id":"66e7faed-81de-4ec5-8a4a-2064726af548","system_id":"levelo_inurba_marseille","lat":43.293009,"lon":5.374584,"is_reserved":false,"is_disabled":false,"rental_uris":{"android":"levelo://app?vid=66e7faed-81de-4ec5-8a4a-2064726af548","ios":"levelo://app?vid=66e7faed-81de-4ec5-8a4a-2064726af548"},"vehicle_type_id":"4","last_reported":1719169617,"current_range_meters":18000,"station_id":"ce4bgi12rcd13ifvqb70","pricing_plan_id":"cebpf4jnsgd1na2vs0mg"},{"bike_id":"19982d88-38e3-4295-adf9-880984d23307","system_id":"levelo_inurba_marseille","lat":43.293009,"lon":5.374584,"is_reserved":false,"is_disabled":false,"rental_uris":{"android":"levelo://app?vid=19982d88-38e3-4295-adf9-880984d23307","ios":"levelo://app?vid=19982d88-38e3-4295-adf9-880984d23307"},"vehicle_type_id":"4","last_reported":1719169617,"current_range_meters":9600,"station_id":"ce4bgi12rcd13ifvqb70","pricing_plan_id":"cebpf4jnsgd1na2vs0mg"},{"bike_id":"0882dd4b-fe6b-4c3e-82cd-b8b5c8ab1eb9","system_id":"levelo_inurba_marseille","lat":43.313291,"lon":5.396838,"is_reserved":false,"is_disabled":false,"rental_uris":{"android":"levelo://app?vid=0882dd4b-fe6b-4c3e-82cd-b8b5c8ab1eb9","ios":"levelo://app?vid=0882dd4b-fe6b-4c3e-82cd-b8b5c8ab1eb9"},"vehicle_type_id":"4","last_reported":1719169617,"current_range_meters":8000,"station_id":"ce4bgvp2rcd13ifvqcu0","pricing_plan_id":"cebpf4jnsgd1na2vs0mg"},{"bike_id":"79faaff7-576e-4b42-b0a7-e9cfea9e50af","system_id":"levelo_inurba_marseille","lat":43.29189,"lon":5.35804,"is_reserved":false,"is_disabled":false,"rental_uris":{"android":"levelo://app?vid=79faaff7-576e-4b42-b0a7-e9cfea9e50af","ios":"levelo://app?vid=79faaff7-576e-4b42-b0a7-e9cfea9e50af"},"vehicle_type_id":"4","last_reported":1719169617,"current_range_meters":25200,"station_id":"ce4bhb12rcd13ifvqel0","pricing_plan_id":"cebpf4jnsgd1na2vs0mg"},{"bike_id":"4f1bc3d6-ea9f-4296-8bc2-648597718b3e","system_id":"levelo_inurba_marseille","lat":43.313291,"lon":5.396838,"is_reserved":false,"is_disabled":false,"rental_uris":{"android":"levelo://app?vid=4f1bc3d6-ea9f-4296-8bc2-648597718b3e","ios":"levelo://app?vid=4f1bc3d6-ea9f-4296-8bc2-648597718b3e"},"vehicle_type_id":"4","last_reported":1719169617,"current_range_meters":28800,"station_id":"ce4bgvp2rcd13ifvqcu0","pricing_plan_id":"cebpf4jnsgd1na2vs0mg"},{"bike_id":"92dac4cf-b19b-4f23-bbf5-ece91fdf420c","system_id":"levelo_inurba_marseille","lat":43.309038,"lon":5.396546,"is_reserved":false,"is_disabled":false,"rental_uris":{"android":"levelo://app?vid=92dac4cf-b19b-4f23-bbf5-ece91fdf420c","ios":"levelo://app?vid=92dac4cf-b19b-4f23-bbf5-ece91fdf420c"},"vehicle_type_id":"4","last_reported":1719169617,"current_range_meters":6400,"station_id":"ce4bh012rcd13ifvqcv0","pricing_plan_id":"cebpf4jnsgd1na2vs0mg"},{"bike_id":"b353556b-5fb7-4c1e-bb6d-2116097509a6","system_id":"levelo_inurba_marseille","lat":43.29529,"lon":5.385581,"is_reserved":false,"is_disabled":false,"rental_uris":{"android":"levelo://app?vid=b353556b-5fb7-4c1e-bb6d-2116097509a6","ios":"levelo://app?vid=b353556b-5fb7-4c1e-bb6d-2116097509a6"},"vehicle_type_id":"4","last_reported":1719169617,"current_range_meters":8800,"station_id":"ce4bgih2rcd13ifvqba0","pricing_plan_id":"cebpf4jnsgd1na2vs0mg"},{"bike_id":"e9f8c0c0-ac3d-46e8-9470-e1799570f886","system_id":"levelo_inurba_marseille","lat":43.332244,"lon":5.380834,"is_reserved":false,"is_disabled":false,"rental_uris":{"android":"levelo://app?vid=e9f8c0c0-ac3d-46e8-9470-e1799570f886","ios":"levelo://app?vid=e9f8c0c0-ac3d-46e8-9470-e1799570f886"},"vehicle_type_id":"4","last_reported":1719169617,"current_range_meters":0,"station_id":"","pricing_plan_id":"cebpf4jnsgd1na2vs0mg"},{"bike_id":"756e1d85-b83e-42ba-8c9f-d55ab1df10b0","system_id":"levelo_inurba_marseille","lat":43.29529,"lon":5.385581,"is_reserved":false,"is_disabled":false,"rental_uris":{"android":"levelo://app?vid=756e1d85-b83e-42ba-8c9f-d55ab1df10b0","ios":"levelo://app?vid=756e1d85-b83e-42ba-8c9f-d55ab1df10b0"},"vehicle_type_id":"4","last_reported":1719169617,"current_range_meters":4400,"station_id":"ce4bgih2rcd13ifvqba0","pricing_plan_id":"cebpf4jnsgd1na2vs0mg"},{"bike_id":"863cdfed-2810-454c-a06a-eb85aff84f65","system_id":"levelo_inurba_marseille","lat":43.29529,"lon":5.385581,"is_reserved":false,"is_disabled":false,"rental_uris":{"android":"levelo://app?vid=863cdfed-2810-454c-a06a-eb85aff84f65","ios":"levelo://app?vid=863cdfed-2810-454c-a06a-eb85aff84f65"},"vehicle_type_id":"4","last_reported":1719169617,"current_range_meters":4000,"station_id":"ce4bgih2rcd13ifvqba0","pricing_plan_id":"cebpf4jnsgd1na2vs0mg"},{"bike_id":"17e89bbd-128f-44c8-8f3a-d3cb6e1be257","system_id":"levelo_inurba_marseille","lat":43.29529,"lon":5.385581,"is_reserved":false,"is_disabled":false,"rental_uris":{"android":"levelo://app?vid=17e89bbd-128f-44c8-8f3a-d3cb6e1be257","ios":"levelo://app?vid=17e89bbd-128f-44c8-8f3a-d3cb6e1be257"},"vehicle_type_id":"4","last_reported":1719169617,"current_range_meters":9200,"station_id":"ce4bgih2rcd13ifvqba0","pricing_plan_id":"cebpf4jnsgd1na2vs0mg"},{"bike_id":"f3a0c102-e9e1-4b40-8f13-9c64d2090307","system_id":"levelo_inurba_marseille","lat":43.290631,"lon":5.359244,"is_reserved":false,"is_disabled":false,"rental_uris":{"android":"levelo://app?vid=f3a0c102-e9e1-4b40-8f13-9c64d2090307","ios":"levelo://app?vid=f3a0c102-e9e1-4b40-8f13-9c64d2090307"},"vehicle_type_id":"4","last_reported":1719169617,"current_range_meters":6800,"station_id":"ce4bha92rcd13ifvqeg0","pricing_plan_id":"cebpf4jnsgd1na2vs0mg"},{"bike_id":"a41ac602-a2a0-41a6-9766-8b657373a12f","system_id":"levelo_inurba_marseille","lat":43.290327,"lon":5.375711,"is_reserved":false,"is_disabled":false,"rental_uris":{"android":"levelo://app?vid=a41ac602-a2a0-41a6-9766-8b657373a12f","ios":"levelo://app?vid=a41ac602-a2a0-41a6-9766-8b657373a12f"},"vehicle_type_id":"4","last_reported":1719169617,"current_range_meters":8000,"station_id":"ce4bh692rcd13ifvqe90","pricing_plan_id":"cebpf4jnsgd1na2vs0mg"},{"bike_id":"a18c93a0-b1d8-48dc-a72b-550eebeceeaa","system_id":"levelo_inurba_marseille","lat":43.290327,"lon":5.375711,"is_reserved":false,"is_disabled":false,"rental_uris":{"android":"levelo://app?vid=a18c93a0-b1d8-48dc-a72b-550eebeceeaa","ios":"levelo://app?vid=a18c93a0-b1d8-48dc-a72b-550eebeceeaa"},"vehicle_type_id":"4","last_reported":1719169617,"current_range_meters":0,"station_id":"ce4bh692rcd13ifvqe90","pricing_plan_id":"cebpf4jnsgd1na2vs0mg"},{"bike_id":"7e137334-5a62-45e0-91ed-111c58b7eab7","system_id":"levelo_inurba_marseille","lat":43.29414,"lon":5.38626,"is_reserved":false,"is_disabled":false,"rental_uris":{"android":"levelo://app?vid=7e137334-5a62-45e0-91ed-111c58b7eab7","ios":"levelo://app?vid=7e137334-5a62-45e0-91ed-111c58b7eab7"},"vehicle_type_id":"4","last_reported":1719169617,"current_range_meters":0,"station_id":"ce4bh2h2rcd13ifvqdh0","pricing_plan_id":"cebpf4jnsgd1na2vs0mg"},{"bike_id":"7fcd975d-b448-4cc0-91b9-f84731fca161","system_id":"levelo_inurba_marseille","lat":43.294153,"lon":5.386305,"is_reserved":false,"is_disabled":false,"rental_uris":{"android":"levelo://app?vid=7fcd975d-b448-4cc0-91b9-f84731fca161","ios":"levelo://app?vid=7fcd975d-b448-4cc0-91b9-f84731fca161"},"vehicle_type_id":"4","last_reported":1719169617,"current_range_meters":7200,"station_id":"ce4bh2h2rcd13ifvqdh0","pricing_plan_id":"cebpf4jnsgd1na2vs0mg"},{"bike_id":"ab3efbf7-1d62-4595-ae66-e53989d78d0d","system_id":"levelo_inurba_marseille","lat":43.292642,"lon":5.384254,"is_reserved":false,"is_disabled":false,"rental_uris":{"android":"levelo://app?vid=ab3efbf7-1d62-4595-ae66-e53989d78d0d","ios":"levelo://app?vid=ab3efbf7-1d62-4595-ae66-e53989d78d0d"},"vehicle_type_id":"4","last_reported":1719169617,"current_range_meters":19600,"station_id":"ce4bh692rcd13ifvqea0","pricing_plan_id":"cebpf4jnsgd1na2vs0mg"},{"bike_id":"67fe5ec9-f3ae-4c66-ae99-89e0769b42c9","system_id":"levelo_inurba_marseille","lat":43.292644,"lon":5.384257,"is_reserved":false,"is_disabled":false,"rental_uris":{"android":"levelo://app?vid=67fe5ec9-f3ae-4c66-ae99-89e0769b42c9","ios":"levelo://app?vid=67fe5ec9-f3ae-4c66-ae99-89e0769b42c9"},"vehicle_type_id":"4","last_reported":1719169617,"current_range_meters":4400,"station_id":"ce4bh692rcd13ifvqea0","pricing_plan_id":"cebpf4jnsgd1na2vs0mg"},{"bike_id":"45767913-ac0c-4f9a-8b4f-4f45440ebfbe","system_id":"levelo_inurba_marseille","lat":43.290995,"lon":5.381361,"is_reserved":false,"is_disabled":false,"rental_uris":{"android":"levelo://app?vid=45767913-ac0c-4f9a-8b4f-4f45440ebfbe","ios":"levelo://app?vid=45767913-ac0c-4f9a-8b4f-4f45440ebfbe"},"vehicle_type_id":"4","last_reported":1719169617,"current_range_meters":18400,"station_id":"ce4bh512rcd13ifvqe2g","pricing_plan_id":"cebpf4jnsgd1na2vs0mg"},{"bike_id":"077d90c7-8b50-4b90-a04a-b09a06c2b900","system_id":"levelo_inurba_marseille","lat":43.290995,"lon":5.381361,"is_reserved":false,"is_disabled":false,"rental_uris":{"android":"levelo://app?vid=077d90c7-8b50-4b90-a04a-b09a06c2b900","ios":"levelo://app?vid=077d90c7-8b50-4b90-a04a-b09a06c2b900"},"vehicle_type_id":"4","last_reported":1719169617,"current_range_meters":29200,"station_id":"ce4bh512rcd13ifvqe2g","pricing_plan_id":"cebpf4jnsgd1na2vs0mg"},{"bike_id":"992095c3-b158-418a-9803-00e693c29f7e","system_id":"levelo_inurba_marseille","lat":43.330442,"lon":5.389148,"is_reserved":false,"is_disabled":false,"rental_uris":{"android":"levelo://app?vid=992095c3-b158-418a-9803-00e693c29f7e","ios":"levelo://app?vid=992095c3-b158-418a-9803-00e693c29f7e"},"vehicle_type_id":"4","last_reported":1719169617,"current_range_meters":4800,"station_id":"ce4bhr92rcd13ifvqhrg","pricing_plan_id":"cebpf4jnsgd1na2vs0mg"},{"bike_id":"ec9c85cd-b968-4d52-add3-00f9d874a51e","system_id":"levelo_inurba_marseille","lat":43.330442,"lon":5.389148,"is_reserved":false,"is_disabled":false,"rental_uris":{"android":"levelo://app?vid=ec9c85cd-b968-4d52-add3-00f9d874a51e","ios":"levelo://app?vid=ec9c85cd-b968-4d52-add3-00f9d874a51e"},"vehicle_type_id":"4","last_reported":1719169617,"current_range_meters":16000,"station_id":"ce4bhr92rcd13ifvqhrg","pricing_plan_id":"cebpf4jnsgd1na2vs0mg"},{"bike_id":"b6a7d087-8ed3-4dae-9ddc-bae6382ba8d5","system_id":"levelo_inurba_marseille","lat":43.295169,"lon":5.390426,"is_reserved":false,"is_disabled":false,"rental_uris":{"android":"levelo://app?vid=b6a7d087-8ed3-4dae-9ddc-bae6382ba8d5","ios":"levelo://app?vid=b6a7d087-8ed3-4dae-9ddc-bae6382ba8d5"},"vehicle_type_id":"4","last_reported":1719169617,"current_range_meters":5600,"station_id":"ce4bh3p2rcd13ifvqdp0","pricing_plan_id":"cebpf4jnsgd1na2vs0mg"},{"bike_id":"7cffc5ab-1d98-4b39-9271-059357023ad7","system_id":"levelo_inurba_marseille","lat":43.33027,"lon":5.39044,"is_reserved":false,"is_disabled":false,"rental_uris":{"android":"levelo://app?vid=7cffc5ab-1d98-4b39-9271-059357023ad7","ios":"levelo://app?vid=7cffc5ab-1d98-4b39-9271-059357023ad7"},"vehicle_type_id":"4","last_reported":1719169617,"current_range_meters":0,"station_id":"ce4bhr92rcd13ifvqhrg","pricing_plan_id":"cebpf4jnsgd1na2vs0mg"},{"bike_id":"a2a7f455-09de-48ba-9270-e092075f887f","system_id":"levelo_inurba_marseille","lat":43.295169,"lon":5.390426,"is_reserved":false,"is_disabled":false,"rental_uris":{"android":"levelo://app?vid=a2a7f455-09de-48ba-9270-e092075f887f","ios":"levelo://app?vid=a2a7f455-09de-48ba-9270-e092075f887f"},"vehicle_type_id":"4","last_reported":1719169617,"current_range_meters":14800,"station_id":"ce4bh3p2rcd13ifvqdp0","pricing_plan_id":"cebpf4jnsgd1na2vs0mg"},{"bike_id":"72ebdebb-0208-42a8-a95c-5d8040d7004e","system_id":"levelo_inurba_marseille","lat":43.295169,"lon":5.390426,"is_reserved":false,"is_disabled":false,"rental_uris":{"android":"levelo://app?vid=72ebdebb-0208-42a8-a95c-5d8040d7004e","ios":"levelo://app?vid=72ebdebb-0208-42a8-a95c-5d8040d7004e"},"vehicle_type_id":"4","last_reported":1719169617,"current_range_meters":29600,"station_id":"ce4bh3p2rcd13ifvqdp0","pricing_plan_id":"cebpf4jnsgd1na2vs0mg"},{"bike_id":"a566f156-c6f8-49f4-b374-629a71111d85","system_id":"levelo_inurba_marseille","lat":43.290094,"lon":5.381264,"is_reserved":false,"is_disabled":false,"rental_uris":{"android":"levelo://app?vid=a566f156-c6f8-49f4-b374-629a71111d85","ios":"levelo://app?vid=a566f156-c6f8-49f4-b374-629a71111d85"},"vehicle_type_id":"4","last_reported":1719169617,"current_range_meters":7600,"station_id":"ce4bh4p2rcd13ifvqe1g","pricing_plan_id":"cebpf4jnsgd1na2vs0mg"},{"bike_id":"da120682-e285-4809-80bc-2ab9bba80f75","system_id":"levelo_inurba_marseille","lat":43.28856,"lon":5.358371,"is_reserved":false,"is_disabled":false,"rental_uris":{"android":"levelo://app?vid=da120682-e285-4809-80bc-2ab9bba80f75","ios":"levelo://app?vid=da120682-e285-4809-80bc-2ab9bba80f75"},"vehicle_type_id":"4","last_reported":1719169617,"current_range_meters":28400,"station_id":"ce4bhb12rcd13ifvqem0","pricing_plan_id":"cebpf4jnsgd1na2vs0mg"},{"bike_id":"0f362fae-5069-42d5-8dac-3948685bbd5d","system_id":"levelo_inurba_marseille","lat":43.28856,"lon":5.358371,"is_reserved":false,"is_disabled":false,"rental_uris":{"android":"levelo://app?vid=0f362fae-5069-42d5-8dac-3948685bbd5d","ios":"levelo://app?vid=0f362fae-5069-42d5-8dac-3948685bbd5d"},"vehicle_type_id":"4","last_reported":1719169617,"current_range_meters":31200,"station_id":"ce4bhb12rcd13ifvqem0","pricing_plan_id":"cebpf4jnsgd1na2vs0mg"},{"bike_id":"dfbd7279-8348-4345-a18c-d8a1a8498d65","system_id":"levelo_inurba_marseille","lat":43.312609,"lon":5.401662,"is_reserved":false,"is_disabled":false,"rental_uris":{"android":"levelo://app?vid=dfbd7279-8348-4345-a18c-d8a1a8498d65","ios":"levelo://app?vid=dfbd7279-8348-4345-a18c-d8a1a8498d65"},"vehicle_type_id":"4","last_reported":1719169617,"current_range_meters":8800,"station_id":"ce4bh092rcd13ifvqd30","pricing_plan_id":"cebpf4jnsgd1na2vs0mg"},{"bike_id":"05092e03-5cef-41c3-9575-df5db7507ebd","system_id":"levelo_inurba_marseille","lat":43.33739,"lon":5.37464,"is_reserved":false,"is_disabled":false,"rental_uris":{"android":"levelo://app?vid=05092e03-5cef-41c3-9575-df5db7507ebd","ios":"levelo://app?vid=05092e03-5cef-41c3-9575-df5db7507ebd"},"vehicle_type_id":"4","last_reported":1719169617,"current_range_meters":14800,"station_id":"","pricing_plan_id":"cebpf4jnsgd1na2vs0mg"},{"bike_id":"0d278449-2df4-44f5-a6ee-7cf70aa7c8af","system_id":"levelo_inurba_marseille","lat":43.309371,"lon":5.401449,"is_reserved":false,"is_disabled":false,"rental_uris":{"android":"levelo://app?vid=0d278449-2df4-44f5-a6ee-7cf70aa7c8af","ios":"levelo://app?vid=0d278449-2df4-44f5-a6ee-7cf70aa7c8af"},"vehicle_type_id":"4","last_reported":1719169617,"current_range_meters":4000,"station_id":"ce4bgvp2rcd13ifvqct0","pricing_plan_id":"cebpf4jnsgd1na2vs0mg"},{"bike_id":"4a14caed-3023-4ed0-80db-c13178429518","system_id":"levelo_inurba_marseille","lat":43.309371,"lon":5.401449,"is_reserved":false,"is_disabled":false,"rental_uris":{"android":"levelo://app?vid=4a14caed-3023-4ed0-80db-c13178429518","ios":"levelo://app?vid=4a14caed-3023-4ed0-80db-c13178429518"},"vehicle_type_id":"4","last_reported":1719169617,"current_range_meters":15600,"station_id":"ce4bgvp2rcd13ifvqct0","pricing_plan_id":"cebpf4jnsgd1na2vs0mg"},{"bike_id":"8089a55c-27b3-4944-b7ce-cd19e1f2b204","system_id":"levelo_inurba_marseille","lat":43.309371,"lon":5.401449,"is_reserved":false,"is_disabled":false,"rental_uris":{"android":"levelo://app?vid=8089a55c-27b3-4944-b7ce-cd19e1f2b204","ios":"levelo://app?vid=8089a55c-27b3-4944-b7ce-cd19e1f2b204"},"vehicle_type_id":"4","last_reported":1719169617,"current_range_meters":11600,"station_id":"ce4bgvp2rcd13ifvqct0","pricing_plan_id":"cebpf4jnsgd1na2vs0mg"},{"bike_id":"7d278bb0-b046-4f8d-a1d8-d543d2d6d0f4","system_id":"levelo_inurba_marseille","lat":43.312609,"lon":5.401662,"is_reserved":false,"is_disabled":false,"rental_uris":{"android":"levelo://app?vid=7d278bb0-b046-4f8d-a1d8-d543d2d6d0f4","ios":"levelo://app?vid=7d278bb0-b046-4f8d-a1d8-d543d2d6d0f4"},"vehicle_type_id":"4","last_reported":1719169617,"current_range_meters":25600,"station_id":"ce4bh092rcd13ifvqd30","pricing_plan_id":"cebpf4jnsgd1na2vs0mg"},{"bike_id":"a00c218c-138a-4388-aca4-2952a6961815","system_id":"levelo_inurba_marseille","lat":43.337479,"lon":5.37488,"is_reserved":false,"is_disabled":false,"rental_uris":{"android":"levelo://app?vid=a00c218c-138a-4388-aca4-2952a6961815","ios":"levelo://app?vid=a00c218c-138a-4388-aca4-2952a6961815"},"vehicle_type_id":"4","last_reported":1719169617,"current_range_meters":28400,"station_id":"","pricing_plan_id":"cebpf4jnsgd1na2vs0mg"},{"bike_id":"0e11bbab-a5d9-4098-a6f1-624d89f27c59","system_id":"levelo_inurba_marseille","lat":43.337572,"lon":5.374546,"is_reserved":false,"is_disabled":false,"rental_uris":{"android":"levelo://app?vid=0e11bbab-a5d9-4098-a6f1-624d89f27c59","ios":"levelo://app?vid=0e11bbab-a5d9-4098-a6f1-624d89f27c59"},"vehicle_type_id":"4","last_reported":1719169617,"current_range_meters":19600,"station_id":"","pricing_plan_id":"cebpf4jnsgd1na2vs0mg"},{"bike_id":"db534928-e6a2-47cc-a852-558fe66ed50c","system_id":"levelo_inurba_marseille","lat":43.337583,"lon":5.374633,"is_reserved":false,"is_disabled":false,"rental_uris":{"android":"levelo://app?vid=db534928-e6a2-47cc-a852-558fe66ed50c","ios":"levelo://app?vid=db534928-e6a2-47cc-a852-558fe66ed50c"},"vehicle_type_id":"4","last_reported":1719169617,"current_range_meters":18000,"station_id":"","pricing_plan_id":"cebpf4jnsgd1na2vs0mg"},{"bike_id":"5b5cae36-09e1-4bd0-aeb4-83d37c064d16","system_id":"levelo_inurba_marseille","lat":43.33761,"lon":5.37455,"is_reserved":false,"is_disabled":false,"rental_uris":{"android":"levelo://app?vid=5b5cae36-09e1-4bd0-aeb4-83d37c064d16","ios":"levelo://app?vid=5b5cae36-09e1-4bd0-aeb4-83d37c064d16"},"vehicle_type_id":"4","last_reported":1719169617,"current_range_meters":16000,"station_id":"","pricing_plan_id":"cebpf4jnsgd1na2vs0mg"},{"bike_id":"e7be790b-07e4-40f3-b60f-da683b157943","system_id":"levelo_inurba_marseille","lat":43.33033,"lon":5.39238,"is_reserved":false,"is_disabled":false,"rental_uris":{"android":"levelo://app?vid=e7be790b-07e4-40f3-b60f-da683b157943","ios":"levelo://app?vid=e7be790b-07e4-40f3-b60f-da683b157943"},"vehicle_type_id":"4","last_reported":1719169617,"current_range_meters":14000,"station_id":"","pricing_plan_id":"cebpf4jnsgd1na2vs0mg"},{"bike_id":"017d490c-1ffd-4fe5-8574-cdfcad267b8a","system_id":"levelo_inurba_marseille","lat":43.30645,"lon":5.40097,"is_reserved":false,"is_disabled":false,"rental_uris":{"android":"levelo://app?vid=017d490c-1ffd-4fe5-8574-cdfcad267b8a","ios":"levelo://app?vid=017d490c-1ffd-4fe5-8574-cdfcad267b8a"},"vehicle_type_id":"4","last_reported":1719169617,"current_range_meters":800,"station_id":"ce4bh112rcd13ifvqda0","pricing_plan_id":"cebpf4jnsgd1na2vs0mg"},{"bike_id":"a77bf3f1-dc55-4e35-8fe0-6292cee970ef","system_id":"levelo_inurba_marseille","lat":43.33035,"lon":5.39239,"is_reserved":false,"is_disabled":false,"rental_uris":{"android":"levelo://app?vid=a77bf3f1-dc55-4e35-8fe0-6292cee970ef","ios":"levelo://app?vid=a77bf3f1-dc55-4e35-8fe0-6292cee970ef"},"vehicle_type_id":"4","last_reported":1719169617,"current_range_meters":16800,"station_id":"","pricing_plan_id":"cebpf4jnsgd1na2vs0mg"},{"bike_id":"4107874f-6f88-48d4-80e2-2797be0329a3","system_id":"levelo_inurba_marseille","lat":43.2874,"lon":5.373818,"is_reserved":false,"is_disabled":false,"rental_uris":{"android":"levelo://app?vid=4107874f-6f88-48d4-80e2-2797be0329a3","ios":"levelo://app?vid=4107874f-6f88-48d4-80e2-2797be0329a3"},"vehicle_type_id":"4","last_reported":1719169617,"current_range_meters":1200,"station_id":"ce4bh3p2rcd13ifvqdq0","pricing_plan_id":"cebpf4jnsgd1na2vs0mg"},{"bike_id":"5c1a3e77-bfa5-491a-a35f-e526e965d80d","system_id":"levelo_inurba_marseille","lat":43.298681,"lon":5.397225,"is_reserved":false,"is_disabled":false,"rental_uris":{"android":"levelo://app?vid=5c1a3e77-bfa5-491a-a35f-e526e965d80d","ios":"levelo://app?vid=5c1a3e77-bfa5-491a-a35f-e526e965d80d"},"vehicle_type_id":"4","last_reported":1719169617,"current_range_meters":10400,"station_id":"ce4bh0h2rcd13ifvqd50","pricing_plan_id":"cebpf4jnsgd1na2vs0mg"},{"bike_id":"f941bab5-1762-459c-a207-730567e850c9","system_id":"levelo_inurba_marseille","lat":43.287006,"lon":5.373919,"is_reserved":false,"is_disabled":false,"rental_uris":{"android":"levelo://app?vid=f941bab5-1762-459c-a207-730567e850c9","ios":"levelo://app?vid=f941bab5-1762-459c-a207-730567e850c9"},"vehicle_type_id":"4","last_reported":1719169617,"current_range_meters":0,"station_id":"ce4bh3p2rcd13ifvqdq0","pricing_plan_id":"cebpf4jnsgd1na2vs0mg"},{"bike_id":"d8c16bb1-0f4a-4c48-b4eb-7059432fefc1","system_id":"levelo_inurba_marseille","lat":43.286961,"lon":5.373785,"is_reserved":false,"is_disabled":false,"rental_uris":{"android":"levelo://app?vid=d8c16bb1-0f4a-4c48-b4eb-7059432fefc1","ios":"levelo://app?vid=d8c16bb1-0f4a-4c48-b4eb-7059432fefc1"},"vehicle_type_id":"4","last_reported":1719169617,"current_range_meters":15200,"station_id":"ce4bh3p2rcd13ifvqdq0","pricing_plan_id":"cebpf4jnsgd1na2vs0mg"},{"bike_id":"2e6d7982-472b-4e9f-8d06-913488611558","system_id":"levelo_inurba_marseille","lat":43.286961,"lon":5.373785,"is_reserved":false,"is_disabled":false,"rental_uris":{"android":"levelo://app?vid=2e6d7982-472b-4e9f-8d06-913488611558","ios":"levelo://app?vid=2e6d7982-472b-4e9f-8d06-913488611558"},"vehicle_type_id":"4","last_reported":1719169617,"current_range_meters":3600,"station_id":"ce4bh3p2rcd13ifvqdq0","pricing_plan_id":"cebpf4jnsgd1na2vs0mg"},{"bike_id":"84160a08-c9af-4377-a53d-151b490dba97","system_id":"levelo_inurba_marseille","lat":43.290327,"lon":5.375711,"is_reserved":false,"is_disabled":false,"rental_uris":{"android":"levelo://app?vid=84160a08-c9af-4377-a53d-151b490dba97","ios":"levelo://app?vid=84160a08-c9af-4377-a53d-151b490dba97"},"vehicle_type_id":"4","last_reported":1719169617,"current_range_meters":0,"station_id":"ce4bh692rcd13ifvqe90","pricing_plan_id":"cebpf4jnsgd1na2vs0mg"},{"bike_id":"08bae22b-3c56-4406-95a1-128c0281e76d","system_id":"levelo_inurba_marseille","lat":43.286961,"lon":5.373785,"is_reserved":false,"is_disabled":false,"rental_uris":{"android":"levelo://app?vid=08bae22b-3c56-4406-95a1-128c0281e76d","ios":"levelo://app?vid=08bae22b-3c56-4406-95a1-128c0281e76d"},"vehicle_type_id":"4","last_reported":1719169617,"current_range_meters":4400,"station_id":"ce4bh3p2rcd13ifvqdq0","pricing_plan_id":"cebpf4jnsgd1na2vs0mg"},{"bike_id":"d206d9a9-7d5a-40ac-9175-1af55d3fd41c","system_id":"levelo_inurba_marseille","lat":43.28695,"lon":5.37386,"is_reserved":false,"is_disabled":false,"rental_uris":{"android":"levelo://app?vid=d206d9a9-7d5a-40ac-9175-1af55d3fd41c","ios":"levelo://app?vid=d206d9a9-7d5a-40ac-9175-1af55d3fd41c"},"vehicle_type_id":"4","last_reported":1719169617,"current_range_meters":0,"station_id":"ce4bh3p2rcd13ifvqdq0","pricing_plan_id":"cebpf4jnsgd1na2vs0mg"},{"bike_id":"c1f87dac-a68e-436d-8ad1-22db7eedb30a","system_id":"levelo_inurba_marseille","lat":43.286961,"lon":5.373785,"is_reserved":false,"is_disabled":false,"rental_uris":{"android":"levelo://app?vid=c1f87dac-a68e-436d-8ad1-22db7eedb30a","ios":"levelo://app?vid=c1f87dac-a68e-436d-8ad1-22db7eedb30a"},"vehicle_type_id":"4","last_reported":1719169617,"current_range_meters":15600,"station_id":"ce4bh3p2rcd13ifvqdq0","pricing_plan_id":"cebpf4jnsgd1na2vs0mg"},{"bike_id":"78a758a9-5bdf-4b91-9e09-c897dc6a84a7","system_id":"levelo_inurba_marseille","lat":43.295194,"lon":5.39397,"is_reserved":false,"is_disabled":false,"rental_uris":{"android":"levelo://app?vid=78a758a9-5bdf-4b91-9e09-c897dc6a84a7","ios":"levelo://app?vid=78a758a9-5bdf-4b91-9e09-c897dc6a84a7"},"vehicle_type_id":"4","last_reported":1719169617,"current_range_meters":29200,"station_id":"ce4bh292rcd13ifvqdf0","pricing_plan_id":"cebpf4jnsgd1na2vs0mg"},{"bike_id":"8644afa3-b8e0-4b6f-acc7-7a084d28ad26","system_id":"levelo_inurba_marseille","lat":43.295196,"lon":5.39397,"is_reserved":false,"is_disabled":false,"rental_uris":{"android":"levelo://app?vid=8644afa3-b8e0-4b6f-acc7-7a084d28ad26","ios":"levelo://app?vid=8644afa3-b8e0-4b6f-acc7-7a084d28ad26"},"vehicle_type_id":"4","last_reported":1719169617,"current_range_meters":800,"station_id":"ce4bh292rcd13ifvqdf0","pricing_plan_id":"cebpf4jnsgd1na2vs0mg"},{"bike_id":"5411cfd4-6cce-4b86-a985-53c4afe31c33","system_id":"levelo_inurba_marseille","lat":43.295196,"lon":5.39397,"is_reserved":false,"is_disabled":false,"rental_uris":{"android":"levelo://app?vid=5411cfd4-6cce-4b86-a985-53c4afe31c33","ios":"levelo://app?vid=5411cfd4-6cce-4b86-a985-53c4afe31c33"},"vehicle_type_id":"4","last_reported":1719169617,"current_range_meters":6400,"station_id":"ce4bh292rcd13ifvqdf0","pricing_plan_id":"cebpf4jnsgd1na2vs0mg"},{"bike_id":"6034421d-bc61-4cf1-a55e-ee7ee5897aca","system_id":"levelo_inurba_marseille","lat":43.295196,"lon":5.39397,"is_reserved":false,"is_disabled":false,"rental_uris":{"android":"levelo://app?vid=6034421d-bc61-4cf1-a55e-ee7ee5897aca","ios":"levelo://app?vid=6034421d-bc61-4cf1-a55e-ee7ee5897aca"},"vehicle_type_id":"4","last_reported":1719169617,"current_range_meters":22800,"station_id":"ce4bh292rcd13ifvqdf0","pricing_plan_id":"cebpf4jnsgd1na2vs0mg"},{"bike_id":"e8394954-4c0d-45fb-9a33-209b16ebbb01","system_id":"levelo_inurba_marseille","lat":43.295194,"lon":5.39397,"is_reserved":false,"is_disabled":false,"rental_uris":{"android":"levelo://app?vid=e8394954-4c0d-45fb-9a33-209b16ebbb01","ios":"levelo://app?vid=e8394954-4c0d-45fb-9a33-209b16ebbb01"},"vehicle_type_id":"4","last_reported":1719169617,"current_range_meters":28400,"station_id":"ce4bh292rcd13ifvqdf0","pricing_plan_id":"cebpf4jnsgd1na2vs0mg"},{"bike_id":"078ba68f-7d4f-48ee-b152-089a383b5795","system_id":"levelo_inurba_marseille","lat":43.295194,"lon":5.39397,"is_reserved":false,"is_disabled":false,"rental_uris":{"android":"levelo://app?vid=078ba68f-7d4f-48ee-b152-089a383b5795","ios":"levelo://app?vid=078ba68f-7d4f-48ee-b152-089a383b5795"},"vehicle_type_id":"4","last_reported":1719169617,"current_range_meters":0,"station_id":"ce4bh292rcd13ifvqdf0","pricing_plan_id":"cebpf4jnsgd1na2vs0mg"},{"bike_id":"8daab82b-d00d-43ec-af87-9c7219cac23b","system_id":"levelo_inurba_marseille","lat":43.289307,"lon":5.38406,"is_reserved":false,"is_disabled":false,"rental_uris":{"android":"levelo://app?vid=8daab82b-d00d-43ec-af87-9c7219cac23b","ios":"levelo://app?vid=8daab82b-d00d-43ec-af87-9c7219cac23b"},"vehicle_type_id":"4","last_reported":1719169617,"current_range_meters":26800,"station_id":"ce4bh612rcd13ifvqe6g","pricing_plan_id":"cebpf4jnsgd1na2vs0mg"},{"bike_id":"fb08b284-27ed-43ff-bfcf-4633c2ea7781","system_id":"levelo_inurba_marseille","lat":43.290345,"lon":5.38646,"is_reserved":false,"is_disabled":false,"rental_uris":{"android":"levelo://app?vid=fb08b284-27ed-43ff-bfcf-4633c2ea7781","ios":"levelo://app?vid=fb08b284-27ed-43ff-bfcf-4633c2ea7781"},"vehicle_type_id":"4","last_reported":1719169617,"current_range_meters":2400,"station_id":"ce4bh4p2rcd13ifvqe0g","pricing_plan_id":"cebpf4jnsgd1na2vs0mg"},{"bike_id":"f67c0276-c86d-4b28-b13e-8065e89d97b1","system_id":"levelo_inurba_marseille","lat":43.29023,"lon":5.38639,"is_reserved":false,"is_disabled":false,"rental_uris":{"android":"levelo://app?vid=f67c0276-c86d-4b28-b13e-8065e89d97b1","ios":"levelo://app?vid=f67c0276-c86d-4b28-b13e-8065e89d97b1"},"vehicle_type_id":"4","last_reported":1719169617,"current_range_meters":0,"station_id":"ce4bh4p2rcd13ifvqe0g","pricing_plan_id":"cebpf4jnsgd1na2vs0mg"},{"bike_id":"98251078-f0c8-4877-8a9e-fcfde0d4761e","system_id":"levelo_inurba_marseille","lat":43.29027,"lon":5.38649,"is_reserved":false,"is_disabled":false,"rental_uris":{"android":"levelo://app?vid=98251078-f0c8-4877-8a9e-fcfde0d4761e","ios":"levelo://app?vid=98251078-f0c8-4877-8a9e-fcfde0d4761e"},"vehicle_type_id":"4","last_reported":1719169617,"current_range_meters":0,"station_id":"ce4bh4p2rcd13ifvqe0g","pricing_plan_id":"cebpf4jnsgd1na2vs0mg"},{"bike_id":"da29a0e0-3a67-4e74-882f-7f052bcc6e22","system_id":"levelo_inurba_marseille","lat":43.3026,"lon":5.40074,"is_reserved":false,"is_disabled":false,"rental_uris":{"android":"levelo://app?vid=da29a0e0-3a67-4e74-882f-7f052bcc6e22","ios":"levelo://app?vid=da29a0e0-3a67-4e74-882f-7f052bcc6e22"},"vehicle_type_id":"4","last_reported":1719169617,"current_range_meters":2800,"station_id":"ce4bgvh2rcd13ifvqcs0","pricing_plan_id":"cebpf4jnsgd1na2vs0mg"},{"bike_id":"65b896db-7499-4d2d-9c2e-7e4bce486b33","system_id":"levelo_inurba_marseille","lat":43.302538,"lon":5.400786,"is_reserved":false,"is_disabled":false,"rental_uris":{"android":"levelo://app?vid=65b896db-7499-4d2d-9c2e-7e4bce486b33","ios":"levelo://app?vid=65b896db-7499-4d2d-9c2e-7e4bce486b33"},"vehicle_type_id":"4","last_reported":1719169617,"current_range_meters":0,"station_id":"ce4bgvh2rcd13ifvqcs0","pricing_plan_id":"cebpf4jnsgd1na2vs0mg"},{"bike_id":"a1079f20-760a-44c9-be96-1e8d4f76d528","system_id":"levelo_inurba_marseille","lat":43.286039,"lon":5.370681,"is_reserved":false,"is_disabled":false,"rental_uris":{"android":"levelo://app?vid=a1079f20-760a-44c9-be96-1e8d4f76d528","ios":"levelo://app?vid=a1079f20-760a-44c9-be96-1e8d4f76d528"},"vehicle_type_id":"4","last_reported":1719169617,"current_range_meters":12800,"station_id":"ce4bht12rcd13ifvqi60","pricing_plan_id":"cebpf4jnsgd1na2vs0mg"},{"bike_id":"b885254b-d3d7-4257-a723-bf4587a8f409","system_id":"levelo_inurba_marseille","lat":43.287184,"lon":5.37937,"is_reserved":false,"is_disabled":false,"rental_uris":{"android":"levelo://app?vid=b885254b-d3d7-4257-a723-bf4587a8f409","ios":"levelo://app?vid=b885254b-d3d7-4257-a723-bf4587a8f409"},"vehicle_type_id":"4","last_reported":1719169617,"current_range_meters":30800,"station_id":"ce4bh9p2rcd13ifvqec0","pricing_plan_id":"cebpf4jnsgd1na2vs0mg"},{"bike_id":"0b1d4e59-4ce3-498f-921b-180b3d689029","system_id":"levelo_inurba_marseille","lat":43.287185,"lon":5.379373,"is_reserved":false,"is_disabled":false,"rental_uris":{"android":"levelo://app?vid=0b1d4e59-4ce3-498f-921b-180b3d689029","ios":"levelo://app?vid=0b1d4e59-4ce3-498f-921b-180b3d689029"},"vehicle_type_id":"4","last_reported":1719169617,"current_range_meters":14800,"station_id":"ce4bh9p2rcd13ifvqec0","pricing_plan_id":"cebpf4jnsgd1na2vs0mg"},{"bike_id":"c4000610-7cf5-49f9-9a67-1d8d1e6bd7eb","system_id":"levelo_inurba_marseille","lat":43.287185,"lon":5.379373,"is_reserved":false,"is_disabled":false,"rental_uris":{"android":"levelo://app?vid=c4000610-7cf5-49f9-9a67-1d8d1e6bd7eb","ios":"levelo://app?vid=c4000610-7cf5-49f9-9a67-1d8d1e6bd7eb"},"vehicle_type_id":"4","last_reported":1719169617,"current_range_meters":11200,"station_id":"ce4bh9p2rcd13ifvqec0","pricing_plan_id":"cebpf4jnsgd1na2vs0mg"},{"bike_id":"e5cf39f2-4b04-4c3d-9c86-b199da7226a0","system_id":"levelo_inurba_marseille","lat":43.287185,"lon":5.379373,"is_reserved":false,"is_disabled":false,"rental_uris":{"android":"levelo://app?vid=e5cf39f2-4b04-4c3d-9c86-b199da7226a0","ios":"levelo://app?vid=e5cf39f2-4b04-4c3d-9c86-b199da7226a0"},"vehicle_type_id":"4","last_reported":1719169617,"current_range_meters":5600,"station_id":"ce4bh9p2rcd13ifvqec0","pricing_plan_id":"cebpf4jnsgd1na2vs0mg"},{"bike_id":"9b935e34-3f22-49bc-9ab5-872d209684dc","system_id":"levelo_inurba_marseille","lat":43.302674,"lon":5.401723,"is_reserved":false,"is_disabled":false,"rental_uris":{"android":"levelo://app?vid=9b935e34-3f22-49bc-9ab5-872d209684dc","ios":"levelo://app?vid=9b935e34-3f22-49bc-9ab5-872d209684dc"},"vehicle_type_id":"4","last_reported":1719169617,"current_range_meters":23200,"station_id":"","pricing_plan_id":"cebpf4jnsgd1na2vs0mg"},{"bike_id":"bef1c7e6-6fcd-43fd-9958-98088267d624","system_id":"levelo_inurba_marseille","lat":43.31691,"lon":5.4047,"is_reserved":false,"is_disabled":false,"rental_uris":{"android":"levelo://app?vid=bef1c7e6-6fcd-43fd-9958-98088267d624","ios":"levelo://app?vid=bef1c7e6-6fcd-43fd-9958-98088267d624"},"vehicle_type_id":"4","last_reported":1719169617,"current_range_meters":0,"station_id":"ce4bh012rcd13ifvqd00","pricing_plan_id":"cebpf4jnsgd1na2vs0mg"},{"bike_id":"0542475a-dd07-4da0-b916-2f1f26f81ea2","system_id":"levelo_inurba_marseille","lat":43.316821,"lon":5.404737,"is_reserved":false,"is_disabled":false,"rental_uris":{"android":"levelo://app?vid=0542475a-dd07-4da0-b916-2f1f26f81ea2","ios":"levelo://app?vid=0542475a-dd07-4da0-b916-2f1f26f81ea2"},"vehicle_type_id":"4","last_reported":1719169617,"current_range_meters":18400,"station_id":"ce4bh012rcd13ifvqd00","pricing_plan_id":"cebpf4jnsgd1na2vs0mg"},{"bike_id":"b1d4193b-958a-42d6-9e53-f0bd00a6a3d4","system_id":"levelo_inurba_marseille","lat":43.291994,"lon":5.392907,"is_reserved":false,"is_disabled":false,"rental_uris":{"android":"levelo://app?vid=b1d4193b-958a-42d6-9e53-f0bd00a6a3d4","ios":"levelo://app?vid=b1d4193b-958a-42d6-9e53-f0bd00a6a3d4"},"vehicle_type_id":"4","last_reported":1719169617,"current_range_meters":26400,"station_id":"ce4bh192rcd13ifvqdd0","pricing_plan_id":"cebpf4jnsgd1na2vs0mg"},{"bike_id":"3dd6c79b-c99e-46db-9e5f-8bc80cfb3df8","system_id":"levelo_inurba_marseille","lat":43.291994,"lon":5.392907,"is_reserved":false,"is_disabled":false,"rental_uris":{"android":"levelo://app?vid=3dd6c79b-c99e-46db-9e5f-8bc80cfb3df8","ios":"levelo://app?vid=3dd6c79b-c99e-46db-9e5f-8bc80cfb3df8"},"vehicle_type_id":"4","last_reported":1719169617,"current_range_meters":11600,"station_id":"ce4bh192rcd13ifvqdd0","pricing_plan_id":"cebpf4jnsgd1na2vs0mg"},{"bike_id":"ce23a1cf-88af-4250-889d-88d2bd8723c3","system_id":"levelo_inurba_marseille","lat":43.291994,"lon":5.392907,"is_reserved":false,"is_disabled":false,"rental_uris":{"android":"levelo://app?vid=ce23a1cf-88af-4250-889d-88d2bd8723c3","ios":"levelo://app?vid=ce23a1cf-88af-4250-889d-88d2bd8723c3"},"vehicle_type_id":"4","last_reported":1719169617,"current_range_meters":0,"station_id":"ce4bh192rcd13ifvqdd0","pricing_plan_id":"cebpf4jnsgd1na2vs0mg"},{"bike_id":"ce3fb400-4a29-4573-a6e5-87dadd14806f","system_id":"levelo_inurba_marseille","lat":43.291994,"lon":5.392907,"is_reserved":false,"is_disabled":false,"rental_uris":{"android":"levelo://app?vid=ce3fb400-4a29-4573-a6e5-87dadd14806f","ios":"levelo://app?vid=ce3fb400-4a29-4573-a6e5-87dadd14806f"},"vehicle_type_id":"4","last_reported":1719169617,"current_range_meters":9200,"station_id":"ce4bh192rcd13ifvqdd0","pricing_plan_id":"cebpf4jnsgd1na2vs0mg"},{"bike_id":"269ea922-2f01-4995-8eed-4df310489333","system_id":"levelo_inurba_marseille","lat":43.284538,"lon":5.358657,"is_reserved":false,"is_disabled":false,"rental_uris":{"android":"levelo://app?vid=269ea922-2f01-4995-8eed-4df310489333","ios":"levelo://app?vid=269ea922-2f01-4995-8eed-4df310489333"},"vehicle_type_id":"4","last_reported":1719169617,"current_range_meters":2400,"station_id":"ce4bhah2rcd13ifvqei0","pricing_plan_id":"cebpf4jnsgd1na2vs0mg"},{"bike_id":"7e2d718b-612b-4fd9-812c-5123e63ed9af","system_id":"levelo_inurba_marseille","lat":43.294314,"lon":5.397498,"is_reserved":false,"is_disabled":false,"rental_uris":{"android":"levelo://app?vid=7e2d718b-612b-4fd9-812c-5123e63ed9af","ios":"levelo://app?vid=7e2d718b-612b-4fd9-812c-5123e63ed9af"},"vehicle_type_id":"4","last_reported":1719169617,"current_range_meters":4800,"station_id":"ce4bh3h2rcd13ifvqdo0","pricing_plan_id":"cebpf4jnsgd1na2vs0mg"},{"bike_id":"caef7251-4167-4bd1-823c-7883c79c863b","system_id":"levelo_inurba_marseille","lat":43.284555,"lon":5.358927,"is_reserved":false,"is_disabled":false,"rental_uris":{"android":"levelo://app?vid=caef7251-4167-4bd1-823c-7883c79c863b","ios":"levelo://app?vid=caef7251-4167-4bd1-823c-7883c79c863b"},"vehicle_type_id":"4","last_reported":1719169617,"current_range_meters":0,"station_id":"ce4bhah2rcd13ifvqei0","pricing_plan_id":"cebpf4jnsgd1na2vs0mg"},{"bike_id":"51a32467-622a-43e1-ba84-844fc0a15843","system_id":"levelo_inurba_marseille","lat":43.283998,"lon":5.375062,"is_reserved":false,"is_disabled":false,"rental_uris":{"android":"levelo://app?vid=51a32467-622a-43e1-ba84-844fc0a15843","ios":"levelo://app?vid=51a32467-622a-43e1-ba84-844fc0a15843"},"vehicle_type_id":"4","last_reported":1719169617,"current_range_meters":2000,"station_id":"ce4bh412rcd13ifvqds0","pricing_plan_id":"cebpf4jnsgd1na2vs0mg"},{"bike_id":"202be72d-54dc-4578-9d8a-17aa075a4fb3","system_id":"levelo_inurba_marseille","lat":43.283998,"lon":5.375062,"is_reserved":false,"is_disabled":false,"rental_uris":{"android":"levelo://app?vid=202be72d-54dc-4578-9d8a-17aa075a4fb3","ios":"levelo://app?vid=202be72d-54dc-4578-9d8a-17aa075a4fb3"},"vehicle_type_id":"4","last_reported":1719169617,"current_range_meters":3200,"station_id":"ce4bh412rcd13ifvqds0","pricing_plan_id":"cebpf4jnsgd1na2vs0mg"},{"bike_id":"8894cc2a-6009-462f-8aec-956a27bbab09","system_id":"levelo_inurba_marseille","lat":43.283998,"lon":5.375062,"is_reserved":false,"is_disabled":false,"rental_uris":{"android":"levelo://app?vid=8894cc2a-6009-462f-8aec-956a27bbab09","ios":"levelo://app?vid=8894cc2a-6009-462f-8aec-956a27bbab09"},"vehicle_type_id":"4","last_reported":1719169617,"current_range_meters":1200,"station_id":"ce4bh412rcd13ifvqds0","pricing_plan_id":"cebpf4jnsgd1na2vs0mg"},{"bike_id":"66d1c239-32f2-4c42-a8e5-d4933a7ea77b","system_id":"levelo_inurba_marseille","lat":43.295713,"lon":5.399639,"is_reserved":false,"is_disabled":false,"rental_uris":{"android":"levelo://app?vid=66d1c239-32f2-4c42-a8e5-d4933a7ea77b","ios":"levelo://app?vid=66d1c239-32f2-4c42-a8e5-d4933a7ea77b"},"vehicle_type_id":"4","last_reported":1719169617,"current_range_meters":6000,"station_id":"ce4bh312rcd13ifvqdj0","pricing_plan_id":"cebpf4jnsgd1na2vs0mg"},{"bike_id":"fc6c337a-9008-4193-b57e-20346d61fc48","system_id":"levelo_inurba_marseille","lat":43.286595,"lon":5.386795,"is_reserved":false,"is_disabled":false,"rental_uris":{"android":"levelo://app?vid=fc6c337a-9008-4193-b57e-20346d61fc48","ios":"levelo://app?vid=fc6c337a-9008-4193-b57e-20346d61fc48"},"vehicle_type_id":"4","last_reported":1719169617,"current_range_meters":2000,"station_id":"ce4bh492rcd13ifvqdug","pricing_plan_id":"cebpf4jnsgd1na2vs0mg"},{"bike_id":"7bad6efb-8730-48d4-bec3-ed7ebb58c608","system_id":"levelo_inurba_marseille","lat":43.286595,"lon":5.386795,"is_reserved":false,"is_disabled":false,"rental_uris":{"android":"levelo://app?vid=7bad6efb-8730-48d4-bec3-ed7ebb58c608","ios":"levelo://app?vid=7bad6efb-8730-48d4-bec3-ed7ebb58c608"},"vehicle_type_id":"4","last_reported":1719169617,"current_range_meters":17200,"station_id":"ce4bh492rcd13ifvqdug","pricing_plan_id":"cebpf4jnsgd1na2vs0mg"},{"bike_id":"a33d6a8d-2166-4f40-ac27-25c0b3425a61","system_id":"levelo_inurba_marseille","lat":43.286595,"lon":5.386795,"is_reserved":false,"is_disabled":false,"rental_uris":{"android":"levelo://app?vid=a33d6a8d-2166-4f40-ac27-25c0b3425a61","ios":"levelo://app?vid=a33d6a8d-2166-4f40-ac27-25c0b3425a61"},"vehicle_type_id":"4","last_reported":1719169617,"current_range_meters":1600,"station_id":"ce4bh492rcd13ifvqdug","pricing_plan_id":"cebpf4jnsgd1na2vs0mg"},{"bike_id":"0e974e86-d3ac-411b-80c8-2ca262379aeb","system_id":"levelo_inurba_marseille","lat":43.2947,"lon":5.40027,"is_reserved":false,"is_disabled":false,"rental_uris":{"android":"levelo://app?vid=0e974e86-d3ac-411b-80c8-2ca262379aeb","ios":"levelo://app?vid=0e974e86-d3ac-411b-80c8-2ca262379aeb"},"vehicle_type_id":"4","last_reported":1719169617,"current_range_meters":23200,"station_id":"","pricing_plan_id":"cebpf4jnsgd1na2vs0mg"},{"bike_id":"f206fcde-c34e-4808-9453-c4a2983e2dd6","system_id":"levelo_inurba_marseille","lat":43.29472,"lon":5.40033,"is_reserved":false,"is_disabled":false,"rental_uris":{"android":"levelo://app?vid=f206fcde-c34e-4808-9453-c4a2983e2dd6","ios":"levelo://app?vid=f206fcde-c34e-4808-9453-c4a2983e2dd6"},"vehicle_type_id":"4","last_reported":1719169617,"current_range_meters":25600,"station_id":"","pricing_plan_id":"cebpf4jnsgd1na2vs0mg"},{"bike_id":"f3afbcfa-fef5-4566-b335-b95d65d96a32","system_id":"levelo_inurba_marseille","lat":43.337246,"lon":5.391844,"is_reserved":false,"is_disabled":false,"rental_uris":{"android":"levelo://app?vid=f3afbcfa-fef5-4566-b335-b95d65d96a32","ios":"levelo://app?vid=f3afbcfa-fef5-4566-b335-b95d65d96a32"},"vehicle_type_id":"4","last_reported":1719169617,"current_range_meters":0,"station_id":"ce4bhr92rcd13ifvqhsg","pricing_plan_id":"cebpf4jnsgd1na2vs0mg"},{"bike_id":"cbca4817-05d6-4e90-b3e2-1a3f71c68569","system_id":"levelo_inurba_marseille","lat":43.282503,"lon":5.372667,"is_reserved":false,"is_disabled":false,"rental_uris":{"android":"levelo://app?vid=cbca4817-05d6-4e90-b3e2-1a3f71c68569","ios":"levelo://app?vid=cbca4817-05d6-4e90-b3e2-1a3f71c68569"},"vehicle_type_id":"4","last_reported":1719169617,"current_range_meters":18400,"station_id":"","pricing_plan_id":"cebpf4jnsgd1na2vs0mg"},{"bike_id":"f48b461e-6a6d-4e82-a4d7-9c2b881b81f8","system_id":"levelo_inurba_marseille","lat":43.30988,"lon":5.4088,"is_reserved":false,"is_disabled":false,"rental_uris":{"android":"levelo://app?vid=f48b461e-6a6d-4e82-a4d7-9c2b881b81f8","ios":"levelo://app?vid=f48b461e-6a6d-4e82-a4d7-9c2b881b81f8"},"vehicle_type_id":"4","last_reported":1719169617,"current_range_meters":10800,"station_id":"","pricing_plan_id":"cebpf4jnsgd1na2vs0mg"},{"bike_id":"43dd4327-679f-4177-abd3-25e940771994","system_id":"levelo_inurba_marseille","lat":43.284793,"lon":5.384113,"is_reserved":false,"is_disabled":false,"rental_uris":{"android":"levelo://app?vid=43dd4327-679f-4177-abd3-25e940771994","ios":"levelo://app?vid=43dd4327-679f-4177-abd3-25e940771994"},"vehicle_type_id":"4","last_reported":1719169617,"current_range_meters":5200,"station_id":"ce4bh512rcd13ifvqe3g","pricing_plan_id":"cebpf4jnsgd1na2vs0mg"},{"bike_id":"bad98db0-213e-414d-8a64-8eca27946c70","system_id":"levelo_inurba_marseille","lat":43.284793,"lon":5.384119,"is_reserved":false,"is_disabled":false,"rental_uris":{"android":"levelo://app?vid=bad98db0-213e-414d-8a64-8eca27946c70","ios":"levelo://app?vid=bad98db0-213e-414d-8a64-8eca27946c70"},"vehicle_type_id":"4","last_reported":1719169617,"current_range_meters":0,"station_id":"ce4bh512rcd13ifvqe3g","pricing_plan_id":"cebpf4jnsgd1na2vs0mg"},{"bike_id":"39aff82e-23de-470d-ab87-3760ece1db3a","system_id":"levelo_inurba_marseille","lat":43.29795,"lon":5.404086,"is_reserved":false,"is_disabled":false,"rental_uris":{"android":"levelo://app?vid=39aff82e-23de-470d-ab87-3760ece1db3a","ios":"levelo://app?vid=39aff82e-23de-470d-ab87-3760ece1db3a"},"vehicle_type_id":"4","last_reported":1719169617,"current_range_meters":3200,"station_id":"ce4bh112rcd13ifvqd90","pricing_plan_id":"cebpf4jnsgd1na2vs0mg"},{"bike_id":"f1696fd5-5b99-452b-a0cd-43504d17497c","system_id":"levelo_inurba_marseille","lat":43.288497,"lon":5.393089,"is_reserved":false,"is_disabled":false,"rental_uris":{"android":"levelo://app?vid=f1696fd5-5b99-452b-a0cd-43504d17497c","ios":"levelo://app?vid=f1696fd5-5b99-452b-a0cd-43504d17497c"},"vehicle_type_id":"4","last_reported":1719169617,"current_range_meters":26400,"station_id":"ce4bh2p2rcd13ifvqdi0","pricing_plan_id":"cebpf4jnsgd1na2vs0mg"},{"bike_id":"2f38e49f-a592-49b7-996c-8a03dd2f0372","system_id":"levelo_inurba_marseille","lat":43.288497,"lon":5.393089,"is_reserved":false,"is_disabled":false,"rental_uris":{"android":"levelo://app?vid=2f38e49f-a592-49b7-996c-8a03dd2f0372","ios":"levelo://app?vid=2f38e49f-a592-49b7-996c-8a03dd2f0372"},"vehicle_type_id":"4","last_reported":1719169617,"current_range_meters":6000,"station_id":"ce4bh2p2rcd13ifvqdi0","pricing_plan_id":"cebpf4jnsgd1na2vs0mg"},{"bike_id":"13795500-0221-40f4-9f6d-a0e174ce01c0","system_id":"levelo_inurba_marseille","lat":43.283494,"lon":5.380945,"is_reserved":false,"is_disabled":false,"rental_uris":{"android":"levelo://app?vid=13795500-0221-40f4-9f6d-a0e174ce01c0","ios":"levelo://app?vid=13795500-0221-40f4-9f6d-a0e174ce01c0"},"vehicle_type_id":"4","last_reported":1719169617,"current_range_meters":9600,"station_id":"ce4bh412rcd13ifvqdr0","pricing_plan_id":"cebpf4jnsgd1na2vs0mg"},{"bike_id":"e0cff85e-09f7-48a8-8d48-93e2b5069b7f","system_id":"levelo_inurba_marseille","lat":43.288501,"lon":5.393087,"is_reserved":false,"is_disabled":false,"rental_uris":{"android":"levelo://app?vid=e0cff85e-09f7-48a8-8d48-93e2b5069b7f","ios":"levelo://app?vid=e0cff85e-09f7-48a8-8d48-93e2b5069b7f"},"vehicle_type_id":"4","last_reported":1719169617,"current_range_meters":0,"station_id":"ce4bh2p2rcd13ifvqdi0","pricing_plan_id":"cebpf4jnsgd1na2vs0mg"},{"bike_id":"9d617d69-d3b8-40a3-8cb7-14f25fedae33","system_id":"levelo_inurba_marseille","lat":43.284219,"lon":5.3497,"is_reserved":false,"is_disabled":false,"rental_uris":{"android":"levelo://app?vid=9d617d69-d3b8-40a3-8cb7-14f25fedae33","ios":"levelo://app?vid=9d617d69-d3b8-40a3-8cb7-14f25fedae33"},"vehicle_type_id":"4","last_reported":1719169617,"current_range_meters":31200,"station_id":"ce4bhbh2rcd13ifvqepg","pricing_plan_id":"cebpf4jnsgd1na2vs0mg"},{"bike_id":"524b4132-cd86-4026-a21f-91c3dc7d9ed0","system_id":"levelo_inurba_marseille","lat":43.289363,"lon":5.396322,"is_reserved":false,"is_disabled":false,"rental_uris":{"android":"levelo://app?vid=524b4132-cd86-4026-a21f-91c3dc7d9ed0","ios":"levelo://app?vid=524b4132-cd86-4026-a21f-91c3dc7d9ed0"},"vehicle_type_id":"4","last_reported":1719169617,"current_range_meters":14000,"station_id":"ce4bh3h2rcd13ifvqdn0","pricing_plan_id":"cebpf4jnsgd1na2vs0mg"},{"bike_id":"5cdc3d8a-1f06-4a9c-93e9-495e5e8a8658","system_id":"levelo_inurba_marseille","lat":43.292724,"lon":5.401131,"is_reserved":false,"is_disabled":false,"rental_uris":{"android":"levelo://app?vid=5cdc3d8a-1f06-4a9c-93e9-495e5e8a8658","ios":"levelo://app?vid=5cdc3d8a-1f06-4a9c-93e9-495e5e8a8658"},"vehicle_type_id":"4","last_reported":1719169617,"current_range_meters":0,"station_id":"ce4bh312rcd13ifvqdk0","pricing_plan_id":"cebpf4jnsgd1na2vs0mg"},{"bike_id":"34594a0d-8416-498b-b492-51ff77de2943","system_id":"levelo_inurba_marseille","lat":43.292724,"lon":5.401131,"is_reserved":false,"is_disabled":false,"rental_uris":{"android":"levelo://app?vid=34594a0d-8416-498b-b492-51ff77de2943","ios":"levelo://app?vid=34594a0d-8416-498b-b492-51ff77de2943"},"vehicle_type_id":"4","last_reported":1719169617,"current_range_meters":0,"station_id":"ce4bh312rcd13ifvqdk0","pricing_plan_id":"cebpf4jnsgd1na2vs0mg"},{"bike_id":"9e23eaf1-db1f-41a1-a6ef-66e62e0a5024","system_id":"levelo_inurba_marseille","lat":43.34177,"lon":5.38563,"is_reserved":false,"is_disabled":false,"rental_uris":{"android":"levelo://app?vid=9e23eaf1-db1f-41a1-a6ef-66e62e0a5024","ios":"levelo://app?vid=9e23eaf1-db1f-41a1-a6ef-66e62e0a5024"},"vehicle_type_id":"4","last_reported":1719169617,"current_range_meters":23600,"station_id":"","pricing_plan_id":"cebpf4jnsgd1na2vs0mg"},{"bike_id":"7eafea6d-724d-4ae1-a074-64e3d913cb3e","system_id":"levelo_inurba_marseille","lat":43.283502,"lon":5.386471,"is_reserved":false,"is_disabled":false,"rental_uris":{"android":"levelo://app?vid=7eafea6d-724d-4ae1-a074-64e3d913cb3e","ios":"levelo://app?vid=7eafea6d-724d-4ae1-a074-64e3d913cb3e"},"vehicle_type_id":"4","last_reported":1719169617,"current_range_meters":21200,"station_id":"ce4bh492rcd13ifvqdvg","pricing_plan_id":"cebpf4jnsgd1na2vs0mg"},{"bike_id":"122fbf87-e6c3-43dd-a63a-711e96de1a74","system_id":"levelo_inurba_marseille","lat":43.287154,"lon":5.399979,"is_reserved":false,"is_disabled":false,"rental_uris":{"android":"levelo://app?vid=122fbf87-e6c3-43dd-a63a-711e96de1a74","ios":"levelo://app?vid=122fbf87-e6c3-43dd-a63a-711e96de1a74"},"vehicle_type_id":"4","last_reported":1719169617,"current_range_meters":19600,"station_id":"ce4bho92rcd13ifvqh3g","pricing_plan_id":"cebpf4jnsgd1na2vs0mg"},{"bike_id":"b58fc9d7-8508-4c00-81fb-6ea87e780deb","system_id":"levelo_inurba_marseille","lat":43.282744,"lon":5.350533,"is_reserved":false,"is_disabled":false,"rental_uris":{"android":"levelo://app?vid=b58fc9d7-8508-4c00-81fb-6ea87e780deb","ios":"levelo://app?vid=b58fc9d7-8508-4c00-81fb-6ea87e780deb"},"vehicle_type_id":"4","last_reported":1719169617,"current_range_meters":0,"station_id":"ce4bhbp2rcd13ifvqerg","pricing_plan_id":"cebpf4jnsgd1na2vs0mg"},{"bike_id":"a865ad5e-9a14-454f-8035-cf3156a36d86","system_id":"levelo_inurba_marseille","lat":43.28261,"lon":5.35047,"is_reserved":false,"is_disabled":false,"rental_uris":{"android":"levelo://app?vid=a865ad5e-9a14-454f-8035-cf3156a36d86","ios":"levelo://app?vid=a865ad5e-9a14-454f-8035-cf3156a36d86"},"vehicle_type_id":"4","last_reported":1719169617,"current_range_meters":25600,"station_id":"ce4bhbp2rcd13ifvqerg","pricing_plan_id":"cebpf4jnsgd1na2vs0mg"},{"bike_id":"0179cd1b-333f-4c44-b2fb-e1895f08099f","system_id":"levelo_inurba_marseille","lat":43.28039,"lon":5.369297,"is_reserved":false,"is_disabled":false,"rental_uris":{"android":"levelo://app?vid=0179cd1b-333f-4c44-b2fb-e1895f08099f","ios":"levelo://app?vid=0179cd1b-333f-4c44-b2fb-e1895f08099f"},"vehicle_type_id":"4","last_reported":1719169617,"current_range_meters":7600,"station_id":"ce4bha12rcd13ifvqef0","pricing_plan_id":"cebpf4jnsgd1na2vs0mg"},{"bike_id":"730a609d-d10a-471e-be7a-05beb702de00","system_id":"levelo_inurba_marseille","lat":43.29041,"lon":5.39971,"is_reserved":false,"is_disabled":false,"rental_uris":{"android":"levelo://app?vid=730a609d-d10a-471e-be7a-05beb702de00","ios":"levelo://app?vid=730a609d-d10a-471e-be7a-05beb702de00"},"vehicle_type_id":"4","last_reported":1719169617,"current_range_meters":20400,"station_id":"ce4bh392rcd13ifvqdm0","pricing_plan_id":"cebpf4jnsgd1na2vs0mg"},{"bike_id":"0de6520d-93f6-4018-8bcb-801fd4978d81","system_id":"levelo_inurba_marseille","lat":43.290412,"lon":5.399633,"is_reserved":false,"is_disabled":false,"rental_uris":{"android":"levelo://app?vid=0de6520d-93f6-4018-8bcb-801fd4978d81","ios":"levelo://app?vid=0de6520d-93f6-4018-8bcb-801fd4978d81"},"vehicle_type_id":"4","last_reported":1719169617,"current_range_meters":27200,"station_id":"ce4bh392rcd13ifvqdm0","pricing_plan_id":"cebpf4jnsgd1na2vs0mg"},{"bike_id":"575a1a12-80db-4f9f-87d7-25427e117846","system_id":"levelo_inurba_marseille","lat":43.281044,"lon":5.378308,"is_reserved":false,"is_disabled":false,"rental_uris":{"android":"levelo://app?vid=575a1a12-80db-4f9f-87d7-25427e117846","ios":"levelo://app?vid=575a1a12-80db-4f9f-87d7-25427e117846"},"vehicle_type_id":"4","last_reported":1719169617,"current_range_meters":0,"station_id":"ce4bha12rcd13ifvqee0","pricing_plan_id":"cebpf4jnsgd1na2vs0mg"},{"bike_id":"565285cb-b8d5-40f2-a597-aa6f73231c09","system_id":"levelo_inurba_marseille","lat":43.281044,"lon":5.378308,"is_reserved":false,"is_disabled":false,"rental_uris":{"android":"levelo://app?vid=565285cb-b8d5-40f2-a597-aa6f73231c09","ios":"levelo://app?vid=565285cb-b8d5-40f2-a597-aa6f73231c09"},"vehicle_type_id":"4","last_reported":1719169617,"current_range_meters":27200,"station_id":"ce4bha12rcd13ifvqee0","pricing_plan_id":"cebpf4jnsgd1na2vs0mg"},{"bike_id":"9e9c1890-4cf9-47aa-be2f-c0ee0cad9564","system_id":"levelo_inurba_marseille","lat":43.296263,"lon":5.40601,"is_reserved":false,"is_disabled":false,"rental_uris":{"android":"levelo://app?vid=9e9c1890-4cf9-47aa-be2f-c0ee0cad9564","ios":"levelo://app?vid=9e9c1890-4cf9-47aa-be2f-c0ee0cad9564"},"vehicle_type_id":"4","last_reported":1719169617,"current_range_meters":25200,"station_id":"ce4bh0h2rcd13ifvqd60","pricing_plan_id":"cebpf4jnsgd1na2vs0mg"},{"bike_id":"469e3492-d05a-42ba-8009-c18b4cd35e61","system_id":"levelo_inurba_marseille","lat":43.284462,"lon":5.392121,"is_reserved":false,"is_disabled":false,"rental_uris":{"android":"levelo://app?vid=469e3492-d05a-42ba-8009-c18b4cd35e61","ios":"levelo://app?vid=469e3492-d05a-42ba-8009-c18b4cd35e61"},"vehicle_type_id":"4","last_reported":1719169617,"current_range_meters":13600,"station_id":"ce4bhoh2rcd13ifvqh5g","pricing_plan_id":"cebpf4jnsgd1na2vs0mg"},{"bike_id":"3122b0b1-0a5e-4e3f-a70e-6e879bc74fc7","system_id":"levelo_inurba_marseille","lat":43.285742,"lon":5.395004,"is_reserved":false,"is_disabled":false,"rental_uris":{"android":"levelo://app?vid=3122b0b1-0a5e-4e3f-a70e-6e879bc74fc7","ios":"levelo://app?vid=3122b0b1-0a5e-4e3f-a70e-6e879bc74fc7"},"vehicle_type_id":"4","last_reported":1719169617,"current_range_meters":19600,"station_id":"ce4bh292rcd13ifvqdg0","pricing_plan_id":"cebpf4jnsgd1na2vs0mg"},{"bike_id":"5746858b-4677-45e1-b222-505eb40b9ecf","system_id":"levelo_inurba_marseille","lat":43.28573,"lon":5.394992,"is_reserved":false,"is_disabled":false,"rental_uris":{"android":"levelo://app?vid=5746858b-4677-45e1-b222-505eb40b9ecf","ios":"levelo://app?vid=5746858b-4677-45e1-b222-505eb40b9ecf"},"vehicle_type_id":"4","last_reported":1719169617,"current_range_meters":0,"station_id":"ce4bh292rcd13ifvqdg0","pricing_plan_id":"cebpf4jnsgd1na2vs0mg"},{"bike_id":"3673c04b-2d78-4e8d-83c9-9dfef58df536","system_id":"levelo_inurba_marseille","lat":43.32656,"lon":5.40987,"is_reserved":false,"is_disabled":false,"rental_uris":{"android":"levelo://app?vid=3673c04b-2d78-4e8d-83c9-9dfef58df536","ios":"levelo://app?vid=3673c04b-2d78-4e8d-83c9-9dfef58df536"},"vehicle_type_id":"4","last_reported":1719169617,"current_range_meters":4000,"station_id":"ce4bhpp2rcd13ifvqhgg","pricing_plan_id":"cebpf4jnsgd1na2vs0mg"},{"bike_id":"17f1fe2c-9c9e-49d7-8ae6-2d23a58e47c6","system_id":"levelo_inurba_marseille","lat":43.326605,"lon":5.409903,"is_reserved":false,"is_disabled":false,"rental_uris":{"android":"levelo://app?vid=17f1fe2c-9c9e-49d7-8ae6-2d23a58e47c6","ios":"levelo://app?vid=17f1fe2c-9c9e-49d7-8ae6-2d23a58e47c6"},"vehicle_type_id":"4","last_reported":1719169617,"current_range_meters":24000,"station_id":"ce4bhpp2rcd13ifvqhgg","pricing_plan_id":"cebpf4jnsgd1na2vs0mg"},{"bike_id":"61ee56cb-94c4-4853-b877-794351e39aa7","system_id":"levelo_inurba_marseille","lat":43.326605,"lon":5.409903,"is_reserved":false,"is_disabled":false,"rental_uris":{"android":"levelo://app?vid=61ee56cb-94c4-4853-b877-794351e39aa7","ios":"levelo://app?vid=61ee56cb-94c4-4853-b877-794351e39aa7"},"vehicle_type_id":"4","last_reported":1719169617,"current_range_meters":30800,"station_id":"ce4bhpp2rcd13ifvqhgg","pricing_plan_id":"cebpf4jnsgd1na2vs0mg"},{"bike_id":"26d34680-5b21-4d25-a7d6-73b22a2b0083","system_id":"levelo_inurba_marseille","lat":43.326605,"lon":5.409903,"is_reserved":false,"is_disabled":false,"rental_uris":{"android":"levelo://app?vid=26d34680-5b21-4d25-a7d6-73b22a2b0083","ios":"levelo://app?vid=26d34680-5b21-4d25-a7d6-73b22a2b0083"},"vehicle_type_id":"4","last_reported":1719169617,"current_range_meters":800,"station_id":"ce4bhpp2rcd13ifvqhgg","pricing_plan_id":"cebpf4jnsgd1na2vs0mg"},{"bike_id":"a588babb-30c2-46da-8345-72262916692f","system_id":"levelo_inurba_marseille","lat":43.326605,"lon":5.409903,"is_reserved":false,"is_disabled":false,"rental_uris":{"android":"levelo://app?vid=a588babb-30c2-46da-8345-72262916692f","ios":"levelo://app?vid=a588babb-30c2-46da-8345-72262916692f"},"vehicle_type_id":"4","last_reported":1719169617,"current_range_meters":8800,"station_id":"ce4bhpp2rcd13ifvqhgg","pricing_plan_id":"cebpf4jnsgd1na2vs0mg"},{"bike_id":"4dcefb99-4e28-453d-9e0a-72ede94001d0","system_id":"levelo_inurba_marseille","lat":43.326605,"lon":5.409903,"is_reserved":false,"is_disabled":false,"rental_uris":{"android":"levelo://app?vid=4dcefb99-4e28-453d-9e0a-72ede94001d0","ios":"levelo://app?vid=4dcefb99-4e28-453d-9e0a-72ede94001d0"},"vehicle_type_id":"4","last_reported":1719169617,"current_range_meters":4800,"station_id":"ce4bhpp2rcd13ifvqhgg","pricing_plan_id":"cebpf4jnsgd1na2vs0mg"},{"bike_id":"89134d7c-7e69-482a-ae43-8577709572e4","system_id":"levelo_inurba_marseille","lat":43.326605,"lon":5.409903,"is_reserved":false,"is_disabled":false,"rental_uris":{"android":"levelo://app?vid=89134d7c-7e69-482a-ae43-8577709572e4","ios":"levelo://app?vid=89134d7c-7e69-482a-ae43-8577709572e4"},"vehicle_type_id":"4","last_reported":1719169617,"current_range_meters":22400,"station_id":"ce4bhpp2rcd13ifvqhgg","pricing_plan_id":"cebpf4jnsgd1na2vs0mg"},{"bike_id":"7180e1f3-97a7-4a41-aece-23c7d3a7af40","system_id":"levelo_inurba_marseille","lat":43.304188,"lon":5.412904,"is_reserved":false,"is_disabled":false,"rental_uris":{"android":"levelo://app?vid=7180e1f3-97a7-4a41-aece-23c7d3a7af40","ios":"levelo://app?vid=7180e1f3-97a7-4a41-aece-23c7d3a7af40"},"vehicle_type_id":"4","last_reported":1719169617,"current_range_meters":16400,"station_id":"ce4bhop2rcd13ifvqh8g","pricing_plan_id":"cebpf4jnsgd1na2vs0mg"},{"bike_id":"beaddcaa-f231-4ced-8021-f2129da4fc6d","system_id":"levelo_inurba_marseille","lat":43.3042,"lon":5.41284,"is_reserved":false,"is_disabled":false,"rental_uris":{"android":"levelo://app?vid=beaddcaa-f231-4ced-8021-f2129da4fc6d","ios":"levelo://app?vid=beaddcaa-f231-4ced-8021-f2129da4fc6d"},"vehicle_type_id":"4","last_reported":1719169617,"current_range_meters":27600,"station_id":"ce4bhop2rcd13ifvqh8g","pricing_plan_id":"cebpf4jnsgd1na2vs0mg"},{"bike_id":"1397ed1d-4bdb-4d9c-a94a-6ebcf2a6f5aa","system_id":"levelo_inurba_marseille","lat":43.279087,"lon":5.380114,"is_reserved":false,"is_disabled":false,"rental_uris":{"android":"levelo://app?vid=1397ed1d-4bdb-4d9c-a94a-6ebcf2a6f5aa","ios":"levelo://app?vid=1397ed1d-4bdb-4d9c-a94a-6ebcf2a6f5aa"},"vehicle_type_id":"4","last_reported":1719169617,"current_range_meters":800,"station_id":"ce4bhf92rcd13ifvqf50","pricing_plan_id":"cebpf4jnsgd1na2vs0mg"},{"bike_id":"95e6492f-4928-468a-876e-b5417e745e6e","system_id":"levelo_inurba_marseille","lat":43.279087,"lon":5.380114,"is_reserved":false,"is_disabled":false,"rental_uris":{"android":"levelo://app?vid=95e6492f-4928-468a-876e-b5417e745e6e","ios":"levelo://app?vid=95e6492f-4928-468a-876e-b5417e745e6e"},"vehicle_type_id":"4","last_reported":1719169617,"current_range_meters":400,"station_id":"ce4bhf92rcd13ifvqf50","pricing_plan_id":"cebpf4jnsgd1na2vs0mg"},{"bike_id":"44665e83-3379-4818-8530-29a9bf5d0f06","system_id":"levelo_inurba_marseille","lat":43.287154,"lon":5.399979,"is_reserved":false,"is_disabled":false,"rental_uris":{"android":"levelo://app?vid=44665e83-3379-4818-8530-29a9bf5d0f06","ios":"levelo://app?vid=44665e83-3379-4818-8530-29a9bf5d0f06"},"vehicle_type_id":"4","last_reported":1719169617,"current_range_meters":800,"station_id":"ce4bho92rcd13ifvqh3g","pricing_plan_id":"cebpf4jnsgd1na2vs0mg"},{"bike_id":"7f59898c-f59d-4716-8837-3be5ad9542bd","system_id":"levelo_inurba_marseille","lat":43.287154,"lon":5.399979,"is_reserved":false,"is_disabled":false,"rental_uris":{"android":"levelo://app?vid=7f59898c-f59d-4716-8837-3be5ad9542bd","ios":"levelo://app?vid=7f59898c-f59d-4716-8837-3be5ad9542bd"},"vehicle_type_id":"4","last_reported":1719169617,"current_range_meters":7600,"station_id":"ce4bho92rcd13ifvqh3g","pricing_plan_id":"cebpf4jnsgd1na2vs0mg"},