{"last_updated":1718640582,"ttl":30,"version":"2.2","data":{"bikes":[{"bike_id":"3b1bf77f-94f5-4843-9c1f-f5be9db08193","system_id":"levelo_inurba_marseille","lat":43.31509,"lon":5.37123,"is_reserved":false,"is_disabled":false,"rental_uris":{"android":"levelo://app?vid=3b1bf77f-94f5-4843-9c1f-f5be9db08193","ios":"levelo://app?vid=3b1bf77f-94f5-4843-9c1f-f5be9db08193"},"vehicle_type_id":"4","last_reported":1718640582,"current_range_meters":20800,"station_id":"","pricing_plan_id":"cebpf4jnsgd1na2vs0mg"},{"bike_id":"e4aace69-0051-4f50-8ca9-dc406684945c","system_id":"levelo_inurba_marseille","lat":43.31513,"lon":5.37122,"is_reserved":false,"is_disabled":false,"rental_uris":{"android":"levelo://app?vid=e4aace69-0051-4f50-8ca9-dc406684945c","ios":"levelo://app?vid=e4aace69-0051-4f50-8ca9-dc406684945c"},"vehicle_type_id":"4","last_reported":1718640582,"current_range_meters":1600,"station_id":"","pricing_plan_id":"cebpf4jnsgd1na2vs0mg"},{"bike_id":"3b099834-eb92-4bcb-b628-87843b269889","system_id":"levelo_inurba_marseille","lat":43.314811,"lon":5.373104,"is_reserved":false,"is_disabled":false,"rental_uris":{"android":"levelo://app?vid=3b099834-eb92-4bcb-b628-87843b269889","ios":"levelo://app?vid=3b099834-eb92-4bcb-b628-87843b269889"},"vehicle_type_id":"4","last_reported":1718640582,"current_range_meters":12000,"station_id":"ce4bgt12rcd13ifvqcd0","pricing_plan_id":"cebpf4jnsgd1na2vs0mg"},{"bike_id":"5f53fae3-d62d-442c-b37d-c606ddee2315","system_id":"levelo_inurba_marseille","lat":43.314811,"lon":5.373103,"is_reserved":false,"is_disabled":false,"rental_uris":{"android":"levelo://app?vid=5f53fae3-d62d-442c-b37d-c606ddee2315","ios":"levelo://app?vid=5f53fae3-d62d-442c-b37d-c606ddee2315"},"vehicle_type_id":"4","last_reported":1718640582,"current_range_meters":25600,"station_id":"ce4bgt12rcd13ifvqcd0","pricing_plan_id":"cebpf4jnsgd1na2vs0mg"},{"bike_id":"5d6d77d3-4d2e-402d-b41f-7b327e036f1b","system_id":"levelo_inurba_marseille","lat":43.314811,"lon":5.373104,"is_reserved":false,"is_disabled":false,"rental_uris":{"android":"levelo://app?vid=5d6d77d3-4d2e-402d-b41f-7b327e036f1b","ios":"levelo://app?vid=5d6d77d3-4d2e-402d-b41f-7b327e036f1b"},"vehicle_type_id":"4","last_reported":1718640582,"current_range_meters":2400,"station_id":"ce4bgt12rcd13ifvqcd0","pricing_plan_id":"cebpf4jnsgd1na2vs0mg"},{"bike_id":"19fbc8e3-e4c5-46ce-8ac7-41d0314da69e","system_id":"levelo_inurba_marseille","lat":43.314494,"lon":5.373708,"is_reserved":false,"is_disabled":false,"rental_uris":{"android":"levelo://app?vid=19fbc8e3-e4c5-46ce-8ac7-41d0314da69e","ios":"levelo://app?vid=19fbc8e3-e4c5-46ce-8ac7-41d0314da69e"},"vehicle_type_id":"4","last_reported":1718640582,"current_range_meters":29600,"station_id":"","pricing_plan_id":"cebpf4jnsgd1na2vs0mg"},{"bike_id":"270143d2-5b46-4379-861d-fec58bb798db","system_id":"levelo_inurba_marseille","lat":43.314532,"lon":5.373771,"is_reserved":false,"is_disabled":false,"rental_uris":{"android":"levelo://app?vid=270143d2-5b46-4379-861d-fec58bb798db","ios":"levelo://app?vid=270143d2-5b46-4379-861d-fec58bb798db"},"vehicle_type_id":"4","last_reported":1718640582,"current_range_meters":28800,"station_id":"","pricing_plan_id":"cebpf4jnsgd1na2vs0mg"},{"bike_id":"41b092fa-d666-4e61-98ac-44a6a0c11f5f","system_id":"levelo_inurba_marseille","lat":43.30887,"lon":5.372,"is_reserved":false,"is_disabled":false,"rental_uris":{"android":"levelo://app?vid=41b092fa-d666-4e61-98ac-44a6a0c11f5f","ios":"levelo://app?vid=41b092fa-d666-4e61-98ac-44a6a0c11f5f"},"vehicle_type_id":"4","last_reported":1718640582,"current_range_meters":31200,"station_id":"ce4bguh2rcd13ifvqckg","pricing_plan_id":"cebpf4jnsgd1na2vs0mg"},{"bike_id":"02ad2f29-0e8f-46bf-a3e2-ae8b16d1ffed","system_id":"levelo_inurba_marseille","lat":43.309039,"lon":5.371797,"is_reserved":false,"is_disabled":false,"rental_uris":{"android":"levelo://app?vid=02ad2f29-0e8f-46bf-a3e2-ae8b16d1ffed","ios":"levelo://app?vid=02ad2f29-0e8f-46bf-a3e2-ae8b16d1ffed"},"vehicle_type_id":"4","last_reported":1718640582,"current_range_meters":1600,"station_id":"ce4bguh2rcd13ifvqckg","pricing_plan_id":"cebpf4jnsgd1na2vs0mg"},{"bike_id":"800411f3-e60a-42cd-88ae-ebb3c6f6a1f3","system_id":"levelo_inurba_marseille","lat":43.31663,"lon":5.37231,"is_reserved":false,"is_disabled":false,"rental_uris":{"android":"levelo://app?vid=800411f3-e60a-42cd-88ae-ebb3c6f6a1f3","ios":"levelo://app?vid=800411f3-e60a-42cd-88ae-ebb3c6f6a1f3"},"vehicle_type_id":"4","last_reported":1718640582,"current_range_meters":26000,"station_id":"","pricing_plan_id":"cebpf4jnsgd1na2vs0mg"},{"bike_id":"8798742d-c079-44bb-92be-c1e40267c556","system_id":"levelo_inurba_marseille","lat":43.30959,"lon":5.37672,"is_reserved":false,"is_disabled":false,"rental_uris":{"android":"levelo://app?vid=8798742d-c079-44bb-92be-c1e40267c556","ios":"levelo://app?vid=8798742d-c079-44bb-92be-c1e40267c556"},"vehicle_type_id":"4","last_reported":1718640582,"current_range_meters":15200,"station_id":"","pricing_plan_id":"cebpf4jnsgd1na2vs0mg"},{"bike_id":"f9daf10e-4ef3-4413-8ea4-ab1403cfd1cb","system_id":"levelo_inurba_marseille","lat":43.311125,"lon":5.377624,"is_reserved":false,"is_disabled":false,"rental_uris":{"android":"levelo://app?vid=f9daf10e-4ef3-4413-8ea4-ab1403cfd1cb","ios":"levelo://app?vid=f9daf10e-4ef3-4413-8ea4-ab1403cfd1cb"},"vehicle_type_id":"4","last_reported":1718640582,"current_range_meters":15600,"station_id":"ce4bgt92rcd13ifvqcg0","pricing_plan_id":"cebpf4jnsgd1na2vs0mg"},{"bike_id":"53796f03-4370-48ed-acbb-730cad10ddcb","system_id":"levelo_inurba_marseille","lat":43.31116,"lon":5.37768,"is_reserved":false,"is_disabled":false,"rental_uris":{"android":"levelo://app?vid=53796f03-4370-48ed-acbb-730cad10ddcb","ios":"levelo://app?vid=53796f03-4370-48ed-acbb-730cad10ddcb"},"vehicle_type_id":"4","last_reported":1718640582,"current_range_meters":0,"station_id":"ce4bgt92rcd13ifvqcg0","pricing_plan_id":"cebpf4jnsgd1na2vs0mg"},{"bike_id":"92ba4334-9adc-4993-b754-8349fc4ec613","system_id":"levelo_inurba_marseille","lat":43.307945,"lon":5.376487,"is_reserved":false,"is_disabled":false,"rental_uris":{"android":"levelo://app?vid=92ba4334-9adc-4993-b754-8349fc4ec613","ios":"levelo://app?vid=92ba4334-9adc-4993-b754-8349fc4ec613"},"vehicle_type_id":"4","last_reported":1718640582,"current_range_meters":14800,"station_id":"ce4bgv92rcd13ifvqcq0","pricing_plan_id":"cebpf4jnsgd1na2vs0mg"},{"bike_id":"89f2dd91-ec11-4743-82a8-569fefed81aa","system_id":"levelo_inurba_marseille","lat":43.317076,"lon":5.377491,"is_reserved":false,"is_disabled":false,"rental_uris":{"android":"levelo://app?vid=89f2dd91-ec11-4743-82a8-569fefed81aa","ios":"levelo://app?vid=89f2dd91-ec11-4743-82a8-569fefed81aa"},"vehicle_type_id":"4","last_reported":1718640582,"current_range_meters":0,"station_id":"ce4bgth2rcd13ifvqch0","pricing_plan_id":"cebpf4jnsgd1na2vs0mg"},{"bike_id":"fa881071-fb87-46b0-b12e-747b60e310b3","system_id":"levelo_inurba_marseille","lat":43.317075,"lon":5.377367,"is_reserved":false,"is_disabled":false,"rental_uris":{"android":"levelo://app?vid=fa881071-fb87-46b0-b12e-747b60e310b3","ios":"levelo://app?vid=fa881071-fb87-46b0-b12e-747b60e310b3"},"vehicle_type_id":"4","last_reported":1718640582,"current_range_meters":24000,"station_id":"ce4bgth2rcd13ifvqch0","pricing_plan_id":"cebpf4jnsgd1na2vs0mg"},{"bike_id":"a818ea81-fa1a-4a14-842f-d6acb47958f4","system_id":"levelo_inurba_marseille","lat":43.303046,"lon":5.368981,"is_reserved":false,"is_disabled":false,"rental_uris":{"android":"levelo://app?vid=a818ea81-fa1a-4a14-842f-d6acb47958f4","ios":"levelo://app?vid=a818ea81-fa1a-4a14-842f-d6acb47958f4"},"vehicle_type_id":"4","last_reported":1718640582,"current_range_meters":5200,"station_id":"ce4bgqh2rcd13ifvqc5g","pricing_plan_id":"cebpf4jnsgd1na2vs0mg"},{"bike_id":"db37e7db-43bf-4cd3-b75e-5e23f7e8e17c","system_id":"levelo_inurba_marseille","lat":43.309644,"lon":5.379751,"is_reserved":false,"is_disabled":false,"rental_uris":{"android":"levelo://app?vid=db37e7db-43bf-4cd3-b75e-5e23f7e8e17c","ios":"levelo://app?vid=db37e7db-43bf-4cd3-b75e-5e23f7e8e17c"},"vehicle_type_id":"4","last_reported":1718640582,"current_range_meters":0,"station_id":"","pricing_plan_id":"cebpf4jnsgd1na2vs0mg"},{"bike_id":"80bc7b4e-7614-4902-bd39-3e4ae968b756","system_id":"levelo_inurba_marseille","lat":43.301939,"lon":5.366286,"is_reserved":false,"is_disabled":false,"rental_uris":{"android":"levelo://app?vid=80bc7b4e-7614-4902-bd39-3e4ae968b756","ios":"levelo://app?vid=80bc7b4e-7614-4902-bd39-3e4ae968b756"},"vehicle_type_id":"4","last_reported":1718640582,"current_range_meters":19200,"station_id":"ce4bgrh2rcd13ifvqc8g","pricing_plan_id":"cebpf4jnsgd1na2vs0mg"},{"bike_id":"2194b473-ac67-41f2-9c43-8c564e7aadfd","system_id":"levelo_inurba_marseille","lat":43.308012,"lon":5.381511,"is_reserved":false,"is_disabled":false,"rental_uris":{"android":"levelo://app?vid=2194b473-ac67-41f2-9c43-8c564e7aadfd","ios":"levelo://app?vid=2194b473-ac67-41f2-9c43-8c564e7aadfd"},"vehicle_type_id":"4","last_reported":1718640582,"current_range_meters":19600,"station_id":"ce4bgt12rcd13ifvqce0","pricing_plan_id":"cebpf4jnsgd1na2vs0mg"},{"bike_id":"7e1e3b34-4bb9-42a4-93b2-c1f6cdb45766","system_id":"levelo_inurba_marseille","lat":43.324748,"lon":5.365814,"is_reserved":false,"is_disabled":false,"rental_uris":{"android":"levelo://app?vid=7e1e3b34-4bb9-42a4-93b2-c1f6cdb45766","ios":"levelo://app?vid=7e1e3b34-4bb9-42a4-93b2-c1f6cdb45766"},"vehicle_type_id":"4","last_reported":1718640582,"current_range_meters":10400,"station_id":"ce4bhs12rcd13ifvqhvg","pricing_plan_id":"cebpf4jnsgd1na2vs0mg"},{"bike_id":"f4165603-f176-440c-bc04-2cd46c775ce4","system_id":"levelo_inurba_marseille","lat":43.32479,"lon":5.36565,"is_reserved":false,"is_disabled":false,"rental_uris":{"android":"levelo://app?vid=f4165603-f176-440c-bc04-2cd46c775ce4","ios":"levelo://app?vid=f4165603-f176-440c-bc04-2cd46c775ce4"},"vehicle_type_id":"4","last_reported":1718640582,"current_range_meters":1200,"station_id":"ce4bhs12rcd13ifvqhvg","pricing_plan_id":"cebpf4jnsgd1na2vs0mg"},{"bike_id":"be620971-f7f5-4f54-a8cb-329f28ee6e7d","system_id":"levelo_inurba_marseille","lat":43.324771,"lon":5.36557,"is_reserved":false,"is_disabled":false,"rental_uris":{"android":"levelo://app?vid=be620971-f7f5-4f54-a8cb-329f28ee6e7d","ios":"levelo://app?vid=be620971-f7f5-4f54-a8cb-329f28ee6e7d"},"vehicle_type_id":"4","last_reported":1718640582,"current_range_meters":6400,"station_id":"ce4bhs12rcd13ifvqhvg","pricing_plan_id":"cebpf4jnsgd1na2vs0mg"},{"bike_id":"bc5019c1-435c-467c-ac19-71217a906de7","system_id":"levelo_inurba_marseille","lat":43.32483,"lon":5.3657,"is_reserved":false,"is_disabled":false,"rental_uris":{"android":"levelo://app?vid=bc5019c1-435c-467c-ac19-71217a906de7","ios":"levelo://app?vid=bc5019c1-435c-467c-ac19-71217a906de7"},"vehicle_type_id":"4","last_reported":1718640582,"current_range_meters":5200,"station_id":"ce4bhs12rcd13ifvqhvg","pricing_plan_id":"cebpf4jnsgd1na2vs0mg"},{"bike_id":"058df8b7-7894-49d1-b344-c2d7aae5f264","system_id":"levelo_inurba_marseille","lat":43.324852,"lon":5.365815,"is_reserved":false,"is_disabled":false,"rental_uris":{"android":"levelo://app?vid=058df8b7-7894-49d1-b344-c2d7aae5f264","ios":"levelo://app?vid=058df8b7-7894-49d1-b344-c2d7aae5f264"},"vehicle_type_id":"4","last_reported":1718640582,"current_range_meters":8800,"station_id":"ce4bhs12rcd13ifvqhvg","pricing_plan_id":"cebpf4jnsgd1na2vs0mg"},{"bike_id":"a42c4b5b-d2e7-48e0-b1c9-fb00c3fdb384","system_id":"levelo_inurba_marseille","lat":43.32488,"lon":5.36579,"is_reserved":false,"is_disabled":false,"rental_uris":{"android":"levelo://app?vid=a42c4b5b-d2e7-48e0-b1c9-fb00c3fdb384","ios":"levelo://app?vid=a42c4b5b-d2e7-48e0-b1c9-fb00c3fdb384"},"vehicle_type_id":"4","last_reported":1718640582,"current_range_meters":22400,"station_id":"ce4bhs12rcd13ifvqhvg","pricing_plan_id":"cebpf4jnsgd1na2vs0mg"},{"bike_id":"aaeaf643-6abe-43dc-b66d-131f0d099c75","system_id":"levelo_inurba_marseille","lat":43.3249,"lon":5.36569,"is_reserved":false,"is_disabled":false,"rental_uris":{"android":"levelo://app?vid=aaeaf643-6abe-43dc-b66d-131f0d099c75","ios":"levelo://app?vid=aaeaf643-6abe-43dc-b66d-131f0d099c75"},"vehicle_type_id":"4","last_reported":1718640582,"current_range_meters":17600,"station_id":"ce4bhs12rcd13ifvqhvg","pricing_plan_id":"cebpf4jnsgd1na2vs0mg"},{"bike_id":"cfe33654-a06b-46fc-8687-cc0887d82170","system_id":"levelo_inurba_marseille","lat":43.308012,"lon":5.381511,"is_reserved":false,"is_disabled":false,"rental_uris":{"android":"levelo://app?vid=cfe33654-a06b-46fc-8687-cc0887d82170","ios":"levelo://app?vid=cfe33654-a06b-46fc-8687-cc0887d82170"},"vehicle_type_id":"4","last_reported":1718640582,"current_range_meters":28000,"station_id":"ce4bgt12rcd13ifvqce0","pricing_plan_id":"cebpf4jnsgd1na2vs0mg"},{"bike_id":"9efdc1ee-8182-48fa-9be0-b94126864e00","system_id":"levelo_inurba_marseille","lat":43.302784,"lon":5.377158,"is_reserved":false,"is_disabled":false,"rental_uris":{"android":"levelo://app?vid=9efdc1ee-8182-48fa-9be0-b94126864e00","ios":"levelo://app?vid=9efdc1ee-8182-48fa-9be0-b94126864e00"},"vehicle_type_id":"4","last_reported":1718640582,"current_range_meters":0,"station_id":"ce4bguh2rcd13ifvqcj0","pricing_plan_id":"cebpf4jnsgd1na2vs0mg"},{"bike_id":"0407d36a-b35f-4134-aaca-6c804e9fbe9b","system_id":"levelo_inurba_marseille","lat":43.302784,"lon":5.377158,"is_reserved":false,"is_disabled":false,"rental_uris":{"android":"levelo://app?vid=0407d36a-b35f-4134-aaca-6c804e9fbe9b","ios":"levelo://app?vid=0407d36a-b35f-4134-aaca-6c804e9fbe9b"},"vehicle_type_id":"4","last_reported":1718640582,"current_range_meters":6000,"station_id":"ce4bguh2rcd13ifvqcj0","pricing_plan_id":"cebpf4jnsgd1na2vs0mg"},{"bike_id":"b343e621-58bb-4c17-87ba-f1e430b1bf90","system_id":"levelo_inurba_marseille","lat":43.30143,"lon":5.37413,"is_reserved":false,"is_disabled":false,"rental_uris":{"android":"levelo://app?vid=b343e621-58bb-4c17-87ba-f1e430b1bf90","ios":"levelo://app?vid=b343e621-58bb-4c17-87ba-f1e430b1bf90"},"vehicle_type_id":"4","last_reported":1718640582,"current_range_meters":31200,"station_id":"ce4bgs92rcd13ifvqcc0","pricing_plan_id":"cebpf4jnsgd1na2vs0mg"},{"bike_id":"dc555e75-9775-40a4-b969-5833f7f8f1e2","system_id":"levelo_inurba_marseille","lat":43.31989,"lon":5.38137,"is_reserved":false,"is_disabled":false,"rental_uris":{"android":"levelo://app?vid=dc555e75-9775-40a4-b969-5833f7f8f1e2","ios":"levelo://app?vid=dc555e75-9775-40a4-b969-5833f7f8f1e2"},"vehicle_type_id":"4","last_reported":1718640582,"current_range_meters":22800,"station_id":"ce4bhr12rcd13ifvqhpg","pricing_plan_id":"cebpf4jnsgd1na2vs0mg"},{"bike_id":"f1a9596d-d3be-4c80-b32a-0ddee6d4576a","system_id":"levelo_inurba_marseille","lat":43.31998,"lon":5.381527,"is_reserved":false,"is_disabled":false,"rental_uris":{"android":"levelo://app?vid=f1a9596d-d3be-4c80-b32a-0ddee6d4576a","ios":"levelo://app?vid=f1a9596d-d3be-4c80-b32a-0ddee6d4576a"},"vehicle_type_id":"4","last_reported":1718640582,"current_range_meters":23600,"station_id":"ce4bhr12rcd13ifvqhpg","pricing_plan_id":"cebpf4jnsgd1na2vs0mg"},{"bike_id":"f17394e6-d8bf-4304-a80d-6e4d52b7064a","system_id":"levelo_inurba_marseille","lat":43.31997,"lon":5.3816,"is_reserved":false,"is_disabled":false,"rental_uris":{"android":"levelo://app?vid=f17394e6-d8bf-4304-a80d-6e4d52b7064a","ios":"levelo://app?vid=f17394e6-d8bf-4304-a80d-6e4d52b7064a"},"vehicle_type_id":"4","last_reported":1718640582,"current_range_meters":20800,"station_id":"ce4bhr12rcd13ifvqhpg","pricing_plan_id":"cebpf4jnsgd1na2vs0mg"},{"bike_id":"59513307-bfca-42bf-8150-630a93bea98b","system_id":"levelo_inurba_marseille","lat":43.299724,"lon":5.371829,"is_reserved":false,"is_disabled":false,"rental_uris":{"android":"levelo://app?vid=59513307-bfca-42bf-8150-630a93bea98b","ios":"levelo://app?vid=59513307-bfca-42bf-8150-630a93bea98b"},"vehicle_type_id":"4","last_reported":1718640582,"current_range_meters":14800,"station_id":"ce4bgr92rcd13ifvqc7g","pricing_plan_id":"cebpf4jnsgd1na2vs0mg"},{"bike_id":"5d27da80-ea1f-49e7-ace1-ec27045c2f6d","system_id":"levelo_inurba_marseille","lat":43.299724,"lon":5.371829,"is_reserved":false,"is_disabled":false,"rental_uris":{"android":"levelo://app?vid=5d27da80-ea1f-49e7-ace1-ec27045c2f6d","ios":"levelo://app?vid=5d27da80-ea1f-49e7-ace1-ec27045c2f6d"},"vehicle_type_id":"4","last_reported":1718640582,"current_range_meters":6800,"station_id":"ce4bgr92rcd13ifvqc7g","pricing_plan_id":"cebpf4jnsgd1na2vs0mg"},{"bike_id":"49e32c55-54fc-4d65-afbc-3083103f4cbf","system_id":"levelo_inurba_marseille","lat":43.29983,"lon":5.37611,"is_reserved":false,"is_disabled":false,"rental_uris":{"android":"levelo://app?vid=49e32c55-54fc-4d65-afbc-3083103f4cbf","ios":"levelo://app?vid=49e32c55-54fc-4d65-afbc-3083103f4cbf"},"vehicle_type_id":"4","last_reported":1718640582,"current_range_meters":2000,"station_id":"","pricing_plan_id":"cebpf4jnsgd1na2vs0mg"},{"bike_id":"2ea28ead-4d61-4279-9bad-b3a79a480f61","system_id":"levelo_inurba_marseille","lat":43.299253,"lon":5.374677,"is_reserved":false,"is_disabled":false,"rental_uris":{"android":"levelo://app?vid=2ea28ead-4d61-4279-9bad-b3a79a480f61","ios":"levelo://app?vid=2ea28ead-4d61-4279-9bad-b3a79a480f61"},"vehicle_type_id":"4","last_reported":1718640582,"current_range_meters":26800,"station_id":"","pricing_plan_id":"cebpf4jnsgd1na2vs0mg"},{"bike_id":"462fd521-cc7b-4929-98b1-751c573b3514","system_id":"levelo_inurba_marseille","lat":43.305364,"lon":5.384119,"is_reserved":false,"is_disabled":false,"rental_uris":{"android":"levelo://app?vid=462fd521-cc7b-4929-98b1-751c573b3514","ios":"levelo://app?vid=462fd521-cc7b-4929-98b1-751c573b3514"},"vehicle_type_id":"4","last_reported":1718640582,"current_range_meters":5200,"station_id":"ce4bgg92rcd13ifvqb30","pricing_plan_id":"cebpf4jnsgd1na2vs0mg"},{"bike_id":"1de4bdf6-6eb1-42ed-b503-6af41cf657e4","system_id":"levelo_inurba_marseille","lat":43.311722,"lon":5.387247,"is_reserved":false,"is_disabled":false,"rental_uris":{"android":"levelo://app?vid=1de4bdf6-6eb1-42ed-b503-6af41cf657e4","ios":"levelo://app?vid=1de4bdf6-6eb1-42ed-b503-6af41cf657e4"},"vehicle_type_id":"4","last_reported":1718640582,"current_range_meters":0,"station_id":"ce4bgv12rcd13ifvqcp0","pricing_plan_id":"cebpf4jnsgd1na2vs0mg"},{"bike_id":"c2f7929b-e809-4726-bc8c-0ed5577d588f","system_id":"levelo_inurba_marseille","lat":43.2901,"lon":5.381269,"is_reserved":false,"is_disabled":false,"rental_uris":{"android":"levelo://app?vid=c2f7929b-e809-4726-bc8c-0ed5577d588f","ios":"levelo://app?vid=c2f7929b-e809-4726-bc8c-0ed5577d588f"},"vehicle_type_id":"4","last_reported":1718640582,"current_range_meters":0,"station_id":"ce4bh4p2rcd13ifvqe1g","pricing_plan_id":"cebpf4jnsgd1na2vs0mg"},{"bike_id":"32359df7-ef57-4bf6-afc2-1a8e5f2cb6c4","system_id":"levelo_inurba_marseille","lat":43.297163,"lon":5.365866,"is_reserved":false,"is_disabled":false,"rental_uris":{"android":"levelo://app?vid=32359df7-ef57-4bf6-afc2-1a8e5f2cb6c4","ios":"levelo://app?vid=32359df7-ef57-4bf6-afc2-1a8e5f2cb6c4"},"vehicle_type_id":"4","last_reported":1718640582,"current_range_meters":0,"station_id":"ce4bgn12rcd13ifvqbt0","pricing_plan_id":"cebpf4jnsgd1na2vs0mg"},{"bike_id":"2a42502e-4a26-4730-a36d-a07ad7c25a95","system_id":"levelo_inurba_marseille","lat":43.318454,"lon":5.387079,"is_reserved":false,"is_disabled":false,"rental_uris":{"android":"levelo://app?vid=2a42502e-4a26-4730-a36d-a07ad7c25a95","ios":"levelo://app?vid=2a42502e-4a26-4730-a36d-a07ad7c25a95"},"vehicle_type_id":"4","last_reported":1718640582,"current_range_meters":14800,"station_id":"","pricing_plan_id":"cebpf4jnsgd1na2vs0mg"},{"bike_id":"475c5571-9a02-4102-aed8-0aeba4ccfd40","system_id":"levelo_inurba_marseille","lat":43.31622,"lon":5.38915,"is_reserved":false,"is_disabled":false,"rental_uris":{"android":"levelo://app?vid=475c5571-9a02-4102-aed8-0aeba4ccfd40","ios":"levelo://app?vid=475c5571-9a02-4102-aed8-0aeba4ccfd40"},"vehicle_type_id":"4","last_reported":1718640582,"current_range_meters":15200,"station_id":"","pricing_plan_id":"cebpf4jnsgd1na2vs0mg"},{"bike_id":"550462ad-8b6f-41f8-ba1a-7d14c2b0aff3","system_id":"levelo_inurba_marseille","lat":43.296131,"lon":5.370791,"is_reserved":false,"is_disabled":false,"rental_uris":{"android":"levelo://app?vid=550462ad-8b6f-41f8-ba1a-7d14c2b0aff3","ios":"levelo://app?vid=550462ad-8b6f-41f8-ba1a-7d14c2b0aff3"},"vehicle_type_id":"4","last_reported":1718640582,"current_range_meters":6000,"station_id":"ce4bgnh2rcd13ifvqc0g","pricing_plan_id":"cebpf4jnsgd1na2vs0mg"},{"bike_id":"578e6f61-798b-4350-85ae-08cb18137a5e","system_id":"levelo_inurba_marseille","lat":43.29573,"lon":5.367355,"is_reserved":false,"is_disabled":false,"rental_uris":{"android":"levelo://app?vid=578e6f61-798b-4350-85ae-08cb18137a5e","ios":"levelo://app?vid=578e6f61-798b-4350-85ae-08cb18137a5e"},"vehicle_type_id":"4","last_reported":1718640582,"current_range_meters":18000,"station_id":"ce4bgph2rcd13ifvqc2g","pricing_plan_id":"cebpf4jnsgd1na2vs0mg"},{"bike_id":"8d46fbd6-48ac-4213-aef9-46b49915de6d","system_id":"levelo_inurba_marseille","lat":43.317557,"lon":5.390173,"is_reserved":false,"is_disabled":false,"rental_uris":{"android":"levelo://app?vid=8d46fbd6-48ac-4213-aef9-46b49915de6d","ios":"levelo://app?vid=8d46fbd6-48ac-4213-aef9-46b49915de6d"},"vehicle_type_id":"4","last_reported":1718640582,"current_range_meters":19600,"station_id":"ce4bhqp2rcd13ifvqhng","pricing_plan_id":"cebpf4jnsgd1na2vs0mg"},{"bike_id":"c70dc1e5-54c9-40ba-8bca-e474e8f89f08","system_id":"levelo_inurba_marseille","lat":43.317557,"lon":5.390173,"is_reserved":false,"is_disabled":false,"rental_uris":{"android":"levelo://app?vid=c70dc1e5-54c9-40ba-8bca-e474e8f89f08","ios":"levelo://app?vid=c70dc1e5-54c9-40ba-8bca-e474e8f89f08"},"vehicle_type_id":"4","last_reported":1718640582,"current_range_meters":10400,"station_id":"ce4bhqp2rcd13ifvqhng","pricing_plan_id":"cebpf4jnsgd1na2vs0mg"},{"bike_id":"b0708fa3-6b33-4ea6-8710-7f64926959ce","system_id":"levelo_inurba_marseille","lat":43.29793,"lon":5.38104,"is_reserved":false,"is_disabled":false,"rental_uris":{"android":"levelo://app?vid=b0708fa3-6b33-4ea6-8710-7f64926959ce","ios":"levelo://app?vid=b0708fa3-6b33-4ea6-8710-7f64926959ce"},"vehicle_type_id":"4","last_reported":1718640582,"current_range_meters":0,"station_id":"ce4bgip2rcd13ifvqbb0","pricing_plan_id":"cebpf4jnsgd1na2vs0mg"},{"bike_id":"16eeb0de-d773-41b3-b792-4c41d105140a","system_id":"levelo_inurba_marseille","lat":43.304274,"lon":5.388873,"is_reserved":false,"is_disabled":false,"rental_uris":{"android":"levelo://app?vid=16eeb0de-d773-41b3-b792-4c41d105140a","ios":"levelo://app?vid=16eeb0de-d773-41b3-b792-4c41d105140a"},"vehicle_type_id":"4","last_reported":1718640582,"current_range_meters":2800,"station_id":"ce4bgk12rcd13ifvqbi0","pricing_plan_id":"cebpf4jnsgd1na2vs0mg"},{"bike_id":"dd340c3d-f372-4a03-b711-e605021efda8","system_id":"levelo_inurba_marseille","lat":43.304274,"lon":5.388873,"is_reserved":false,"is_disabled":false,"rental_uris":{"android":"levelo://app?vid=dd340c3d-f372-4a03-b711-e605021efda8","ios":"levelo://app?vid=dd340c3d-f372-4a03-b711-e605021efda8"},"vehicle_type_id":"4","last_reported":1718640582,"current_range_meters":6000,"station_id":"ce4bgk12rcd13ifvqbi0","pricing_plan_id":"cebpf4jnsgd1na2vs0mg"},{"bike_id":"686d950e-bc31-41fd-8ea2-fc859f0a4086","system_id":"levelo_inurba_marseille","lat":43.304274,"lon":5.388873,"is_reserved":false,"is_disabled":false,"rental_uris":{"android":"levelo://app?vid=686d950e-bc31-41fd-8ea2-fc859f0a4086","ios":"levelo://app?vid=686d950e-bc31-41fd-8ea2-fc859f0a4086"},"vehicle_type_id":"4","last_reported":1718640582,"current_range_meters":14000,"station_id":"ce4bgk12rcd13ifvqbi0","pricing_plan_id":"cebpf4jnsgd1na2vs0mg"},{"bike_id":"c1ab5e96-6a33-4ba8-8d6e-65bb0c78129f","system_id":"levelo_inurba_marseille","lat":43.29609,"lon":5.37707,"is_reserved":false,"is_disabled":false,"rental_uris":{"android":"levelo://app?vid=c1ab5e96-6a33-4ba8-8d6e-65bb0c78129f","ios":"levelo://app?vid=c1ab5e96-6a33-4ba8-8d6e-65bb0c78129f"},"vehicle_type_id":"4","last_reported":1718640582,"current_range_meters":0,"station_id":"ce4bgi92rcd13ifvqb90","pricing_plan_id":"cebpf4jnsgd1na2vs0mg"},{"bike_id":"971d9c20-6865-40a9-94f1-58e4fdd42ad1","system_id":"levelo_inurba_marseille","lat":43.295279,"lon":5.375048,"is_reserved":false,"is_disabled":false,"rental_uris":{"android":"levelo://app?vid=971d9c20-6865-40a9-94f1-58e4fdd42ad1","ios":"levelo://app?vid=971d9c20-6865-40a9-94f1-58e4fdd42ad1"},"vehicle_type_id":"4","last_reported":1718640582,"current_range_meters":0,"station_id":"ce4bgkp2rcd13ifvqbmg","pricing_plan_id":"cebpf4jnsgd1na2vs0mg"},{"bike_id":"c68a26e2-ff82-49cb-9d3d-70890169e676","system_id":"levelo_inurba_marseille","lat":43.299724,"lon":5.384848,"is_reserved":false,"is_disabled":false,"rental_uris":{"android":"levelo://app?vid=c68a26e2-ff82-49cb-9d3d-70890169e676","ios":"levelo://app?vid=c68a26e2-ff82-49cb-9d3d-70890169e676"},"vehicle_type_id":"4","last_reported":1718640582,"current_range_meters":0,"station_id":"ce4bgj92rcd13ifvqbd0","pricing_plan_id":"cebpf4jnsgd1na2vs0mg"},{"bike_id":"942bee4f-0569-4c81-9558-1faa31f358c2","system_id":"levelo_inurba_marseille","lat":43.29961,"lon":5.38505,"is_reserved":false,"is_disabled":false,"rental_uris":{"android":"levelo://app?vid=942bee4f-0569-4c81-9558-1faa31f358c2","ios":"levelo://app?vid=942bee4f-0569-4c81-9558-1faa31f358c2"},"vehicle_type_id":"4","last_reported":1718640582,"current_range_meters":14400,"station_id":"ce4bgj92rcd13ifvqbd0","pricing_plan_id":"cebpf4jnsgd1na2vs0mg"},{"bike_id":"e2338d2f-477e-442c-86c1-813731e02424","system_id":"levelo_inurba_marseille","lat":43.299222,"lon":5.365554,"is_reserved":false,"is_disabled":false,"rental_uris":{"android":"levelo://app?vid=e2338d2f-477e-442c-86c1-813731e02424","ios":"levelo://app?vid=e2338d2f-477e-442c-86c1-813731e02424"},"vehicle_type_id":"4","last_reported":1718640582,"current_range_meters":4800,"station_id":"ce4bgm92rcd13ifvqbr0","pricing_plan_id":"cebpf4jnsgd1na2vs0mg"},{"bike_id":"890a6493-c6c7-4df4-a064-13b5da600347","system_id":"levelo_inurba_marseille","lat":43.32367,"lon":5.388836,"is_reserved":false,"is_disabled":false,"rental_uris":{"android":"levelo://app?vid=890a6493-c6c7-4df4-a064-13b5da600347","ios":"levelo://app?vid=890a6493-c6c7-4df4-a064-13b5da600347"},"vehicle_type_id":"4","last_reported":1718640582,"current_range_meters":5200,"station_id":"ce4bhqp2rcd13ifvqhog","pricing_plan_id":"cebpf4jnsgd1na2vs0mg"},{"bike_id":"e0b56fef-1bdf-4347-acc6-e024e202a42b","system_id":"levelo_inurba_marseille","lat":43.32367,"lon":5.388836,"is_reserved":false,"is_disabled":false,"rental_uris":{"android":"levelo://app?vid=e0b56fef-1bdf-4347-acc6-e024e202a42b","ios":"levelo://app?vid=e0b56fef-1bdf-4347-acc6-e024e202a42b"},"vehicle_type_id":"4","last_reported":1718640582,"current_range_meters":10800,"station_id":"ce4bhqp2rcd13ifvqhog","pricing_plan_id":"cebpf4jnsgd1na2vs0mg"},{"bike_id":"c3f062df-1fae-485e-8164-4686da2e9f04","system_id":"levelo_inurba_marseille","lat":43.32367,"lon":5.388836,"is_reserved":false,"is_disabled":false,"rental_uris":{"android":"levelo://app?vid=c3f062df-1fae-485e-8164-4686da2e9f04","ios":"levelo://app?vid=c3f062df-1fae-485e-8164-4686da2e9f04"},"vehicle_type_id":"4","last_reported":1718640582,"current_range_meters":5200,"station_id":"ce4bhqp2rcd13ifvqhog","pricing_plan_id":"cebpf4jnsgd1na2vs0mg"},{"bike_id":"3e97e0cd-7c7e-468e-89a7-334c430a62cf","system_id":"levelo_inurba_marseille","lat":43.29602,"lon":5.381084,"is_reserved":false,"is_disabled":false,"rental_uris":{"android":"levelo://app?vid=3e97e0cd-7c7e-468e-89a7-334c430a62cf","ios":"levelo://app?vid=3e97e0cd-7c7e-468e-89a7-334c430a62cf"},"vehicle_type_id":"4","last_reported":1718640582,"current_range_meters":22800,"station_id":"ce4bgl12rcd13ifvqbo0","pricing_plan_id":"cebpf4jnsgd1na2vs0mg"},{"bike_id":"832c0cfc-7095-4909-8edc-0a3830acceee","system_id":"levelo_inurba_marseille","lat":43.29602,"lon":5.381084,"is_reserved":false,"is_disabled":false,"rental_uris":{"android":"levelo://app?vid=832c0cfc-7095-4909-8edc-0a3830acceee","ios":"levelo://app?vid=832c0cfc-7095-4909-8edc-0a3830acceee"},"vehicle_type_id":"4","last_reported":1718640582,"current_range_meters":3200,"station_id":"ce4bgl12rcd13ifvqbo0","pricing_plan_id":"cebpf4jnsgd1na2vs0mg"},{"bike_id":"4ca4d4fe-366e-4837-9710-ba66176be563","system_id":"levelo_inurba_marseille","lat":43.293249,"lon":5.371578,"is_reserved":false,"is_disabled":false,"rental_uris":{"android":"levelo://app?vid=4ca4d4fe-366e-4837-9710-ba66176be563","ios":"levelo://app?vid=4ca4d4fe-366e-4837-9710-ba66176be563"},"vehicle_type_id":"4","last_reported":1718640582,"current_range_meters":12800,"station_id":"ce4bgh92rcd13ifvqb40","pricing_plan_id":"cebpf4jnsgd1na2vs0mg"},{"bike_id":"e45cd6d9-5c20-42ec-a534-e501a19de9f3","system_id":"levelo_inurba_marseille","lat":43.292749,"lon":5.368402,"is_reserved":false,"is_disabled":false,"rental_uris":{"android":"levelo://app?vid=e45cd6d9-5c20-42ec-a534-e501a19de9f3","ios":"levelo://app?vid=e45cd6d9-5c20-42ec-a534-e501a19de9f3"},"vehicle_type_id":"4","last_reported":1718640582,"current_range_meters":0,"station_id":"ce4bhbp2rcd13ifvqesg","pricing_plan_id":"cebpf4jnsgd1na2vs0mg"},{"bike_id":"a6368cd6-7fe9-4a07-889b-2e2f27b18284","system_id":"levelo_inurba_marseille","lat":43.293249,"lon":5.371578,"is_reserved":false,"is_disabled":false,"rental_uris":{"android":"levelo://app?vid=a6368cd6-7fe9-4a07-889b-2e2f27b18284","ios":"levelo://app?vid=a6368cd6-7fe9-4a07-889b-2e2f27b18284"},"vehicle_type_id":"4","last_reported":1718640582,"current_range_meters":20400,"station_id":"ce4bgh92rcd13ifvqb40","pricing_plan_id":"cebpf4jnsgd1na2vs0mg"},{"bike_id":"dbaaed60-f617-4883-abfb-56cad45c887a","system_id":"levelo_inurba_marseille","lat":43.29234,"lon":5.36396,"is_reserved":false,"is_disabled":false,"rental_uris":{"android":"levelo://app?vid=dbaaed60-f617-4883-abfb-56cad45c887a","ios":"levelo://app?vid=dbaaed60-f617-4883-abfb-56cad45c887a"},"vehicle_type_id":"4","last_reported":1718640582,"current_range_meters":19200,"station_id":"","pricing_plan_id":"cebpf4jnsgd1na2vs0mg"},{"bike_id":"0971faaf-9652-42b0-b5a3-e098f13fe295","system_id":"levelo_inurba_marseille","lat":43.305994,"lon":5.393687,"is_reserved":false,"is_disabled":false,"rental_uris":{"android":"levelo://app?vid=0971faaf-9652-42b0-b5a3-e098f13fe295","ios":"levelo://app?vid=0971faaf-9652-42b0-b5a3-e098f13fe295"},"vehicle_type_id":"4","last_reported":1718640582,"current_range_meters":13200,"station_id":"ce4bh0p2rcd13ifvqd80","pricing_plan_id":"cebpf4jnsgd1na2vs0mg"},{"bike_id":"befb1fee-4ba8-43ea-a40e-0e33521d5a26","system_id":"levelo_inurba_marseille","lat":43.293009,"lon":5.374584,"is_reserved":false,"is_disabled":false,"rental_uris":{"android":"levelo://app?vid=befb1fee-4ba8-43ea-a40e-0e33521d5a26","ios":"levelo://app?vid=befb1fee-4ba8-43ea-a40e-0e33521d5a26"},"vehicle_type_id":"4","last_reported":1718640582,"current_range_meters":6800,"station_id":"ce4bgi12rcd13ifvqb70","pricing_plan_id":"cebpf4jnsgd1na2vs0mg"},{"bike_id":"209f907a-f453-4aca-b3c1-927df12aeb06","system_id":"levelo_inurba_marseille","lat":43.305994,"lon":5.393687,"is_reserved":false,"is_disabled":false,"rental_uris":{"android":"levelo://app?vid=209f907a-f453-4aca-b3c1-927df12aeb06","ios":"levelo://app?vid=209f907a-f453-4aca-b3c1-927df12aeb06"},"vehicle_type_id":"4","last_reported":1718640582,"current_range_meters":10000,"station_id":"ce4bh0p2rcd13ifvqd80","pricing_plan_id":"cebpf4jnsgd1na2vs0mg"},{"bike_id":"39cd4118-f733-45d2-9edc-4d31e31447ee","system_id":"levelo_inurba_marseille","lat":43.305994,"lon":5.393687,"is_reserved":false,"is_disabled":false,"rental_uris":{"android":"levelo://app?vid=39cd4118-f733-45d2-9edc-4d31e31447ee","ios":"levelo://app?vid=39cd4118-f733-45d2-9edc-4d31e31447ee"},"vehicle_type_id":"4","last_reported":1718640582,"current_range_meters":14400,"station_id":"ce4bh0p2rcd13ifvqd80","pricing_plan_id":"cebpf4jnsgd1na2vs0mg"},{"bike_id":"f430a0a4-ccf8-4f12-a3b4-27aad199003c","system_id":"levelo_inurba_marseille","lat":43.305994,"lon":5.393687,"is_reserved":false,"is_disabled":false,"rental_uris":{"android":"levelo://app?vid=f430a0a4-ccf8-4f12-a3b4-27aad199003c","ios":"levelo://app?vid=f430a0a4-ccf8-4f12-a3b4-27aad199003c"},"vehicle_type_id":"4","last_reported":1718640582,"current_range_meters":24800,"station_id":"ce4bh0p2rcd13ifvqd80","pricing_plan_id":"cebpf4jnsgd1na2vs0mg"},{"bike_id":"a9a592b3-6532-4b58-9de7-185938c7fb1d","system_id":"levelo_inurba_marseille","lat":43.305994,"lon":5.393687,"is_reserved":false,"is_disabled":false,"rental_uris":{"android":"levelo://app?vid=a9a592b3-6532-4b58-9de7-185938c7fb1d","ios":"levelo://app?vid=a9a592b3-6532-4b58-9de7-185938c7fb1d"},"vehicle_type_id":"4","last_reported":1718640582,"current_range_meters":0,"station_id":"ce4bh0p2rcd13ifvqd80","pricing_plan_id":"cebpf4jnsgd1na2vs0mg"},{"bike_id":"247f16fa-e369-4a40-a558-15c4870b2bd2","system_id":"levelo_inurba_marseille","lat":43.305994,"lon":5.393687,"is_reserved":false,"is_disabled":false,"rental_uris":{"android":"levelo://app?vid=247f16fa-e369-4a40-a558-15c4870b2bd2","ios":"levelo://app?vid=247f16fa-e369-4a40-a558-15c4870b2bd2"},"vehicle_type_id":"4","last_reported":1718640582,"current_range_meters":4000,"station_id":"ce4bh0p2rcd13ifvqd80","pricing_plan_id":"cebpf4jnsgd1na2vs0mg"},{"bike_id":"664be62e-fa89-47b1-a33e-931d1cfadefb","system_id":"levelo_inurba_marseille","lat":43.30302,"lon":5.39207,"is_reserved":false,"is_disabled":false,"rental_uris":{"android":"levelo://app?vid=664be62e-fa89-47b1-a33e-931d1cfadefb","ios":"levelo://app?vid=664be62e-fa89-47b1-a33e-931d1cfadefb"},"vehicle_type_id":"4","last_reported":1718640582,"current_range_meters":0,"station_id":"ce4bgkh2rcd13ifvqbk0","pricing_plan_id":"cebpf4jnsgd1na2vs0mg"},{"bike_id":"3968cb3a-e0aa-4947-9b85-812078a1cb54","system_id":"levelo_inurba_marseille","lat":43.29378,"lon":5.3785,"is_reserved":false,"is_disabled":false,"rental_uris":{"android":"levelo://app?vid=3968cb3a-e0aa-4947-9b85-812078a1cb54","ios":"levelo://app?vid=3968cb3a-e0aa-4947-9b85-812078a1cb54"},"vehicle_type_id":"4","last_reported":1718640582,"current_range_meters":19600,"station_id":"","pricing_plan_id":"cebpf4jnsgd1na2vs0mg"},{"bike_id":"a5b9770d-db27-4e50-a905-a48e8ba19d0c","system_id":"levelo_inurba_marseille","lat":43.303002,"lon":5.392142,"is_reserved":false,"is_disabled":false,"rental_uris":{"android":"levelo://app?vid=a5b9770d-db27-4e50-a905-a48e8ba19d0c","ios":"levelo://app?vid=a5b9770d-db27-4e50-a905-a48e8ba19d0c"},"vehicle_type_id":"4","last_reported":1718640582,"current_range_meters":18000,"station_id":"ce4bgkh2rcd13ifvqbk0","pricing_plan_id":"cebpf4jnsgd1na2vs0mg"},{"bike_id":"a5c51ec5-5c5f-4fc9-91b3-01b11802bc33","system_id":"levelo_inurba_marseille","lat":43.2937,"lon":5.37868,"is_reserved":false,"is_disabled":false,"rental_uris":{"android":"levelo://app?vid=a5c51ec5-5c5f-4fc9-91b3-01b11802bc33","ios":"levelo://app?vid=a5c51ec5-5c5f-4fc9-91b3-01b11802bc33"},"vehicle_type_id":"4","last_reported":1718640582,"current_range_meters":0,"station_id":"ce4bgjh2rcd13ifvqbf0","pricing_plan_id":"cebpf4jnsgd1na2vs0mg"},{"bike_id":"1b4efb03-e42e-4928-8c33-a73fedd4b2e8","system_id":"levelo_inurba_marseille","lat":43.292311,"lon":5.360731,"is_reserved":false,"is_disabled":false,"rental_uris":{"android":"levelo://app?vid=1b4efb03-e42e-4928-8c33-a73fedd4b2e8","ios":"levelo://app?vid=1b4efb03-e42e-4928-8c33-a73fedd4b2e8"},"vehicle_type_id":"4","last_reported":1718640582,"current_range_meters":9600,"station_id":"ce4bhbh2rcd13ifvqeqg","pricing_plan_id":"cebpf4jnsgd1na2vs0mg"},{"bike_id":"2c2ccf37-460c-4eeb-81c5-379c04b43a1d","system_id":"levelo_inurba_marseille","lat":43.300852,"lon":5.390859,"is_reserved":false,"is_disabled":false,"rental_uris":{"android":"levelo://app?vid=2c2ccf37-460c-4eeb-81c5-379c04b43a1d","ios":"levelo://app?vid=2c2ccf37-460c-4eeb-81c5-379c04b43a1d"},"vehicle_type_id":"4","last_reported":1718640582,"current_range_meters":0,"station_id":"ce4bh192rcd13ifvqdb0","pricing_plan_id":"cebpf4jnsgd1na2vs0mg"},{"bike_id":"f60533d1-0251-4d9e-87b6-49eb7887624d","system_id":"levelo_inurba_marseille","lat":43.292311,"lon":5.360731,"is_reserved":false,"is_disabled":false,"rental_uris":{"android":"levelo://app?vid=f60533d1-0251-4d9e-87b6-49eb7887624d","ios":"levelo://app?vid=f60533d1-0251-4d9e-87b6-49eb7887624d"},"vehicle_type_id":"4","last_reported":1718640582,"current_range_meters":20800,"station_id":"ce4bhbh2rcd13ifvqeqg","pricing_plan_id":"cebpf4jnsgd1na2vs0mg"},{"bike_id":"77319239-df6b-4ea5-8302-8d7b6ee155cb","system_id":"levelo_inurba_marseille","lat":43.29225,"lon":5.36073,"is_reserved":false,"is_disabled":false,"rental_uris":{"android":"levelo://app?vid=77319239-df6b-4ea5-8302-8d7b6ee155cb","ios":"levelo://app?vid=77319239-df6b-4ea5-8302-8d7b6ee155cb"},"vehicle_type_id":"4","last_reported":1718640582,"current_range_meters":31200,"station_id":"ce4bhbh2rcd13ifvqeqg","pricing_plan_id":"cebpf4jnsgd1na2vs0mg"},{"bike_id":"6720b1a3-590f-462a-9d25-21bde982276c","system_id":"levelo_inurba_marseille","lat":43.29227,"lon":5.36057,"is_reserved":false,"is_disabled":false,"rental_uris":{"android":"levelo://app?vid=6720b1a3-590f-462a-9d25-21bde982276c","ios":"levelo://app?vid=6720b1a3-590f-462a-9d25-21bde982276c"},"vehicle_type_id":"4","last_reported":1718640582,"current_range_meters":0,"station_id":"ce4bhbh2rcd13ifvqeqg","pricing_plan_id":"cebpf4jnsgd1na2vs0mg"},{"bike_id":"69447b19-ace0-4102-a1fb-78761c48bf1c","system_id":"levelo_inurba_marseille","lat":43.292311,"lon":5.360731,"is_reserved":false,"is_disabled":false,"rental_uris":{"android":"levelo://app?vid=69447b19-ace0-4102-a1fb-78761c48bf1c","ios":"levelo://app?vid=69447b19-ace0-4102-a1fb-78761c48bf1c"},"vehicle_type_id":"4","last_reported":1718640582,"current_range_meters":0,"station_id":"ce4bhbh2rcd13ifvqeqg","pricing_plan_id":"cebpf4jnsgd1na2vs0mg"},{"bike_id":"b1f80b38-3983-4f54-9f0e-ec9897efb020","system_id":"levelo_inurba_marseille","lat":43.300852,"lon":5.390859,"is_reserved":false,"is_disabled":false,"rental_uris":{"android":"levelo://app?vid=b1f80b38-3983-4f54-9f0e-ec9897efb020","ios":"levelo://app?vid=b1f80b38-3983-4f54-9f0e-ec9897efb020"},"vehicle_type_id":"4","last_reported":1718640582,"current_range_meters":20400,"station_id":"ce4bh192rcd13ifvqdb0","pricing_plan_id":"cebpf4jnsgd1na2vs0mg"},{"bike_id":"784d63a8-1e39-40cd-bd79-191fba6e198d","system_id":"levelo_inurba_marseille","lat":43.30085,"lon":5.390856,"is_reserved":false,"is_disabled":false,"rental_uris":{"android":"levelo://app?vid=784d63a8-1e39-40cd-bd79-191fba6e198d","ios":"levelo://app?vid=784d63a8-1e39-40cd-bd79-191fba6e198d"},"vehicle_type_id":"4","last_reported":1718640582,"current_range_meters":4800,"station_id":"ce4bh192rcd13ifvqdb0","pricing_plan_id":"cebpf4jnsgd1na2vs0mg"},{"bike_id":"8fc88cd5-2c8d-454a-9a7e-4a9fc02697be","system_id":"levelo_inurba_marseille","lat":43.313291,"lon":5.396838,"is_reserved":false,"is_disabled":false,"rental_uris":{"android":"levelo://app?vid=8fc88cd5-2c8d-454a-9a7e-4a9fc02697be","ios":"levelo://app?vid=8fc88cd5-2c8d-454a-9a7e-4a9fc02697be"},"vehicle_type_id":"4","last_reported":1718640582,"current_range_meters":10800,"station_id":"ce4bgvp2rcd13ifvqcu0","pricing_plan_id":"cebpf4jnsgd1na2vs0mg"},{"bike_id":"66b196d6-7ee4-4766-a69d-43ad7f7875bb","system_id":"levelo_inurba_marseille","lat":43.291671,"lon":5.371575,"is_reserved":false,"is_disabled":false,"rental_uris":{"android":"levelo://app?vid=66b196d6-7ee4-4766-a69d-43ad7f7875bb","ios":"levelo://app?vid=66b196d6-7ee4-4766-a69d-43ad7f7875bb"},"vehicle_type_id":"4","last_reported":1718640582,"current_range_meters":26800,"station_id":"ce4bha92rcd13ifvqeh0","pricing_plan_id":"cebpf4jnsgd1na2vs0mg"},{"bike_id":"27f7b16b-f617-4107-a162-211ff4a0d818","system_id":"levelo_inurba_marseille","lat":43.291994,"lon":5.357886,"is_reserved":false,"is_disabled":false,"rental_uris":{"android":"levelo://app?vid=27f7b16b-f617-4107-a162-211ff4a0d818","ios":"levelo://app?vid=27f7b16b-f617-4107-a162-211ff4a0d818"},"vehicle_type_id":"4","last_reported":1718640582,"current_range_meters":3200,"station_id":"ce4bhb12rcd13ifvqel0","pricing_plan_id":"cebpf4jnsgd1na2vs0mg"},{"bike_id":"36b8ee5d-29b4-44e1-91e7-0a7559fcd18e","system_id":"levelo_inurba_marseille","lat":43.292005,"lon":5.357875,"is_reserved":false,"is_disabled":false,"rental_uris":{"android":"levelo://app?vid=36b8ee5d-29b4-44e1-91e7-0a7559fcd18e","ios":"levelo://app?vid=36b8ee5d-29b4-44e1-91e7-0a7559fcd18e"},"vehicle_type_id":"4","last_reported":1718640582,"current_range_meters":0,"station_id":"ce4bhb12rcd13ifvqel0","pricing_plan_id":"cebpf4jnsgd1na2vs0mg"},{"bike_id":"e9dc99bd-a666-48b2-ad30-8c20334d5666","system_id":"levelo_inurba_marseille","lat":43.30885,"lon":5.396372,"is_reserved":false,"is_disabled":false,"rental_uris":{"android":"levelo://app?vid=e9dc99bd-a666-48b2-ad30-8c20334d5666","ios":"levelo://app?vid=e9dc99bd-a666-48b2-ad30-8c20334d5666"},"vehicle_type_id":"4","last_reported":1718640582,"current_range_meters":0,"station_id":"ce4bh012rcd13ifvqcv0","pricing_plan_id":"cebpf4jnsgd1na2vs0mg"},{"bike_id":"2d3d04c5-222f-4e9c-a41f-7825eddc722d","system_id":"levelo_inurba_marseille","lat":43.29195,"lon":5.358,"is_reserved":false,"is_disabled":false,"rental_uris":{"android":"levelo://app?vid=2d3d04c5-222f-4e9c-a41f-7825eddc722d","ios":"levelo://app?vid=2d3d04c5-222f-4e9c-a41f-7825eddc722d"},"vehicle_type_id":"4","last_reported":1718640582,"current_range_meters":400,"station_id":"ce4bhb12rcd13ifvqel0","pricing_plan_id":"cebpf4jnsgd1na2vs0mg"},{"bike_id":"3646fc1a-857c-43da-9ff1-24dda30aeaf9","system_id":"levelo_inurba_marseille","lat":43.292005,"lon":5.357875,"is_reserved":false,"is_disabled":false,"rental_uris":{"android":"levelo://app?vid=3646fc1a-857c-43da-9ff1-24dda30aeaf9","ios":"levelo://app?vid=3646fc1a-857c-43da-9ff1-24dda30aeaf9"},"vehicle_type_id":"4","last_reported":1718640582,"current_range_meters":18800,"station_id":"ce4bhb12rcd13ifvqel0","pricing_plan_id":"cebpf4jnsgd1na2vs0mg"},{"bike_id":"0c8c231a-eafc-41e2-a72a-fca50c72c1d2","system_id":"levelo_inurba_marseille","lat":43.309038,"lon":5.396546,"is_reserved":false,"is_disabled":false,"rental_uris":{"android":"levelo://app?vid=0c8c231a-eafc-41e2-a72a-fca50c72c1d2","ios":"levelo://app?vid=0c8c231a-eafc-41e2-a72a-fca50c72c1d2"},"vehicle_type_id":"4","last_reported":1718640582,"current_range_meters":13200,"station_id":"ce4bh012rcd13ifvqcv0","pricing_plan_id":"cebpf4jnsgd1na2vs0mg"},{"bike_id":"b745d972-588d-4770-bc60-6c0596f76f15","system_id":"levelo_inurba_marseille","lat":43.313291,"lon":5.396838,"is_reserved":false,"is_disabled":false,"rental_uris":{"android":"levelo://app?vid=b745d972-588d-4770-bc60-6c0596f76f15","ios":"levelo://app?vid=b745d972-588d-4770-bc60-6c0596f76f15"},"vehicle_type_id":"4","last_reported":1718640582,"current_range_meters":3200,"station_id":"ce4bgvp2rcd13ifvqcu0","pricing_plan_id":"cebpf4jnsgd1na2vs0mg"},{"bike_id":"270d818e-ef1d-404b-97b4-e5d2545b000b","system_id":"levelo_inurba_marseille","lat":43.309038,"lon":5.396546,"is_reserved":false,"is_disabled":false,"rental_uris":{"android":"levelo://app?vid=270d818e-ef1d-404b-97b4-e5d2545b000b","ios":"levelo://app?vid=270d818e-ef1d-404b-97b4-e5d2545b000b"},"vehicle_type_id":"4","last_reported":1718640582,"current_range_meters":0,"station_id":"ce4bh012rcd13ifvqcv0","pricing_plan_id":"cebpf4jnsgd1na2vs0mg"},{"bike_id":"14b78c03-8e57-4a44-ac23-4d17af921c40","system_id":"levelo_inurba_marseille","lat":43.31331,"lon":5.39697,"is_reserved":false,"is_disabled":false,"rental_uris":{"android":"levelo://app?vid=14b78c03-8e57-4a44-ac23-4d17af921c40","ios":"levelo://app?vid=14b78c03-8e57-4a44-ac23-4d17af921c40"},"vehicle_type_id":"4","last_reported":1718640582,"current_range_meters":0,"station_id":"ce4bgvp2rcd13ifvqcu0","pricing_plan_id":"cebpf4jnsgd1na2vs0mg"},{"bike_id":"10b7d95b-0a59-48b8-b18e-283b460fb3b8","system_id":"levelo_inurba_marseille","lat":43.32211,"lon":5.39409,"is_reserved":false,"is_disabled":false,"rental_uris":{"android":"levelo://app?vid=10b7d95b-0a59-48b8-b18e-283b460fb3b8","ios":"levelo://app?vid=10b7d95b-0a59-48b8-b18e-283b460fb3b8"},"vehicle_type_id":"4","last_reported":1718640582,"current_range_meters":28000,"station_id":"","pricing_plan_id":"cebpf4jnsgd1na2vs0mg"},{"bike_id":"5cbf1121-ba54-4576-b87b-b17f79d76c8d","system_id":"levelo_inurba_marseille","lat":43.31328,"lon":5.39698,"is_reserved":false,"is_disabled":false,"rental_uris":{"android":"levelo://app?vid=5cbf1121-ba54-4576-b87b-b17f79d76c8d","ios":"levelo://app?vid=5cbf1121-ba54-4576-b87b-b17f79d76c8d"},"vehicle_type_id":"4","last_reported":1718640582,"current_range_meters":2800,"station_id":"ce4bgvp2rcd13ifvqcu0","pricing_plan_id":"cebpf4jnsgd1na2vs0mg"},{"bike_id":"b045ce5d-cbcb-4228-ab15-42a0c82b9533","system_id":"levelo_inurba_marseille","lat":43.309047,"lon":5.396551,"is_reserved":false,"is_disabled":false,"rental_uris":{"android":"levelo://app?vid=b045ce5d-cbcb-4228-ab15-42a0c82b9533","ios":"levelo://app?vid=b045ce5d-cbcb-4228-ab15-42a0c82b9533"},"vehicle_type_id":"4","last_reported":1718640582,"current_range_meters":6400,"station_id":"ce4bh012rcd13ifvqcv0","pricing_plan_id":"cebpf4jnsgd1na2vs0mg"},{"bike_id":"0641ed59-e26a-4b42-b219-36f02266e271","system_id":"levelo_inurba_marseille","lat":43.309038,"lon":5.396546,"is_reserved":false,"is_disabled":false,"rental_uris":{"android":"levelo://app?vid=0641ed59-e26a-4b42-b219-36f02266e271","ios":"levelo://app?vid=0641ed59-e26a-4b42-b219-36f02266e271"},"vehicle_type_id":"4","last_reported":1718640582,"current_range_meters":400,"station_id":"ce4bh012rcd13ifvqcv0","pricing_plan_id":"cebpf4jnsgd1na2vs0mg"},{"bike_id":"1f0dc082-6989-410e-a569-c56bdd6e483d","system_id":"levelo_inurba_marseille","lat":43.309038,"lon":5.396546,"is_reserved":false,"is_disabled":false,"rental_uris":{"android":"levelo://app?vid=1f0dc082-6989-410e-a569-c56bdd6e483d","ios":"levelo://app?vid=1f0dc082-6989-410e-a569-c56bdd6e483d"},"vehicle_type_id":"4","last_reported":1718640582,"current_range_meters":6000,"station_id":"ce4bh012rcd13ifvqcv0","pricing_plan_id":"cebpf4jnsgd1na2vs0mg"},{"bike_id":"e18cbc3b-b4d0-4781-9ee8-01f464b9b21c","system_id":"levelo_inurba_marseille","lat":43.30893,"lon":5.39659,"is_reserved":false,"is_disabled":false,"rental_uris":{"android":"levelo://app?vid=e18cbc3b-b4d0-4781-9ee8-01f464b9b21c","ios":"levelo://app?vid=e18cbc3b-b4d0-4781-9ee8-01f464b9b21c"},"vehicle_type_id":"4","last_reported":1718640582,"current_range_meters":18400,"station_id":"ce4bh012rcd13ifvqcv0","pricing_plan_id":"cebpf4jnsgd1na2vs0mg"},{"bike_id":"e7e5fcb9-1327-4c3c-ad59-07ae1a1f37e1","system_id":"levelo_inurba_marseille","lat":43.30889,"lon":5.3966,"is_reserved":false,"is_disabled":false,"rental_uris":{"android":"levelo://app?vid=e7e5fcb9-1327-4c3c-ad59-07ae1a1f37e1","ios":"levelo://app?vid=e7e5fcb9-1327-4c3c-ad59-07ae1a1f37e1"},"vehicle_type_id":"4","last_reported":1718640582,"current_range_meters":20400,"station_id":"ce4bh012rcd13ifvqcv0","pricing_plan_id":"cebpf4jnsgd1na2vs0mg"},{"bike_id":"cbbf794a-2912-4a82-8707-460bad44899d","system_id":"levelo_inurba_marseille","lat":43.30889,"lon":5.3966,"is_reserved":false,"is_disabled":false,"rental_uris":{"android":"levelo://app?vid=cbbf794a-2912-4a82-8707-460bad44899d","ios":"levelo://app?vid=cbbf794a-2912-4a82-8707-460bad44899d"},"vehicle_type_id":"4","last_reported":1718640582,"current_range_meters":12800,"station_id":"ce4bh012rcd13ifvqcv0","pricing_plan_id":"cebpf4jnsgd1na2vs0mg"},{"bike_id":"9acbbdfd-6cd7-40f0-8945-41ed76f9106a","system_id":"levelo_inurba_marseille","lat":43.28856,"lon":5.358371,"is_reserved":false,"is_disabled":false,"rental_uris":{"android":"levelo://app?vid=9acbbdfd-6cd7-40f0-8945-41ed76f9106a","ios":"levelo://app?vid=9acbbdfd-6cd7-40f0-8945-41ed76f9106a"},"vehicle_type_id":"4","last_reported":1718640582,"current_range_meters":14000,"station_id":"ce4bhb12rcd13ifvqem0","pricing_plan_id":"cebpf4jnsgd1na2vs0mg"},{"bike_id":"07959b33-27e5-4997-a8ff-cf701efa58ca","system_id":"levelo_inurba_marseille","lat":43.29529,"lon":5.38542,"is_reserved":false,"is_disabled":false,"rental_uris":{"android":"levelo://app?vid=07959b33-27e5-4997-a8ff-cf701efa58ca","ios":"levelo://app?vid=07959b33-27e5-4997-a8ff-cf701efa58ca"},"vehicle_type_id":"4","last_reported":1718640582,"current_range_meters":1600,"station_id":"ce4bgih2rcd13ifvqba0","pricing_plan_id":"cebpf4jnsgd1na2vs0mg"},{"bike_id":"61b39b1e-7739-4d73-85cd-c52800cd323c","system_id":"levelo_inurba_marseille","lat":43.290779,"lon":5.371482,"is_reserved":false,"is_disabled":false,"rental_uris":{"android":"levelo://app?vid=61b39b1e-7739-4d73-85cd-c52800cd323c","ios":"levelo://app?vid=61b39b1e-7739-4d73-85cd-c52800cd323c"},"vehicle_type_id":"4","last_reported":1718640582,"current_range_meters":400,"station_id":"ce4bh5p2rcd13ifvqe4g","pricing_plan_id":"cebpf4jnsgd1na2vs0mg"},{"bike_id":"22be851b-3309-4a44-ab1e-7606830f7f42","system_id":"levelo_inurba_marseille","lat":43.29057,"lon":5.35919,"is_reserved":false,"is_disabled":false,"rental_uris":{"android":"levelo://app?vid=22be851b-3309-4a44-ab1e-7606830f7f42","ios":"levelo://app?vid=22be851b-3309-4a44-ab1e-7606830f7f42"},"vehicle_type_id":"4","last_reported":1718640582,"current_range_meters":29600,"station_id":"ce4bha92rcd13ifvqeg0","pricing_plan_id":"cebpf4jnsgd1na2vs0mg"},{"bike_id":"c1285dab-e331-40bf-90d7-9181586f29de","system_id":"levelo_inurba_marseille","lat":43.290631,"lon":5.359244,"is_reserved":false,"is_disabled":false,"rental_uris":{"android":"levelo://app?vid=c1285dab-e331-40bf-90d7-9181586f29de","ios":"levelo://app?vid=c1285dab-e331-40bf-90d7-9181586f29de"},"vehicle_type_id":"4","last_reported":1718640582,"current_range_meters":16400,"station_id":"ce4bha92rcd13ifvqeg0","pricing_plan_id":"cebpf4jnsgd1na2vs0mg"},{"bike_id":"53d70e3a-273f-4a70-ac42-e1dc2b615ad6","system_id":"levelo_inurba_marseille","lat":43.290631,"lon":5.359244,"is_reserved":false,"is_disabled":false,"rental_uris":{"android":"levelo://app?vid=53d70e3a-273f-4a70-ac42-e1dc2b615ad6","ios":"levelo://app?vid=53d70e3a-273f-4a70-ac42-e1dc2b615ad6"},"vehicle_type_id":"4","last_reported":1718640582,"current_range_meters":26000,"station_id":"ce4bha92rcd13ifvqeg0","pricing_plan_id":"cebpf4jnsgd1na2vs0mg"},{"bike_id":"d99cc611-5fef-4591-ba3b-0f53bb0da5bd","system_id":"levelo_inurba_marseille","lat":43.294184,"lon":5.386192,"is_reserved":false,"is_disabled":false,"rental_uris":{"android":"levelo://app?vid=d99cc611-5fef-4591-ba3b-0f53bb0da5bd","ios":"levelo://app?vid=d99cc611-5fef-4591-ba3b-0f53bb0da5bd"},"vehicle_type_id":"4","last_reported":1718640582,"current_range_meters":0,"station_id":"ce4bh2h2rcd13ifvqdh0","pricing_plan_id":"cebpf4jnsgd1na2vs0mg"},{"bike_id":"49c6e21d-f88c-4e67-83e3-8158086f13a8","system_id":"levelo_inurba_marseille","lat":43.2942,"lon":5.38623,"is_reserved":false,"is_disabled":false,"rental_uris":{"android":"levelo://app?vid=49c6e21d-f88c-4e67-83e3-8158086f13a8","ios":"levelo://app?vid=49c6e21d-f88c-4e67-83e3-8158086f13a8"},"vehicle_type_id":"4","last_reported":1718640582,"current_range_meters":0,"station_id":"ce4bh2h2rcd13ifvqdh0","pricing_plan_id":"cebpf4jnsgd1na2vs0mg"},{"bike_id":"7a0368f8-1052-463a-b75f-97b8be4ea5dd","system_id":"levelo_inurba_marseille","lat":43.294162,"lon":5.386292,"is_reserved":false,"is_disabled":false,"rental_uris":{"android":"levelo://app?vid=7a0368f8-1052-463a-b75f-97b8be4ea5dd","ios":"levelo://app?vid=7a0368f8-1052-463a-b75f-97b8be4ea5dd"},"vehicle_type_id":"4","last_reported":1718640582,"current_range_meters":16800,"station_id":"ce4bh2h2rcd13ifvqdh0","pricing_plan_id":"cebpf4jnsgd1na2vs0mg"},{"bike_id":"1ea06596-1277-4c13-ace6-cd72bc35d66e","system_id":"levelo_inurba_marseille","lat":43.289184,"lon":5.366408,"is_reserved":false,"is_disabled":false,"rental_uris":{"android":"levelo://app?vid=1ea06596-1277-4c13-ace6-cd72bc35d66e","ios":"levelo://app?vid=1ea06596-1277-4c13-ace6-cd72bc35d66e"},"vehicle_type_id":"4","last_reported":1718640582,"current_range_meters":16800,"station_id":"ce4bhap2rcd13ifvqek0","pricing_plan_id":"cebpf4jnsgd1na2vs0mg"},{"bike_id":"b443154b-d14f-4292-b7dc-39fc217908a5","system_id":"levelo_inurba_marseille","lat":43.304274,"lon":5.397513,"is_reserved":false,"is_disabled":false,"rental_uris":{"android":"levelo://app?vid=b443154b-d14f-4292-b7dc-39fc217908a5","ios":"levelo://app?vid=b443154b-d14f-4292-b7dc-39fc217908a5"},"vehicle_type_id":"4","last_reported":1718640582,"current_range_meters":0,"station_id":"ce4bh092rcd13ifvqd20","pricing_plan_id":"cebpf4jnsgd1na2vs0mg"},{"bike_id":"06a4daa0-bd98-4f00-ae3e-ef248ed7e66b","system_id":"levelo_inurba_marseille","lat":43.29261,"lon":5.38427,"is_reserved":false,"is_disabled":false,"rental_uris":{"android":"levelo://app?vid=06a4daa0-bd98-4f00-ae3e-ef248ed7e66b","ios":"levelo://app?vid=06a4daa0-bd98-4f00-ae3e-ef248ed7e66b"},"vehicle_type_id":"4","last_reported":1718640582,"current_range_meters":12000,"station_id":"ce4bh692rcd13ifvqea0","pricing_plan_id":"cebpf4jnsgd1na2vs0mg"},{"bike_id":"6751548b-6866-4c38-a982-d335e239c30a","system_id":"levelo_inurba_marseille","lat":43.292642,"lon":5.384254,"is_reserved":false,"is_disabled":false,"rental_uris":{"android":"levelo://app?vid=6751548b-6866-4c38-a982-d335e239c30a","ios":"levelo://app?vid=6751548b-6866-4c38-a982-d335e239c30a"},"vehicle_type_id":"4","last_reported":1718640582,"current_range_meters":8000,"station_id":"ce4bh692rcd13ifvqea0","pricing_plan_id":"cebpf4jnsgd1na2vs0mg"},{"bike_id":"80854b3d-e74d-42ac-921c-97f26ee453f1","system_id":"levelo_inurba_marseille","lat":43.304274,"lon":5.397513,"is_reserved":false,"is_disabled":false,"rental_uris":{"android":"levelo://app?vid=80854b3d-e74d-42ac-921c-97f26ee453f1","ios":"levelo://app?vid=80854b3d-e74d-42ac-921c-97f26ee453f1"},"vehicle_type_id":"4","last_reported":1718640582,"current_range_meters":24000,"station_id":"ce4bh092rcd13ifvqd20","pricing_plan_id":"cebpf4jnsgd1na2vs0mg"},{"bike_id":"d077a02d-316a-43c1-9cdc-441783c9e56f","system_id":"levelo_inurba_marseille","lat":43.292644,"lon":5.384257,"is_reserved":false,"is_disabled":false,"rental_uris":{"android":"levelo://app?vid=d077a02d-316a-43c1-9cdc-441783c9e56f","ios":"levelo://app?vid=d077a02d-316a-43c1-9cdc-441783c9e56f"},"vehicle_type_id":"4","last_reported":1718640582,"current_range_meters":14000,"station_id":"ce4bh692rcd13ifvqea0","pricing_plan_id":"cebpf4jnsgd1na2vs0mg"},{"bike_id":"f8e54f08-44bf-4e36-8bd8-ad6de0a3ed5d","system_id":"levelo_inurba_marseille","lat":43.290104,"lon":5.356111,"is_reserved":false,"is_disabled":false,"rental_uris":{"android":"levelo://app?vid=f8e54f08-44bf-4e36-8bd8-ad6de0a3ed5d","ios":"levelo://app?vid=f8e54f08-44bf-4e36-8bd8-ad6de0a3ed5d"},"vehicle_type_id":"4","last_reported":1718640582,"current_range_meters":0,"station_id":"ce4bhb92rcd13ifvqen0","pricing_plan_id":"cebpf4jnsgd1na2vs0mg"},{"bike_id":"a9b38055-7b1a-490d-bc89-2e08ccbf471a","system_id":"levelo_inurba_marseille","lat":43.290231,"lon":5.355539,"is_reserved":false,"is_disabled":false,"rental_uris":{"android":"levelo://app?vid=a9b38055-7b1a-490d-bc89-2e08ccbf471a","ios":"levelo://app?vid=a9b38055-7b1a-490d-bc89-2e08ccbf471a"},"vehicle_type_id":"4","last_reported":1718640582,"current_range_meters":400,"station_id":"ce4bhb92rcd13ifvqen0","pricing_plan_id":"cebpf4jnsgd1na2vs0mg"},{"bike_id":"08dd0923-333e-4cf7-a66e-68f0a43c324f","system_id":"levelo_inurba_marseille","lat":43.290103,"lon":5.356114,"is_reserved":false,"is_disabled":false,"rental_uris":{"android":"levelo://app?vid=08dd0923-333e-4cf7-a66e-68f0a43c324f","ios":"levelo://app?vid=08dd0923-333e-4cf7-a66e-68f0a43c324f"},"vehicle_type_id":"4","last_reported":1718640582,"current_range_meters":2400,"station_id":"ce4bhb92rcd13ifvqen0","pricing_plan_id":"cebpf4jnsgd1na2vs0mg"},{"bike_id":"9744ff91-3fa9-4e8d-94e6-bf90ece864e9","system_id":"levelo_inurba_marseille","lat":43.290104,"lon":5.356111,"is_reserved":false,"is_disabled":false,"rental_uris":{"android":"levelo://app?vid=9744ff91-3fa9-4e8d-94e6-bf90ece864e9","ios":"levelo://app?vid=9744ff91-3fa9-4e8d-94e6-bf90ece864e9"},"vehicle_type_id":"4","last_reported":1718640582,"current_range_meters":800,"station_id":"ce4bhb92rcd13ifvqen0","pricing_plan_id":"cebpf4jnsgd1na2vs0mg"},{"bike_id":"0a63a5ec-d01f-471d-ae3f-cf0f49cac78c","system_id":"levelo_inurba_marseille","lat":43.290103,"lon":5.356114,"is_reserved":false,"is_disabled":false,"rental_uris":{"android":"levelo://app?vid=0a63a5ec-d01f-471d-ae3f-cf0f49cac78c","ios":"levelo://app?vid=0a63a5ec-d01f-471d-ae3f-cf0f49cac78c"},"vehicle_type_id":"4","last_reported":1718640582,"current_range_meters":1600,"station_id":"ce4bhb92rcd13ifvqen0","pricing_plan_id":"cebpf4jnsgd1na2vs0mg"},{"bike_id":"9d947945-5843-452c-9ac0-11e74eb3e39b","system_id":"levelo_inurba_marseille","lat":43.290104,"lon":5.356111,"is_reserved":false,"is_disabled":false,"rental_uris":{"android":"levelo://app?vid=9d947945-5843-452c-9ac0-11e74eb3e39b","ios":"levelo://app?vid=9d947945-5843-452c-9ac0-11e74eb3e39b"},"vehicle_type_id":"4","last_reported":1718640582,"current_range_meters":6000,"station_id":"ce4bhb92rcd13ifvqen0","pricing_plan_id":"cebpf4jnsgd1na2vs0mg"},{"bike_id":"43e36351-de9c-4931-add1-5aa085d533d3","system_id":"levelo_inurba_marseille","lat":43.290104,"lon":5.356111,"is_reserved":false,"is_disabled":false,"rental_uris":{"android":"levelo://app?vid=43e36351-de9c-4931-add1-5aa085d533d3","ios":"levelo://app?vid=43e36351-de9c-4931-add1-5aa085d533d3"},"vehicle_type_id":"4","last_reported":1718640582,"current_range_meters":9200,"station_id":"ce4bhb92rcd13ifvqen0","pricing_plan_id":"cebpf4jnsgd1na2vs0mg"},{"bike_id":"f9b58789-760e-4d4b-9fbf-8e63bdfafdfd","system_id":"levelo_inurba_marseille","lat":43.290104,"lon":5.356111,"is_reserved":false,"is_disabled":false,"rental_uris":{"android":"levelo://app?vid=f9b58789-760e-4d4b-9fbf-8e63bdfafdfd","ios":"levelo://app?vid=f9b58789-760e-4d4b-9fbf-8e63bdfafdfd"},"vehicle_type_id":"4","last_reported":1718640582,"current_range_meters":800,"station_id":"ce4bhb92rcd13ifvqen0","pricing_plan_id":"cebpf4jnsgd1na2vs0mg"},{"bike_id":"eaf6a8c8-30c4-4651-adac-ee53fb8d76bb","system_id":"levelo_inurba_marseille","lat":43.290104,"lon":5.356111,"is_reserved":false,"is_disabled":false,"rental_uris":{"android":"levelo://app?vid=eaf6a8c8-30c4-4651-adac-ee53fb8d76bb","ios":"levelo://app?vid=eaf6a8c8-30c4-4651-adac-ee53fb8d76bb"},"vehicle_type_id":"4","last_reported":1718640582,"current_range_meters":22800,"station_id":"ce4bhb92rcd13ifvqen0","pricing_plan_id":"cebpf4jnsgd1na2vs0mg"},{"bike_id":"3a5a0c93-d623-4cff-adac-6386aa48a419","system_id":"levelo_inurba_marseille","lat":43.290104,"lon":5.356111,"is_reserved":false,"is_disabled":false,"rental_uris":{"android":"levelo://app?vid=3a5a0c93-d623-4cff-adac-6386aa48a419","ios":"levelo://app?vid=3a5a0c93-d623-4cff-adac-6386aa48a419"},"vehicle_type_id":"4","last_reported":1718640582,"current_range_meters":27600,"station_id":"ce4bhb92rcd13ifvqen0","pricing_plan_id":"cebpf4jnsgd1na2vs0mg"},{"bike_id":"27522d53-2c60-425a-b883-9eba4c68e8b0","system_id":"levelo_inurba_marseille","lat":43.290103,"lon":5.356114,"is_reserved":false,"is_disabled":false,"rental_uris":{"android":"levelo://app?vid=27522d53-2c60-425a-b883-9eba4c68e8b0","ios":"levelo://app?vid=27522d53-2c60-425a-b883-9eba4c68e8b0"},"vehicle_type_id":"4","last_reported":1718640582,"current_range_meters":24400,"station_id":"ce4bhb92rcd13ifvqen0","pricing_plan_id":"cebpf4jnsgd1na2vs0mg"},{"bike_id":"f8cf3808-7046-4a80-808d-ea411629257c","system_id":"levelo_inurba_marseille","lat":43.2917,"lon":5.38296,"is_reserved":false,"is_disabled":false,"rental_uris":{"android":"levelo://app?vid=f8cf3808-7046-4a80-808d-ea411629257c","ios":"levelo://app?vid=f8cf3808-7046-4a80-808d-ea411629257c"},"vehicle_type_id":"4","last_reported":1718640582,"current_range_meters":0,"station_id":"","pricing_plan_id":"cebpf4jnsgd1na2vs0mg"},{"bike_id":"1f751152-0a71-481e-9e09-da78f8d1e23c","system_id":"levelo_inurba_marseille","lat":43.290104,"lon":5.356111,"is_reserved":false,"is_disabled":false,"rental_uris":{"android":"levelo://app?vid=1f751152-0a71-481e-9e09-da78f8d1e23c","ios":"levelo://app?vid=1f751152-0a71-481e-9e09-da78f8d1e23c"},"vehicle_type_id":"4","last_reported":1718640582,"current_range_meters":0,"station_id":"ce4bhb92rcd13ifvqen0","pricing_plan_id":"cebpf4jnsgd1na2vs0mg"},{"bike_id":"12567ae0-7f2d-4e52-aa5f-1af2b8ef3f5b","system_id":"levelo_inurba_marseille","lat":43.290995,"lon":5.381361,"is_reserved":false,"is_disabled":false,"rental_uris":{"android":"levelo://app?vid=12567ae0-7f2d-4e52-aa5f-1af2b8ef3f5b","ios":"levelo://app?vid=12567ae0-7f2d-4e52-aa5f-1af2b8ef3f5b"},"vehicle_type_id":"4","last_reported":1718640582,"current_range_meters":0,"station_id":"ce4bh512rcd13ifvqe2g","pricing_plan_id":"cebpf4jnsgd1na2vs0mg"},{"bike_id":"b23b0291-cc27-4d93-bc37-12313f0716e4","system_id":"levelo_inurba_marseille","lat":43.297815,"lon":5.393548,"is_reserved":false,"is_disabled":false,"rental_uris":{"android":"levelo://app?vid=b23b0291-cc27-4d93-bc37-12313f0716e4","ios":"levelo://app?vid=b23b0291-cc27-4d93-bc37-12313f0716e4"},"vehicle_type_id":"4","last_reported":1718640582,"current_range_meters":22000,"station_id":"chh1huq6cuj3fo74tm60","pricing_plan_id":"cebpf4jnsgd1na2vs0mg"},{"bike_id":"b05c8744-458d-47bf-8730-238beceee501","system_id":"levelo_inurba_marseille","lat":43.33022,"lon":5.39032,"is_reserved":false,"is_disabled":false,"rental_uris":{"android":"levelo://app?vid=b05c8744-458d-47bf-8730-238beceee501","ios":"levelo://app?vid=b05c8744-458d-47bf-8730-238beceee501"},"vehicle_type_id":"4","last_reported":1718640582,"current_range_meters":30000,"station_id":"ce4bhr92rcd13ifvqhrg","pricing_plan_id":"cebpf4jnsgd1na2vs0mg"},{"bike_id":"9bd0c1c3-b5e4-4c64-8623-b356d63c7042","system_id":"levelo_inurba_marseille","lat":43.33019,"lon":5.39038,"is_reserved":false,"is_disabled":false,"rental_uris":{"android":"levelo://app?vid=9bd0c1c3-b5e4-4c64-8623-b356d63c7042","ios":"levelo://app?vid=9bd0c1c3-b5e4-4c64-8623-b356d63c7042"},"vehicle_type_id":"4","last_reported":1718640582,"current_range_meters":1200,"station_id":"ce4bhr92rcd13ifvqhrg","pricing_plan_id":"cebpf4jnsgd1na2vs0mg"},{"bike_id":"922caa7f-98b7-4c1b-a737-c9a1b9a37df7","system_id":"levelo_inurba_marseille","lat":43.295169,"lon":5.390426,"is_reserved":false,"is_disabled":false,"rental_uris":{"android":"levelo://app?vid=922caa7f-98b7-4c1b-a737-c9a1b9a37df7","ios":"levelo://app?vid=922caa7f-98b7-4c1b-a737-c9a1b9a37df7"},"vehicle_type_id":"4","last_reported":1718640582,"current_range_meters":10400,"station_id":"ce4bh3p2rcd13ifvqdp0","pricing_plan_id":"cebpf4jnsgd1na2vs0mg"},{"bike_id":"7a01586c-6401-405f-bbe8-1fe00bda7083","system_id":"levelo_inurba_marseille","lat":43.330442,"lon":5.389148,"is_reserved":false,"is_disabled":false,"rental_uris":{"android":"levelo://app?vid=7a01586c-6401-405f-bbe8-1fe00bda7083","ios":"levelo://app?vid=7a01586c-6401-405f-bbe8-1fe00bda7083"},"vehicle_type_id":"4","last_reported":1718640582,"current_range_meters":5600,"station_id":"ce4bhr92rcd13ifvqhrg","pricing_plan_id":"cebpf4jnsgd1na2vs0mg"},{"bike_id":"ffa8d5e1-cbf1-478e-8c83-982c0f0a2900","system_id":"levelo_inurba_marseille","lat":43.33023,"lon":5.39043,"is_reserved":false,"is_disabled":false,"rental_uris":{"android":"levelo://app?vid=ffa8d5e1-cbf1-478e-8c83-982c0f0a2900","ios":"levelo://app?vid=ffa8d5e1-cbf1-478e-8c83-982c0f0a2900"},"vehicle_type_id":"4","last_reported":1718640582,"current_range_meters":8000,"station_id":"ce4bhr92rcd13ifvqhrg","pricing_plan_id":"cebpf4jnsgd1na2vs0mg"},{"bike_id":"456e55c8-20cc-4f59-87bb-56191f9a03b6","system_id":"levelo_inurba_marseille","lat":43.28856,"lon":5.358371,"is_reserved":false,"is_disabled":false,"rental_uris":{"android":"levelo://app?vid=456e55c8-20cc-4f59-87bb-56191f9a03b6","ios":"levelo://app?vid=456e55c8-20cc-4f59-87bb-56191f9a03b6"},"vehicle_type_id":"4","last_reported":1718640582,"current_range_meters":31200,"station_id":"ce4bhb12rcd13ifvqem0","pricing_plan_id":"cebpf4jnsgd1na2vs0mg"},{"bike_id":"b91c606d-9ccb-47ce-a4d1-d5a24c27c9fc","system_id":"levelo_inurba_marseille","lat":43.28856,"lon":5.358371,"is_reserved":false,"is_disabled":false,"rental_uris":{"android":"levelo://app?vid=b91c606d-9ccb-47ce-a4d1-d5a24c27c9fc","ios":"levelo://app?vid=b91c606d-9ccb-47ce-a4d1-d5a24c27c9fc"},"vehicle_type_id":"4","last_reported":1718640582,"current_range_meters":3200,"station_id":"ce4bhb12rcd13ifvqem0","pricing_plan_id":"cebpf4jnsgd1na2vs0mg"},{"bike_id":"63f09e0b-44cb-4956-a772-bede9f73e9d8","system_id":"levelo_inurba_marseille","lat":43.28856,"lon":5.358371,"is_reserved":false,"is_disabled":false,"rental_uris":{"android":"levelo://app?vid=63f09e0b-44cb-4956-a772-bede9f73e9d8","ios":"levelo://app?vid=63f09e0b-44cb-4956-a772-bede9f73e9d8"},"vehicle_type_id":"4","last_reported":1718640582,"current_range_meters":8400,"station_id":"ce4bhb12rcd13ifvqem0","pricing_plan_id":"cebpf4jnsgd1na2vs0mg"},{"bike_id":"e775160d-de31-4838-85a1-41715ff5bbf8","system_id":"levelo_inurba_marseille","lat":43.28856,"lon":5.358371,"is_reserved":false,"is_disabled":false,"rental_uris":{"android":"levelo://app?vid=e775160d-de31-4838-85a1-41715ff5bbf8","ios":"levelo://app?vid=e775160d-de31-4838-85a1-41715ff5bbf8"},"vehicle_type_id":"4","last_reported":1718640582,"current_range_meters":28400,"station_id":"ce4bhb12rcd13ifvqem0","pricing_plan_id":"cebpf4jnsgd1na2vs0mg"},{"bike_id":"b61f9da1-77c1-4e16-a18c-92ff1f6b9101","system_id":"levelo_inurba_marseille","lat":43.28856,"lon":5.358371,"is_reserved":false,"is_disabled":false,"rental_uris":{"android":"levelo://app?vid=b61f9da1-77c1-4e16-a18c-92ff1f6b9101","ios":"levelo://app?vid=b61f9da1-77c1-4e16-a18c-92ff1f6b9101"},"vehicle_type_id":"4","last_reported":1718640582,"current_range_meters":18400,"station_id":"ce4bhb12rcd13ifvqem0","pricing_plan_id":"cebpf4jnsgd1na2vs0mg"},{"bike_id":"e80b863f-c227-49d1-99cb-afc70902d9b8","system_id":"levelo_inurba_marseille","lat":43.30931,"lon":5.401357,"is_reserved":false,"is_disabled":false,"rental_uris":{"android":"levelo://app?vid=e80b863f-c227-49d1-99cb-afc70902d9b8","ios":"levelo://app?vid=e80b863f-c227-49d1-99cb-afc70902d9b8"},"vehicle_type_id":"4","last_reported":1718640582,"current_range_meters":0,"station_id":"ce4bgvp2rcd13ifvqct0","pricing_plan_id":"cebpf4jnsgd1na2vs0mg"},{"bike_id":"dcc08ce8-26d7-4200-8600-6722c480617c","system_id":"levelo_inurba_marseille","lat":43.33748,"lon":5.37456,"is_reserved":false,"is_disabled":false,"rental_uris":{"android":"levelo://app?vid=dcc08ce8-26d7-4200-8600-6722c480617c","ios":"levelo://app?vid=dcc08ce8-26d7-4200-8600-6722c480617c"},"vehicle_type_id":"4","last_reported":1718640582,"current_range_meters":24800,"station_id":"","pricing_plan_id":"cebpf4jnsgd1na2vs0mg"},{"bike_id":"6785dc7a-5862-4b5a-953e-f3a731b89b4a","system_id":"levelo_inurba_marseille","lat":43.33753,"lon":5.37429,"is_reserved":false,"is_disabled":false,"rental_uris":{"android":"levelo://app?vid=6785dc7a-5862-4b5a-953e-f3a731b89b4a","ios":"levelo://app?vid=6785dc7a-5862-4b5a-953e-f3a731b89b4a"},"vehicle_type_id":"4","last_reported":1718640582,"current_range_meters":30800,"station_id":"","pricing_plan_id":"cebpf4jnsgd1na2vs0mg"},{"bike_id":"13fb75b3-e1bc-4c48-abc6-893eb88c0ae5","system_id":"levelo_inurba_marseille","lat":43.337557,"lon":5.374384,"is_reserved":false,"is_disabled":false,"rental_uris":{"android":"levelo://app?vid=13fb75b3-e1bc-4c48-abc6-893eb88c0ae5","ios":"levelo://app?vid=13fb75b3-e1bc-4c48-abc6-893eb88c0ae5"},"vehicle_type_id":"4","last_reported":1718640582,"current_range_meters":30000,"station_id":"","pricing_plan_id":"cebpf4jnsgd1na2vs0mg"},{"bike_id":"43c145ff-6395-4025-bbb9-3cc0449427fb","system_id":"levelo_inurba_marseille","lat":43.33759,"lon":5.37449,"is_reserved":false,"is_disabled":false,"rental_uris":{"android":"levelo://app?vid=43c145ff-6395-4025-bbb9-3cc0449427fb","ios":"levelo://app?vid=43c145ff-6395-4025-bbb9-3cc0449427fb"},"vehicle_type_id":"4","last_reported":1718640582,"current_range_meters":29600,"station_id":"","pricing_plan_id":"cebpf4jnsgd1na2vs0mg"},{"bike_id":"79731b79-0f28-4f8e-806b-24cd29a4dade","system_id":"levelo_inurba_marseille","lat":43.33766,"lon":5.37481,"is_reserved":false,"is_disabled":false,"rental_uris":{"android":"levelo://app?vid=79731b79-0f28-4f8e-806b-24cd29a4dade","ios":"levelo://app?vid=79731b79-0f28-4f8e-806b-24cd29a4dade"},"vehicle_type_id":"4","last_reported":1718640582,"current_range_meters":27200,"station_id":"","pricing_plan_id":"cebpf4jnsgd1na2vs0mg"},{"bike_id":"80b16a27-c80f-4736-9d10-d2a56c3c3d47","system_id":"levelo_inurba_marseille","lat":43.301117,"lon":5.398795,"is_reserved":false,"is_disabled":false,"rental_uris":{"android":"levelo://app?vid=80b16a27-c80f-4736-9d10-d2a56c3c3d47","ios":"levelo://app?vid=80b16a27-c80f-4736-9d10-d2a56c3c3d47"},"vehicle_type_id":"4","last_reported":1718640582,"current_range_meters":2800,"station_id":"ce4bh0h2rcd13ifvqd40","pricing_plan_id":"cebpf4jnsgd1na2vs0mg"},{"bike_id":"c74e13d8-2acf-4f2b-8f64-a0fd6039da91","system_id":"levelo_inurba_marseille","lat":43.33788,"lon":5.374693,"is_reserved":false,"is_disabled":false,"rental_uris":{"android":"levelo://app?vid=c74e13d8-2acf-4f2b-8f64-a0fd6039da91","ios":"levelo://app?vid=c74e13d8-2acf-4f2b-8f64-a0fd6039da91"},"vehicle_type_id":"4","last_reported":1718640582,"current_range_meters":30800,"station_id":"","pricing_plan_id":"cebpf4jnsgd1na2vs0mg"},{"bike_id":"9f265a8e-2982-4771-9d36-b934156f5b87","system_id":"levelo_inurba_marseille","lat":43.301117,"lon":5.398795,"is_reserved":false,"is_disabled":false,"rental_uris":{"android":"levelo://app?vid=9f265a8e-2982-4771-9d36-b934156f5b87","ios":"levelo://app?vid=9f265a8e-2982-4771-9d36-b934156f5b87"},"vehicle_type_id":"4","last_reported":1718640582,"current_range_meters":0,"station_id":"ce4bh0h2rcd13ifvqd40","pricing_plan_id":"cebpf4jnsgd1na2vs0mg"},{"bike_id":"2d56b924-9727-463e-8034-4aaa04a38f67","system_id":"levelo_inurba_marseille","lat":43.28727,"lon":5.36078,"is_reserved":false,"is_disabled":false,"rental_uris":{"android":"levelo://app?vid=2d56b924-9727-463e-8034-4aaa04a38f67","ios":"levelo://app?vid=2d56b924-9727-463e-8034-4aaa04a38f67"},"vehicle_type_id":"4","last_reported":1718640582,"current_range_meters":20800,"station_id":"cki0cbj6b192h4jlfktg","pricing_plan_id":"cebpf4jnsgd1na2vs0mg"},{"bike_id":"4f3ae040-06c7-4da4-a750-4288085b7809","system_id":"levelo_inurba_marseille","lat":43.28709,"lon":5.37388,"is_reserved":false,"is_disabled":false,"rental_uris":{"android":"levelo://app?vid=4f3ae040-06c7-4da4-a750-4288085b7809","ios":"levelo://app?vid=4f3ae040-06c7-4da4-a750-4288085b7809"},"vehicle_type_id":"4","last_reported":1718640582,"current_range_meters":0,"station_id":"ce4bh3p2rcd13ifvqdq0","pricing_plan_id":"cebpf4jnsgd1na2vs0mg"},{"bike_id":"4377e5e8-0111-4196-a2de-fc0c194c4560","system_id":"levelo_inurba_marseille","lat":43.287042,"lon":5.373657,"is_reserved":false,"is_disabled":false,"rental_uris":{"android":"levelo://app?vid=4377e5e8-0111-4196-a2de-fc0c194c4560","ios":"levelo://app?vid=4377e5e8-0111-4196-a2de-fc0c194c4560"},"vehicle_type_id":"4","last_reported":1718640582,"current_range_meters":800,"station_id":"ce4bh3p2rcd13ifvqdq0","pricing_plan_id":"cebpf4jnsgd1na2vs0mg"},{"bike_id":"15145a34-65ed-4f1e-b534-4cdae78ecbcc","system_id":"levelo_inurba_marseille","lat":43.2987,"lon":5.39726,"is_reserved":false,"is_disabled":false,"rental_uris":{"android":"levelo://app?vid=15145a34-65ed-4f1e-b534-4cdae78ecbcc","ios":"levelo://app?vid=15145a34-65ed-4f1e-b534-4cdae78ecbcc"},"vehicle_type_id":"4","last_reported":1718640582,"current_range_meters":0,"station_id":"ce4bh0h2rcd13ifvqd50","pricing_plan_id":"cebpf4jnsgd1na2vs0mg"},{"bike_id":"427fe25e-f18f-4355-a8bb-8ef945dbefd0","system_id":"levelo_inurba_marseille","lat":43.298681,"lon":5.397225,"is_reserved":false,"is_disabled":false,"rental_uris":{"android":"levelo://app?vid=427fe25e-f18f-4355-a8bb-8ef945dbefd0","ios":"levelo://app?vid=427fe25e-f18f-4355-a8bb-8ef945dbefd0"},"vehicle_type_id":"4","last_reported":1718640582,"current_range_meters":24400,"station_id":"ce4bh0h2rcd13ifvqd50","pricing_plan_id":"cebpf4jnsgd1na2vs0mg"},{"bike_id":"bd885b24-c797-4ac0-b539-8f2909e5c4ad","system_id":"levelo_inurba_marseille","lat":43.286591,"lon":5.363346,"is_reserved":false,"is_disabled":false,"rental_uris":{"android":"levelo://app?vid=bd885b24-c797-4ac0-b539-8f2909e5c4ad","ios":"levelo://app?vid=bd885b24-c797-4ac0-b539-8f2909e5c4ad"},"vehicle_type_id":"4","last_reported":1718640582,"current_range_meters":6000,"station_id":"ce4bhah2rcd13ifvqej0","pricing_plan_id":"cebpf4jnsgd1na2vs0mg"},{"bike_id":"163aa7be-d89e-48b7-8b41-1d5ee2543ed7","system_id":"levelo_inurba_marseille","lat":43.286593,"lon":5.363346,"is_reserved":false,"is_disabled":false,"rental_uris":{"android":"levelo://app?vid=163aa7be-d89e-48b7-8b41-1d5ee2543ed7","ios":"levelo://app?vid=163aa7be-d89e-48b7-8b41-1d5ee2543ed7"},"vehicle_type_id":"4","last_reported":1718640582,"current_range_meters":1600,"station_id":"ce4bhah2rcd13ifvqej0","pricing_plan_id":"cebpf4jnsgd1na2vs0mg"},{"bike_id":"0e30fa69-5317-4dcf-b040-8742aedbb666","system_id":"levelo_inurba_marseille","lat":43.286591,"lon":5.363346,"is_reserved":false,"is_disabled":false,"rental_uris":{"android":"levelo://app?vid=0e30fa69-5317-4dcf-b040-8742aedbb666","ios":"levelo://app?vid=0e30fa69-5317-4dcf-b040-8742aedbb666"},"vehicle_type_id":"4","last_reported":1718640582,"current_range_meters":4400,"station_id":"ce4bhah2rcd13ifvqej0","pricing_plan_id":"cebpf4jnsgd1na2vs0mg"},{"bike_id":"0bf2b4d8-1c6f-441b-a5e4-45782fe95086","system_id":"levelo_inurba_marseille","lat":43.295196,"lon":5.39397,"is_reserved":false,"is_disabled":false,"rental_uris":{"android":"levelo://app?vid=0bf2b4d8-1c6f-441b-a5e4-45782fe95086","ios":"levelo://app?vid=0bf2b4d8-1c6f-441b-a5e4-45782fe95086"},"vehicle_type_id":"4","last_reported":1718640582,"current_range_meters":3200,"station_id":"ce4bh292rcd13ifvqdf0","pricing_plan_id":"cebpf4jnsgd1na2vs0mg"},{"bike_id":"dbb26f99-362c-4566-9b85-876ca26e855f","system_id":"levelo_inurba_marseille","lat":43.295194,"lon":5.39397,"is_reserved":false,"is_disabled":false,"rental_uris":{"android":"levelo://app?vid=dbb26f99-362c-4566-9b85-876ca26e855f","ios":"levelo://app?vid=dbb26f99-362c-4566-9b85-876ca26e855f"},"vehicle_type_id":"4","last_reported":1718640582,"current_range_meters":6000,"station_id":"ce4bh292rcd13ifvqdf0","pricing_plan_id":"cebpf4jnsgd1na2vs0mg"},{"bike_id":"878f0dff-0b8f-49ac-8297-1d3d9e2a136b","system_id":"levelo_inurba_marseille","lat":43.286591,"lon":5.363346,"is_reserved":false,"is_disabled":false,"rental_uris":{"android":"levelo://app?vid=878f0dff-0b8f-49ac-8297-1d3d9e2a136b","ios":"levelo://app?vid=878f0dff-0b8f-49ac-8297-1d3d9e2a136b"},"vehicle_type_id":"4","last_reported":1718640582,"current_range_meters":16000,"station_id":"ce4bhah2rcd13ifvqej0","pricing_plan_id":"cebpf4jnsgd1na2vs0mg"},{"bike_id":"06c58a6d-f555-4c16-9d1c-b373e8a69331","system_id":"levelo_inurba_marseille","lat":43.28693,"lon":5.37389,"is_reserved":false,"is_disabled":false,"rental_uris":{"android":"levelo://app?vid=06c58a6d-f555-4c16-9d1c-b373e8a69331","ios":"levelo://app?vid=06c58a6d-f555-4c16-9d1c-b373e8a69331"},"vehicle_type_id":"4","last_reported":1718640582,"current_range_meters":0,"station_id":"ce4bh3p2rcd13ifvqdq0","pricing_plan_id":"cebpf4jnsgd1na2vs0mg"},{"bike_id":"f6ee41da-4cd4-4e4f-9fca-f0792c249379","system_id":"levelo_inurba_marseille","lat":43.295196,"lon":5.39397,"is_reserved":false,"is_disabled":false,"rental_uris":{"android":"levelo://app?vid=f6ee41da-4cd4-4e4f-9fca-f0792c249379","ios":"levelo://app?vid=f6ee41da-4cd4-4e4f-9fca-f0792c249379"},"vehicle_type_id":"4","last_reported":1718640582,"current_range_meters":1600,"station_id":"ce4bh292rcd13ifvqdf0","pricing_plan_id":"cebpf4jnsgd1na2vs0mg"},{"bike_id":"309c0658-8639-45f6-a22f-cde6041e389a","system_id":"levelo_inurba_marseille","lat":43.295194,"lon":5.39397,"is_reserved":false,"is_disabled":false,"rental_uris":{"android":"levelo://app?vid=309c0658-8639-45f6-a22f-cde6041e389a","ios":"levelo://app?vid=309c0658-8639-45f6-a22f-cde6041e389a"},"vehicle_type_id":"4","last_reported":1718640582,"current_range_meters":16400,"station_id":"ce4bh292rcd13ifvqdf0","pricing_plan_id":"cebpf4jnsgd1na2vs0mg"},{"bike_id":"3850d5c8-938e-40b3-a05b-a37ed72c8599","system_id":"levelo_inurba_marseille","lat":43.295194,"lon":5.39397,"is_reserved":false,"is_disabled":false,"rental_uris":{"android":"levelo://app?vid=3850d5c8-938e-40b3-a05b-a37ed72c8599","ios":"levelo://app?vid=3850d5c8-938e-40b3-a05b-a37ed72c8599"},"vehicle_type_id":"4","last_reported":1718640582,"current_range_meters":5200,"station_id":"ce4bh292rcd13ifvqdf0","pricing_plan_id":"cebpf4jnsgd1na2vs0mg"},{"bike_id":"e35bd249-876b-4b49-bbf6-bdddc17fda3c","system_id":"levelo_inurba_marseille","lat":43.302759,"lon":5.400793,"is_reserved":false,"is_disabled":false,"rental_uris":{"android":"levelo://app?vid=e35bd249-876b-4b49-bbf6-bdddc17fda3c","ios":"levelo://app?vid=e35bd249-876b-4b49-bbf6-bdddc17fda3c"},"vehicle_type_id":"4","last_reported":1718640582,"current_range_meters":5200,"station_id":"ce4bgvh2rcd13ifvqcs0","pricing_plan_id":"cebpf4jnsgd1na2vs0mg"},{"bike_id":"1f0ba669-2d79-46d6-9e93-fc788f67bc4f","system_id":"levelo_inurba_marseille","lat":43.290336,"lon":5.386425,"is_reserved":false,"is_disabled":false,"rental_uris":{"android":"levelo://app?vid=1f0ba669-2d79-46d6-9e93-fc788f67bc4f","ios":"levelo://app?vid=1f0ba669-2d79-46d6-9e93-fc788f67bc4f"},"vehicle_type_id":"4","last_reported":1718640582,"current_range_meters":18800,"station_id":"ce4bh4p2rcd13ifvqe0g","pricing_plan_id":"cebpf4jnsgd1na2vs0mg"},{"bike_id":"7dcf1411-77f0-4f81-b599-088530a1c237","system_id":"levelo_inurba_marseille","lat":43.302759,"lon":5.400793,"is_reserved":false,"is_disabled":false,"rental_uris":{"android":"levelo://app?vid=7dcf1411-77f0-4f81-b599-088530a1c237","ios":"levelo://app?vid=7dcf1411-77f0-4f81-b599-088530a1c237"},"vehicle_type_id":"4","last_reported":1718640582,"current_range_meters":10400,"station_id":"ce4bgvh2rcd13ifvqcs0","pricing_plan_id":"cebpf4jnsgd1na2vs0mg"},{"bike_id":"84d83e7d-a5b5-46bc-8338-3dcec0b3a415","system_id":"levelo_inurba_marseille","lat":43.286039,"lon":5.370681,"is_reserved":false,"is_disabled":false,"rental_uris":{"android":"levelo://app?vid=84d83e7d-a5b5-46bc-8338-3dcec0b3a415","ios":"levelo://app?vid=84d83e7d-a5b5-46bc-8338-3dcec0b3a415"},"vehicle_type_id":"4","last_reported":1718640582,"current_range_meters":2400,"station_id":"ce4bht12rcd13ifvqi60","pricing_plan_id":"cebpf4jnsgd1na2vs0mg"},{"bike_id":"6b7ca400-7be8-422d-82e5-b56564119696","system_id":"levelo_inurba_marseille","lat":43.287184,"lon":5.37937,"is_reserved":false,"is_disabled":false,"rental_uris":{"android":"levelo://app?vid=6b7ca400-7be8-422d-82e5-b56564119696","ios":"levelo://app?vid=6b7ca400-7be8-422d-82e5-b56564119696"},"vehicle_type_id":"4","last_reported":1718640582,"current_range_meters":0,"station_id":"ce4bh9p2rcd13ifvqec0","pricing_plan_id":"cebpf4jnsgd1na2vs0mg"},{"bike_id":"96a1209c-2a2d-4cdf-a264-fb4002a4cc21","system_id":"levelo_inurba_marseille","lat":43.287184,"lon":5.37937,"is_reserved":false,"is_disabled":false,"rental_uris":{"android":"levelo://app?vid=96a1209c-2a2d-4cdf-a264-fb4002a4cc21","ios":"levelo://app?vid=96a1209c-2a2d-4cdf-a264-fb4002a4cc21"},"vehicle_type_id":"4","last_reported":1718640582,"current_range_meters":14000,"station_id":"ce4bh9p2rcd13ifvqec0","pricing_plan_id":"cebpf4jnsgd1na2vs0mg"},{"bike_id":"035e4288-7163-4277-b2aa-a279d66be004","system_id":"levelo_inurba_marseille","lat":43.291994,"lon":5.392907,"is_reserved":false,"is_disabled":false,"rental_uris":{"android":"levelo://app?vid=035e4288-7163-4277-b2aa-a279d66be004","ios":"levelo://app?vid=035e4288-7163-4277-b2aa-a279d66be004"},"vehicle_type_id":"4","last_reported":1718640582,"current_range_meters":21200,"station_id":"ce4bh192rcd13ifvqdd0","pricing_plan_id":"cebpf4jnsgd1na2vs0mg"},{"bike_id":"9772a93c-d752-4929-b84d-b0204ac0fabd","system_id":"levelo_inurba_marseille","lat":43.291994,"lon":5.392907,"is_reserved":false,"is_disabled":false,"rental_uris":{"android":"levelo://app?vid=9772a93c-d752-4929-b84d-b0204ac0fabd","ios":"levelo://app?vid=9772a93c-d752-4929-b84d-b0204ac0fabd"},"vehicle_type_id":"4","last_reported":1718640582,"current_range_meters":0,"station_id":"ce4bh192rcd13ifvqdd0","pricing_plan_id":"cebpf4jnsgd1na2vs0mg"},{"bike_id":"e36fb4c9-57df-4694-9a8a-27825d8654a6","system_id":"levelo_inurba_marseille","lat":43.291994,"lon":5.392907,"is_reserved":false,"is_disabled":false,"rental_uris":{"android":"levelo://app?vid=e36fb4c9-57df-4694-9a8a-27825d8654a6","ios":"levelo://app?vid=e36fb4c9-57df-4694-9a8a-27825d8654a6"},"vehicle_type_id":"4","last_reported":1718640582,"current_range_meters":0,"station_id":"ce4bh192rcd13ifvqdd0","pricing_plan_id":"cebpf4jnsgd1na2vs0mg"},{"bike_id":"ec7841c3-0b7e-45a0-934e-bd869af432f4","system_id":"levelo_inurba_marseille","lat":43.284538,"lon":5.358657,"is_reserved":false,"is_disabled":false,"rental_uris":{"android":"levelo://app?vid=ec7841c3-0b7e-45a0-934e-bd869af432f4","ios":"levelo://app?vid=ec7841c3-0b7e-45a0-934e-bd869af432f4"},"vehicle_type_id":"4","last_reported":1718640582,"current_range_meters":20000,"station_id":"ce4bhah2rcd13ifvqei0","pricing_plan_id":"cebpf4jnsgd1na2vs0mg"},{"bike_id":"d697fa01-4b3c-45e5-9944-90012016ae55","system_id":"levelo_inurba_marseille","lat":43.284534,"lon":5.358662,"is_reserved":false,"is_disabled":false,"rental_uris":{"android":"levelo://app?vid=d697fa01-4b3c-45e5-9944-90012016ae55","ios":"levelo://app?vid=d697fa01-4b3c-45e5-9944-90012016ae55"},"vehicle_type_id":"4","last_reported":1718640582,"current_range_meters":6000,"station_id":"ce4bhah2rcd13ifvqei0","pricing_plan_id":"cebpf4jnsgd1na2vs0mg"},{"bike_id":"9043db97-88c4-4632-bc52-e09d89d4e22c","system_id":"levelo_inurba_marseille","lat":43.284538,"lon":5.358657,"is_reserved":false,"is_disabled":false,"rental_uris":{"android":"levelo://app?vid=9043db97-88c4-4632-bc52-e09d89d4e22c","ios":"levelo://app?vid=9043db97-88c4-4632-bc52-e09d89d4e22c"},"vehicle_type_id":"4","last_reported":1718640582,"current_range_meters":16800,"station_id":"ce4bhah2rcd13ifvqei0","pricing_plan_id":"cebpf4jnsgd1na2vs0mg"},{"bike_id":"ad00d956-9e4c-4019-9e33-a0946078f733","system_id":"levelo_inurba_marseille","lat":43.284534,"lon":5.358662,"is_reserved":false,"is_disabled":false,"rental_uris":{"android":"levelo://app?vid=ad00d956-9e4c-4019-9e33-a0946078f733","ios":"levelo://app?vid=ad00d956-9e4c-4019-9e33-a0946078f733"},"vehicle_type_id":"4","last_reported":1718640582,"current_range_meters":22400,"station_id":"ce4bhah2rcd13ifvqei0","pricing_plan_id":"cebpf4jnsgd1na2vs0mg"},{"bike_id":"890f8026-f325-4526-8080-04286e7fbbcd","system_id":"levelo_inurba_marseille","lat":43.294314,"lon":5.397498,"is_reserved":false,"is_disabled":false,"rental_uris":{"android":"levelo://app?vid=890f8026-f325-4526-8080-04286e7fbbcd","ios":"levelo://app?vid=890f8026-f325-4526-8080-04286e7fbbcd"},"vehicle_type_id":"4","last_reported":1718640582,"current_range_meters":3200,"station_id":"ce4bh3h2rcd13ifvqdo0","pricing_plan_id":"cebpf4jnsgd1na2vs0mg"},{"bike_id":"bc3533cf-f7ef-49ff-aa84-dab5f8d38a4b","system_id":"levelo_inurba_marseille","lat":43.284538,"lon":5.358657,"is_reserved":false,"is_disabled":false,"rental_uris":{"android":"levelo://app?vid=bc3533cf-f7ef-49ff-aa84-dab5f8d38a4b","ios":"levelo://app?vid=bc3533cf-f7ef-49ff-aa84-dab5f8d38a4b"},"vehicle_type_id":"4","last_reported":1718640582,"current_range_meters":17600,"station_id":"ce4bhah2rcd13ifvqei0","pricing_plan_id":"cebpf4jnsgd1na2vs0mg"},{"bike_id":"bb88f656-2166-4f9d-86e8-b0d08124e75c","system_id":"levelo_inurba_marseille","lat":43.284538,"lon":5.358657,"is_reserved":false,"is_disabled":false,"rental_uris":{"android":"levelo://app?vid=bb88f656-2166-4f9d-86e8-b0d08124e75c","ios":"levelo://app?vid=bb88f656-2166-4f9d-86e8-b0d08124e75c"},"vehicle_type_id":"4","last_reported":1718640582,"current_range_meters":15200,"station_id":"ce4bhah2rcd13ifvqei0","pricing_plan_id":"cebpf4jnsgd1na2vs0mg"},{"bike_id":"2943aa2d-3cc6-4651-9be3-7ad261d3e135","system_id":"levelo_inurba_marseille","lat":43.284534,"lon":5.358662,"is_reserved":false,"is_disabled":false,"rental_uris":{"android":"levelo://app?vid=2943aa2d-3cc6-4651-9be3-7ad261d3e135","ios":"levelo://app?vid=2943aa2d-3cc6-4651-9be3-7ad261d3e135"},"vehicle_type_id":"4","last_reported":1718640582,"current_range_meters":10400,"station_id":"ce4bhah2rcd13ifvqei0","pricing_plan_id":"cebpf4jnsgd1na2vs0mg"},{"bike_id":"e1b08b2e-7d3a-4067-903f-113f6423b586","system_id":"levelo_inurba_marseille","lat":43.294314,"lon":5.397498,"is_reserved":false,"is_disabled":false,"rental_uris":{"android":"levelo://app?vid=e1b08b2e-7d3a-4067-903f-113f6423b586","ios":"levelo://app?vid=e1b08b2e-7d3a-4067-903f-113f6423b586"},"vehicle_type_id":"4","last_reported":1718640582,"current_range_meters":24400,"station_id":"ce4bh3h2rcd13ifvqdo0","pricing_plan_id":"cebpf4jnsgd1na2vs0mg"},{"bike_id":"16414983-cd7c-466e-a58d-a9183ba697d6","system_id":"levelo_inurba_marseille","lat":43.29441,"lon":5.39762,"is_reserved":false,"is_disabled":false,"rental_uris":{"android":"levelo://app?vid=16414983-cd7c-466e-a58d-a9183ba697d6","ios":"levelo://app?vid=16414983-cd7c-466e-a58d-a9183ba697d6"},"vehicle_type_id":"4","last_reported":1718640582,"current_range_meters":30400,"station_id":"ce4bh3h2rcd13ifvqdo0","pricing_plan_id":"cebpf4jnsgd1na2vs0mg"},{"bike_id":"4e00a40c-2f05-4521-82b6-128b5dcbaf71","system_id":"levelo_inurba_marseille","lat":43.28619,"lon":5.35108,"is_reserved":false,"is_disabled":false,"rental_uris":{"android":"levelo://app?vid=4e00a40c-2f05-4521-82b6-128b5dcbaf71","ios":"levelo://app?vid=4e00a40c-2f05-4521-82b6-128b5dcbaf71"},"vehicle_type_id":"4","last_reported":1718640582,"current_range_meters":19200,"station_id":"ce4bhch2rcd13ifvqeug","pricing_plan_id":"cebpf4jnsgd1na2vs0mg"},{"bike_id":"6ac8b476-3d0b-4714-a96e-4f8bcee4d40a","system_id":"levelo_inurba_marseille","lat":43.28618,"lon":5.35111,"is_reserved":false,"is_disabled":false,"rental_uris":{"android":"levelo://app?vid=6ac8b476-3d0b-4714-a96e-4f8bcee4d40a","ios":"levelo://app?vid=6ac8b476-3d0b-4714-a96e-4f8bcee4d40a"},"vehicle_type_id":"4","last_reported":1718640582,"current_range_meters":17600,"station_id":"ce4bhch2rcd13ifvqeug","pricing_plan_id":"cebpf4jnsgd1na2vs0mg"},{"bike_id":"2f200993-56b6-4f87-90f4-4fd370bc3787","system_id":"levelo_inurba_marseille","lat":43.286198,"lon":5.351021,"is_reserved":false,"is_disabled":false,"rental_uris":{"android":"levelo://app?vid=2f200993-56b6-4f87-90f4-4fd370bc3787","ios":"levelo://app?vid=2f200993-56b6-4f87-90f4-4fd370bc3787"},"vehicle_type_id":"4","last_reported":1718640582,"current_range_meters":29600,"station_id":"ce4bhch2rcd13ifvqeug","pricing_plan_id":"cebpf4jnsgd1na2vs0mg"},{"bike_id":"91eeae87-046f-4bd2-9173-f9f59723b89c","system_id":"levelo_inurba_marseille","lat":43.28619,"lon":5.35103,"is_reserved":false,"is_disabled":false,"rental_uris":{"android":"levelo://app?vid=91eeae87-046f-4bd2-9173-f9f59723b89c","ios":"levelo://app?vid=91eeae87-046f-4bd2-9173-f9f59723b89c"},"vehicle_type_id":"4","last_reported":1718640582,"current_range_meters":20400,"station_id":"ce4bhch2rcd13ifvqeug","pricing_plan_id":"cebpf4jnsgd1na2vs0mg"},{"bike_id":"544d90fd-56a3-41ff-a1ac-1a7c5afa9f36","system_id":"levelo_inurba_marseille","lat":43.286194,"lon":5.351012,"is_reserved":false,"is_disabled":false,"rental_uris":{"android":"levelo://app?vid=544d90fd-56a3-41ff-a1ac-1a7c5afa9f36","ios":"levelo://app?vid=544d90fd-56a3-41ff-a1ac-1a7c5afa9f36"},"vehicle_type_id":"4","last_reported":1718640582,"current_range_meters":31200,"station_id":"ce4bhch2rcd13ifvqeug","pricing_plan_id":"cebpf4jnsgd1na2vs0mg"},{"bike_id":"db847e84-8dda-46ca-ab8e-0daf8481f5a1","system_id":"levelo_inurba_marseille","lat":43.28618,"lon":5.35104,"is_reserved":false,"is_disabled":false,"rental_uris":{"android":"levelo://app?vid=db847e84-8dda-46ca-ab8e-0daf8481f5a1","ios":"levelo://app?vid=db847e84-8dda-46ca-ab8e-0daf8481f5a1"},"vehicle_type_id":"4","last_reported":1718640582,"current_range_meters":10000,"station_id":"ce4bhch2rcd13ifvqeug","pricing_plan_id":"cebpf4jnsgd1na2vs0mg"},{"bike_id":"04900a83-a061-46ef-beb6-d301c3be1265","system_id":"levelo_inurba_marseille","lat":43.28618,"lon":5.35104,"is_reserved":false,"is_disabled":false,"rental_uris":{"android":"levelo://app?vid=04900a83-a061-46ef-beb6-d301c3be1265","ios":"levelo://app?vid=04900a83-a061-46ef-beb6-d301c3be1265"},"vehicle_type_id":"4","last_reported":1718640582,"current_range_meters":1600,"station_id":"ce4bhch2rcd13ifvqeug","pricing_plan_id":"cebpf4jnsgd1na2vs0mg"},{"bike_id":"20d2be78-0a7e-47b5-9cbd-ca6c8a320b77","system_id":"levelo_inurba_marseille","lat":43.28619,"lon":5.351,"is_reserved":false,"is_disabled":false,"rental_uris":{"android":"levelo://app?vid=20d2be78-0a7e-47b5-9cbd-ca6c8a320b77","ios":"levelo://app?vid=20d2be78-0a7e-47b5-9cbd-ca6c8a320b77"},"vehicle_type_id":"4","last_reported":1718640582,"current_range_meters":29200,"station_id":"ce4bhch2rcd13ifvqeug","pricing_plan_id":"cebpf4jnsgd1na2vs0mg"},{"bike_id":"41417718-faed-4433-a25e-b335731f754f","system_id":"levelo_inurba_marseille","lat":43.28616,"lon":5.35107,"is_reserved":false,"is_disabled":false,"rental_uris":{"android":"levelo://app?vid=41417718-faed-4433-a25e-b335731f754f","ios":"levelo://app?vid=41417718-faed-4433-a25e-b335731f754f"},"vehicle_type_id":"4","last_reported":1718640582,"current_range_meters":400,"station_id":"ce4bhch2rcd13ifvqeug","pricing_plan_id":"cebpf4jnsgd1na2vs0mg"},{"bike_id":"bdc55132-3bf8-4d07-b977-86dad871a989","system_id":"levelo_inurba_marseille","lat":43.28616,"lon":5.35106,"is_reserved":false,"is_disabled":false,"rental_uris":{"android":"levelo://app?vid=bdc55132-3bf8-4d07-b977-86dad871a989","ios":"levelo://app?vid=bdc55132-3bf8-4d07-b977-86dad871a989"},"vehicle_type_id":"4","last_reported":1718640582,"current_range_meters":16400,"station_id":"ce4bhch2rcd13ifvqeug","pricing_plan_id":"cebpf4jnsgd1na2vs0mg"},{"bike_id":"9226c42e-432f-4f8a-a190-62da99310a12","system_id":"levelo_inurba_marseille","lat":43.28616,"lon":5.35106,"is_reserved":false,"is_disabled":false,"rental_uris":{"android":"levelo://app?vid=9226c42e-432f-4f8a-a190-62da99310a12","ios":"levelo://app?vid=9226c42e-432f-4f8a-a190-62da99310a12"},"vehicle_type_id":"4","last_reported":1718640582,"current_range_meters":10000,"station_id":"ce4bhch2rcd13ifvqeug","pricing_plan_id":"cebpf4jnsgd1na2vs0mg"},{"bike_id":"e8db2dea-e827-46a3-a545-e7bea6536634","system_id":"levelo_inurba_marseille","lat":43.28615,"lon":5.35108,"is_reserved":false,"is_disabled":false,"rental_uris":{"android":"levelo://app?vid=e8db2dea-e827-46a3-a545-e7bea6536634","ios":"levelo://app?vid=e8db2dea-e827-46a3-a545-e7bea6536634"},"vehicle_type_id":"4","last_reported":1718640582,"current_range_meters":18400,"station_id":"ce4bhch2rcd13ifvqeug","pricing_plan_id":"cebpf4jnsgd1na2vs0mg"},{"bike_id":"f98d17c5-d536-43cd-b634-6e2392c117ba","system_id":"levelo_inurba_marseille","lat":43.28613,"lon":5.35108,"is_reserved":false,"is_disabled":false,"rental_uris":{"android":"levelo://app?vid=f98d17c5-d536-43cd-b634-6e2392c117ba","ios":"levelo://app?vid=f98d17c5-d536-43cd-b634-6e2392c117ba"},"vehicle_type_id":"4","last_reported":1718640582,"current_range_meters":1200,"station_id":"ce4bhch2rcd13ifvqeug","pricing_plan_id":"cebpf4jnsgd1na2vs0mg"},{"bike_id":"3ed1a919-adb7-443a-af68-c38b889261fc","system_id":"levelo_inurba_marseille","lat":43.28616,"lon":5.35097,"is_reserved":false,"is_disabled":false,"rental_uris":{"android":"levelo://app?vid=3ed1a919-adb7-443a-af68-c38b889261fc","ios":"levelo://app?vid=3ed1a919-adb7-443a-af68-c38b889261fc"},"vehicle_type_id":"4","last_reported":1718640582,"current_range_meters":24000,"station_id":"ce4bhch2rcd13ifvqeug","pricing_plan_id":"cebpf4jnsgd1na2vs0mg"},{"bike_id":"cd660a12-2a1f-4e54-b1d2-908057aaaed6","system_id":"levelo_inurba_marseille","lat":43.285856,"lon":5.350771,"is_reserved":false,"is_disabled":false,"rental_uris":{"android":"levelo://app?vid=cd660a12-2a1f-4e54-b1d2-908057aaaed6","ios":"levelo://app?vid=cd660a12-2a1f-4e54-b1d2-908057aaaed6"},"vehicle_type_id":"4","last_reported":1718640582,"current_range_meters":22000,"station_id":"ce4bhch2rcd13ifvqeug","pricing_plan_id":"cebpf4jnsgd1na2vs0mg"},{"bike_id":"7720d56f-24dc-4120-8027-db57fc8d8268","system_id":"levelo_inurba_marseille","lat":43.28614,"lon":5.35103,"is_reserved":false,"is_disabled":false,"rental_uris":{"android":"levelo://app?vid=7720d56f-24dc-4120-8027-db57fc8d8268","ios":"levelo://app?vid=7720d56f-24dc-4120-8027-db57fc8d8268"},"vehicle_type_id":"4","last_reported":1718640582,"current_range_meters":28800,"station_id":"ce4bhch2rcd13ifvqeug","pricing_plan_id":"cebpf4jnsgd1na2vs0mg"},{"bike_id":"02e70cf3-5f88-4054-9d47-c45f55bcbeeb","system_id":"levelo_inurba_marseille","lat":43.28616,"lon":5.35096,"is_reserved":false,"is_disabled":false,"rental_uris":{"android":"levelo://app?vid=02e70cf3-5f88-4054-9d47-c45f55bcbeeb","ios":"levelo://app?vid=02e70cf3-5f88-4054-9d47-c45f55bcbeeb"},"vehicle_type_id":"4","last_reported":1718640582,"current_range_meters":10800,"station_id":"ce4bhch2rcd13ifvqeug","pricing_plan_id":"cebpf4jnsgd1na2vs0mg"},{"bike_id":"36bf6ef7-f72d-4fe7-8919-6d7002bc763f","system_id":"levelo_inurba_marseille","lat":43.28611,"lon":5.35111,"is_reserved":false,"is_disabled":false,"rental_uris":{"android":"levelo://app?vid=36bf6ef7-f72d-4fe7-8919-6d7002bc763f","ios":"levelo://app?vid=36bf6ef7-f72d-4fe7-8919-6d7002bc763f"},"vehicle_type_id":"4","last_reported":1718640582,"current_range_meters":400,"station_id":"ce4bhch2rcd13ifvqeug","pricing_plan_id":"cebpf4jnsgd1na2vs0mg"},{"bike_id":"4e2c8589-ed2e-472e-adbd-ce369b278a5d","system_id":"levelo_inurba_marseille","lat":43.28612,"lon":5.35106,"is_reserved":false,"is_disabled":false,"rental_uris":{"android":"levelo://app?vid=4e2c8589-ed2e-472e-adbd-ce369b278a5d","ios":"levelo://app?vid=4e2c8589-ed2e-472e-adbd-ce369b278a5d"},"vehicle_type_id":"4","last_reported":1718640582,"current_range_meters":800,"station_id":"ce4bhch2rcd13ifvqeug","pricing_plan_id":"cebpf4jnsgd1na2vs0mg"},{"bike_id":"da2f8ed0-c646-4ace-9bb4-1454889f75d3","system_id":"levelo_inurba_marseille","lat":43.285848,"lon":5.350787,"is_reserved":false,"is_disabled":false,"rental_uris":{"android":"levelo://app?vid=da2f8ed0-c646-4ace-9bb4-1454889f75d3","ios":"levelo://app?vid=da2f8ed0-c646-4ace-9bb4-1454889f75d3"},"vehicle_type_id":"4","last_reported":1718640582,"current_range_meters":14800,"station_id":"ce4bhch2rcd13ifvqeug","pricing_plan_id":"cebpf4jnsgd1na2vs0mg"},{"bike_id":"9986c4a4-a010-4055-b8fb-cec410c9a4a6","system_id":"levelo_inurba_marseille","lat":43.28607,"lon":5.351007,"is_reserved":false,"is_disabled":false,"rental_uris":{"android":"levelo://app?vid=9986c4a4-a010-4055-b8fb-cec410c9a4a6","ios":"levelo://app?vid=9986c4a4-a010-4055-b8fb-cec410c9a4a6"},"vehicle_type_id":"4","last_reported":1718640582,"current_range_meters":25600,"station_id":"ce4bhch2rcd13ifvqeug","pricing_plan_id":"cebpf4jnsgd1na2vs0mg"},{"bike_id":"d946ee54-d2db-4144-aa9f-9950a1600556","system_id":"levelo_inurba_marseille","lat":43.283998,"lon":5.375062,"is_reserved":false,"is_disabled":false,"rental_uris":{"android":"levelo://app?vid=d946ee54-d2db-4144-aa9f-9950a1600556","ios":"levelo://app?vid=d946ee54-d2db-4144-aa9f-9950a1600556"},"vehicle_type_id":"4","last_reported":1718640582,"current_range_meters":25600,"station_id":"ce4bh412rcd13ifvqds0","pricing_plan_id":"cebpf4jnsgd1na2vs0mg"},{"bike_id":"17bfa156-bc6c-49c4-9187-65232697b381","system_id":"levelo_inurba_marseille","lat":43.28403,"lon":5.37509,"is_reserved":false,"is_disabled":false,"rental_uris":{"android":"levelo://app?vid=17bfa156-bc6c-49c4-9187-65232697b381","ios":"levelo://app?vid=17bfa156-bc6c-49c4-9187-65232697b381"},"vehicle_type_id":"4","last_reported":1718640582,"current_range_meters":2800,"station_id":"ce4bh412rcd13ifvqds0","pricing_plan_id":"cebpf4jnsgd1na2vs0mg"},{"bike_id":"3cd5ac78-afad-4435-a9e8-b1a7ef46f2eb","system_id":"levelo_inurba_marseille","lat":43.28401,"lon":5.37512,"is_reserved":false,"is_disabled":false,"rental_uris":{"android":"levelo://app?vid=3cd5ac78-afad-4435-a9e8-b1a7ef46f2eb","ios":"levelo://app?vid=3cd5ac78-afad-4435-a9e8-b1a7ef46f2eb"},"vehicle_type_id":"4","last_reported":1718640582,"current_range_meters":26800,"station_id":"ce4bh412rcd13ifvqds0","pricing_plan_id":"cebpf4jnsgd1na2vs0mg"},{"bike_id":"681fd5a4-a62e-4306-97a7-92d111f9d9bd","system_id":"levelo_inurba_marseille","lat":43.283998,"lon":5.375062,"is_reserved":false,"is_disabled":false,"rental_uris":{"android":"levelo://app?vid=681fd5a4-a62e-4306-97a7-92d111f9d9bd","ios":"levelo://app?vid=681fd5a4-a62e-4306-97a7-92d111f9d9bd"},"vehicle_type_id":"4","last_reported":1718640582,"current_range_meters":6000,"station_id":"ce4bh412rcd13ifvqds0","pricing_plan_id":"cebpf4jnsgd1na2vs0mg"},{"bike_id":"72cefa78-9d59-46a0-98ce-8e63b8654b31","system_id":"levelo_inurba_marseille","lat":43.284,"lon":5.37517,"is_reserved":false,"is_disabled":false,"rental_uris":{"android":"levelo://app?vid=72cefa78-9d59-46a0-98ce-8e63b8654b31","ios":"levelo://app?vid=72cefa78-9d59-46a0-98ce-8e63b8654b31"},"vehicle_type_id":"4","last_reported":1718640582,"current_range_meters":17200,"station_id":"ce4bh412rcd13ifvqds0","pricing_plan_id":"cebpf4jnsgd1na2vs0mg"},{"bike_id":"67082b3f-a9d3-48db-a12e-84a84d42f40c","system_id":"levelo_inurba_marseille","lat":43.28399,"lon":5.37516,"is_reserved":false,"is_disabled":false,"rental_uris":{"android":"levelo://app?vid=67082b3f-a9d3-48db-a12e-84a84d42f40c","ios":"levelo://app?vid=67082b3f-a9d3-48db-a12e-84a84d42f40c"},"vehicle_type_id":"4","last_reported":1718640582,"current_range_meters":11200,"station_id":"ce4bh412rcd13ifvqds0","pricing_plan_id":"cebpf4jnsgd1na2vs0mg"},{"bike_id":"62526e7c-ef91-49ac-9e77-e8a709eabcd2","system_id":"levelo_inurba_marseille","lat":43.283998,"lon":5.375062,"is_reserved":false,"is_disabled":false,"rental_uris":{"android":"levelo://app?vid=62526e7c-ef91-49ac-9e77-e8a709eabcd2","ios":"levelo://app?vid=62526e7c-ef91-49ac-9e77-e8a709eabcd2"},"vehicle_type_id":"4","last_reported":1718640582,"current_range_meters":18800,"station_id":"ce4bh412rcd13ifvqds0","pricing_plan_id":"cebpf4jnsgd1na2vs0mg"},{"bike_id":"6e1da80e-fa4d-4cc4-a34d-14d13baacd0b","system_id":"levelo_inurba_marseille","lat":43.286595,"lon":5.386795,"is_reserved":false,"is_disabled":false,"rental_uris":{"android":"levelo://app?vid=6e1da80e-fa4d-4cc4-a34d-14d13baacd0b","ios":"levelo://app?vid=6e1da80e-fa4d-4cc4-a34d-14d13baacd0b"},"vehicle_type_id":"4","last_reported":1718640582,"current_range_meters":0,"station_id":"ce4bh492rcd13ifvqdug","pricing_plan_id":"cebpf4jnsgd1na2vs0mg"},{"bike_id":"05899431-01ce-4c9a-89e8-8c2ff5e44b12","system_id":"levelo_inurba_marseille","lat":43.273609,"lon":5.362708,"is_reserved":false,"is_disabled":false,"rental_uris":{"android":"levelo://app?vid=05899431-01ce-4c9a-89e8-8c2ff5e44b12","ios":"levelo://app?vid=05899431-01ce-4c9a-89e8-8c2ff5e44b12"},"vehicle_type_id":"4","last_reported":1718640582,"current_range_meters":19200,"station_id":"ce4bhbh2rcd13ifvqeo0","pricing_plan_id":"cebpf4jnsgd1na2vs0mg"},{"bike_id":"0630fd6b-ba8c-4b0e-8433-4270f5eeb8ae","system_id":"levelo_inurba_marseille","lat":43.3234,"lon":5.40618,"is_reserved":false,"is_disabled":false,"rental_uris":{"android":"levelo://app?vid=0630fd6b-ba8c-4b0e-8433-4270f5eeb8ae","ios":"levelo://app?vid=0630fd6b-ba8c-4b0e-8433-4270f5eeb8ae"},"vehicle_type_id":"4","last_reported":1718640582,"current_range_meters":0,"station_id":"ce4bhq92rcd13ifvqhjg","pricing_plan_id":"cebpf4jnsgd1na2vs0mg"},{"bike_id":"ea8369e5-342c-4c32-b788-8e3a1d651d40","system_id":"levelo_inurba_marseille","lat":43.284787,"lon":5.384116,"is_reserved":false,"is_disabled":false,"rental_uris":{"android":"levelo://app?vid=ea8369e5-342c-4c32-b788-8e3a1d651d40","ios":"levelo://app?vid=ea8369e5-342c-4c32-b788-8e3a1d651d40"},"vehicle_type_id":"4","last_reported":1718640582,"current_range_meters":0,"station_id":"ce4bh512rcd13ifvqe3g","pricing_plan_id":"cebpf4jnsgd1na2vs0mg"},