{"last_updated":1700831340,"ttl":30,"version":"2.2","data":{"bikes":[{"bike_id":"13ec6254-dae8-49f7-b9a2-38386acd0d9d","system_id":"levelo_inurba_marseille","lat":43.309076,"lon":5.368465,"is_reserved":false,"is_disabled":false,"rental_uris":{"android":"levelo://app?vid=13ec6254-dae8-49f7-b9a2-38386acd0d9d","ios":"levelo://app?vid=13ec6254-dae8-49f7-b9a2-38386acd0d9d"},"vehicle_type_id":"4","last_reported":1700831340,"current_range_meters":24000,"station_id":"ce4bgn92rcd13ifvqbvg","pricing_plan_id":"free"},{"bike_id":"d859f4c6-6ebd-4fd4-9a22-16c3b3a84e08","system_id":"levelo_inurba_marseille","lat":43.314811,"lon":5.373103,"is_reserved":false,"is_disabled":false,"rental_uris":{"android":"levelo://app?vid=d859f4c6-6ebd-4fd4-9a22-16c3b3a84e08","ios":"levelo://app?vid=d859f4c6-6ebd-4fd4-9a22-16c3b3a84e08"},"vehicle_type_id":"4","last_reported":1700831340,"current_range_meters":6800,"station_id":"ce4bgt12rcd13ifvqcd0","pricing_plan_id":"free"},{"bike_id":"be3186e1-6e0d-4f61-95e5-f15a199c35f3","system_id":"levelo_inurba_marseille","lat":43.314811,"lon":5.373103,"is_reserved":false,"is_disabled":false,"rental_uris":{"android":"levelo://app?vid=be3186e1-6e0d-4f61-95e5-f15a199c35f3","ios":"levelo://app?vid=be3186e1-6e0d-4f61-95e5-f15a199c35f3"},"vehicle_type_id":"4","last_reported":1700831340,"current_range_meters":16400,"station_id":"ce4bgt12rcd13ifvqcd0","pricing_plan_id":"free"},{"bike_id":"e6828738-a3f7-4275-bc5d-37f403121b1d","system_id":"levelo_inurba_marseille","lat":43.314811,"lon":5.373103,"is_reserved":false,"is_disabled":false,"rental_uris":{"android":"levelo://app?vid=e6828738-a3f7-4275-bc5d-37f403121b1d","ios":"levelo://app?vid=e6828738-a3f7-4275-bc5d-37f403121b1d"},"vehicle_type_id":"4","last_reported":1700831340,"current_range_meters":32000,"station_id":"ce4bgt12rcd13ifvqcd0","pricing_plan_id":"free"},{"bike_id":"bd73dbff-5687-46a7-bd94-22c2218889e9","system_id":"levelo_inurba_marseille","lat":43.314811,"lon":5.373104,"is_reserved":false,"is_disabled":false,"rental_uris":{"android":"levelo://app?vid=bd73dbff-5687-46a7-bd94-22c2218889e9","ios":"levelo://app?vid=bd73dbff-5687-46a7-bd94-22c2218889e9"},"vehicle_type_id":"4","last_reported":1700831340,"current_range_meters":28400,"station_id":"ce4bgt12rcd13ifvqcd0","pricing_plan_id":"free"},{"bike_id":"f707695c-450a-46ec-8cf8-dde3b9d14faa","system_id":"levelo_inurba_marseille","lat":43.305714,"lon":5.365633,"is_reserved":false,"is_disabled":false,"rental_uris":{"android":"levelo://app?vid=f707695c-450a-46ec-8cf8-dde3b9d14faa","ios":"levelo://app?vid=f707695c-450a-46ec-8cf8-dde3b9d14faa"},"vehicle_type_id":"4","last_reported":1700831340,"current_range_meters":14000,"station_id":"ce4bgs12rcd13ifvqcag","pricing_plan_id":"free"},{"bike_id":"84fe0fec-ebb1-4d39-ae17-190a98ce8faa","system_id":"levelo_inurba_marseille","lat":43.305706,"lon":5.365654,"is_reserved":false,"is_disabled":false,"rental_uris":{"android":"levelo://app?vid=84fe0fec-ebb1-4d39-ae17-190a98ce8faa","ios":"levelo://app?vid=84fe0fec-ebb1-4d39-ae17-190a98ce8faa"},"vehicle_type_id":"4","last_reported":1700831340,"current_range_meters":13600,"station_id":"ce4bgs12rcd13ifvqcag","pricing_plan_id":"free"},{"bike_id":"d261a666-0af6-49ad-a053-028d0de6affc","system_id":"levelo_inurba_marseille","lat":43.305706,"lon":5.365654,"is_reserved":false,"is_disabled":false,"rental_uris":{"android":"levelo://app?vid=d261a666-0af6-49ad-a053-028d0de6affc","ios":"levelo://app?vid=d261a666-0af6-49ad-a053-028d0de6affc"},"vehicle_type_id":"4","last_reported":1700831340,"current_range_meters":1600,"station_id":"ce4bgs12rcd13ifvqcag","pricing_plan_id":"free"},{"bike_id":"73394eb3-a8d3-4620-bf85-e16d400f7845","system_id":"levelo_inurba_marseille","lat":43.305287,"lon":5.367047,"is_reserved":false,"is_disabled":false,"rental_uris":{"android":"levelo://app?vid=73394eb3-a8d3-4620-bf85-e16d400f7845","ios":"levelo://app?vid=73394eb3-a8d3-4620-bf85-e16d400f7845"},"vehicle_type_id":"4","last_reported":1700831340,"current_range_meters":4800,"station_id":"","pricing_plan_id":"free"},{"bike_id":"e72d5dbe-d923-4a6c-96ab-dbe9156e538f","system_id":"levelo_inurba_marseille","lat":43.305706,"lon":5.365654,"is_reserved":false,"is_disabled":false,"rental_uris":{"android":"levelo://app?vid=e72d5dbe-d923-4a6c-96ab-dbe9156e538f","ios":"levelo://app?vid=e72d5dbe-d923-4a6c-96ab-dbe9156e538f"},"vehicle_type_id":"4","last_reported":1700831340,"current_range_meters":31600,"station_id":"ce4bgs12rcd13ifvqcag","pricing_plan_id":"free"},{"bike_id":"fe67b6cd-6da7-452b-a5aa-333b57ed9e58","system_id":"levelo_inurba_marseille","lat":43.30524,"lon":5.36709,"is_reserved":false,"is_disabled":false,"rental_uris":{"android":"levelo://app?vid=fe67b6cd-6da7-452b-a5aa-333b57ed9e58","ios":"levelo://app?vid=fe67b6cd-6da7-452b-a5aa-333b57ed9e58"},"vehicle_type_id":"4","last_reported":1700831340,"current_range_meters":0,"station_id":"ce4bgrp2rcd13ifvqc9g","pricing_plan_id":"free"},{"bike_id":"43bf5cf6-ac0a-4035-9884-61a3aec3d997","system_id":"levelo_inurba_marseille","lat":43.305706,"lon":5.365654,"is_reserved":false,"is_disabled":false,"rental_uris":{"android":"levelo://app?vid=43bf5cf6-ac0a-4035-9884-61a3aec3d997","ios":"levelo://app?vid=43bf5cf6-ac0a-4035-9884-61a3aec3d997"},"vehicle_type_id":"4","last_reported":1700831340,"current_range_meters":31600,"station_id":"ce4bgs12rcd13ifvqcag","pricing_plan_id":"free"},{"bike_id":"c7ba5f8c-cc62-4f9a-89ab-e3da034dc7ff","system_id":"levelo_inurba_marseille","lat":43.305706,"lon":5.365654,"is_reserved":false,"is_disabled":false,"rental_uris":{"android":"levelo://app?vid=c7ba5f8c-cc62-4f9a-89ab-e3da034dc7ff","ios":"levelo://app?vid=c7ba5f8c-cc62-4f9a-89ab-e3da034dc7ff"},"vehicle_type_id":"4","last_reported":1700831340,"current_range_meters":18800,"station_id":"ce4bgs12rcd13ifvqcag","pricing_plan_id":"free"},{"bike_id":"6851c173-709b-4438-b663-34bb270f6615","system_id":"levelo_inurba_marseille","lat":43.305989,"lon":5.37225,"is_reserved":false,"is_disabled":false,"rental_uris":{"android":"levelo://app?vid=6851c173-709b-4438-b663-34bb270f6615","ios":"levelo://app?vid=6851c173-709b-4438-b663-34bb270f6615"},"vehicle_type_id":"4","last_reported":1700831340,"current_range_meters":3200,"station_id":"ce4bgqh2rcd13ifvqc4g","pricing_plan_id":"free"},{"bike_id":"903fa980-3547-43a0-9d62-b67f55bb25e0","system_id":"levelo_inurba_marseille","lat":43.30822,"lon":5.376375,"is_reserved":false,"is_disabled":false,"rental_uris":{"android":"levelo://app?vid=903fa980-3547-43a0-9d62-b67f55bb25e0","ios":"levelo://app?vid=903fa980-3547-43a0-9d62-b67f55bb25e0"},"vehicle_type_id":"4","last_reported":1700831340,"current_range_meters":0,"station_id":"ce4bgv92rcd13ifvqcq0","pricing_plan_id":"free"},{"bike_id":"5432ebe5-659a-45a0-a8e1-89d3238e7a59","system_id":"levelo_inurba_marseille","lat":43.30314,"lon":5.36915,"is_reserved":false,"is_disabled":false,"rental_uris":{"android":"levelo://app?vid=5432ebe5-659a-45a0-a8e1-89d3238e7a59","ios":"levelo://app?vid=5432ebe5-659a-45a0-a8e1-89d3238e7a59"},"vehicle_type_id":"4","last_reported":1700831340,"current_range_meters":12400,"station_id":"ce4bgqh2rcd13ifvqc5g","pricing_plan_id":"free"},{"bike_id":"b9fb0e48-8a80-4334-9865-1d2bd3204ff4","system_id":"levelo_inurba_marseille","lat":43.303046,"lon":5.368981,"is_reserved":false,"is_disabled":false,"rental_uris":{"android":"levelo://app?vid=b9fb0e48-8a80-4334-9865-1d2bd3204ff4","ios":"levelo://app?vid=b9fb0e48-8a80-4334-9865-1d2bd3204ff4"},"vehicle_type_id":"4","last_reported":1700831340,"current_range_meters":26000,"station_id":"ce4bgqh2rcd13ifvqc5g","pricing_plan_id":"free"},{"bike_id":"be93a972-0ca9-43e4-8157-e11f2318ce9f","system_id":"levelo_inurba_marseille","lat":43.30304,"lon":5.368987,"is_reserved":false,"is_disabled":false,"rental_uris":{"android":"levelo://app?vid=be93a972-0ca9-43e4-8157-e11f2318ce9f","ios":"levelo://app?vid=be93a972-0ca9-43e4-8157-e11f2318ce9f"},"vehicle_type_id":"4","last_reported":1700831340,"current_range_meters":23200,"station_id":"ce4bgqh2rcd13ifvqc5g","pricing_plan_id":"free"},{"bike_id":"0cee7ace-2fb9-4894-a00b-ef6e7ee4708d","system_id":"levelo_inurba_marseille","lat":43.303046,"lon":5.368981,"is_reserved":false,"is_disabled":false,"rental_uris":{"android":"levelo://app?vid=0cee7ace-2fb9-4894-a00b-ef6e7ee4708d","ios":"levelo://app?vid=0cee7ace-2fb9-4894-a00b-ef6e7ee4708d"},"vehicle_type_id":"4","last_reported":1700831340,"current_range_meters":17200,"station_id":"ce4bgqh2rcd13ifvqc5g","pricing_plan_id":"free"},{"bike_id":"a2efd98c-7de0-4fe2-9e63-24b257ff27e1","system_id":"levelo_inurba_marseille","lat":43.30304,"lon":5.368987,"is_reserved":false,"is_disabled":false,"rental_uris":{"android":"levelo://app?vid=a2efd98c-7de0-4fe2-9e63-24b257ff27e1","ios":"levelo://app?vid=a2efd98c-7de0-4fe2-9e63-24b257ff27e1"},"vehicle_type_id":"4","last_reported":1700831340,"current_range_meters":10400,"station_id":"ce4bgqh2rcd13ifvqc5g","pricing_plan_id":"free"},{"bike_id":"4054a4e6-9075-42af-a45d-ee6ff6dc4fb7","system_id":"levelo_inurba_marseille","lat":43.303046,"lon":5.368981,"is_reserved":false,"is_disabled":false,"rental_uris":{"android":"levelo://app?vid=4054a4e6-9075-42af-a45d-ee6ff6dc4fb7","ios":"levelo://app?vid=4054a4e6-9075-42af-a45d-ee6ff6dc4fb7"},"vehicle_type_id":"4","last_reported":1700831340,"current_range_meters":22400,"station_id":"ce4bgqh2rcd13ifvqc5g","pricing_plan_id":"free"},{"bike_id":"2b0a92d0-e7d1-440c-b1c8-5ba8bb5559cc","system_id":"levelo_inurba_marseille","lat":43.301939,"lon":5.366286,"is_reserved":false,"is_disabled":false,"rental_uris":{"android":"levelo://app?vid=2b0a92d0-e7d1-440c-b1c8-5ba8bb5559cc","ios":"levelo://app?vid=2b0a92d0-e7d1-440c-b1c8-5ba8bb5559cc"},"vehicle_type_id":"4","last_reported":1700831340,"current_range_meters":8000,"station_id":"ce4bgrh2rcd13ifvqc8g","pricing_plan_id":"free"},{"bike_id":"fc7c0b88-6df5-49c8-b265-a489a5aa4516","system_id":"levelo_inurba_marseille","lat":43.30806,"lon":5.38158,"is_reserved":false,"is_disabled":false,"rental_uris":{"android":"levelo://app?vid=fc7c0b88-6df5-49c8-b265-a489a5aa4516","ios":"levelo://app?vid=fc7c0b88-6df5-49c8-b265-a489a5aa4516"},"vehicle_type_id":"4","last_reported":1700831340,"current_range_meters":0,"station_id":"ce4bgt12rcd13ifvqce0","pricing_plan_id":"free"},{"bike_id":"661aaa93-f846-46cb-a9af-2c13e5f51a5d","system_id":"levelo_inurba_marseille","lat":43.301429,"lon":5.37413,"is_reserved":false,"is_disabled":false,"rental_uris":{"android":"levelo://app?vid=661aaa93-f846-46cb-a9af-2c13e5f51a5d","ios":"levelo://app?vid=661aaa93-f846-46cb-a9af-2c13e5f51a5d"},"vehicle_type_id":"4","last_reported":1700831340,"current_range_meters":14400,"station_id":"ce4bgs92rcd13ifvqcc0","pricing_plan_id":"free"},{"bike_id":"7f9b8825-0fb7-4fa8-ba9a-bb7ee143dc49","system_id":"levelo_inurba_marseille","lat":43.302784,"lon":5.377158,"is_reserved":false,"is_disabled":false,"rental_uris":{"android":"levelo://app?vid=7f9b8825-0fb7-4fa8-ba9a-bb7ee143dc49","ios":"levelo://app?vid=7f9b8825-0fb7-4fa8-ba9a-bb7ee143dc49"},"vehicle_type_id":"4","last_reported":1700831340,"current_range_meters":9200,"station_id":"ce4bguh2rcd13ifvqcj0","pricing_plan_id":"free"},{"bike_id":"ddcd8fb5-e6f9-4509-b663-a5f016a9be0b","system_id":"levelo_inurba_marseille","lat":43.319935,"lon":5.381699,"is_reserved":false,"is_disabled":false,"rental_uris":{"android":"levelo://app?vid=ddcd8fb5-e6f9-4509-b663-a5f016a9be0b","ios":"levelo://app?vid=ddcd8fb5-e6f9-4509-b663-a5f016a9be0b"},"vehicle_type_id":"4","last_reported":1700831340,"current_range_meters":3600,"station_id":"ce4bhr12rcd13ifvqhpg","pricing_plan_id":"free"},{"bike_id":"e8a0f6f9-99e3-4e4d-bc29-758140e45a66","system_id":"levelo_inurba_marseille","lat":43.29924,"lon":5.3655,"is_reserved":false,"is_disabled":false,"rental_uris":{"android":"levelo://app?vid=e8a0f6f9-99e3-4e4d-bc29-758140e45a66","ios":"levelo://app?vid=e8a0f6f9-99e3-4e4d-bc29-758140e45a66"},"vehicle_type_id":"4","last_reported":1700831340,"current_range_meters":2400,"station_id":"ce4bgm92rcd13ifvqbr0","pricing_plan_id":"free"},{"bike_id":"a3f53562-02a6-40d8-9f54-a3e05ed361be","system_id":"levelo_inurba_marseille","lat":43.298433,"lon":5.362774,"is_reserved":false,"is_disabled":false,"rental_uris":{"android":"levelo://app?vid=a3f53562-02a6-40d8-9f54-a3e05ed361be","ios":"levelo://app?vid=a3f53562-02a6-40d8-9f54-a3e05ed361be"},"vehicle_type_id":"4","last_reported":1700831340,"current_range_meters":1600,"station_id":"ce4bgpp2rcd13ifvqc3g","pricing_plan_id":"free"},{"bike_id":"b35d98a3-9c0d-4bc9-b7aa-dab5b52650cb","system_id":"levelo_inurba_marseille","lat":43.30202,"lon":5.38044,"is_reserved":false,"is_disabled":false,"rental_uris":{"android":"levelo://app?vid=b35d98a3-9c0d-4bc9-b7aa-dab5b52650cb","ios":"levelo://app?vid=b35d98a3-9c0d-4bc9-b7aa-dab5b52650cb"},"vehicle_type_id":"4","last_reported":1700831340,"current_range_meters":12400,"station_id":"","pricing_plan_id":"free"},{"bike_id":"c3045614-1eb8-488d-add5-337dc82beb2c","system_id":"levelo_inurba_marseille","lat":43.298433,"lon":5.362774,"is_reserved":false,"is_disabled":false,"rental_uris":{"android":"levelo://app?vid=c3045614-1eb8-488d-add5-337dc82beb2c","ios":"levelo://app?vid=c3045614-1eb8-488d-add5-337dc82beb2c"},"vehicle_type_id":"4","last_reported":1700831340,"current_range_meters":31600,"station_id":"ce4bgpp2rcd13ifvqc3g","pricing_plan_id":"free"},{"bike_id":"ef8742da-99ba-483a-b105-2584aca68738","system_id":"levelo_inurba_marseille","lat":43.305364,"lon":5.384119,"is_reserved":false,"is_disabled":false,"rental_uris":{"android":"levelo://app?vid=ef8742da-99ba-483a-b105-2584aca68738","ios":"levelo://app?vid=ef8742da-99ba-483a-b105-2584aca68738"},"vehicle_type_id":"4","last_reported":1700831340,"current_range_meters":18800,"station_id":"ce4bgg92rcd13ifvqb30","pricing_plan_id":"free"},{"bike_id":"b18498e5-a983-4f9c-82ca-1b9bdad2781c","system_id":"levelo_inurba_marseille","lat":43.298433,"lon":5.362774,"is_reserved":false,"is_disabled":false,"rental_uris":{"android":"levelo://app?vid=b18498e5-a983-4f9c-82ca-1b9bdad2781c","ios":"levelo://app?vid=b18498e5-a983-4f9c-82ca-1b9bdad2781c"},"vehicle_type_id":"4","last_reported":1700831340,"current_range_meters":6000,"station_id":"ce4bgpp2rcd13ifvqc3g","pricing_plan_id":"free"},{"bike_id":"0d549269-b895-41e7-9c2a-d9ad5d821eb5","system_id":"levelo_inurba_marseille","lat":43.305364,"lon":5.384119,"is_reserved":false,"is_disabled":false,"rental_uris":{"android":"levelo://app?vid=0d549269-b895-41e7-9c2a-d9ad5d821eb5","ios":"levelo://app?vid=0d549269-b895-41e7-9c2a-d9ad5d821eb5"},"vehicle_type_id":"4","last_reported":1700831340,"current_range_meters":19200,"station_id":"ce4bgg92rcd13ifvqb30","pricing_plan_id":"free"},{"bike_id":"109a9383-5659-4202-85a6-a47105dc2d2f","system_id":"levelo_inurba_marseille","lat":43.299243,"lon":5.374807,"is_reserved":false,"is_disabled":false,"rental_uris":{"android":"levelo://app?vid=109a9383-5659-4202-85a6-a47105dc2d2f","ios":"levelo://app?vid=109a9383-5659-4202-85a6-a47105dc2d2f"},"vehicle_type_id":"4","last_reported":1700831340,"current_range_meters":14400,"station_id":"ce4bgjh2rcd13ifvqbg0","pricing_plan_id":"free"},{"bike_id":"4a54649f-3eae-4886-a188-44ebbc9143c8","system_id":"levelo_inurba_marseille","lat":43.299243,"lon":5.374807,"is_reserved":false,"is_disabled":false,"rental_uris":{"android":"levelo://app?vid=4a54649f-3eae-4886-a188-44ebbc9143c8","ios":"levelo://app?vid=4a54649f-3eae-4886-a188-44ebbc9143c8"},"vehicle_type_id":"4","last_reported":1700831340,"current_range_meters":29600,"station_id":"ce4bgjh2rcd13ifvqbg0","pricing_plan_id":"free"},{"bike_id":"69ddc39e-76d1-45ed-b616-8fbbde708427","system_id":"levelo_inurba_marseille","lat":43.299243,"lon":5.37481,"is_reserved":false,"is_disabled":false,"rental_uris":{"android":"levelo://app?vid=69ddc39e-76d1-45ed-b616-8fbbde708427","ios":"levelo://app?vid=69ddc39e-76d1-45ed-b616-8fbbde708427"},"vehicle_type_id":"4","last_reported":1700831340,"current_range_meters":31200,"station_id":"ce4bgjh2rcd13ifvqbg0","pricing_plan_id":"free"},{"bike_id":"bceb2bbd-bdb1-411a-afde-5dbd40ba399e","system_id":"levelo_inurba_marseille","lat":43.311722,"lon":5.387247,"is_reserved":false,"is_disabled":false,"rental_uris":{"android":"levelo://app?vid=bceb2bbd-bdb1-411a-afde-5dbd40ba399e","ios":"levelo://app?vid=bceb2bbd-bdb1-411a-afde-5dbd40ba399e"},"vehicle_type_id":"4","last_reported":1700831340,"current_range_meters":4800,"station_id":"ce4bgv12rcd13ifvqcp0","pricing_plan_id":"free"},{"bike_id":"ddec43bd-0bc6-4937-a2ea-acc82e839e56","system_id":"levelo_inurba_marseille","lat":43.297794,"lon":5.370888,"is_reserved":false,"is_disabled":false,"rental_uris":{"android":"levelo://app?vid=ddec43bd-0bc6-4937-a2ea-acc82e839e56","ios":"levelo://app?vid=ddec43bd-0bc6-4937-a2ea-acc82e839e56"},"vehicle_type_id":"4","last_reported":1700831340,"current_range_meters":24400,"station_id":"ce4bgop2rcd13ifvqc1g","pricing_plan_id":"free"},{"bike_id":"57f07daa-f979-41b2-bf81-49ff7a829b2a","system_id":"levelo_inurba_marseille","lat":43.322846,"lon":5.3826,"is_reserved":false,"is_disabled":false,"rental_uris":{"android":"levelo://app?vid=57f07daa-f979-41b2-bf81-49ff7a829b2a","ios":"levelo://app?vid=57f07daa-f979-41b2-bf81-49ff7a829b2a"},"vehicle_type_id":"4","last_reported":1700831340,"current_range_meters":6800,"station_id":"ce4bhr12rcd13ifvqhqg","pricing_plan_id":"free"},{"bike_id":"487f708b-82ea-4eaf-b232-fbc4b24ddab5","system_id":"levelo_inurba_marseille","lat":43.322872,"lon":5.382756,"is_reserved":false,"is_disabled":false,"rental_uris":{"android":"levelo://app?vid=487f708b-82ea-4eaf-b232-fbc4b24ddab5","ios":"levelo://app?vid=487f708b-82ea-4eaf-b232-fbc4b24ddab5"},"vehicle_type_id":"4","last_reported":1700831340,"current_range_meters":28000,"station_id":"ce4bhr12rcd13ifvqhqg","pricing_plan_id":"free"},{"bike_id":"8eccf735-9f13-4d66-89ee-04a7bf59eec2","system_id":"levelo_inurba_marseille","lat":43.322872,"lon":5.382756,"is_reserved":false,"is_disabled":false,"rental_uris":{"android":"levelo://app?vid=8eccf735-9f13-4d66-89ee-04a7bf59eec2","ios":"levelo://app?vid=8eccf735-9f13-4d66-89ee-04a7bf59eec2"},"vehicle_type_id":"4","last_reported":1700831340,"current_range_meters":31200,"station_id":"ce4bhr12rcd13ifvqhqg","pricing_plan_id":"free"},{"bike_id":"60f8cdf5-3fb8-473e-b1c7-32b28ca21c32","system_id":"levelo_inurba_marseille","lat":43.328279,"lon":5.366871,"is_reserved":false,"is_disabled":false,"rental_uris":{"android":"levelo://app?vid=60f8cdf5-3fb8-473e-b1c7-32b28ca21c32","ios":"levelo://app?vid=60f8cdf5-3fb8-473e-b1c7-32b28ca21c32"},"vehicle_type_id":"4","last_reported":1700831340,"current_range_meters":4400,"station_id":"ce4bhs92rcd13ifvqi0g","pricing_plan_id":"free"},{"bike_id":"13f109ea-ea45-4c5e-bb74-23fd319d7061","system_id":"levelo_inurba_marseille","lat":43.297163,"lon":5.365866,"is_reserved":false,"is_disabled":false,"rental_uris":{"android":"levelo://app?vid=13f109ea-ea45-4c5e-bb74-23fd319d7061","ios":"levelo://app?vid=13f109ea-ea45-4c5e-bb74-23fd319d7061"},"vehicle_type_id":"4","last_reported":1700831340,"current_range_meters":16800,"station_id":"ce4bgn12rcd13ifvqbt0","pricing_plan_id":"free"},{"bike_id":"4d7509f5-9559-42ca-a60d-bef9e80f0981","system_id":"levelo_inurba_marseille","lat":43.299576,"lon":5.379151,"is_reserved":false,"is_disabled":false,"rental_uris":{"android":"levelo://app?vid=4d7509f5-9559-42ca-a60d-bef9e80f0981","ios":"levelo://app?vid=4d7509f5-9559-42ca-a60d-bef9e80f0981"},"vehicle_type_id":"4","last_reported":1700831340,"current_range_meters":0,"station_id":"","pricing_plan_id":"free"},{"bike_id":"40651570-2caa-481e-83f2-ed9b577fc84a","system_id":"levelo_inurba_marseille","lat":43.32299,"lon":5.38535,"is_reserved":false,"is_disabled":false,"rental_uris":{"android":"levelo://app?vid=40651570-2caa-481e-83f2-ed9b577fc84a","ios":"levelo://app?vid=40651570-2caa-481e-83f2-ed9b577fc84a"},"vehicle_type_id":"4","last_reported":1700831340,"current_range_meters":13200,"station_id":"","pricing_plan_id":"free"},{"bike_id":"26077068-9007-40a7-8c07-4ba0fe4b64eb","system_id":"levelo_inurba_marseille","lat":43.296131,"lon":5.370773,"is_reserved":false,"is_disabled":false,"rental_uris":{"android":"levelo://app?vid=26077068-9007-40a7-8c07-4ba0fe4b64eb","ios":"levelo://app?vid=26077068-9007-40a7-8c07-4ba0fe4b64eb"},"vehicle_type_id":"4","last_reported":1700831340,"current_range_meters":2800,"station_id":"ce4bgnh2rcd13ifvqc0g","pricing_plan_id":"free"},{"bike_id":"24e6b5d9-4831-41de-a4a2-ee82f45e7043","system_id":"levelo_inurba_marseille","lat":43.296131,"lon":5.370791,"is_reserved":false,"is_disabled":false,"rental_uris":{"android":"levelo://app?vid=24e6b5d9-4831-41de-a4a2-ee82f45e7043","ios":"levelo://app?vid=24e6b5d9-4831-41de-a4a2-ee82f45e7043"},"vehicle_type_id":"4","last_reported":1700831340,"current_range_meters":29200,"station_id":"ce4bgnh2rcd13ifvqc0g","pricing_plan_id":"free"},{"bike_id":"8293ae79-16b8-49ce-b1ce-4b710715ace1","system_id":"levelo_inurba_marseille","lat":43.296935,"lon":5.376544,"is_reserved":false,"is_disabled":false,"rental_uris":{"android":"levelo://app?vid=8293ae79-16b8-49ce-b1ce-4b710715ace1","ios":"levelo://app?vid=8293ae79-16b8-49ce-b1ce-4b710715ace1"},"vehicle_type_id":"4","last_reported":1700831340,"current_range_meters":17600,"station_id":"ce4bgkh2rcd13ifvqbl0","pricing_plan_id":"free"},{"bike_id":"bec157b1-fea9-40cf-846f-0711e795312b","system_id":"levelo_inurba_marseille","lat":43.309589,"lon":5.390258,"is_reserved":false,"is_disabled":false,"rental_uris":{"android":"levelo://app?vid=bec157b1-fea9-40cf-846f-0711e795312b","ios":"levelo://app?vid=bec157b1-fea9-40cf-846f-0711e795312b"},"vehicle_type_id":"4","last_reported":1700831340,"current_range_meters":2800,"station_id":"ce4bgup2rcd13ifvqco0","pricing_plan_id":"free"},{"bike_id":"e870a805-2fbd-40ae-aeb8-108dc772ed5d","system_id":"levelo_inurba_marseille","lat":43.31759,"lon":5.39026,"is_reserved":false,"is_disabled":false,"rental_uris":{"android":"levelo://app?vid=e870a805-2fbd-40ae-aeb8-108dc772ed5d","ios":"levelo://app?vid=e870a805-2fbd-40ae-aeb8-108dc772ed5d"},"vehicle_type_id":"4","last_reported":1700831340,"current_range_meters":0,"station_id":"ce4bhqp2rcd13ifvqhng","pricing_plan_id":"free"},{"bike_id":"0cc4aed7-0fad-4e56-91a8-e916dbcb3abd","system_id":"levelo_inurba_marseille","lat":43.298037,"lon":5.381066,"is_reserved":false,"is_disabled":false,"rental_uris":{"android":"levelo://app?vid=0cc4aed7-0fad-4e56-91a8-e916dbcb3abd","ios":"levelo://app?vid=0cc4aed7-0fad-4e56-91a8-e916dbcb3abd"},"vehicle_type_id":"4","last_reported":1700831340,"current_range_meters":17600,"station_id":"ce4bgip2rcd13ifvqbb0","pricing_plan_id":"free"},{"bike_id":"ac7784eb-686d-4746-98c2-8221d32a2a2f","system_id":"levelo_inurba_marseille","lat":43.298037,"lon":5.381066,"is_reserved":false,"is_disabled":false,"rental_uris":{"android":"levelo://app?vid=ac7784eb-686d-4746-98c2-8221d32a2a2f","ios":"levelo://app?vid=ac7784eb-686d-4746-98c2-8221d32a2a2f"},"vehicle_type_id":"4","last_reported":1700831340,"current_range_meters":23600,"station_id":"ce4bgip2rcd13ifvqbb0","pricing_plan_id":"free"},{"bike_id":"f9349633-08dc-4405-ab90-a62e1b4afdbc","system_id":"levelo_inurba_marseille","lat":43.304274,"lon":5.388873,"is_reserved":false,"is_disabled":false,"rental_uris":{"android":"levelo://app?vid=f9349633-08dc-4405-ab90-a62e1b4afdbc","ios":"levelo://app?vid=f9349633-08dc-4405-ab90-a62e1b4afdbc"},"vehicle_type_id":"4","last_reported":1700831340,"current_range_meters":12400,"station_id":"ce4bgk12rcd13ifvqbi0","pricing_plan_id":"free"},{"bike_id":"87cec1e3-22b3-4ac1-a555-5b7f45e937d0","system_id":"levelo_inurba_marseille","lat":43.298037,"lon":5.381066,"is_reserved":false,"is_disabled":false,"rental_uris":{"android":"levelo://app?vid=87cec1e3-22b3-4ac1-a555-5b7f45e937d0","ios":"levelo://app?vid=87cec1e3-22b3-4ac1-a555-5b7f45e937d0"},"vehicle_type_id":"4","last_reported":1700831340,"current_range_meters":8400,"station_id":"ce4bgip2rcd13ifvqbb0","pricing_plan_id":"free"},{"bike_id":"fe17eff4-f54f-4cb0-9f83-787fbf7da2b2","system_id":"levelo_inurba_marseille","lat":43.298037,"lon":5.381066,"is_reserved":false,"is_disabled":false,"rental_uris":{"android":"levelo://app?vid=fe17eff4-f54f-4cb0-9f83-787fbf7da2b2","ios":"levelo://app?vid=fe17eff4-f54f-4cb0-9f83-787fbf7da2b2"},"vehicle_type_id":"4","last_reported":1700831340,"current_range_meters":5200,"station_id":"ce4bgip2rcd13ifvqbb0","pricing_plan_id":"free"},{"bike_id":"94fc816d-2706-44d3-9442-3d05baaa0537","system_id":"levelo_inurba_marseille","lat":43.295279,"lon":5.375048,"is_reserved":false,"is_disabled":false,"rental_uris":{"android":"levelo://app?vid=94fc816d-2706-44d3-9442-3d05baaa0537","ios":"levelo://app?vid=94fc816d-2706-44d3-9442-3d05baaa0537"},"vehicle_type_id":"4","last_reported":1700831340,"current_range_meters":28800,"station_id":"ce4bgkp2rcd13ifvqbmg","pricing_plan_id":"free"},{"bike_id":"6b621983-5e9e-42f7-990d-ad5a093820d2","system_id":"levelo_inurba_marseille","lat":43.293801,"lon":5.363066,"is_reserved":false,"is_disabled":false,"rental_uris":{"android":"levelo://app?vid=6b621983-5e9e-42f7-990d-ad5a093820d2","ios":"levelo://app?vid=6b621983-5e9e-42f7-990d-ad5a093820d2"},"vehicle_type_id":"4","last_reported":1700831340,"current_range_meters":4400,"station_id":"","pricing_plan_id":"free"},{"bike_id":"1a40b385-68ba-48d5-a1cb-20965b2f9dc5","system_id":"levelo_inurba_marseille","lat":43.32367,"lon":5.388836,"is_reserved":false,"is_disabled":false,"rental_uris":{"android":"levelo://app?vid=1a40b385-68ba-48d5-a1cb-20965b2f9dc5","ios":"levelo://app?vid=1a40b385-68ba-48d5-a1cb-20965b2f9dc5"},"vehicle_type_id":"4","last_reported":1700831340,"current_range_meters":1600,"station_id":"ce4bhqp2rcd13ifvqhog","pricing_plan_id":"free"},{"bike_id":"9c36a0b0-9831-4b41-a621-4fe94a615b8d","system_id":"levelo_inurba_marseille","lat":43.32365,"lon":5.38886,"is_reserved":false,"is_disabled":false,"rental_uris":{"android":"levelo://app?vid=9c36a0b0-9831-4b41-a621-4fe94a615b8d","ios":"levelo://app?vid=9c36a0b0-9831-4b41-a621-4fe94a615b8d"},"vehicle_type_id":"4","last_reported":1700831340,"current_range_meters":15600,"station_id":"ce4bhqp2rcd13ifvqhog","pricing_plan_id":"free"},{"bike_id":"56728208-396a-487b-8b5b-8f989fd54717","system_id":"levelo_inurba_marseille","lat":43.29602,"lon":5.381084,"is_reserved":false,"is_disabled":false,"rental_uris":{"android":"levelo://app?vid=56728208-396a-487b-8b5b-8f989fd54717","ios":"levelo://app?vid=56728208-396a-487b-8b5b-8f989fd54717"},"vehicle_type_id":"4","last_reported":1700831340,"current_range_meters":10400,"station_id":"ce4bgl12rcd13ifvqbo0","pricing_plan_id":"free"},{"bike_id":"e8fe3abf-97d5-4bbd-96ee-7f43316153e9","system_id":"levelo_inurba_marseille","lat":43.29602,"lon":5.381084,"is_reserved":false,"is_disabled":false,"rental_uris":{"android":"levelo://app?vid=e8fe3abf-97d5-4bbd-96ee-7f43316153e9","ios":"levelo://app?vid=e8fe3abf-97d5-4bbd-96ee-7f43316153e9"},"vehicle_type_id":"4","last_reported":1700831340,"current_range_meters":26000,"station_id":"ce4bgl12rcd13ifvqbo0","pricing_plan_id":"free"},{"bike_id":"4f4e05cd-7e88-4ca0-a752-91e2aa2ae27c","system_id":"levelo_inurba_marseille","lat":43.29268,"lon":5.368492,"is_reserved":false,"is_disabled":false,"rental_uris":{"android":"levelo://app?vid=4f4e05cd-7e88-4ca0-a752-91e2aa2ae27c","ios":"levelo://app?vid=4f4e05cd-7e88-4ca0-a752-91e2aa2ae27c"},"vehicle_type_id":"4","last_reported":1700831340,"current_range_meters":0,"station_id":"ce4bhbp2rcd13ifvqesg","pricing_plan_id":"free"},{"bike_id":"3514ebf1-1f37-432d-8a72-f622617d6489","system_id":"levelo_inurba_marseille","lat":43.30597,"lon":5.39364,"is_reserved":false,"is_disabled":false,"rental_uris":{"android":"levelo://app?vid=3514ebf1-1f37-432d-8a72-f622617d6489","ios":"levelo://app?vid=3514ebf1-1f37-432d-8a72-f622617d6489"},"vehicle_type_id":"4","last_reported":1700831340,"current_range_meters":0,"station_id":"ce4bh0p2rcd13ifvqd80","pricing_plan_id":"free"},{"bike_id":"7885def3-9534-4d3b-8e6d-ff177d8fa45b","system_id":"levelo_inurba_marseille","lat":43.302992,"lon":5.392136,"is_reserved":false,"is_disabled":false,"rental_uris":{"android":"levelo://app?vid=7885def3-9534-4d3b-8e6d-ff177d8fa45b","ios":"levelo://app?vid=7885def3-9534-4d3b-8e6d-ff177d8fa45b"},"vehicle_type_id":"4","last_reported":1700831340,"current_range_meters":17600,"station_id":"ce4bgkh2rcd13ifvqbk0","pricing_plan_id":"free"},{"bike_id":"7218ecc2-963d-4dfc-ae8c-8a05dcef83c3","system_id":"levelo_inurba_marseille","lat":43.2936,"lon":5.37835,"is_reserved":false,"is_disabled":false,"rental_uris":{"android":"levelo://app?vid=7218ecc2-963d-4dfc-ae8c-8a05dcef83c3","ios":"levelo://app?vid=7218ecc2-963d-4dfc-ae8c-8a05dcef83c3"},"vehicle_type_id":"4","last_reported":1700831340,"current_range_meters":1200,"station_id":"ce4bgjh2rcd13ifvqbf0","pricing_plan_id":"free"},{"bike_id":"194a400a-a0de-48ab-83b2-d9f657909c96","system_id":"levelo_inurba_marseille","lat":43.291994,"lon":5.357886,"is_reserved":false,"is_disabled":false,"rental_uris":{"android":"levelo://app?vid=194a400a-a0de-48ab-83b2-d9f657909c96","ios":"levelo://app?vid=194a400a-a0de-48ab-83b2-d9f657909c96"},"vehicle_type_id":"4","last_reported":1700831340,"current_range_meters":15600,"station_id":"ce4bhb12rcd13ifvqel0","pricing_plan_id":"free"},{"bike_id":"7c543d01-ad2f-461e-afd9-6cdfbe6d7c86","system_id":"levelo_inurba_marseille","lat":43.291994,"lon":5.357886,"is_reserved":false,"is_disabled":false,"rental_uris":{"android":"levelo://app?vid=7c543d01-ad2f-461e-afd9-6cdfbe6d7c86","ios":"levelo://app?vid=7c543d01-ad2f-461e-afd9-6cdfbe6d7c86"},"vehicle_type_id":"4","last_reported":1700831340,"current_range_meters":27200,"station_id":"ce4bhb12rcd13ifvqel0","pricing_plan_id":"free"},{"bike_id":"97ac7a64-1e3e-447b-8bc0-b73bea294094","system_id":"levelo_inurba_marseille","lat":43.309047,"lon":5.396551,"is_reserved":false,"is_disabled":false,"rental_uris":{"android":"levelo://app?vid=97ac7a64-1e3e-447b-8bc0-b73bea294094","ios":"levelo://app?vid=97ac7a64-1e3e-447b-8bc0-b73bea294094"},"vehicle_type_id":"4","last_reported":1700831340,"current_range_meters":0,"station_id":"ce4bh012rcd13ifvqcv0","pricing_plan_id":"free"},{"bike_id":"79f7123a-427a-4515-98e6-b3412588b91d","system_id":"levelo_inurba_marseille","lat":43.30868,"lon":5.396437,"is_reserved":false,"is_disabled":false,"rental_uris":{"android":"levelo://app?vid=79f7123a-427a-4515-98e6-b3412588b91d","ios":"levelo://app?vid=79f7123a-427a-4515-98e6-b3412588b91d"},"vehicle_type_id":"4","last_reported":1700831340,"current_range_meters":11600,"station_id":"ce4bh012rcd13ifvqcv0","pricing_plan_id":"free"},{"bike_id":"1d10a1b1-d55f-4279-928a-9c6858f32ca9","system_id":"levelo_inurba_marseille","lat":43.33211,"lon":5.38112,"is_reserved":false,"is_disabled":false,"rental_uris":{"android":"levelo://app?vid=1d10a1b1-d55f-4279-928a-9c6858f32ca9","ios":"levelo://app?vid=1d10a1b1-d55f-4279-928a-9c6858f32ca9"},"vehicle_type_id":"4","last_reported":1700831340,"current_range_meters":0,"station_id":"","pricing_plan_id":"free"},{"bike_id":"0f071fcb-9911-4db5-8d42-bf39bb80482c","system_id":"levelo_inurba_marseille","lat":43.302008,"lon":5.394694,"is_reserved":false,"is_disabled":false,"rental_uris":{"android":"levelo://app?vid=0f071fcb-9911-4db5-8d42-bf39bb80482c","ios":"levelo://app?vid=0f071fcb-9911-4db5-8d42-bf39bb80482c"},"vehicle_type_id":"4","last_reported":1700831340,"current_range_meters":25200,"station_id":"ce4bh0p2rcd13ifvqd70","pricing_plan_id":"free"},{"bike_id":"1f0222ea-ac29-4829-9261-376700f77728","system_id":"levelo_inurba_marseille","lat":43.302008,"lon":5.394694,"is_reserved":false,"is_disabled":false,"rental_uris":{"android":"levelo://app?vid=1f0222ea-ac29-4829-9261-376700f77728","ios":"levelo://app?vid=1f0222ea-ac29-4829-9261-376700f77728"},"vehicle_type_id":"4","last_reported":1700831340,"current_range_meters":15600,"station_id":"ce4bh0p2rcd13ifvqd70","pricing_plan_id":"free"},{"bike_id":"faaa7fd0-c2f6-4d5a-ae94-647ba94bc60a","system_id":"levelo_inurba_marseille","lat":43.302008,"lon":5.394694,"is_reserved":false,"is_disabled":false,"rental_uris":{"android":"levelo://app?vid=faaa7fd0-c2f6-4d5a-ae94-647ba94bc60a","ios":"levelo://app?vid=faaa7fd0-c2f6-4d5a-ae94-647ba94bc60a"},"vehicle_type_id":"4","last_reported":1700831340,"current_range_meters":15600,"station_id":"ce4bh0p2rcd13ifvqd70","pricing_plan_id":"free"},{"bike_id":"91979916-2576-4525-800c-27b289c306dc","system_id":"levelo_inurba_marseille","lat":43.302008,"lon":5.394694,"is_reserved":false,"is_disabled":false,"rental_uris":{"android":"levelo://app?vid=91979916-2576-4525-800c-27b289c306dc","ios":"levelo://app?vid=91979916-2576-4525-800c-27b289c306dc"},"vehicle_type_id":"4","last_reported":1700831340,"current_range_meters":1200,"station_id":"ce4bh0p2rcd13ifvqd70","pricing_plan_id":"free"},{"bike_id":"5644ab7e-0c71-401d-a8fc-674067aa1854","system_id":"levelo_inurba_marseille","lat":43.3021,"lon":5.39467,"is_reserved":false,"is_disabled":false,"rental_uris":{"android":"levelo://app?vid=5644ab7e-0c71-401d-a8fc-674067aa1854","ios":"levelo://app?vid=5644ab7e-0c71-401d-a8fc-674067aa1854"},"vehicle_type_id":"4","last_reported":1700831340,"current_range_meters":14000,"station_id":"ce4bh0p2rcd13ifvqd70","pricing_plan_id":"free"},{"bike_id":"48fb4189-b76d-4f6e-9d9a-d07b34ae4e38","system_id":"levelo_inurba_marseille","lat":43.289184,"lon":5.366408,"is_reserved":false,"is_disabled":false,"rental_uris":{"android":"levelo://app?vid=48fb4189-b76d-4f6e-9d9a-d07b34ae4e38","ios":"levelo://app?vid=48fb4189-b76d-4f6e-9d9a-d07b34ae4e38"},"vehicle_type_id":"4","last_reported":1700831340,"current_range_meters":22400,"station_id":"ce4bhap2rcd13ifvqek0","pricing_plan_id":"free"},{"bike_id":"66842a53-3b39-4e4a-9f79-17bc4b6e1fab","system_id":"levelo_inurba_marseille","lat":43.304296,"lon":5.397513,"is_reserved":false,"is_disabled":false,"rental_uris":{"android":"levelo://app?vid=66842a53-3b39-4e4a-9f79-17bc4b6e1fab","ios":"levelo://app?vid=66842a53-3b39-4e4a-9f79-17bc4b6e1fab"},"vehicle_type_id":"4","last_reported":1700831340,"current_range_meters":25600,"station_id":"ce4bh092rcd13ifvqd20","pricing_plan_id":"free"},{"bike_id":"4f080e12-3419-4997-bd7e-b716121d92a2","system_id":"levelo_inurba_marseille","lat":43.330416,"lon":5.389217,"is_reserved":false,"is_disabled":false,"rental_uris":{"android":"levelo://app?vid=4f080e12-3419-4997-bd7e-b716121d92a2","ios":"levelo://app?vid=4f080e12-3419-4997-bd7e-b716121d92a2"},"vehicle_type_id":"4","last_reported":1700831340,"current_range_meters":0,"station_id":"ce4bhr92rcd13ifvqhrg","pricing_plan_id":"free"},{"bike_id":"36301c0a-58af-4c4e-ad94-d6dc7d4d7c7a","system_id":"levelo_inurba_marseille","lat":43.290995,"lon":5.381361,"is_reserved":false,"is_disabled":false,"rental_uris":{"android":"levelo://app?vid=36301c0a-58af-4c4e-ad94-d6dc7d4d7c7a","ios":"levelo://app?vid=36301c0a-58af-4c4e-ad94-d6dc7d4d7c7a"},"vehicle_type_id":"4","last_reported":1700831340,"current_range_meters":17200,"station_id":"ce4bh512rcd13ifvqe2g","pricing_plan_id":"free"},{"bike_id":"e7edc2b7-021d-4adc-bed3-04318568d359","system_id":"levelo_inurba_marseille","lat":43.289468,"lon":5.363719,"is_reserved":false,"is_disabled":false,"rental_uris":{"android":"levelo://app?vid=e7edc2b7-021d-4adc-bed3-04318568d359","ios":"levelo://app?vid=e7edc2b7-021d-4adc-bed3-04318568d359"},"vehicle_type_id":"4","last_reported":1700831340,"current_range_meters":16400,"station_id":"ce4bhc92rcd13ifvqetg","pricing_plan_id":"free"},{"bike_id":"3b18d1c4-d151-41c2-84a8-2680f9f8d1ed","system_id":"levelo_inurba_marseille","lat":43.2901,"lon":5.381269,"is_reserved":false,"is_disabled":false,"rental_uris":{"android":"levelo://app?vid=3b18d1c4-d151-41c2-84a8-2680f9f8d1ed","ios":"levelo://app?vid=3b18d1c4-d151-41c2-84a8-2680f9f8d1ed"},"vehicle_type_id":"4","last_reported":1700831340,"current_range_meters":21200,"station_id":"ce4bh4p2rcd13ifvqe1g","pricing_plan_id":"free"},{"bike_id":"e7768500-b6b0-4f09-a866-594d18bd4a64","system_id":"levelo_inurba_marseille","lat":43.28856,"lon":5.358371,"is_reserved":false,"is_disabled":false,"rental_uris":{"android":"levelo://app?vid=e7768500-b6b0-4f09-a866-594d18bd4a64","ios":"levelo://app?vid=e7768500-b6b0-4f09-a866-594d18bd4a64"},"vehicle_type_id":"4","last_reported":1700831340,"current_range_meters":3600,"station_id":"ce4bhb12rcd13ifvqem0","pricing_plan_id":"free"},{"bike_id":"50ef2b61-a0fb-490d-ab4d-88d9cb79db80","system_id":"levelo_inurba_marseille","lat":43.306412,"lon":5.401035,"is_reserved":false,"is_disabled":false,"rental_uris":{"android":"levelo://app?vid=50ef2b61-a0fb-490d-ab4d-88d9cb79db80","ios":"levelo://app?vid=50ef2b61-a0fb-490d-ab4d-88d9cb79db80"},"vehicle_type_id":"4","last_reported":1700831340,"current_range_meters":29200,"station_id":"ce4bh112rcd13ifvqda0","pricing_plan_id":"free"},{"bike_id":"9c8d348c-f813-4c5c-9985-010904719b88","system_id":"levelo_inurba_marseille","lat":43.33775,"lon":5.37427,"is_reserved":false,"is_disabled":false,"rental_uris":{"android":"levelo://app?vid=9c8d348c-f813-4c5c-9985-010904719b88","ios":"levelo://app?vid=9c8d348c-f813-4c5c-9985-010904719b88"},"vehicle_type_id":"4","last_reported":1700831340,"current_range_meters":16400,"station_id":"","pricing_plan_id":"free"},{"bike_id":"c660e2c8-ea45-4ce2-bd67-5f29fa438e67","system_id":"levelo_inurba_marseille","lat":43.30642,"lon":5.401031,"is_reserved":false,"is_disabled":false,"rental_uris":{"android":"levelo://app?vid=c660e2c8-ea45-4ce2-bd67-5f29fa438e67","ios":"levelo://app?vid=c660e2c8-ea45-4ce2-bd67-5f29fa438e67"},"vehicle_type_id":"4","last_reported":1700831340,"current_range_meters":400,"station_id":"ce4bh112rcd13ifvqda0","pricing_plan_id":"free"},{"bike_id":"df11370a-2669-4c1c-9ac2-7d097c33c52b","system_id":"levelo_inurba_marseille","lat":43.295196,"lon":5.39397,"is_reserved":false,"is_disabled":false,"rental_uris":{"android":"levelo://app?vid=df11370a-2669-4c1c-9ac2-7d097c33c52b","ios":"levelo://app?vid=df11370a-2669-4c1c-9ac2-7d097c33c52b"},"vehicle_type_id":"4","last_reported":1700831340,"current_range_meters":0,"station_id":"ce4bh292rcd13ifvqdf0","pricing_plan_id":"free"},{"bike_id":"6ba139a8-97f7-448e-97ef-69fe7ad6204a","system_id":"levelo_inurba_marseille","lat":43.290345,"lon":5.38636,"is_reserved":false,"is_disabled":false,"rental_uris":{"android":"levelo://app?vid=6ba139a8-97f7-448e-97ef-69fe7ad6204a","ios":"levelo://app?vid=6ba139a8-97f7-448e-97ef-69fe7ad6204a"},"vehicle_type_id":"4","last_reported":1700831340,"current_range_meters":7600,"station_id":"ce4bh4p2rcd13ifvqe0g","pricing_plan_id":"free"},{"bike_id":"2bc77925-6d50-40ac-ad1b-a80bfc85552c","system_id":"levelo_inurba_marseille","lat":43.289307,"lon":5.38406,"is_reserved":false,"is_disabled":false,"rental_uris":{"android":"levelo://app?vid=2bc77925-6d50-40ac-ad1b-a80bfc85552c","ios":"levelo://app?vid=2bc77925-6d50-40ac-ad1b-a80bfc85552c"},"vehicle_type_id":"4","last_reported":1700831340,"current_range_meters":2400,"station_id":"ce4bh612rcd13ifvqe6g","pricing_plan_id":"free"},{"bike_id":"8dc012df-2756-4cb1-ab84-7826dd0b8456","system_id":"levelo_inurba_marseille","lat":43.29033,"lon":5.38636,"is_reserved":false,"is_disabled":false,"rental_uris":{"android":"levelo://app?vid=8dc012df-2756-4cb1-ab84-7826dd0b8456","ios":"levelo://app?vid=8dc012df-2756-4cb1-ab84-7826dd0b8456"},"vehicle_type_id":"4","last_reported":1700831340,"current_range_meters":26800,"station_id":"","pricing_plan_id":"free"},{"bike_id":"bd6ecddf-7554-488b-8d00-a5fadf6111e9","system_id":"levelo_inurba_marseille","lat":43.29028,"lon":5.38626,"is_reserved":false,"is_disabled":false,"rental_uris":{"android":"levelo://app?vid=bd6ecddf-7554-488b-8d00-a5fadf6111e9","ios":"levelo://app?vid=bd6ecddf-7554-488b-8d00-a5fadf6111e9"},"vehicle_type_id":"4","last_reported":1700831340,"current_range_meters":8400,"station_id":"ce4bh4p2rcd13ifvqe0g","pricing_plan_id":"free"},{"bike_id":"4fbabab4-81c6-404b-abff-c7a02e5e1b2e","system_id":"levelo_inurba_marseille","lat":43.289307,"lon":5.38406,"is_reserved":false,"is_disabled":false,"rental_uris":{"android":"levelo://app?vid=4fbabab4-81c6-404b-abff-c7a02e5e1b2e","ios":"levelo://app?vid=4fbabab4-81c6-404b-abff-c7a02e5e1b2e"},"vehicle_type_id":"4","last_reported":1700831340,"current_range_meters":29600,"station_id":"ce4bh612rcd13ifvqe6g","pricing_plan_id":"free"},{"bike_id":"f8d5bf33-c852-45c4-8606-d7bc4b66aeb9","system_id":"levelo_inurba_marseille","lat":43.29033,"lon":5.386375,"is_reserved":false,"is_disabled":false,"rental_uris":{"android":"levelo://app?vid=f8d5bf33-c852-45c4-8606-d7bc4b66aeb9","ios":"levelo://app?vid=f8d5bf33-c852-45c4-8606-d7bc4b66aeb9"},"vehicle_type_id":"4","last_reported":1700831340,"current_range_meters":23200,"station_id":"","pricing_plan_id":"free"},{"bike_id":"a84e3ed8-bf98-4747-bcbb-c235805e7466","system_id":"levelo_inurba_marseille","lat":43.302759,"lon":5.400793,"is_reserved":false,"is_disabled":false,"rental_uris":{"android":"levelo://app?vid=a84e3ed8-bf98-4747-bcbb-c235805e7466","ios":"levelo://app?vid=a84e3ed8-bf98-4747-bcbb-c235805e7466"},"vehicle_type_id":"4","last_reported":1700831340,"current_range_meters":7600,"station_id":"ce4bgvh2rcd13ifvqcs0","pricing_plan_id":"free"},{"bike_id":"a6c9142d-606a-4ae4-ae25-60d5a2509375","system_id":"levelo_inurba_marseille","lat":43.2903,"lon":5.38641,"is_reserved":false,"is_disabled":false,"rental_uris":{"android":"levelo://app?vid=a6c9142d-606a-4ae4-ae25-60d5a2509375","ios":"levelo://app?vid=a6c9142d-606a-4ae4-ae25-60d5a2509375"},"vehicle_type_id":"4","last_reported":1700831340,"current_range_meters":12000,"station_id":"ce4bh4p2rcd13ifvqe0g","pricing_plan_id":"free"},{"bike_id":"b28cb6aa-1f82-4665-adca-6417e6b8e0b0","system_id":"levelo_inurba_marseille","lat":43.29025,"lon":5.38639,"is_reserved":false,"is_disabled":false,"rental_uris":{"android":"levelo://app?vid=b28cb6aa-1f82-4665-adca-6417e6b8e0b0","ios":"levelo://app?vid=b28cb6aa-1f82-4665-adca-6417e6b8e0b0"},"vehicle_type_id":"4","last_reported":1700831340,"current_range_meters":23200,"station_id":"ce4bh4p2rcd13ifvqe0g","pricing_plan_id":"free"},{"bike_id":"24005294-2249-41a9-8830-c7a192f2409c","system_id":"levelo_inurba_marseille","lat":43.302759,"lon":5.400793,"is_reserved":false,"is_disabled":false,"rental_uris":{"android":"levelo://app?vid=24005294-2249-41a9-8830-c7a192f2409c","ios":"levelo://app?vid=24005294-2249-41a9-8830-c7a192f2409c"},"vehicle_type_id":"4","last_reported":1700831340,"current_range_meters":2000,"station_id":"ce4bgvh2rcd13ifvqcs0","pricing_plan_id":"free"},{"bike_id":"a9224cb7-5453-4df4-a648-87cd048f71a5","system_id":"levelo_inurba_marseille","lat":43.333582,"lon":5.390677,"is_reserved":false,"is_disabled":false,"rental_uris":{"android":"levelo://app?vid=a9224cb7-5453-4df4-a648-87cd048f71a5","ios":"levelo://app?vid=a9224cb7-5453-4df4-a648-87cd048f71a5"},"vehicle_type_id":"4","last_reported":1700831340,"current_range_meters":0,"station_id":"","pricing_plan_id":"free"},{"bike_id":"819e13d4-535b-46d9-9f5e-95f20685d904","system_id":"levelo_inurba_marseille","lat":43.287185,"lon":5.379373,"is_reserved":false,"is_disabled":false,"rental_uris":{"android":"levelo://app?vid=819e13d4-535b-46d9-9f5e-95f20685d904","ios":"levelo://app?vid=819e13d4-535b-46d9-9f5e-95f20685d904"},"vehicle_type_id":"4","last_reported":1700831340,"current_range_meters":0,"station_id":"ce4bh9p2rcd13ifvqec0","pricing_plan_id":"free"},{"bike_id":"5429a406-fa0f-4a09-8b7a-c1640888a0d2","system_id":"levelo_inurba_marseille","lat":43.31649,"lon":5.40437,"is_reserved":false,"is_disabled":false,"rental_uris":{"android":"levelo://app?vid=5429a406-fa0f-4a09-8b7a-c1640888a0d2","ios":"levelo://app?vid=5429a406-fa0f-4a09-8b7a-c1640888a0d2"},"vehicle_type_id":"4","last_reported":1700831340,"current_range_meters":13200,"station_id":"","pricing_plan_id":"free"},{"bike_id":"cf96f618-4e79-46f1-934f-b0720d431e27","system_id":"levelo_inurba_marseille","lat":43.291994,"lon":5.392907,"is_reserved":false,"is_disabled":false,"rental_uris":{"android":"levelo://app?vid=cf96f618-4e79-46f1-934f-b0720d431e27","ios":"levelo://app?vid=cf96f618-4e79-46f1-934f-b0720d431e27"},"vehicle_type_id":"4","last_reported":1700831340,"current_range_meters":20400,"station_id":"ce4bh192rcd13ifvqdd0","pricing_plan_id":"free"},{"bike_id":"0cdb7889-4f57-43dd-a8f8-b76173ed9ea0","system_id":"levelo_inurba_marseille","lat":43.28461,"lon":5.35894,"is_reserved":false,"is_disabled":false,"rental_uris":{"android":"levelo://app?vid=0cdb7889-4f57-43dd-a8f8-b76173ed9ea0","ios":"levelo://app?vid=0cdb7889-4f57-43dd-a8f8-b76173ed9ea0"},"vehicle_type_id":"4","last_reported":1700831340,"current_range_meters":20800,"station_id":"ce4bhah2rcd13ifvqei0","pricing_plan_id":"free"},{"bike_id":"11d6b890-a151-44c1-add2-84c17e856c12","system_id":"levelo_inurba_marseille","lat":43.284538,"lon":5.358657,"is_reserved":false,"is_disabled":false,"rental_uris":{"android":"levelo://app?vid=11d6b890-a151-44c1-add2-84c17e856c12","ios":"levelo://app?vid=11d6b890-a151-44c1-add2-84c17e856c12"},"vehicle_type_id":"4","last_reported":1700831340,"current_range_meters":16000,"station_id":"ce4bhah2rcd13ifvqei0","pricing_plan_id":"free"},{"bike_id":"072eb04a-a6cf-47a8-8b96-5209233ced32","system_id":"levelo_inurba_marseille","lat":43.286243,"lon":5.35106,"is_reserved":false,"is_disabled":false,"rental_uris":{"android":"levelo://app?vid=072eb04a-a6cf-47a8-8b96-5209233ced32","ios":"levelo://app?vid=072eb04a-a6cf-47a8-8b96-5209233ced32"},"vehicle_type_id":"4","last_reported":1700831340,"current_range_meters":11200,"station_id":"ce4bhch2rcd13ifvqeug","pricing_plan_id":"free"},{"bike_id":"0e44d4ab-1c17-4ba5-a802-8b49ba3fa8e7","system_id":"levelo_inurba_marseille","lat":43.28612,"lon":5.35106,"is_reserved":false,"is_disabled":false,"rental_uris":{"android":"levelo://app?vid=0e44d4ab-1c17-4ba5-a802-8b49ba3fa8e7","ios":"levelo://app?vid=0e44d4ab-1c17-4ba5-a802-8b49ba3fa8e7"},"vehicle_type_id":"4","last_reported":1700831340,"current_range_meters":1600,"station_id":"ce4bhch2rcd13ifvqeug","pricing_plan_id":"free"},{"bike_id":"dd54792d-d8fe-419d-80fd-944a870cbd9b","system_id":"levelo_inurba_marseille","lat":43.28413,"lon":5.37513,"is_reserved":false,"is_disabled":false,"rental_uris":{"android":"levelo://app?vid=dd54792d-d8fe-419d-80fd-944a870cbd9b","ios":"levelo://app?vid=dd54792d-d8fe-419d-80fd-944a870cbd9b"},"vehicle_type_id":"4","last_reported":1700831340,"current_range_meters":10400,"station_id":"ce4bh412rcd13ifvqds0","pricing_plan_id":"free"},{"bike_id":"2ed95921-de13-465a-973a-3116f9a7e07e","system_id":"levelo_inurba_marseille","lat":43.284787,"lon":5.384116,"is_reserved":false,"is_disabled":false,"rental_uris":{"android":"levelo://app?vid=2ed95921-de13-465a-973a-3116f9a7e07e","ios":"levelo://app?vid=2ed95921-de13-465a-973a-3116f9a7e07e"},"vehicle_type_id":"4","last_reported":1700831340,"current_range_meters":14400,"station_id":"ce4bh512rcd13ifvqe3g","pricing_plan_id":"free"},{"bike_id":"22893c63-cdcb-4caf-b6a2-254932ad92fa","system_id":"levelo_inurba_marseille","lat":43.283498,"lon":5.380948,"is_reserved":false,"is_disabled":false,"rental_uris":{"android":"levelo://app?vid=22893c63-cdcb-4caf-b6a2-254932ad92fa","ios":"levelo://app?vid=22893c63-cdcb-4caf-b6a2-254932ad92fa"},"vehicle_type_id":"4","last_reported":1700831340,"current_range_meters":4000,"station_id":"ce4bh412rcd13ifvqdr0","pricing_plan_id":"free"},{"bike_id":"2a791dc1-c1d8-4123-8767-28fdb01a9428","system_id":"levelo_inurba_marseille","lat":43.283494,"lon":5.380945,"is_reserved":false,"is_disabled":false,"rental_uris":{"android":"levelo://app?vid=2a791dc1-c1d8-4123-8767-28fdb01a9428","ios":"levelo://app?vid=2a791dc1-c1d8-4123-8767-28fdb01a9428"},"vehicle_type_id":"4","last_reported":1700831340,"current_range_meters":4800,"station_id":"ce4bh412rcd13ifvqdr0","pricing_plan_id":"free"},{"bike_id":"7ef549b6-c40d-428f-af13-a05eef54efde","system_id":"levelo_inurba_marseille","lat":43.283494,"lon":5.380945,"is_reserved":false,"is_disabled":false,"rental_uris":{"android":"levelo://app?vid=7ef549b6-c40d-428f-af13-a05eef54efde","ios":"levelo://app?vid=7ef549b6-c40d-428f-af13-a05eef54efde"},"vehicle_type_id":"4","last_reported":1700831340,"current_range_meters":2400,"station_id":"ce4bh412rcd13ifvqdr0","pricing_plan_id":"free"},{"bike_id":"2778f9fd-0978-4319-af39-17df2246a198","system_id":"levelo_inurba_marseille","lat":43.28938,"lon":5.39627,"is_reserved":false,"is_disabled":false,"rental_uris":{"android":"levelo://app?vid=2778f9fd-0978-4319-af39-17df2246a198","ios":"levelo://app?vid=2778f9fd-0978-4319-af39-17df2246a198"},"vehicle_type_id":"4","last_reported":1700831340,"current_range_meters":23200,"station_id":"ce4bh3h2rcd13ifvqdn0","pricing_plan_id":"free"},{"bike_id":"e2284003-4e46-4e0a-93e7-73d05c3666d9","system_id":"levelo_inurba_marseille","lat":43.33508,"lon":5.397755,"is_reserved":false,"is_disabled":false,"rental_uris":{"android":"levelo://app?vid=e2284003-4e46-4e0a-93e7-73d05c3666d9","ios":"levelo://app?vid=e2284003-4e46-4e0a-93e7-73d05c3666d9"},"vehicle_type_id":"4","last_reported":1700831340,"current_range_meters":26400,"station_id":"","pricing_plan_id":"free"},{"bike_id":"b4bc6c19-20e6-4b1e-b989-40d4ba171e93","system_id":"levelo_inurba_marseille","lat":43.335274,"lon":5.39759,"is_reserved":false,"is_disabled":false,"rental_uris":{"android":"levelo://app?vid=b4bc6c19-20e6-4b1e-b989-40d4ba171e93","ios":"levelo://app?vid=b4bc6c19-20e6-4b1e-b989-40d4ba171e93"},"vehicle_type_id":"4","last_reported":1700831340,"current_range_meters":5600,"station_id":"","pricing_plan_id":"free"},{"bike_id":"53735641-5751-4a9a-9c79-cb8fe042788c","system_id":"levelo_inurba_marseille","lat":43.292724,"lon":5.401131,"is_reserved":false,"is_disabled":false,"rental_uris":{"android":"levelo://app?vid=53735641-5751-4a9a-9c79-cb8fe042788c","ios":"levelo://app?vid=53735641-5751-4a9a-9c79-cb8fe042788c"},"vehicle_type_id":"4","last_reported":1700831340,"current_range_meters":15600,"station_id":"ce4bh312rcd13ifvqdk0","pricing_plan_id":"free"},{"bike_id":"fbc8a931-7a82-4af9-9d21-a41f96008ef5","system_id":"levelo_inurba_marseille","lat":43.292724,"lon":5.401131,"is_reserved":false,"is_disabled":false,"rental_uris":{"android":"levelo://app?vid=fbc8a931-7a82-4af9-9d21-a41f96008ef5","ios":"levelo://app?vid=fbc8a931-7a82-4af9-9d21-a41f96008ef5"},"vehicle_type_id":"4","last_reported":1700831340,"current_range_meters":15200,"station_id":"ce4bh312rcd13ifvqdk0","pricing_plan_id":"free"},{"bike_id":"20db110f-7ce3-4acb-bded-2e349f0c9a5a","system_id":"levelo_inurba_marseille","lat":43.267966,"lon":5.393976,"is_reserved":false,"is_disabled":false,"rental_uris":{"android":"levelo://app?vid=20db110f-7ce3-4acb-bded-2e349f0c9a5a","ios":"levelo://app?vid=20db110f-7ce3-4acb-bded-2e349f0c9a5a"},"vehicle_type_id":"4","last_reported":1700831340,"current_range_meters":1600,"station_id":"ce4bhh12rcd13ifvqfg0","pricing_plan_id":"free"},{"bike_id":"683e58ad-12f5-4267-a2e6-fa838625375e","system_id":"levelo_inurba_marseille","lat":43.2927,"lon":5.40122,"is_reserved":false,"is_disabled":false,"rental_uris":{"android":"levelo://app?vid=683e58ad-12f5-4267-a2e6-fa838625375e","ios":"levelo://app?vid=683e58ad-12f5-4267-a2e6-fa838625375e"},"vehicle_type_id":"4","last_reported":1700831340,"current_range_meters":0,"station_id":"ce4bh312rcd13ifvqdk0","pricing_plan_id":"free"},{"bike_id":"ada9b365-6faa-490d-a5be-ee668f8fc4a2","system_id":"levelo_inurba_marseille","lat":43.29035,"lon":5.3994,"is_reserved":false,"is_disabled":false,"rental_uris":{"android":"levelo://app?vid=ada9b365-6faa-490d-a5be-ee668f8fc4a2","ios":"levelo://app?vid=ada9b365-6faa-490d-a5be-ee668f8fc4a2"},"vehicle_type_id":"4","last_reported":1700831340,"current_range_meters":25200,"station_id":"ce4bh392rcd13ifvqdm0","pricing_plan_id":"free"},{"bike_id":"5a82cc2d-d60f-47bc-8f17-8fffaca9ef44","system_id":"levelo_inurba_marseille","lat":43.29042,"lon":5.39957,"is_reserved":false,"is_disabled":false,"rental_uris":{"android":"levelo://app?vid=5a82cc2d-d60f-47bc-8f17-8fffaca9ef44","ios":"levelo://app?vid=5a82cc2d-d60f-47bc-8f17-8fffaca9ef44"},"vehicle_type_id":"4","last_reported":1700831340,"current_range_meters":19200,"station_id":"ce4bh392rcd13ifvqdm0","pricing_plan_id":"free"},{"bike_id":"53a673be-60d5-43ad-b964-14048a7ef946","system_id":"levelo_inurba_marseille","lat":43.29033,"lon":5.39951,"is_reserved":false,"is_disabled":false,"rental_uris":{"android":"levelo://app?vid=53a673be-60d5-43ad-b964-14048a7ef946","ios":"levelo://app?vid=53a673be-60d5-43ad-b964-14048a7ef946"},"vehicle_type_id":"4","last_reported":1700831340,"current_range_meters":22400,"station_id":"ce4bh392rcd13ifvqdm0","pricing_plan_id":"free"},{"bike_id":"0db6075d-0eb5-4526-9cc7-98f0413662d9","system_id":"levelo_inurba_marseille","lat":43.29039,"lon":5.39974,"is_reserved":false,"is_disabled":false,"rental_uris":{"android":"levelo://app?vid=0db6075d-0eb5-4526-9cc7-98f0413662d9","ios":"levelo://app?vid=0db6075d-0eb5-4526-9cc7-98f0413662d9"},"vehicle_type_id":"4","last_reported":1700831340,"current_range_meters":8800,"station_id":"ce4bh392rcd13ifvqdm0","pricing_plan_id":"free"},{"bike_id":"615acb43-97e4-46c3-a384-16dcd4a689f5","system_id":"levelo_inurba_marseille","lat":43.281044,"lon":5.378308,"is_reserved":false,"is_disabled":false,"rental_uris":{"android":"levelo://app?vid=615acb43-97e4-46c3-a384-16dcd4a689f5","ios":"levelo://app?vid=615acb43-97e4-46c3-a384-16dcd4a689f5"},"vehicle_type_id":"4","last_reported":1700831340,"current_range_meters":21600,"station_id":"ce4bha12rcd13ifvqee0","pricing_plan_id":"free"},{"bike_id":"a22a92e9-397a-4ea6-aa63-c785c265e864","system_id":"levelo_inurba_marseille","lat":43.281044,"lon":5.378308,"is_reserved":false,"is_disabled":false,"rental_uris":{"android":"levelo://app?vid=a22a92e9-397a-4ea6-aa63-c785c265e864","ios":"levelo://app?vid=a22a92e9-397a-4ea6-aa63-c785c265e864"},"vehicle_type_id":"4","last_reported":1700831340,"current_range_meters":30800,"station_id":"ce4bha12rcd13ifvqee0","pricing_plan_id":"free"},{"bike_id":"34dcb56a-764b-41f0-b2c1-9279fc71deb9","system_id":"levelo_inurba_marseille","lat":43.281044,"lon":5.378308,"is_reserved":false,"is_disabled":false,"rental_uris":{"android":"levelo://app?vid=34dcb56a-764b-41f0-b2c1-9279fc71deb9","ios":"levelo://app?vid=34dcb56a-764b-41f0-b2c1-9279fc71deb9"},"vehicle_type_id":"4","last_reported":1700831340,"current_range_meters":18400,"station_id":"ce4bha12rcd13ifvqee0","pricing_plan_id":"free"},{"bike_id":"7c2a4b4a-1d11-4a98-b04a-ff49631c8967","system_id":"levelo_inurba_marseille","lat":43.296263,"lon":5.40601,"is_reserved":false,"is_disabled":false,"rental_uris":{"android":"levelo://app?vid=7c2a4b4a-1d11-4a98-b04a-ff49631c8967","ios":"levelo://app?vid=7c2a4b4a-1d11-4a98-b04a-ff49631c8967"},"vehicle_type_id":"4","last_reported":1700831340,"current_range_meters":25200,"station_id":"ce4bh0h2rcd13ifvqd60","pricing_plan_id":"free"},{"bike_id":"22b33b8f-434a-4081-ba92-effe796777b5","system_id":"levelo_inurba_marseille","lat":43.284462,"lon":5.392121,"is_reserved":false,"is_disabled":false,"rental_uris":{"android":"levelo://app?vid=22b33b8f-434a-4081-ba92-effe796777b5","ios":"levelo://app?vid=22b33b8f-434a-4081-ba92-effe796777b5"},"vehicle_type_id":"4","last_reported":1700831340,"current_range_meters":1600,"station_id":"ce4bhoh2rcd13ifvqh5g","pricing_plan_id":"free"},{"bike_id":"9e8d2373-d9f7-4b3d-8312-70a05c5901ac","system_id":"levelo_inurba_marseille","lat":43.284462,"lon":5.392121,"is_reserved":false,"is_disabled":false,"rental_uris":{"android":"levelo://app?vid=9e8d2373-d9f7-4b3d-8312-70a05c5901ac","ios":"levelo://app?vid=9e8d2373-d9f7-4b3d-8312-70a05c5901ac"},"vehicle_type_id":"4","last_reported":1700831340,"current_range_meters":12400,"station_id":"ce4bhoh2rcd13ifvqh5g","pricing_plan_id":"free"},{"bike_id":"e8997d84-e9e0-4aaa-a76a-c6d2af7271c7","system_id":"levelo_inurba_marseille","lat":43.29885,"lon":5.410273,"is_reserved":false,"is_disabled":false,"rental_uris":{"android":"levelo://app?vid=e8997d84-e9e0-4aaa-a76a-c6d2af7271c7","ios":"levelo://app?vid=e8997d84-e9e0-4aaa-a76a-c6d2af7271c7"},"vehicle_type_id":"4","last_reported":1700831340,"current_range_meters":0,"station_id":"","pricing_plan_id":"free"},{"bike_id":"9ad34e89-6378-4fe4-b9c9-022135994696","system_id":"levelo_inurba_marseille","lat":43.304188,"lon":5.412904,"is_reserved":false,"is_disabled":false,"rental_uris":{"android":"levelo://app?vid=9ad34e89-6378-4fe4-b9c9-022135994696","ios":"levelo://app?vid=9ad34e89-6378-4fe4-b9c9-022135994696"},"vehicle_type_id":"4","last_reported":1700831340,"current_range_meters":12000,"station_id":"ce4bhop2rcd13ifvqh8g","pricing_plan_id":"free"},{"bike_id":"d399faa8-aa43-4c84-a4c7-68db2c080faa","system_id":"levelo_inurba_marseille","lat":43.279087,"lon":5.380114,"is_reserved":false,"is_disabled":false,"rental_uris":{"android":"levelo://app?vid=d399faa8-aa43-4c84-a4c7-68db2c080faa","ios":"levelo://app?vid=d399faa8-aa43-4c84-a4c7-68db2c080faa"},"vehicle_type_id":"4","last_reported":1700831340,"current_range_meters":10800,"station_id":"ce4bhf92rcd13ifvqf50","pricing_plan_id":"free"},{"bike_id":"55e1d591-ec14-455b-9bc3-357d5beb5bc8","system_id":"levelo_inurba_marseille","lat":43.292571,"lon":5.409107,"is_reserved":false,"is_disabled":false,"rental_uris":{"android":"levelo://app?vid=55e1d591-ec14-455b-9bc3-357d5beb5bc8","ios":"levelo://app?vid=55e1d591-ec14-455b-9bc3-357d5beb5bc8"},"vehicle_type_id":"4","last_reported":1700831340,"current_range_meters":10800,"station_id":"ce4bh192rcd13ifvqdc0","pricing_plan_id":"free"},{"bike_id":"14ada97f-c278-49f4-a6ba-df0adf4feb78","system_id":"levelo_inurba_marseille","lat":43.325233,"lon":5.414318,"is_reserved":false,"is_disabled":false,"rental_uris":{"android":"levelo://app?vid=14ada97f-c278-49f4-a6ba-df0adf4feb78","ios":"levelo://app?vid=14ada97f-c278-49f4-a6ba-df0adf4feb78"},"vehicle_type_id":"4","last_reported":1700831340,"current_range_meters":23200,"station_id":"ce4bhq12rcd13ifvqhhg","pricing_plan_id":"free"},{"bike_id":"b74dac04-7089-41ee-b07e-b051e089530b","system_id":"levelo_inurba_marseille","lat":43.325233,"lon":5.414318,"is_reserved":false,"is_disabled":false,"rental_uris":{"android":"levelo://app?vid=b74dac04-7089-41ee-b07e-b051e089530b","ios":"levelo://app?vid=b74dac04-7089-41ee-b07e-b051e089530b"},"vehicle_type_id":"4","last_reported":1700831340,"current_range_meters":23600,"station_id":"ce4bhq12rcd13ifvqhhg","pricing_plan_id":"free"},{"bike_id":"a86a44d1-76f4-4759-973d-f3905b7f237f","system_id":"levelo_inurba_marseille","lat":43.27618,"lon":5.361009,"is_reserved":false,"is_disabled":false,"rental_uris":{"android":"levelo://app?vid=a86a44d1-76f4-4759-973d-f3905b7f237f","ios":"levelo://app?vid=a86a44d1-76f4-4759-973d-f3905b7f237f"},"vehicle_type_id":"4","last_reported":1700831340,"current_range_meters":19200,"station_id":"ce4bgj92rcd13ifvqbe0","pricing_plan_id":"free"},{"bike_id":"380bea03-66b9-494a-9d3c-ad0da1c35a22","system_id":"levelo_inurba_marseille","lat":43.293665,"lon":5.412629,"is_reserved":false,"is_disabled":false,"rental_uris":{"android":"levelo://app?vid=380bea03-66b9-494a-9d3c-ad0da1c35a22","ios":"levelo://app?vid=380bea03-66b9-494a-9d3c-ad0da1c35a22"},"vehicle_type_id":"4","last_reported":1700831340,"current_range_meters":0,"station_id":"","pricing_plan_id":"free"},{"bike_id":"d42f65c9-c580-42d6-80d1-e4313df84b59","system_id":"levelo_inurba_marseille","lat":43.273613,"lon":5.362705,"is_reserved":false,"is_disabled":false,"rental_uris":{"android":"levelo://app?vid=d42f65c9-c580-42d6-80d1-e4313df84b59","ios":"levelo://app?vid=d42f65c9-c580-42d6-80d1-e4313df84b59"},"vehicle_type_id":"4","last_reported":1700831340,"current_range_meters":25200,"station_id":"ce4bhbh2rcd13ifvqeo0","pricing_plan_id":"free"},{"bike_id":"b1d57864-09ab-4773-8b57-af5a8d1e5a02","system_id":"levelo_inurba_marseille","lat":43.273609,"lon":5.362708,"is_reserved":false,"is_disabled":false,"rental_uris":{"android":"levelo://app?vid=b1d57864-09ab-4773-8b57-af5a8d1e5a02","ios":"levelo://app?vid=b1d57864-09ab-4773-8b57-af5a8d1e5a02"},"vehicle_type_id":"4","last_reported":1700831340,"current_range_meters":5200,"station_id":"ce4bhbh2rcd13ifvqeo0","pricing_plan_id":"free"},{"bike_id":"59336d62-7963-4534-990b-42729db8f51c","system_id":"levelo_inurba_marseille","lat":43.336148,"lon":5.410349,"is_reserved":false,"is_disabled":false,"rental_uris":{"android":"levelo://app?vid=59336d62-7963-4534-990b-42729db8f51c","ios":"levelo://app?vid=59336d62-7963-4534-990b-42729db8f51c"},"vehicle_type_id":"4","last_reported":1700831340,"current_range_meters":29200,"station_id":"ce4bhqh2rcd13ifvqhmg","pricing_plan_id":"free"},{"bike_id":"e2ef757f-0273-4297-8f1a-1cce222e5bc7","system_id":"levelo_inurba_marseille","lat":43.336134,"lon":5.410341,"is_reserved":false,"is_disabled":false,"rental_uris":{"android":"levelo://app?vid=e2ef757f-0273-4297-8f1a-1cce222e5bc7","ios":"levelo://app?vid=e2ef757f-0273-4297-8f1a-1cce222e5bc7"},"vehicle_type_id":"4","last_reported":1700831340,"current_range_meters":12000,"station_id":"ce4bhqh2rcd13ifvqhmg","pricing_plan_id":"free"},{"bike_id":"2e5edf74-c32c-420a-bbf0-7847bf7e5710","system_id":"levelo_inurba_marseille","lat":43.279952,"lon":5.400085,"is_reserved":false,"is_disabled":false,"rental_uris":{"android":"levelo://app?vid=2e5edf74-c32c-420a-bbf0-7847bf7e5710","ios":"levelo://app?vid=2e5edf74-c32c-420a-bbf0-7847bf7e5710"},"vehicle_type_id":"4","last_reported":1700831340,"current_range_meters":17600,"station_id":"ce4bho92rcd13ifvqh4g","pricing_plan_id":"free"},{"bike_id":"fc8a50fc-7fb9-4b58-ae5e-3658ebaf4b71","system_id":"levelo_inurba_marseille","lat":43.34182,"lon":5.406,"is_reserved":false,"is_disabled":false,"rental_uris":{"android":"levelo://app?vid=fc8a50fc-7fb9-4b58-ae5e-3658ebaf4b71","ios":"levelo://app?vid=fc8a50fc-7fb9-4b58-ae5e-3658ebaf4b71"},"vehicle_type_id":"4","last_reported":1700831340,"current_range_meters":3600,"station_id":"","pricing_plan_id":"free"},{"bike_id":"a2e2f5dd-d761-4c35-a746-d1faca093cc2","system_id":"levelo_inurba_marseille","lat":43.279952,"lon":5.400085,"is_reserved":false,"is_disabled":false,"rental_uris":{"android":"levelo://app?vid=a2e2f5dd-d761-4c35-a746-d1faca093cc2","ios":"levelo://app?vid=a2e2f5dd-d761-4c35-a746-d1faca093cc2"},"vehicle_type_id":"4","last_reported":1700831340,"current_range_meters":20400,"station_id":"ce4bho92rcd13ifvqh4g","pricing_plan_id":"free"},{"bike_id":"422eaa23-7465-45a6-8f34-ef03bb0d0a13","system_id":"levelo_inurba_marseille","lat":43.340804,"lon":5.410219,"is_reserved":false,"is_disabled":false,"rental_uris":{"android":"levelo://app?vid=422eaa23-7465-45a6-8f34-ef03bb0d0a13","ios":"levelo://app?vid=422eaa23-7465-45a6-8f34-ef03bb0d0a13"},"vehicle_type_id":"4","last_reported":1700831340,"current_range_meters":24000,"station_id":"ce4bhqh2rcd13ifvqhlg","pricing_plan_id":"free"},{"bike_id":"e0251fd8-4e40-4ecc-8379-605029ccde6c","system_id":"levelo_inurba_marseille","lat":43.340804,"lon":5.410219,"is_reserved":false,"is_disabled":false,"rental_uris":{"android":"levelo://app?vid=e0251fd8-4e40-4ecc-8379-605029ccde6c","ios":"levelo://app?vid=e0251fd8-4e40-4ecc-8379-605029ccde6c"},"vehicle_type_id":"4","last_reported":1700831340,"current_range_meters":24400,"station_id":"ce4bhqh2rcd13ifvqhlg","pricing_plan_id":"free"},{"bike_id":"f6d19d1b-693b-4963-ba5a-4b930cec88fd","system_id":"levelo_inurba_marseille","lat":43.340804,"lon":5.410219,"is_reserved":false,"is_disabled":false,"rental_uris":{"android":"levelo://app?vid=f6d19d1b-693b-4963-ba5a-4b930cec88fd","ios":"levelo://app?vid=f6d19d1b-693b-4963-ba5a-4b930cec88fd"},"vehicle_type_id":"4","last_reported":1700831340,"current_range_meters":31600,"station_id":"ce4bhqh2rcd13ifvqhlg","pricing_plan_id":"free"},{"bike_id":"ee3353de-ad16-41b2-900b-c0d5b5e68caf","system_id":"levelo_inurba_marseille","lat":43.340804,"lon":5.410219,"is_reserved":false,"is_disabled":false,"rental_uris":{"android":"levelo://app?vid=ee3353de-ad16-41b2-900b-c0d5b5e68caf","ios":"levelo://app?vid=ee3353de-ad16-41b2-900b-c0d5b5e68caf"},"vehicle_type_id":"4","last_reported":1700831340,"current_range_meters":30800,"station_id":"ce4bhqh2rcd13ifvqhlg","pricing_plan_id":"free"},{"bike_id":"48565e36-de67-4c6a-8337-460138cf3900","system_id":"levelo_inurba_marseille","lat":43.340804,"lon":5.410219,"is_reserved":false,"is_disabled":false,"rental_uris":{"android":"levelo://app?vid=48565e36-de67-4c6a-8337-460138cf3900","ios":"levelo://app?vid=48565e36-de67-4c6a-8337-460138cf3900"},"vehicle_type_id":"4","last_reported":1700831340,"current_range_meters":12400,"station_id":"ce4bhqh2rcd13ifvqhlg","pricing_plan_id":"free"},{"bike_id":"04c48993-d044-41c4-9cb8-117723655329","system_id":"levelo_inurba_marseille","lat":43.340804,"lon":5.410219,"is_reserved":false,"is_disabled":false,"rental_uris":{"android":"levelo://app?vid=04c48993-d044-41c4-9cb8-117723655329","ios":"levelo://app?vid=04c48993-d044-41c4-9cb8-117723655329"},"vehicle_type_id":"4","last_reported":1700831340,"current_range_meters":19200,"station_id":"ce4bhqh2rcd13ifvqhlg","pricing_plan_id":"free"},{"bike_id":"42402f9f-a5de-4464-b628-42de40584ac1","system_id":"levelo_inurba_marseille","lat":43.340804,"lon":5.410219,"is_reserved":false,"is_disabled":false,"rental_uris":{"android":"levelo://app?vid=42402f9f-a5de-4464-b628-42de40584ac1","ios":"levelo://app?vid=42402f9f-a5de-4464-b628-42de40584ac1"},"vehicle_type_id":"4","last_reported":1700831340,"current_range_meters":2400,"station_id":"ce4bhqh2rcd13ifvqhlg","pricing_plan_id":"free"},{"bike_id":"d2eb6e60-c832-4226-b0bd-5c4c79e22e56","system_id":"levelo_inurba_marseille","lat":43.340804,"lon":5.410219,"is_reserved":false,"is_disabled":false,"rental_uris":{"android":"levelo://app?vid=d2eb6e60-c832-4226-b0bd-5c4c79e22e56","ios":"levelo://app?vid=d2eb6e60-c832-4226-b0bd-5c4c79e22e56"},"vehicle_type_id":"4","last_reported":1700831340,"current_range_meters":12000,"station_id":"ce4bhqh2rcd13ifvqhlg","pricing_plan_id":"free"},{"bike_id":"178a88b9-d696-4c57-a581-5aa57d680018","system_id":"levelo_inurba_marseille","lat":43.273125,"lon":5.390731,"is_reserved":false,"is_disabled":false,"rental_uris":{"android":"levelo://app?vid=178a88b9-d696-4c57-a581-5aa57d680018","ios":"levelo://app?vid=178a88b9-d696-4c57-a581-5aa57d680018"},"vehicle_type_id":"4","last_reported":1700831340,"current_range_meters":26800,"station_id":"ce4bhgp2rcd13ifvqfe0","pricing_plan_id":"free"},{"bike_id":"2a011d63-28c1-49f3-b310-58db77f44c6a","system_id":"levelo_inurba_marseille","lat":43.274103,"lon":5.394016,"is_reserved":false,"is_disabled":false,"rental_uris":{"android":"levelo://app?vid=2a011d63-28c1-49f3-b310-58db77f44c6a","ios":"levelo://app?vid=2a011d63-28c1-49f3-b310-58db77f44c6a"},"vehicle_type_id":"4","last_reported":1700831340,"current_range_meters":18400,"station_id":"ce4bhdp2rcd13ifvqf20","pricing_plan_id":"free"},{"bike_id":"98813903-d36f-4902-9089-2987115e64c2","system_id":"levelo_inurba_marseille","lat":43.274103,"lon":5.394016,"is_reserved":false,"is_disabled":false,"rental_uris":{"android":"levelo://app?vid=98813903-d36f-4902-9089-2987115e64c2","ios":"levelo://app?vid=98813903-d36f-4902-9089-2987115e64c2"},"vehicle_type_id":"4","last_reported":1700831340,"current_range_meters":12400,"station_id":"ce4bhdp2rcd13ifvqf20","pricing_plan_id":"free"},{"bike_id":"4549ac20-7f7e-46b7-b415-5541c4b1ab6b","system_id":"levelo_inurba_marseille","lat":43.272124,"lon":5.391768,"is_reserved":false,"is_disabled":false,"rental_uris":{"android":"levelo://app?vid=4549ac20-7f7e-46b7-b415-5541c4b1ab6b","ios":"levelo://app?vid=4549ac20-7f7e-46b7-b415-5541c4b1ab6b"},"vehicle_type_id":"4","last_reported":1700831340,"current_range_meters":22800,"station_id":"ce4bhhp2rcd13ifvqfm0","pricing_plan_id":"free"},{"bike_id":"18fad332-8e7a-4515-b6c8-e3208e353351","system_id":"levelo_inurba_marseille","lat":43.272118,"lon":5.391758,"is_reserved":false,"is_disabled":false,"rental_uris":{"android":"levelo://app?vid=18fad332-8e7a-4515-b6c8-e3208e353351","ios":"levelo://app?vid=18fad332-8e7a-4515-b6c8-e3208e353351"},"vehicle_type_id":"4","last_reported":1700831340,"current_range_meters":27600,"station_id":"ce4bhhp2rcd13ifvqfm0","pricing_plan_id":"free"},{"bike_id":"88afa6d0-27e3-4816-8a6b-6c296b3317d4","system_id":"levelo_inurba_marseille","lat":43.272118,"lon":5.391758,"is_reserved":false,"is_disabled":false,"rental_uris":{"android":"levelo://app?vid=88afa6d0-27e3-4816-8a6b-6c296b3317d4","ios":"levelo://app?vid=88afa6d0-27e3-4816-8a6b-6c296b3317d4"},"vehicle_type_id":"4","last_reported":1700831340,"current_range_meters":10400,"station_id":"ce4bhhp2rcd13ifvqfm0","pricing_plan_id":"free"},{"bike_id":"80a430f7-92b3-45f0-b094-262aaea729a8","system_id":"levelo_inurba_marseille","lat":43.269467,"lon":5.386439,"is_reserved":false,"is_disabled":false,"rental_uris":{"android":"levelo://app?vid=80a430f7-92b3-45f0-b094-262aaea729a8","ios":"levelo://app?vid=80a430f7-92b3-45f0-b094-262aaea729a8"},"vehicle_type_id":"4","last_reported":1700831340,"current_range_meters":12000,"station_id":"ce4bhh92rcd13ifvqfh0","pricing_plan_id":"free"},{"bike_id":"f9d1fb2f-467b-444a-9a31-f0b9e96121cb","system_id":"levelo_inurba_marseille","lat":43.26952,"lon":5.38623,"is_reserved":false,"is_disabled":false,"rental_uris":{"android":"levelo://app?vid=f9d1fb2f-467b-444a-9a31-f0b9e96121cb","ios":"levelo://app?vid=f9d1fb2f-467b-444a-9a31-f0b9e96121cb"},"vehicle_type_id":"4","last_reported":1700831340,"current_range_meters":16000,"station_id":"ce4bhh92rcd13ifvqfh0","pricing_plan_id":"free"},{"bike_id":"c3958072-769e-45d0-85e7-a82672936aac","system_id":"levelo_inurba_marseille","lat":43.272116,"lon":5.391763,"is_reserved":false,"is_disabled":false,"rental_uris":{"android":"levelo://app?vid=c3958072-769e-45d0-85e7-a82672936aac","ios":"levelo://app?vid=c3958072-769e-45d0-85e7-a82672936aac"},"vehicle_type_id":"4","last_reported":1700831340,"current_range_meters":14400,"station_id":"ce4bhhp2rcd13ifvqfm0","pricing_plan_id":"free"},{"bike_id":"48c1fbfb-e6c4-4c56-a75c-55416f8bb4c3","system_id":"levelo_inurba_marseille","lat":43.26931,"lon":5.389763,"is_reserved":false,"is_disabled":false,"rental_uris":{"android":"levelo://app?vid=48c1fbfb-e6c4-4c56-a75c-55416f8bb4c3","ios":"levelo://app?vid=48c1fbfb-e6c4-4c56-a75c-55416f8bb4c3"},"vehicle_type_id":"4","last_reported":1700831340,"current_range_meters":25600,"station_id":"ce4bhhh2rcd13ifvqfl0","pricing_plan_id":"free"},{"bike_id":"a78c7975-23dc-4765-ac5e-cc07d0748e32","system_id":"levelo_inurba_marseille","lat":43.26684,"lon":5.38265,"is_reserved":false,"is_disabled":false,"rental_uris":{"android":"levelo://app?vid=a78c7975-23dc-4765-ac5e-cc07d0748e32","ios":"levelo://app?vid=a78c7975-23dc-4765-ac5e-cc07d0748e32"},"vehicle_type_id":"4","last_reported":1700831340,"current_range_meters":1600,"station_id":"ce4bhg92rcd13ifvqf90","pricing_plan_id":"free"},{"bike_id":"16207791-efb0-4647-be04-11df27cab8b1","system_id":"levelo_inurba_marseille","lat":43.26685,"lon":5.38271,"is_reserved":false,"is_disabled":false,"rental_uris":{"android":"levelo://app?vid=16207791-efb0-4647-be04-11df27cab8b1","ios":"levelo://app?vid=16207791-efb0-4647-be04-11df27cab8b1"},"vehicle_type_id":"4","last_reported":1700831340,"current_range_meters":2400,"station_id":"ce4bhg92rcd13ifvqf90","pricing_plan_id":"free"},{"bike_id":"7eb40523-e1ca-467d-b772-1353c294d8bc","system_id":"levelo_inurba_marseille","lat":43.26681,"lon":5.382694,"is_reserved":false,"is_disabled":false,"rental_uris":{"android":"levelo://app?vid=7eb40523-e1ca-467d-b772-1353c294d8bc","ios":"levelo://app?vid=7eb40523-e1ca-467d-b772-1353c294d8bc"},"vehicle_type_id":"4","last_reported":1700831340,"current_range_meters":14400,"station_id":"ce4bhg92rcd13ifvqf90","pricing_plan_id":"free"},{"bike_id":"27da4937-ee81-4225-a410-93d23e985cb3","system_id":"levelo_inurba_marseille","lat":43.266833,"lon":5.382689,"is_reserved":false,"is_disabled":false,"rental_uris":{"android":"levelo://app?vid=27da4937-ee81-4225-a410-93d23e985cb3","ios":"levelo://app?vid=27da4937-ee81-4225-a410-93d23e985cb3"},"vehicle_type_id":"4","last_reported":1700831340,"current_range_meters":6400,"station_id":"","pricing_plan_id":"free"},{"bike_id":"72b1047d-07d2-47c4-9805-d565409aa9fb","system_id":"levelo_inurba_marseille","lat":43.266818,"lon":5.38269,"is_reserved":false,"is_disabled":false,"rental_uris":{"android":"levelo://app?vid=72b1047d-07d2-47c4-9805-d565409aa9fb","ios":"levelo://app?vid=72b1047d-07d2-47c4-9805-d565409aa9fb"},"vehicle_type_id":"4","last_reported":1700831340,"current_range_meters":23200,"station_id":"ce4bhg92rcd13ifvqf90","pricing_plan_id":"free"},{"bike_id":"510a2480-541a-47eb-8863-dea357589c1f","system_id":"levelo_inurba_marseille","lat":43.26681,"lon":5.382694,"is_reserved":false,"is_disabled":false,"rental_uris":{"android":"levelo://app?vid=510a2480-541a-47eb-8863-dea357589c1f","ios":"levelo://app?vid=510a2480-541a-47eb-8863-dea357589c1f"},"vehicle_type_id":"4","last_reported":1700831340,"current_range_meters":14400,"station_id":"ce4bhg92rcd13ifvqf90","pricing_plan_id":"free"},{"bike_id":"458ec4b9-7e8d-4723-9af4-a7ca8cc1a968","system_id":"levelo_inurba_marseille","lat":43.26681,"lon":5.38269,"is_reserved":false,"is_disabled":false,"rental_uris":{"android":"levelo://app?vid=458ec4b9-7e8d-4723-9af4-a7ca8cc1a968","ios":"levelo://app?vid=458ec4b9-7e8d-4723-9af4-a7ca8cc1a968"},"vehicle_type_id":"4","last_reported":1700831340,"current_range_meters":30000,"station_id":"ce4bhg92rcd13ifvqf90","pricing_plan_id":"free"},{"bike_id":"c4074fae-ec9c-4ed9-95a4-6884210b5735","system_id":"levelo_inurba_marseille","lat":43.26681,"lon":5.38273,"is_reserved":false,"is_disabled":false,"rental_uris":{"android":"levelo://app?vid=c4074fae-ec9c-4ed9-95a4-6884210b5735","ios":"levelo://app?vid=c4074fae-ec9c-4ed9-95a4-6884210b5735"},"vehicle_type_id":"4","last_reported":1700831340,"current_range_meters":16400,"station_id":"ce4bhg92rcd13ifvqf90","pricing_plan_id":"free"},{"bike_id":"28e8ce00-6b21-4e06-9930-c7c4408cc650","system_id":"levelo_inurba_marseille","lat":43.326174,"lon":5.430584,"is_reserved":false,"is_disabled":false,"rental_uris":{"android":"levelo://app?vid=28e8ce00-6b21-4e06-9930-c7c4408cc650","ios":"levelo://app?vid=28e8ce00-6b21-4e06-9930-c7c4408cc650"},"vehicle_type_id":"4","last_reported":1700831340,"current_range_meters":0,"station_id":"","pricing_plan_id":"free"},{"bike_id":"be048071-3fde-47b6-8291-d4414e68f0dc","system_id":"levelo_inurba_marseille","lat":43.27996,"lon":5.416624,"is_reserved":false,"is_disabled":false,"rental_uris":{"android":"levelo://app?vid=be048071-3fde-47b6-8291-d4414e68f0dc","ios":"levelo://app?vid=be048071-3fde-47b6-8291-d4414e68f0dc"},"vehicle_type_id":"4","last_reported":1700831340,"current_range_meters":18000,"station_id":"ce4bho12rcd13ifvqh1g","pricing_plan_id":"free"},{"bike_id":"2b5f0b27-ae58-4e9e-bd76-c585f78e8a73","system_id":"levelo_inurba_marseille","lat":43.26386,"lon":5.37454,"is_reserved":false,"is_disabled":false,"rental_uris":{"android":"levelo://app?vid=2b5f0b27-ae58-4e9e-bd76-c585f78e8a73","ios":"levelo://app?vid=2b5f0b27-ae58-4e9e-bd76-c585f78e8a73"},"vehicle_type_id":"4","last_reported":1700831340,"current_range_meters":14800,"station_id":"","pricing_plan_id":"free"},{"bike_id":"38e36d37-f81e-45ef-aec6-205f79296dd6","system_id":"levelo_inurba_marseille","lat":43.269469,"lon":5.402502,"is_reserved":false,"is_disabled":false,"rental_uris":{"android":"levelo://app?vid=38e36d37-f81e-45ef-aec6-205f79296dd6","ios":"levelo://app?vid=38e36d37-f81e-45ef-aec6-205f79296dd6"},"vehicle_type_id":"4","last_reported":1700831340,"current_range_meters":0,"station_id":"cjm6bp8fraef2m0cb0m0","pricing_plan_id":"free"},{"bike_id":"5a7d9070-512f-48ba-8e00-0a1a89bc6aa6","system_id":"levelo_inurba_marseille","lat":43.26949,"lon":5.40262,"is_reserved":false,"is_disabled":false,"rental_uris":{"android":"levelo://app?vid=5a7d9070-512f-48ba-8e00-0a1a89bc6aa6","ios":"levelo://app?vid=5a7d9070-512f-48ba-8e00-0a1a89bc6aa6"},"vehicle_type_id":"4","last_reported":1700831340,"current_range_meters":14400,"station_id":"cjm6bp8fraef2m0cb0m0","pricing_plan_id":"free"},{"bike_id":"842f28e5-db3c-4998-89e9-23d0f964f086","system_id":"levelo_inurba_marseille","lat":43.26932,"lon":5.4026,"is_reserved":false,"is_disabled":false,"rental_uris":{"android":"levelo://app?vid=842f28e5-db3c-4998-89e9-23d0f964f086","ios":"levelo://app?vid=842f28e5-db3c-4998-89e9-23d0f964f086"},"vehicle_type_id":"4","last_reported":1700831340,"current_range_meters":16800,"station_id":"cjm6bp8fraef2m0cb0m0","pricing_plan_id":"free"},{"bike_id":"da749586-8246-49c7-96ac-adfc74f3421a","system_id":"levelo_inurba_marseille","lat":43.261782,"lon":5.374515,"is_reserved":false,"is_disabled":false,"rental_uris":{"android":"levelo://app?vid=da749586-8246-49c7-96ac-adfc74f3421a","ios":"levelo://app?vid=da749586-8246-49c7-96ac-adfc74f3421a"},"vehicle_type_id":"4","last_reported":1700831340,"current_range_meters":10800,"station_id":"ce4bhgp2rcd13ifvqfc0","pricing_plan_id":"free"},{"bike_id":"f23d8119-b478-4639-98c5-6883279f9f84","system_id":"levelo_inurba_marseille","lat":43.317104,"lon":5.436818,"is_reserved":false,"is_disabled":false,"rental_uris":{"android":"levelo://app?vid=f23d8119-b478-4639-98c5-6883279f9f84","ios":"levelo://app?vid=f23d8119-b478-4639-98c5-6883279f9f84"},"vehicle_type_id":"4","last_reported":1700831340,"current_range_meters":25600,"station_id":"ce4bhp92rcd13ifvqhcg","pricing_plan_id":"free"},{"bike_id":"e927cc78-55fc-4406-a26c-5d780237e426","system_id":"levelo_inurba_marseille","lat":43.267959,"lon":5.402687,"is_reserved":false,"is_disabled":false,"rental_uris":{"android":"levelo://app?vid=e927cc78-55fc-4406-a26c-5d780237e426","ios":"levelo://app?vid=e927cc78-55fc-4406-a26c-5d780237e426"},"vehicle_type_id":"4","last_reported":1700831340,"current_range_meters":28800,"station_id":"ce501612rcd8frsf0b60","pricing_plan_id":"free"},{"bike_id":"18512275-ce8a-4cb5-b247-e864ee1038b0","system_id":"levelo_inurba_marseille","lat":43.267959,"lon":5.402685,"is_reserved":false,"is_disabled":false,"rental_uris":{"android":"levelo://app?vid=18512275-ce8a-4cb5-b247-e864ee1038b0","ios":"levelo://app?vid=18512275-ce8a-4cb5-b247-e864ee1038b0"},"vehicle_type_id":"4","last_reported":1700831340,"current_range_meters":25600,"station_id":"ce501612rcd8frsf0b60","pricing_plan_id":"free"},{"bike_id":"d0bb53f7-f1b8-4609-a668-27efdac67f66","system_id":"levelo_inurba_marseille","lat":43.26301,"lon":5.38842,"is_reserved":false,"is_disabled":false,"rental_uris":{"android":"levelo://app?vid=d0bb53f7-f1b8-4609-a668-27efdac67f66","ios":"levelo://app?vid=d0bb53f7-f1b8-4609-a668-27efdac67f66"},"vehicle_type_id":"4","last_reported":1700831340,"current_range_meters":0,"station_id":"","pricing_plan_id":"free"},{"bike_id":"8881d4a1-c768-4f86-a988-f3cc32eab361","system_id":"levelo_inurba_marseille","lat":43.298768,"lon":5.43643,"is_reserved":false,"is_disabled":false,"rental_uris":{"android":"levelo://app?vid=8881d4a1-c768-4f86-a988-f3cc32eab361","ios":"levelo://app?vid=8881d4a1-c768-4f86-a988-f3cc32eab361"},"vehicle_type_id":"4","last_reported":1700831340,"current_range_meters":15200,"station_id":"ce4bhpp2rcd13ifvqhfg","pricing_plan_id":"free"},{"bike_id":"64f11706-102d-43e8-8b4b-a8555d515aec","system_id":"levelo_inurba_marseille","lat":43.260219,"lon":5.37546,"is_reserved":false,"is_disabled":false,"rental_uris":{"android":"levelo://app?vid=64f11706-102d-43e8-8b4b-a8555d515aec","ios":"levelo://app?vid=64f11706-102d-43e8-8b4b-a8555d515aec"},"vehicle_type_id":"4","last_reported":1700831340,"current_range_meters":0,"station_id":"ce4bhgh2rcd13ifvqfa0","pricing_plan_id":"free"},{"bike_id":"0f59300e-f69b-48dc-9948-980df91b9947","system_id":"levelo_inurba_marseille","lat":43.275028,"lon":5.424534,"is_reserved":false,"is_disabled":false,"rental_uris":{"android":"levelo://app?vid=0f59300e-f69b-48dc-9948-980df91b9947","ios":"levelo://app?vid=0f59300e-f69b-48dc-9948-980df91b9947"},"vehicle_type_id":"4","last_reported":1700831340,"current_range_meters":14400,"station_id":"ce4bhn92rcd13ifvqgrg","pricing_plan_id":"free"},{"bike_id":"ae6288e9-3da7-4806-81a0-a60a382821d4","system_id":"levelo_inurba_marseille","lat":43.26094,"lon":5.39763,"is_reserved":false,"is_disabled":false,"rental_uris":{"android":"levelo://app?vid=ae6288e9-3da7-4806-81a0-a60a382821d4","ios":"levelo://app?vid=ae6288e9-3da7-4806-81a0-a60a382821d4"},"vehicle_type_id":"4","last_reported":1700831340,"current_range_meters":3200,"station_id":"ce4bhi12rcd13ifvqfq0","pricing_plan_id":"free"},{"bike_id":"d66202b2-d935-447f-a069-c02015cd9430","system_id":"levelo_inurba_marseille","lat":43.260909,"lon":5.397591,"is_reserved":false,"is_disabled":false,"rental_uris":{"android":"levelo://app?vid=d66202b2-d935-447f-a069-c02015cd9430","ios":"levelo://app?vid=d66202b2-d935-447f-a069-c02015cd9430"},"vehicle_type_id":"4","last_reported":1700831340,"current_range_meters":18400,"station_id":"ce4bhi12rcd13ifvqfq0","pricing_plan_id":"free"},{"bike_id":"f1472b32-8c0a-4dd2-b205-87650db60caf","system_id":"levelo_inurba_marseille","lat":43.26089,"lon":5.39763,"is_reserved":false,"is_disabled":false,"rental_uris":{"android":"levelo://app?vid=f1472b32-8c0a-4dd2-b205-87650db60caf","ios":"levelo://app?vid=f1472b32-8c0a-4dd2-b205-87650db60caf"},"vehicle_type_id":"4","last_reported":1700831340,"current_range_meters":4800,"station_id":"ce4bhi12rcd13ifvqfq0","pricing_plan_id":"free"},{"bike_id":"79d60a68-38ff-42f5-8642-269b4845d3f9","system_id":"levelo_inurba_marseille","lat":43.260909,"lon":5.397591,"is_reserved":false,"is_disabled":false,"rental_uris":{"android":"levelo://app?vid=79d60a68-38ff-42f5-8642-269b4845d3f9","ios":"levelo://app?vid=79d60a68-38ff-42f5-8642-269b4845d3f9"},"vehicle_type_id":"4","last_reported":1700831340,"current_range_meters":6000,"station_id":"ce4bhi12rcd13ifvqfq0","pricing_plan_id":"free"},{"bike_id":"e11c6868-42f1-4e46-99eb-64b0a4221982","system_id":"levelo_inurba_marseille","lat":43.260571,"lon":5.39811,"is_reserved":false,"is_disabled":false,"rental_uris":{"android":"levelo://app?vid=e11c6868-42f1-4e46-99eb-64b0a4221982","ios":"levelo://app?vid=e11c6868-42f1-4e46-99eb-64b0a4221982"},"vehicle_type_id":"4","last_reported":1700831340,"current_range_meters":4400,"station_id":"ce4bhi12rcd13ifvqfq0","pricing_plan_id":"free"},{"bike_id":"be55ff5a-173b-464f-b17c-1646c69ac2e0","system_id":"levelo_inurba_marseille","lat":43.2558,"lon":5.38232,"is_reserved":false,"is_disabled":false,"rental_uris":{"android":"levelo://app?vid=be55ff5a-173b-464f-b17c-1646c69ac2e0","ios":"levelo://app?vid=be55ff5a-173b-464f-b17c-1646c69ac2e0"},"vehicle_type_id":"4","last_reported":1700831340,"current_range_meters":19200,"station_id":"ce4bhih2rcd13ifvqfs0","pricing_plan_id":"free"},{"bike_id":"c1487a84-afe8-4ce0-86c6-68b365335692","system_id":"levelo_inurba_marseille","lat":43.25578,"lon":5.38227,"is_reserved":false,"is_disabled":false,"rental_uris":{"android":"levelo://app?vid=c1487a84-afe8-4ce0-86c6-68b365335692","ios":"levelo://app?vid=c1487a84-afe8-4ce0-86c6-68b365335692"},"vehicle_type_id":"4","last_reported":1700831340,"current_range_meters":11600,"station_id":"ce4bhih2rcd13ifvqfs0","pricing_plan_id":"free"},{"bike_id":"4c1a5819-f81b-41f6-8230-7ea0494f0c66","system_id":"levelo_inurba_marseille","lat":43.258224,"lon":5.394369,"is_reserved":false,"is_disabled":false,"rental_uris":{"android":"levelo://app?vid=4c1a5819-f81b-41f6-8230-7ea0494f0c66","ios":"levelo://app?vid=4c1a5819-f81b-41f6-8230-7ea0494f0c66"},"vehicle_type_id":"4","last_reported":1700831340,"current_range_meters":6400,"station_id":"ce4bhip2rcd13ifvqft0","pricing_plan_id":"free"},{"bike_id":"80438f1e-5ce5-43bb-b8b0-62680314de25","system_id":"levelo_inurba_marseille","lat":43.25575,"lon":5.38235,"is_reserved":false,"is_disabled":false,"rental_uris":{"android":"levelo://app?vid=80438f1e-5ce5-43bb-b8b0-62680314de25","ios":"levelo://app?vid=80438f1e-5ce5-43bb-b8b0-62680314de25"},"vehicle_type_id":"4","last_reported":1700831340,"current_range_meters":12000,"station_id":"ce4bhih2rcd13ifvqfs0","pricing_plan_id":"free"},{"bike_id":"4f71c8e8-0af0-4bdc-bce1-955916723f32","system_id":"levelo_inurba_marseille","lat":43.254947,"lon":5.376454,"is_reserved":false,"is_disabled":false,"rental_uris":{"android":"levelo://app?vid=4f71c8e8-0af0-4bdc-bce1-955916723f32","ios":"levelo://app?vid=4f71c8e8-0af0-4bdc-bce1-955916723f32"},"vehicle_type_id":"4","last_reported":1700831340,"current_range_meters":26000,"station_id":"ce4bhh12rcd13ifvqff0","pricing_plan_id":"free"},{"bike_id":"78f15e83-9125-43d2-93d2-f4f8450e8f15","system_id":"levelo_inurba_marseille","lat":43.257079,"lon":5.411051,"is_reserved":false,"is_disabled":false,"rental_uris":{"android":"levelo://app?vid=78f15e83-9125-43d2-93d2-f4f8450e8f15","ios":"levelo://app?vid=78f15e83-9125-43d2-93d2-f4f8450e8f15"},"vehicle_type_id":"4","last_reported":1700831340,"current_range_meters":2000,"station_id":"ce4bhkp2rcd13ifvqgd0","pricing_plan_id":"free"},{"bike_id":"c1c1beef-d0cc-442d-bcc2-81fc50813833","system_id":"levelo_inurba_marseille","lat":43.250009,"lon":5.389195,"is_reserved":false,"is_disabled":false,"rental_uris":{"android":"levelo://app?vid=c1c1beef-d0cc-442d-bcc2-81fc50813833","ios":"levelo://app?vid=c1c1beef-d0cc-442d-bcc2-81fc50813833"},"vehicle_type_id":"4","last_reported":1700831340,"current_range_meters":21600,"station_id":"ce4bhgp2rcd13ifvqfd0","pricing_plan_id":"free"},{"bike_id":"84899292-26b3-4e0a-92cb-c2b49ec02c85","system_id":"levelo_inurba_marseille","lat":43.250023,"lon":5.38919,"is_reserved":false,"is_disabled":false,"rental_uris":{"android":"levelo://app?vid=84899292-26b3-4e0a-92cb-c2b49ec02c85","ios":"levelo://app?vid=84899292-26b3-4e0a-92cb-c2b49ec02c85"},"vehicle_type_id":"4","last_reported":1700831340,"current_range_meters":28400,"station_id":"ce4bhgp2rcd13ifvqfd0","pricing_plan_id":"free"},{"bike_id":"d67c2a16-cc53-412e-8f20-7c4ae23faa5e","system_id":"levelo_inurba_marseille","lat":43.2479,"lon":5.374457,"is_reserved":false,"is_disabled":false,"rental_uris":{"android":"levelo://app?vid=d67c2a16-cc53-412e-8f20-7c4ae23faa5e","ios":"levelo://app?vid=d67c2a16-cc53-412e-8f20-7c4ae23faa5e"},"vehicle_type_id":"4","last_reported":1700831340,"current_range_meters":20400,"station_id":"ce4bhgh2rcd13ifvqfb0","pricing_plan_id":"free"},{"bike_id":"088e6cce-a1e3-48f0-8c09-18c04ac80440","system_id":"levelo_inurba_marseille","lat":43.250966,"lon":5.395186,"is_reserved":false,"is_disabled":false,"rental_uris":{"android":"levelo://app?vid=088e6cce-a1e3-48f0-8c09-18c04ac80440","ios":"levelo://app?vid=088e6cce-a1e3-48f0-8c09-18c04ac80440"},"vehicle_type_id":"4","last_reported":1700831340,"current_range_meters":8800,"station_id":"ce4bhm12rcd13ifvqgkg","pricing_plan_id":"free"},{"bike_id":"8b2f4673-8019-49f3-a802-e81090c5d1b9","system_id":"levelo_inurba_marseille","lat":43.24655,"lon":5.37671,"is_reserved":false,"is_disabled":false,"rental_uris":{"android":"levelo://app?vid=8b2f4673-8019-49f3-a802-e81090c5d1b9","ios":"levelo://app?vid=8b2f4673-8019-49f3-a802-e81090c5d1b9"},"vehicle_type_id":"4","last_reported":1700831340,"current_range_meters":16800,"station_id":"","pricing_plan_id":"free"},{"bike_id":"395cea4b-fa7b-47f7-b8d1-3ad5825b0958","system_id":"levelo_inurba_marseille","lat":43.24693,"lon":5.382096,"is_reserved":false,"is_disabled":false,"rental_uris":{"android":"levelo://app?vid=395cea4b-fa7b-47f7-b8d1-3ad5825b0958","ios":"levelo://app?vid=395cea4b-fa7b-47f7-b8d1-3ad5825b0958"},"vehicle_type_id":"4","last_reported":1700831340,"current_range_meters":19200,"station_id":"ce4bhih2rcd13ifvqfr0","pricing_plan_id":"free"},{"bike_id":"969b658f-c7ec-4c18-9d03-e6b76e87a51c","system_id":"levelo_inurba_marseille","lat":43.24693,"lon":5.382096,"is_reserved":false,"is_disabled":false,"rental_uris":{"android":"levelo://app?vid=969b658f-c7ec-4c18-9d03-e6b76e87a51c","ios":"levelo://app?vid=969b658f-c7ec-4c18-9d03-e6b76e87a51c"},"vehicle_type_id":"4","last_reported":1700831340,"current_range_meters":11200,"station_id":"ce4bhih2rcd13ifvqfr0","pricing_plan_id":"free"},{"bike_id":"536867e4-0199-4385-b193-cdb3dab4bb59","system_id":"levelo_inurba_marseille","lat":43.25102,"lon":5.403214,"is_reserved":false,"is_disabled":false,"rental_uris":{"android":"levelo://app?vid=536867e4-0199-4385-b193-cdb3dab4bb59","ios":"levelo://app?vid=536867e4-0199-4385-b193-cdb3dab4bb59"},"vehicle_type_id":"4","last_reported":1700831340,"current_range_meters":30000,"station_id":"ce4bhlh2rcd13ifvqgig","pricing_plan_id":"free"},{"bike_id":"13f421bd-d175-4ab4-bb9b-bb827f57e932","system_id":"levelo_inurba_marseille","lat":43.25108,"lon":5.40324,"is_reserved":false,"is_disabled":false,"rental_uris":{"android":"levelo://app?vid=13f421bd-d175-4ab4-bb9b-bb827f57e932","ios":"levelo://app?vid=13f421bd-d175-4ab4-bb9b-bb827f57e932"},"vehicle_type_id":"4","last_reported":1700831340,"current_range_meters":18000,"station_id":"ce4bhlh2rcd13ifvqgig","pricing_plan_id":"free"},{"bike_id":"0d5ff200-b717-4d1b-a00b-caff37148102","system_id":"levelo_inurba_marseille","lat":43.25102,"lon":5.403283,"is_reserved":false,"is_disabled":false,"rental_uris":{"android":"levelo://app?vid=0d5ff200-b717-4d1b-a00b-caff37148102","ios":"levelo://app?vid=0d5ff200-b717-4d1b-a00b-caff37148102"},"vehicle_type_id":"4","last_reported":1700831340,"current_range_meters":4800,"station_id":"ce4bhlh2rcd13ifvqgig","pricing_plan_id":"free"},{"bike_id":"03275a86-12c2-4bed-b33f-c075ae0a78b7","system_id":"levelo_inurba_marseille","lat":43.246467,"lon":5.388984,"is_reserved":false,"is_disabled":false,"rental_uris":{"android":"levelo://app?vid=03275a86-12c2-4bed-b33f-c075ae0a78b7","ios":"levelo://app?vid=03275a86-12c2-4bed-b33f-c075ae0a78b7"},"vehicle_type_id":"4","last_reported":1700831340,"current_range_meters":31200,"station_id":"ce4bhg12rcd13ifvqf60","pricing_plan_id":"free"},{"bike_id":"e5734605-a64e-4a89-825d-d184fa7f79ab","system_id":"levelo_inurba_marseille","lat":43.243884,"lon":5.370736,"is_reserved":false,"is_disabled":false,"rental_uris":{"android":"levelo://app?vid=e5734605-a64e-4a89-825d-d184fa7f79ab","ios":"levelo://app?vid=e5734605-a64e-4a89-825d-d184fa7f79ab"},"vehicle_type_id":"4","last_reported":1700831340,"current_range_meters":28400,"station_id":"ce4bhhh2rcd13ifvqfk0","pricing_plan_id":"free"},{"bike_id":"002f35b0-8653-40ae-b718-04602e09d7c3","system_id":"levelo_inurba_marseille","lat":43.243884,"lon":5.370736,"is_reserved":false,"is_disabled":false,"rental_uris":{"android":"levelo://app?vid=002f35b0-8653-40ae-b718-04602e09d7c3","ios":"levelo://app?vid=002f35b0-8653-40ae-b718-04602e09d7c3"},"vehicle_type_id":"4","last_reported":1700831340,"current_range_meters":30000,"station_id":"ce4bhhh2rcd13ifvqfk0","pricing_plan_id":"free"},{"bike_id":"f38a914a-1669-412f-a27f-d66e5a38000d","system_id":"levelo_inurba_marseille","lat":43.243884,"lon":5.370737,"is_reserved":false,"is_disabled":false,"rental_uris":{"android":"levelo://app?vid=f38a914a-1669-412f-a27f-d66e5a38000d","ios":"levelo://app?vid=f38a914a-1669-412f-a27f-d66e5a38000d"},"vehicle_type_id":"4","last_reported":1700831340,"current_range_meters":0,"station_id":"ce4bhhh2rcd13ifvqfk0","pricing_plan_id":"free"},{"bike_id":"3931e2dd-8432-48ef-b2d1-ea355b8e6788","system_id":"levelo_inurba_marseille","lat":43.243884,"lon":5.370737,"is_reserved":false,"is_disabled":false,"rental_uris":{"android":"levelo://app?vid=3931e2dd-8432-48ef-b2d1-ea355b8e6788","ios":"levelo://app?vid=3931e2dd-8432-48ef-b2d1-ea355b8e6788"},"vehicle_type_id":"4","last_reported":1700831340,"current_range_meters":5200,"station_id":"ce4bhhh2rcd13ifvqfk0","pricing_plan_id":"free"},{"bike_id":"b6a3294a-d08b-4856-bc2d-cb266764db07","system_id":"levelo_inurba_marseille","lat":43.243884,"lon":5.370737,"is_reserved":false,"is_disabled":false,"rental_uris":{"android":"levelo://app?vid=b6a3294a-d08b-4856-bc2d-cb266764db07","ios":"levelo://app?vid=b6a3294a-d08b-4856-bc2d-cb266764db07"},"vehicle_type_id":"4","last_reported":1700831340,"current_range_meters":31600,"station_id":"ce4bhhh2rcd13ifvqfk0","pricing_plan_id":"free"},{"bike_id":"7c872bb4-b3c5-4bd2-bb2d-aa9070092584","system_id":"levelo_inurba_marseille","lat":43.24386,"lon":5.37057,"is_reserved":false,"is_disabled":false,"rental_uris":{"android":"levelo://app?vid=7c872bb4-b3c5-4bd2-bb2d-aa9070092584","ios":"levelo://app?vid=7c872bb4-b3c5-4bd2-bb2d-aa9070092584"},"vehicle_type_id":"4","last_reported":1700831340,"current_range_meters":6400,"station_id":"ce4bhhh2rcd13ifvqfk0","pricing_plan_id":"free"},{"bike_id":"37a91800-392f-4ba8-a060-fafd20b8850e","system_id":"levelo_inurba_marseille","lat":43.243884,"lon":5.370736,"is_reserved":false,"is_disabled":false,"rental_uris":{"android":"levelo://app?vid=37a91800-392f-4ba8-a060-fafd20b8850e","ios":"levelo://app?vid=37a91800-392f-4ba8-a060-fafd20b8850e"},"vehicle_type_id":"4","last_reported":1700831340,"current_range_meters":31200,"station_id":"ce4bhhh2rcd13ifvqfk0","pricing_plan_id":"free"},{"bike_id":"10cce0be-ca50-4499-8a22-0dbebd67df50","system_id":"levelo_inurba_marseille","lat":43.24383,"lon":5.37051,"is_reserved":false,"is_disabled":false,"rental_uris":{"android":"levelo://app?vid=10cce0be-ca50-4499-8a22-0dbebd67df50","ios":"levelo://app?vid=10cce0be-ca50-4499-8a22-0dbebd67df50"},"vehicle_type_id":"4","last_reported":1700831340,"current_range_meters":12800,"station_id":"ce4bhhh2rcd13ifvqfk0","pricing_plan_id":"free"},{"bike_id":"d5f29348-84d7-4fa8-867d-8b651be783d0","system_id":"levelo_inurba_marseille","lat":43.24383,"lon":5.37054,"is_reserved":false,"is_disabled":false,"rental_uris":{"android":"levelo://app?vid=d5f29348-84d7-4fa8-867d-8b651be783d0","ios":"levelo://app?vid=d5f29348-84d7-4fa8-867d-8b651be783d0"},"vehicle_type_id":"4","last_reported":1700831340,"current_range_meters":17200,"station_id":"ce4bhhh2rcd13ifvqfk0","pricing_plan_id":"free"},{"bike_id":"dc1c6480-d20f-4d46-a98e-8e7f957b3c10","system_id":"levelo_inurba_marseille","lat":43.245581,"lon":5.395069,"is_reserved":false,"is_disabled":false,"rental_uris":{"android":"levelo://app?vid=dc1c6480-d20f-4d46-a98e-8e7f957b3c10","ios":"levelo://app?vid=dc1c6480-d20f-4d46-a98e-8e7f957b3c10"},"vehicle_type_id":"4","last_reported":1700831340,"current_range_meters":12000,"station_id":"ce4bhlp2rcd13ifvqgjg","pricing_plan_id":"free"},{"bike_id":"23b5cfb3-98c2-4526-95b1-f42afcf00c8d","system_id":"levelo_inurba_marseille","lat":43.245581,"lon":5.395069,"is_reserved":false,"is_disabled":false,"rental_uris":{"android":"levelo://app?vid=23b5cfb3-98c2-4526-95b1-f42afcf00c8d","ios":"levelo://app?vid=23b5cfb3-98c2-4526-95b1-f42afcf00c8d"},"vehicle_type_id":"4","last_reported":1700831340,"current_range_meters":28400,"station_id":"ce4bhlp2rcd13ifvqgjg","pricing_plan_id":"free"},{"bike_id":"d128ae2a-284e-4dc9-b2e1-acd2620d59f4","system_id":"levelo_inurba_marseille","lat":43.240623,"lon":5.377642,"is_reserved":false,"is_disabled":false,"rental_uris":{"android":"levelo://app?vid=d128ae2a-284e-4dc9-b2e1-acd2620d59f4","ios":"levelo://app?vid=d128ae2a-284e-4dc9-b2e1-acd2620d59f4"},"vehicle_type_id":"4","last_reported":1700831340,"current_range_meters":0,"station_id":"ce4bhnp2rcd13ifvqgvg","pricing_plan_id":"free"},{"bike_id":"5b61fa5d-4c59-42f0-a008-ad270a7697f3","system_id":"levelo_inurba_marseille","lat":43.24071,"lon":5.3776,"is_reserved":false,"is_disabled":false,"rental_uris":{"android":"levelo://app?vid=5b61fa5d-4c59-42f0-a008-ad270a7697f3","ios":"levelo://app?vid=5b61fa5d-4c59-42f0-a008-ad270a7697f3"},"vehicle_type_id":"4","last_reported":1700831340,"current_range_meters":23200,"station_id":"ce4bhnp2rcd13ifvqgvg","pricing_plan_id":"free"},{"bike_id":"4f09cc00-95d0-427c-95aa-88f7fe9fd057","system_id":"levelo_inurba_marseille","lat":43.24071,"lon":5.3776,"is_reserved":false,"is_disabled":false,"rental_uris":{"android":"levelo://app?vid=4f09cc00-95d0-427c-95aa-88f7fe9fd057","ios":"levelo://app?vid=4f09cc00-95d0-427c-95aa-88f7fe9fd057"},"vehicle_type_id":"4","last_reported":1700831340,"current_range_meters":12400,"station_id":"ce4bhnp2rcd13ifvqgvg","pricing_plan_id":"free"},{"bike_id":"7dfa83c9-9e38-4dee-9daa-ac0f425347de","system_id":"levelo_inurba_marseille","lat":43.24071,"lon":5.37763,"is_reserved":false,"is_disabled":false,"rental_uris":{"android":"levelo://app?vid=7dfa83c9-9e38-4dee-9daa-ac0f425347de","ios":"levelo://app?vid=7dfa83c9-9e38-4dee-9daa-ac0f425347de"},"vehicle_type_id":"4","last_reported":1700831340,"current_range_meters":20000,"station_id":"ce4bhnp2rcd13ifvqgvg","pricing_plan_id":"free"},{"bike_id":"d98cff72-2be7-4b80-b481-759c67d32ecb","system_id":"levelo_inurba_marseille","lat":43.2407,"lon":5.3777,"is_reserved":false,"is_disabled":false,"rental_uris":{"android":"levelo://app?vid=d98cff72-2be7-4b80-b481-759c67d32ecb","ios":"levelo://app?vid=d98cff72-2be7-4b80-b481-759c67d32ecb"},"vehicle_type_id":"4","last_reported":1700831340,"current_range_meters":6800,"station_id":"ce4bhnp2rcd13ifvqgvg","pricing_plan_id":"free"},{"bike_id":"1719bd5a-f0fb-4ca5-a0a4-29d6baf12c5e","system_id":"levelo_inurba_marseille","lat":43.24069,"lon":5.37762,"is_reserved":false,"is_disabled":false,"rental_uris":{"android":"levelo://app?vid=1719bd5a-f0fb-4ca5-a0a4-29d6baf12c5e","ios":"levelo://app?vid=1719bd5a-f0fb-4ca5-a0a4-29d6baf12c5e"},"vehicle_type_id":"4","last_reported":1700831340,"current_range_meters":3600,"station_id":"ce4bhnp2rcd13ifvqgvg","pricing_plan_id":"free"},{"bike_id":"3f4f0ecf-433f-4e60-b253-d87ddd33d648","system_id":"levelo_inurba_marseille","lat":43.239588,"lon":5.366238,"is_reserved":false,"is_disabled":false,"rental_uris":{"android":"levelo://app?vid=3f4f0ecf-433f-4e60-b253-d87ddd33d648","ios":"levelo://app?vid=3f4f0ecf-433f-4e60-b253-d87ddd33d648"},"vehicle_type_id":"4","last_reported":1700831340,"current_range_meters":3600,"station_id":"ce4bhi12rcd13ifvqfp0","pricing_plan_id":"free"},{"bike_id":"faa5696c-5bf0-46dc-84ae-0a7bc1e2d5ef","system_id":"levelo_inurba_marseille","lat":43.239588,"lon":5.366238,"is_reserved":false,"is_disabled":false,"rental_uris":{"android":"levelo://app?vid=faa5696c-5bf0-46dc-84ae-0a7bc1e2d5ef","ios":"levelo://app?vid=faa5696c-5bf0-46dc-84ae-0a7bc1e2d5ef"},"vehicle_type_id":"4","last_reported":1700831340,"current_range_meters":27200,"station_id":"ce4bhi12rcd13ifvqfp0","pricing_plan_id":"free"},{"bike_id":"124f1bf7-9af9-4782-a052-dd6aa38caf9d","system_id":"levelo_inurba_marseille","lat":43.239588,"lon":5.366238,"is_reserved":false,"is_disabled":false,"rental_uris":{"android":"levelo://app?vid=124f1bf7-9af9-4782-a052-dd6aa38caf9d","ios":"levelo://app?vid=124f1bf7-9af9-4782-a052-dd6aa38caf9d"},"vehicle_type_id":"4","last_reported":1700831340,"current_range_meters":28400,"station_id":"ce4bhi12rcd13ifvqfp0","pricing_plan_id":"free"},{"bike_id":"56b0f98d-ecc1-47fa-bd3e-9dc560c42354","system_id":"levelo_inurba_marseille","lat":43.239588,"lon":5.366238,"is_reserved":false,"is_disabled":false,"rental_uris":{"android":"levelo://app?vid=56b0f98d-ecc1-47fa-bd3e-9dc560c42354","ios":"levelo://app?vid=56b0f98d-ecc1-47fa-bd3e-9dc560c42354"},"vehicle_type_id":"4","last_reported":1700831340,"current_range_meters":22000,"station_id":"ce4bhi12rcd13ifvqfp0","pricing_plan_id":"free"},{"bike_id":"3ef70aed-f117-47c7-8cf5-f087e626237b","system_id":"levelo_inurba_marseille","lat":43.239588,"lon":5.366238,"is_reserved":false,"is_disabled":false,"rental_uris":{"android":"levelo://app?vid=3ef70aed-f117-47c7-8cf5-f087e626237b","ios":"levelo://app?vid=3ef70aed-f117-47c7-8cf5-f087e626237b"},"vehicle_type_id":"4","last_reported":1700831340,"current_range_meters":12400,"station_id":"ce4bhi12rcd13ifvqfp0","pricing_plan_id":"free"},{"bike_id":"4171becc-e805-473d-84c2-e3378bc1eb28","system_id":"levelo_inurba_marseille","lat":43.2396,"lon":5.36625,"is_reserved":false,"is_disabled":false,"rental_uris":{"android":"levelo://app?vid=4171becc-e805-473d-84c2-e3378bc1eb28","ios":"levelo://app?vid=4171becc-e805-473d-84c2-e3378bc1eb28"},"vehicle_type_id":"4","last_reported":1700831340,"current_range_meters":17600,"station_id":"ce4bhi12rcd13ifvqfp0","pricing_plan_id":"free"},{"bike_id":"6043056a-da83-4bf3-bffd-a77c21a9967d","system_id":"levelo_inurba_marseille","lat":43.24181,"lon":5.39729,"is_reserved":false,"is_disabled":false,"rental_uris":{"android":"levelo://app?vid=6043056a-da83-4bf3-bffd-a77c21a9967d","ios":"levelo://app?vid=6043056a-da83-4bf3-bffd-a77c21a9967d"},"vehicle_type_id":"4","last_reported":1700831340,"current_range_meters":5600,"station_id":"ce4bhn12rcd13ifvqgpg","pricing_plan_id":"free"},