{"last_updated":1735398441,"ttl":60,"version":"2.2","data":{"bikes":[{"bike_id":"a9b5fd0e-1baf-45fb-bc8f-7ad95357031b","system_id":"levelo_inurba_marseille","lat":43.29896,"lon":5.3748,"is_reserved":false,"is_disabled":false,"rental_uris":{"android":"levelo://app?vid=a9b5fd0e-1baf-45fb-bc8f-7ad95357031b","ios":"levelo://app?vid=a9b5fd0e-1baf-45fb-bc8f-7ad95357031b"},"vehicle_type_id":"4","last_reported":1735398441,"current_range_meters":38800,"station_id":"ce4bgjh2rcd13ifvqbg0","pricing_plan_id":"cebpf4jnsgd1na2vs0mg"},{"bike_id":"2ed45135-f72f-4f5f-8e15-52e1df76058d","system_id":"levelo_inurba_marseille","lat":43.28879,"lon":5.35832,"is_reserved":false,"is_disabled":false,"rental_uris":{"android":"levelo://app?vid=2ed45135-f72f-4f5f-8e15-52e1df76058d","ios":"levelo://app?vid=2ed45135-f72f-4f5f-8e15-52e1df76058d"},"vehicle_type_id":"4","last_reported":1735398441,"current_range_meters":26800,"station_id":"ce4bhb12rcd13ifvqem0","pricing_plan_id":"cebpf4jnsgd1na2vs0mg"},{"bike_id":"ea199cab-5a00-4a5e-963d-5a87e75a7433","system_id":"levelo_inurba_marseille","lat":43.24389,"lon":5.37057,"is_reserved":false,"is_disabled":false,"rental_uris":{"android":"levelo://app?vid=ea199cab-5a00-4a5e-963d-5a87e75a7433","ios":"levelo://app?vid=ea199cab-5a00-4a5e-963d-5a87e75a7433"},"vehicle_type_id":"4","last_reported":1735398441,"current_range_meters":39200,"station_id":"ce4bhhh2rcd13ifvqfk0","pricing_plan_id":"cebpf4jnsgd1na2vs0mg"},{"bike_id":"52a67948-c4dc-4ef0-8b62-d6318d86139d","system_id":"levelo_inurba_marseille","lat":43.30544,"lon":5.36517,"is_reserved":false,"is_disabled":false,"rental_uris":{"android":"levelo://app?vid=52a67948-c4dc-4ef0-8b62-d6318d86139d","ios":"levelo://app?vid=52a67948-c4dc-4ef0-8b62-d6318d86139d"},"vehicle_type_id":"4","last_reported":1735398441,"current_range_meters":23200,"station_id":"ce4bgs12rcd13ifvqcag","pricing_plan_id":"cebpf4jnsgd1na2vs0mg"},{"bike_id":"17467958-a151-40f2-98e4-bb65ea00e49d","system_id":"levelo_inurba_marseille","lat":43.27954,"lon":5.41054,"is_reserved":false,"is_disabled":false,"rental_uris":{"android":"levelo://app?vid=17467958-a151-40f2-98e4-bb65ea00e49d","ios":"levelo://app?vid=17467958-a151-40f2-98e4-bb65ea00e49d"},"vehicle_type_id":"4","last_reported":1735398441,"current_range_meters":36800,"station_id":"ce4bhnp2rcd13ifvqh0g","pricing_plan_id":"cebpf4jnsgd1na2vs0mg"},{"bike_id":"3991aac2-ec7f-43c8-801f-23e11845f2d6","system_id":"levelo_inurba_marseille","lat":43.28161,"lon":5.42655,"is_reserved":false,"is_disabled":false,"rental_uris":{"android":"levelo://app?vid=3991aac2-ec7f-43c8-801f-23e11845f2d6","ios":"levelo://app?vid=3991aac2-ec7f-43c8-801f-23e11845f2d6"},"vehicle_type_id":"4","last_reported":1735398441,"current_range_meters":38800,"station_id":"ce4bhnh2rcd13ifvqgug","pricing_plan_id":"cebpf4jnsgd1na2vs0mg"},{"bike_id":"76d2c93d-6140-4dfa-8f1f-4e57e6988890","system_id":"levelo_inurba_marseille","lat":43.29715,"lon":5.37702,"is_reserved":false,"is_disabled":false,"rental_uris":{"android":"levelo://app?vid=76d2c93d-6140-4dfa-8f1f-4e57e6988890","ios":"levelo://app?vid=76d2c93d-6140-4dfa-8f1f-4e57e6988890"},"vehicle_type_id":"4","last_reported":1735398441,"current_range_meters":33200,"station_id":"ce4bgkh2rcd13ifvqbl0","pricing_plan_id":"cebpf4jnsgd1na2vs0mg"},{"bike_id":"aa910906-3ca2-4107-80e1-4fe46d1472a6","system_id":"levelo_inurba_marseille","lat":43.32045,"lon":5.41561,"is_reserved":false,"is_disabled":false,"rental_uris":{"android":"levelo://app?vid=aa910906-3ca2-4107-80e1-4fe46d1472a6","ios":"levelo://app?vid=aa910906-3ca2-4107-80e1-4fe46d1472a6"},"vehicle_type_id":"4","last_reported":1735398441,"current_range_meters":30000,"station_id":"ce4bhq92rcd13ifvqhkg","pricing_plan_id":"cebpf4jnsgd1na2vs0mg"},{"bike_id":"c4888bfd-c836-4612-8b9e-4dbfab778591","system_id":"levelo_inurba_marseille","lat":43.26212,"lon":5.37443,"is_reserved":false,"is_disabled":false,"rental_uris":{"android":"levelo://app?vid=c4888bfd-c836-4612-8b9e-4dbfab778591","ios":"levelo://app?vid=c4888bfd-c836-4612-8b9e-4dbfab778591"},"vehicle_type_id":"4","last_reported":1735398441,"current_range_meters":32400,"station_id":"ce4bhgp2rcd13ifvqfc0","pricing_plan_id":"cebpf4jnsgd1na2vs0mg"},{"bike_id":"f4ab519a-4bf7-44ef-a033-b806cea138a3","system_id":"levelo_inurba_marseille","lat":43.24062,"lon":5.37751,"is_reserved":false,"is_disabled":false,"rental_uris":{"android":"levelo://app?vid=f4ab519a-4bf7-44ef-a033-b806cea138a3","ios":"levelo://app?vid=f4ab519a-4bf7-44ef-a033-b806cea138a3"},"vehicle_type_id":"4","last_reported":1735398441,"current_range_meters":34000,"station_id":"ce4bhnp2rcd13ifvqgvg","pricing_plan_id":"cebpf4jnsgd1na2vs0mg"},{"bike_id":"6ad1742e-8bff-4c51-a529-dfe59edb730a","system_id":"levelo_inurba_marseille","lat":43.29905,"lon":5.3746,"is_reserved":false,"is_disabled":false,"rental_uris":{"android":"levelo://app?vid=6ad1742e-8bff-4c51-a529-dfe59edb730a","ios":"levelo://app?vid=6ad1742e-8bff-4c51-a529-dfe59edb730a"},"vehicle_type_id":"4","last_reported":1735398441,"current_range_meters":32800,"station_id":"ce4bgjh2rcd13ifvqbg0","pricing_plan_id":"cebpf4jnsgd1na2vs0mg"},{"bike_id":"15dbc128-9fc6-4e82-9c2b-29267fff5efa","system_id":"levelo_inurba_marseille","lat":43.27369,"lon":5.36229,"is_reserved":false,"is_disabled":false,"rental_uris":{"android":"levelo://app?vid=15dbc128-9fc6-4e82-9c2b-29267fff5efa","ios":"levelo://app?vid=15dbc128-9fc6-4e82-9c2b-29267fff5efa"},"vehicle_type_id":"4","last_reported":1735398441,"current_range_meters":30000,"station_id":"ce4bhbh2rcd13ifvqeo0","pricing_plan_id":"cebpf4jnsgd1na2vs0mg"},{"bike_id":"4dfae491-9961-4f14-9884-a24863ed59ba","system_id":"levelo_inurba_marseille","lat":43.24814,"lon":5.37462,"is_reserved":false,"is_disabled":false,"rental_uris":{"android":"levelo://app?vid=4dfae491-9961-4f14-9884-a24863ed59ba","ios":"levelo://app?vid=4dfae491-9961-4f14-9884-a24863ed59ba"},"vehicle_type_id":"4","last_reported":1735398441,"current_range_meters":33200,"station_id":"ce4bhgh2rcd13ifvqfb0","pricing_plan_id":"cebpf4jnsgd1na2vs0mg"},{"bike_id":"7e9b58ee-83f7-4fc1-8cf2-cdc5ff9690a0","system_id":"levelo_inurba_marseille","lat":43.26943,"lon":5.40271,"is_reserved":false,"is_disabled":false,"rental_uris":{"android":"levelo://app?vid=7e9b58ee-83f7-4fc1-8cf2-cdc5ff9690a0","ios":"levelo://app?vid=7e9b58ee-83f7-4fc1-8cf2-cdc5ff9690a0"},"vehicle_type_id":"4","last_reported":1735398441,"current_range_meters":29600,"station_id":"cjm6bp8fraef2m0cb0m0","pricing_plan_id":"cebpf4jnsgd1na2vs0mg"},{"bike_id":"daaf4c68-d177-4323-8e08-f11348ae8530","system_id":"levelo_inurba_marseille","lat":43.32383,"lon":5.38872,"is_reserved":false,"is_disabled":false,"rental_uris":{"android":"levelo://app?vid=daaf4c68-d177-4323-8e08-f11348ae8530","ios":"levelo://app?vid=daaf4c68-d177-4323-8e08-f11348ae8530"},"vehicle_type_id":"4","last_reported":1735398441,"current_range_meters":12800,"station_id":"ce4bhqp2rcd13ifvqhog","pricing_plan_id":"cebpf4jnsgd1na2vs0mg"},{"bike_id":"e3e1f527-7670-429c-9e33-f18200f2c82a","system_id":"levelo_inurba_marseille","lat":43.25495,"lon":5.37653,"is_reserved":false,"is_disabled":false,"rental_uris":{"android":"levelo://app?vid=e3e1f527-7670-429c-9e33-f18200f2c82a","ios":"levelo://app?vid=e3e1f527-7670-429c-9e33-f18200f2c82a"},"vehicle_type_id":"4","last_reported":1735398441,"current_range_meters":33600,"station_id":"ce4bhh12rcd13ifvqff0","pricing_plan_id":"cebpf4jnsgd1na2vs0mg"},{"bike_id":"794cf6e4-d5ad-4fdd-81be-1d8413bde123","system_id":"levelo_inurba_marseille","lat":43.2993,"lon":5.36542,"is_reserved":false,"is_disabled":false,"rental_uris":{"android":"levelo://app?vid=794cf6e4-d5ad-4fdd-81be-1d8413bde123","ios":"levelo://app?vid=794cf6e4-d5ad-4fdd-81be-1d8413bde123"},"vehicle_type_id":"4","last_reported":1735398441,"current_range_meters":28400,"station_id":"ce4bgm92rcd13ifvqbr0","pricing_plan_id":"cebpf4jnsgd1na2vs0mg"},{"bike_id":"857344dd-6be1-4d34-90e7-6f62afbbef2e","system_id":"levelo_inurba_marseille","lat":43.32104,"lon":5.36776,"is_reserved":false,"is_disabled":false,"rental_uris":{"android":"levelo://app?vid=857344dd-6be1-4d34-90e7-6f62afbbef2e","ios":"levelo://app?vid=857344dd-6be1-4d34-90e7-6f62afbbef2e"},"vehicle_type_id":"4","last_reported":1735398441,"current_range_meters":32800,"station_id":"ce4bhrh2rcd13ifvqhug","pricing_plan_id":"cebpf4jnsgd1na2vs0mg"},{"bike_id":"5f274304-181f-4ecb-bafa-081b2df36f0d","system_id":"levelo_inurba_marseille","lat":43.28616,"lon":5.35105,"is_reserved":false,"is_disabled":false,"rental_uris":{"android":"levelo://app?vid=5f274304-181f-4ecb-bafa-081b2df36f0d","ios":"levelo://app?vid=5f274304-181f-4ecb-bafa-081b2df36f0d"},"vehicle_type_id":"4","last_reported":1735398441,"current_range_meters":13600,"station_id":"ce4bhch2rcd13ifvqeug","pricing_plan_id":"cebpf4jnsgd1na2vs0mg"},{"bike_id":"6f3ae57c-be3d-4195-906d-36eda90d6eb6","system_id":"levelo_inurba_marseille","lat":43.29229,"lon":5.36065,"is_reserved":false,"is_disabled":false,"rental_uris":{"android":"levelo://app?vid=6f3ae57c-be3d-4195-906d-36eda90d6eb6","ios":"levelo://app?vid=6f3ae57c-be3d-4195-906d-36eda90d6eb6"},"vehicle_type_id":"4","last_reported":1735398441,"current_range_meters":24400,"station_id":"ce4bhbh2rcd13ifvqeqg","pricing_plan_id":"cebpf4jnsgd1na2vs0mg"},{"bike_id":"595b770a-6283-4c5a-81d3-40f82231fc59","system_id":"levelo_inurba_marseille","lat":43.28476,"lon":5.38431,"is_reserved":false,"is_disabled":false,"rental_uris":{"android":"levelo://app?vid=595b770a-6283-4c5a-81d3-40f82231fc59","ios":"levelo://app?vid=595b770a-6283-4c5a-81d3-40f82231fc59"},"vehicle_type_id":"4","last_reported":1735398441,"current_range_meters":28000,"station_id":"ce4bh512rcd13ifvqe3g","pricing_plan_id":"cebpf4jnsgd1na2vs0mg"},{"bike_id":"3c2a68c2-ee7f-47cb-a403-8a77dc24c831","system_id":"levelo_inurba_marseille","lat":43.27497,"lon":5.42452,"is_reserved":false,"is_disabled":false,"rental_uris":{"android":"levelo://app?vid=3c2a68c2-ee7f-47cb-a403-8a77dc24c831","ios":"levelo://app?vid=3c2a68c2-ee7f-47cb-a403-8a77dc24c831"},"vehicle_type_id":"4","last_reported":1735398441,"current_range_meters":20400,"station_id":"ce4bhn92rcd13ifvqgrg","pricing_plan_id":"cebpf4jnsgd1na2vs0mg"},{"bike_id":"7141f90e-6f56-4d04-8d87-ebdfa8a83560","system_id":"levelo_inurba_marseille","lat":43.29366,"lon":5.37847,"is_reserved":false,"is_disabled":false,"rental_uris":{"android":"levelo://app?vid=7141f90e-6f56-4d04-8d87-ebdfa8a83560","ios":"levelo://app?vid=7141f90e-6f56-4d04-8d87-ebdfa8a83560"},"vehicle_type_id":"4","last_reported":1735398441,"current_range_meters":38800,"station_id":"ce4bgjh2rcd13ifvqbf0","pricing_plan_id":"cebpf4jnsgd1na2vs0mg"},{"bike_id":"25d5267a-def5-45dc-a9cf-29b34bdb713a","system_id":"levelo_inurba_marseille","lat":43.29261,"lon":5.38435,"is_reserved":false,"is_disabled":false,"rental_uris":{"android":"levelo://app?vid=25d5267a-def5-45dc-a9cf-29b34bdb713a","ios":"levelo://app?vid=25d5267a-def5-45dc-a9cf-29b34bdb713a"},"vehicle_type_id":"4","last_reported":1735398441,"current_range_meters":38800,"station_id":"ce4bh692rcd13ifvqea0","pricing_plan_id":"cebpf4jnsgd1na2vs0mg"},{"bike_id":"ad66ce9d-e2b2-4064-ae7f-fe87403c632b","system_id":"levelo_inurba_marseille","lat":43.23062,"lon":5.35494,"is_reserved":false,"is_disabled":false,"rental_uris":{"android":"levelo://app?vid=ad66ce9d-e2b2-4064-ae7f-fe87403c632b","ios":"levelo://app?vid=ad66ce9d-e2b2-4064-ae7f-fe87403c632b"},"vehicle_type_id":"4","last_reported":1735398441,"current_range_meters":21600,"station_id":"cpo3342slgdg3j2ifvpg","pricing_plan_id":"cebpf4jnsgd1na2vs0mg"},{"bike_id":"45c066c8-32f5-40d9-bf5c-905af42b3eb4","system_id":"levelo_inurba_marseille","lat":43.28571,"lon":5.3949,"is_reserved":false,"is_disabled":false,"rental_uris":{"android":"levelo://app?vid=45c066c8-32f5-40d9-bf5c-905af42b3eb4","ios":"levelo://app?vid=45c066c8-32f5-40d9-bf5c-905af42b3eb4"},"vehicle_type_id":"4","last_reported":1735398441,"current_range_meters":32000,"station_id":"ce4bh292rcd13ifvqdg0","pricing_plan_id":"cebpf4jnsgd1na2vs0mg"},{"bike_id":"aa524046-cbee-4f2f-afd6-e01e8b1ed6f4","system_id":"levelo_inurba_marseille","lat":43.2904,"lon":5.35918,"is_reserved":false,"is_disabled":false,"rental_uris":{"android":"levelo://app?vid=aa524046-cbee-4f2f-afd6-e01e8b1ed6f4","ios":"levelo://app?vid=aa524046-cbee-4f2f-afd6-e01e8b1ed6f4"},"vehicle_type_id":"4","last_reported":1735398441,"current_range_meters":38800,"station_id":"ce4bha92rcd13ifvqeg0","pricing_plan_id":"cebpf4jnsgd1na2vs0mg"},{"bike_id":"753fe1a2-6ec1-4d51-9513-13144401ea46","system_id":"levelo_inurba_marseille","lat":43.29158,"lon":5.37155,"is_reserved":false,"is_disabled":false,"rental_uris":{"android":"levelo://app?vid=753fe1a2-6ec1-4d51-9513-13144401ea46","ios":"levelo://app?vid=753fe1a2-6ec1-4d51-9513-13144401ea46"},"vehicle_type_id":"4","last_reported":1735398441,"current_range_meters":33600,"station_id":"ce4bha92rcd13ifvqeh0","pricing_plan_id":"cebpf4jnsgd1na2vs0mg"},{"bike_id":"22d132b3-2616-4d76-9ea8-013e091bdb90","system_id":"levelo_inurba_marseille","lat":43.25006,"lon":5.38926,"is_reserved":false,"is_disabled":false,"rental_uris":{"android":"levelo://app?vid=22d132b3-2616-4d76-9ea8-013e091bdb90","ios":"levelo://app?vid=22d132b3-2616-4d76-9ea8-013e091bdb90"},"vehicle_type_id":"4","last_reported":1735398441,"current_range_meters":28000,"station_id":"ce4bhgp2rcd13ifvqfd0","pricing_plan_id":"cebpf4jnsgd1na2vs0mg"},{"bike_id":"d0533ccb-11ce-46dc-9cca-daa9f7a4985a","system_id":"levelo_inurba_marseille","lat":43.29551,"lon":5.42282,"is_reserved":false,"is_disabled":false,"rental_uris":{"android":"levelo://app?vid=d0533ccb-11ce-46dc-9cca-daa9f7a4985a","ios":"levelo://app?vid=d0533ccb-11ce-46dc-9cca-daa9f7a4985a"},"vehicle_type_id":"4","last_reported":1735398441,"current_range_meters":38800,"station_id":"ce4bhph2rcd13ifvqhdg","pricing_plan_id":"cebpf4jnsgd1na2vs0mg"},{"bike_id":"295be83c-17fe-40e4-9eab-8cbd607afc6b","system_id":"levelo_inurba_marseille","lat":43.3176,"lon":5.39026,"is_reserved":false,"is_disabled":false,"rental_uris":{"android":"levelo://app?vid=295be83c-17fe-40e4-9eab-8cbd607afc6b","ios":"levelo://app?vid=295be83c-17fe-40e4-9eab-8cbd607afc6b"},"vehicle_type_id":"4","last_reported":1735398441,"current_range_meters":28800,"station_id":"ce4bhqp2rcd13ifvqhng","pricing_plan_id":"cebpf4jnsgd1na2vs0mg"},{"bike_id":"daef0f94-988f-4230-b125-62ce3474d24c","system_id":"levelo_inurba_marseille","lat":43.27675,"lon":5.38894,"is_reserved":false,"is_disabled":false,"rental_uris":{"android":"levelo://app?vid=daef0f94-988f-4230-b125-62ce3474d24c","ios":"levelo://app?vid=daef0f94-988f-4230-b125-62ce3474d24c"},"vehicle_type_id":"4","last_reported":1735398441,"current_range_meters":36800,"station_id":"ce4bhi12rcd13ifvqfo0","pricing_plan_id":"cebpf4jnsgd1na2vs0mg"},{"bike_id":"a69d1136-5aef-4753-aff3-1201a568ad37","system_id":"levelo_inurba_marseille","lat":43.28281,"lon":5.35073,"is_reserved":false,"is_disabled":false,"rental_uris":{"android":"levelo://app?vid=a69d1136-5aef-4753-aff3-1201a568ad37","ios":"levelo://app?vid=a69d1136-5aef-4753-aff3-1201a568ad37"},"vehicle_type_id":"4","last_reported":1735398441,"current_range_meters":38800,"station_id":"ce4bhbp2rcd13ifvqerg","pricing_plan_id":"cebpf4jnsgd1na2vs0mg"},{"bike_id":"fbe33567-40cb-4184-a603-cfb64e03f8ed","system_id":"levelo_inurba_marseille","lat":43.31759,"lon":5.40601,"is_reserved":false,"is_disabled":false,"rental_uris":{"android":"levelo://app?vid=fbe33567-40cb-4184-a603-cfb64e03f8ed","ios":"levelo://app?vid=fbe33567-40cb-4184-a603-cfb64e03f8ed"},"vehicle_type_id":"4","last_reported":1735398441,"current_range_meters":24800,"station_id":"","pricing_plan_id":"cebpf4jnsgd1na2vs0mg"},{"bike_id":"df505920-b7e1-4f0a-8645-ba4405f002e4","system_id":"levelo_inurba_marseille","lat":43.29697,"lon":5.3772,"is_reserved":false,"is_disabled":false,"rental_uris":{"android":"levelo://app?vid=df505920-b7e1-4f0a-8645-ba4405f002e4","ios":"levelo://app?vid=df505920-b7e1-4f0a-8645-ba4405f002e4"},"vehicle_type_id":"4","last_reported":1735398441,"current_range_meters":20400,"station_id":"ce4bgkh2rcd13ifvqbl0","pricing_plan_id":"cebpf4jnsgd1na2vs0mg"},{"bike_id":"879d8d2d-aea4-4c68-8405-16edb1cace8d","system_id":"levelo_inurba_marseille","lat":43.28275,"lon":5.3507,"is_reserved":false,"is_disabled":false,"rental_uris":{"android":"levelo://app?vid=879d8d2d-aea4-4c68-8405-16edb1cace8d","ios":"levelo://app?vid=879d8d2d-aea4-4c68-8405-16edb1cace8d"},"vehicle_type_id":"4","last_reported":1735398441,"current_range_meters":38800,"station_id":"ce4bhbp2rcd13ifvqerg","pricing_plan_id":"cebpf4jnsgd1na2vs0mg"},{"bike_id":"caab34a4-5264-4b72-a12f-e55159fe93b6","system_id":"levelo_inurba_marseille","lat":43.27077,"lon":5.42283,"is_reserved":false,"is_disabled":false,"rental_uris":{"android":"levelo://app?vid=caab34a4-5264-4b72-a12f-e55159fe93b6","ios":"levelo://app?vid=caab34a4-5264-4b72-a12f-e55159fe93b6"},"vehicle_type_id":"4","last_reported":1735398441,"current_range_meters":28800,"station_id":"ce4bhk92rcd13ifvqgb0","pricing_plan_id":"cebpf4jnsgd1na2vs0mg"},{"bike_id":"e5582f1b-2fc8-434e-aeb6-8b809add67ca","system_id":"levelo_inurba_marseille","lat":43.27988,"lon":5.41658,"is_reserved":false,"is_disabled":false,"rental_uris":{"android":"levelo://app?vid=e5582f1b-2fc8-434e-aeb6-8b809add67ca","ios":"levelo://app?vid=e5582f1b-2fc8-434e-aeb6-8b809add67ca"},"vehicle_type_id":"4","last_reported":1735398441,"current_range_meters":36800,"station_id":"ce4bho12rcd13ifvqh1g","pricing_plan_id":"cebpf4jnsgd1na2vs0mg"},{"bike_id":"5225acaa-fad6-4736-b7aa-266938b2f686","system_id":"levelo_inurba_marseille","lat":43.31714,"lon":5.37744,"is_reserved":false,"is_disabled":false,"rental_uris":{"android":"levelo://app?vid=5225acaa-fad6-4736-b7aa-266938b2f686","ios":"levelo://app?vid=5225acaa-fad6-4736-b7aa-266938b2f686"},"vehicle_type_id":"4","last_reported":1735398441,"current_range_meters":28400,"station_id":"ce4bgth2rcd13ifvqch0","pricing_plan_id":"cebpf4jnsgd1na2vs0mg"},{"bike_id":"efdc8661-a0f3-4d19-90da-c58f06d18d3a","system_id":"levelo_inurba_marseille","lat":43.30596,"lon":5.37211,"is_reserved":false,"is_disabled":false,"rental_uris":{"android":"levelo://app?vid=efdc8661-a0f3-4d19-90da-c58f06d18d3a","ios":"levelo://app?vid=efdc8661-a0f3-4d19-90da-c58f06d18d3a"},"vehicle_type_id":"4","last_reported":1735398441,"current_range_meters":16400,"station_id":"ce4bgqh2rcd13ifvqc4g","pricing_plan_id":"cebpf4jnsgd1na2vs0mg"},{"bike_id":"33e4c278-497a-4992-9269-3f4bd7a2ca60","system_id":"levelo_inurba_marseille","lat":43.29902,"lon":5.37473,"is_reserved":false,"is_disabled":false,"rental_uris":{"android":"levelo://app?vid=33e4c278-497a-4992-9269-3f4bd7a2ca60","ios":"levelo://app?vid=33e4c278-497a-4992-9269-3f4bd7a2ca60"},"vehicle_type_id":"4","last_reported":1735398441,"current_range_meters":38800,"station_id":"ce4bgjh2rcd13ifvqbg0","pricing_plan_id":"cebpf4jnsgd1na2vs0mg"},{"bike_id":"c0c3e5c6-edc3-41c4-8feb-85aaa21b750a","system_id":"levelo_inurba_marseille","lat":43.32023,"lon":5.41576,"is_reserved":false,"is_disabled":false,"rental_uris":{"android":"levelo://app?vid=c0c3e5c6-edc3-41c4-8feb-85aaa21b750a","ios":"levelo://app?vid=c0c3e5c6-edc3-41c4-8feb-85aaa21b750a"},"vehicle_type_id":"4","last_reported":1735398441,"current_range_meters":36000,"station_id":"ce4bhq92rcd13ifvqhkg","pricing_plan_id":"cebpf4jnsgd1na2vs0mg"},{"bike_id":"1614b641-51e8-4939-86a4-49d02c2889c7","system_id":"levelo_inurba_marseille","lat":43.27376,"lon":5.36263,"is_reserved":false,"is_disabled":false,"rental_uris":{"android":"levelo://app?vid=1614b641-51e8-4939-86a4-49d02c2889c7","ios":"levelo://app?vid=1614b641-51e8-4939-86a4-49d02c2889c7"},"vehicle_type_id":"4","last_reported":1735398441,"current_range_meters":8400,"station_id":"ce4bhbh2rcd13ifvqeo0","pricing_plan_id":"cebpf4jnsgd1na2vs0mg"},{"bike_id":"aaaad95a-3362-4c9b-8d93-33b4c6435e21","system_id":"levelo_inurba_marseille","lat":43.29533,"lon":5.38553,"is_reserved":false,"is_disabled":false,"rental_uris":{"android":"levelo://app?vid=aaaad95a-3362-4c9b-8d93-33b4c6435e21","ios":"levelo://app?vid=aaaad95a-3362-4c9b-8d93-33b4c6435e21"},"vehicle_type_id":"4","last_reported":1735398441,"current_range_meters":23200,"station_id":"ce4bgih2rcd13ifvqba0","pricing_plan_id":"cebpf4jnsgd1na2vs0mg"},{"bike_id":"e69ab0c5-1695-45ca-8016-82896093badb","system_id":"levelo_inurba_marseille","lat":43.29706,"lon":5.37699,"is_reserved":false,"is_disabled":false,"rental_uris":{"android":"levelo://app?vid=e69ab0c5-1695-45ca-8016-82896093badb","ios":"levelo://app?vid=e69ab0c5-1695-45ca-8016-82896093badb"},"vehicle_type_id":"4","last_reported":1735398441,"current_range_meters":29600,"station_id":"ce4bgkh2rcd13ifvqbl0","pricing_plan_id":"cebpf4jnsgd1na2vs0mg"},{"bike_id":"f0385bc9-c233-4563-ae2d-665ad72b7d50","system_id":"levelo_inurba_marseille","lat":43.29914,"lon":5.38141,"is_reserved":false,"is_disabled":false,"rental_uris":{"android":"levelo://app?vid=f0385bc9-c233-4563-ae2d-665ad72b7d50","ios":"levelo://app?vid=f0385bc9-c233-4563-ae2d-665ad72b7d50"},"vehicle_type_id":"4","last_reported":1735398441,"current_range_meters":33200,"station_id":"ce4bgj12rcd13ifvqbc0","pricing_plan_id":"cebpf4jnsgd1na2vs0mg"},{"bike_id":"366bde59-8f2a-4175-aa66-e623a0d94082","system_id":"levelo_inurba_marseille","lat":43.28155,"lon":5.42643,"is_reserved":false,"is_disabled":false,"rental_uris":{"android":"levelo://app?vid=366bde59-8f2a-4175-aa66-e623a0d94082","ios":"levelo://app?vid=366bde59-8f2a-4175-aa66-e623a0d94082"},"vehicle_type_id":"4","last_reported":1735398441,"current_range_meters":27600,"station_id":"ce4bhnh2rcd13ifvqgug","pricing_plan_id":"cebpf4jnsgd1na2vs0mg"},{"bike_id":"d6144803-d96b-4980-90a1-d59f6d11564c","system_id":"levelo_inurba_marseille","lat":43.28158,"lon":5.42643,"is_reserved":false,"is_disabled":false,"rental_uris":{"android":"levelo://app?vid=d6144803-d96b-4980-90a1-d59f6d11564c","ios":"levelo://app?vid=d6144803-d96b-4980-90a1-d59f6d11564c"},"vehicle_type_id":"4","last_reported":1735398441,"current_range_meters":10800,"station_id":"ce4bhnh2rcd13ifvqgug","pricing_plan_id":"cebpf4jnsgd1na2vs0mg"},{"bike_id":"125766fb-bb9e-4063-abf4-d8649b751513","system_id":"levelo_inurba_marseille","lat":43.30956,"lon":5.3903,"is_reserved":false,"is_disabled":false,"rental_uris":{"android":"levelo://app?vid=125766fb-bb9e-4063-abf4-d8649b751513","ios":"levelo://app?vid=125766fb-bb9e-4063-abf4-d8649b751513"},"vehicle_type_id":"4","last_reported":1735398441,"current_range_meters":27600,"station_id":"ce4bgup2rcd13ifvqco0","pricing_plan_id":"cebpf4jnsgd1na2vs0mg"},{"bike_id":"88824f9a-e97a-4bcc-b167-9d37de3eaac5","system_id":"levelo_inurba_marseille","lat":43.2306,"lon":5.35492,"is_reserved":false,"is_disabled":false,"rental_uris":{"android":"levelo://app?vid=88824f9a-e97a-4bcc-b167-9d37de3eaac5","ios":"levelo://app?vid=88824f9a-e97a-4bcc-b167-9d37de3eaac5"},"vehicle_type_id":"4","last_reported":1735398441,"current_range_meters":16400,"station_id":"cpo3342slgdg3j2ifvpg","pricing_plan_id":"cebpf4jnsgd1na2vs0mg"},{"bike_id":"04a8e293-0e0b-4caa-a442-31e7b6dcbd8e","system_id":"levelo_inurba_marseille","lat":43.29303,"lon":5.37445,"is_reserved":false,"is_disabled":false,"rental_uris":{"android":"levelo://app?vid=04a8e293-0e0b-4caa-a442-31e7b6dcbd8e","ios":"levelo://app?vid=04a8e293-0e0b-4caa-a442-31e7b6dcbd8e"},"vehicle_type_id":"4","last_reported":1735398441,"current_range_meters":30400,"station_id":"ce4bgi12rcd13ifvqb70","pricing_plan_id":"cebpf4jnsgd1na2vs0mg"},{"bike_id":"f996f2c1-8657-4bb2-8a10-192ff1073f5e","system_id":"levelo_inurba_marseille","lat":43.301431,"lon":5.374152,"is_reserved":false,"is_disabled":false,"rental_uris":{"android":"levelo://app?vid=f996f2c1-8657-4bb2-8a10-192ff1073f5e","ios":"levelo://app?vid=f996f2c1-8657-4bb2-8a10-192ff1073f5e"},"vehicle_type_id":"4","last_reported":1735398441,"current_range_meters":33600,"station_id":"ce4bgs92rcd13ifvqcc0","pricing_plan_id":"cebpf4jnsgd1na2vs0mg"},{"bike_id":"204f0bfe-4513-4fef-9e32-daabf22ab3b1","system_id":"levelo_inurba_marseille","lat":43.29965,"lon":5.3718,"is_reserved":false,"is_disabled":false,"rental_uris":{"android":"levelo://app?vid=204f0bfe-4513-4fef-9e32-daabf22ab3b1","ios":"levelo://app?vid=204f0bfe-4513-4fef-9e32-daabf22ab3b1"},"vehicle_type_id":"4","last_reported":1735398441,"current_range_meters":39200,"station_id":"ce4bgr92rcd13ifvqc7g","pricing_plan_id":"cebpf4jnsgd1na2vs0mg"},{"bike_id":"6ad55595-8a49-4a3c-9ec0-a8488a70d65a","system_id":"levelo_inurba_marseille","lat":43.24386,"lon":5.37064,"is_reserved":false,"is_disabled":true,"rental_uris":{"android":"levelo://app?vid=6ad55595-8a49-4a3c-9ec0-a8488a70d65a","ios":"levelo://app?vid=6ad55595-8a49-4a3c-9ec0-a8488a70d65a"},"vehicle_type_id":"4","last_reported":1735398441,"current_range_meters":0,"station_id":"ce4bhhh2rcd13ifvqfk0","pricing_plan_id":"cebpf4jnsgd1na2vs0mg"},{"bike_id":"a818f93d-22ad-482b-a6a1-cb891a3bc650","system_id":"levelo_inurba_marseille","lat":43.2925,"lon":5.40911,"is_reserved":false,"is_disabled":false,"rental_uris":{"android":"levelo://app?vid=a818f93d-22ad-482b-a6a1-cb891a3bc650","ios":"levelo://app?vid=a818f93d-22ad-482b-a6a1-cb891a3bc650"},"vehicle_type_id":"4","last_reported":1735398441,"current_range_meters":35200,"station_id":"ce4bh192rcd13ifvqdc0","pricing_plan_id":"cebpf4jnsgd1na2vs0mg"},{"bike_id":"ae8f8cdf-d1f9-4519-9c49-1aed0fe5c5ba","system_id":"levelo_inurba_marseille","lat":43.30548,"lon":5.36705,"is_reserved":false,"is_disabled":false,"rental_uris":{"android":"levelo://app?vid=ae8f8cdf-d1f9-4519-9c49-1aed0fe5c5ba","ios":"levelo://app?vid=ae8f8cdf-d1f9-4519-9c49-1aed0fe5c5ba"},"vehicle_type_id":"4","last_reported":1735398441,"current_range_meters":38800,"station_id":"ce4bgrp2rcd13ifvqc9g","pricing_plan_id":"cebpf4jnsgd1na2vs0mg"},{"bike_id":"09898dd2-84ad-4911-a21d-d1f0823964b3","system_id":"levelo_inurba_marseille","lat":43.29619,"lon":5.37744,"is_reserved":false,"is_disabled":false,"rental_uris":{"android":"levelo://app?vid=09898dd2-84ad-4911-a21d-d1f0823964b3","ios":"levelo://app?vid=09898dd2-84ad-4911-a21d-d1f0823964b3"},"vehicle_type_id":"4","last_reported":1735398441,"current_range_meters":39200,"station_id":"ce4bgi92rcd13ifvqb90","pricing_plan_id":"cebpf4jnsgd1na2vs0mg"},{"bike_id":"2f4d88ff-6678-4ca5-ae90-a5a14ea5e14c","system_id":"levelo_inurba_marseille","lat":43.28275,"lon":5.3507,"is_reserved":false,"is_disabled":false,"rental_uris":{"android":"levelo://app?vid=2f4d88ff-6678-4ca5-ae90-a5a14ea5e14c","ios":"levelo://app?vid=2f4d88ff-6678-4ca5-ae90-a5a14ea5e14c"},"vehicle_type_id":"4","last_reported":1735398441,"current_range_meters":34800,"station_id":"ce4bhbp2rcd13ifvqerg","pricing_plan_id":"cebpf4jnsgd1na2vs0mg"},{"bike_id":"22fd7190-4a48-4311-a205-02e98d2bbea1","system_id":"levelo_inurba_marseille","lat":43.33707,"lon":5.39204,"is_reserved":false,"is_disabled":false,"rental_uris":{"android":"levelo://app?vid=22fd7190-4a48-4311-a205-02e98d2bbea1","ios":"levelo://app?vid=22fd7190-4a48-4311-a205-02e98d2bbea1"},"vehicle_type_id":"4","last_reported":1735398441,"current_range_meters":12800,"station_id":"ce4bhr92rcd13ifvqhsg","pricing_plan_id":"cebpf4jnsgd1na2vs0mg"},{"bike_id":"e24159a9-a30e-45ca-a06d-dd78d34876d6","system_id":"levelo_inurba_marseille","lat":43.28488,"lon":5.38414,"is_reserved":false,"is_disabled":false,"rental_uris":{"android":"levelo://app?vid=e24159a9-a30e-45ca-a06d-dd78d34876d6","ios":"levelo://app?vid=e24159a9-a30e-45ca-a06d-dd78d34876d6"},"vehicle_type_id":"4","last_reported":1735398441,"current_range_meters":36000,"station_id":"ce4bh512rcd13ifvqe3g","pricing_plan_id":"cebpf4jnsgd1na2vs0mg"},{"bike_id":"5be3d17a-9c8c-40c8-a7f5-11e9744dd0b7","system_id":"levelo_inurba_marseille","lat":43.2845,"lon":5.38406,"is_reserved":false,"is_disabled":false,"rental_uris":{"android":"levelo://app?vid=5be3d17a-9c8c-40c8-a7f5-11e9744dd0b7","ios":"levelo://app?vid=5be3d17a-9c8c-40c8-a7f5-11e9744dd0b7"},"vehicle_type_id":"4","last_reported":1735398441,"current_range_meters":38800,"station_id":"ce4bh512rcd13ifvqe3g","pricing_plan_id":"cebpf4jnsgd1na2vs0mg"},{"bike_id":"69e40b92-f08c-405a-a70d-aac27e059ce4","system_id":"levelo_inurba_marseille","lat":43.24269,"lon":5.39682,"is_reserved":false,"is_disabled":false,"rental_uris":{"android":"levelo://app?vid=69e40b92-f08c-405a-a70d-aac27e059ce4","ios":"levelo://app?vid=69e40b92-f08c-405a-a70d-aac27e059ce4"},"vehicle_type_id":"4","last_reported":1735398441,"current_range_meters":25600,"station_id":"ce4bhn12rcd13ifvqgpg","pricing_plan_id":"cebpf4jnsgd1na2vs0mg"},{"bike_id":"e73e6057-e6e9-407b-a17e-f4e119a96aba","system_id":"levelo_inurba_marseille","lat":43.32111,"lon":5.36769,"is_reserved":false,"is_disabled":false,"rental_uris":{"android":"levelo://app?vid=e73e6057-e6e9-407b-a17e-f4e119a96aba","ios":"levelo://app?vid=e73e6057-e6e9-407b-a17e-f4e119a96aba"},"vehicle_type_id":"4","last_reported":1735398441,"current_range_meters":16000,"station_id":"ce4bhrh2rcd13ifvqhug","pricing_plan_id":"cebpf4jnsgd1na2vs0mg"},{"bike_id":"031dc0ac-f253-4e89-9f68-a0bf92006f1d","system_id":"levelo_inurba_marseille","lat":43.31265,"lon":5.4017,"is_reserved":false,"is_disabled":false,"rental_uris":{"android":"levelo://app?vid=031dc0ac-f253-4e89-9f68-a0bf92006f1d","ios":"levelo://app?vid=031dc0ac-f253-4e89-9f68-a0bf92006f1d"},"vehicle_type_id":"4","last_reported":1735398441,"current_range_meters":5600,"station_id":"ce4bh092rcd13ifvqd30","pricing_plan_id":"cebpf4jnsgd1na2vs0mg"},{"bike_id":"8c91810d-a0be-44d5-9187-c976025769a5","system_id":"levelo_inurba_marseille","lat":43.27999,"lon":5.40021,"is_reserved":false,"is_disabled":false,"rental_uris":{"android":"levelo://app?vid=8c91810d-a0be-44d5-9187-c976025769a5","ios":"levelo://app?vid=8c91810d-a0be-44d5-9187-c976025769a5"},"vehicle_type_id":"4","last_reported":1735398441,"current_range_meters":23200,"station_id":"ce4bho92rcd13ifvqh4g","pricing_plan_id":"cebpf4jnsgd1na2vs0mg"},{"bike_id":"062008cc-a7ec-41fc-ab0a-02aee794153b","system_id":"levelo_inurba_marseille","lat":43.27069,"lon":5.42275,"is_reserved":false,"is_disabled":false,"rental_uris":{"android":"levelo://app?vid=062008cc-a7ec-41fc-ab0a-02aee794153b","ios":"levelo://app?vid=062008cc-a7ec-41fc-ab0a-02aee794153b"},"vehicle_type_id":"4","last_reported":1735398441,"current_range_meters":36800,"station_id":"ce4bhk92rcd13ifvqgb0","pricing_plan_id":"cebpf4jnsgd1na2vs0mg"},{"bike_id":"57103b12-06fc-494b-9a1a-1903f8f245d5","system_id":"levelo_inurba_marseille","lat":43.27978,"lon":5.41666,"is_reserved":false,"is_disabled":false,"rental_uris":{"android":"levelo://app?vid=57103b12-06fc-494b-9a1a-1903f8f245d5","ios":"levelo://app?vid=57103b12-06fc-494b-9a1a-1903f8f245d5"},"vehicle_type_id":"4","last_reported":1735398441,"current_range_meters":22800,"station_id":"ce4bho12rcd13ifvqh1g","pricing_plan_id":"cebpf4jnsgd1na2vs0mg"},{"bike_id":"2b2d2e1c-db43-401c-b745-caba7864cfd6","system_id":"levelo_inurba_marseille","lat":43.27376,"lon":5.36246,"is_reserved":false,"is_disabled":false,"rental_uris":{"android":"levelo://app?vid=2b2d2e1c-db43-401c-b745-caba7864cfd6","ios":"levelo://app?vid=2b2d2e1c-db43-401c-b745-caba7864cfd6"},"vehicle_type_id":"4","last_reported":1735398441,"current_range_meters":39200,"station_id":"ce4bhbh2rcd13ifvqeo0","pricing_plan_id":"cebpf4jnsgd1na2vs0mg"},{"bike_id":"20f4e438-1366-4a84-bf7d-a2e481186e28","system_id":"levelo_inurba_marseille","lat":43.2847,"lon":5.3841,"is_reserved":false,"is_disabled":false,"rental_uris":{"android":"levelo://app?vid=20f4e438-1366-4a84-bf7d-a2e481186e28","ios":"levelo://app?vid=20f4e438-1366-4a84-bf7d-a2e481186e28"},"vehicle_type_id":"4","last_reported":1735398441,"current_range_meters":38800,"station_id":"ce4bh512rcd13ifvqe3g","pricing_plan_id":"cebpf4jnsgd1na2vs0mg"},{"bike_id":"d9d97985-8792-47a3-ab8c-09980f6a9900","system_id":"levelo_inurba_marseille","lat":43.29526,"lon":5.37499,"is_reserved":false,"is_disabled":true,"rental_uris":{"android":"levelo://app?vid=d9d97985-8792-47a3-ab8c-09980f6a9900","ios":"levelo://app?vid=d9d97985-8792-47a3-ab8c-09980f6a9900"},"vehicle_type_id":"4","last_reported":1735398441,"current_range_meters":10000,"station_id":"ce4bgkp2rcd13ifvqbmg","pricing_plan_id":"cebpf4jnsgd1na2vs0mg"},{"bike_id":"fe7426e4-f61d-4fb0-92d1-031ba51a32d5","system_id":"levelo_inurba_marseille","lat":43.27812,"lon":5.40713,"is_reserved":false,"is_disabled":false,"rental_uris":{"android":"levelo://app?vid=fe7426e4-f61d-4fb0-92d1-031ba51a32d5","ios":"levelo://app?vid=fe7426e4-f61d-4fb0-92d1-031ba51a32d5"},"vehicle_type_id":"4","last_reported":1735398441,"current_range_meters":36000,"station_id":"ce4bhnh2rcd13ifvqgtg","pricing_plan_id":"cebpf4jnsgd1na2vs0mg"},{"bike_id":"96266aa3-f88f-4e03-9d1d-82f3aff3a305","system_id":"levelo_inurba_marseille","lat":43.28489,"lon":5.38556,"is_reserved":false,"is_disabled":false,"rental_uris":{"android":"levelo://app?vid=96266aa3-f88f-4e03-9d1d-82f3aff3a305","ios":"levelo://app?vid=96266aa3-f88f-4e03-9d1d-82f3aff3a305"},"vehicle_type_id":"4","last_reported":1735398441,"current_range_meters":37600,"station_id":"ce4bh8p2rcd13ifvqeb0","pricing_plan_id":"cebpf4jnsgd1na2vs0mg"},{"bike_id":"74efadb3-6150-400e-a7ae-4b006e40a1fd","system_id":"levelo_inurba_marseille","lat":43.28478,"lon":5.38408,"is_reserved":false,"is_disabled":false,"rental_uris":{"android":"levelo://app?vid=74efadb3-6150-400e-a7ae-4b006e40a1fd","ios":"levelo://app?vid=74efadb3-6150-400e-a7ae-4b006e40a1fd"},"vehicle_type_id":"4","last_reported":1735398441,"current_range_meters":35600,"station_id":"ce4bh512rcd13ifvqe3g","pricing_plan_id":"cebpf4jnsgd1na2vs0mg"},{"bike_id":"ad2cf68b-04bc-4b73-bfe2-c740c9197157","system_id":"levelo_inurba_marseille","lat":43.23153,"lon":5.43703,"is_reserved":false,"is_disabled":false,"rental_uris":{"android":"levelo://app?vid=ad2cf68b-04bc-4b73-bfe2-c740c9197157","ios":"levelo://app?vid=ad2cf68b-04bc-4b73-bfe2-c740c9197157"},"vehicle_type_id":"4","last_reported":1735398441,"current_range_meters":10000,"station_id":"ce4bhmp2rcd13ifvqgog","pricing_plan_id":"cebpf4jnsgd1na2vs0mg"},{"bike_id":"375d5811-de8b-418c-91ed-82d921ddce21","system_id":"levelo_inurba_marseille","lat":43.29705,"lon":5.36591,"is_reserved":false,"is_disabled":false,"rental_uris":{"android":"levelo://app?vid=375d5811-de8b-418c-91ed-82d921ddce21","ios":"levelo://app?vid=375d5811-de8b-418c-91ed-82d921ddce21"},"vehicle_type_id":"4","last_reported":1735398441,"current_range_meters":38800,"station_id":"ce4bgn12rcd13ifvqbt0","pricing_plan_id":"cebpf4jnsgd1na2vs0mg"},{"bike_id":"5caf2166-d02b-45ae-a99e-85227a96dc49","system_id":"levelo_inurba_marseille","lat":43.27669,"lon":5.38881,"is_reserved":false,"is_disabled":false,"rental_uris":{"android":"levelo://app?vid=5caf2166-d02b-45ae-a99e-85227a96dc49","ios":"levelo://app?vid=5caf2166-d02b-45ae-a99e-85227a96dc49"},"vehicle_type_id":"4","last_reported":1735398441,"current_range_meters":28800,"station_id":"ce4bhi12rcd13ifvqfo0","pricing_plan_id":"cebpf4jnsgd1na2vs0mg"},{"bike_id":"b55683c1-3164-4e8c-98bf-e56e94fb8d33","system_id":"levelo_inurba_marseille","lat":43.27614,"lon":5.36104,"is_reserved":false,"is_disabled":false,"rental_uris":{"android":"levelo://app?vid=b55683c1-3164-4e8c-98bf-e56e94fb8d33","ios":"levelo://app?vid=b55683c1-3164-4e8c-98bf-e56e94fb8d33"},"vehicle_type_id":"4","last_reported":1735398441,"current_range_meters":24400,"station_id":"ce4bgj92rcd13ifvqbe0","pricing_plan_id":"cebpf4jnsgd1na2vs0mg"},{"bike_id":"db2c549d-e98a-4769-95fa-52946ad4fb3d","system_id":"levelo_inurba_marseille","lat":43.2985,"lon":5.36282,"is_reserved":false,"is_disabled":false,"rental_uris":{"android":"levelo://app?vid=db2c549d-e98a-4769-95fa-52946ad4fb3d","ios":"levelo://app?vid=db2c549d-e98a-4769-95fa-52946ad4fb3d"},"vehicle_type_id":"4","last_reported":1735398441,"current_range_meters":36800,"station_id":"ce4bgpp2rcd13ifvqc3g","pricing_plan_id":"cebpf4jnsgd1na2vs0mg"},{"bike_id":"06cb9db3-5173-4e30-b394-f221ce1c8457","system_id":"levelo_inurba_marseille","lat":43.30136,"lon":5.39865,"is_reserved":false,"is_disabled":false,"rental_uris":{"android":"levelo://app?vid=06cb9db3-5173-4e30-b394-f221ce1c8457","ios":"levelo://app?vid=06cb9db3-5173-4e30-b394-f221ce1c8457"},"vehicle_type_id":"4","last_reported":1735398441,"current_range_meters":32000,"station_id":"ce4bh0h2rcd13ifvqd40","pricing_plan_id":"cebpf4jnsgd1na2vs0mg"},{"bike_id":"1d5f288e-568b-4925-bafd-ad6c8b0a6352","system_id":"levelo_inurba_marseille","lat":43.27178,"lon":5.40998,"is_reserved":false,"is_disabled":false,"rental_uris":{"android":"levelo://app?vid=1d5f288e-568b-4925-bafd-ad6c8b0a6352","ios":"levelo://app?vid=1d5f288e-568b-4925-bafd-ad6c8b0a6352"},"vehicle_type_id":"4","last_reported":1735398441,"current_range_meters":38000,"station_id":"ce4bhl12rcd13ifvqgf0","pricing_plan_id":"cebpf4jnsgd1na2vs0mg"},{"bike_id":"223dd20f-b934-4101-90b0-f4f286646534","system_id":"levelo_inurba_marseille","lat":43.29418,"lon":5.38626,"is_reserved":false,"is_disabled":false,"rental_uris":{"android":"levelo://app?vid=223dd20f-b934-4101-90b0-f4f286646534","ios":"levelo://app?vid=223dd20f-b934-4101-90b0-f4f286646534"},"vehicle_type_id":"4","last_reported":1735398441,"current_range_meters":30000,"station_id":"ce4bh2h2rcd13ifvqdh0","pricing_plan_id":"cebpf4jnsgd1na2vs0mg"},{"bike_id":"a3b5e29c-4425-483d-9fe4-2d25fea7803f","system_id":"levelo_inurba_marseille","lat":43.250123,"lon":5.389159,"is_reserved":false,"is_disabled":false,"rental_uris":{"android":"levelo://app?vid=a3b5e29c-4425-483d-9fe4-2d25fea7803f","ios":"levelo://app?vid=a3b5e29c-4425-483d-9fe4-2d25fea7803f"},"vehicle_type_id":"4","last_reported":1735398441,"current_range_meters":27600,"station_id":"ce4bhgp2rcd13ifvqfd0","pricing_plan_id":"cebpf4jnsgd1na2vs0mg"},{"bike_id":"89bd1e03-d2e1-4927-8b6b-64f0f297535a","system_id":"levelo_inurba_marseille","lat":43.26213,"lon":5.37443,"is_reserved":false,"is_disabled":false,"rental_uris":{"android":"levelo://app?vid=89bd1e03-d2e1-4927-8b6b-64f0f297535a","ios":"levelo://app?vid=89bd1e03-d2e1-4927-8b6b-64f0f297535a"},"vehicle_type_id":"4","last_reported":1735398441,"current_range_meters":16400,"station_id":"ce4bhgp2rcd13ifvqfc0","pricing_plan_id":"cebpf4jnsgd1na2vs0mg"},{"bike_id":"d04f734a-5305-4d19-9524-e605652d0f1e","system_id":"levelo_inurba_marseille","lat":43.24666,"lon":5.38164,"is_reserved":false,"is_disabled":false,"rental_uris":{"android":"levelo://app?vid=d04f734a-5305-4d19-9524-e605652d0f1e","ios":"levelo://app?vid=d04f734a-5305-4d19-9524-e605652d0f1e"},"vehicle_type_id":"4","last_reported":1735398441,"current_range_meters":17600,"station_id":"ce4bhih2rcd13ifvqfr0","pricing_plan_id":"cebpf4jnsgd1na2vs0mg"},{"bike_id":"dfad354b-0d8f-4c65-82fd-afb0d4089090","system_id":"levelo_inurba_marseille","lat":43.29251,"lon":5.40911,"is_reserved":false,"is_disabled":false,"rental_uris":{"android":"levelo://app?vid=dfad354b-0d8f-4c65-82fd-afb0d4089090","ios":"levelo://app?vid=dfad354b-0d8f-4c65-82fd-afb0d4089090"},"vehicle_type_id":"4","last_reported":1735398441,"current_range_meters":30400,"station_id":"ce4bh192rcd13ifvqdc0","pricing_plan_id":"cebpf4jnsgd1na2vs0mg"},{"bike_id":"2a8090a5-258a-42f6-bdf5-1bde1ba8db3e","system_id":"levelo_inurba_marseille","lat":43.24812,"lon":5.37456,"is_reserved":false,"is_disabled":false,"rental_uris":{"android":"levelo://app?vid=2a8090a5-258a-42f6-bdf5-1bde1ba8db3e","ios":"levelo://app?vid=2a8090a5-258a-42f6-bdf5-1bde1ba8db3e"},"vehicle_type_id":"4","last_reported":1735398441,"current_range_meters":8800,"station_id":"ce4bhgh2rcd13ifvqfb0","pricing_plan_id":"cebpf4jnsgd1na2vs0mg"},{"bike_id":"7bd44d09-e872-4291-b548-1cbe40f16cac","system_id":"levelo_inurba_marseille","lat":43.28147,"lon":5.42669,"is_reserved":false,"is_disabled":false,"rental_uris":{"android":"levelo://app?vid=7bd44d09-e872-4291-b548-1cbe40f16cac","ios":"levelo://app?vid=7bd44d09-e872-4291-b548-1cbe40f16cac"},"vehicle_type_id":"4","last_reported":1735398441,"current_range_meters":28000,"station_id":"ce4bhnh2rcd13ifvqgug","pricing_plan_id":"cebpf4jnsgd1na2vs0mg"},{"bike_id":"8f95b255-659d-42df-8cdb-0afbd455668c","system_id":"levelo_inurba_marseille","lat":43.29712,"lon":5.36617,"is_reserved":false,"is_disabled":false,"rental_uris":{"android":"levelo://app?vid=8f95b255-659d-42df-8cdb-0afbd455668c","ios":"levelo://app?vid=8f95b255-659d-42df-8cdb-0afbd455668c"},"vehicle_type_id":"4","last_reported":1735398441,"current_range_meters":23200,"station_id":"ce4bgn12rcd13ifvqbt0","pricing_plan_id":"cebpf4jnsgd1na2vs0mg"},{"bike_id":"3f5b4d3b-643e-4d36-91f9-8e177f67ec39","system_id":"levelo_inurba_marseille","lat":43.25586,"lon":5.38236,"is_reserved":false,"is_disabled":false,"rental_uris":{"android":"levelo://app?vid=3f5b4d3b-643e-4d36-91f9-8e177f67ec39","ios":"levelo://app?vid=3f5b4d3b-643e-4d36-91f9-8e177f67ec39"},"vehicle_type_id":"4","last_reported":1735398441,"current_range_meters":38800,"station_id":"ce4bhih2rcd13ifvqfs0","pricing_plan_id":"cebpf4jnsgd1na2vs0mg"},{"bike_id":"84c56a7d-e64a-42e9-a2e6-9cc18ae79555","system_id":"levelo_inurba_marseille","lat":43.28415,"lon":5.34992,"is_reserved":false,"is_disabled":false,"rental_uris":{"android":"levelo://app?vid=84c56a7d-e64a-42e9-a2e6-9cc18ae79555","ios":"levelo://app?vid=84c56a7d-e64a-42e9-a2e6-9cc18ae79555"},"vehicle_type_id":"4","last_reported":1735398441,"current_range_meters":18000,"station_id":"ce4bhbh2rcd13ifvqepg","pricing_plan_id":"cebpf4jnsgd1na2vs0mg"},{"bike_id":"3506829e-c8ee-412a-b6de-98e0fa1fe79c","system_id":"levelo_inurba_marseille","lat":43.27384,"lon":5.36228,"is_reserved":false,"is_disabled":false,"rental_uris":{"android":"levelo://app?vid=3506829e-c8ee-412a-b6de-98e0fa1fe79c","ios":"levelo://app?vid=3506829e-c8ee-412a-b6de-98e0fa1fe79c"},"vehicle_type_id":"4","last_reported":1735398441,"current_range_meters":28800,"station_id":"ce4bhbh2rcd13ifvqeo0","pricing_plan_id":"cebpf4jnsgd1na2vs0mg"},{"bike_id":"a2546ea6-352f-4b35-b75c-04a8589ae8a1","system_id":"levelo_inurba_marseille","lat":43.30257,"lon":5.40063,"is_reserved":false,"is_disabled":false,"rental_uris":{"android":"levelo://app?vid=a2546ea6-352f-4b35-b75c-04a8589ae8a1","ios":"levelo://app?vid=a2546ea6-352f-4b35-b75c-04a8589ae8a1"},"vehicle_type_id":"4","last_reported":1735398441,"current_range_meters":27600,"station_id":"ce4bgvh2rcd13ifvqcs0","pricing_plan_id":"cebpf4jnsgd1na2vs0mg"},{"bike_id":"359ddae0-5d3f-4b29-8d32-daa2bb9138da","system_id":"levelo_inurba_marseille","lat":43.29708,"lon":5.37692,"is_reserved":false,"is_disabled":false,"rental_uris":{"android":"levelo://app?vid=359ddae0-5d3f-4b29-8d32-daa2bb9138da","ios":"levelo://app?vid=359ddae0-5d3f-4b29-8d32-daa2bb9138da"},"vehicle_type_id":"4","last_reported":1735398441,"current_range_meters":34800,"station_id":"ce4bgkh2rcd13ifvqbl0","pricing_plan_id":"cebpf4jnsgd1na2vs0mg"},{"bike_id":"1107b56a-98a5-4a01-8449-9eba086fee5a","system_id":"levelo_inurba_marseille","lat":43.29073,"lon":5.39883,"is_reserved":false,"is_disabled":true,"rental_uris":{"android":"levelo://app?vid=1107b56a-98a5-4a01-8449-9eba086fee5a","ios":"levelo://app?vid=1107b56a-98a5-4a01-8449-9eba086fee5a"},"vehicle_type_id":"4","last_reported":1735398441,"current_range_meters":20000,"station_id":"","pricing_plan_id":"cebpf4jnsgd1na2vs0mg"},{"bike_id":"6923ea4c-6f92-4fb1-ad05-9a683bd3ab7b","system_id":"levelo_inurba_marseille","lat":43.2956,"lon":5.37513,"is_reserved":false,"is_disabled":false,"rental_uris":{"android":"levelo://app?vid=6923ea4c-6f92-4fb1-ad05-9a683bd3ab7b","ios":"levelo://app?vid=6923ea4c-6f92-4fb1-ad05-9a683bd3ab7b"},"vehicle_type_id":"4","last_reported":1735398441,"current_range_meters":37600,"station_id":"ce4bgh92rcd13ifvqb50","pricing_plan_id":"cebpf4jnsgd1na2vs0mg"},{"bike_id":"11a0ffca-220f-4915-8ee5-56db1deea1c4","system_id":"levelo_inurba_marseille","lat":43.29581,"lon":5.37503,"is_reserved":false,"is_disabled":false,"rental_uris":{"android":"levelo://app?vid=11a0ffca-220f-4915-8ee5-56db1deea1c4","ios":"levelo://app?vid=11a0ffca-220f-4915-8ee5-56db1deea1c4"},"vehicle_type_id":"4","last_reported":1735398441,"current_range_meters":30000,"station_id":"ce4bgh92rcd13ifvqb50","pricing_plan_id":"cebpf4jnsgd1na2vs0mg"},{"bike_id":"1059b4eb-db73-4bb3-935c-c9bec1afc329","system_id":"levelo_inurba_marseille","lat":43.25112,"lon":5.40321,"is_reserved":false,"is_disabled":false,"rental_uris":{"android":"levelo://app?vid=1059b4eb-db73-4bb3-935c-c9bec1afc329","ios":"levelo://app?vid=1059b4eb-db73-4bb3-935c-c9bec1afc329"},"vehicle_type_id":"4","last_reported":1735398441,"current_range_meters":33200,"station_id":"ce4bhlh2rcd13ifvqgig","pricing_plan_id":"cebpf4jnsgd1na2vs0mg"},{"bike_id":"c9b97fb7-b709-4c26-ae01-dabf637bc152","system_id":"levelo_inurba_marseille","lat":43.27811,"lon":5.4071,"is_reserved":false,"is_disabled":false,"rental_uris":{"android":"levelo://app?vid=c9b97fb7-b709-4c26-ae01-dabf637bc152","ios":"levelo://app?vid=c9b97fb7-b709-4c26-ae01-dabf637bc152"},"vehicle_type_id":"4","last_reported":1735398441,"current_range_meters":28000,"station_id":"ce4bhnh2rcd13ifvqgtg","pricing_plan_id":"cebpf4jnsgd1na2vs0mg"},{"bike_id":"7a7ed23e-c88c-4704-a47c-c0df0dd34a61","system_id":"levelo_inurba_marseille","lat":43.26936,"lon":5.38933,"is_reserved":false,"is_disabled":false,"rental_uris":{"android":"levelo://app?vid=7a7ed23e-c88c-4704-a47c-c0df0dd34a61","ios":"levelo://app?vid=7a7ed23e-c88c-4704-a47c-c0df0dd34a61"},"vehicle_type_id":"4","last_reported":1735398441,"current_range_meters":34000,"station_id":"ce4bhhh2rcd13ifvqfl0","pricing_plan_id":"cebpf4jnsgd1na2vs0mg"},{"bike_id":"c31a4de5-108d-45f4-badf-72b85dbe5a3d","system_id":"levelo_inurba_marseille","lat":43.29796,"lon":5.37096,"is_reserved":false,"is_disabled":false,"rental_uris":{"android":"levelo://app?vid=c31a4de5-108d-45f4-badf-72b85dbe5a3d","ios":"levelo://app?vid=c31a4de5-108d-45f4-badf-72b85dbe5a3d"},"vehicle_type_id":"4","last_reported":1735398441,"current_range_meters":38800,"station_id":"ce4bgop2rcd13ifvqc1g","pricing_plan_id":"cebpf4jnsgd1na2vs0mg"},{"bike_id":"9d3d459d-d416-4406-9acb-4263a87f73a0","system_id":"levelo_inurba_marseille","lat":43.23194,"lon":5.35545,"is_reserved":false,"is_disabled":false,"rental_uris":{"android":"levelo://app?vid=9d3d459d-d416-4406-9acb-4263a87f73a0","ios":"levelo://app?vid=9d3d459d-d416-4406-9acb-4263a87f73a0"},"vehicle_type_id":"4","last_reported":1735398441,"current_range_meters":32800,"station_id":"ce4bhu92rcd13ifvqi70","pricing_plan_id":"cebpf4jnsgd1na2vs0mg"},{"bike_id":"ef4e1f81-7c5b-4014-bdf4-75279c1a5b88","system_id":"levelo_inurba_marseille","lat":43.30549,"lon":5.36526,"is_reserved":false,"is_disabled":false,"rental_uris":{"android":"levelo://app?vid=ef4e1f81-7c5b-4014-bdf4-75279c1a5b88","ios":"levelo://app?vid=ef4e1f81-7c5b-4014-bdf4-75279c1a5b88"},"vehicle_type_id":"4","last_reported":1735398441,"current_range_meters":28000,"station_id":"ce4bgs12rcd13ifvqcag","pricing_plan_id":"cebpf4jnsgd1na2vs0mg"},{"bike_id":"f88f16ef-ff6a-41e6-9722-2354ad5f3b6b","system_id":"levelo_inurba_marseille","lat":43.29368,"lon":5.37861,"is_reserved":false,"is_disabled":false,"rental_uris":{"android":"levelo://app?vid=f88f16ef-ff6a-41e6-9722-2354ad5f3b6b","ios":"levelo://app?vid=f88f16ef-ff6a-41e6-9722-2354ad5f3b6b"},"vehicle_type_id":"4","last_reported":1735398441,"current_range_meters":35600,"station_id":"ce4bgjh2rcd13ifvqbf0","pricing_plan_id":"cebpf4jnsgd1na2vs0mg"},{"bike_id":"738c7806-933e-41c8-baf6-af4cb4628eac","system_id":"levelo_inurba_marseille","lat":43.30316,"lon":5.36897,"is_reserved":false,"is_disabled":false,"rental_uris":{"android":"levelo://app?vid=738c7806-933e-41c8-baf6-af4cb4628eac","ios":"levelo://app?vid=738c7806-933e-41c8-baf6-af4cb4628eac"},"vehicle_type_id":"4","last_reported":1735398441,"current_range_meters":38800,"station_id":"ce4bgqh2rcd13ifvqc5g","pricing_plan_id":"cebpf4jnsgd1na2vs0mg"},{"bike_id":"41e441a8-4ad2-4bf0-81ba-96c35feaf6d8","system_id":"levelo_inurba_marseille","lat":43.28148,"lon":5.42646,"is_reserved":false,"is_disabled":false,"rental_uris":{"android":"levelo://app?vid=41e441a8-4ad2-4bf0-81ba-96c35feaf6d8","ios":"levelo://app?vid=41e441a8-4ad2-4bf0-81ba-96c35feaf6d8"},"vehicle_type_id":"4","last_reported":1735398441,"current_range_meters":33600,"station_id":"ce4bhnh2rcd13ifvqgug","pricing_plan_id":"cebpf4jnsgd1na2vs0mg"},{"bike_id":"9d796e65-93d9-495c-98b9-28b0d1679c04","system_id":"levelo_inurba_marseille","lat":43.3055,"lon":5.36527,"is_reserved":false,"is_disabled":false,"rental_uris":{"android":"levelo://app?vid=9d796e65-93d9-495c-98b9-28b0d1679c04","ios":"levelo://app?vid=9d796e65-93d9-495c-98b9-28b0d1679c04"},"vehicle_type_id":"4","last_reported":1735398441,"current_range_meters":38000,"station_id":"ce4bgs12rcd13ifvqcag","pricing_plan_id":"cebpf4jnsgd1na2vs0mg"},{"bike_id":"ad954c5e-731b-466c-b7a3-d28bedadb5f9","system_id":"levelo_inurba_marseille","lat":43.27371,"lon":5.36255,"is_reserved":false,"is_disabled":false,"rental_uris":{"android":"levelo://app?vid=ad954c5e-731b-466c-b7a3-d28bedadb5f9","ios":"levelo://app?vid=ad954c5e-731b-466c-b7a3-d28bedadb5f9"},"vehicle_type_id":"4","last_reported":1735398441,"current_range_meters":32800,"station_id":"ce4bhbh2rcd13ifvqeo0","pricing_plan_id":"cebpf4jnsgd1na2vs0mg"},{"bike_id":"0040c17c-e92e-44b5-a6fb-3621bcac561f","system_id":"levelo_inurba_marseille","lat":43.27062,"lon":5.42275,"is_reserved":false,"is_disabled":false,"rental_uris":{"android":"levelo://app?vid=0040c17c-e92e-44b5-a6fb-3621bcac561f","ios":"levelo://app?vid=0040c17c-e92e-44b5-a6fb-3621bcac561f"},"vehicle_type_id":"4","last_reported":1735398441,"current_range_meters":25600,"station_id":"ce4bhk92rcd13ifvqgb0","pricing_plan_id":"cebpf4jnsgd1na2vs0mg"},{"bike_id":"01803604-37da-41eb-85ea-bca97c6b6bd4","system_id":"levelo_inurba_marseille","lat":43.29873,"lon":5.36261,"is_reserved":false,"is_disabled":false,"rental_uris":{"android":"levelo://app?vid=01803604-37da-41eb-85ea-bca97c6b6bd4","ios":"levelo://app?vid=01803604-37da-41eb-85ea-bca97c6b6bd4"},"vehicle_type_id":"4","last_reported":1735398441,"current_range_meters":38800,"station_id":"ce4bgpp2rcd13ifvqc3g","pricing_plan_id":"cebpf4jnsgd1na2vs0mg"},{"bike_id":"1a18bfda-4db7-441f-899e-8c2cf1accb71","system_id":"levelo_inurba_marseille","lat":43.30542,"lon":5.36531,"is_reserved":false,"is_disabled":false,"rental_uris":{"android":"levelo://app?vid=1a18bfda-4db7-441f-899e-8c2cf1accb71","ios":"levelo://app?vid=1a18bfda-4db7-441f-899e-8c2cf1accb71"},"vehicle_type_id":"4","last_reported":1735398441,"current_range_meters":39200,"station_id":"ce4bgs12rcd13ifvqcag","pricing_plan_id":"cebpf4jnsgd1na2vs0mg"},{"bike_id":"416ab53b-279a-422e-99c8-cc6e97f84422","system_id":"levelo_inurba_marseille","lat":43.29585,"lon":5.37499,"is_reserved":false,"is_disabled":false,"rental_uris":{"android":"levelo://app?vid=416ab53b-279a-422e-99c8-cc6e97f84422","ios":"levelo://app?vid=416ab53b-279a-422e-99c8-cc6e97f84422"},"vehicle_type_id":"4","last_reported":1735398441,"current_range_meters":38000,"station_id":"ce4bgh92rcd13ifvqb50","pricing_plan_id":"cebpf4jnsgd1na2vs0mg"},{"bike_id":"9330c3d3-b201-436f-aa9e-355e010ee145","system_id":"levelo_inurba_marseille","lat":43.28482,"lon":5.38401,"is_reserved":false,"is_disabled":false,"rental_uris":{"android":"levelo://app?vid=9330c3d3-b201-436f-aa9e-355e010ee145","ios":"levelo://app?vid=9330c3d3-b201-436f-aa9e-355e010ee145"},"vehicle_type_id":"4","last_reported":1735398441,"current_range_meters":30000,"station_id":"ce4bh512rcd13ifvqe3g","pricing_plan_id":"cebpf4jnsgd1na2vs0mg"},{"bike_id":"92e5199a-11b1-40ef-a476-dfdcbdf67ef6","system_id":"levelo_inurba_marseille","lat":43.30633,"lon":5.37262,"is_reserved":false,"is_disabled":false,"rental_uris":{"android":"levelo://app?vid=92e5199a-11b1-40ef-a476-dfdcbdf67ef6","ios":"levelo://app?vid=92e5199a-11b1-40ef-a476-dfdcbdf67ef6"},"vehicle_type_id":"4","last_reported":1735398441,"current_range_meters":18800,"station_id":"ce4bgqh2rcd13ifvqc4g","pricing_plan_id":"cebpf4jnsgd1na2vs0mg"},{"bike_id":"356fd92d-e963-40e6-b40e-58fc72ac9553","system_id":"levelo_inurba_marseille","lat":43.32108,"lon":5.3678,"is_reserved":false,"is_disabled":false,"rental_uris":{"android":"levelo://app?vid=356fd92d-e963-40e6-b40e-58fc72ac9553","ios":"levelo://app?vid=356fd92d-e963-40e6-b40e-58fc72ac9553"},"vehicle_type_id":"4","last_reported":1735398441,"current_range_meters":14000,"station_id":"ce4bhrh2rcd13ifvqhug","pricing_plan_id":"cebpf4jnsgd1na2vs0mg"},{"bike_id":"b9946797-e770-48ac-9bc5-6937e6a4e5a7","system_id":"levelo_inurba_marseille","lat":43.2549,"lon":5.37665,"is_reserved":false,"is_disabled":false,"rental_uris":{"android":"levelo://app?vid=b9946797-e770-48ac-9bc5-6937e6a4e5a7","ios":"levelo://app?vid=b9946797-e770-48ac-9bc5-6937e6a4e5a7"},"vehicle_type_id":"4","last_reported":1735398441,"current_range_meters":39200,"station_id":"ce4bhh12rcd13ifvqff0","pricing_plan_id":"cebpf4jnsgd1na2vs0mg"},{"bike_id":"275b3da6-774f-4761-a7dc-249dd30f5245","system_id":"levelo_inurba_marseille","lat":43.25735,"lon":5.4111,"is_reserved":false,"is_disabled":false,"rental_uris":{"android":"levelo://app?vid=275b3da6-774f-4761-a7dc-249dd30f5245","ios":"levelo://app?vid=275b3da6-774f-4761-a7dc-249dd30f5245"},"vehicle_type_id":"4","last_reported":1735398441,"current_range_meters":34000,"station_id":"ce4bhkp2rcd13ifvqgd0","pricing_plan_id":"cebpf4jnsgd1na2vs0mg"},{"bike_id":"0e8ddb04-2704-47bf-9b07-101e2ba656ba","system_id":"levelo_inurba_marseille","lat":43.30257,"lon":5.40047,"is_reserved":false,"is_disabled":false,"rental_uris":{"android":"levelo://app?vid=0e8ddb04-2704-47bf-9b07-101e2ba656ba","ios":"levelo://app?vid=0e8ddb04-2704-47bf-9b07-101e2ba656ba"},"vehicle_type_id":"4","last_reported":1735398441,"current_range_meters":39200,"station_id":"ce4bgvh2rcd13ifvqcs0","pricing_plan_id":"cebpf4jnsgd1na2vs0mg"},{"bike_id":"9fa57387-8cab-4068-bbfc-f71cf5d92d2d","system_id":"levelo_inurba_marseille","lat":43.29527,"lon":5.37494,"is_reserved":false,"is_disabled":false,"rental_uris":{"android":"levelo://app?vid=9fa57387-8cab-4068-bbfc-f71cf5d92d2d","ios":"levelo://app?vid=9fa57387-8cab-4068-bbfc-f71cf5d92d2d"},"vehicle_type_id":"4","last_reported":1735398441,"current_range_meters":35200,"station_id":"ce4bgkp2rcd13ifvqbmg","pricing_plan_id":"cebpf4jnsgd1na2vs0mg"},{"bike_id":"e8718ad8-52e8-42fb-af68-b806e0c8c535","system_id":"levelo_inurba_marseille","lat":43.23191,"lon":5.39988,"is_reserved":false,"is_disabled":false,"rental_uris":{"android":"levelo://app?vid=e8718ad8-52e8-42fb-af68-b806e0c8c535","ios":"levelo://app?vid=e8718ad8-52e8-42fb-af68-b806e0c8c535"},"vehicle_type_id":"4","last_reported":1735398441,"current_range_meters":38800,"station_id":"ce4bhn12rcd13ifvqgqg","pricing_plan_id":"cebpf4jnsgd1na2vs0mg"},{"bike_id":"9774bcd9-b442-414c-a034-9debfd1ae5d0","system_id":"levelo_inurba_marseille","lat":43.2603,"lon":5.37549,"is_reserved":false,"is_disabled":false,"rental_uris":{"android":"levelo://app?vid=9774bcd9-b442-414c-a034-9debfd1ae5d0","ios":"levelo://app?vid=9774bcd9-b442-414c-a034-9debfd1ae5d0"},"vehicle_type_id":"4","last_reported":1735398441,"current_range_meters":36800,"station_id":"ce4bhgh2rcd13ifvqfa0","pricing_plan_id":"cebpf4jnsgd1na2vs0mg"},{"bike_id":"673ed0fe-3027-4e1f-9efc-2804b0e32190","system_id":"levelo_inurba_marseille","lat":43.26688,"lon":5.38272,"is_reserved":false,"is_disabled":false,"rental_uris":{"android":"levelo://app?vid=673ed0fe-3027-4e1f-9efc-2804b0e32190","ios":"levelo://app?vid=673ed0fe-3027-4e1f-9efc-2804b0e32190"},"vehicle_type_id":"4","last_reported":1735398441,"current_range_meters":12000,"station_id":"ce4bhg92rcd13ifvqf90","pricing_plan_id":"cebpf4jnsgd1na2vs0mg"},{"bike_id":"d5101450-35a2-4780-97c1-855bd598e290","system_id":"levelo_inurba_marseille","lat":43.31494,"lon":5.37289,"is_reserved":false,"is_disabled":false,"rental_uris":{"android":"levelo://app?vid=d5101450-35a2-4780-97c1-855bd598e290","ios":"levelo://app?vid=d5101450-35a2-4780-97c1-855bd598e290"},"vehicle_type_id":"4","last_reported":1735398441,"current_range_meters":37600,"station_id":"ce4bgt12rcd13ifvqcd0","pricing_plan_id":"cebpf4jnsgd1na2vs0mg"},{"bike_id":"4edf1a42-d1cb-4e42-a8d9-af12f276347c","system_id":"levelo_inurba_marseille","lat":43.26939,"lon":5.40259,"is_reserved":false,"is_disabled":false,"rental_uris":{"android":"levelo://app?vid=4edf1a42-d1cb-4e42-a8d9-af12f276347c","ios":"levelo://app?vid=4edf1a42-d1cb-4e42-a8d9-af12f276347c"},"vehicle_type_id":"4","last_reported":1735398441,"current_range_meters":38800,"station_id":"cjm6bp8fraef2m0cb0m0","pricing_plan_id":"cebpf4jnsgd1na2vs0mg"},{"bike_id":"e251fbdc-aee1-4174-a904-a67fb7c0b1da","system_id":"levelo_inurba_marseille","lat":43.31758,"lon":5.39022,"is_reserved":false,"is_disabled":false,"rental_uris":{"android":"levelo://app?vid=e251fbdc-aee1-4174-a904-a67fb7c0b1da","ios":"levelo://app?vid=e251fbdc-aee1-4174-a904-a67fb7c0b1da"},"vehicle_type_id":"4","last_reported":1735398441,"current_range_meters":26800,"station_id":"ce4bhqp2rcd13ifvqhng","pricing_plan_id":"cebpf4jnsgd1na2vs0mg"},{"bike_id":"e20f4beb-3f10-40bd-9c79-8765ffed8b21","system_id":"levelo_inurba_marseille","lat":43.288343,"lon":5.392974,"is_reserved":false,"is_disabled":false,"rental_uris":{"android":"levelo://app?vid=e20f4beb-3f10-40bd-9c79-8765ffed8b21","ios":"levelo://app?vid=e20f4beb-3f10-40bd-9c79-8765ffed8b21"},"vehicle_type_id":"4","last_reported":1735398441,"current_range_meters":36800,"station_id":"ce4bh2p2rcd13ifvqdi0","pricing_plan_id":"cebpf4jnsgd1na2vs0mg"},{"bike_id":"182697cb-2219-4e08-8291-846687f91a97","system_id":"levelo_inurba_marseille","lat":43.28152,"lon":5.4264,"is_reserved":false,"is_disabled":false,"rental_uris":{"android":"levelo://app?vid=182697cb-2219-4e08-8291-846687f91a97","ios":"levelo://app?vid=182697cb-2219-4e08-8291-846687f91a97"},"vehicle_type_id":"4","last_reported":1735398441,"current_range_meters":4400,"station_id":"ce4bhnh2rcd13ifvqgug","pricing_plan_id":"cebpf4jnsgd1na2vs0mg"},{"bike_id":"0e2e2a21-ac7e-4ad7-a25e-487c50aecf5f","system_id":"levelo_inurba_marseille","lat":43.29198,"lon":5.35817,"is_reserved":false,"is_disabled":false,"rental_uris":{"android":"levelo://app?vid=0e2e2a21-ac7e-4ad7-a25e-487c50aecf5f","ios":"levelo://app?vid=0e2e2a21-ac7e-4ad7-a25e-487c50aecf5f"},"vehicle_type_id":"4","last_reported":1735398441,"current_range_meters":39200,"station_id":"ce4bhb12rcd13ifvqel0","pricing_plan_id":"cebpf4jnsgd1na2vs0mg"},{"bike_id":"e07f17cb-27ad-4f87-ba7c-7a4bd3b83819","system_id":"levelo_inurba_marseille","lat":43.32484,"lon":5.36568,"is_reserved":false,"is_disabled":false,"rental_uris":{"android":"levelo://app?vid=e07f17cb-27ad-4f87-ba7c-7a4bd3b83819","ios":"levelo://app?vid=e07f17cb-27ad-4f87-ba7c-7a4bd3b83819"},"vehicle_type_id":"4","last_reported":1735398441,"current_range_meters":38800,"station_id":"ce4bhs12rcd13ifvqhvg","pricing_plan_id":"cebpf4jnsgd1na2vs0mg"},{"bike_id":"622825f4-100c-4370-a3e7-a2ac977f5898","system_id":"levelo_inurba_marseille","lat":43.29904,"lon":5.38136,"is_reserved":false,"is_disabled":false,"rental_uris":{"android":"levelo://app?vid=622825f4-100c-4370-a3e7-a2ac977f5898","ios":"levelo://app?vid=622825f4-100c-4370-a3e7-a2ac977f5898"},"vehicle_type_id":"4","last_reported":1735398441,"current_range_meters":38800,"station_id":"ce4bgj12rcd13ifvqbc0","pricing_plan_id":"cebpf4jnsgd1na2vs0mg"},{"bike_id":"8a324e82-fc6f-428c-8634-fa950d167b96","system_id":"levelo_inurba_marseille","lat":43.28975,"lon":5.3783,"is_reserved":false,"is_disabled":false,"rental_uris":{"android":"levelo://app?vid=8a324e82-fc6f-428c-8634-fa950d167b96","ios":"levelo://app?vid=8a324e82-fc6f-428c-8634-fa950d167b96"},"vehicle_type_id":"4","last_reported":1735398441,"current_range_meters":39200,"station_id":"ce4bh9p2rcd13ifvqed0","pricing_plan_id":"cebpf4jnsgd1na2vs0mg"},{"bike_id":"d1528e8a-2773-4a8f-a2c9-30919d80d49f","system_id":"levelo_inurba_marseille","lat":43.26064,"lon":5.39398,"is_reserved":false,"is_disabled":false,"rental_uris":{"android":"levelo://app?vid=d1528e8a-2773-4a8f-a2c9-30919d80d49f","ios":"levelo://app?vid=d1528e8a-2773-4a8f-a2c9-30919d80d49f"},"vehicle_type_id":"4","last_reported":1735398441,"current_range_meters":28400,"station_id":"ce4bhh92rcd13ifvqfj0","pricing_plan_id":"cebpf4jnsgd1na2vs0mg"},{"bike_id":"02d1a785-568f-4790-a926-13accf20c75a","system_id":"levelo_inurba_marseille","lat":43.27986,"lon":5.41663,"is_reserved":false,"is_disabled":false,"rental_uris":{"android":"levelo://app?vid=02d1a785-568f-4790-a926-13accf20c75a","ios":"levelo://app?vid=02d1a785-568f-4790-a926-13accf20c75a"},"vehicle_type_id":"4","last_reported":1735398441,"current_range_meters":22800,"station_id":"ce4bho12rcd13ifvqh1g","pricing_plan_id":"cebpf4jnsgd1na2vs0mg"},{"bike_id":"84f342da-b355-4ce3-bc05-a6609a467057","system_id":"levelo_inurba_marseille","lat":43.27372,"lon":5.36243,"is_reserved":false,"is_disabled":false,"rental_uris":{"android":"levelo://app?vid=84f342da-b355-4ce3-bc05-a6609a467057","ios":"levelo://app?vid=84f342da-b355-4ce3-bc05-a6609a467057"},"vehicle_type_id":"4","last_reported":1735398441,"current_range_meters":28800,"station_id":"ce4bhbh2rcd13ifvqeo0","pricing_plan_id":"cebpf4jnsgd1na2vs0mg"},{"bike_id":"309a9554-13e3-4a27-8da4-4d931614d914","system_id":"levelo_inurba_marseille","lat":43.29005,"lon":5.38126,"is_reserved":false,"is_disabled":true,"rental_uris":{"android":"levelo://app?vid=309a9554-13e3-4a27-8da4-4d931614d914","ios":"levelo://app?vid=309a9554-13e3-4a27-8da4-4d931614d914"},"vehicle_type_id":"4","last_reported":1735398441,"current_range_meters":7200,"station_id":"ce4bh4p2rcd13ifvqe1g","pricing_plan_id":"cebpf4jnsgd1na2vs0mg"},{"bike_id":"d5ddbfd8-c695-45c7-8f75-3f1b7776c13d","system_id":"levelo_inurba_marseille","lat":43.22934,"lon":5.35373,"is_reserved":false,"is_disabled":false,"rental_uris":{"android":"levelo://app?vid=d5ddbfd8-c695-45c7-8f75-3f1b7776c13d","ios":"levelo://app?vid=d5ddbfd8-c695-45c7-8f75-3f1b7776c13d"},"vehicle_type_id":"4","last_reported":1735398441,"current_range_meters":38800,"station_id":"cpo3532slgdg3j2ikp40","pricing_plan_id":"cebpf4jnsgd1na2vs0mg"},{"bike_id":"eeb0d433-3c14-490c-a1c3-e6268649a012","system_id":"levelo_inurba_marseille","lat":43.27049,"lon":5.42313,"is_reserved":false,"is_disabled":false,"rental_uris":{"android":"levelo://app?vid=eeb0d433-3c14-490c-a1c3-e6268649a012","ios":"levelo://app?vid=eeb0d433-3c14-490c-a1c3-e6268649a012"},"vehicle_type_id":"4","last_reported":1735398441,"current_range_meters":36400,"station_id":"ce4bhk92rcd13ifvqgb0","pricing_plan_id":"cebpf4jnsgd1na2vs0mg"},{"bike_id":"2d76d9f4-5ac3-420c-b7d3-8710df44025b","system_id":"levelo_inurba_marseille","lat":43.2955,"lon":5.4228,"is_reserved":false,"is_disabled":false,"rental_uris":{"android":"levelo://app?vid=2d76d9f4-5ac3-420c-b7d3-8710df44025b","ios":"levelo://app?vid=2d76d9f4-5ac3-420c-b7d3-8710df44025b"},"vehicle_type_id":"4","last_reported":1735398441,"current_range_meters":14800,"station_id":"ce4bhph2rcd13ifvqhdg","pricing_plan_id":"cebpf4jnsgd1na2vs0mg"},{"bike_id":"5477d212-35e2-4622-b27a-bfe5ff434d03","system_id":"levelo_inurba_marseille","lat":43.337603,"lon":5.374424,"is_reserved":false,"is_disabled":false,"rental_uris":{"android":"levelo://app?vid=5477d212-35e2-4622-b27a-bfe5ff434d03","ios":"levelo://app?vid=5477d212-35e2-4622-b27a-bfe5ff434d03"},"vehicle_type_id":"4","last_reported":1735398441,"current_range_meters":24800,"station_id":"","pricing_plan_id":"cebpf4jnsgd1na2vs0mg"},{"bike_id":"254571ce-4bff-437b-8e26-03b746d4984d","system_id":"levelo_inurba_marseille","lat":43.31367,"lon":5.38491,"is_reserved":false,"is_disabled":false,"rental_uris":{"android":"levelo://app?vid=254571ce-4bff-437b-8e26-03b746d4984d","ios":"levelo://app?vid=254571ce-4bff-437b-8e26-03b746d4984d"},"vehicle_type_id":"4","last_reported":1735398441,"current_range_meters":36800,"station_id":"ce4bgt92rcd13ifvqcf0","pricing_plan_id":"cebpf4jnsgd1na2vs0mg"},{"bike_id":"aaa7d7d8-9b0c-413f-9511-b86c86ee8eb0","system_id":"levelo_inurba_marseille","lat":43.27055,"lon":5.4026,"is_reserved":false,"is_disabled":false,"rental_uris":{"android":"levelo://app?vid=aaa7d7d8-9b0c-413f-9511-b86c86ee8eb0","ios":"levelo://app?vid=aaa7d7d8-9b0c-413f-9511-b86c86ee8eb0"},"vehicle_type_id":"4","last_reported":1735398441,"current_range_meters":18000,"station_id":"ce4bhk92rcd13ifvqgc0","pricing_plan_id":"cebpf4jnsgd1na2vs0mg"},{"bike_id":"271218bd-4845-444e-a78d-39ec8576c72d","system_id":"levelo_inurba_marseille","lat":43.29573,"lon":5.37515,"is_reserved":false,"is_disabled":false,"rental_uris":{"android":"levelo://app?vid=271218bd-4845-444e-a78d-39ec8576c72d","ios":"levelo://app?vid=271218bd-4845-444e-a78d-39ec8576c72d"},"vehicle_type_id":"4","last_reported":1735398441,"current_range_meters":33200,"station_id":"ce4bgh92rcd13ifvqb50","pricing_plan_id":"cebpf4jnsgd1na2vs0mg"},{"bike_id":"eb7dfe78-b047-4a41-86fc-30512e1cee2f","system_id":"levelo_inurba_marseille","lat":43.30523,"lon":5.36524,"is_reserved":false,"is_disabled":false,"rental_uris":{"android":"levelo://app?vid=eb7dfe78-b047-4a41-86fc-30512e1cee2f","ios":"levelo://app?vid=eb7dfe78-b047-4a41-86fc-30512e1cee2f"},"vehicle_type_id":"4","last_reported":1735398441,"current_range_meters":30000,"station_id":"ce4bgs12rcd13ifvqcag","pricing_plan_id":"cebpf4jnsgd1na2vs0mg"},{"bike_id":"1acdc0a9-b870-49d9-acde-c6ed29cd0419","system_id":"levelo_inurba_marseille","lat":43.29798,"lon":5.38255,"is_reserved":false,"is_disabled":false,"rental_uris":{"android":"levelo://app?vid=1acdc0a9-b870-49d9-acde-c6ed29cd0419","ios":"levelo://app?vid=1acdc0a9-b870-49d9-acde-c6ed29cd0419"},"vehicle_type_id":"4","last_reported":1735398441,"current_range_meters":14000,"station_id":"ce4bgi92rcd13ifvqb90","pricing_plan_id":"cebpf4jnsgd1na2vs0mg"},{"bike_id":"cdf0580d-2eb0-4416-bf6d-dfab9d520a64","system_id":"levelo_inurba_marseille","lat":43.31263,"lon":5.36873,"is_reserved":false,"is_disabled":false,"rental_uris":{"android":"levelo://app?vid=cdf0580d-2eb0-4416-bf6d-dfab9d520a64","ios":"levelo://app?vid=cdf0580d-2eb0-4416-bf6d-dfab9d520a64"},"vehicle_type_id":"4","last_reported":1735398441,"current_range_meters":37600,"station_id":"ce4bgl92rcd13ifvqbq0","pricing_plan_id":"cebpf4jnsgd1na2vs0mg"},{"bike_id":"3dccb918-d8b3-4b61-94bf-9ba4d738cec8","system_id":"levelo_inurba_marseille","lat":43.29557,"lon":5.42268,"is_reserved":false,"is_disabled":false,"rental_uris":{"android":"levelo://app?vid=3dccb918-d8b3-4b61-94bf-9ba4d738cec8","ios":"levelo://app?vid=3dccb918-d8b3-4b61-94bf-9ba4d738cec8"},"vehicle_type_id":"4","last_reported":1735398441,"current_range_meters":26800,"station_id":"ce4bhph2rcd13ifvqhdg","pricing_plan_id":"cebpf4jnsgd1na2vs0mg"},{"bike_id":"28c0f513-f416-4292-a497-d5ce687b6b76","system_id":"levelo_inurba_marseille","lat":43.28988,"lon":5.37828,"is_reserved":false,"is_disabled":false,"rental_uris":{"android":"levelo://app?vid=28c0f513-f416-4292-a497-d5ce687b6b76","ios":"levelo://app?vid=28c0f513-f416-4292-a497-d5ce687b6b76"},"vehicle_type_id":"4","last_reported":1735398441,"current_range_meters":33600,"station_id":"ce4bh9p2rcd13ifvqed0","pricing_plan_id":"cebpf4jnsgd1na2vs0mg"},{"bike_id":"cedf33c7-0c6e-44d0-b641-3d4f75e24128","system_id":"levelo_inurba_marseille","lat":43.30561,"lon":5.3653,"is_reserved":false,"is_disabled":false,"rental_uris":{"android":"levelo://app?vid=cedf33c7-0c6e-44d0-b641-3d4f75e24128","ios":"levelo://app?vid=cedf33c7-0c6e-44d0-b641-3d4f75e24128"},"vehicle_type_id":"4","last_reported":1735398441,"current_range_meters":33200,"station_id":"ce4bgs12rcd13ifvqcag","pricing_plan_id":"cebpf4jnsgd1na2vs0mg"},{"bike_id":"ce391c99-c1d6-4555-9b26-f5b7a5fa066d","system_id":"levelo_inurba_marseille","lat":43.28355,"lon":5.381,"is_reserved":false,"is_disabled":false,"rental_uris":{"android":"levelo://app?vid=ce391c99-c1d6-4555-9b26-f5b7a5fa066d","ios":"levelo://app?vid=ce391c99-c1d6-4555-9b26-f5b7a5fa066d"},"vehicle_type_id":"4","last_reported":1735398441,"current_range_meters":39200,"station_id":"ce4bh412rcd13ifvqdr0","pricing_plan_id":"cebpf4jnsgd1na2vs0mg"},{"bike_id":"e82fa968-8cc5-4e9d-9e64-93cbca02a3c9","system_id":"levelo_inurba_marseille","lat":43.29509,"lon":5.375,"is_reserved":false,"is_disabled":false,"rental_uris":{"android":"levelo://app?vid=e82fa968-8cc5-4e9d-9e64-93cbca02a3c9","ios":"levelo://app?vid=e82fa968-8cc5-4e9d-9e64-93cbca02a3c9"},"vehicle_type_id":"4","last_reported":1735398441,"current_range_meters":11600,"station_id":"ce4bgkp2rcd13ifvqbmg","pricing_plan_id":"cebpf4jnsgd1na2vs0mg"},{"bike_id":"6bd48d81-28e7-45d3-91bb-c861a5a2eba5","system_id":"levelo_inurba_marseille","lat":43.26942,"lon":5.40256,"is_reserved":false,"is_disabled":false,"rental_uris":{"android":"levelo://app?vid=6bd48d81-28e7-45d3-91bb-c861a5a2eba5","ios":"levelo://app?vid=6bd48d81-28e7-45d3-91bb-c861a5a2eba5"},"vehicle_type_id":"4","last_reported":1735398441,"current_range_meters":38400,"station_id":"cjm6bp8fraef2m0cb0m0","pricing_plan_id":"cebpf4jnsgd1na2vs0mg"},{"bike_id":"a22c95b0-bb5a-4395-89aa-7219f65835a3","system_id":"levelo_inurba_marseille","lat":43.2904,"lon":5.39973,"is_reserved":false,"is_disabled":false,"rental_uris":{"android":"levelo://app?vid=a22c95b0-bb5a-4395-89aa-7219f65835a3","ios":"levelo://app?vid=a22c95b0-bb5a-4395-89aa-7219f65835a3"},"vehicle_type_id":"4","last_reported":1735398441,"current_range_meters":12400,"station_id":"ce4bh392rcd13ifvqdm0","pricing_plan_id":"cebpf4jnsgd1na2vs0mg"},{"bike_id":"18f320a9-6607-4d36-8c6f-1652222157dc","system_id":"levelo_inurba_marseille","lat":43.24075,"lon":5.37761,"is_reserved":false,"is_disabled":false,"rental_uris":{"android":"levelo://app?vid=18f320a9-6607-4d36-8c6f-1652222157dc","ios":"levelo://app?vid=18f320a9-6607-4d36-8c6f-1652222157dc"},"vehicle_type_id":"4","last_reported":1735398441,"current_range_meters":24000,"station_id":"ce4bhnp2rcd13ifvqgvg","pricing_plan_id":"cebpf4jnsgd1na2vs0mg"},{"bike_id":"7d43fb9c-136b-40f0-8a25-91c0334da5a7","system_id":"levelo_inurba_marseille","lat":43.29618,"lon":5.37733,"is_reserved":false,"is_disabled":false,"rental_uris":{"android":"levelo://app?vid=7d43fb9c-136b-40f0-8a25-91c0334da5a7","ios":"levelo://app?vid=7d43fb9c-136b-40f0-8a25-91c0334da5a7"},"vehicle_type_id":"4","last_reported":1735398441,"current_range_meters":27600,"station_id":"ce4bgi92rcd13ifvqb90","pricing_plan_id":"cebpf4jnsgd1na2vs0mg"},{"bike_id":"27001726-4b0a-4ba0-8261-5a303bdee373","system_id":"levelo_inurba_marseille","lat":43.27568,"lon":5.38404,"is_reserved":false,"is_disabled":false,"rental_uris":{"android":"levelo://app?vid=27001726-4b0a-4ba0-8261-5a303bdee373","ios":"levelo://app?vid=27001726-4b0a-4ba0-8261-5a303bdee373"},"vehicle_type_id":"4","last_reported":1735398441,"current_range_meters":38800,"station_id":"ce4bhh92rcd13ifvqfi0","pricing_plan_id":"cebpf4jnsgd1na2vs0mg"},{"bike_id":"421c6551-132c-4015-aab8-f2eccc5315e9","system_id":"levelo_inurba_marseille","lat":43.32918,"lon":5.39964,"is_reserved":false,"is_disabled":false,"rental_uris":{"android":"levelo://app?vid=421c6551-132c-4015-aab8-f2eccc5315e9","ios":"levelo://app?vid=421c6551-132c-4015-aab8-f2eccc5315e9"},"vehicle_type_id":"4","last_reported":1735398441,"current_range_meters":21600,"station_id":"ce4bhr92rcd13ifvqhrg","pricing_plan_id":"cebpf4jnsgd1na2vs0mg"},{"bike_id":"16eb736d-6bbb-49c0-b5c4-ac0ac23d3352","system_id":"levelo_inurba_marseille","lat":43.29259,"lon":5.40905,"is_reserved":false,"is_disabled":false,"rental_uris":{"android":"levelo://app?vid=16eb736d-6bbb-49c0-b5c4-ac0ac23d3352","ios":"levelo://app?vid=16eb736d-6bbb-49c0-b5c4-ac0ac23d3352"},"vehicle_type_id":"4","last_reported":1735398441,"current_range_meters":2800,"station_id":"ce4bh192rcd13ifvqdc0","pricing_plan_id":"cebpf4jnsgd1na2vs0mg"},{"bike_id":"d7294cd5-2623-434f-b244-c391219a24d9","system_id":"levelo_inurba_marseille","lat":43.30544,"lon":5.36695,"is_reserved":false,"is_disabled":false,"rental_uris":{"android":"levelo://app?vid=d7294cd5-2623-434f-b244-c391219a24d9","ios":"levelo://app?vid=d7294cd5-2623-434f-b244-c391219a24d9"},"vehicle_type_id":"4","last_reported":1735398441,"current_range_meters":27200,"station_id":"ce4bgrp2rcd13ifvqc9g","pricing_plan_id":"cebpf4jnsgd1na2vs0mg"},{"bike_id":"87a48cd1-ce9b-4509-ad0f-3bd3aa23cbe9","system_id":"levelo_inurba_marseille","lat":43.30549,"lon":5.36697,"is_reserved":false,"is_disabled":false,"rental_uris":{"android":"levelo://app?vid=87a48cd1-ce9b-4509-ad0f-3bd3aa23cbe9","ios":"levelo://app?vid=87a48cd1-ce9b-4509-ad0f-3bd3aa23cbe9"},"vehicle_type_id":"4","last_reported":1735398441,"current_range_meters":38800,"station_id":"ce4bgrp2rcd13ifvqc9g","pricing_plan_id":"cebpf4jnsgd1na2vs0mg"},{"bike_id":"e4f75123-5888-4725-b2e4-49ddd04e6f79","system_id":"levelo_inurba_marseille","lat":43.2873,"lon":5.36074,"is_reserved":false,"is_disabled":false,"rental_uris":{"android":"levelo://app?vid=e4f75123-5888-4725-b2e4-49ddd04e6f79","ios":"levelo://app?vid=e4f75123-5888-4725-b2e4-49ddd04e6f79"},"vehicle_type_id":"4","last_reported":1735398441,"current_range_meters":18000,"station_id":"cki0cbj6b192h4jlfktg","pricing_plan_id":"cebpf4jnsgd1na2vs0mg"},{"bike_id":"7ed14772-43fd-4e91-9682-602d4d8bddbc","system_id":"levelo_inurba_marseille","lat":43.2465,"lon":5.38899,"is_reserved":false,"is_disabled":false,"rental_uris":{"android":"levelo://app?vid=7ed14772-43fd-4e91-9682-602d4d8bddbc","ios":"levelo://app?vid=7ed14772-43fd-4e91-9682-602d4d8bddbc"},"vehicle_type_id":"4","last_reported":1735398441,"current_range_meters":39200,"station_id":"ce4bhg12rcd13ifvqf60","pricing_plan_id":"cebpf4jnsgd1na2vs0mg"},{"bike_id":"bb8bfb2b-6b72-412c-929c-03030cbb22d8","system_id":"levelo_inurba_marseille","lat":43.28669,"lon":5.38664,"is_reserved":false,"is_disabled":false,"rental_uris":{"android":"levelo://app?vid=bb8bfb2b-6b72-412c-929c-03030cbb22d8","ios":"levelo://app?vid=bb8bfb2b-6b72-412c-929c-03030cbb22d8"},"vehicle_type_id":"4","last_reported":1735398441,"current_range_meters":18000,"station_id":"ce4bh492rcd13ifvqdug","pricing_plan_id":"cebpf4jnsgd1na2vs0mg"},{"bike_id":"c9e5d6c6-5601-4769-be5c-20fef93ca121","system_id":"levelo_inurba_marseille","lat":43.24163,"lon":5.36395,"is_reserved":false,"is_disabled":false,"rental_uris":{"android":"levelo://app?vid=c9e5d6c6-5601-4769-be5c-20fef93ca121","ios":"levelo://app?vid=c9e5d6c6-5601-4769-be5c-20fef93ca121"},"vehicle_type_id":"4","last_reported":1735398441,"current_range_meters":17200,"station_id":"cpo36qri1sfpv3e86is0","pricing_plan_id":"cebpf4jnsgd1na2vs0mg"},{"bike_id":"e23a7d55-7ce1-4f20-a71a-26c06c907d82","system_id":"levelo_inurba_marseille","lat":43.27952,"lon":5.41051,"is_reserved":false,"is_disabled":false,"rental_uris":{"android":"levelo://app?vid=e23a7d55-7ce1-4f20-a71a-26c06c907d82","ios":"levelo://app?vid=e23a7d55-7ce1-4f20-a71a-26c06c907d82"},"vehicle_type_id":"4","last_reported":1735398441,"current_range_meters":35600,"station_id":"ce4bhnp2rcd13ifvqh0g","pricing_plan_id":"cebpf4jnsgd1na2vs0mg"},{"bike_id":"88d25dc6-77d7-4a14-94e3-b489df5b3b63","system_id":"levelo_inurba_marseille","lat":43.32494,"lon":5.36602,"is_reserved":false,"is_disabled":false,"rental_uris":{"android":"levelo://app?vid=88d25dc6-77d7-4a14-94e3-b489df5b3b63","ios":"levelo://app?vid=88d25dc6-77d7-4a14-94e3-b489df5b3b63"},"vehicle_type_id":"4","last_reported":1735398441,"current_range_meters":38800,"station_id":"ce4bhs12rcd13ifvqhvg","pricing_plan_id":"cebpf4jnsgd1na2vs0mg"},{"bike_id":"5367a292-5564-4681-91cd-97babb89fc00","system_id":"levelo_inurba_marseille","lat":43.22945,"lon":5.35372,"is_reserved":false,"is_disabled":true,"rental_uris":{"android":"levelo://app?vid=5367a292-5564-4681-91cd-97babb89fc00","ios":"levelo://app?vid=5367a292-5564-4681-91cd-97babb89fc00"},"vehicle_type_id":"4","last_reported":1735398441,"current_range_meters":0,"station_id":"cpo3532slgdg3j2ikp40","pricing_plan_id":"cebpf4jnsgd1na2vs0mg"},{"bike_id":"b63b9eb6-fafc-4c7c-ad91-57273b105b52","system_id":"levelo_inurba_marseille","lat":43.29901,"lon":5.38156,"is_reserved":false,"is_disabled":false,"rental_uris":{"android":"levelo://app?vid=b63b9eb6-fafc-4c7c-ad91-57273b105b52","ios":"levelo://app?vid=b63b9eb6-fafc-4c7c-ad91-57273b105b52"},"vehicle_type_id":"4","last_reported":1735398441,"current_range_meters":38000,"station_id":"ce4bgj12rcd13ifvqbc0","pricing_plan_id":"cebpf4jnsgd1na2vs0mg"},{"bike_id":"62fc508b-d74b-4767-9d75-d52f657eccde","system_id":"levelo_inurba_marseille","lat":43.2942,"lon":5.38618,"is_reserved":false,"is_disabled":false,"rental_uris":{"android":"levelo://app?vid=62fc508b-d74b-4767-9d75-d52f657eccde","ios":"levelo://app?vid=62fc508b-d74b-4767-9d75-d52f657eccde"},"vehicle_type_id":"4","last_reported":1735398441,"current_range_meters":32400,"station_id":"ce4bh2h2rcd13ifvqdh0","pricing_plan_id":"cebpf4jnsgd1na2vs0mg"},{"bike_id":"eba10033-af5b-4512-940f-5dddc3323335","system_id":"levelo_inurba_marseille","lat":43.30149,"lon":5.38078,"is_reserved":false,"is_disabled":false,"rental_uris":{"android":"levelo://app?vid=eba10033-af5b-4512-940f-5dddc3323335","ios":"levelo://app?vid=eba10033-af5b-4512-940f-5dddc3323335"},"vehicle_type_id":"4","last_reported":1735398441,"current_range_meters":35200,"station_id":"ce4bgjp2rcd13ifvqbh0","pricing_plan_id":"cebpf4jnsgd1na2vs0mg"},{"bike_id":"20f7d6f1-21a4-47bb-a041-095976d5894f","system_id":"levelo_inurba_marseille","lat":43.27386,"lon":5.36239,"is_reserved":false,"is_disabled":false,"rental_uris":{"android":"levelo://app?vid=20f7d6f1-21a4-47bb-a041-095976d5894f","ios":"levelo://app?vid=20f7d6f1-21a4-47bb-a041-095976d5894f"},"vehicle_type_id":"4","last_reported":1735398441,"current_range_meters":20000,"station_id":"ce4bhbh2rcd13ifvqeo0","pricing_plan_id":"cebpf4jnsgd1na2vs0mg"},{"bike_id":"42b36bd5-a55a-4b66-b708-f54e6d6f62d5","system_id":"levelo_inurba_marseille","lat":43.30542,"lon":5.36559,"is_reserved":false,"is_disabled":false,"rental_uris":{"android":"levelo://app?vid=42b36bd5-a55a-4b66-b708-f54e6d6f62d5","ios":"levelo://app?vid=42b36bd5-a55a-4b66-b708-f54e6d6f62d5"},"vehicle_type_id":"4","last_reported":1735398441,"current_range_meters":12800,"station_id":"ce4bgs12rcd13ifvqcag","pricing_plan_id":"cebpf4jnsgd1na2vs0mg"},{"bike_id":"7e93b58e-5b32-4e0c-bd52-131df53e9bd0","system_id":"levelo_inurba_marseille","lat":43.27053,"lon":5.4026,"is_reserved":false,"is_disabled":false,"rental_uris":{"android":"levelo://app?vid=7e93b58e-5b32-4e0c-bd52-131df53e9bd0","ios":"levelo://app?vid=7e93b58e-5b32-4e0c-bd52-131df53e9bd0"},"vehicle_type_id":"4","last_reported":1735398441,"current_range_meters":31200,"station_id":"ce4bhk92rcd13ifvqgc0","pricing_plan_id":"cebpf4jnsgd1na2vs0mg"},{"bike_id":"a00c5e20-068e-446c-872e-260fe1c04f85","system_id":"levelo_inurba_marseille","lat":43.29367,"lon":5.3784,"is_reserved":false,"is_disabled":false,"rental_uris":{"android":"levelo://app?vid=a00c5e20-068e-446c-872e-260fe1c04f85","ios":"levelo://app?vid=a00c5e20-068e-446c-872e-260fe1c04f85"},"vehicle_type_id":"4","last_reported":1735398441,"current_range_meters":39200,"station_id":"ce4bgjh2rcd13ifvqbf0","pricing_plan_id":"cebpf4jnsgd1na2vs0mg"},{"bike_id":"d1bbd01c-0034-46c4-bf37-3205fa085f62","system_id":"levelo_inurba_marseille","lat":43.297013,"lon":5.377144,"is_reserved":false,"is_disabled":false,"rental_uris":{"android":"levelo://app?vid=d1bbd01c-0034-46c4-bf37-3205fa085f62","ios":"levelo://app?vid=d1bbd01c-0034-46c4-bf37-3205fa085f62"},"vehicle_type_id":"4","last_reported":1735398441,"current_range_meters":38800,"station_id":"ce4bgkh2rcd13ifvqbl0","pricing_plan_id":"cebpf4jnsgd1na2vs0mg"},{"bike_id":"deb74dd6-caed-4958-9dd1-d5f6f39c849d","system_id":"levelo_inurba_marseille","lat":43.298494,"lon":5.36282,"is_reserved":false,"is_disabled":false,"rental_uris":{"android":"levelo://app?vid=deb74dd6-caed-4958-9dd1-d5f6f39c849d","ios":"levelo://app?vid=deb74dd6-caed-4958-9dd1-d5f6f39c849d"},"vehicle_type_id":"4","last_reported":1735398441,"current_range_meters":25200,"station_id":"ce4bgpp2rcd13ifvqc3g","pricing_plan_id":"cebpf4jnsgd1na2vs0mg"},{"bike_id":"15c2670d-f807-47f7-9fbe-1c14fcb46679","system_id":"levelo_inurba_marseille","lat":43.28477,"lon":5.38411,"is_reserved":false,"is_disabled":false,"rental_uris":{"android":"levelo://app?vid=15c2670d-f807-47f7-9fbe-1c14fcb46679","ios":"levelo://app?vid=15c2670d-f807-47f7-9fbe-1c14fcb46679"},"vehicle_type_id":"4","last_reported":1735398441,"current_range_meters":22000,"station_id":"ce4bh512rcd13ifvqe3g","pricing_plan_id":"cebpf4jnsgd1na2vs0mg"},{"bike_id":"6dd29a32-3939-4699-8fa4-b80d9d209bc5","system_id":"levelo_inurba_marseille","lat":43.2957,"lon":5.39981,"is_reserved":false,"is_disabled":false,"rental_uris":{"android":"levelo://app?vid=6dd29a32-3939-4699-8fa4-b80d9d209bc5","ios":"levelo://app?vid=6dd29a32-3939-4699-8fa4-b80d9d209bc5"},"vehicle_type_id":"4","last_reported":1735398441,"current_range_meters":28800,"station_id":"ce4bh312rcd13ifvqdj0","pricing_plan_id":"cebpf4jnsgd1na2vs0mg"},{"bike_id":"293671a8-67e1-4d08-a7c6-ed1760e6dded","system_id":"levelo_inurba_marseille","lat":43.31769,"lon":5.39018,"is_reserved":false,"is_disabled":false,"rental_uris":{"android":"levelo://app?vid=293671a8-67e1-4d08-a7c6-ed1760e6dded","ios":"levelo://app?vid=293671a8-67e1-4d08-a7c6-ed1760e6dded"},"vehicle_type_id":"4","last_reported":1735398441,"current_range_meters":35600,"station_id":"ce4bhqp2rcd13ifvqhng","pricing_plan_id":"cebpf4jnsgd1na2vs0mg"},{"bike_id":"1d3dd313-4e6a-4e4c-9762-bb21d675f1b2","system_id":"levelo_inurba_marseille","lat":43.26806,"lon":5.40258,"is_reserved":false,"is_disabled":false,"rental_uris":{"android":"levelo://app?vid=1d3dd313-4e6a-4e4c-9762-bb21d675f1b2","ios":"levelo://app?vid=1d3dd313-4e6a-4e4c-9762-bb21d675f1b2"},"vehicle_type_id":"4","last_reported":1735398441,"current_range_meters":38800,"station_id":"ce501612rcd8frsf0b60","pricing_plan_id":"cebpf4jnsgd1na2vs0mg"},{"bike_id":"b23c0590-ef54-41cd-8583-62a444448403","system_id":"levelo_inurba_marseille","lat":43.298445,"lon":5.362899,"is_reserved":false,"is_disabled":false,"rental_uris":{"android":"levelo://app?vid=b23c0590-ef54-41cd-8583-62a444448403","ios":"levelo://app?vid=b23c0590-ef54-41cd-8583-62a444448403"},"vehicle_type_id":"4","last_reported":1735398441,"current_range_meters":35600,"station_id":"ce4bgpp2rcd13ifvqc3g","pricing_plan_id":"cebpf4jnsgd1na2vs0mg"},{"bike_id":"dac94ecf-3203-4c89-acc0-21c14e979588","system_id":"levelo_inurba_marseille","lat":43.26691,"lon":5.38267,"is_reserved":false,"is_disabled":false,"rental_uris":{"android":"levelo://app?vid=dac94ecf-3203-4c89-acc0-21c14e979588","ios":"levelo://app?vid=dac94ecf-3203-4c89-acc0-21c14e979588"},"vehicle_type_id":"4","last_reported":1735398441,"current_range_meters":31200,"station_id":"ce4bhg92rcd13ifvqf90","pricing_plan_id":"cebpf4jnsgd1na2vs0mg"},{"bike_id":"598bbdda-da2a-42e0-8e4b-8cda47ca303a","system_id":"levelo_inurba_marseille","lat":43.31239,"lon":5.36865,"is_reserved":false,"is_disabled":false,"rental_uris":{"android":"levelo://app?vid=598bbdda-da2a-42e0-8e4b-8cda47ca303a","ios":"levelo://app?vid=598bbdda-da2a-42e0-8e4b-8cda47ca303a"},"vehicle_type_id":"4","last_reported":1735398441,"current_range_meters":22400,"station_id":"ce4bgl92rcd13ifvqbq0","pricing_plan_id":"cebpf4jnsgd1na2vs0mg"},{"bike_id":"6da84718-7801-428e-8274-b5f24fa6f778","system_id":"levelo_inurba_marseille","lat":43.30151,"lon":5.38097,"is_reserved":false,"is_disabled":false,"rental_uris":{"android":"levelo://app?vid=6da84718-7801-428e-8274-b5f24fa6f778","ios":"levelo://app?vid=6da84718-7801-428e-8274-b5f24fa6f778"},"vehicle_type_id":"4","last_reported":1735398441,"current_range_meters":32000,"station_id":"ce4bgjp2rcd13ifvqbh0","pricing_plan_id":"cebpf4jnsgd1na2vs0mg"},{"bike_id":"d787e330-e288-4e1c-926a-5bcb7a236ca2","system_id":"levelo_inurba_marseille","lat":43.2816,"lon":5.42646,"is_reserved":false,"is_disabled":false,"rental_uris":{"android":"levelo://app?vid=d787e330-e288-4e1c-926a-5bcb7a236ca2","ios":"levelo://app?vid=d787e330-e288-4e1c-926a-5bcb7a236ca2"},"vehicle_type_id":"4","last_reported":1735398441,"current_range_meters":28000,"station_id":"ce4bhnh2rcd13ifvqgug","pricing_plan_id":"cebpf4jnsgd1na2vs0mg"},{"bike_id":"659c203a-d834-47ad-b2d3-cdc7f6253227","system_id":"levelo_inurba_marseille","lat":43.27979,"lon":5.38707,"is_reserved":false,"is_disabled":false,"rental_uris":{"android":"levelo://app?vid=659c203a-d834-47ad-b2d3-cdc7f6253227","ios":"levelo://app?vid=659c203a-d834-47ad-b2d3-cdc7f6253227"},"vehicle_type_id":"4","last_reported":1735398441,"current_range_meters":38400,"station_id":"ce4bhg12rcd13ifvqf80","pricing_plan_id":"cebpf4jnsgd1na2vs0mg"},{"bike_id":"3b4909f5-d4f4-482b-be00-88be0de94366","system_id":"levelo_inurba_marseille","lat":43.27374,"lon":5.36241,"is_reserved":false,"is_disabled":false,"rental_uris":{"android":"levelo://app?vid=3b4909f5-d4f4-482b-be00-88be0de94366","ios":"levelo://app?vid=3b4909f5-d4f4-482b-be00-88be0de94366"},"vehicle_type_id":"4","last_reported":1735398441,"current_range_meters":20000,"station_id":"ce4bhbh2rcd13ifvqeo0","pricing_plan_id":"cebpf4jnsgd1na2vs0mg"},{"bike_id":"6b579508-5354-439e-a4e0-4261173e8d8b","system_id":"levelo_inurba_marseille","lat":43.299112,"lon":5.374777,"is_reserved":false,"is_disabled":false,"rental_uris":{"android":"levelo://app?vid=6b579508-5354-439e-a4e0-4261173e8d8b","ios":"levelo://app?vid=6b579508-5354-439e-a4e0-4261173e8d8b"},"vehicle_type_id":"4","last_reported":1735398441,"current_range_meters":38800,"station_id":"ce4bgjh2rcd13ifvqbg0","pricing_plan_id":"cebpf4jnsgd1na2vs0mg"},{"bike_id":"fc55ee07-cb79-4880-8466-c9fe9e754cca","system_id":"levelo_inurba_marseille","lat":43.323626,"lon":5.367532,"is_reserved":false,"is_disabled":false,"rental_uris":{"android":"levelo://app?vid=fc55ee07-cb79-4880-8466-c9fe9e754cca","ios":"levelo://app?vid=fc55ee07-cb79-4880-8466-c9fe9e754cca"},"vehicle_type_id":"4","last_reported":1735398441,"current_range_meters":23200,"station_id":"ce4bhsh2rcd13ifvqi2g","pricing_plan_id":"cebpf4jnsgd1na2vs0mg"},{"bike_id":"ccdbfb0c-9f4b-4c6f-919d-2f7ab27f06f7","system_id":"levelo_inurba_marseille","lat":43.29263,"lon":5.3844,"is_reserved":false,"is_disabled":false,"rental_uris":{"android":"levelo://app?vid=ccdbfb0c-9f4b-4c6f-919d-2f7ab27f06f7","ios":"levelo://app?vid=ccdbfb0c-9f4b-4c6f-919d-2f7ab27f06f7"},"vehicle_type_id":"4","last_reported":1735398441,"current_range_meters":38800,"station_id":"ce4bh692rcd13ifvqea0","pricing_plan_id":"cebpf4jnsgd1na2vs0mg"},{"bike_id":"ffc2d679-3a4c-45e9-9a44-5ce4c4db5ea0","system_id":"levelo_inurba_marseille","lat":43.31755,"lon":5.39016,"is_reserved":false,"is_disabled":false,"rental_uris":{"android":"levelo://app?vid=ffc2d679-3a4c-45e9-9a44-5ce4c4db5ea0","ios":"levelo://app?vid=ffc2d679-3a4c-45e9-9a44-5ce4c4db5ea0"},"vehicle_type_id":"4","last_reported":1735398441,"current_range_meters":22000,"station_id":"ce4bhqp2rcd13ifvqhng","pricing_plan_id":"cebpf4jnsgd1na2vs0mg"},{"bike_id":"e66bfa74-9d11-484a-82a0-ee03e52a4906","system_id":"levelo_inurba_marseille","lat":43.29742,"lon":5.37661,"is_reserved":false,"is_disabled":false,"rental_uris":{"android":"levelo://app?vid=e66bfa74-9d11-484a-82a0-ee03e52a4906","ios":"levelo://app?vid=e66bfa74-9d11-484a-82a0-ee03e52a4906"},"vehicle_type_id":"4","last_reported":1735398441,"current_range_meters":37600,"station_id":"ce4bgkh2rcd13ifvqbl0","pricing_plan_id":"cebpf4jnsgd1na2vs0mg"},{"bike_id":"30d4a801-331c-4d1a-b0d3-77bd8ba6875b","system_id":"levelo_inurba_marseille","lat":43.22931,"lon":5.35387,"is_reserved":false,"is_disabled":false,"rental_uris":{"android":"levelo://app?vid=30d4a801-331c-4d1a-b0d3-77bd8ba6875b","ios":"levelo://app?vid=30d4a801-331c-4d1a-b0d3-77bd8ba6875b"},"vehicle_type_id":"4","last_reported":1735398441,"current_range_meters":21600,"station_id":"cpo3532slgdg3j2ikp40","pricing_plan_id":"cebpf4jnsgd1na2vs0mg"},{"bike_id":"e58b0d77-06a8-43b0-ba97-19d0ab31ae7c","system_id":"levelo_inurba_marseille","lat":43.27381,"lon":5.36253,"is_reserved":false,"is_disabled":false,"rental_uris":{"android":"levelo://app?vid=e58b0d77-06a8-43b0-ba97-19d0ab31ae7c","ios":"levelo://app?vid=e58b0d77-06a8-43b0-ba97-19d0ab31ae7c"},"vehicle_type_id":"4","last_reported":1735398441,"current_range_meters":30000,"station_id":"ce4bhbh2rcd13ifvqeo0","pricing_plan_id":"cebpf4jnsgd1na2vs0mg"},{"bike_id":"efb7f8e3-c35c-4fb3-a3c0-f8da43a86730","system_id":"levelo_inurba_marseille","lat":43.29987,"lon":5.37179,"is_reserved":false,"is_disabled":false,"rental_uris":{"android":"levelo://app?vid=efb7f8e3-c35c-4fb3-a3c0-f8da43a86730","ios":"levelo://app?vid=efb7f8e3-c35c-4fb3-a3c0-f8da43a86730"},"vehicle_type_id":"4","last_reported":1735398441,"current_range_meters":38000,"station_id":"ce4bgr92rcd13ifvqc7g","pricing_plan_id":"cebpf4jnsgd1na2vs0mg"},{"bike_id":"fed4ae3c-669c-4ef8-a7f6-6ffc6974466d","system_id":"levelo_inurba_marseille","lat":43.29552,"lon":5.375,"is_reserved":false,"is_disabled":false,"rental_uris":{"android":"levelo://app?vid=fed4ae3c-669c-4ef8-a7f6-6ffc6974466d","ios":"levelo://app?vid=fed4ae3c-669c-4ef8-a7f6-6ffc6974466d"},"vehicle_type_id":"4","last_reported":1735398441,"current_range_meters":38800,"station_id":"ce4bgkp2rcd13ifvqbmg","pricing_plan_id":"cebpf4jnsgd1na2vs0mg"},{"bike_id":"56c73288-93d5-4af1-8b97-0c1b646225aa","system_id":"levelo_inurba_marseille","lat":43.29915,"lon":5.38148,"is_reserved":false,"is_disabled":false,"rental_uris":{"android":"levelo://app?vid=56c73288-93d5-4af1-8b97-0c1b646225aa","ios":"levelo://app?vid=56c73288-93d5-4af1-8b97-0c1b646225aa"},"vehicle_type_id":"4","last_reported":1735398441,"current_range_meters":17600,"station_id":"ce4bgj12rcd13ifvqbc0","pricing_plan_id":"cebpf4jnsgd1na2vs0mg"},{"bike_id":"83830a46-f3a4-4506-b996-32d3c1a80099","system_id":"levelo_inurba_marseille","lat":43.27994,"lon":5.40019,"is_reserved":false,"is_disabled":false,"rental_uris":{"android":"levelo://app?vid=83830a46-f3a4-4506-b996-32d3c1a80099","ios":"levelo://app?vid=83830a46-f3a4-4506-b996-32d3c1a80099"},"vehicle_type_id":"4","last_reported":1735398441,"current_range_meters":22400,"station_id":"ce4bho92rcd13ifvqh4g","pricing_plan_id":"cebpf4jnsgd1na2vs0mg"},{"bike_id":"71472b59-3a52-4b90-81ac-b5ccb3920d76","system_id":"levelo_inurba_marseille","lat":43.29255,"lon":5.40904,"is_reserved":false,"is_disabled":false,"rental_uris":{"android":"levelo://app?vid=71472b59-3a52-4b90-81ac-b5ccb3920d76","ios":"levelo://app?vid=71472b59-3a52-4b90-81ac-b5ccb3920d76"},"vehicle_type_id":"4","last_reported":1735398441,"current_range_meters":34800,"station_id":"ce4bh192rcd13ifvqdc0","pricing_plan_id":"cebpf4jnsgd1na2vs0mg"},{"bike_id":"01dbbb80-29a0-4df3-bbd8-9be1a586ae47","system_id":"levelo_inurba_marseille","lat":43.24085,"lon":5.37753,"is_reserved":false,"is_disabled":false,"rental_uris":{"android":"levelo://app?vid=01dbbb80-29a0-4df3-bbd8-9be1a586ae47","ios":"levelo://app?vid=01dbbb80-29a0-4df3-bbd8-9be1a586ae47"},"vehicle_type_id":"4","last_reported":1735398441,"current_range_meters":27600,"station_id":"ce4bhnp2rcd13ifvqgvg","pricing_plan_id":"cebpf4jnsgd1na2vs0mg"},{"bike_id":"8d8ab9aa-6a8c-4b60-8eb4-582e56ecfed6","system_id":"levelo_inurba_marseille","lat":43.25505,"lon":5.37656,"is_reserved":false,"is_disabled":false,"rental_uris":{"android":"levelo://app?vid=8d8ab9aa-6a8c-4b60-8eb4-582e56ecfed6","ios":"levelo://app?vid=8d8ab9aa-6a8c-4b60-8eb4-582e56ecfed6"},"vehicle_type_id":"4","last_reported":1735398441,"current_range_meters":26000,"station_id":"ce4bhh12rcd13ifvqff0","pricing_plan_id":"cebpf4jnsgd1na2vs0mg"},{"bike_id":"c692ab16-ba63-46d8-8f87-1924391c3a6e","system_id":"levelo_inurba_marseille","lat":43.24176,"lon":5.36392,"is_reserved":false,"is_disabled":false,"rental_uris":{"android":"levelo://app?vid=c692ab16-ba63-46d8-8f87-1924391c3a6e","ios":"levelo://app?vid=c692ab16-ba63-46d8-8f87-1924391c3a6e"},"vehicle_type_id":"4","last_reported":1735398441,"current_range_meters":31200,"station_id":"cpo36qri1sfpv3e86is0","pricing_plan_id":"cebpf4jnsgd1na2vs0mg"},{"bike_id":"28c039f0-0fc3-4b78-ac93-62877efef832","system_id":"levelo_inurba_marseille","lat":43.29691,"lon":5.37704,"is_reserved":false,"is_disabled":false,"rental_uris":{"android":"levelo://app?vid=28c039f0-0fc3-4b78-ac93-62877efef832","ios":"levelo://app?vid=28c039f0-0fc3-4b78-ac93-62877efef832"},"vehicle_type_id":"4","last_reported":1735398441,"current_range_meters":38800,"station_id":"ce4bgkh2rcd13ifvqbl0","pricing_plan_id":"cebpf4jnsgd1na2vs0mg"},{"bike_id":"20b702aa-3626-48a1-97f9-356e9ae45714","system_id":"levelo_inurba_marseille","lat":43.32482,"lon":5.36569,"is_reserved":false,"is_disabled":false,"rental_uris":{"android":"levelo://app?vid=20b702aa-3626-48a1-97f9-356e9ae45714","ios":"levelo://app?vid=20b702aa-3626-48a1-97f9-356e9ae45714"},"vehicle_type_id":"4","last_reported":1735398441,"current_range_meters":36400,"station_id":"ce4bhs12rcd13ifvqhvg","pricing_plan_id":"cebpf4jnsgd1na2vs0mg"},{"bike_id":"567cd1a1-95b8-4fb0-91c5-a37906b8f3a0","system_id":"levelo_inurba_marseille","lat":43.27615,"lon":5.36116,"is_reserved":false,"is_disabled":false,"rental_uris":{"android":"levelo://app?vid=567cd1a1-95b8-4fb0-91c5-a37906b8f3a0","ios":"levelo://app?vid=567cd1a1-95b8-4fb0-91c5-a37906b8f3a0"},"vehicle_type_id":"4","last_reported":1735398441,"current_range_meters":37600,"station_id":"ce4bgj92rcd13ifvqbe0","pricing_plan_id":"cebpf4jnsgd1na2vs0mg"},{"bike_id":"c4fa8b26-bff7-4443-9f60-4eb78ee47219","system_id":"levelo_inurba_marseille","lat":43.337444,"lon":5.374475,"is_reserved":false,"is_disabled":false,"rental_uris":{"android":"levelo://app?vid=c4fa8b26-bff7-4443-9f60-4eb78ee47219","ios":"levelo://app?vid=c4fa8b26-bff7-4443-9f60-4eb78ee47219"},"vehicle_type_id":"4","last_reported":1735398441,"current_range_meters":36400,"station_id":"","pricing_plan_id":"cebpf4jnsgd1na2vs0mg"},{"bike_id":"20c4e2eb-872b-4a3e-ac51-f3c137ac7089","system_id":"levelo_inurba_marseille","lat":43.299029,"lon":5.381469,"is_reserved":false,"is_disabled":false,"rental_uris":{"android":"levelo://app?vid=20c4e2eb-872b-4a3e-ac51-f3c137ac7089","ios":"levelo://app?vid=20c4e2eb-872b-4a3e-ac51-f3c137ac7089"},"vehicle_type_id":"4","last_reported":1735398441,"current_range_meters":22800,"station_id":"ce4bgj12rcd13ifvqbc0","pricing_plan_id":"cebpf4jnsgd1na2vs0mg"},{"bike_id":"dca9078b-0ef8-4c73-afb5-b9033d4091ab","system_id":"levelo_inurba_marseille","lat":43.2922,"lon":5.36058,"is_reserved":false,"is_disabled":false,"rental_uris":{"android":"levelo://app?vid=dca9078b-0ef8-4c73-afb5-b9033d4091ab","ios":"levelo://app?vid=dca9078b-0ef8-4c73-afb5-b9033d4091ab"},"vehicle_type_id":"4","last_reported":1735398441,"current_range_meters":32400,"station_id":"ce4bhbh2rcd13ifvqeqg","pricing_plan_id":"cebpf4jnsgd1na2vs0mg"},{"bike_id":"61f1cd1c-2b90-4948-9dbf-bf1ed831f763","system_id":"levelo_inurba_marseille","lat":43.29974,"lon":5.37164,"is_reserved":false,"is_disabled":false,"rental_uris":{"android":"levelo://app?vid=61f1cd1c-2b90-4948-9dbf-bf1ed831f763","ios":"levelo://app?vid=61f1cd1c-2b90-4948-9dbf-bf1ed831f763"},"vehicle_type_id":"4","last_reported":1735398441,"current_range_meters":39200,"station_id":"ce4bgr92rcd13ifvqc7g","pricing_plan_id":"cebpf4jnsgd1na2vs0mg"},{"bike_id":"e41df43f-7201-4233-a10d-80f4bf3ee667","system_id":"levelo_inurba_marseille","lat":43.27838,"lon":5.39208,"is_reserved":false,"is_disabled":false,"rental_uris":{"android":"levelo://app?vid=e41df43f-7201-4233-a10d-80f4bf3ee667","ios":"levelo://app?vid=e41df43f-7201-4233-a10d-80f4bf3ee667"},"vehicle_type_id":"4","last_reported":1735398441,"current_range_meters":38800,"station_id":"ce4bhjp2rcd13ifvqga0","pricing_plan_id":"cebpf4jnsgd1na2vs0mg"},{"bike_id":"8772cf26-6f23-4510-a4f8-f0b8db8a9b17","system_id":"levelo_inurba_marseille","lat":43.31715,"lon":5.43701,"is_reserved":false,"is_disabled":false,"rental_uris":{"android":"levelo://app?vid=8772cf26-6f23-4510-a4f8-f0b8db8a9b17","ios":"levelo://app?vid=8772cf26-6f23-4510-a4f8-f0b8db8a9b17"},"vehicle_type_id":"4","last_reported":1735398441,"current_range_meters":23200,"station_id":"ce4bhp92rcd13ifvqhcg","pricing_plan_id":"cebpf4jnsgd1na2vs0mg"},{"bike_id":"dd026004-9ce5-45a7-9f7d-ba9cf3e41536","system_id":"levelo_inurba_marseille","lat":43.29024,"lon":5.38644,"is_reserved":false,"is_disabled":false,"rental_uris":{"android":"levelo://app?vid=dd026004-9ce5-45a7-9f7d-ba9cf3e41536","ios":"levelo://app?vid=dd026004-9ce5-45a7-9f7d-ba9cf3e41536"},"vehicle_type_id":"4","last_reported":1735398441,"current_range_meters":27600,"station_id":"ce4bh4p2rcd13ifvqe0g","pricing_plan_id":"cebpf4jnsgd1na2vs0mg"},{"bike_id":"fc2ff444-5848-464d-af32-81d463415521","system_id":"levelo_inurba_marseille","lat":43.29907,"lon":5.37491,"is_reserved":false,"is_disabled":false,"rental_uris":{"android":"levelo://app?vid=fc2ff444-5848-464d-af32-81d463415521","ios":"levelo://app?vid=fc2ff444-5848-464d-af32-81d463415521"},"vehicle_type_id":"4","last_reported":1735398441,"current_range_meters":38800,"station_id":"ce4bgjh2rcd13ifvqbg0","pricing_plan_id":"cebpf4jnsgd1na2vs0mg"},{"bike_id":"7b079417-064f-4fcc-b518-126a625acf28","system_id":"levelo_inurba_marseille","lat":43.30943,"lon":5.40148,"is_reserved":false,"is_disabled":false,"rental_uris":{"android":"levelo://app?vid=7b079417-064f-4fcc-b518-126a625acf28","ios":"levelo://app?vid=7b079417-064f-4fcc-b518-126a625acf28"},"vehicle_type_id":"4","last_reported":1735398441,"current_range_meters":8000,"station_id":"ce4bgvp2rcd13ifvqct0","pricing_plan_id":"cebpf4jnsgd1na2vs0mg"},{"bike_id":"df03e0ed-c335-4b98-ac83-114f80d97688","system_id":"levelo_inurba_marseille","lat":43.22928,"lon":5.35383,"is_reserved":false,"is_disabled":false,"rental_uris":{"android":"levelo://app?vid=df03e0ed-c335-4b98-ac83-114f80d97688","ios":"levelo://app?vid=df03e0ed-c335-4b98-ac83-114f80d97688"},"vehicle_type_id":"4","last_reported":1735398441,"current_range_meters":25600,"station_id":"cpo3532slgdg3j2ikp40","pricing_plan_id":"cebpf4jnsgd1na2vs0mg"},{"bike_id":"7d0c38bb-87a2-4aac-b4c5-8fcd47a99072","system_id":"levelo_inurba_marseille","lat":43.2738,"lon":5.36245,"is_reserved":false,"is_disabled":true,"rental_uris":{"android":"levelo://app?vid=7d0c38bb-87a2-4aac-b4c5-8fcd47a99072","ios":"levelo://app?vid=7d0c38bb-87a2-4aac-b4c5-8fcd47a99072"},"vehicle_type_id":"4","last_reported":1735398441,"current_range_meters":38800,"station_id":"ce4bhbh2rcd13ifvqeo0","pricing_plan_id":"cebpf4jnsgd1na2vs0mg"},{"bike_id":"e64f849a-5704-4c86-b1ad-df3e107ec9a1","system_id":"levelo_inurba_marseille","lat":43.30805,"lon":5.38151,"is_reserved":false,"is_disabled":false,"rental_uris":{"android":"levelo://app?vid=e64f849a-5704-4c86-b1ad-df3e107ec9a1","ios":"levelo://app?vid=e64f849a-5704-4c86-b1ad-df3e107ec9a1"},"vehicle_type_id":"4","last_reported":1735398441,"current_range_meters":38000,"station_id":"ce4bgt12rcd13ifvqce0","pricing_plan_id":"cebpf4jnsgd1na2vs0mg"},{"bike_id":"60270bd8-12da-4a87-b301-9ecae9e8fe1a","system_id":"levelo_inurba_marseille","lat":43.30963,"lon":5.3906,"is_reserved":false,"is_disabled":false,"rental_uris":{"android":"levelo://app?vid=60270bd8-12da-4a87-b301-9ecae9e8fe1a","ios":"levelo://app?vid=60270bd8-12da-4a87-b301-9ecae9e8fe1a"},"vehicle_type_id":"4","last_reported":1735398441,"current_range_meters":8000,"station_id":"ce4bgup2rcd13ifvqco0","pricing_plan_id":"cebpf4jnsgd1na2vs0mg"},{"bike_id":"320378f7-7d57-46e5-b98a-13c0676b3b3c","system_id":"levelo_inurba_marseille","lat":43.30084,"lon":5.39081,"is_reserved":false,"is_disabled":false,"rental_uris":{"android":"levelo://app?vid=320378f7-7d57-46e5-b98a-13c0676b3b3c","ios":"levelo://app?vid=320378f7-7d57-46e5-b98a-13c0676b3b3c"},"vehicle_type_id":"4","last_reported":1735398441,"current_range_meters":38800,"station_id":"ce4bh192rcd13ifvqdb0","pricing_plan_id":"cebpf4jnsgd1na2vs0mg"},{"bike_id":"976abf1b-2fd1-4294-ac06-3c1193b2d559","system_id":"levelo_inurba_marseille","lat":43.232,"lon":5.35559,"is_reserved":false,"is_disabled":false,"rental_uris":{"android":"levelo://app?vid=976abf1b-2fd1-4294-ac06-3c1193b2d559","ios":"levelo://app?vid=976abf1b-2fd1-4294-ac06-3c1193b2d559"},"vehicle_type_id":"4","last_reported":1735398441,"current_range_meters":38800,"station_id":"ce4bhu92rcd13ifvqi70","pricing_plan_id":"cebpf4jnsgd1na2vs0mg"},{"bike_id":"1e61b1a5-6167-4717-937d-b34aba24b8ce","system_id":"levelo_inurba_marseille","lat":43.27997,"lon":5.40018,"is_reserved":false,"is_disabled":false,"rental_uris":{"android":"levelo://app?vid=1e61b1a5-6167-4717-937d-b34aba24b8ce","ios":"levelo://app?vid=1e61b1a5-6167-4717-937d-b34aba24b8ce"},