{"last_updated":1698347087,"ttl":30,"version":"2.2","data":{"bikes":[{"bike_id":"bad6fb66-4d2a-4206-8f07-1d73ae8b6c1a","system_id":"levelo_inurba_marseille","lat":43.31341,"lon":5.367098,"is_reserved":false,"is_disabled":false,"rental_uris":{"android":"levelo://app?vid=bad6fb66-4d2a-4206-8f07-1d73ae8b6c1a","ios":"levelo://app?vid=bad6fb66-4d2a-4206-8f07-1d73ae8b6c1a"},"vehicle_type_id":"4","last_reported":1698347087,"current_range_meters":0,"station_id":"ce4bgr92rcd13ifvqc6g","pricing_plan_id":"free"},{"bike_id":"0789f6f9-bfbb-4935-9e93-af945abfa499","system_id":"levelo_inurba_marseille","lat":43.312239,"lon":5.368562,"is_reserved":false,"is_disabled":false,"rental_uris":{"android":"levelo://app?vid=0789f6f9-bfbb-4935-9e93-af945abfa499","ios":"levelo://app?vid=0789f6f9-bfbb-4935-9e93-af945abfa499"},"vehicle_type_id":"4","last_reported":1698347087,"current_range_meters":15200,"station_id":"ce4bgl92rcd13ifvqbq0","pricing_plan_id":"free"},{"bike_id":"6b11b86f-5a8d-4da7-b5b4-6bee2762b712","system_id":"levelo_inurba_marseille","lat":43.312239,"lon":5.368562,"is_reserved":false,"is_disabled":false,"rental_uris":{"android":"levelo://app?vid=6b11b86f-5a8d-4da7-b5b4-6bee2762b712","ios":"levelo://app?vid=6b11b86f-5a8d-4da7-b5b4-6bee2762b712"},"vehicle_type_id":"4","last_reported":1698347087,"current_range_meters":8800,"station_id":"ce4bgl92rcd13ifvqbq0","pricing_plan_id":"free"},{"bike_id":"f5c58904-aeb7-4548-b4b5-9f5e83f269ce","system_id":"levelo_inurba_marseille","lat":43.309797,"lon":5.368093,"is_reserved":false,"is_disabled":false,"rental_uris":{"android":"levelo://app?vid=f5c58904-aeb7-4548-b4b5-9f5e83f269ce","ios":"levelo://app?vid=f5c58904-aeb7-4548-b4b5-9f5e83f269ce"},"vehicle_type_id":"4","last_reported":1698347087,"current_range_meters":0,"station_id":"ce4bgn92rcd13ifvqbvg","pricing_plan_id":"free"},{"bike_id":"c3b9e737-221d-4e3a-90a6-06e77b6c1cec","system_id":"levelo_inurba_marseille","lat":43.314811,"lon":5.373104,"is_reserved":false,"is_disabled":false,"rental_uris":{"android":"levelo://app?vid=c3b9e737-221d-4e3a-90a6-06e77b6c1cec","ios":"levelo://app?vid=c3b9e737-221d-4e3a-90a6-06e77b6c1cec"},"vehicle_type_id":"4","last_reported":1698347087,"current_range_meters":12800,"station_id":"ce4bgt12rcd13ifvqcd0","pricing_plan_id":"free"},{"bike_id":"cf04d626-4cf4-4f35-a4f3-10bebc31c564","system_id":"levelo_inurba_marseille","lat":43.315462,"lon":5.372751,"is_reserved":false,"is_disabled":false,"rental_uris":{"android":"levelo://app?vid=cf04d626-4cf4-4f35-a4f3-10bebc31c564","ios":"levelo://app?vid=cf04d626-4cf4-4f35-a4f3-10bebc31c564"},"vehicle_type_id":"4","last_reported":1698347087,"current_range_meters":3200,"station_id":"","pricing_plan_id":"free"},{"bike_id":"cdfd573c-9fe1-48d6-8111-d4d711ee82be","system_id":"levelo_inurba_marseille","lat":43.314811,"lon":5.373104,"is_reserved":false,"is_disabled":false,"rental_uris":{"android":"levelo://app?vid=cdfd573c-9fe1-48d6-8111-d4d711ee82be","ios":"levelo://app?vid=cdfd573c-9fe1-48d6-8111-d4d711ee82be"},"vehicle_type_id":"4","last_reported":1698347087,"current_range_meters":1200,"station_id":"ce4bgt12rcd13ifvqcd0","pricing_plan_id":"free"},{"bike_id":"dbbdea51-7e3d-4271-bd96-c3aabecbd7e2","system_id":"levelo_inurba_marseille","lat":43.315783,"lon":5.372523,"is_reserved":false,"is_disabled":false,"rental_uris":{"android":"levelo://app?vid=dbbdea51-7e3d-4271-bd96-c3aabecbd7e2","ios":"levelo://app?vid=dbbdea51-7e3d-4271-bd96-c3aabecbd7e2"},"vehicle_type_id":"4","last_reported":1698347087,"current_range_meters":14800,"station_id":"","pricing_plan_id":"free"},{"bike_id":"42e93bee-746a-4616-ba2e-707802b669af","system_id":"levelo_inurba_marseille","lat":43.309039,"lon":5.371797,"is_reserved":false,"is_disabled":false,"rental_uris":{"android":"levelo://app?vid=42e93bee-746a-4616-ba2e-707802b669af","ios":"levelo://app?vid=42e93bee-746a-4616-ba2e-707802b669af"},"vehicle_type_id":"4","last_reported":1698347087,"current_range_meters":22800,"station_id":"ce4bguh2rcd13ifvqckg","pricing_plan_id":"free"},{"bike_id":"ea962940-4117-4ead-90d7-cc8336652c43","system_id":"levelo_inurba_marseille","lat":43.309039,"lon":5.371797,"is_reserved":false,"is_disabled":false,"rental_uris":{"android":"levelo://app?vid=ea962940-4117-4ead-90d7-cc8336652c43","ios":"levelo://app?vid=ea962940-4117-4ead-90d7-cc8336652c43"},"vehicle_type_id":"4","last_reported":1698347087,"current_range_meters":2800,"station_id":"ce4bguh2rcd13ifvqckg","pricing_plan_id":"free"},{"bike_id":"4bd6cc87-4ead-494d-b963-1c4bc55c1520","system_id":"levelo_inurba_marseille","lat":43.309034,"lon":5.371783,"is_reserved":false,"is_disabled":false,"rental_uris":{"android":"levelo://app?vid=4bd6cc87-4ead-494d-b963-1c4bc55c1520","ios":"levelo://app?vid=4bd6cc87-4ead-494d-b963-1c4bc55c1520"},"vehicle_type_id":"4","last_reported":1698347087,"current_range_meters":10400,"station_id":"ce4bguh2rcd13ifvqckg","pricing_plan_id":"free"},{"bike_id":"95305f74-8843-496f-8792-a97bf06c20f9","system_id":"levelo_inurba_marseille","lat":43.30885,"lon":5.37202,"is_reserved":false,"is_disabled":false,"rental_uris":{"android":"levelo://app?vid=95305f74-8843-496f-8792-a97bf06c20f9","ios":"levelo://app?vid=95305f74-8843-496f-8792-a97bf06c20f9"},"vehicle_type_id":"4","last_reported":1698347087,"current_range_meters":17200,"station_id":"ce4bguh2rcd13ifvqckg","pricing_plan_id":"free"},{"bike_id":"9bbfb085-f645-4eab-8099-7bd49994103d","system_id":"levelo_inurba_marseille","lat":43.3088,"lon":5.37208,"is_reserved":false,"is_disabled":false,"rental_uris":{"android":"levelo://app?vid=9bbfb085-f645-4eab-8099-7bd49994103d","ios":"levelo://app?vid=9bbfb085-f645-4eab-8099-7bd49994103d"},"vehicle_type_id":"4","last_reported":1698347087,"current_range_meters":5600,"station_id":"ce4bguh2rcd13ifvqckg","pricing_plan_id":"free"},{"bike_id":"d0f521c5-1c83-4a47-ac7c-b8eb16f5fdd4","system_id":"levelo_inurba_marseille","lat":43.305445,"lon":5.36558,"is_reserved":false,"is_disabled":false,"rental_uris":{"android":"levelo://app?vid=d0f521c5-1c83-4a47-ac7c-b8eb16f5fdd4","ios":"levelo://app?vid=d0f521c5-1c83-4a47-ac7c-b8eb16f5fdd4"},"vehicle_type_id":"4","last_reported":1698347087,"current_range_meters":10800,"station_id":"","pricing_plan_id":"free"},{"bike_id":"acb56c01-8de3-457d-9c89-9e4278970748","system_id":"levelo_inurba_marseille","lat":43.30536,"lon":5.36733,"is_reserved":false,"is_disabled":false,"rental_uris":{"android":"levelo://app?vid=acb56c01-8de3-457d-9c89-9e4278970748","ios":"levelo://app?vid=acb56c01-8de3-457d-9c89-9e4278970748"},"vehicle_type_id":"4","last_reported":1698347087,"current_range_meters":24400,"station_id":"ce4bgrp2rcd13ifvqc9g","pricing_plan_id":"free"},{"bike_id":"95059b9e-e397-490c-b461-0ad75a0bb4f6","system_id":"levelo_inurba_marseille","lat":43.305714,"lon":5.365633,"is_reserved":false,"is_disabled":false,"rental_uris":{"android":"levelo://app?vid=95059b9e-e397-490c-b461-0ad75a0bb4f6","ios":"levelo://app?vid=95059b9e-e397-490c-b461-0ad75a0bb4f6"},"vehicle_type_id":"4","last_reported":1698347087,"current_range_meters":0,"station_id":"ce4bgs12rcd13ifvqcag","pricing_plan_id":"free"},{"bike_id":"f252b071-dddd-4e5f-ad07-506846af6d1a","system_id":"levelo_inurba_marseille","lat":43.305714,"lon":5.365633,"is_reserved":false,"is_disabled":false,"rental_uris":{"android":"levelo://app?vid=f252b071-dddd-4e5f-ad07-506846af6d1a","ios":"levelo://app?vid=f252b071-dddd-4e5f-ad07-506846af6d1a"},"vehicle_type_id":"4","last_reported":1698347087,"current_range_meters":28000,"station_id":"ce4bgs12rcd13ifvqcag","pricing_plan_id":"free"},{"bike_id":"3d4b4af0-4a0b-44f4-8506-d6fdf2a9fa28","system_id":"levelo_inurba_marseille","lat":43.311173,"lon":5.377793,"is_reserved":false,"is_disabled":false,"rental_uris":{"android":"levelo://app?vid=3d4b4af0-4a0b-44f4-8506-d6fdf2a9fa28","ios":"levelo://app?vid=3d4b4af0-4a0b-44f4-8506-d6fdf2a9fa28"},"vehicle_type_id":"4","last_reported":1698347087,"current_range_meters":15600,"station_id":"ce4bgt92rcd13ifvqcg0","pricing_plan_id":"free"},{"bike_id":"2fe6addf-3f28-4e18-9be7-8e324eee151f","system_id":"levelo_inurba_marseille","lat":43.30501,"lon":5.37088,"is_reserved":false,"is_disabled":false,"rental_uris":{"android":"levelo://app?vid=2fe6addf-3f28-4e18-9be7-8e324eee151f","ios":"levelo://app?vid=2fe6addf-3f28-4e18-9be7-8e324eee151f"},"vehicle_type_id":"4","last_reported":1698347087,"current_range_meters":9200,"station_id":"","pricing_plan_id":"free"},{"bike_id":"23591e2d-b50b-427e-addb-0af526401ea3","system_id":"levelo_inurba_marseille","lat":43.307818,"lon":5.376408,"is_reserved":false,"is_disabled":false,"rental_uris":{"android":"levelo://app?vid=23591e2d-b50b-427e-addb-0af526401ea3","ios":"levelo://app?vid=23591e2d-b50b-427e-addb-0af526401ea3"},"vehicle_type_id":"4","last_reported":1698347087,"current_range_meters":0,"station_id":"ce4bgv92rcd13ifvqcq0","pricing_plan_id":"free"},{"bike_id":"5157c626-93b9-48ce-ab32-14a2dfa229fa","system_id":"levelo_inurba_marseille","lat":43.317075,"lon":5.377367,"is_reserved":false,"is_disabled":false,"rental_uris":{"android":"levelo://app?vid=5157c626-93b9-48ce-ab32-14a2dfa229fa","ios":"levelo://app?vid=5157c626-93b9-48ce-ab32-14a2dfa229fa"},"vehicle_type_id":"4","last_reported":1698347087,"current_range_meters":21600,"station_id":"ce4bgth2rcd13ifvqch0","pricing_plan_id":"free"},{"bike_id":"0c6c8f27-60e7-4fd1-a2fc-0041cde815e9","system_id":"levelo_inurba_marseille","lat":43.30388,"lon":5.36822,"is_reserved":false,"is_disabled":false,"rental_uris":{"android":"levelo://app?vid=0c6c8f27-60e7-4fd1-a2fc-0041cde815e9","ios":"levelo://app?vid=0c6c8f27-60e7-4fd1-a2fc-0041cde815e9"},"vehicle_type_id":"4","last_reported":1698347087,"current_range_meters":0,"station_id":"","pricing_plan_id":"free"},{"bike_id":"49be05fc-d426-4bcc-9c7a-9d6bfc674fdf","system_id":"levelo_inurba_marseille","lat":43.315338,"lon":5.380318,"is_reserved":false,"is_disabled":false,"rental_uris":{"android":"levelo://app?vid=49be05fc-d426-4bcc-9c7a-9d6bfc674fdf","ios":"levelo://app?vid=49be05fc-d426-4bcc-9c7a-9d6bfc674fdf"},"vehicle_type_id":"4","last_reported":1698347087,"current_range_meters":13200,"station_id":"ce4bhsp2rcd13ifvqi50","pricing_plan_id":"free"},{"bike_id":"a9db2fae-0a8c-464a-8d06-cb0f9e1548a2","system_id":"levelo_inurba_marseille","lat":43.308012,"lon":5.381511,"is_reserved":false,"is_disabled":false,"rental_uris":{"android":"levelo://app?vid=a9db2fae-0a8c-464a-8d06-cb0f9e1548a2","ios":"levelo://app?vid=a9db2fae-0a8c-464a-8d06-cb0f9e1548a2"},"vehicle_type_id":"4","last_reported":1698347087,"current_range_meters":3600,"station_id":"ce4bgt12rcd13ifvqce0","pricing_plan_id":"free"},{"bike_id":"beebe3cd-6812-45ac-9942-9f2ce12ada0d","system_id":"levelo_inurba_marseille","lat":43.30804,"lon":5.38159,"is_reserved":false,"is_disabled":false,"rental_uris":{"android":"levelo://app?vid=beebe3cd-6812-45ac-9942-9f2ce12ada0d","ios":"levelo://app?vid=beebe3cd-6812-45ac-9942-9f2ce12ada0d"},"vehicle_type_id":"4","last_reported":1698347087,"current_range_meters":0,"station_id":"ce4bgg92rcd13ifvqb30","pricing_plan_id":"free"},{"bike_id":"2203eded-dcb4-4419-a95e-ffa6d010d998","system_id":"levelo_inurba_marseille","lat":43.308012,"lon":5.381511,"is_reserved":false,"is_disabled":false,"rental_uris":{"android":"levelo://app?vid=2203eded-dcb4-4419-a95e-ffa6d010d998","ios":"levelo://app?vid=2203eded-dcb4-4419-a95e-ffa6d010d998"},"vehicle_type_id":"4","last_reported":1698347087,"current_range_meters":800,"station_id":"ce4bgt12rcd13ifvqce0","pricing_plan_id":"free"},{"bike_id":"5fb68335-ae60-4dad-a446-20f236b0fa63","system_id":"levelo_inurba_marseille","lat":43.304606,"lon":5.379026,"is_reserved":false,"is_disabled":false,"rental_uris":{"android":"levelo://app?vid=5fb68335-ae60-4dad-a446-20f236b0fa63","ios":"levelo://app?vid=5fb68335-ae60-4dad-a446-20f236b0fa63"},"vehicle_type_id":"4","last_reported":1698347087,"current_range_meters":2800,"station_id":"ce4bgup2rcd13ifvqcn0","pricing_plan_id":"free"},{"bike_id":"1047bcc5-10ff-460b-bd6f-eac1d4a67db4","system_id":"levelo_inurba_marseille","lat":43.31745,"lon":5.382537,"is_reserved":false,"is_disabled":false,"rental_uris":{"android":"levelo://app?vid=1047bcc5-10ff-460b-bd6f-eac1d4a67db4","ios":"levelo://app?vid=1047bcc5-10ff-460b-bd6f-eac1d4a67db4"},"vehicle_type_id":"4","last_reported":1698347087,"current_range_meters":0,"station_id":"","pricing_plan_id":"free"},{"bike_id":"97c5e482-ab14-4fbe-b637-e370500da1d5","system_id":"levelo_inurba_marseille","lat":43.301429,"lon":5.37413,"is_reserved":false,"is_disabled":false,"rental_uris":{"android":"levelo://app?vid=97c5e482-ab14-4fbe-b637-e370500da1d5","ios":"levelo://app?vid=97c5e482-ab14-4fbe-b637-e370500da1d5"},"vehicle_type_id":"4","last_reported":1698347087,"current_range_meters":2000,"station_id":"ce4bgs92rcd13ifvqcc0","pricing_plan_id":"free"},{"bike_id":"46e59620-997e-486c-a36f-24a6f0541ad5","system_id":"levelo_inurba_marseille","lat":43.319937,"lon":5.381563,"is_reserved":false,"is_disabled":false,"rental_uris":{"android":"levelo://app?vid=46e59620-997e-486c-a36f-24a6f0541ad5","ios":"levelo://app?vid=46e59620-997e-486c-a36f-24a6f0541ad5"},"vehicle_type_id":"4","last_reported":1698347087,"current_range_meters":9600,"station_id":"","pricing_plan_id":"free"},{"bike_id":"0929cb81-d6d9-49aa-9382-26ceaaacfd93","system_id":"levelo_inurba_marseille","lat":43.29941,"lon":5.3656,"is_reserved":false,"is_disabled":false,"rental_uris":{"android":"levelo://app?vid=0929cb81-d6d9-49aa-9382-26ceaaacfd93","ios":"levelo://app?vid=0929cb81-d6d9-49aa-9382-26ceaaacfd93"},"vehicle_type_id":"4","last_reported":1698347087,"current_range_meters":1600,"station_id":"ce4bgm92rcd13ifvqbr0","pricing_plan_id":"free"},{"bike_id":"94bf55d3-5240-43ce-a78f-6940e793e761","system_id":"levelo_inurba_marseille","lat":43.299724,"lon":5.371829,"is_reserved":false,"is_disabled":false,"rental_uris":{"android":"levelo://app?vid=94bf55d3-5240-43ce-a78f-6940e793e761","ios":"levelo://app?vid=94bf55d3-5240-43ce-a78f-6940e793e761"},"vehicle_type_id":"4","last_reported":1698347087,"current_range_meters":27200,"station_id":"ce4bgr92rcd13ifvqc7g","pricing_plan_id":"free"},{"bike_id":"97997ef7-b347-4148-ba57-9a15ecc4912d","system_id":"levelo_inurba_marseille","lat":43.320945,"lon":5.38306,"is_reserved":false,"is_disabled":false,"rental_uris":{"android":"levelo://app?vid=97997ef7-b347-4148-ba57-9a15ecc4912d","ios":"levelo://app?vid=97997ef7-b347-4148-ba57-9a15ecc4912d"},"vehicle_type_id":"4","last_reported":1698347087,"current_range_meters":0,"station_id":"","pricing_plan_id":"free"},{"bike_id":"833a0712-69e0-45b5-8917-189d768118d7","system_id":"levelo_inurba_marseille","lat":43.298433,"lon":5.362774,"is_reserved":false,"is_disabled":false,"rental_uris":{"android":"levelo://app?vid=833a0712-69e0-45b5-8917-189d768118d7","ios":"levelo://app?vid=833a0712-69e0-45b5-8917-189d768118d7"},"vehicle_type_id":"4","last_reported":1698347087,"current_range_meters":400,"station_id":"ce4bgpp2rcd13ifvqc3g","pricing_plan_id":"free"},{"bike_id":"6d7d7926-5410-43c1-8c03-dad9536e3d02","system_id":"levelo_inurba_marseille","lat":43.311722,"lon":5.387247,"is_reserved":false,"is_disabled":false,"rental_uris":{"android":"levelo://app?vid=6d7d7926-5410-43c1-8c03-dad9536e3d02","ios":"levelo://app?vid=6d7d7926-5410-43c1-8c03-dad9536e3d02"},"vehicle_type_id":"4","last_reported":1698347087,"current_range_meters":8800,"station_id":"ce4bgv12rcd13ifvqcp0","pricing_plan_id":"free"},{"bike_id":"7610dc2b-9ede-45dc-a071-f4211bdb9539","system_id":"levelo_inurba_marseille","lat":43.311722,"lon":5.387247,"is_reserved":false,"is_disabled":false,"rental_uris":{"android":"levelo://app?vid=7610dc2b-9ede-45dc-a071-f4211bdb9539","ios":"levelo://app?vid=7610dc2b-9ede-45dc-a071-f4211bdb9539"},"vehicle_type_id":"4","last_reported":1698347087,"current_range_meters":26800,"station_id":"ce4bgv12rcd13ifvqcp0","pricing_plan_id":"free"},{"bike_id":"5b59682e-3f29-4a89-90fc-2781721d815e","system_id":"levelo_inurba_marseille","lat":43.32829,"lon":5.36684,"is_reserved":false,"is_disabled":false,"rental_uris":{"android":"levelo://app?vid=5b59682e-3f29-4a89-90fc-2781721d815e","ios":"levelo://app?vid=5b59682e-3f29-4a89-90fc-2781721d815e"},"vehicle_type_id":"4","last_reported":1698347087,"current_range_meters":0,"station_id":"ce4bhs92rcd13ifvqi0g","pricing_plan_id":"free"},{"bike_id":"2bf09692-7151-4aba-9fa7-8ce1d6106004","system_id":"levelo_inurba_marseille","lat":43.328303,"lon":5.366873,"is_reserved":false,"is_disabled":false,"rental_uris":{"android":"levelo://app?vid=2bf09692-7151-4aba-9fa7-8ce1d6106004","ios":"levelo://app?vid=2bf09692-7151-4aba-9fa7-8ce1d6106004"},"vehicle_type_id":"4","last_reported":1698347087,"current_range_meters":19600,"station_id":"","pricing_plan_id":"free"},{"bike_id":"b3e63496-ef57-4fe7-9649-3ee98b2a4e91","system_id":"levelo_inurba_marseille","lat":43.32831,"lon":5.36697,"is_reserved":false,"is_disabled":false,"rental_uris":{"android":"levelo://app?vid=b3e63496-ef57-4fe7-9649-3ee98b2a4e91","ios":"levelo://app?vid=b3e63496-ef57-4fe7-9649-3ee98b2a4e91"},"vehicle_type_id":"4","last_reported":1698347087,"current_range_meters":16400,"station_id":"ce4bhs92rcd13ifvqi0g","pricing_plan_id":"free"},{"bike_id":"e51dfd5d-52a0-4371-bfb1-7c43b63dd67c","system_id":"levelo_inurba_marseille","lat":43.29709,"lon":5.36614,"is_reserved":false,"is_disabled":false,"rental_uris":{"android":"levelo://app?vid=e51dfd5d-52a0-4371-bfb1-7c43b63dd67c","ios":"levelo://app?vid=e51dfd5d-52a0-4371-bfb1-7c43b63dd67c"},"vehicle_type_id":"4","last_reported":1698347087,"current_range_meters":10000,"station_id":"ce4bgn12rcd13ifvqbt0","pricing_plan_id":"free"},{"bike_id":"948a39b5-8524-410f-a83f-3dcb1085c511","system_id":"levelo_inurba_marseille","lat":43.297163,"lon":5.365866,"is_reserved":false,"is_disabled":false,"rental_uris":{"android":"levelo://app?vid=948a39b5-8524-410f-a83f-3dcb1085c511","ios":"levelo://app?vid=948a39b5-8524-410f-a83f-3dcb1085c511"},"vehicle_type_id":"4","last_reported":1698347087,"current_range_meters":8800,"station_id":"ce4bgn12rcd13ifvqbt0","pricing_plan_id":"free"},{"bike_id":"d13e82b9-d2d1-45d1-8239-e244046476b0","system_id":"levelo_inurba_marseille","lat":43.297163,"lon":5.365866,"is_reserved":false,"is_disabled":false,"rental_uris":{"android":"levelo://app?vid=d13e82b9-d2d1-45d1-8239-e244046476b0","ios":"levelo://app?vid=d13e82b9-d2d1-45d1-8239-e244046476b0"},"vehicle_type_id":"4","last_reported":1698347087,"current_range_meters":19600,"station_id":"ce4bgn12rcd13ifvqbt0","pricing_plan_id":"free"},{"bike_id":"58ea78a3-d62d-480c-b7bc-cf227875ae61","system_id":"levelo_inurba_marseille","lat":43.296131,"lon":5.370791,"is_reserved":false,"is_disabled":false,"rental_uris":{"android":"levelo://app?vid=58ea78a3-d62d-480c-b7bc-cf227875ae61","ios":"levelo://app?vid=58ea78a3-d62d-480c-b7bc-cf227875ae61"},"vehicle_type_id":"4","last_reported":1698347087,"current_range_meters":0,"station_id":"ce4bgnh2rcd13ifvqc0g","pricing_plan_id":"free"},{"bike_id":"32d78779-2e49-473f-8aa8-5964da9f313e","system_id":"levelo_inurba_marseille","lat":43.29573,"lon":5.367355,"is_reserved":false,"is_disabled":false,"rental_uris":{"android":"levelo://app?vid=32d78779-2e49-473f-8aa8-5964da9f313e","ios":"levelo://app?vid=32d78779-2e49-473f-8aa8-5964da9f313e"},"vehicle_type_id":"4","last_reported":1698347087,"current_range_meters":18800,"station_id":"ce4bgph2rcd13ifvqc2g","pricing_plan_id":"free"},{"bike_id":"cd91942e-a9d4-4a22-b01c-ea31c6d8a660","system_id":"levelo_inurba_marseille","lat":43.29573,"lon":5.367355,"is_reserved":false,"is_disabled":false,"rental_uris":{"android":"levelo://app?vid=cd91942e-a9d4-4a22-b01c-ea31c6d8a660","ios":"levelo://app?vid=cd91942e-a9d4-4a22-b01c-ea31c6d8a660"},"vehicle_type_id":"4","last_reported":1698347087,"current_range_meters":0,"station_id":"ce4bgph2rcd13ifvqc2g","pricing_plan_id":"free"},{"bike_id":"f3d0381f-7a2d-409e-a12f-bd3d9095653d","system_id":"levelo_inurba_marseille","lat":43.329673,"lon":5.365468,"is_reserved":false,"is_disabled":false,"rental_uris":{"android":"levelo://app?vid=f3d0381f-7a2d-409e-a12f-bd3d9095653d","ios":"levelo://app?vid=f3d0381f-7a2d-409e-a12f-bd3d9095653d"},"vehicle_type_id":"4","last_reported":1698347087,"current_range_meters":12000,"station_id":"","pricing_plan_id":"free"},{"bike_id":"08ac59e9-4042-4574-af4e-726872e06c4e","system_id":"levelo_inurba_marseille","lat":43.309589,"lon":5.390258,"is_reserved":false,"is_disabled":false,"rental_uris":{"android":"levelo://app?vid=08ac59e9-4042-4574-af4e-726872e06c4e","ios":"levelo://app?vid=08ac59e9-4042-4574-af4e-726872e06c4e"},"vehicle_type_id":"4","last_reported":1698347087,"current_range_meters":26400,"station_id":"ce4bgup2rcd13ifvqco0","pricing_plan_id":"free"},{"bike_id":"7959a6da-1cf4-4ddb-a5cb-90800087e84a","system_id":"levelo_inurba_marseille","lat":43.29702,"lon":5.37697,"is_reserved":false,"is_disabled":false,"rental_uris":{"android":"levelo://app?vid=7959a6da-1cf4-4ddb-a5cb-90800087e84a","ios":"levelo://app?vid=7959a6da-1cf4-4ddb-a5cb-90800087e84a"},"vehicle_type_id":"4","last_reported":1698347087,"current_range_meters":0,"station_id":"ce4bgkh2rcd13ifvqbl0","pricing_plan_id":"free"},{"bike_id":"4550d374-5ff0-43a9-8026-fc2c545380a8","system_id":"levelo_inurba_marseille","lat":43.309589,"lon":5.390258,"is_reserved":false,"is_disabled":false,"rental_uris":{"android":"levelo://app?vid=4550d374-5ff0-43a9-8026-fc2c545380a8","ios":"levelo://app?vid=4550d374-5ff0-43a9-8026-fc2c545380a8"},"vehicle_type_id":"4","last_reported":1698347087,"current_range_meters":11200,"station_id":"ce4bgup2rcd13ifvqco0","pricing_plan_id":"free"},{"bike_id":"59ac135a-62d2-42c3-8989-9ccf33093842","system_id":"levelo_inurba_marseille","lat":43.295748,"lon":5.37522,"is_reserved":false,"is_disabled":false,"rental_uris":{"android":"levelo://app?vid=59ac135a-62d2-42c3-8989-9ccf33093842","ios":"levelo://app?vid=59ac135a-62d2-42c3-8989-9ccf33093842"},"vehicle_type_id":"4","last_reported":1698347087,"current_range_meters":0,"station_id":"ce4bgh92rcd13ifvqb50","pricing_plan_id":"free"},{"bike_id":"e2b34d9d-5dca-44d6-8622-160ccb77920a","system_id":"levelo_inurba_marseille","lat":43.296281,"lon":5.377037,"is_reserved":false,"is_disabled":false,"rental_uris":{"android":"levelo://app?vid=e2b34d9d-5dca-44d6-8622-160ccb77920a","ios":"levelo://app?vid=e2b34d9d-5dca-44d6-8622-160ccb77920a"},"vehicle_type_id":"4","last_reported":1698347087,"current_range_meters":16400,"station_id":"ce4bgi92rcd13ifvqb90","pricing_plan_id":"free"},{"bike_id":"d9d65cd6-935e-4282-8569-0fa829e3ef3d","system_id":"levelo_inurba_marseille","lat":43.299724,"lon":5.384848,"is_reserved":false,"is_disabled":false,"rental_uris":{"android":"levelo://app?vid=d9d65cd6-935e-4282-8569-0fa829e3ef3d","ios":"levelo://app?vid=d9d65cd6-935e-4282-8569-0fa829e3ef3d"},"vehicle_type_id":"4","last_reported":1698347087,"current_range_meters":28800,"station_id":"ce4bgj92rcd13ifvqbd0","pricing_plan_id":"free"},{"bike_id":"45877197-f076-4e8e-b957-be74e73eddf1","system_id":"levelo_inurba_marseille","lat":43.299717,"lon":5.384845,"is_reserved":false,"is_disabled":false,"rental_uris":{"android":"levelo://app?vid=45877197-f076-4e8e-b957-be74e73eddf1","ios":"levelo://app?vid=45877197-f076-4e8e-b957-be74e73eddf1"},"vehicle_type_id":"4","last_reported":1698347087,"current_range_meters":5200,"station_id":"ce4bgj92rcd13ifvqbd0","pricing_plan_id":"free"},{"bike_id":"50ba0a4e-dc52-4b36-bbea-ef74378b458b","system_id":"levelo_inurba_marseille","lat":43.29698,"lon":5.3812,"is_reserved":false,"is_disabled":false,"rental_uris":{"android":"levelo://app?vid=50ba0a4e-dc52-4b36-bbea-ef74378b458b","ios":"levelo://app?vid=50ba0a4e-dc52-4b36-bbea-ef74378b458b"},"vehicle_type_id":"4","last_reported":1698347087,"current_range_meters":1200,"station_id":"","pricing_plan_id":"free"},{"bike_id":"5e7629c7-7626-4cc0-9939-2688e2172afc","system_id":"levelo_inurba_marseille","lat":43.32367,"lon":5.388836,"is_reserved":false,"is_disabled":false,"rental_uris":{"android":"levelo://app?vid=5e7629c7-7626-4cc0-9939-2688e2172afc","ios":"levelo://app?vid=5e7629c7-7626-4cc0-9939-2688e2172afc"},"vehicle_type_id":"4","last_reported":1698347087,"current_range_meters":3200,"station_id":"ce4bhqp2rcd13ifvqhog","pricing_plan_id":"free"},{"bike_id":"cef65dd8-e2a9-4bc6-9bda-0dd66b80ef3f","system_id":"levelo_inurba_marseille","lat":43.323668,"lon":5.388841,"is_reserved":false,"is_disabled":false,"rental_uris":{"android":"levelo://app?vid=cef65dd8-e2a9-4bc6-9bda-0dd66b80ef3f","ios":"levelo://app?vid=cef65dd8-e2a9-4bc6-9bda-0dd66b80ef3f"},"vehicle_type_id":"4","last_reported":1698347087,"current_range_meters":20800,"station_id":"","pricing_plan_id":"free"},{"bike_id":"2424046a-8486-41c3-a68e-68ff3a365cb4","system_id":"levelo_inurba_marseille","lat":43.32367,"lon":5.388836,"is_reserved":false,"is_disabled":false,"rental_uris":{"android":"levelo://app?vid=2424046a-8486-41c3-a68e-68ff3a365cb4","ios":"levelo://app?vid=2424046a-8486-41c3-a68e-68ff3a365cb4"},"vehicle_type_id":"4","last_reported":1698347087,"current_range_meters":12000,"station_id":"ce4bhqp2rcd13ifvqhog","pricing_plan_id":"free"},{"bike_id":"e154969b-9b87-45ae-bb64-9e6f2eac935b","system_id":"levelo_inurba_marseille","lat":43.29602,"lon":5.381084,"is_reserved":false,"is_disabled":false,"rental_uris":{"android":"levelo://app?vid=e154969b-9b87-45ae-bb64-9e6f2eac935b","ios":"levelo://app?vid=e154969b-9b87-45ae-bb64-9e6f2eac935b"},"vehicle_type_id":"4","last_reported":1698347087,"current_range_meters":4000,"station_id":"ce4bgl12rcd13ifvqbo0","pricing_plan_id":"free"},{"bike_id":"eb5bc363-d62b-4f46-aa7f-e66fa55022c2","system_id":"levelo_inurba_marseille","lat":43.32411,"lon":5.38893,"is_reserved":false,"is_disabled":false,"rental_uris":{"android":"levelo://app?vid=eb5bc363-d62b-4f46-aa7f-e66fa55022c2","ios":"levelo://app?vid=eb5bc363-d62b-4f46-aa7f-e66fa55022c2"},"vehicle_type_id":"4","last_reported":1698347087,"current_range_meters":22000,"station_id":"ce4bhqp2rcd13ifvqhog","pricing_plan_id":"free"},{"bike_id":"20e51ec5-6112-4447-ab9d-5598abd76a27","system_id":"levelo_inurba_marseille","lat":43.293249,"lon":5.371578,"is_reserved":false,"is_disabled":false,"rental_uris":{"android":"levelo://app?vid=20e51ec5-6112-4447-ab9d-5598abd76a27","ios":"levelo://app?vid=20e51ec5-6112-4447-ab9d-5598abd76a27"},"vehicle_type_id":"4","last_reported":1698347087,"current_range_meters":27200,"station_id":"ce4bgh92rcd13ifvqb40","pricing_plan_id":"free"},{"bike_id":"9702ce1f-d3b1-4e9b-816e-fc61af49e711","system_id":"levelo_inurba_marseille","lat":43.29304,"lon":5.37178,"is_reserved":false,"is_disabled":false,"rental_uris":{"android":"levelo://app?vid=9702ce1f-d3b1-4e9b-816e-fc61af49e711","ios":"levelo://app?vid=9702ce1f-d3b1-4e9b-816e-fc61af49e711"},"vehicle_type_id":"4","last_reported":1698347087,"current_range_meters":23200,"station_id":"ce4bgh92rcd13ifvqb40","pricing_plan_id":"free"},{"bike_id":"bbab7e28-ee01-4080-b12e-dd8baccd43d0","system_id":"levelo_inurba_marseille","lat":43.32394,"lon":5.389747,"is_reserved":false,"is_disabled":false,"rental_uris":{"android":"levelo://app?vid=bbab7e28-ee01-4080-b12e-dd8baccd43d0","ios":"levelo://app?vid=bbab7e28-ee01-4080-b12e-dd8baccd43d0"},"vehicle_type_id":"4","last_reported":1698347087,"current_range_meters":16000,"station_id":"","pricing_plan_id":"free"},{"bike_id":"b11a2e6f-fd0a-4d15-9bb6-ea9d35d4b32f","system_id":"levelo_inurba_marseille","lat":43.324372,"lon":5.38946,"is_reserved":false,"is_disabled":false,"rental_uris":{"android":"levelo://app?vid=b11a2e6f-fd0a-4d15-9bb6-ea9d35d4b32f","ios":"levelo://app?vid=b11a2e6f-fd0a-4d15-9bb6-ea9d35d4b32f"},"vehicle_type_id":"4","last_reported":1698347087,"current_range_meters":27200,"station_id":"","pricing_plan_id":"free"},{"bike_id":"5d96723b-de33-402f-9b3f-e90d7737cd91","system_id":"levelo_inurba_marseille","lat":43.293009,"lon":5.374584,"is_reserved":false,"is_disabled":false,"rental_uris":{"android":"levelo://app?vid=5d96723b-de33-402f-9b3f-e90d7737cd91","ios":"levelo://app?vid=5d96723b-de33-402f-9b3f-e90d7737cd91"},"vehicle_type_id":"4","last_reported":1698347087,"current_range_meters":0,"station_id":"ce4bgi12rcd13ifvqb70","pricing_plan_id":"free"},{"bike_id":"26052c3b-a77a-4753-9ed9-bf18485de411","system_id":"levelo_inurba_marseille","lat":43.305994,"lon":5.393687,"is_reserved":false,"is_disabled":false,"rental_uris":{"android":"levelo://app?vid=26052c3b-a77a-4753-9ed9-bf18485de411","ios":"levelo://app?vid=26052c3b-a77a-4753-9ed9-bf18485de411"},"vehicle_type_id":"4","last_reported":1698347087,"current_range_meters":17600,"station_id":"ce4bh0p2rcd13ifvqd80","pricing_plan_id":"free"},{"bike_id":"13286ecf-744e-4f61-8404-252a9710a3f1","system_id":"levelo_inurba_marseille","lat":43.29292,"lon":5.37461,"is_reserved":false,"is_disabled":false,"rental_uris":{"android":"levelo://app?vid=13286ecf-744e-4f61-8404-252a9710a3f1","ios":"levelo://app?vid=13286ecf-744e-4f61-8404-252a9710a3f1"},"vehicle_type_id":"4","last_reported":1698347087,"current_range_meters":0,"station_id":"ce4bgi12rcd13ifvqb70","pricing_plan_id":"free"},{"bike_id":"c53edd73-3d6b-4bd5-9cb4-a572a6e607bf","system_id":"levelo_inurba_marseille","lat":43.2936,"lon":5.37835,"is_reserved":false,"is_disabled":false,"rental_uris":{"android":"levelo://app?vid=c53edd73-3d6b-4bd5-9cb4-a572a6e607bf","ios":"levelo://app?vid=c53edd73-3d6b-4bd5-9cb4-a572a6e607bf"},"vehicle_type_id":"4","last_reported":1698347087,"current_range_meters":22000,"station_id":"ce4bgjh2rcd13ifvqbf0","pricing_plan_id":"free"},{"bike_id":"515609f0-e699-4dae-af26-840e9f363417","system_id":"levelo_inurba_marseille","lat":43.30085,"lon":5.390856,"is_reserved":false,"is_disabled":false,"rental_uris":{"android":"levelo://app?vid=515609f0-e699-4dae-af26-840e9f363417","ios":"levelo://app?vid=515609f0-e699-4dae-af26-840e9f363417"},"vehicle_type_id":"4","last_reported":1698347087,"current_range_meters":11600,"station_id":"ce4bh192rcd13ifvqdb0","pricing_plan_id":"free"},{"bike_id":"32e38fcb-0d10-42fe-8b8e-a7e91ad5b57a","system_id":"levelo_inurba_marseille","lat":43.300852,"lon":5.390859,"is_reserved":false,"is_disabled":false,"rental_uris":{"android":"levelo://app?vid=32e38fcb-0d10-42fe-8b8e-a7e91ad5b57a","ios":"levelo://app?vid=32e38fcb-0d10-42fe-8b8e-a7e91ad5b57a"},"vehicle_type_id":"4","last_reported":1698347087,"current_range_meters":21600,"station_id":"ce4bh192rcd13ifvqdb0","pricing_plan_id":"free"},{"bike_id":"64ef175d-8121-4f5b-b43c-7915969b876b","system_id":"levelo_inurba_marseille","lat":43.291671,"lon":5.371575,"is_reserved":false,"is_disabled":false,"rental_uris":{"android":"levelo://app?vid=64ef175d-8121-4f5b-b43c-7915969b876b","ios":"levelo://app?vid=64ef175d-8121-4f5b-b43c-7915969b876b"},"vehicle_type_id":"4","last_reported":1698347087,"current_range_meters":1600,"station_id":"ce4bha92rcd13ifvqeh0","pricing_plan_id":"free"},{"bike_id":"f56bc868-410b-4916-98e9-5eb0843b3395","system_id":"levelo_inurba_marseille","lat":43.29876,"lon":5.38913,"is_reserved":false,"is_disabled":false,"rental_uris":{"android":"levelo://app?vid=f56bc868-410b-4916-98e9-5eb0843b3395","ios":"levelo://app?vid=f56bc868-410b-4916-98e9-5eb0843b3395"},"vehicle_type_id":"4","last_reported":1698347087,"current_range_meters":0,"station_id":"ce4bh392rcd13ifvqdl0","pricing_plan_id":"free"},{"bike_id":"1ea9ae23-769e-457f-9bf1-b109fdeb39f9","system_id":"levelo_inurba_marseille","lat":43.291994,"lon":5.357886,"is_reserved":false,"is_disabled":false,"rental_uris":{"android":"levelo://app?vid=1ea9ae23-769e-457f-9bf1-b109fdeb39f9","ios":"levelo://app?vid=1ea9ae23-769e-457f-9bf1-b109fdeb39f9"},"vehicle_type_id":"4","last_reported":1698347087,"current_range_meters":0,"station_id":"ce4bhb12rcd13ifvqel0","pricing_plan_id":"free"},{"bike_id":"8e20f03b-66aa-4a7a-aeec-2450605a24ea","system_id":"levelo_inurba_marseille","lat":43.313285,"lon":5.396884,"is_reserved":false,"is_disabled":false,"rental_uris":{"android":"levelo://app?vid=8e20f03b-66aa-4a7a-aeec-2450605a24ea","ios":"levelo://app?vid=8e20f03b-66aa-4a7a-aeec-2450605a24ea"},"vehicle_type_id":"4","last_reported":1698347087,"current_range_meters":26800,"station_id":"ce4bgvp2rcd13ifvqcu0","pricing_plan_id":"free"},{"bike_id":"1da6cc5b-ee3e-414c-9c36-4ed4f030edcf","system_id":"levelo_inurba_marseille","lat":43.31321,"lon":5.39694,"is_reserved":false,"is_disabled":false,"rental_uris":{"android":"levelo://app?vid=1da6cc5b-ee3e-414c-9c36-4ed4f030edcf","ios":"levelo://app?vid=1da6cc5b-ee3e-414c-9c36-4ed4f030edcf"},"vehicle_type_id":"4","last_reported":1698347087,"current_range_meters":0,"station_id":"ce4bgvp2rcd13ifvqcu0","pricing_plan_id":"free"},{"bike_id":"63ae1824-f6dd-4b25-a4aa-33151b65add3","system_id":"levelo_inurba_marseille","lat":43.309038,"lon":5.396546,"is_reserved":false,"is_disabled":false,"rental_uris":{"android":"levelo://app?vid=63ae1824-f6dd-4b25-a4aa-33151b65add3","ios":"levelo://app?vid=63ae1824-f6dd-4b25-a4aa-33151b65add3"},"vehicle_type_id":"4","last_reported":1698347087,"current_range_meters":17600,"station_id":"ce4bh012rcd13ifvqcv0","pricing_plan_id":"free"},{"bike_id":"06b83785-26d6-46d8-b1df-e0e63f3ece80","system_id":"levelo_inurba_marseille","lat":43.309038,"lon":5.396546,"is_reserved":false,"is_disabled":false,"rental_uris":{"android":"levelo://app?vid=06b83785-26d6-46d8-b1df-e0e63f3ece80","ios":"levelo://app?vid=06b83785-26d6-46d8-b1df-e0e63f3ece80"},"vehicle_type_id":"4","last_reported":1698347087,"current_range_meters":0,"station_id":"ce4bh012rcd13ifvqcv0","pricing_plan_id":"free"},{"bike_id":"2ce86162-9c3b-4bb6-b3ce-ca57c7b9ee8c","system_id":"levelo_inurba_marseille","lat":43.309038,"lon":5.396546,"is_reserved":false,"is_disabled":false,"rental_uris":{"android":"levelo://app?vid=2ce86162-9c3b-4bb6-b3ce-ca57c7b9ee8c","ios":"levelo://app?vid=2ce86162-9c3b-4bb6-b3ce-ca57c7b9ee8c"},"vehicle_type_id":"4","last_reported":1698347087,"current_range_meters":3200,"station_id":"ce4bh012rcd13ifvqcv0","pricing_plan_id":"free"},{"bike_id":"ffee2b4b-2862-48e3-9766-e3703ae66453","system_id":"levelo_inurba_marseille","lat":43.29529,"lon":5.385581,"is_reserved":false,"is_disabled":false,"rental_uris":{"android":"levelo://app?vid=ffee2b4b-2862-48e3-9766-e3703ae66453","ios":"levelo://app?vid=ffee2b4b-2862-48e3-9766-e3703ae66453"},"vehicle_type_id":"4","last_reported":1698347087,"current_range_meters":8000,"station_id":"ce4bgih2rcd13ifvqba0","pricing_plan_id":"free"},{"bike_id":"126d4670-e812-40c6-9f2a-535ee2ec9a6b","system_id":"levelo_inurba_marseille","lat":43.33219,"lon":5.38149,"is_reserved":false,"is_disabled":false,"rental_uris":{"android":"levelo://app?vid=126d4670-e812-40c6-9f2a-535ee2ec9a6b","ios":"levelo://app?vid=126d4670-e812-40c6-9f2a-535ee2ec9a6b"},"vehicle_type_id":"4","last_reported":1698347087,"current_range_meters":2400,"station_id":"","pricing_plan_id":"free"},{"bike_id":"6a3ae142-0a9b-4b4b-8276-8ec5a63cf98f","system_id":"levelo_inurba_marseille","lat":43.29914,"lon":5.3917,"is_reserved":false,"is_disabled":false,"rental_uris":{"android":"levelo://app?vid=6a3ae142-0a9b-4b4b-8276-8ec5a63cf98f","ios":"levelo://app?vid=6a3ae142-0a9b-4b4b-8276-8ec5a63cf98f"},"vehicle_type_id":"4","last_reported":1698347087,"current_range_meters":0,"station_id":"","pricing_plan_id":"free"},{"bike_id":"a7f17507-076c-41e0-9e76-fecbcf8fefb3","system_id":"levelo_inurba_marseille","lat":43.308139,"lon":5.397323,"is_reserved":false,"is_disabled":false,"rental_uris":{"android":"levelo://app?vid=a7f17507-076c-41e0-9e76-fecbcf8fefb3","ios":"levelo://app?vid=a7f17507-076c-41e0-9e76-fecbcf8fefb3"},"vehicle_type_id":"4","last_reported":1698347087,"current_range_meters":29600,"station_id":"ce4bh0p2rcd13ifvqd70","pricing_plan_id":"free"},{"bike_id":"6f0cd629-8a47-4738-a2af-522c0600372e","system_id":"levelo_inurba_marseille","lat":43.30216,"lon":5.3947,"is_reserved":false,"is_disabled":false,"rental_uris":{"android":"levelo://app?vid=6f0cd629-8a47-4738-a2af-522c0600372e","ios":"levelo://app?vid=6f0cd629-8a47-4738-a2af-522c0600372e"},"vehicle_type_id":"4","last_reported":1698347087,"current_range_meters":0,"station_id":"ce4bh0p2rcd13ifvqd70","pricing_plan_id":"free"},{"bike_id":"d445e7dc-8f39-4198-8d15-1838ad42556e","system_id":"levelo_inurba_marseille","lat":43.30215,"lon":5.39471,"is_reserved":false,"is_disabled":false,"rental_uris":{"android":"levelo://app?vid=d445e7dc-8f39-4198-8d15-1838ad42556e","ios":"levelo://app?vid=d445e7dc-8f39-4198-8d15-1838ad42556e"},"vehicle_type_id":"4","last_reported":1698347087,"current_range_meters":11600,"station_id":"ce4bh0p2rcd13ifvqd70","pricing_plan_id":"free"},{"bike_id":"34dc3cc0-1c2a-4eb8-8738-5f5e6e66fc26","system_id":"levelo_inurba_marseille","lat":43.305994,"lon":5.393687,"is_reserved":false,"is_disabled":false,"rental_uris":{"android":"levelo://app?vid=34dc3cc0-1c2a-4eb8-8738-5f5e6e66fc26","ios":"levelo://app?vid=34dc3cc0-1c2a-4eb8-8738-5f5e6e66fc26"},"vehicle_type_id":"4","last_reported":1698347087,"current_range_meters":5600,"station_id":"ce4bh0p2rcd13ifvqd80","pricing_plan_id":"free"},{"bike_id":"3ba9337c-3a4c-4b79-bb22-9c08f678ee27","system_id":"levelo_inurba_marseille","lat":43.3339,"lon":5.37907,"is_reserved":false,"is_disabled":false,"rental_uris":{"android":"levelo://app?vid=3ba9337c-3a4c-4b79-bb22-9c08f678ee27","ios":"levelo://app?vid=3ba9337c-3a4c-4b79-bb22-9c08f678ee27"},"vehicle_type_id":"4","last_reported":1698347087,"current_range_meters":21600,"station_id":"","pricing_plan_id":"free"},{"bike_id":"6362ce3a-1587-47c9-a74e-3342b9ae1b97","system_id":"levelo_inurba_marseille","lat":43.290327,"lon":5.375711,"is_reserved":false,"is_disabled":false,"rental_uris":{"android":"levelo://app?vid=6362ce3a-1587-47c9-a74e-3342b9ae1b97","ios":"levelo://app?vid=6362ce3a-1587-47c9-a74e-3342b9ae1b97"},"vehicle_type_id":"4","last_reported":1698347087,"current_range_meters":4800,"station_id":"ce4bh692rcd13ifvqe90","pricing_plan_id":"free"},{"bike_id":"521baa38-b839-4b03-b749-addfb6b072c2","system_id":"levelo_inurba_marseille","lat":43.290327,"lon":5.375711,"is_reserved":false,"is_disabled":false,"rental_uris":{"android":"levelo://app?vid=521baa38-b839-4b03-b749-addfb6b072c2","ios":"levelo://app?vid=521baa38-b839-4b03-b749-addfb6b072c2"},"vehicle_type_id":"4","last_reported":1698347087,"current_range_meters":27600,"station_id":"ce4bh692rcd13ifvqe90","pricing_plan_id":"free"},{"bike_id":"0949fd6f-87c3-4f41-8db6-c7528eff0a37","system_id":"levelo_inurba_marseille","lat":43.289184,"lon":5.366408,"is_reserved":false,"is_disabled":false,"rental_uris":{"android":"levelo://app?vid=0949fd6f-87c3-4f41-8db6-c7528eff0a37","ios":"levelo://app?vid=0949fd6f-87c3-4f41-8db6-c7528eff0a37"},"vehicle_type_id":"4","last_reported":1698347087,"current_range_meters":3200,"station_id":"ce4bhap2rcd13ifvqek0","pricing_plan_id":"free"},{"bike_id":"c8844f1e-b6c7-4ca7-a678-609c5d916689","system_id":"levelo_inurba_marseille","lat":43.289184,"lon":5.366408,"is_reserved":false,"is_disabled":false,"rental_uris":{"android":"levelo://app?vid=c8844f1e-b6c7-4ca7-a678-609c5d916689","ios":"levelo://app?vid=c8844f1e-b6c7-4ca7-a678-609c5d916689"},"vehicle_type_id":"4","last_reported":1698347087,"current_range_meters":24800,"station_id":"ce4bhap2rcd13ifvqek0","pricing_plan_id":"free"},{"bike_id":"5cd55680-1473-4c4e-b558-f28d5e7f56af","system_id":"levelo_inurba_marseille","lat":43.294162,"lon":5.386292,"is_reserved":false,"is_disabled":false,"rental_uris":{"android":"levelo://app?vid=5cd55680-1473-4c4e-b558-f28d5e7f56af","ios":"levelo://app?vid=5cd55680-1473-4c4e-b558-f28d5e7f56af"},"vehicle_type_id":"4","last_reported":1698347087,"current_range_meters":2800,"station_id":"ce4bh2h2rcd13ifvqdh0","pricing_plan_id":"free"},{"bike_id":"269c1232-ae2d-4e13-a817-050d9eaf3827","system_id":"levelo_inurba_marseille","lat":43.289184,"lon":5.366408,"is_reserved":false,"is_disabled":false,"rental_uris":{"android":"levelo://app?vid=269c1232-ae2d-4e13-a817-050d9eaf3827","ios":"levelo://app?vid=269c1232-ae2d-4e13-a817-050d9eaf3827"},"vehicle_type_id":"4","last_reported":1698347087,"current_range_meters":6000,"station_id":"ce4bhap2rcd13ifvqek0","pricing_plan_id":"free"},{"bike_id":"32157abb-f861-479a-a8a3-c340fc9da42f","system_id":"levelo_inurba_marseille","lat":43.289184,"lon":5.366408,"is_reserved":false,"is_disabled":false,"rental_uris":{"android":"levelo://app?vid=32157abb-f861-479a-a8a3-c340fc9da42f","ios":"levelo://app?vid=32157abb-f861-479a-a8a3-c340fc9da42f"},"vehicle_type_id":"4","last_reported":1698347087,"current_range_meters":13200,"station_id":"ce4bhap2rcd13ifvqek0","pricing_plan_id":"free"},{"bike_id":"235e6fd4-6942-4eba-965d-63359880fdca","system_id":"levelo_inurba_marseille","lat":43.289184,"lon":5.366408,"is_reserved":false,"is_disabled":false,"rental_uris":{"android":"levelo://app?vid=235e6fd4-6942-4eba-965d-63359880fdca","ios":"levelo://app?vid=235e6fd4-6942-4eba-965d-63359880fdca"},"vehicle_type_id":"4","last_reported":1698347087,"current_range_meters":4000,"station_id":"ce4bhap2rcd13ifvqek0","pricing_plan_id":"free"},{"bike_id":"5ee8d6a3-9187-468e-93ed-a83345b7b64d","system_id":"levelo_inurba_marseille","lat":43.289468,"lon":5.363719,"is_reserved":false,"is_disabled":false,"rental_uris":{"android":"levelo://app?vid=5ee8d6a3-9187-468e-93ed-a83345b7b64d","ios":"levelo://app?vid=5ee8d6a3-9187-468e-93ed-a83345b7b64d"},"vehicle_type_id":"4","last_reported":1698347087,"current_range_meters":4000,"station_id":"ce4bhc92rcd13ifvqetg","pricing_plan_id":"free"},{"bike_id":"618c9aea-8653-4e68-85d1-0f39c0f7ff15","system_id":"levelo_inurba_marseille","lat":43.29275,"lon":5.38431,"is_reserved":false,"is_disabled":false,"rental_uris":{"android":"levelo://app?vid=618c9aea-8653-4e68-85d1-0f39c0f7ff15","ios":"levelo://app?vid=618c9aea-8653-4e68-85d1-0f39c0f7ff15"},"vehicle_type_id":"4","last_reported":1698347087,"current_range_meters":9200,"station_id":"ce4bh692rcd13ifvqea0","pricing_plan_id":"free"},{"bike_id":"124d011a-4f81-4975-8987-732334e29bb8","system_id":"levelo_inurba_marseille","lat":43.292642,"lon":5.384254,"is_reserved":false,"is_disabled":false,"rental_uris":{"android":"levelo://app?vid=124d011a-4f81-4975-8987-732334e29bb8","ios":"levelo://app?vid=124d011a-4f81-4975-8987-732334e29bb8"},"vehicle_type_id":"4","last_reported":1698347087,"current_range_meters":5600,"station_id":"ce4bh692rcd13ifvqea0","pricing_plan_id":"free"},{"bike_id":"6ccc7c11-f6e7-474d-86ca-af6709a8a212","system_id":"levelo_inurba_marseille","lat":43.289468,"lon":5.363719,"is_reserved":false,"is_disabled":false,"rental_uris":{"android":"levelo://app?vid=6ccc7c11-f6e7-474d-86ca-af6709a8a212","ios":"levelo://app?vid=6ccc7c11-f6e7-474d-86ca-af6709a8a212"},"vehicle_type_id":"4","last_reported":1698347087,"current_range_meters":800,"station_id":"ce4bhc92rcd13ifvqetg","pricing_plan_id":"free"},{"bike_id":"a660ed62-49ba-4d1f-a12b-9cb5014e13b5","system_id":"levelo_inurba_marseille","lat":43.292642,"lon":5.384254,"is_reserved":false,"is_disabled":false,"rental_uris":{"android":"levelo://app?vid=a660ed62-49ba-4d1f-a12b-9cb5014e13b5","ios":"levelo://app?vid=a660ed62-49ba-4d1f-a12b-9cb5014e13b5"},"vehicle_type_id":"4","last_reported":1698347087,"current_range_meters":0,"station_id":"ce4bh692rcd13ifvqea0","pricing_plan_id":"free"},{"bike_id":"adf1562a-2d3a-4539-a404-828cf8a369cc","system_id":"levelo_inurba_marseille","lat":43.292642,"lon":5.384254,"is_reserved":false,"is_disabled":false,"rental_uris":{"android":"levelo://app?vid=adf1562a-2d3a-4539-a404-828cf8a369cc","ios":"levelo://app?vid=adf1562a-2d3a-4539-a404-828cf8a369cc"},"vehicle_type_id":"4","last_reported":1698347087,"current_range_meters":8800,"station_id":"ce4bh692rcd13ifvqea0","pricing_plan_id":"free"},{"bike_id":"53b12d0d-01a9-494b-87be-091528ad1f5f","system_id":"levelo_inurba_marseille","lat":43.29269,"lon":5.38439,"is_reserved":false,"is_disabled":false,"rental_uris":{"android":"levelo://app?vid=53b12d0d-01a9-494b-87be-091528ad1f5f","ios":"levelo://app?vid=53b12d0d-01a9-494b-87be-091528ad1f5f"},"vehicle_type_id":"4","last_reported":1698347087,"current_range_meters":7200,"station_id":"ce4bh692rcd13ifvqea0","pricing_plan_id":"free"},{"bike_id":"82d54589-2b82-4cb7-947e-87fc2b202a33","system_id":"levelo_inurba_marseille","lat":43.292642,"lon":5.384254,"is_reserved":false,"is_disabled":false,"rental_uris":{"android":"levelo://app?vid=82d54589-2b82-4cb7-947e-87fc2b202a33","ios":"levelo://app?vid=82d54589-2b82-4cb7-947e-87fc2b202a33"},"vehicle_type_id":"4","last_reported":1698347087,"current_range_meters":17600,"station_id":"ce4bh692rcd13ifvqea0","pricing_plan_id":"free"},{"bike_id":"a162ef5b-aed3-41fb-9b2a-92af1cee4988","system_id":"levelo_inurba_marseille","lat":43.292642,"lon":5.384254,"is_reserved":false,"is_disabled":false,"rental_uris":{"android":"levelo://app?vid=a162ef5b-aed3-41fb-9b2a-92af1cee4988","ios":"levelo://app?vid=a162ef5b-aed3-41fb-9b2a-92af1cee4988"},"vehicle_type_id":"4","last_reported":1698347087,"current_range_meters":10800,"station_id":"ce4bh692rcd13ifvqea0","pricing_plan_id":"free"},{"bike_id":"cd8f996c-bca4-4936-846a-2157e64e8e4f","system_id":"levelo_inurba_marseille","lat":43.29265,"lon":5.38444,"is_reserved":false,"is_disabled":false,"rental_uris":{"android":"levelo://app?vid=cd8f996c-bca4-4936-846a-2157e64e8e4f","ios":"levelo://app?vid=cd8f996c-bca4-4936-846a-2157e64e8e4f"},"vehicle_type_id":"4","last_reported":1698347087,"current_range_meters":0,"station_id":"ce4bh692rcd13ifvqea0","pricing_plan_id":"free"},{"bike_id":"2bac03ac-93b9-48e2-8fde-a3a529a5c88c","system_id":"levelo_inurba_marseille","lat":43.292642,"lon":5.384254,"is_reserved":false,"is_disabled":false,"rental_uris":{"android":"levelo://app?vid=2bac03ac-93b9-48e2-8fde-a3a529a5c88c","ios":"levelo://app?vid=2bac03ac-93b9-48e2-8fde-a3a529a5c88c"},"vehicle_type_id":"4","last_reported":1698347087,"current_range_meters":13200,"station_id":"ce4bh692rcd13ifvqea0","pricing_plan_id":"free"},{"bike_id":"36202136-7f16-4690-81da-1cdbd56c5dff","system_id":"levelo_inurba_marseille","lat":43.292639,"lon":5.384447,"is_reserved":false,"is_disabled":false,"rental_uris":{"android":"levelo://app?vid=36202136-7f16-4690-81da-1cdbd56c5dff","ios":"levelo://app?vid=36202136-7f16-4690-81da-1cdbd56c5dff"},"vehicle_type_id":"4","last_reported":1698347087,"current_range_meters":22400,"station_id":"ce4bh692rcd13ifvqea0","pricing_plan_id":"free"},{"bike_id":"ed532d07-35b6-40d2-83dd-c36cf688784e","system_id":"levelo_inurba_marseille","lat":43.292644,"lon":5.384257,"is_reserved":false,"is_disabled":false,"rental_uris":{"android":"levelo://app?vid=ed532d07-35b6-40d2-83dd-c36cf688784e","ios":"levelo://app?vid=ed532d07-35b6-40d2-83dd-c36cf688784e"},"vehicle_type_id":"4","last_reported":1698347087,"current_range_meters":16000,"station_id":"ce4bh692rcd13ifvqea0","pricing_plan_id":"free"},{"bike_id":"e45c51ee-6a90-457e-85a2-29a9e1515064","system_id":"levelo_inurba_marseille","lat":43.29259,"lon":5.38441,"is_reserved":false,"is_disabled":false,"rental_uris":{"android":"levelo://app?vid=e45c51ee-6a90-457e-85a2-29a9e1515064","ios":"levelo://app?vid=e45c51ee-6a90-457e-85a2-29a9e1515064"},"vehicle_type_id":"4","last_reported":1698347087,"current_range_meters":0,"station_id":"ce4bh692rcd13ifvqea0","pricing_plan_id":"free"},{"bike_id":"0e2ab528-7965-4850-ace1-43282852caa1","system_id":"levelo_inurba_marseille","lat":43.292642,"lon":5.384254,"is_reserved":false,"is_disabled":false,"rental_uris":{"android":"levelo://app?vid=0e2ab528-7965-4850-ace1-43282852caa1","ios":"levelo://app?vid=0e2ab528-7965-4850-ace1-43282852caa1"},"vehicle_type_id":"4","last_reported":1698347087,"current_range_meters":9600,"station_id":"ce4bh692rcd13ifvqea0","pricing_plan_id":"free"},{"bike_id":"ad90d429-24e7-4741-993d-dcd8ee553284","system_id":"levelo_inurba_marseille","lat":43.29258,"lon":5.3845,"is_reserved":false,"is_disabled":false,"rental_uris":{"android":"levelo://app?vid=ad90d429-24e7-4741-993d-dcd8ee553284","ios":"levelo://app?vid=ad90d429-24e7-4741-993d-dcd8ee553284"},"vehicle_type_id":"4","last_reported":1698347087,"current_range_meters":6400,"station_id":"ce4bh692rcd13ifvqea0","pricing_plan_id":"free"},{"bike_id":"fe3dce40-83ff-46bd-81fd-90906dc054bc","system_id":"levelo_inurba_marseille","lat":43.292588,"lon":5.384535,"is_reserved":false,"is_disabled":false,"rental_uris":{"android":"levelo://app?vid=fe3dce40-83ff-46bd-81fd-90906dc054bc","ios":"levelo://app?vid=fe3dce40-83ff-46bd-81fd-90906dc054bc"},"vehicle_type_id":"4","last_reported":1698347087,"current_range_meters":18800,"station_id":"ce4bh692rcd13ifvqea0","pricing_plan_id":"free"},{"bike_id":"6f282ea3-333e-425b-84ef-b4f1ae8ac960","system_id":"levelo_inurba_marseille","lat":43.29257,"lon":5.3845,"is_reserved":false,"is_disabled":false,"rental_uris":{"android":"levelo://app?vid=6f282ea3-333e-425b-84ef-b4f1ae8ac960","ios":"levelo://app?vid=6f282ea3-333e-425b-84ef-b4f1ae8ac960"},"vehicle_type_id":"4","last_reported":1698347087,"current_range_meters":4800,"station_id":"ce4bh692rcd13ifvqea0","pricing_plan_id":"free"},{"bike_id":"ba373360-0dcb-4923-a3b9-9dff6b0f9ac2","system_id":"levelo_inurba_marseille","lat":43.292644,"lon":5.384257,"is_reserved":false,"is_disabled":false,"rental_uris":{"android":"levelo://app?vid=ba373360-0dcb-4923-a3b9-9dff6b0f9ac2","ios":"levelo://app?vid=ba373360-0dcb-4923-a3b9-9dff6b0f9ac2"},"vehicle_type_id":"4","last_reported":1698347087,"current_range_meters":4000,"station_id":"ce4bh692rcd13ifvqea0","pricing_plan_id":"free"},{"bike_id":"10c9a5ea-3b5b-4d27-8191-60400c8f7d13","system_id":"levelo_inurba_marseille","lat":43.292559,"lon":5.384556,"is_reserved":false,"is_disabled":false,"rental_uris":{"android":"levelo://app?vid=10c9a5ea-3b5b-4d27-8191-60400c8f7d13","ios":"levelo://app?vid=10c9a5ea-3b5b-4d27-8191-60400c8f7d13"},"vehicle_type_id":"4","last_reported":1698347087,"current_range_meters":7200,"station_id":"ce4bh692rcd13ifvqea0","pricing_plan_id":"free"},{"bike_id":"7d2379d6-2e2c-404f-b676-8d8885427af0","system_id":"levelo_inurba_marseille","lat":43.290995,"lon":5.381361,"is_reserved":false,"is_disabled":false,"rental_uris":{"android":"levelo://app?vid=7d2379d6-2e2c-404f-b676-8d8885427af0","ios":"levelo://app?vid=7d2379d6-2e2c-404f-b676-8d8885427af0"},"vehicle_type_id":"4","last_reported":1698347087,"current_range_meters":10800,"station_id":"ce4bh512rcd13ifvqe2g","pricing_plan_id":"free"},{"bike_id":"42f7f4a2-5398-4e69-b3ec-c12fffd3e71e","system_id":"levelo_inurba_marseille","lat":43.295169,"lon":5.390426,"is_reserved":false,"is_disabled":false,"rental_uris":{"android":"levelo://app?vid=42f7f4a2-5398-4e69-b3ec-c12fffd3e71e","ios":"levelo://app?vid=42f7f4a2-5398-4e69-b3ec-c12fffd3e71e"},"vehicle_type_id":"4","last_reported":1698347087,"current_range_meters":6800,"station_id":"ce4bh3p2rcd13ifvqdp0","pricing_plan_id":"free"},{"bike_id":"31a86479-92d7-4149-9fc3-a54152f5251b","system_id":"levelo_inurba_marseille","lat":43.295169,"lon":5.390426,"is_reserved":false,"is_disabled":false,"rental_uris":{"android":"levelo://app?vid=31a86479-92d7-4149-9fc3-a54152f5251b","ios":"levelo://app?vid=31a86479-92d7-4149-9fc3-a54152f5251b"},"vehicle_type_id":"4","last_reported":1698347087,"current_range_meters":18800,"station_id":"ce4bh3p2rcd13ifvqdp0","pricing_plan_id":"free"},{"bike_id":"ae9fe179-7300-4b2a-829a-45acdd82b830","system_id":"levelo_inurba_marseille","lat":43.297815,"lon":5.393548,"is_reserved":false,"is_disabled":false,"rental_uris":{"android":"levelo://app?vid=ae9fe179-7300-4b2a-829a-45acdd82b830","ios":"levelo://app?vid=ae9fe179-7300-4b2a-829a-45acdd82b830"},"vehicle_type_id":"4","last_reported":1698347087,"current_range_meters":0,"station_id":"chh1huq6cuj3fo74tm60","pricing_plan_id":"free"},{"bike_id":"c75d1acd-29ab-491b-bc5e-b95dbda606c6","system_id":"levelo_inurba_marseille","lat":43.295169,"lon":5.390426,"is_reserved":false,"is_disabled":false,"rental_uris":{"android":"levelo://app?vid=c75d1acd-29ab-491b-bc5e-b95dbda606c6","ios":"levelo://app?vid=c75d1acd-29ab-491b-bc5e-b95dbda606c6"},"vehicle_type_id":"4","last_reported":1698347087,"current_range_meters":13200,"station_id":"ce4bh3p2rcd13ifvqdp0","pricing_plan_id":"free"},{"bike_id":"72dff36f-5514-440c-b8c4-9b56b69066cd","system_id":"levelo_inurba_marseille","lat":43.295169,"lon":5.390426,"is_reserved":false,"is_disabled":false,"rental_uris":{"android":"levelo://app?vid=72dff36f-5514-440c-b8c4-9b56b69066cd","ios":"levelo://app?vid=72dff36f-5514-440c-b8c4-9b56b69066cd"},"vehicle_type_id":"4","last_reported":1698347087,"current_range_meters":28400,"station_id":"ce4bh3p2rcd13ifvqdp0","pricing_plan_id":"free"},{"bike_id":"9466c333-fdc0-41d0-816e-e467d1ddc525","system_id":"levelo_inurba_marseille","lat":43.295169,"lon":5.390426,"is_reserved":false,"is_disabled":false,"rental_uris":{"android":"levelo://app?vid=9466c333-fdc0-41d0-816e-e467d1ddc525","ios":"levelo://app?vid=9466c333-fdc0-41d0-816e-e467d1ddc525"},"vehicle_type_id":"4","last_reported":1698347087,"current_range_meters":7200,"station_id":"ce4bh3p2rcd13ifvqdp0","pricing_plan_id":"free"},{"bike_id":"be910424-88f8-4b8e-b873-1c5a50720a5f","system_id":"levelo_inurba_marseille","lat":43.295169,"lon":5.390426,"is_reserved":false,"is_disabled":false,"rental_uris":{"android":"levelo://app?vid=be910424-88f8-4b8e-b873-1c5a50720a5f","ios":"levelo://app?vid=be910424-88f8-4b8e-b873-1c5a50720a5f"},"vehicle_type_id":"4","last_reported":1698347087,"current_range_meters":15600,"station_id":"ce4bh3p2rcd13ifvqdp0","pricing_plan_id":"free"},{"bike_id":"f44622cd-5feb-484d-961c-89bffb7cd40a","system_id":"levelo_inurba_marseille","lat":43.28856,"lon":5.358371,"is_reserved":false,"is_disabled":false,"rental_uris":{"android":"levelo://app?vid=f44622cd-5feb-484d-961c-89bffb7cd40a","ios":"levelo://app?vid=f44622cd-5feb-484d-961c-89bffb7cd40a"},"vehicle_type_id":"4","last_reported":1698347087,"current_range_meters":11200,"station_id":"ce4bhb12rcd13ifvqem0","pricing_plan_id":"free"},{"bike_id":"f0523d8a-eb15-4c74-8102-5b4d3649ecb7","system_id":"levelo_inurba_marseille","lat":43.28856,"lon":5.358371,"is_reserved":false,"is_disabled":false,"rental_uris":{"android":"levelo://app?vid=f0523d8a-eb15-4c74-8102-5b4d3649ecb7","ios":"levelo://app?vid=f0523d8a-eb15-4c74-8102-5b4d3649ecb7"},"vehicle_type_id":"4","last_reported":1698347087,"current_range_meters":4000,"station_id":"ce4bhb12rcd13ifvqem0","pricing_plan_id":"free"},{"bike_id":"61e0f8ea-6b78-411d-99b1-4106e189af53","system_id":"levelo_inurba_marseille","lat":43.312609,"lon":5.401662,"is_reserved":false,"is_disabled":false,"rental_uris":{"android":"levelo://app?vid=61e0f8ea-6b78-411d-99b1-4106e189af53","ios":"levelo://app?vid=61e0f8ea-6b78-411d-99b1-4106e189af53"},"vehicle_type_id":"4","last_reported":1698347087,"current_range_meters":0,"station_id":"ce4bh092rcd13ifvqd30","pricing_plan_id":"free"},{"bike_id":"9a97f8a9-11c5-4aba-abc8-aec037f656db","system_id":"levelo_inurba_marseille","lat":43.30931,"lon":5.40141,"is_reserved":false,"is_disabled":false,"rental_uris":{"android":"levelo://app?vid=9a97f8a9-11c5-4aba-abc8-aec037f656db","ios":"levelo://app?vid=9a97f8a9-11c5-4aba-abc8-aec037f656db"},"vehicle_type_id":"4","last_reported":1698347087,"current_range_meters":5600,"station_id":"ce4bgvp2rcd13ifvqct0","pricing_plan_id":"free"},{"bike_id":"2e33a65b-815e-48d9-b98d-e3f54834c601","system_id":"levelo_inurba_marseille","lat":43.30937,"lon":5.40143,"is_reserved":false,"is_disabled":false,"rental_uris":{"android":"levelo://app?vid=2e33a65b-815e-48d9-b98d-e3f54834c601","ios":"levelo://app?vid=2e33a65b-815e-48d9-b98d-e3f54834c601"},"vehicle_type_id":"4","last_reported":1698347087,"current_range_meters":10800,"station_id":"ce4bgvp2rcd13ifvqct0","pricing_plan_id":"free"},{"bike_id":"2aa99cb9-8fb4-46bc-8a86-a251d4f1f23b","system_id":"levelo_inurba_marseille","lat":43.33753,"lon":5.37456,"is_reserved":false,"is_disabled":false,"rental_uris":{"android":"levelo://app?vid=2aa99cb9-8fb4-46bc-8a86-a251d4f1f23b","ios":"levelo://app?vid=2aa99cb9-8fb4-46bc-8a86-a251d4f1f23b"},"vehicle_type_id":"4","last_reported":1698347087,"current_range_meters":20000,"station_id":"","pricing_plan_id":"free"},{"bike_id":"471ec662-c9d3-4e43-878b-e25d3af38073","system_id":"levelo_inurba_marseille","lat":43.306412,"lon":5.401035,"is_reserved":false,"is_disabled":false,"rental_uris":{"android":"levelo://app?vid=471ec662-c9d3-4e43-878b-e25d3af38073","ios":"levelo://app?vid=471ec662-c9d3-4e43-878b-e25d3af38073"},"vehicle_type_id":"4","last_reported":1698347087,"current_range_meters":15200,"station_id":"ce4bh112rcd13ifvqda0","pricing_plan_id":"free"},{"bike_id":"f5184829-d73f-4187-ad9f-c1a574747752","system_id":"levelo_inurba_marseille","lat":43.28727,"lon":5.36078,"is_reserved":false,"is_disabled":false,"rental_uris":{"android":"levelo://app?vid=f5184829-d73f-4187-ad9f-c1a574747752","ios":"levelo://app?vid=f5184829-d73f-4187-ad9f-c1a574747752"},"vehicle_type_id":"4","last_reported":1698347087,"current_range_meters":3200,"station_id":"cki0cbj6b192h4jlfktg","pricing_plan_id":"free"},{"bike_id":"73303371-e097-48d4-976d-f9aa147b933d","system_id":"levelo_inurba_marseille","lat":43.29881,"lon":5.39728,"is_reserved":false,"is_disabled":false,"rental_uris":{"android":"levelo://app?vid=73303371-e097-48d4-976d-f9aa147b933d","ios":"levelo://app?vid=73303371-e097-48d4-976d-f9aa147b933d"},"vehicle_type_id":"4","last_reported":1698347087,"current_range_meters":0,"station_id":"ce4bh0h2rcd13ifvqd50","pricing_plan_id":"free"},{"bike_id":"2f2bdaf7-e47c-4837-a647-05740e8e64f9","system_id":"levelo_inurba_marseille","lat":43.298681,"lon":5.397225,"is_reserved":false,"is_disabled":false,"rental_uris":{"android":"levelo://app?vid=2f2bdaf7-e47c-4837-a647-05740e8e64f9","ios":"levelo://app?vid=2f2bdaf7-e47c-4837-a647-05740e8e64f9"},"vehicle_type_id":"4","last_reported":1698347087,"current_range_meters":25600,"station_id":"ce4bh0h2rcd13ifvqd50","pricing_plan_id":"free"},{"bike_id":"47a9f8b6-e95d-4cb9-9c8b-4e50777368b5","system_id":"levelo_inurba_marseille","lat":43.298681,"lon":5.397225,"is_reserved":false,"is_disabled":false,"rental_uris":{"android":"levelo://app?vid=47a9f8b6-e95d-4cb9-9c8b-4e50777368b5","ios":"levelo://app?vid=47a9f8b6-e95d-4cb9-9c8b-4e50777368b5"},"vehicle_type_id":"4","last_reported":1698347087,"current_range_meters":3600,"station_id":"ce4bh0h2rcd13ifvqd50","pricing_plan_id":"free"},{"bike_id":"c95e5251-eba6-4202-a359-fd2ba1ebfdce","system_id":"levelo_inurba_marseille","lat":43.286591,"lon":5.363346,"is_reserved":false,"is_disabled":false,"rental_uris":{"android":"levelo://app?vid=c95e5251-eba6-4202-a359-fd2ba1ebfdce","ios":"levelo://app?vid=c95e5251-eba6-4202-a359-fd2ba1ebfdce"},"vehicle_type_id":"4","last_reported":1698347087,"current_range_meters":5600,"station_id":"ce4bhah2rcd13ifvqej0","pricing_plan_id":"free"},{"bike_id":"55fdb233-c799-4146-8772-0e3b7e53a32c","system_id":"levelo_inurba_marseille","lat":43.287003,"lon":5.373994,"is_reserved":false,"is_disabled":false,"rental_uris":{"android":"levelo://app?vid=55fdb233-c799-4146-8772-0e3b7e53a32c","ios":"levelo://app?vid=55fdb233-c799-4146-8772-0e3b7e53a32c"},"vehicle_type_id":"4","last_reported":1698347087,"current_range_meters":2800,"station_id":"ce4bh3p2rcd13ifvqdq0","pricing_plan_id":"free"},{"bike_id":"7d4d1d8f-112e-441e-a309-71f225179ff4","system_id":"levelo_inurba_marseille","lat":43.286961,"lon":5.373785,"is_reserved":false,"is_disabled":false,"rental_uris":{"android":"levelo://app?vid=7d4d1d8f-112e-441e-a309-71f225179ff4","ios":"levelo://app?vid=7d4d1d8f-112e-441e-a309-71f225179ff4"},"vehicle_type_id":"4","last_reported":1698347087,"current_range_meters":0,"station_id":"ce4bh3p2rcd13ifvqdq0","pricing_plan_id":"free"},{"bike_id":"e13e90b8-56aa-45c8-844f-93b951f428ad","system_id":"levelo_inurba_marseille","lat":43.286593,"lon":5.363346,"is_reserved":false,"is_disabled":false,"rental_uris":{"android":"levelo://app?vid=e13e90b8-56aa-45c8-844f-93b951f428ad","ios":"levelo://app?vid=e13e90b8-56aa-45c8-844f-93b951f428ad"},"vehicle_type_id":"4","last_reported":1698347087,"current_range_meters":12000,"station_id":"ce4bhah2rcd13ifvqej0","pricing_plan_id":"free"},{"bike_id":"e0240c97-68b0-460a-b1b8-72ce992fe151","system_id":"levelo_inurba_marseille","lat":43.286593,"lon":5.363346,"is_reserved":false,"is_disabled":false,"rental_uris":{"android":"levelo://app?vid=e0240c97-68b0-460a-b1b8-72ce992fe151","ios":"levelo://app?vid=e0240c97-68b0-460a-b1b8-72ce992fe151"},"vehicle_type_id":"4","last_reported":1698347087,"current_range_meters":4800,"station_id":"ce4bhah2rcd13ifvqej0","pricing_plan_id":"free"},{"bike_id":"c4a20e0a-1468-4e2f-8395-4470683632e5","system_id":"levelo_inurba_marseille","lat":43.295196,"lon":5.39397,"is_reserved":false,"is_disabled":false,"rental_uris":{"android":"levelo://app?vid=c4a20e0a-1468-4e2f-8395-4470683632e5","ios":"levelo://app?vid=c4a20e0a-1468-4e2f-8395-4470683632e5"},"vehicle_type_id":"4","last_reported":1698347087,"current_range_meters":13600,"station_id":"ce4bh292rcd13ifvqdf0","pricing_plan_id":"free"},{"bike_id":"5c61f7f8-009b-4f2a-9378-7f1c51e438fc","system_id":"levelo_inurba_marseille","lat":43.2904,"lon":5.38633,"is_reserved":false,"is_disabled":false,"rental_uris":{"android":"levelo://app?vid=5c61f7f8-009b-4f2a-9378-7f1c51e438fc","ios":"levelo://app?vid=5c61f7f8-009b-4f2a-9378-7f1c51e438fc"},"vehicle_type_id":"4","last_reported":1698347087,"current_range_meters":16400,"station_id":"ce4bh4p2rcd13ifvqe0g","pricing_plan_id":"free"},{"bike_id":"b9ad45c5-350d-4590-9e2c-e5a1d423e13e","system_id":"levelo_inurba_marseille","lat":43.289298,"lon":5.38385,"is_reserved":false,"is_disabled":false,"rental_uris":{"android":"levelo://app?vid=b9ad45c5-350d-4590-9e2c-e5a1d423e13e","ios":"levelo://app?vid=b9ad45c5-350d-4590-9e2c-e5a1d423e13e"},"vehicle_type_id":"4","last_reported":1698347087,"current_range_meters":0,"station_id":"ce4bh612rcd13ifvqe6g","pricing_plan_id":"free"},{"bike_id":"9ba63e6f-c447-4c4a-88d9-de03b9ab06b8","system_id":"levelo_inurba_marseille","lat":43.290346,"lon":5.386456,"is_reserved":false,"is_disabled":false,"rental_uris":{"android":"levelo://app?vid=9ba63e6f-c447-4c4a-88d9-de03b9ab06b8","ios":"levelo://app?vid=9ba63e6f-c447-4c4a-88d9-de03b9ab06b8"},"vehicle_type_id":"4","last_reported":1698347087,"current_range_meters":7600,"station_id":"ce4bh4p2rcd13ifvqe0g","pricing_plan_id":"free"},{"bike_id":"9d01f3c2-fe23-4b37-a89f-7ff2c8d3834e","system_id":"levelo_inurba_marseille","lat":43.29038,"lon":5.38653,"is_reserved":false,"is_disabled":false,"rental_uris":{"android":"levelo://app?vid=9d01f3c2-fe23-4b37-a89f-7ff2c8d3834e","ios":"levelo://app?vid=9d01f3c2-fe23-4b37-a89f-7ff2c8d3834e"},"vehicle_type_id":"4","last_reported":1698347087,"current_range_meters":4400,"station_id":"ce4bh4p2rcd13ifvqe0g","pricing_plan_id":"free"},{"bike_id":"6a7eea08-acd3-4044-bf72-1e427bbbc0b2","system_id":"levelo_inurba_marseille","lat":43.289307,"lon":5.38406,"is_reserved":false,"is_disabled":false,"rental_uris":{"android":"levelo://app?vid=6a7eea08-acd3-4044-bf72-1e427bbbc0b2","ios":"levelo://app?vid=6a7eea08-acd3-4044-bf72-1e427bbbc0b2"},"vehicle_type_id":"4","last_reported":1698347087,"current_range_meters":1200,"station_id":"ce4bh612rcd13ifvqe6g","pricing_plan_id":"free"},{"bike_id":"27cef1ca-0ac6-4e46-ad00-c6acbde6de38","system_id":"levelo_inurba_marseille","lat":43.29028,"lon":5.38643,"is_reserved":false,"is_disabled":false,"rental_uris":{"android":"levelo://app?vid=27cef1ca-0ac6-4e46-ad00-c6acbde6de38","ios":"levelo://app?vid=27cef1ca-0ac6-4e46-ad00-c6acbde6de38"},"vehicle_type_id":"4","last_reported":1698347087,"current_range_meters":14400,"station_id":"ce4bh4p2rcd13ifvqe0g","pricing_plan_id":"free"},{"bike_id":"0823b35b-02e6-46e0-a3a2-ca9217153c00","system_id":"levelo_inurba_marseille","lat":43.29031,"lon":5.38652,"is_reserved":false,"is_disabled":false,"rental_uris":{"android":"levelo://app?vid=0823b35b-02e6-46e0-a3a2-ca9217153c00","ios":"levelo://app?vid=0823b35b-02e6-46e0-a3a2-ca9217153c00"},"vehicle_type_id":"4","last_reported":1698347087,"current_range_meters":23600,"station_id":"ce4bh4p2rcd13ifvqe0g","pricing_plan_id":"free"},{"bike_id":"0432643a-1a0f-4c2f-b9b6-112515d0da5d","system_id":"levelo_inurba_marseille","lat":43.30257,"lon":5.40082,"is_reserved":false,"is_disabled":false,"rental_uris":{"android":"levelo://app?vid=0432643a-1a0f-4c2f-b9b6-112515d0da5d","ios":"levelo://app?vid=0432643a-1a0f-4c2f-b9b6-112515d0da5d"},"vehicle_type_id":"4","last_reported":1698347087,"current_range_meters":0,"station_id":"ce4bgvh2rcd13ifvqcs0","pricing_plan_id":"free"},{"bike_id":"237c2e2c-6cb2-4fb4-8f9a-8967233c2b49","system_id":"levelo_inurba_marseille","lat":43.286039,"lon":5.370681,"is_reserved":false,"is_disabled":false,"rental_uris":{"android":"levelo://app?vid=237c2e2c-6cb2-4fb4-8f9a-8967233c2b49","ios":"levelo://app?vid=237c2e2c-6cb2-4fb4-8f9a-8967233c2b49"},"vehicle_type_id":"4","last_reported":1698347087,"current_range_meters":14800,"station_id":"ce4bht12rcd13ifvqi60","pricing_plan_id":"free"},{"bike_id":"bce9e479-553c-40b1-a97f-ca71296d24c8","system_id":"levelo_inurba_marseille","lat":43.30244,"lon":5.40084,"is_reserved":false,"is_disabled":false,"rental_uris":{"android":"levelo://app?vid=bce9e479-553c-40b1-a97f-ca71296d24c8","ios":"levelo://app?vid=bce9e479-553c-40b1-a97f-ca71296d24c8"},"vehicle_type_id":"4","last_reported":1698347087,"current_range_meters":0,"station_id":"ce4bgvh2rcd13ifvqcs0","pricing_plan_id":"free"},{"bike_id":"44c3916b-9f3a-460f-a610-dd65848b5156","system_id":"levelo_inurba_marseille","lat":43.287184,"lon":5.37937,"is_reserved":false,"is_disabled":false,"rental_uris":{"android":"levelo://app?vid=44c3916b-9f3a-460f-a610-dd65848b5156","ios":"levelo://app?vid=44c3916b-9f3a-460f-a610-dd65848b5156"},"vehicle_type_id":"4","last_reported":1698347087,"current_range_meters":6000,"station_id":"ce4bh9p2rcd13ifvqec0","pricing_plan_id":"free"},{"bike_id":"98d3f8ec-e725-48a4-9287-e67623a952d2","system_id":"levelo_inurba_marseille","lat":43.28704,"lon":5.3795,"is_reserved":false,"is_disabled":false,"rental_uris":{"android":"levelo://app?vid=98d3f8ec-e725-48a4-9287-e67623a952d2","ios":"levelo://app?vid=98d3f8ec-e725-48a4-9287-e67623a952d2"},"vehicle_type_id":"4","last_reported":1698347087,"current_range_meters":10400,"station_id":"ce4bh9p2rcd13ifvqec0","pricing_plan_id":"free"},{"bike_id":"a7cc9038-dd98-47ea-b885-5f4d185adf8a","system_id":"levelo_inurba_marseille","lat":43.316168,"lon":5.404202,"is_reserved":false,"is_disabled":false,"rental_uris":{"android":"levelo://app?vid=a7cc9038-dd98-47ea-b885-5f4d185adf8a","ios":"levelo://app?vid=a7cc9038-dd98-47ea-b885-5f4d185adf8a"},"vehicle_type_id":"4","last_reported":1698347087,"current_range_meters":0,"station_id":"ce4bgvp2rcd13ifvqct0","pricing_plan_id":"free"},{"bike_id":"bc368e20-93c0-495a-bb4f-cd8ed7ee7f0d","system_id":"levelo_inurba_marseille","lat":43.335307,"lon":5.388143,"is_reserved":false,"is_disabled":false,"rental_uris":{"android":"levelo://app?vid=bc368e20-93c0-495a-bb4f-cd8ed7ee7f0d","ios":"levelo://app?vid=bc368e20-93c0-495a-bb4f-cd8ed7ee7f0d"},"vehicle_type_id":"4","last_reported":1698347087,"current_range_meters":0,"station_id":"","pricing_plan_id":"free"},{"bike_id":"cf863280-1448-4183-ad3f-355f42ef1dba","system_id":"levelo_inurba_marseille","lat":43.316517,"lon":5.404375,"is_reserved":false,"is_disabled":false,"rental_uris":{"android":"levelo://app?vid=cf863280-1448-4183-ad3f-355f42ef1dba","ios":"levelo://app?vid=cf863280-1448-4183-ad3f-355f42ef1dba"},"vehicle_type_id":"4","last_reported":1698347087,"current_range_meters":21600,"station_id":"ce4bh012rcd13ifvqd00","pricing_plan_id":"free"},{"bike_id":"6f492d1d-508b-4e2b-825a-d3fc62bbbad4","system_id":"levelo_inurba_marseille","lat":43.29563,"lon":5.39755,"is_reserved":false,"is_disabled":false,"rental_uris":{"android":"levelo://app?vid=6f492d1d-508b-4e2b-825a-d3fc62bbbad4","ios":"levelo://app?vid=6f492d1d-508b-4e2b-825a-d3fc62bbbad4"},"vehicle_type_id":"4","last_reported":1698347087,"current_range_meters":6800,"station_id":"","pricing_plan_id":"free"},{"bike_id":"088e7924-456e-4889-bce4-d0cfa9171d85","system_id":"levelo_inurba_marseille","lat":43.291994,"lon":5.392907,"is_reserved":false,"is_disabled":false,"rental_uris":{"android":"levelo://app?vid=088e7924-456e-4889-bce4-d0cfa9171d85","ios":"levelo://app?vid=088e7924-456e-4889-bce4-d0cfa9171d85"},"vehicle_type_id":"4","last_reported":1698347087,"current_range_meters":7200,"station_id":"ce4bh192rcd13ifvqdd0","pricing_plan_id":"free"},{"bike_id":"1d9455d3-0844-41d2-b2d4-766a380778df","system_id":"levelo_inurba_marseille","lat":43.291994,"lon":5.392907,"is_reserved":false,"is_disabled":false,"rental_uris":{"android":"levelo://app?vid=1d9455d3-0844-41d2-b2d4-766a380778df","ios":"levelo://app?vid=1d9455d3-0844-41d2-b2d4-766a380778df"},"vehicle_type_id":"4","last_reported":1698347087,"current_range_meters":22800,"station_id":"ce4bh192rcd13ifvqdd0","pricing_plan_id":"free"},{"bike_id":"d5c723da-2e09-4c65-aa8a-412b48c6f934","system_id":"levelo_inurba_marseille","lat":43.28459,"lon":5.35885,"is_reserved":false,"is_disabled":false,"rental_uris":{"android":"levelo://app?vid=d5c723da-2e09-4c65-aa8a-412b48c6f934","ios":"levelo://app?vid=d5c723da-2e09-4c65-aa8a-412b48c6f934"},"vehicle_type_id":"4","last_reported":1698347087,"current_range_meters":7200,"station_id":"ce4bhah2rcd13ifvqei0","pricing_plan_id":"free"},{"bike_id":"2e16cd37-5cb0-4ddb-8d92-ff2da68b43ce","system_id":"levelo_inurba_marseille","lat":43.284572,"lon":5.358766,"is_reserved":false,"is_disabled":false,"rental_uris":{"android":"levelo://app?vid=2e16cd37-5cb0-4ddb-8d92-ff2da68b43ce","ios":"levelo://app?vid=2e16cd37-5cb0-4ddb-8d92-ff2da68b43ce"},"vehicle_type_id":"4","last_reported":1698347087,"current_range_meters":8000,"station_id":"ce4bhah2rcd13ifvqei0","pricing_plan_id":"free"},{"bike_id":"2a174eeb-d10e-49b0-bcf1-f23ea9cb7f65","system_id":"levelo_inurba_marseille","lat":43.289363,"lon":5.396322,"is_reserved":false,"is_disabled":false,"rental_uris":{"android":"levelo://app?vid=2a174eeb-d10e-49b0-bcf1-f23ea9cb7f65","ios":"levelo://app?vid=2a174eeb-d10e-49b0-bcf1-f23ea9cb7f65"},"vehicle_type_id":"4","last_reported":1698347087,"current_range_meters":0,"station_id":"ce4bh3h2rcd13ifvqdn0","pricing_plan_id":"free"},{"bike_id":"6b573773-679f-4810-8b41-d3bbe22cd3ae","system_id":"levelo_inurba_marseille","lat":43.28416,"lon":5.37515,"is_reserved":false,"is_disabled":false,"rental_uris":{"android":"levelo://app?vid=6b573773-679f-4810-8b41-d3bbe22cd3ae","ios":"levelo://app?vid=6b573773-679f-4810-8b41-d3bbe22cd3ae"},"vehicle_type_id":"4","last_reported":1698347087,"current_range_meters":0,"station_id":"ce4bh412rcd13ifvqds0","pricing_plan_id":"free"},{"bike_id":"86e08904-4d6c-498e-a645-eb4c667921b1","system_id":"levelo_inurba_marseille","lat":43.284047,"lon":5.375147,"is_reserved":false,"is_disabled":false,"rental_uris":{"android":"levelo://app?vid=86e08904-4d6c-498e-a645-eb4c667921b1","ios":"levelo://app?vid=86e08904-4d6c-498e-a645-eb4c667921b1"},"vehicle_type_id":"4","last_reported":1698347087,"current_range_meters":0,"station_id":"ce4bh412rcd13ifvqds0","pricing_plan_id":"free"},{"bike_id":"c82344be-f34e-4ef8-8b13-0b8fa3c42176","system_id":"levelo_inurba_marseille","lat":43.295713,"lon":5.399639,"is_reserved":false,"is_disabled":false,"rental_uris":{"android":"levelo://app?vid=c82344be-f34e-4ef8-8b13-0b8fa3c42176","ios":"levelo://app?vid=c82344be-f34e-4ef8-8b13-0b8fa3c42176"},"vehicle_type_id":"4","last_reported":1698347087,"current_range_meters":5600,"station_id":"ce4bh312rcd13ifvqdj0","pricing_plan_id":"free"},{"bike_id":"92c89159-c375-4c85-a165-51ac3d3e10d1","system_id":"levelo_inurba_marseille","lat":43.295713,"lon":5.399639,"is_reserved":false,"is_disabled":false,"rental_uris":{"android":"levelo://app?vid=92c89159-c375-4c85-a165-51ac3d3e10d1","ios":"levelo://app?vid=92c89159-c375-4c85-a165-51ac3d3e10d1"},"vehicle_type_id":"4","last_reported":1698347087,"current_range_meters":21200,"station_id":"ce4bh312rcd13ifvqdj0","pricing_plan_id":"free"},{"bike_id":"ccbcd672-1503-46cb-871f-6be9ef4245b1","system_id":"levelo_inurba_marseille","lat":43.284006,"lon":5.375362,"is_reserved":false,"is_disabled":false,"rental_uris":{"android":"levelo://app?vid=ccbcd672-1503-46cb-871f-6be9ef4245b1","ios":"levelo://app?vid=ccbcd672-1503-46cb-871f-6be9ef4245b1"},"vehicle_type_id":"4","last_reported":1698347087,"current_range_meters":1200,"station_id":"ce4bh412rcd13ifvqds0","pricing_plan_id":"free"},{"bike_id":"86b13679-8b45-484a-add1-492880f92b8a","system_id":"levelo_inurba_marseille","lat":43.295713,"lon":5.399639,"is_reserved":false,"is_disabled":false,"rental_uris":{"android":"levelo://app?vid=86b13679-8b45-484a-add1-492880f92b8a","ios":"levelo://app?vid=86b13679-8b45-484a-add1-492880f92b8a"},"vehicle_type_id":"4","last_reported":1698347087,"current_range_meters":16000,"station_id":"ce4bh312rcd13ifvqdj0","pricing_plan_id":"free"},{"bike_id":"db956193-75f8-4d15-9cb2-cb75110fdb64","system_id":"levelo_inurba_marseille","lat":43.295713,"lon":5.399639,"is_reserved":false,"is_disabled":false,"rental_uris":{"android":"levelo://app?vid=db956193-75f8-4d15-9cb2-cb75110fdb64","ios":"levelo://app?vid=db956193-75f8-4d15-9cb2-cb75110fdb64"},"vehicle_type_id":"4","last_reported":1698347087,"current_range_meters":23600,"station_id":"ce4bh312rcd13ifvqdj0","pricing_plan_id":"free"},{"bike_id":"e34ceee1-9c33-47f4-8dda-2177f67eeb78","system_id":"levelo_inurba_marseille","lat":43.286595,"lon":5.386795,"is_reserved":false,"is_disabled":false,"rental_uris":{"android":"levelo://app?vid=e34ceee1-9c33-47f4-8dda-2177f67eeb78","ios":"levelo://app?vid=e34ceee1-9c33-47f4-8dda-2177f67eeb78"},"vehicle_type_id":"4","last_reported":1698347087,"current_range_meters":6000,"station_id":"ce4bh492rcd13ifvqdug","pricing_plan_id":"free"},{"bike_id":"06cea09b-ee8f-461a-a263-d836f165b670","system_id":"levelo_inurba_marseille","lat":43.286595,"lon":5.386795,"is_reserved":false,"is_disabled":false,"rental_uris":{"android":"levelo://app?vid=06cea09b-ee8f-461a-a263-d836f165b670","ios":"levelo://app?vid=06cea09b-ee8f-461a-a263-d836f165b670"},"vehicle_type_id":"4","last_reported":1698347087,"current_range_meters":11600,"station_id":"ce4bh492rcd13ifvqdug","pricing_plan_id":"free"},{"bike_id":"a04dca67-8317-445e-90d6-5788929468fd","system_id":"levelo_inurba_marseille","lat":43.33674,"lon":5.39198,"is_reserved":false,"is_disabled":false,"rental_uris":{"android":"levelo://app?vid=a04dca67-8317-445e-90d6-5788929468fd","ios":"levelo://app?vid=a04dca67-8317-445e-90d6-5788929468fd"},"vehicle_type_id":"4","last_reported":1698347087,"current_range_meters":12400,"station_id":"","pricing_plan_id":"free"},{"bike_id":"56a4d667-d125-4882-a6a7-f1dd7c83f14b","system_id":"levelo_inurba_marseille","lat":43.28486,"lon":5.38437,"is_reserved":false,"is_disabled":false,"rental_uris":{"android":"levelo://app?vid=56a4d667-d125-4882-a6a7-f1dd7c83f14b","ios":"levelo://app?vid=56a4d667-d125-4882-a6a7-f1dd7c83f14b"},"vehicle_type_id":"4","last_reported":1698347087,"current_range_meters":0,"station_id":"ce4bh512rcd13ifvqe3g","pricing_plan_id":"free"},{"bike_id":"e7cc70fa-444a-497f-b74e-038b892d2d42","system_id":"levelo_inurba_marseille","lat":43.297946,"lon":5.404063,"is_reserved":false,"is_disabled":false,"rental_uris":{"android":"levelo://app?vid=e7cc70fa-444a-497f-b74e-038b892d2d42","ios":"levelo://app?vid=e7cc70fa-444a-497f-b74e-038b892d2d42"},"vehicle_type_id":"4","last_reported":1698347087,"current_range_meters":20400,"station_id":"ce4bh112rcd13ifvqd90","pricing_plan_id":"free"},{"bike_id":"14febba5-1349-4185-8bc9-a706ece33313","system_id":"levelo_inurba_marseille","lat":43.29795,"lon":5.404086,"is_reserved":false,"is_disabled":false,"rental_uris":{"android":"levelo://app?vid=14febba5-1349-4185-8bc9-a706ece33313","ios":"levelo://app?vid=14febba5-1349-4185-8bc9-a706ece33313"},"vehicle_type_id":"4","last_reported":1698347087,"current_range_meters":10400,"station_id":"ce4bh112rcd13ifvqd90","pricing_plan_id":"free"},{"bike_id":"d6e0f25c-aaad-4436-9a20-7d785d7e759e","system_id":"levelo_inurba_marseille","lat":43.32521,"lon":5.40572,"is_reserved":false,"is_disabled":false,"rental_uris":{"android":"levelo://app?vid=d6e0f25c-aaad-4436-9a20-7d785d7e759e","ios":"levelo://app?vid=d6e0f25c-aaad-4436-9a20-7d785d7e759e"},"vehicle_type_id":"4","last_reported":1698347087,"current_range_meters":0,"station_id":"","pricing_plan_id":"free"},{"bike_id":"2f666bbb-190f-4291-ade2-95e2c0cfd815","system_id":"levelo_inurba_marseille","lat":43.325281,"lon":5.405683,"is_reserved":false,"is_disabled":false,"rental_uris":{"android":"levelo://app?vid=2f666bbb-190f-4291-ade2-95e2c0cfd815","ios":"levelo://app?vid=2f666bbb-190f-4291-ade2-95e2c0cfd815"},"vehicle_type_id":"4","last_reported":1698347087,"current_range_meters":24800,"station_id":"","pricing_plan_id":"free"},{"bike_id":"5f9dd505-db2e-4d73-b93c-b2da33f36358","system_id":"levelo_inurba_marseille","lat":43.29795,"lon":5.404086,"is_reserved":false,"is_disabled":false,"rental_uris":{"android":"levelo://app?vid=5f9dd505-db2e-4d73-b93c-b2da33f36358","ios":"levelo://app?vid=5f9dd505-db2e-4d73-b93c-b2da33f36358"},"vehicle_type_id":"4","last_reported":1698347087,"current_range_meters":12400,"station_id":"ce4bh112rcd13ifvqd90","pricing_plan_id":"free"},{"bike_id":"e75d2d11-9cc1-4259-86f9-02a22e7a0eee","system_id":"levelo_inurba_marseille","lat":43.288497,"lon":5.393089,"is_reserved":false,"is_disabled":false,"rental_uris":{"android":"levelo://app?vid=e75d2d11-9cc1-4259-86f9-02a22e7a0eee","ios":"levelo://app?vid=e75d2d11-9cc1-4259-86f9-02a22e7a0eee"},"vehicle_type_id":"4","last_reported":1698347087,"current_range_meters":6000,"station_id":"ce4bh2p2rcd13ifvqdi0","pricing_plan_id":"free"},{"bike_id":"35021ff6-3380-4e86-bfab-58113a6331dc","system_id":"levelo_inurba_marseille","lat":43.288497,"lon":5.393089,"is_reserved":false,"is_disabled":false,"rental_uris":{"android":"levelo://app?vid=35021ff6-3380-4e86-bfab-58113a6331dc","ios":"levelo://app?vid=35021ff6-3380-4e86-bfab-58113a6331dc"},"vehicle_type_id":"4","last_reported":1698347087,"current_range_meters":24000,"station_id":"ce4bh2p2rcd13ifvqdi0","pricing_plan_id":"free"},{"bike_id":"a8f3c658-560d-4eff-9956-e0a3f88f2035","system_id":"levelo_inurba_marseille","lat":43.292724,"lon":5.401131,"is_reserved":false,"is_disabled":false,"rental_uris":{"android":"levelo://app?vid=a8f3c658-560d-4eff-9956-e0a3f88f2035","ios":"levelo://app?vid=a8f3c658-560d-4eff-9956-e0a3f88f2035"},"vehicle_type_id":"4","last_reported":1698347087,"current_range_meters":16400,"station_id":"ce4bh312rcd13ifvqdk0","pricing_plan_id":"free"},{"bike_id":"8293c112-ed0f-4768-9bda-a67983c1b9a2","system_id":"levelo_inurba_marseille","lat":43.282654,"lon":5.350656,"is_reserved":false,"is_disabled":false,"rental_uris":{"android":"levelo://app?vid=8293c112-ed0f-4768-9bda-a67983c1b9a2","ios":"levelo://app?vid=8293c112-ed0f-4768-9bda-a67983c1b9a2"},"vehicle_type_id":"4","last_reported":1698347087,"current_range_meters":0,"station_id":"ce4bhbp2rcd13ifvqerg","pricing_plan_id":"free"},{"bike_id":"3893999a-d9e6-459a-ac5c-dc96c8c855aa","system_id":"levelo_inurba_marseille","lat":43.28039,"lon":5.369297,"is_reserved":false,"is_disabled":false,"rental_uris":{"android":"levelo://app?vid=3893999a-d9e6-459a-ac5c-dc96c8c855aa","ios":"levelo://app?vid=3893999a-d9e6-459a-ac5c-dc96c8c855aa"},"vehicle_type_id":"4","last_reported":1698347087,"current_range_meters":22800,"station_id":"ce4bha12rcd13ifvqef0","pricing_plan_id":"free"},{"bike_id":"c2cdb2f3-b28e-4f6d-b114-5e53618884e4","system_id":"levelo_inurba_marseille","lat":43.28366,"lon":5.3865,"is_reserved":false,"is_disabled":false,"rental_uris":{"android":"levelo://app?vid=c2cdb2f3-b28e-4f6d-b114-5e53618884e4","ios":"levelo://app?vid=c2cdb2f3-b28e-4f6d-b114-5e53618884e4"},"vehicle_type_id":"4","last_reported":1698347087,"current_range_meters":0,"station_id":"ce4bh492rcd13ifvqdvg","pricing_plan_id":"free"},{"bike_id":"c0449154-414a-4a97-8c66-4ecd834e8e24","system_id":"levelo_inurba_marseille","lat":43.280382,"lon":5.369291,"is_reserved":false,"is_disabled":false,"rental_uris":{"android":"levelo://app?vid=c0449154-414a-4a97-8c66-4ecd834e8e24","ios":"levelo://app?vid=c0449154-414a-4a97-8c66-4ecd834e8e24"},"vehicle_type_id":"4","last_reported":1698347087,"current_range_meters":31200,"station_id":"ce4bha12rcd13ifvqef0","pricing_plan_id":"free"},{"bike_id":"17da7bdd-1b8a-427f-9c91-7d1db1328f4c","system_id":"levelo_inurba_marseille","lat":43.280382,"lon":5.369291,"is_reserved":false,"is_disabled":false,"rental_uris":{"android":"levelo://app?vid=17da7bdd-1b8a-427f-9c91-7d1db1328f4c","ios":"levelo://app?vid=17da7bdd-1b8a-427f-9c91-7d1db1328f4c"},"vehicle_type_id":"4","last_reported":1698347087,"current_range_meters":20000,"station_id":"ce4bha12rcd13ifvqef0","pricing_plan_id":"free"},{"bike_id":"eae608c4-d84e-4731-b7f0-fdf7ef265fdf","system_id":"levelo_inurba_marseille","lat":43.28039,"lon":5.369297,"is_reserved":false,"is_disabled":false,"rental_uris":{"android":"levelo://app?vid=eae608c4-d84e-4731-b7f0-fdf7ef265fdf","ios":"levelo://app?vid=eae608c4-d84e-4731-b7f0-fdf7ef265fdf"},"vehicle_type_id":"4","last_reported":1698347087,"current_range_meters":18000,"station_id":"ce4bha12rcd13ifvqef0","pricing_plan_id":"free"},{"bike_id":"77a36b93-e47c-4023-9d12-bb4f9db102c7","system_id":"levelo_inurba_marseille","lat":43.280382,"lon":5.369291,"is_reserved":false,"is_disabled":false,"rental_uris":{"android":"levelo://app?vid=77a36b93-e47c-4023-9d12-bb4f9db102c7","ios":"levelo://app?vid=77a36b93-e47c-4023-9d12-bb4f9db102c7"},"vehicle_type_id":"4","last_reported":1698347087,"current_range_meters":8000,"station_id":"ce4bha12rcd13ifvqef0","pricing_plan_id":"free"},{"bike_id":"aabdb0cb-060e-4f31-bd0c-bec645c99911","system_id":"levelo_inurba_marseille","lat":43.290477,"lon":5.39966,"is_reserved":false,"is_disabled":false,"rental_uris":{"android":"levelo://app?vid=aabdb0cb-060e-4f31-bd0c-bec645c99911","ios":"levelo://app?vid=aabdb0cb-060e-4f31-bd0c-bec645c99911"},"vehicle_type_id":"4","last_reported":1698347087,"current_range_meters":0,"station_id":"","pricing_plan_id":"free"},{"bike_id":"1ca242fe-6084-4f9b-8b54-35d465872844","system_id":"levelo_inurba_marseille","lat":43.29041,"lon":5.399634,"is_reserved":false,"is_disabled":false,"rental_uris":{"android":"levelo://app?vid=1ca242fe-6084-4f9b-8b54-35d465872844","ios":"levelo://app?vid=1ca242fe-6084-4f9b-8b54-35d465872844"},"vehicle_type_id":"4","last_reported":1698347087,"current_range_meters":22400,"station_id":"ce4bh392rcd13ifvqdm0","pricing_plan_id":"free"},{"bike_id":"6b6e2d98-1850-481c-929d-0fe53c05959b","system_id":"levelo_inurba_marseille","lat":43.281044,"lon":5.378308,"is_reserved":false,"is_disabled":false,"rental_uris":{"android":"levelo://app?vid=6b6e2d98-1850-481c-929d-0fe53c05959b","ios":"levelo://app?vid=6b6e2d98-1850-481c-929d-0fe53c05959b"},"vehicle_type_id":"4","last_reported":1698347087,"current_range_meters":28800,"station_id":"ce4bha12rcd13ifvqee0","pricing_plan_id":"free"},{"bike_id":"bdf33134-5cf2-48f2-9241-bf152f742fe7","system_id":"levelo_inurba_marseille","lat":43.296263,"lon":5.40601,"is_reserved":false,"is_disabled":false,"rental_uris":{"android":"levelo://app?vid=bdf33134-5cf2-48f2-9241-bf152f742fe7","ios":"levelo://app?vid=bdf33134-5cf2-48f2-9241-bf152f742fe7"},"vehicle_type_id":"4","last_reported":1698347087,"current_range_meters":7200,"station_id":"ce4bh0h2rcd13ifvqd60","pricing_plan_id":"free"},{"bike_id":"500f5543-4622-4930-ae5b-3b86aeb097d2","system_id":"levelo_inurba_marseille","lat":43.29629,"lon":5.40595,"is_reserved":false,"is_disabled":false,"rental_uris":{"android":"levelo://app?vid=500f5543-4622-4930-ae5b-3b86aeb097d2","ios":"levelo://app?vid=500f5543-4622-4930-ae5b-3b86aeb097d2"},"vehicle_type_id":"4","last_reported":1698347087,"current_range_meters":8800,"station_id":"ce4bh0h2rcd13ifvqd60","pricing_plan_id":"free"},{"bike_id":"1be7171c-f3af-44c8-83e7-2ceb519c1fcd","system_id":"levelo_inurba_marseille","lat":43.281044,"lon":5.378308,"is_reserved":false,"is_disabled":false,"rental_uris":{"android":"levelo://app?vid=1be7171c-f3af-44c8-83e7-2ceb519c1fcd","ios":"levelo://app?vid=1be7171c-f3af-44c8-83e7-2ceb519c1fcd"},"vehicle_type_id":"4","last_reported":1698347087,"current_range_meters":18400,"station_id":"ce4bha12rcd13ifvqee0","pricing_plan_id":"free"},{"bike_id":"a57d0fdb-b213-4e44-87aa-9e931832f41a","system_id":"levelo_inurba_marseille","lat":43.336569,"lon":5.398701,"is_reserved":false,"is_disabled":false,"rental_uris":{"android":"levelo://app?vid=a57d0fdb-b213-4e44-87aa-9e931832f41a","ios":"levelo://app?vid=a57d0fdb-b213-4e44-87aa-9e931832f41a"},"vehicle_type_id":"4","last_reported":1698347087,"current_range_meters":0,"station_id":"","pricing_plan_id":"free"},{"bike_id":"2e54ac32-6169-46aa-ac37-1215d17d9720","system_id":"levelo_inurba_marseille","lat":43.284462,"lon":5.392121,"is_reserved":false,"is_disabled":false,"rental_uris":{"android":"levelo://app?vid=2e54ac32-6169-46aa-ac37-1215d17d9720","ios":"levelo://app?vid=2e54ac32-6169-46aa-ac37-1215d17d9720"},"vehicle_type_id":"4","last_reported":1698347087,"current_range_meters":0,"station_id":"ce4bhoh2rcd13ifvqh5g","pricing_plan_id":"free"},{"bike_id":"93158188-83e8-4979-b389-2deaa6fd6021","system_id":"levelo_inurba_marseille","lat":43.284462,"lon":5.392121,"is_reserved":false,"is_disabled":false,"rental_uris":{"android":"levelo://app?vid=93158188-83e8-4979-b389-2deaa6fd6021","ios":"levelo://app?vid=93158188-83e8-4979-b389-2deaa6fd6021"},"vehicle_type_id":"4","last_reported":1698347087,"current_range_meters":0,"station_id":"ce4bhoh2rcd13ifvqh5g","pricing_plan_id":"free"},{"bike_id":"d638ec5c-6fa6-47a0-8fc8-4f0bdc99e986","system_id":"levelo_inurba_marseille","lat":43.28573,"lon":5.394992,"is_reserved":false,"is_disabled":false,"rental_uris":{"android":"levelo://app?vid=d638ec5c-6fa6-47a0-8fc8-4f0bdc99e986","ios":"levelo://app?vid=d638ec5c-6fa6-47a0-8fc8-4f0bdc99e986"},"vehicle_type_id":"4","last_reported":1698347087,"current_range_meters":13600,"station_id":"ce4bh292rcd13ifvqdg0","pricing_plan_id":"free"},{"bike_id":"e9b1669c-8ff7-47a2-9bdd-c5634c6ee57f","system_id":"levelo_inurba_marseille","lat":43.28573,"lon":5.394992,"is_reserved":false,"is_disabled":false,"rental_uris":{"android":"levelo://app?vid=e9b1669c-8ff7-47a2-9bdd-c5634c6ee57f","ios":"levelo://app?vid=e9b1669c-8ff7-47a2-9bdd-c5634c6ee57f"},"vehicle_type_id":"4","last_reported":1698347087,"current_range_meters":7200,"station_id":"ce4bh292rcd13ifvqdg0","pricing_plan_id":"free"},{"bike_id":"7ac10238-4fa6-4236-a282-1d4c37b837e4","system_id":"levelo_inurba_marseille","lat":43.28573,"lon":5.394992,"is_reserved":false,"is_disabled":false,"rental_uris":{"android":"levelo://app?vid=7ac10238-4fa6-4236-a282-1d4c37b837e4","ios":"levelo://app?vid=7ac10238-4fa6-4236-a282-1d4c37b837e4"},"vehicle_type_id":"4","last_reported":1698347087,"current_range_meters":12800,"station_id":"ce4bh292rcd13ifvqdg0","pricing_plan_id":"free"},{"bike_id":"330abbb6-c5c2-4ca7-a3ee-ee36f49730cb","system_id":"levelo_inurba_marseille","lat":43.28573,"lon":5.394992,"is_reserved":false,"is_disabled":false,"rental_uris":{"android":"levelo://app?vid=330abbb6-c5c2-4ca7-a3ee-ee36f49730cb","ios":"levelo://app?vid=330abbb6-c5c2-4ca7-a3ee-ee36f49730cb"},"vehicle_type_id":"4","last_reported":1698347087,"current_range_meters":5200,"station_id":"ce4bh292rcd13ifvqdg0","pricing_plan_id":"free"},{"bike_id":"b87a1950-dbf5-43b6-9c40-ece60fb5a23a","system_id":"levelo_inurba_marseille","lat":43.27916,"lon":5.38003,"is_reserved":false,"is_disabled":false,"rental_uris":{"android":"levelo://app?vid=b87a1950-dbf5-43b6-9c40-ece60fb5a23a","ios":"levelo://app?vid=b87a1950-dbf5-43b6-9c40-ece60fb5a23a"},"vehicle_type_id":"4","last_reported":1698347087,"current_range_meters":0,"station_id":"ce4bhf92rcd13ifvqf50","pricing_plan_id":"free"},{"bike_id":"8c011f82-326c-4b7e-8067-eb2ff3d8bab3","system_id":"levelo_inurba_marseille","lat":43.2774,"lon":5.36923,"is_reserved":false,"is_disabled":false,"rental_uris":{"android":"levelo://app?vid=8c011f82-326c-4b7e-8067-eb2ff3d8bab3","ios":"levelo://app?vid=8c011f82-326c-4b7e-8067-eb2ff3d8bab3"},"vehicle_type_id":"4","last_reported":1698347087,"current_range_meters":0,"station_id":"","pricing_plan_id":"free"},{"bike_id":"5b74dc26-0b19-41e6-ad70-6f7a32bc0655","system_id":"levelo_inurba_marseille","lat":43.320045,"lon":5.415046,"is_reserved":false,"is_disabled":false,"rental_uris":{"android":"levelo://app?vid=5b74dc26-0b19-41e6-ad70-6f7a32bc0655","ios":"levelo://app?vid=5b74dc26-0b19-41e6-ad70-6f7a32bc0655"},"vehicle_type_id":"4","last_reported":1698347087,"current_range_meters":10400,"station_id":"ce4bhq92rcd13ifvqhkg","pricing_plan_id":"free"},{"bike_id":"d6532ca0-732c-4457-964f-d3144dfb2c1f","system_id":"levelo_inurba_marseille","lat":43.299579,"lon":5.413255,"is_reserved":false,"is_disabled":false,"rental_uris":{"android":"levelo://app?vid=d6532ca0-732c-4457-964f-d3144dfb2c1f","ios":"levelo://app?vid=d6532ca0-732c-4457-964f-d3144dfb2c1f"},"vehicle_type_id":"4","last_reported":1698347087,"current_range_meters":16800,"station_id":"ce4bhp12rcd13ifvqh9g","pricing_plan_id":"free"},{"bike_id":"3135f09a-7fe6-4654-9aed-555b6efceedf","system_id":"levelo_inurba_marseille","lat":43.279585,"lon":5.387115,"is_reserved":false,"is_disabled":false,"rental_uris":{"android":"levelo://app?vid=3135f09a-7fe6-4654-9aed-555b6efceedf","ios":"levelo://app?vid=3135f09a-7fe6-4654-9aed-555b6efceedf"},"vehicle_type_id":"4","last_reported":1698347087,"current_range_meters":0,"station_id":"ce4bhg12rcd13ifvqf80","pricing_plan_id":"free"},{"bike_id":"8ed7f690-9700-4b3a-b405-04eebcb9dae9","system_id":"levelo_inurba_marseille","lat":43.292571,"lon":5.409107,"is_reserved":false,"is_disabled":false,"rental_uris":{"android":"levelo://app?vid=8ed7f690-9700-4b3a-b405-04eebcb9dae9","ios":"levelo://app?vid=8ed7f690-9700-4b3a-b405-04eebcb9dae9"},"vehicle_type_id":"4","last_reported":1698347087,"current_range_meters":12000,"station_id":"ce4bh192rcd13ifvqdc0","pricing_plan_id":"free"},{"bike_id":"ecce1824-319b-4244-98c7-bdd773206e02","system_id":"levelo_inurba_marseille","lat":43.280784,"lon":5.396622,"is_reserved":false,"is_disabled":false,"rental_uris":{"android":"levelo://app?vid=ecce1824-319b-4244-98c7-bdd773206e02","ios":"levelo://app?vid=ecce1824-319b-4244-98c7-bdd773206e02"},"vehicle_type_id":"4","last_reported":1698347087,"current_range_meters":30400,"station_id":"ce4bho12rcd13ifvqh2g","pricing_plan_id":"free"},{"bike_id":"a2027346-b519-4327-82ca-910bbd21e69d","system_id":"levelo_inurba_marseille","lat":43.30357,"lon":5.41887,"is_reserved":false,"is_disabled":false,"rental_uris":{"android":"levelo://app?vid=a2027346-b519-4327-82ca-910bbd21e69d","ios":"levelo://app?vid=a2027346-b519-4327-82ca-910bbd21e69d"},"vehicle_type_id":"4","last_reported":1698347087,"current_range_meters":0,"station_id":"ce4bhop2rcd13ifvqh7g","pricing_plan_id":"free"},{"bike_id":"4087d475-c753-4bac-aba1-c82c9ea27983","system_id":"levelo_inurba_marseille","lat":43.278401,"lon":5.392152,"is_reserved":false,"is_disabled":false,"rental_uris":{"android":"levelo://app?vid=4087d475-c753-4bac-aba1-c82c9ea27983","ios":"levelo://app?vid=4087d475-c753-4bac-aba1-c82c9ea27983"},"vehicle_type_id":"4","last_reported":1698347087,"current_range_meters":0,"station_id":"ce4bhjp2rcd13ifvqga0","pricing_plan_id":"free"},{"bike_id":"c156c777-018f-4afd-ad77-d5350a5d71fb","system_id":"levelo_inurba_marseille","lat":43.276769,"lon":5.388787,"is_reserved":false,"is_disabled":false,"rental_uris":{"android":"levelo://app?vid=c156c777-018f-4afd-ad77-d5350a5d71fb","ios":"levelo://app?vid=c156c777-018f-4afd-ad77-d5350a5d71fb"},"vehicle_type_id":"4","last_reported":1698347087,"current_range_meters":0,"station_id":"ce4bhi12rcd13ifvqfo0","pricing_plan_id":"free"},{"bike_id":"444d51e5-c0af-4b5e-802c-c1ec3762b314","system_id":"levelo_inurba_marseille","lat":43.276769,"lon":5.388787,"is_reserved":false,"is_disabled":false,"rental_uris":{"android":"levelo://app?vid=444d51e5-c0af-4b5e-802c-c1ec3762b314","ios":"levelo://app?vid=444d51e5-c0af-4b5e-802c-c1ec3762b314"},"vehicle_type_id":"4","last_reported":1698347087,"current_range_meters":0,"station_id":"ce4bhi12rcd13ifvqfo0","pricing_plan_id":"free"},{"bike_id":"cb2f672b-152f-41f5-b976-df401f40de19","system_id":"levelo_inurba_marseille","lat":43.276771,"lon":5.388799,"is_reserved":false,"is_disabled":false,"rental_uris":{"android":"levelo://app?vid=cb2f672b-152f-41f5-b976-df401f40de19","ios":"levelo://app?vid=cb2f672b-152f-41f5-b976-df401f40de19"},"vehicle_type_id":"4","last_reported":1698347087,"current_range_meters":30000,"station_id":"ce4bhi12rcd13ifvqfo0","pricing_plan_id":"free"},{"bike_id":"5848ee55-c6d2-45b6-9554-5f8069ad8ac3","system_id":"levelo_inurba_marseille","lat":43.27671,"lon":5.38897,"is_reserved":false,"is_disabled":false,"rental_uris":{"android":"levelo://app?vid=5848ee55-c6d2-45b6-9554-5f8069ad8ac3","ios":"levelo://app?vid=5848ee55-c6d2-45b6-9554-5f8069ad8ac3"},"vehicle_type_id":"4","last_reported":1698347087,"current_range_meters":0,"station_id":"ce4bhi12rcd13ifvqfo0","pricing_plan_id":"free"},{"bike_id":"9d947250-39d1-4b7b-a238-c0ace313163d","system_id":"levelo_inurba_marseille","lat":43.276771,"lon":5.388799,"is_reserved":false,"is_disabled":false,"rental_uris":{"android":"levelo://app?vid=9d947250-39d1-4b7b-a238-c0ace313163d","ios":"levelo://app?vid=9d947250-39d1-4b7b-a238-c0ace313163d"},"vehicle_type_id":"4","last_reported":1698347087,"current_range_meters":0,"station_id":"ce4bhi12rcd13ifvqfo0","pricing_plan_id":"free"},{"bike_id":"25cfaac1-e172-4c21-9981-1f0dd6c5c7da","system_id":"levelo_inurba_marseille","lat":43.27997,"lon":5.40019,"is_reserved":false,"is_disabled":false,"rental_uris":{"android":"levelo://app?vid=25cfaac1-e172-4c21-9981-1f0dd6c5c7da","ios":"levelo://app?vid=25cfaac1-e172-4c21-9981-1f0dd6c5c7da"},"vehicle_type_id":"4","last_reported":1698347087,"current_range_meters":0,"station_id":"ce4bho92rcd13ifvqh4g","pricing_plan_id":"free"},{"bike_id":"5676ffe3-ee0e-4083-bd00-de55caefacbf","system_id":"levelo_inurba_marseille","lat":43.279414,"lon":5.399572,"is_reserved":false,"is_disabled":false,"rental_uris":{"android":"levelo://app?vid=5676ffe3-ee0e-4083-bd00-de55caefacbf","ios":"levelo://app?vid=5676ffe3-ee0e-4083-bd00-de55caefacbf"},"vehicle_type_id":"4","last_reported":1698347087,"current_range_meters":0,"station_id":"ce4bho92rcd13ifvqh4g","pricing_plan_id":"free"},{"bike_id":"08142ef6-e381-4788-b104-c0a1335b54e5","system_id":"levelo_inurba_marseille","lat":43.31712,"lon":5.42401,"is_reserved":false,"is_disabled":false,"rental_uris":{"android":"levelo://app?vid=08142ef6-e381-4788-b104-c0a1335b54e5","ios":"levelo://app?vid=08142ef6-e381-4788-b104-c0a1335b54e5"},"vehicle_type_id":"4","last_reported":1698347087,"current_range_meters":18000,"station_id":"ce4bhp92rcd13ifvqhbg","pricing_plan_id":"free"},{"bike_id":"beaf2179-b6b2-4ef7-ad66-8613197bc6e4","system_id":"levelo_inurba_marseille","lat":43.340804,"lon":5.410219,"is_reserved":false,"is_disabled":false,"rental_uris":{"android":"levelo://app?vid=beaf2179-b6b2-4ef7-ad66-8613197bc6e4","ios":"levelo://app?vid=beaf2179-b6b2-4ef7-ad66-8613197bc6e4"},"vehicle_type_id":"4","last_reported":1698347087,"current_range_meters":28000,"station_id":"ce4bhqh2rcd13ifvqhlg","pricing_plan_id":"free"},{"bike_id":"a3d355e4-6c62-45ba-bcd8-6af7446e687a","system_id":"levelo_inurba_marseille","lat":43.340804,"lon":5.410219,"is_reserved":false,"is_disabled":false,"rental_uris":{"android":"levelo://app?vid=a3d355e4-6c62-45ba-bcd8-6af7446e687a","ios":"levelo://app?vid=a3d355e4-6c62-45ba-bcd8-6af7446e687a"},"vehicle_type_id":"4","last_reported":1698347087,"current_range_meters":16000,"station_id":"ce4bhqh2rcd13ifvqhlg","pricing_plan_id":"free"},{"bike_id":"10771e27-9dfa-483f-a879-18ff14f74247","system_id":"levelo_inurba_marseille","lat":43.310021,"lon":5.425067,"is_reserved":false,"is_disabled":false,"rental_uris":{"android":"levelo://app?vid=10771e27-9dfa-483f-a879-18ff14f74247","ios":"levelo://app?vid=10771e27-9dfa-483f-a879-18ff14f74247"},"vehicle_type_id":"4","last_reported":1698347087,"current_range_meters":4000,"station_id":"","pricing_plan_id":"free"},{"bike_id":"d03397ce-e559-4d2a-8bff-7468a530ee1c","system_id":"levelo_inurba_marseille","lat":43.274103,"lon":5.394016,"is_reserved":false,"is_disabled":false,"rental_uris":{"android":"levelo://app?vid=d03397ce-e559-4d2a-8bff-7468a530ee1c","ios":"levelo://app?vid=d03397ce-e559-4d2a-8bff-7468a530ee1c"},"vehicle_type_id":"4","last_reported":1698347087,"current_range_meters":0,"station_id":"ce4bhdp2rcd13ifvqf20","pricing_plan_id":"free"},{"bike_id":"c7f50d06-a36b-4f5b-a203-588117bb3d4d","system_id":"levelo_inurba_marseille","lat":43.30414,"lon":5.42541,"is_reserved":false,"is_disabled":false,"rental_uris":{"android":"levelo://app?vid=c7f50d06-a36b-4f5b-a203-588117bb3d4d","ios":"levelo://app?vid=c7f50d06-a36b-4f5b-a203-588117bb3d4d"},"vehicle_type_id":"4","last_reported":1698347087,"current_range_meters":7200,"station_id":"ce4bhoh2rcd13ifvqh6g","pricing_plan_id":"free"},{"bike_id":"b513ca5d-9858-4999-832c-9395765a9b3c","system_id":"levelo_inurba_marseille","lat":43.30414,"lon":5.42541,"is_reserved":false,"is_disabled":false,"rental_uris":{"android":"levelo://app?vid=b513ca5d-9858-4999-832c-9395765a9b3c","ios":"levelo://app?vid=b513ca5d-9858-4999-832c-9395765a9b3c"},"vehicle_type_id":"4","last_reported":1698347087,"current_range_meters":18000,"station_id":"ce4bhoh2rcd13ifvqh6g","pricing_plan_id":"free"},{"bike_id":"69008444-ab5b-44f5-902c-25c48e6f0be1","system_id":"levelo_inurba_marseille","lat":43.295511,"lon":5.422926,"is_reserved":false,"is_disabled":false,"rental_uris":{"android":"levelo://app?vid=69008444-ab5b-44f5-902c-25c48e6f0be1","ios":"levelo://app?vid=69008444-ab5b-44f5-902c-25c48e6f0be1"},"vehicle_type_id":"4","last_reported":1698347087,"current_range_meters":27600,"station_id":"ce4bhph2rcd13ifvqhdg","pricing_plan_id":"free"},{"bike_id":"48b1c85d-4258-4ca8-9cba-545fb5b198e8","system_id":"levelo_inurba_marseille","lat":43.295496,"lon":5.422762,"is_reserved":false,"is_disabled":false,"rental_uris":{"android":"levelo://app?vid=48b1c85d-4258-4ca8-9cba-545fb5b198e8","ios":"levelo://app?vid=48b1c85d-4258-4ca8-9cba-545fb5b198e8"},"vehicle_type_id":"4","last_reported":1698347087,"current_range_meters":13600,"station_id":"ce4bhph2rcd13ifvqhdg","pricing_plan_id":"free"},{"bike_id":"cff879bb-7386-423d-b496-7e98836143ab","system_id":"levelo_inurba_marseille","lat":43.295523,"lon":5.422926,"is_reserved":false,"is_disabled":false,"rental_uris":{"android":"levelo://app?vid=cff879bb-7386-423d-b496-7e98836143ab","ios":"levelo://app?vid=cff879bb-7386-423d-b496-7e98836143ab"},"vehicle_type_id":"4","last_reported":1698347087,"current_range_meters":26800,"station_id":"ce4bhph2rcd13ifvqhdg","pricing_plan_id":"free"},{"bike_id":"fd8691d5-e03c-4690-9c78-c6449d200687","system_id":"levelo_inurba_marseille","lat":43.27815,"lon":5.40709,"is_reserved":false,"is_disabled":false,"rental_uris":{"android":"levelo://app?vid=fd8691d5-e03c-4690-9c78-c6449d200687","ios":"levelo://app?vid=fd8691d5-e03c-4690-9c78-c6449d200687"},"vehicle_type_id":"4","last_reported":1698347087,"current_range_meters":5200,"station_id":"ce4bhnh2rcd13ifvqgtg","pricing_plan_id":"free"},{"bike_id":"7a630741-c135-458f-a806-461089de5254","system_id":"levelo_inurba_marseille","lat":43.278128,"lon":5.407195,"is_reserved":false,"is_disabled":false,"rental_uris":{"android":"levelo://app?vid=7a630741-c135-458f-a806-461089de5254","ios":"levelo://app?vid=7a630741-c135-458f-a806-461089de5254"},"vehicle_type_id":"4","last_reported":1698347087,"current_range_meters":24000,"station_id":"ce4bhnh2rcd13ifvqgtg","pricing_plan_id":"free"},{"bike_id":"e7d74054-06ab-45d9-a37e-9f1b2d442202","system_id":"levelo_inurba_marseille","lat":43.278128,"lon":5.407195,"is_reserved":false,"is_disabled":false,"rental_uris":{"android":"levelo://app?vid=e7d74054-06ab-45d9-a37e-9f1b2d442202","ios":"levelo://app?vid=e7d74054-06ab-45d9-a37e-9f1b2d442202"},"vehicle_type_id":"4","last_reported":1698347087,"current_range_meters":2800,"station_id":"ce4bhnh2rcd13ifvqgtg","pricing_plan_id":"free"},{"bike_id":"16ecdee7-266f-42a9-a20e-4e68e865c9ba","system_id":"levelo_inurba_marseille","lat":43.278128,"lon":5.407195,"is_reserved":false,"is_disabled":false,"rental_uris":{"android":"levelo://app?vid=16ecdee7-266f-42a9-a20e-4e68e865c9ba","ios":"levelo://app?vid=16ecdee7-266f-42a9-a20e-4e68e865c9ba"},