{"last_updated":1708265150,"ttl":30,"version":"2.2","data":{"bikes":[{"bike_id":"e614c797-20e3-4217-bbfe-769924841f48","system_id":"levelo_inurba_marseille","lat":43.312239,"lon":5.368562,"is_reserved":false,"is_disabled":false,"rental_uris":{"android":"levelo://app?vid=e614c797-20e3-4217-bbfe-769924841f48","ios":"levelo://app?vid=e614c797-20e3-4217-bbfe-769924841f48"},"vehicle_type_id":"4","last_reported":1708265150,"current_range_meters":17600,"station_id":"ce4bgl92rcd13ifvqbq0","pricing_plan_id":"cebpf4jnsgd1na2vs0mg"},{"bike_id":"6496d71a-daee-4cc5-ba7f-7b1a09bac337","system_id":"levelo_inurba_marseille","lat":43.312239,"lon":5.368562,"is_reserved":false,"is_disabled":false,"rental_uris":{"android":"levelo://app?vid=6496d71a-daee-4cc5-ba7f-7b1a09bac337","ios":"levelo://app?vid=6496d71a-daee-4cc5-ba7f-7b1a09bac337"},"vehicle_type_id":"4","last_reported":1708265150,"current_range_meters":1200,"station_id":"ce4bgl92rcd13ifvqbq0","pricing_plan_id":"cebpf4jnsgd1na2vs0mg"},{"bike_id":"6cff4c6d-8690-461b-8ba0-3579fa5d2535","system_id":"levelo_inurba_marseille","lat":43.312175,"lon":5.368564,"is_reserved":false,"is_disabled":false,"rental_uris":{"android":"levelo://app?vid=6cff4c6d-8690-461b-8ba0-3579fa5d2535","ios":"levelo://app?vid=6cff4c6d-8690-461b-8ba0-3579fa5d2535"},"vehicle_type_id":"4","last_reported":1708265150,"current_range_meters":5200,"station_id":"","pricing_plan_id":"cebpf4jnsgd1na2vs0mg"},{"bike_id":"d38b66b8-cade-4bb4-b367-0dda0c6c2313","system_id":"levelo_inurba_marseille","lat":43.314811,"lon":5.373103,"is_reserved":false,"is_disabled":false,"rental_uris":{"android":"levelo://app?vid=d38b66b8-cade-4bb4-b367-0dda0c6c2313","ios":"levelo://app?vid=d38b66b8-cade-4bb4-b367-0dda0c6c2313"},"vehicle_type_id":"4","last_reported":1708265150,"current_range_meters":3600,"station_id":"ce4bgt12rcd13ifvqcd0","pricing_plan_id":"cebpf4jnsgd1na2vs0mg"},{"bike_id":"8ddc00b2-5bc3-46d9-9dd9-70d7bb6fe3e8","system_id":"levelo_inurba_marseille","lat":43.314811,"lon":5.373103,"is_reserved":false,"is_disabled":false,"rental_uris":{"android":"levelo://app?vid=8ddc00b2-5bc3-46d9-9dd9-70d7bb6fe3e8","ios":"levelo://app?vid=8ddc00b2-5bc3-46d9-9dd9-70d7bb6fe3e8"},"vehicle_type_id":"4","last_reported":1708265150,"current_range_meters":18800,"station_id":"ce4bgt12rcd13ifvqcd0","pricing_plan_id":"cebpf4jnsgd1na2vs0mg"},{"bike_id":"7b4b2a42-0421-49af-b5b0-6d9380b66497","system_id":"levelo_inurba_marseille","lat":43.31482,"lon":5.37309,"is_reserved":false,"is_disabled":false,"rental_uris":{"android":"levelo://app?vid=7b4b2a42-0421-49af-b5b0-6d9380b66497","ios":"levelo://app?vid=7b4b2a42-0421-49af-b5b0-6d9380b66497"},"vehicle_type_id":"4","last_reported":1708265150,"current_range_meters":4400,"station_id":"ce4bgt12rcd13ifvqcd0","pricing_plan_id":"cebpf4jnsgd1na2vs0mg"},{"bike_id":"2ccbe6e3-1210-481e-b503-034f75ca010c","system_id":"levelo_inurba_marseille","lat":43.314811,"lon":5.373103,"is_reserved":false,"is_disabled":false,"rental_uris":{"android":"levelo://app?vid=2ccbe6e3-1210-481e-b503-034f75ca010c","ios":"levelo://app?vid=2ccbe6e3-1210-481e-b503-034f75ca010c"},"vehicle_type_id":"4","last_reported":1708265150,"current_range_meters":1600,"station_id":"ce4bgt12rcd13ifvqcd0","pricing_plan_id":"cebpf4jnsgd1na2vs0mg"},{"bike_id":"ff59d9af-d22e-44fc-abd7-8d69dca55ac2","system_id":"levelo_inurba_marseille","lat":43.31488,"lon":5.37308,"is_reserved":false,"is_disabled":false,"rental_uris":{"android":"levelo://app?vid=ff59d9af-d22e-44fc-abd7-8d69dca55ac2","ios":"levelo://app?vid=ff59d9af-d22e-44fc-abd7-8d69dca55ac2"},"vehicle_type_id":"4","last_reported":1708265150,"current_range_meters":0,"station_id":"ce4bgt12rcd13ifvqcd0","pricing_plan_id":"cebpf4jnsgd1na2vs0mg"},{"bike_id":"7ccbf1b1-8dc2-4417-8829-55f39bd5ca81","system_id":"levelo_inurba_marseille","lat":43.314811,"lon":5.373103,"is_reserved":false,"is_disabled":false,"rental_uris":{"android":"levelo://app?vid=7ccbf1b1-8dc2-4417-8829-55f39bd5ca81","ios":"levelo://app?vid=7ccbf1b1-8dc2-4417-8829-55f39bd5ca81"},"vehicle_type_id":"4","last_reported":1708265150,"current_range_meters":30800,"station_id":"ce4bgt12rcd13ifvqcd0","pricing_plan_id":"cebpf4jnsgd1na2vs0mg"},{"bike_id":"ddcd4559-4525-44e6-bc8f-d72291494341","system_id":"levelo_inurba_marseille","lat":43.309039,"lon":5.371797,"is_reserved":false,"is_disabled":false,"rental_uris":{"android":"levelo://app?vid=ddcd4559-4525-44e6-bc8f-d72291494341","ios":"levelo://app?vid=ddcd4559-4525-44e6-bc8f-d72291494341"},"vehicle_type_id":"4","last_reported":1708265150,"current_range_meters":2800,"station_id":"ce4bguh2rcd13ifvqckg","pricing_plan_id":"cebpf4jnsgd1na2vs0mg"},{"bike_id":"fca3ec73-97c1-438d-bb1d-99f67f93d0ff","system_id":"levelo_inurba_marseille","lat":43.305714,"lon":5.365633,"is_reserved":false,"is_disabled":false,"rental_uris":{"android":"levelo://app?vid=fca3ec73-97c1-438d-bb1d-99f67f93d0ff","ios":"levelo://app?vid=fca3ec73-97c1-438d-bb1d-99f67f93d0ff"},"vehicle_type_id":"4","last_reported":1708265150,"current_range_meters":16000,"station_id":"ce4bgs12rcd13ifvqcag","pricing_plan_id":"cebpf4jnsgd1na2vs0mg"},{"bike_id":"5f7bcff3-9327-415b-a085-5910ed4a5bb1","system_id":"levelo_inurba_marseille","lat":43.305714,"lon":5.365633,"is_reserved":false,"is_disabled":false,"rental_uris":{"android":"levelo://app?vid=5f7bcff3-9327-415b-a085-5910ed4a5bb1","ios":"levelo://app?vid=5f7bcff3-9327-415b-a085-5910ed4a5bb1"},"vehicle_type_id":"4","last_reported":1708265150,"current_range_meters":8000,"station_id":"ce4bgs12rcd13ifvqcag","pricing_plan_id":"cebpf4jnsgd1na2vs0mg"},{"bike_id":"8361eeec-0e28-4280-9bd5-bd80bc5d20f9","system_id":"levelo_inurba_marseille","lat":43.305989,"lon":5.37225,"is_reserved":false,"is_disabled":false,"rental_uris":{"android":"levelo://app?vid=8361eeec-0e28-4280-9bd5-bd80bc5d20f9","ios":"levelo://app?vid=8361eeec-0e28-4280-9bd5-bd80bc5d20f9"},"vehicle_type_id":"4","last_reported":1708265150,"current_range_meters":14800,"station_id":"ce4bgqh2rcd13ifvqc4g","pricing_plan_id":"cebpf4jnsgd1na2vs0mg"},{"bike_id":"4e0bfd0a-7d08-4364-a6e5-674ff670ce52","system_id":"levelo_inurba_marseille","lat":43.305368,"lon":5.367343,"is_reserved":false,"is_disabled":false,"rental_uris":{"android":"levelo://app?vid=4e0bfd0a-7d08-4364-a6e5-674ff670ce52","ios":"levelo://app?vid=4e0bfd0a-7d08-4364-a6e5-674ff670ce52"},"vehicle_type_id":"4","last_reported":1708265150,"current_range_meters":2800,"station_id":"ce4bgrp2rcd13ifvqc9g","pricing_plan_id":"cebpf4jnsgd1na2vs0mg"},{"bike_id":"25105181-c8f4-4bd1-82c4-427fbab9dc5e","system_id":"levelo_inurba_marseille","lat":43.305989,"lon":5.37225,"is_reserved":false,"is_disabled":false,"rental_uris":{"android":"levelo://app?vid=25105181-c8f4-4bd1-82c4-427fbab9dc5e","ios":"levelo://app?vid=25105181-c8f4-4bd1-82c4-427fbab9dc5e"},"vehicle_type_id":"4","last_reported":1708265150,"current_range_meters":10800,"station_id":"ce4bgqh2rcd13ifvqc4g","pricing_plan_id":"cebpf4jnsgd1na2vs0mg"},{"bike_id":"875825af-363a-4a22-92c1-13e81dcb01ac","system_id":"levelo_inurba_marseille","lat":43.305989,"lon":5.37225,"is_reserved":false,"is_disabled":false,"rental_uris":{"android":"levelo://app?vid=875825af-363a-4a22-92c1-13e81dcb01ac","ios":"levelo://app?vid=875825af-363a-4a22-92c1-13e81dcb01ac"},"vehicle_type_id":"4","last_reported":1708265150,"current_range_meters":16000,"station_id":"ce4bgqh2rcd13ifvqc4g","pricing_plan_id":"cebpf4jnsgd1na2vs0mg"},{"bike_id":"da7aaedb-454d-47bc-b11b-07867ff10147","system_id":"levelo_inurba_marseille","lat":43.305989,"lon":5.37225,"is_reserved":false,"is_disabled":false,"rental_uris":{"android":"levelo://app?vid=da7aaedb-454d-47bc-b11b-07867ff10147","ios":"levelo://app?vid=da7aaedb-454d-47bc-b11b-07867ff10147"},"vehicle_type_id":"4","last_reported":1708265150,"current_range_meters":1200,"station_id":"ce4bgqh2rcd13ifvqc4g","pricing_plan_id":"cebpf4jnsgd1na2vs0mg"},{"bike_id":"6c0e50f8-9f49-4222-b13a-fbd1bebab5c0","system_id":"levelo_inurba_marseille","lat":43.305989,"lon":5.37225,"is_reserved":false,"is_disabled":false,"rental_uris":{"android":"levelo://app?vid=6c0e50f8-9f49-4222-b13a-fbd1bebab5c0","ios":"levelo://app?vid=6c0e50f8-9f49-4222-b13a-fbd1bebab5c0"},"vehicle_type_id":"4","last_reported":1708265150,"current_range_meters":26000,"station_id":"ce4bgqh2rcd13ifvqc4g","pricing_plan_id":"cebpf4jnsgd1na2vs0mg"},{"bike_id":"d631fea2-840d-4df6-946a-a1d835c50c88","system_id":"levelo_inurba_marseille","lat":43.31647,"lon":5.37678,"is_reserved":false,"is_disabled":false,"rental_uris":{"android":"levelo://app?vid=d631fea2-840d-4df6-946a-a1d835c50c88","ios":"levelo://app?vid=d631fea2-840d-4df6-946a-a1d835c50c88"},"vehicle_type_id":"4","last_reported":1708265150,"current_range_meters":2800,"station_id":"","pricing_plan_id":"cebpf4jnsgd1na2vs0mg"},{"bike_id":"6b1941f1-ba8b-4cb9-9f70-6ba89fa48a9f","system_id":"levelo_inurba_marseille","lat":43.30785,"lon":5.37657,"is_reserved":false,"is_disabled":false,"rental_uris":{"android":"levelo://app?vid=6b1941f1-ba8b-4cb9-9f70-6ba89fa48a9f","ios":"levelo://app?vid=6b1941f1-ba8b-4cb9-9f70-6ba89fa48a9f"},"vehicle_type_id":"4","last_reported":1708265150,"current_range_meters":25600,"station_id":"ce4bgv92rcd13ifvqcq0","pricing_plan_id":"cebpf4jnsgd1na2vs0mg"},{"bike_id":"b6579e27-9948-4641-a834-a849228b24af","system_id":"levelo_inurba_marseille","lat":43.317075,"lon":5.377367,"is_reserved":false,"is_disabled":false,"rental_uris":{"android":"levelo://app?vid=b6579e27-9948-4641-a834-a849228b24af","ios":"levelo://app?vid=b6579e27-9948-4641-a834-a849228b24af"},"vehicle_type_id":"4","last_reported":1708265150,"current_range_meters":28000,"station_id":"ce4bgth2rcd13ifvqch0","pricing_plan_id":"cebpf4jnsgd1na2vs0mg"},{"bike_id":"93db7f9a-b5dd-4114-9f51-ed850108c23b","system_id":"levelo_inurba_marseille","lat":43.304606,"lon":5.379026,"is_reserved":false,"is_disabled":false,"rental_uris":{"android":"levelo://app?vid=93db7f9a-b5dd-4114-9f51-ed850108c23b","ios":"levelo://app?vid=93db7f9a-b5dd-4114-9f51-ed850108c23b"},"vehicle_type_id":"4","last_reported":1708265150,"current_range_meters":0,"station_id":"ce4bgup2rcd13ifvqcn0","pricing_plan_id":"cebpf4jnsgd1na2vs0mg"},{"bike_id":"52c7d0c2-438e-4f7d-9db4-ea70d4682f97","system_id":"levelo_inurba_marseille","lat":43.324771,"lon":5.36557,"is_reserved":false,"is_disabled":false,"rental_uris":{"android":"levelo://app?vid=52c7d0c2-438e-4f7d-9db4-ea70d4682f97","ios":"levelo://app?vid=52c7d0c2-438e-4f7d-9db4-ea70d4682f97"},"vehicle_type_id":"4","last_reported":1708265150,"current_range_meters":7200,"station_id":"ce4bhs12rcd13ifvqhvg","pricing_plan_id":"cebpf4jnsgd1na2vs0mg"},{"bike_id":"5a8b3651-7632-4f03-9b34-20ed3840f302","system_id":"levelo_inurba_marseille","lat":43.324771,"lon":5.36557,"is_reserved":false,"is_disabled":false,"rental_uris":{"android":"levelo://app?vid=5a8b3651-7632-4f03-9b34-20ed3840f302","ios":"levelo://app?vid=5a8b3651-7632-4f03-9b34-20ed3840f302"},"vehicle_type_id":"4","last_reported":1708265150,"current_range_meters":12000,"station_id":"ce4bhs12rcd13ifvqhvg","pricing_plan_id":"cebpf4jnsgd1na2vs0mg"},{"bike_id":"66c512bf-acab-4702-ba43-f4af8a53fc57","system_id":"levelo_inurba_marseille","lat":43.324771,"lon":5.36557,"is_reserved":false,"is_disabled":false,"rental_uris":{"android":"levelo://app?vid=66c512bf-acab-4702-ba43-f4af8a53fc57","ios":"levelo://app?vid=66c512bf-acab-4702-ba43-f4af8a53fc57"},"vehicle_type_id":"4","last_reported":1708265150,"current_range_meters":0,"station_id":"ce4bhs12rcd13ifvqhvg","pricing_plan_id":"cebpf4jnsgd1na2vs0mg"},{"bike_id":"6df69321-e57f-4bee-bb51-cba2b9c09fae","system_id":"levelo_inurba_marseille","lat":43.324771,"lon":5.36557,"is_reserved":false,"is_disabled":false,"rental_uris":{"android":"levelo://app?vid=6df69321-e57f-4bee-bb51-cba2b9c09fae","ios":"levelo://app?vid=6df69321-e57f-4bee-bb51-cba2b9c09fae"},"vehicle_type_id":"4","last_reported":1708265150,"current_range_meters":20400,"station_id":"ce4bhs12rcd13ifvqhvg","pricing_plan_id":"cebpf4jnsgd1na2vs0mg"},{"bike_id":"63bc16d4-b7f9-4b45-a0c3-b9a2c2b94897","system_id":"levelo_inurba_marseille","lat":43.324771,"lon":5.36557,"is_reserved":false,"is_disabled":false,"rental_uris":{"android":"levelo://app?vid=63bc16d4-b7f9-4b45-a0c3-b9a2c2b94897","ios":"levelo://app?vid=63bc16d4-b7f9-4b45-a0c3-b9a2c2b94897"},"vehicle_type_id":"4","last_reported":1708265150,"current_range_meters":22400,"station_id":"ce4bhs12rcd13ifvqhvg","pricing_plan_id":"cebpf4jnsgd1na2vs0mg"},{"bike_id":"f2f9c3c9-2e9b-4431-a95b-16f7dabb6d16","system_id":"levelo_inurba_marseille","lat":43.310804,"lon":5.38359,"is_reserved":false,"is_disabled":false,"rental_uris":{"android":"levelo://app?vid=f2f9c3c9-2e9b-4431-a95b-16f7dabb6d16","ios":"levelo://app?vid=f2f9c3c9-2e9b-4431-a95b-16f7dabb6d16"},"vehicle_type_id":"4","last_reported":1708265150,"current_range_meters":10400,"station_id":"ce4bgv92rcd13ifvqcr0","pricing_plan_id":"cebpf4jnsgd1na2vs0mg"},{"bike_id":"ae6d477f-cfc3-48d6-a4b4-33959153e5fc","system_id":"levelo_inurba_marseille","lat":43.310804,"lon":5.38359,"is_reserved":false,"is_disabled":false,"rental_uris":{"android":"levelo://app?vid=ae6d477f-cfc3-48d6-a4b4-33959153e5fc","ios":"levelo://app?vid=ae6d477f-cfc3-48d6-a4b4-33959153e5fc"},"vehicle_type_id":"4","last_reported":1708265150,"current_range_meters":0,"station_id":"ce4bgv92rcd13ifvqcr0","pricing_plan_id":"cebpf4jnsgd1na2vs0mg"},{"bike_id":"012baeb0-39ca-4141-9eca-1afabf0b6d5a","system_id":"levelo_inurba_marseille","lat":43.302784,"lon":5.377158,"is_reserved":false,"is_disabled":false,"rental_uris":{"android":"levelo://app?vid=012baeb0-39ca-4141-9eca-1afabf0b6d5a","ios":"levelo://app?vid=012baeb0-39ca-4141-9eca-1afabf0b6d5a"},"vehicle_type_id":"4","last_reported":1708265150,"current_range_meters":800,"station_id":"ce4bguh2rcd13ifvqcj0","pricing_plan_id":"cebpf4jnsgd1na2vs0mg"},{"bike_id":"97947038-5dee-4902-9cd3-a5b797f647fb","system_id":"levelo_inurba_marseille","lat":43.302784,"lon":5.377158,"is_reserved":false,"is_disabled":false,"rental_uris":{"android":"levelo://app?vid=97947038-5dee-4902-9cd3-a5b797f647fb","ios":"levelo://app?vid=97947038-5dee-4902-9cd3-a5b797f647fb"},"vehicle_type_id":"4","last_reported":1708265150,"current_range_meters":16400,"station_id":"ce4bguh2rcd13ifvqcj0","pricing_plan_id":"cebpf4jnsgd1na2vs0mg"},{"bike_id":"e3de7e16-4951-4b98-ad96-49c07bc7190f","system_id":"levelo_inurba_marseille","lat":43.31362,"lon":5.384984,"is_reserved":false,"is_disabled":false,"rental_uris":{"android":"levelo://app?vid=e3de7e16-4951-4b98-ad96-49c07bc7190f","ios":"levelo://app?vid=e3de7e16-4951-4b98-ad96-49c07bc7190f"},"vehicle_type_id":"4","last_reported":1708265150,"current_range_meters":0,"station_id":"ce4bgt92rcd13ifvqcf0","pricing_plan_id":"cebpf4jnsgd1na2vs0mg"},{"bike_id":"18ed5d32-aec9-46f2-936a-aac179d9c028","system_id":"levelo_inurba_marseille","lat":43.299222,"lon":5.365554,"is_reserved":false,"is_disabled":false,"rental_uris":{"android":"levelo://app?vid=18ed5d32-aec9-46f2-936a-aac179d9c028","ios":"levelo://app?vid=18ed5d32-aec9-46f2-936a-aac179d9c028"},"vehicle_type_id":"4","last_reported":1708265150,"current_range_meters":30000,"station_id":"ce4bgm92rcd13ifvqbr0","pricing_plan_id":"cebpf4jnsgd1na2vs0mg"},{"bike_id":"bca8df79-dceb-4a15-8e4d-520f1cbaef9a","system_id":"levelo_inurba_marseille","lat":43.298433,"lon":5.362774,"is_reserved":false,"is_disabled":false,"rental_uris":{"android":"levelo://app?vid=bca8df79-dceb-4a15-8e4d-520f1cbaef9a","ios":"levelo://app?vid=bca8df79-dceb-4a15-8e4d-520f1cbaef9a"},"vehicle_type_id":"4","last_reported":1708265150,"current_range_meters":26800,"station_id":"ce4bgpp2rcd13ifvqc3g","pricing_plan_id":"cebpf4jnsgd1na2vs0mg"},{"bike_id":"49edcfc2-35e6-49df-bb69-8d1723fa0ff1","system_id":"levelo_inurba_marseille","lat":43.298456,"lon":5.36272,"is_reserved":false,"is_disabled":false,"rental_uris":{"android":"levelo://app?vid=49edcfc2-35e6-49df-bb69-8d1723fa0ff1","ios":"levelo://app?vid=49edcfc2-35e6-49df-bb69-8d1723fa0ff1"},"vehicle_type_id":"4","last_reported":1708265150,"current_range_meters":28000,"station_id":"","pricing_plan_id":"cebpf4jnsgd1na2vs0mg"},{"bike_id":"437a2eec-bdbf-4a1f-ad53-13dea69a6191","system_id":"levelo_inurba_marseille","lat":43.298433,"lon":5.362774,"is_reserved":false,"is_disabled":false,"rental_uris":{"android":"levelo://app?vid=437a2eec-bdbf-4a1f-ad53-13dea69a6191","ios":"levelo://app?vid=437a2eec-bdbf-4a1f-ad53-13dea69a6191"},"vehicle_type_id":"4","last_reported":1708265150,"current_range_meters":11200,"station_id":"ce4bgpp2rcd13ifvqc3g","pricing_plan_id":"cebpf4jnsgd1na2vs0mg"},{"bike_id":"4600372a-3ad7-4aa2-8e28-ba6ce74ca097","system_id":"levelo_inurba_marseille","lat":43.298433,"lon":5.362774,"is_reserved":false,"is_disabled":false,"rental_uris":{"android":"levelo://app?vid=4600372a-3ad7-4aa2-8e28-ba6ce74ca097","ios":"levelo://app?vid=4600372a-3ad7-4aa2-8e28-ba6ce74ca097"},"vehicle_type_id":"4","last_reported":1708265150,"current_range_meters":26400,"station_id":"ce4bgpp2rcd13ifvqc3g","pricing_plan_id":"cebpf4jnsgd1na2vs0mg"},{"bike_id":"5ea101b7-4ceb-4d21-9718-f384bef07365","system_id":"levelo_inurba_marseille","lat":43.298433,"lon":5.362774,"is_reserved":false,"is_disabled":false,"rental_uris":{"android":"levelo://app?vid=5ea101b7-4ceb-4d21-9718-f384bef07365","ios":"levelo://app?vid=5ea101b7-4ceb-4d21-9718-f384bef07365"},"vehicle_type_id":"4","last_reported":1708265150,"current_range_meters":12000,"station_id":"ce4bgpp2rcd13ifvqc3g","pricing_plan_id":"cebpf4jnsgd1na2vs0mg"},{"bike_id":"69135754-2a1a-47f5-8c5b-24020f010571","system_id":"levelo_inurba_marseille","lat":43.299243,"lon":5.374807,"is_reserved":false,"is_disabled":false,"rental_uris":{"android":"levelo://app?vid=69135754-2a1a-47f5-8c5b-24020f010571","ios":"levelo://app?vid=69135754-2a1a-47f5-8c5b-24020f010571"},"vehicle_type_id":"4","last_reported":1708265150,"current_range_meters":8800,"station_id":"ce4bgjh2rcd13ifvqbg0","pricing_plan_id":"cebpf4jnsgd1na2vs0mg"},{"bike_id":"34b2a345-044e-4019-b679-ae3e5c33b319","system_id":"levelo_inurba_marseille","lat":43.322872,"lon":5.382756,"is_reserved":false,"is_disabled":false,"rental_uris":{"android":"levelo://app?vid=34b2a345-044e-4019-b679-ae3e5c33b319","ios":"levelo://app?vid=34b2a345-044e-4019-b679-ae3e5c33b319"},"vehicle_type_id":"4","last_reported":1708265150,"current_range_meters":800,"station_id":"ce4bhr12rcd13ifvqhqg","pricing_plan_id":"cebpf4jnsgd1na2vs0mg"},{"bike_id":"410a532b-f4d9-44b0-bece-5fd8115e2fc4","system_id":"levelo_inurba_marseille","lat":43.322872,"lon":5.382756,"is_reserved":false,"is_disabled":false,"rental_uris":{"android":"levelo://app?vid=410a532b-f4d9-44b0-bece-5fd8115e2fc4","ios":"levelo://app?vid=410a532b-f4d9-44b0-bece-5fd8115e2fc4"},"vehicle_type_id":"4","last_reported":1708265150,"current_range_meters":20800,"station_id":"ce4bhr12rcd13ifvqhqg","pricing_plan_id":"cebpf4jnsgd1na2vs0mg"},{"bike_id":"9af28949-3abe-4ee4-a57a-c236655c3362","system_id":"levelo_inurba_marseille","lat":43.322872,"lon":5.382756,"is_reserved":false,"is_disabled":false,"rental_uris":{"android":"levelo://app?vid=9af28949-3abe-4ee4-a57a-c236655c3362","ios":"levelo://app?vid=9af28949-3abe-4ee4-a57a-c236655c3362"},"vehicle_type_id":"4","last_reported":1708265150,"current_range_meters":31600,"station_id":"ce4bhr12rcd13ifvqhqg","pricing_plan_id":"cebpf4jnsgd1na2vs0mg"},{"bike_id":"70fe7047-25f5-4921-82cd-938fed021886","system_id":"levelo_inurba_marseille","lat":43.322872,"lon":5.382756,"is_reserved":false,"is_disabled":false,"rental_uris":{"android":"levelo://app?vid=70fe7047-25f5-4921-82cd-938fed021886","ios":"levelo://app?vid=70fe7047-25f5-4921-82cd-938fed021886"},"vehicle_type_id":"4","last_reported":1708265150,"current_range_meters":20000,"station_id":"ce4bhr12rcd13ifvqhqg","pricing_plan_id":"cebpf4jnsgd1na2vs0mg"},{"bike_id":"1a827012-09b8-464b-93b8-f30d31207867","system_id":"levelo_inurba_marseille","lat":43.322872,"lon":5.382756,"is_reserved":false,"is_disabled":false,"rental_uris":{"android":"levelo://app?vid=1a827012-09b8-464b-93b8-f30d31207867","ios":"levelo://app?vid=1a827012-09b8-464b-93b8-f30d31207867"},"vehicle_type_id":"4","last_reported":1708265150,"current_range_meters":31600,"station_id":"ce4bhr12rcd13ifvqhqg","pricing_plan_id":"cebpf4jnsgd1na2vs0mg"},{"bike_id":"c53236fa-df22-4f5a-b3e7-c126bc407e3e","system_id":"levelo_inurba_marseille","lat":43.297794,"lon":5.370888,"is_reserved":false,"is_disabled":false,"rental_uris":{"android":"levelo://app?vid=c53236fa-df22-4f5a-b3e7-c126bc407e3e","ios":"levelo://app?vid=c53236fa-df22-4f5a-b3e7-c126bc407e3e"},"vehicle_type_id":"4","last_reported":1708265150,"current_range_meters":6000,"station_id":"ce4bgop2rcd13ifvqc1g","pricing_plan_id":"cebpf4jnsgd1na2vs0mg"},{"bike_id":"c9ca704a-95d9-467c-ad5a-5403d53c76ed","system_id":"levelo_inurba_marseille","lat":43.32812,"lon":5.36671,"is_reserved":false,"is_disabled":false,"rental_uris":{"android":"levelo://app?vid=c9ca704a-95d9-467c-ad5a-5403d53c76ed","ios":"levelo://app?vid=c9ca704a-95d9-467c-ad5a-5403d53c76ed"},"vehicle_type_id":"4","last_reported":1708265150,"current_range_meters":3600,"station_id":"ce4bhs92rcd13ifvqi0g","pricing_plan_id":"cebpf4jnsgd1na2vs0mg"},{"bike_id":"2459963a-9a41-477a-9f46-310730d184fe","system_id":"levelo_inurba_marseille","lat":43.32818,"lon":5.36676,"is_reserved":false,"is_disabled":false,"rental_uris":{"android":"levelo://app?vid=2459963a-9a41-477a-9f46-310730d184fe","ios":"levelo://app?vid=2459963a-9a41-477a-9f46-310730d184fe"},"vehicle_type_id":"4","last_reported":1708265150,"current_range_meters":14000,"station_id":"ce4bhs92rcd13ifvqi0g","pricing_plan_id":"cebpf4jnsgd1na2vs0mg"},{"bike_id":"55f2d4b0-8802-4bd2-8697-0f012dcc25c1","system_id":"levelo_inurba_marseille","lat":43.32819,"lon":5.36686,"is_reserved":false,"is_disabled":false,"rental_uris":{"android":"levelo://app?vid=55f2d4b0-8802-4bd2-8697-0f012dcc25c1","ios":"levelo://app?vid=55f2d4b0-8802-4bd2-8697-0f012dcc25c1"},"vehicle_type_id":"4","last_reported":1708265150,"current_range_meters":30400,"station_id":"ce4bhs92rcd13ifvqi0g","pricing_plan_id":"cebpf4jnsgd1na2vs0mg"},{"bike_id":"56e39d4e-cf47-4284-9a5f-c7eda237067f","system_id":"levelo_inurba_marseille","lat":43.32822,"lon":5.36687,"is_reserved":false,"is_disabled":false,"rental_uris":{"android":"levelo://app?vid=56e39d4e-cf47-4284-9a5f-c7eda237067f","ios":"levelo://app?vid=56e39d4e-cf47-4284-9a5f-c7eda237067f"},"vehicle_type_id":"4","last_reported":1708265150,"current_range_meters":26400,"station_id":"ce4bhs92rcd13ifvqi0g","pricing_plan_id":"cebpf4jnsgd1na2vs0mg"},{"bike_id":"5195dc94-0b55-41c8-9198-580992dd67c5","system_id":"levelo_inurba_marseille","lat":43.32826,"lon":5.3669,"is_reserved":false,"is_disabled":false,"rental_uris":{"android":"levelo://app?vid=5195dc94-0b55-41c8-9198-580992dd67c5","ios":"levelo://app?vid=5195dc94-0b55-41c8-9198-580992dd67c5"},"vehicle_type_id":"4","last_reported":1708265150,"current_range_meters":16400,"station_id":"ce4bhs92rcd13ifvqi0g","pricing_plan_id":"cebpf4jnsgd1na2vs0mg"},{"bike_id":"85a36e5b-6015-49e9-8ce2-bd78d546dff8","system_id":"levelo_inurba_marseille","lat":43.32826,"lon":5.36685,"is_reserved":false,"is_disabled":false,"rental_uris":{"android":"levelo://app?vid=85a36e5b-6015-49e9-8ce2-bd78d546dff8","ios":"levelo://app?vid=85a36e5b-6015-49e9-8ce2-bd78d546dff8"},"vehicle_type_id":"4","last_reported":1708265150,"current_range_meters":25600,"station_id":"ce4bhs92rcd13ifvqi0g","pricing_plan_id":"cebpf4jnsgd1na2vs0mg"},{"bike_id":"45fe6c6c-2569-4aee-9c18-3f3586004f23","system_id":"levelo_inurba_marseille","lat":43.32827,"lon":5.36687,"is_reserved":false,"is_disabled":false,"rental_uris":{"android":"levelo://app?vid=45fe6c6c-2569-4aee-9c18-3f3586004f23","ios":"levelo://app?vid=45fe6c6c-2569-4aee-9c18-3f3586004f23"},"vehicle_type_id":"4","last_reported":1708265150,"current_range_meters":18800,"station_id":"ce4bhs92rcd13ifvqi0g","pricing_plan_id":"cebpf4jnsgd1na2vs0mg"},{"bike_id":"fcbb72e3-aeee-4031-b1db-dc05c41736e9","system_id":"levelo_inurba_marseille","lat":43.32828,"lon":5.3668,"is_reserved":false,"is_disabled":false,"rental_uris":{"android":"levelo://app?vid=fcbb72e3-aeee-4031-b1db-dc05c41736e9","ios":"levelo://app?vid=fcbb72e3-aeee-4031-b1db-dc05c41736e9"},"vehicle_type_id":"4","last_reported":1708265150,"current_range_meters":10000,"station_id":"ce4bhs92rcd13ifvqi0g","pricing_plan_id":"cebpf4jnsgd1na2vs0mg"},{"bike_id":"3fb36c4d-f19c-4f06-af1b-b8ac121320bd","system_id":"levelo_inurba_marseille","lat":43.32829,"lon":5.36691,"is_reserved":false,"is_disabled":false,"rental_uris":{"android":"levelo://app?vid=3fb36c4d-f19c-4f06-af1b-b8ac121320bd","ios":"levelo://app?vid=3fb36c4d-f19c-4f06-af1b-b8ac121320bd"},"vehicle_type_id":"4","last_reported":1708265150,"current_range_meters":21600,"station_id":"ce4bhs92rcd13ifvqi0g","pricing_plan_id":"cebpf4jnsgd1na2vs0mg"},{"bike_id":"d125619a-6ae6-4def-8c67-f1352fae5a27","system_id":"levelo_inurba_marseille","lat":43.32829,"lon":5.36681,"is_reserved":false,"is_disabled":false,"rental_uris":{"android":"levelo://app?vid=d125619a-6ae6-4def-8c67-f1352fae5a27","ios":"levelo://app?vid=d125619a-6ae6-4def-8c67-f1352fae5a27"},"vehicle_type_id":"4","last_reported":1708265150,"current_range_meters":14800,"station_id":"ce4bhs92rcd13ifvqi0g","pricing_plan_id":"cebpf4jnsgd1na2vs0mg"},{"bike_id":"7147a1ee-3d42-406f-908a-817f7c4e88b4","system_id":"levelo_inurba_marseille","lat":43.32829,"lon":5.36678,"is_reserved":false,"is_disabled":false,"rental_uris":{"android":"levelo://app?vid=7147a1ee-3d42-406f-908a-817f7c4e88b4","ios":"levelo://app?vid=7147a1ee-3d42-406f-908a-817f7c4e88b4"},"vehicle_type_id":"4","last_reported":1708265150,"current_range_meters":18000,"station_id":"ce4bhs92rcd13ifvqi0g","pricing_plan_id":"cebpf4jnsgd1na2vs0mg"},{"bike_id":"0c35a0a7-ef87-411a-89ed-fbe37a1a4729","system_id":"levelo_inurba_marseille","lat":43.3283,"lon":5.36686,"is_reserved":false,"is_disabled":false,"rental_uris":{"android":"levelo://app?vid=0c35a0a7-ef87-411a-89ed-fbe37a1a4729","ios":"levelo://app?vid=0c35a0a7-ef87-411a-89ed-fbe37a1a4729"},"vehicle_type_id":"4","last_reported":1708265150,"current_range_meters":23200,"station_id":"ce4bhs92rcd13ifvqi0g","pricing_plan_id":"cebpf4jnsgd1na2vs0mg"},{"bike_id":"3ce3bf05-0e26-4ba4-9a11-4781ff3d0eb6","system_id":"levelo_inurba_marseille","lat":43.328307,"lon":5.36681,"is_reserved":false,"is_disabled":false,"rental_uris":{"android":"levelo://app?vid=3ce3bf05-0e26-4ba4-9a11-4781ff3d0eb6","ios":"levelo://app?vid=3ce3bf05-0e26-4ba4-9a11-4781ff3d0eb6"},"vehicle_type_id":"4","last_reported":1708265150,"current_range_meters":0,"station_id":"ce4bhs92rcd13ifvqi0g","pricing_plan_id":"cebpf4jnsgd1na2vs0mg"},{"bike_id":"cc924a54-60e4-4421-b12c-5aa0bb659927","system_id":"levelo_inurba_marseille","lat":43.328317,"lon":5.366864,"is_reserved":false,"is_disabled":false,"rental_uris":{"android":"levelo://app?vid=cc924a54-60e4-4421-b12c-5aa0bb659927","ios":"levelo://app?vid=cc924a54-60e4-4421-b12c-5aa0bb659927"},"vehicle_type_id":"4","last_reported":1708265150,"current_range_meters":0,"station_id":"ce4bhs92rcd13ifvqi0g","pricing_plan_id":"cebpf4jnsgd1na2vs0mg"},{"bike_id":"c63f5776-29a6-4124-856b-96d9c7ed370b","system_id":"levelo_inurba_marseille","lat":43.32833,"lon":5.36692,"is_reserved":false,"is_disabled":false,"rental_uris":{"android":"levelo://app?vid=c63f5776-29a6-4124-856b-96d9c7ed370b","ios":"levelo://app?vid=c63f5776-29a6-4124-856b-96d9c7ed370b"},"vehicle_type_id":"4","last_reported":1708265150,"current_range_meters":21600,"station_id":"ce4bhs92rcd13ifvqi0g","pricing_plan_id":"cebpf4jnsgd1na2vs0mg"},{"bike_id":"798e1c77-cdb6-49fb-b2e4-2a646e449b0a","system_id":"levelo_inurba_marseille","lat":43.328371,"lon":5.366909,"is_reserved":false,"is_disabled":false,"rental_uris":{"android":"levelo://app?vid=798e1c77-cdb6-49fb-b2e4-2a646e449b0a","ios":"levelo://app?vid=798e1c77-cdb6-49fb-b2e4-2a646e449b0a"},"vehicle_type_id":"4","last_reported":1708265150,"current_range_meters":1600,"station_id":"ce4bhs92rcd13ifvqi0g","pricing_plan_id":"cebpf4jnsgd1na2vs0mg"},{"bike_id":"2d896d1d-d2a6-4c07-9563-73bb1db984ce","system_id":"levelo_inurba_marseille","lat":43.32833,"lon":5.36678,"is_reserved":false,"is_disabled":false,"rental_uris":{"android":"levelo://app?vid=2d896d1d-d2a6-4c07-9563-73bb1db984ce","ios":"levelo://app?vid=2d896d1d-d2a6-4c07-9563-73bb1db984ce"},"vehicle_type_id":"4","last_reported":1708265150,"current_range_meters":30000,"station_id":"ce4bhs92rcd13ifvqi0g","pricing_plan_id":"cebpf4jnsgd1na2vs0mg"},{"bike_id":"45a7a14e-9b1e-4a1b-ad54-93a32f013a67","system_id":"levelo_inurba_marseille","lat":43.32834,"lon":5.366832,"is_reserved":false,"is_disabled":false,"rental_uris":{"android":"levelo://app?vid=45a7a14e-9b1e-4a1b-ad54-93a32f013a67","ios":"levelo://app?vid=45a7a14e-9b1e-4a1b-ad54-93a32f013a67"},"vehicle_type_id":"4","last_reported":1708265150,"current_range_meters":8000,"station_id":"ce4bhs92rcd13ifvqi0g","pricing_plan_id":"cebpf4jnsgd1na2vs0mg"},{"bike_id":"317dd7ad-9963-4d38-9178-e86dec7d53a6","system_id":"levelo_inurba_marseille","lat":43.297163,"lon":5.365866,"is_reserved":false,"is_disabled":false,"rental_uris":{"android":"levelo://app?vid=317dd7ad-9963-4d38-9178-e86dec7d53a6","ios":"levelo://app?vid=317dd7ad-9963-4d38-9178-e86dec7d53a6"},"vehicle_type_id":"4","last_reported":1708265150,"current_range_meters":31200,"station_id":"ce4bgn12rcd13ifvqbt0","pricing_plan_id":"cebpf4jnsgd1na2vs0mg"},{"bike_id":"3ae60af2-a6ba-4c3e-a5d0-d50904dabf97","system_id":"levelo_inurba_marseille","lat":43.29601,"lon":5.36995,"is_reserved":false,"is_disabled":false,"rental_uris":{"android":"levelo://app?vid=3ae60af2-a6ba-4c3e-a5d0-d50904dabf97","ios":"levelo://app?vid=3ae60af2-a6ba-4c3e-a5d0-d50904dabf97"},"vehicle_type_id":"4","last_reported":1708265150,"current_range_meters":12000,"station_id":"","pricing_plan_id":"cebpf4jnsgd1na2vs0mg"},{"bike_id":"abb25cc1-c1d9-47bf-8aea-caf2dcaf6039","system_id":"levelo_inurba_marseille","lat":43.296131,"lon":5.370791,"is_reserved":false,"is_disabled":false,"rental_uris":{"android":"levelo://app?vid=abb25cc1-c1d9-47bf-8aea-caf2dcaf6039","ios":"levelo://app?vid=abb25cc1-c1d9-47bf-8aea-caf2dcaf6039"},"vehicle_type_id":"4","last_reported":1708265150,"current_range_meters":30000,"station_id":"ce4bgnh2rcd13ifvqc0g","pricing_plan_id":"cebpf4jnsgd1na2vs0mg"},{"bike_id":"5b6eb5fe-5272-4b85-b2a9-7ec57e39c365","system_id":"levelo_inurba_marseille","lat":43.29573,"lon":5.367355,"is_reserved":false,"is_disabled":false,"rental_uris":{"android":"levelo://app?vid=5b6eb5fe-5272-4b85-b2a9-7ec57e39c365","ios":"levelo://app?vid=5b6eb5fe-5272-4b85-b2a9-7ec57e39c365"},"vehicle_type_id":"4","last_reported":1708265150,"current_range_meters":400,"station_id":"ce4bgph2rcd13ifvqc2g","pricing_plan_id":"cebpf4jnsgd1na2vs0mg"},{"bike_id":"a7d0c0e6-99a4-4c27-9361-dbf022db47db","system_id":"levelo_inurba_marseille","lat":43.309589,"lon":5.390258,"is_reserved":false,"is_disabled":false,"rental_uris":{"android":"levelo://app?vid=a7d0c0e6-99a4-4c27-9361-dbf022db47db","ios":"levelo://app?vid=a7d0c0e6-99a4-4c27-9361-dbf022db47db"},"vehicle_type_id":"4","last_reported":1708265150,"current_range_meters":0,"station_id":"ce4bgup2rcd13ifvqco0","pricing_plan_id":"cebpf4jnsgd1na2vs0mg"},{"bike_id":"d5fae4fd-b5b6-4961-b9e9-e4d3f6d94626","system_id":"levelo_inurba_marseille","lat":43.299028,"lon":5.381509,"is_reserved":false,"is_disabled":false,"rental_uris":{"android":"levelo://app?vid=d5fae4fd-b5b6-4961-b9e9-e4d3f6d94626","ios":"levelo://app?vid=d5fae4fd-b5b6-4961-b9e9-e4d3f6d94626"},"vehicle_type_id":"4","last_reported":1708265150,"current_range_meters":22400,"station_id":"ce4bgj12rcd13ifvqbc0","pricing_plan_id":"cebpf4jnsgd1na2vs0mg"},{"bike_id":"08eb58d5-193d-4e2a-b38d-a878324e62e2","system_id":"levelo_inurba_marseille","lat":43.30948,"lon":5.39032,"is_reserved":false,"is_disabled":false,"rental_uris":{"android":"levelo://app?vid=08eb58d5-193d-4e2a-b38d-a878324e62e2","ios":"levelo://app?vid=08eb58d5-193d-4e2a-b38d-a878324e62e2"},"vehicle_type_id":"4","last_reported":1708265150,"current_range_meters":5200,"station_id":"ce4bgup2rcd13ifvqco0","pricing_plan_id":"cebpf4jnsgd1na2vs0mg"},{"bike_id":"23254cff-f9a5-43f1-b870-41eda2c1e9da","system_id":"levelo_inurba_marseille","lat":43.309589,"lon":5.390258,"is_reserved":false,"is_disabled":false,"rental_uris":{"android":"levelo://app?vid=23254cff-f9a5-43f1-b870-41eda2c1e9da","ios":"levelo://app?vid=23254cff-f9a5-43f1-b870-41eda2c1e9da"},"vehicle_type_id":"4","last_reported":1708265150,"current_range_meters":31200,"station_id":"ce4bgup2rcd13ifvqco0","pricing_plan_id":"cebpf4jnsgd1na2vs0mg"},{"bike_id":"b3dcb9ba-bf07-48c1-aada-2fbdb761a352","system_id":"levelo_inurba_marseille","lat":43.317557,"lon":5.390173,"is_reserved":false,"is_disabled":false,"rental_uris":{"android":"levelo://app?vid=b3dcb9ba-bf07-48c1-aada-2fbdb761a352","ios":"levelo://app?vid=b3dcb9ba-bf07-48c1-aada-2fbdb761a352"},"vehicle_type_id":"4","last_reported":1708265150,"current_range_meters":31200,"station_id":"ce4bhqp2rcd13ifvqhng","pricing_plan_id":"cebpf4jnsgd1na2vs0mg"},{"bike_id":"ed87d69f-71e3-4a80-a6a0-6a1355afd957","system_id":"levelo_inurba_marseille","lat":43.31758,"lon":5.39015,"is_reserved":false,"is_disabled":false,"rental_uris":{"android":"levelo://app?vid=ed87d69f-71e3-4a80-a6a0-6a1355afd957","ios":"levelo://app?vid=ed87d69f-71e3-4a80-a6a0-6a1355afd957"},"vehicle_type_id":"4","last_reported":1708265150,"current_range_meters":6000,"station_id":"ce4bhqp2rcd13ifvqhng","pricing_plan_id":"cebpf4jnsgd1na2vs0mg"},{"bike_id":"e71aad95-e785-4fac-9d74-e2b56468f77a","system_id":"levelo_inurba_marseille","lat":43.317557,"lon":5.390173,"is_reserved":false,"is_disabled":false,"rental_uris":{"android":"levelo://app?vid=e71aad95-e785-4fac-9d74-e2b56468f77a","ios":"levelo://app?vid=e71aad95-e785-4fac-9d74-e2b56468f77a"},"vehicle_type_id":"4","last_reported":1708265150,"current_range_meters":30000,"station_id":"ce4bhqp2rcd13ifvqhng","pricing_plan_id":"cebpf4jnsgd1na2vs0mg"},{"bike_id":"c9a9ff23-6544-438e-9b5f-2ecf4af1c416","system_id":"levelo_inurba_marseille","lat":43.29668,"lon":5.37765,"is_reserved":false,"is_disabled":false,"rental_uris":{"android":"levelo://app?vid=c9a9ff23-6544-438e-9b5f-2ecf4af1c416","ios":"levelo://app?vid=c9a9ff23-6544-438e-9b5f-2ecf4af1c416"},"vehicle_type_id":"4","last_reported":1708265150,"current_range_meters":10800,"station_id":"","pricing_plan_id":"cebpf4jnsgd1na2vs0mg"},{"bike_id":"973b379f-83d8-4bb9-82f8-7d719ab6182f","system_id":"levelo_inurba_marseille","lat":43.304274,"lon":5.388873,"is_reserved":false,"is_disabled":false,"rental_uris":{"android":"levelo://app?vid=973b379f-83d8-4bb9-82f8-7d719ab6182f","ios":"levelo://app?vid=973b379f-83d8-4bb9-82f8-7d719ab6182f"},"vehicle_type_id":"4","last_reported":1708265150,"current_range_meters":22800,"station_id":"ce4bgk12rcd13ifvqbi0","pricing_plan_id":"cebpf4jnsgd1na2vs0mg"},{"bike_id":"cd357629-dc5f-442c-9c97-22d1df2253c6","system_id":"levelo_inurba_marseille","lat":43.304492,"lon":5.389157,"is_reserved":false,"is_disabled":false,"rental_uris":{"android":"levelo://app?vid=cd357629-dc5f-442c-9c97-22d1df2253c6","ios":"levelo://app?vid=cd357629-dc5f-442c-9c97-22d1df2253c6"},"vehicle_type_id":"4","last_reported":1708265150,"current_range_meters":8400,"station_id":"","pricing_plan_id":"cebpf4jnsgd1na2vs0mg"},{"bike_id":"33bf96c7-44bc-4a07-a17f-299fad8aad1b","system_id":"levelo_inurba_marseille","lat":43.297785,"lon":5.381325,"is_reserved":false,"is_disabled":false,"rental_uris":{"android":"levelo://app?vid=33bf96c7-44bc-4a07-a17f-299fad8aad1b","ios":"levelo://app?vid=33bf96c7-44bc-4a07-a17f-299fad8aad1b"},"vehicle_type_id":"4","last_reported":1708265150,"current_range_meters":10000,"station_id":"","pricing_plan_id":"cebpf4jnsgd1na2vs0mg"},{"bike_id":"9d871f50-0327-4348-a9da-d10b72178825","system_id":"levelo_inurba_marseille","lat":43.32366,"lon":5.38894,"is_reserved":false,"is_disabled":false,"rental_uris":{"android":"levelo://app?vid=9d871f50-0327-4348-a9da-d10b72178825","ios":"levelo://app?vid=9d871f50-0327-4348-a9da-d10b72178825"},"vehicle_type_id":"4","last_reported":1708265150,"current_range_meters":20000,"station_id":"ce4bhqp2rcd13ifvqhog","pricing_plan_id":"cebpf4jnsgd1na2vs0mg"},{"bike_id":"647121b0-ba38-424e-b81d-04d8c51199f9","system_id":"levelo_inurba_marseille","lat":43.29602,"lon":5.381084,"is_reserved":false,"is_disabled":false,"rental_uris":{"android":"levelo://app?vid=647121b0-ba38-424e-b81d-04d8c51199f9","ios":"levelo://app?vid=647121b0-ba38-424e-b81d-04d8c51199f9"},"vehicle_type_id":"4","last_reported":1708265150,"current_range_meters":3200,"station_id":"ce4bgl12rcd13ifvqbo0","pricing_plan_id":"cebpf4jnsgd1na2vs0mg"},{"bike_id":"e30b5766-139a-4ca3-8c44-a91808c842c6","system_id":"levelo_inurba_marseille","lat":43.293997,"lon":5.376248,"is_reserved":false,"is_disabled":false,"rental_uris":{"android":"levelo://app?vid=e30b5766-139a-4ca3-8c44-a91808c842c6","ios":"levelo://app?vid=e30b5766-139a-4ca3-8c44-a91808c842c6"},"vehicle_type_id":"4","last_reported":1708265150,"current_range_meters":19200,"station_id":"","pricing_plan_id":"cebpf4jnsgd1na2vs0mg"},{"bike_id":"83d57406-6bee-4e7c-8f35-fc0a551356e3","system_id":"levelo_inurba_marseille","lat":43.293259,"lon":5.371586,"is_reserved":false,"is_disabled":false,"rental_uris":{"android":"levelo://app?vid=83d57406-6bee-4e7c-8f35-fc0a551356e3","ios":"levelo://app?vid=83d57406-6bee-4e7c-8f35-fc0a551356e3"},"vehicle_type_id":"4","last_reported":1708265150,"current_range_meters":13600,"station_id":"ce4bgh92rcd13ifvqb40","pricing_plan_id":"cebpf4jnsgd1na2vs0mg"},{"bike_id":"8c7d0833-be5b-4344-b163-b251ea89f026","system_id":"levelo_inurba_marseille","lat":43.293009,"lon":5.374584,"is_reserved":false,"is_disabled":false,"rental_uris":{"android":"levelo://app?vid=8c7d0833-be5b-4344-b163-b251ea89f026","ios":"levelo://app?vid=8c7d0833-be5b-4344-b163-b251ea89f026"},"vehicle_type_id":"4","last_reported":1708265150,"current_range_meters":7600,"station_id":"ce4bgi12rcd13ifvqb70","pricing_plan_id":"cebpf4jnsgd1na2vs0mg"},{"bike_id":"61d2537b-3400-4c14-b748-a1d8b2cded22","system_id":"levelo_inurba_marseille","lat":43.305994,"lon":5.393687,"is_reserved":false,"is_disabled":false,"rental_uris":{"android":"levelo://app?vid=61d2537b-3400-4c14-b748-a1d8b2cded22","ios":"levelo://app?vid=61d2537b-3400-4c14-b748-a1d8b2cded22"},"vehicle_type_id":"4","last_reported":1708265150,"current_range_meters":7600,"station_id":"ce4bh0p2rcd13ifvqd80","pricing_plan_id":"cebpf4jnsgd1na2vs0mg"},{"bike_id":"07af4282-a743-4149-b921-2ebad2242568","system_id":"levelo_inurba_marseille","lat":43.305994,"lon":5.393687,"is_reserved":false,"is_disabled":false,"rental_uris":{"android":"levelo://app?vid=07af4282-a743-4149-b921-2ebad2242568","ios":"levelo://app?vid=07af4282-a743-4149-b921-2ebad2242568"},"vehicle_type_id":"4","last_reported":1708265150,"current_range_meters":800,"station_id":"ce4bh0p2rcd13ifvqd80","pricing_plan_id":"cebpf4jnsgd1na2vs0mg"},{"bike_id":"4504bb00-4552-4c7f-aec0-4ddd19e933de","system_id":"levelo_inurba_marseille","lat":43.2936,"lon":5.37835,"is_reserved":false,"is_disabled":false,"rental_uris":{"android":"levelo://app?vid=4504bb00-4552-4c7f-aec0-4ddd19e933de","ios":"levelo://app?vid=4504bb00-4552-4c7f-aec0-4ddd19e933de"},"vehicle_type_id":"4","last_reported":1708265150,"current_range_meters":1200,"station_id":"ce4bgjh2rcd13ifvqbf0","pricing_plan_id":"cebpf4jnsgd1na2vs0mg"},{"bike_id":"a6c67a19-869f-4a7a-b140-ea94177c7826","system_id":"levelo_inurba_marseille","lat":43.291671,"lon":5.371575,"is_reserved":false,"is_disabled":false,"rental_uris":{"android":"levelo://app?vid=a6c67a19-869f-4a7a-b140-ea94177c7826","ios":"levelo://app?vid=a6c67a19-869f-4a7a-b140-ea94177c7826"},"vehicle_type_id":"4","last_reported":1708265150,"current_range_meters":0,"station_id":"ce4bha92rcd13ifvqeh0","pricing_plan_id":"cebpf4jnsgd1na2vs0mg"},{"bike_id":"5a1987fc-bd6f-4035-9d28-9f4db560f1eb","system_id":"levelo_inurba_marseille","lat":43.298764,"lon":5.388973,"is_reserved":false,"is_disabled":false,"rental_uris":{"android":"levelo://app?vid=5a1987fc-bd6f-4035-9d28-9f4db560f1eb","ios":"levelo://app?vid=5a1987fc-bd6f-4035-9d28-9f4db560f1eb"},"vehicle_type_id":"4","last_reported":1708265150,"current_range_meters":0,"station_id":"ce4bh392rcd13ifvqdl0","pricing_plan_id":"cebpf4jnsgd1na2vs0mg"},{"bike_id":"c76940f0-0852-4631-9b93-969b8ec40b07","system_id":"levelo_inurba_marseille","lat":43.291994,"lon":5.357886,"is_reserved":false,"is_disabled":false,"rental_uris":{"android":"levelo://app?vid=c76940f0-0852-4631-9b93-969b8ec40b07","ios":"levelo://app?vid=c76940f0-0852-4631-9b93-969b8ec40b07"},"vehicle_type_id":"4","last_reported":1708265150,"current_range_meters":6000,"station_id":"ce4bhb12rcd13ifvqel0","pricing_plan_id":"cebpf4jnsgd1na2vs0mg"},{"bike_id":"13a2952b-c0be-4f51-9fc5-85f87b297ef3","system_id":"levelo_inurba_marseille","lat":43.291994,"lon":5.357886,"is_reserved":false,"is_disabled":false,"rental_uris":{"android":"levelo://app?vid=13a2952b-c0be-4f51-9fc5-85f87b297ef3","ios":"levelo://app?vid=13a2952b-c0be-4f51-9fc5-85f87b297ef3"},"vehicle_type_id":"4","last_reported":1708265150,"current_range_meters":0,"station_id":"ce4bhb12rcd13ifvqel0","pricing_plan_id":"cebpf4jnsgd1na2vs0mg"},{"bike_id":"f7a5f4fd-f151-47e3-8e7a-115c861e1b63","system_id":"levelo_inurba_marseille","lat":43.302973,"lon":5.395378,"is_reserved":false,"is_disabled":false,"rental_uris":{"android":"levelo://app?vid=f7a5f4fd-f151-47e3-8e7a-115c861e1b63","ios":"levelo://app?vid=f7a5f4fd-f151-47e3-8e7a-115c861e1b63"},"vehicle_type_id":"4","last_reported":1708265150,"current_range_meters":19200,"station_id":"","pricing_plan_id":"cebpf4jnsgd1na2vs0mg"},{"bike_id":"555a314a-83b4-4e2f-9d3b-09ad51035daa","system_id":"levelo_inurba_marseille","lat":43.289184,"lon":5.366408,"is_reserved":false,"is_disabled":false,"rental_uris":{"android":"levelo://app?vid=555a314a-83b4-4e2f-9d3b-09ad51035daa","ios":"levelo://app?vid=555a314a-83b4-4e2f-9d3b-09ad51035daa"},"vehicle_type_id":"4","last_reported":1708265150,"current_range_meters":4400,"station_id":"ce4bhap2rcd13ifvqek0","pricing_plan_id":"cebpf4jnsgd1na2vs0mg"},{"bike_id":"cf9211e4-6aff-479d-9617-9067df5720f7","system_id":"levelo_inurba_marseille","lat":43.290327,"lon":5.375711,"is_reserved":false,"is_disabled":false,"rental_uris":{"android":"levelo://app?vid=cf9211e4-6aff-479d-9617-9067df5720f7","ios":"levelo://app?vid=cf9211e4-6aff-479d-9617-9067df5720f7"},"vehicle_type_id":"4","last_reported":1708265150,"current_range_meters":19200,"station_id":"ce4bh692rcd13ifvqe90","pricing_plan_id":"cebpf4jnsgd1na2vs0mg"},{"bike_id":"d06b03da-135e-4bab-8934-68bc6d368a62","system_id":"levelo_inurba_marseille","lat":43.289184,"lon":5.366408,"is_reserved":false,"is_disabled":false,"rental_uris":{"android":"levelo://app?vid=d06b03da-135e-4bab-8934-68bc6d368a62","ios":"levelo://app?vid=d06b03da-135e-4bab-8934-68bc6d368a62"},"vehicle_type_id":"4","last_reported":1708265150,"current_range_meters":0,"station_id":"ce4bhap2rcd13ifvqek0","pricing_plan_id":"cebpf4jnsgd1na2vs0mg"},{"bike_id":"4750699b-783c-4f49-b189-c4a1f1c8164d","system_id":"levelo_inurba_marseille","lat":43.29093,"lon":5.37964,"is_reserved":false,"is_disabled":false,"rental_uris":{"android":"levelo://app?vid=4750699b-783c-4f49-b189-c4a1f1c8164d","ios":"levelo://app?vid=4750699b-783c-4f49-b189-c4a1f1c8164d"},"vehicle_type_id":"4","last_reported":1708265150,"current_range_meters":0,"station_id":"","pricing_plan_id":"cebpf4jnsgd1na2vs0mg"},{"bike_id":"d157b6f6-c6b1-4f26-a0d6-2df3cb5ee240","system_id":"levelo_inurba_marseille","lat":43.304274,"lon":5.397513,"is_reserved":false,"is_disabled":false,"rental_uris":{"android":"levelo://app?vid=d157b6f6-c6b1-4f26-a0d6-2df3cb5ee240","ios":"levelo://app?vid=d157b6f6-c6b1-4f26-a0d6-2df3cb5ee240"},"vehicle_type_id":"4","last_reported":1708265150,"current_range_meters":22800,"station_id":"ce4bh092rcd13ifvqd20","pricing_plan_id":"cebpf4jnsgd1na2vs0mg"},{"bike_id":"64c8a977-e817-4529-bbbf-d54830de4873","system_id":"levelo_inurba_marseille","lat":43.29103,"lon":5.38085,"is_reserved":false,"is_disabled":false,"rental_uris":{"android":"levelo://app?vid=64c8a977-e817-4529-bbbf-d54830de4873","ios":"levelo://app?vid=64c8a977-e817-4529-bbbf-d54830de4873"},"vehicle_type_id":"4","last_reported":1708265150,"current_range_meters":20800,"station_id":"","pricing_plan_id":"cebpf4jnsgd1na2vs0mg"},{"bike_id":"db6c49b9-3b06-4ba3-a2fa-f2eecd4eccd6","system_id":"levelo_inurba_marseille","lat":43.29004,"lon":5.35613,"is_reserved":false,"is_disabled":false,"rental_uris":{"android":"levelo://app?vid=db6c49b9-3b06-4ba3-a2fa-f2eecd4eccd6","ios":"levelo://app?vid=db6c49b9-3b06-4ba3-a2fa-f2eecd4eccd6"},"vehicle_type_id":"4","last_reported":1708265150,"current_range_meters":0,"station_id":"ce4bhb92rcd13ifvqen0","pricing_plan_id":"cebpf4jnsgd1na2vs0mg"},{"bike_id":"30f2b4eb-5207-4386-92dc-601b64449035","system_id":"levelo_inurba_marseille","lat":43.29004,"lon":5.3561,"is_reserved":false,"is_disabled":false,"rental_uris":{"android":"levelo://app?vid=30f2b4eb-5207-4386-92dc-601b64449035","ios":"levelo://app?vid=30f2b4eb-5207-4386-92dc-601b64449035"},"vehicle_type_id":"4","last_reported":1708265150,"current_range_meters":6800,"station_id":"ce4bhb92rcd13ifvqen0","pricing_plan_id":"cebpf4jnsgd1na2vs0mg"},{"bike_id":"5f96e12b-69a2-4f79-a5b4-d2254c45d796","system_id":"levelo_inurba_marseille","lat":43.29002,"lon":5.35611,"is_reserved":false,"is_disabled":false,"rental_uris":{"android":"levelo://app?vid=5f96e12b-69a2-4f79-a5b4-d2254c45d796","ios":"levelo://app?vid=5f96e12b-69a2-4f79-a5b4-d2254c45d796"},"vehicle_type_id":"4","last_reported":1708265150,"current_range_meters":6000,"station_id":"ce4bhb92rcd13ifvqen0","pricing_plan_id":"cebpf4jnsgd1na2vs0mg"},{"bike_id":"485c4631-f1d2-42e3-808c-327f4c411bc5","system_id":"levelo_inurba_marseille","lat":43.29002,"lon":5.35606,"is_reserved":false,"is_disabled":false,"rental_uris":{"android":"levelo://app?vid=485c4631-f1d2-42e3-808c-327f4c411bc5","ios":"levelo://app?vid=485c4631-f1d2-42e3-808c-327f4c411bc5"},"vehicle_type_id":"4","last_reported":1708265150,"current_range_meters":0,"station_id":"ce4bhb92rcd13ifvqen0","pricing_plan_id":"cebpf4jnsgd1na2vs0mg"},{"bike_id":"6ed8c92d-8691-48f9-8996-13aa71520e25","system_id":"levelo_inurba_marseille","lat":43.29,"lon":5.35602,"is_reserved":false,"is_disabled":false,"rental_uris":{"android":"levelo://app?vid=6ed8c92d-8691-48f9-8996-13aa71520e25","ios":"levelo://app?vid=6ed8c92d-8691-48f9-8996-13aa71520e25"},"vehicle_type_id":"4","last_reported":1708265150,"current_range_meters":4000,"station_id":"ce4bhb92rcd13ifvqen0","pricing_plan_id":"cebpf4jnsgd1na2vs0mg"},{"bike_id":"eaef4fe1-9045-4925-8c23-29ac76892b6f","system_id":"levelo_inurba_marseille","lat":43.330442,"lon":5.389148,"is_reserved":false,"is_disabled":false,"rental_uris":{"android":"levelo://app?vid=eaef4fe1-9045-4925-8c23-29ac76892b6f","ios":"levelo://app?vid=eaef4fe1-9045-4925-8c23-29ac76892b6f"},"vehicle_type_id":"4","last_reported":1708265150,"current_range_meters":31200,"station_id":"ce4bhr92rcd13ifvqhrg","pricing_plan_id":"cebpf4jnsgd1na2vs0mg"},{"bike_id":"e780fca8-4d36-402f-900d-3f6e2d16cd9a","system_id":"levelo_inurba_marseille","lat":43.33024,"lon":5.39039,"is_reserved":false,"is_disabled":false,"rental_uris":{"android":"levelo://app?vid=e780fca8-4d36-402f-900d-3f6e2d16cd9a","ios":"levelo://app?vid=e780fca8-4d36-402f-900d-3f6e2d16cd9a"},"vehicle_type_id":"4","last_reported":1708265150,"current_range_meters":31200,"station_id":"ce4bhr92rcd13ifvqhrg","pricing_plan_id":"cebpf4jnsgd1na2vs0mg"},{"bike_id":"d1a97aa7-3c3f-4a01-bac6-eed902a85ec8","system_id":"levelo_inurba_marseille","lat":43.28856,"lon":5.358371,"is_reserved":false,"is_disabled":false,"rental_uris":{"android":"levelo://app?vid=d1a97aa7-3c3f-4a01-bac6-eed902a85ec8","ios":"levelo://app?vid=d1a97aa7-3c3f-4a01-bac6-eed902a85ec8"},"vehicle_type_id":"4","last_reported":1708265150,"current_range_meters":30400,"station_id":"ce4bhb12rcd13ifvqem0","pricing_plan_id":"cebpf4jnsgd1na2vs0mg"},{"bike_id":"0b900d7d-93e9-4180-a051-a341773e2e9a","system_id":"levelo_inurba_marseille","lat":43.28918,"lon":5.35439,"is_reserved":false,"is_disabled":false,"rental_uris":{"android":"levelo://app?vid=0b900d7d-93e9-4180-a051-a341773e2e9a","ios":"levelo://app?vid=0b900d7d-93e9-4180-a051-a341773e2e9a"},"vehicle_type_id":"4","last_reported":1708265150,"current_range_meters":0,"station_id":"","pricing_plan_id":"cebpf4jnsgd1na2vs0mg"},{"bike_id":"c824b3df-300d-4cad-a8f8-737768589e7f","system_id":"levelo_inurba_marseille","lat":43.33744,"lon":5.37458,"is_reserved":false,"is_disabled":false,"rental_uris":{"android":"levelo://app?vid=c824b3df-300d-4cad-a8f8-737768589e7f","ios":"levelo://app?vid=c824b3df-300d-4cad-a8f8-737768589e7f"},"vehicle_type_id":"4","last_reported":1708265150,"current_range_meters":20000,"station_id":"","pricing_plan_id":"cebpf4jnsgd1na2vs0mg"},{"bike_id":"e7bf2623-a2ee-40f0-95da-5f4499f91b2a","system_id":"levelo_inurba_marseille","lat":43.306555,"lon":5.400937,"is_reserved":false,"is_disabled":false,"rental_uris":{"android":"levelo://app?vid=e7bf2623-a2ee-40f0-95da-5f4499f91b2a","ios":"levelo://app?vid=e7bf2623-a2ee-40f0-95da-5f4499f91b2a"},"vehicle_type_id":"4","last_reported":1708265150,"current_range_meters":0,"station_id":"ce4bh112rcd13ifvqda0","pricing_plan_id":"cebpf4jnsgd1na2vs0mg"},{"bike_id":"d8304ae5-e5b8-446e-ab51-0072cb770f3d","system_id":"levelo_inurba_marseille","lat":43.286961,"lon":5.373785,"is_reserved":false,"is_disabled":false,"rental_uris":{"android":"levelo://app?vid=d8304ae5-e5b8-446e-ab51-0072cb770f3d","ios":"levelo://app?vid=d8304ae5-e5b8-446e-ab51-0072cb770f3d"},"vehicle_type_id":"4","last_reported":1708265150,"current_range_meters":6000,"station_id":"ce4bh3p2rcd13ifvqdq0","pricing_plan_id":"cebpf4jnsgd1na2vs0mg"},{"bike_id":"145d615f-48d8-46ec-bb6e-fc2e2509fb05","system_id":"levelo_inurba_marseille","lat":43.295194,"lon":5.39397,"is_reserved":false,"is_disabled":false,"rental_uris":{"android":"levelo://app?vid=145d615f-48d8-46ec-bb6e-fc2e2509fb05","ios":"levelo://app?vid=145d615f-48d8-46ec-bb6e-fc2e2509fb05"},"vehicle_type_id":"4","last_reported":1708265150,"current_range_meters":0,"station_id":"ce4bh292rcd13ifvqdf0","pricing_plan_id":"cebpf4jnsgd1na2vs0mg"},{"bike_id":"ab2d6327-40b6-4b32-9041-c6215e8fc49e","system_id":"levelo_inurba_marseille","lat":43.289307,"lon":5.38406,"is_reserved":false,"is_disabled":false,"rental_uris":{"android":"levelo://app?vid=ab2d6327-40b6-4b32-9041-c6215e8fc49e","ios":"levelo://app?vid=ab2d6327-40b6-4b32-9041-c6215e8fc49e"},"vehicle_type_id":"4","last_reported":1708265150,"current_range_meters":22000,"station_id":"ce4bh612rcd13ifvqe6g","pricing_plan_id":"cebpf4jnsgd1na2vs0mg"},{"bike_id":"05b92fa6-d538-4996-a8b2-88275c76253f","system_id":"levelo_inurba_marseille","lat":43.286039,"lon":5.370679,"is_reserved":false,"is_disabled":false,"rental_uris":{"android":"levelo://app?vid=05b92fa6-d538-4996-a8b2-88275c76253f","ios":"levelo://app?vid=05b92fa6-d538-4996-a8b2-88275c76253f"},"vehicle_type_id":"4","last_reported":1708265150,"current_range_meters":5600,"station_id":"ce4bht12rcd13ifvqi60","pricing_plan_id":"cebpf4jnsgd1na2vs0mg"},{"bike_id":"6adb4434-5434-44bc-b119-78ed328d381e","system_id":"levelo_inurba_marseille","lat":43.28771,"lon":5.38144,"is_reserved":false,"is_disabled":false,"rental_uris":{"android":"levelo://app?vid=6adb4434-5434-44bc-b119-78ed328d381e","ios":"levelo://app?vid=6adb4434-5434-44bc-b119-78ed328d381e"},"vehicle_type_id":"4","last_reported":1708265150,"current_range_meters":0,"station_id":"","pricing_plan_id":"cebpf4jnsgd1na2vs0mg"},{"bike_id":"2e71ecbf-0924-4ca9-9543-a3519f0605b6","system_id":"levelo_inurba_marseille","lat":43.316821,"lon":5.404737,"is_reserved":false,"is_disabled":false,"rental_uris":{"android":"levelo://app?vid=2e71ecbf-0924-4ca9-9543-a3519f0605b6","ios":"levelo://app?vid=2e71ecbf-0924-4ca9-9543-a3519f0605b6"},"vehicle_type_id":"4","last_reported":1708265150,"current_range_meters":31200,"station_id":"ce4bh012rcd13ifvqd00","pricing_plan_id":"cebpf4jnsgd1na2vs0mg"},{"bike_id":"346d9af2-05e8-46c0-9e9e-82b30bf1328c","system_id":"levelo_inurba_marseille","lat":43.284538,"lon":5.358657,"is_reserved":false,"is_disabled":false,"rental_uris":{"android":"levelo://app?vid=346d9af2-05e8-46c0-9e9e-82b30bf1328c","ios":"levelo://app?vid=346d9af2-05e8-46c0-9e9e-82b30bf1328c"},"vehicle_type_id":"4","last_reported":1708265150,"current_range_meters":2400,"station_id":"ce4bhah2rcd13ifvqei0","pricing_plan_id":"cebpf4jnsgd1na2vs0mg"},{"bike_id":"35051029-21d7-4c90-843b-759b0e0a692d","system_id":"levelo_inurba_marseille","lat":43.284534,"lon":5.358662,"is_reserved":false,"is_disabled":false,"rental_uris":{"android":"levelo://app?vid=35051029-21d7-4c90-843b-759b0e0a692d","ios":"levelo://app?vid=35051029-21d7-4c90-843b-759b0e0a692d"},"vehicle_type_id":"4","last_reported":1708265150,"current_range_meters":0,"station_id":"ce4bhah2rcd13ifvqei0","pricing_plan_id":"cebpf4jnsgd1na2vs0mg"},{"bike_id":"83e064a8-7191-4a34-a3af-19115ded1ef9","system_id":"levelo_inurba_marseille","lat":43.284534,"lon":5.358662,"is_reserved":false,"is_disabled":false,"rental_uris":{"android":"levelo://app?vid=83e064a8-7191-4a34-a3af-19115ded1ef9","ios":"levelo://app?vid=83e064a8-7191-4a34-a3af-19115ded1ef9"},"vehicle_type_id":"4","last_reported":1708265150,"current_range_meters":0,"station_id":"ce4bhah2rcd13ifvqei0","pricing_plan_id":"cebpf4jnsgd1na2vs0mg"},{"bike_id":"5c9310c8-4fe3-4531-bbee-cb9e71cf1964","system_id":"levelo_inurba_marseille","lat":43.285848,"lon":5.350787,"is_reserved":false,"is_disabled":false,"rental_uris":{"android":"levelo://app?vid=5c9310c8-4fe3-4531-bbee-cb9e71cf1964","ios":"levelo://app?vid=5c9310c8-4fe3-4531-bbee-cb9e71cf1964"},"vehicle_type_id":"4","last_reported":1708265150,"current_range_meters":5200,"station_id":"ce4bhch2rcd13ifvqeug","pricing_plan_id":"cebpf4jnsgd1na2vs0mg"},{"bike_id":"59b8e630-10df-4240-b82b-7b234770830b","system_id":"levelo_inurba_marseille","lat":43.285848,"lon":5.350787,"is_reserved":false,"is_disabled":false,"rental_uris":{"android":"levelo://app?vid=59b8e630-10df-4240-b82b-7b234770830b","ios":"levelo://app?vid=59b8e630-10df-4240-b82b-7b234770830b"},"vehicle_type_id":"4","last_reported":1708265150,"current_range_meters":20800,"station_id":"ce4bhch2rcd13ifvqeug","pricing_plan_id":"cebpf4jnsgd1na2vs0mg"},{"bike_id":"1448c00f-6692-4a6b-b12f-ba5a463c8069","system_id":"levelo_inurba_marseille","lat":43.28616,"lon":5.35104,"is_reserved":false,"is_disabled":false,"rental_uris":{"android":"levelo://app?vid=1448c00f-6692-4a6b-b12f-ba5a463c8069","ios":"levelo://app?vid=1448c00f-6692-4a6b-b12f-ba5a463c8069"},"vehicle_type_id":"4","last_reported":1708265150,"current_range_meters":22000,"station_id":"ce4bhch2rcd13ifvqeug","pricing_plan_id":"cebpf4jnsgd1na2vs0mg"},{"bike_id":"dc8e7acc-efc1-4317-a04c-22b3ee2d57a4","system_id":"levelo_inurba_marseille","lat":43.28615,"lon":5.35105,"is_reserved":false,"is_disabled":false,"rental_uris":{"android":"levelo://app?vid=dc8e7acc-efc1-4317-a04c-22b3ee2d57a4","ios":"levelo://app?vid=dc8e7acc-efc1-4317-a04c-22b3ee2d57a4"},"vehicle_type_id":"4","last_reported":1708265150,"current_range_meters":28400,"station_id":"ce4bhch2rcd13ifvqeug","pricing_plan_id":"cebpf4jnsgd1na2vs0mg"},{"bike_id":"69955f66-0f56-4d5f-bbcd-c52ce69d4f60","system_id":"levelo_inurba_marseille","lat":43.286151,"lon":5.351022,"is_reserved":false,"is_disabled":false,"rental_uris":{"android":"levelo://app?vid=69955f66-0f56-4d5f-bbcd-c52ce69d4f60","ios":"levelo://app?vid=69955f66-0f56-4d5f-bbcd-c52ce69d4f60"},"vehicle_type_id":"4","last_reported":1708265150,"current_range_meters":0,"station_id":"ce4bhch2rcd13ifvqeug","pricing_plan_id":"cebpf4jnsgd1na2vs0mg"},{"bike_id":"1e4b4726-9747-4dae-85bc-6dc4c4cd3b47","system_id":"levelo_inurba_marseille","lat":43.28615,"lon":5.35102,"is_reserved":false,"is_disabled":false,"rental_uris":{"android":"levelo://app?vid=1e4b4726-9747-4dae-85bc-6dc4c4cd3b47","ios":"levelo://app?vid=1e4b4726-9747-4dae-85bc-6dc4c4cd3b47"},"vehicle_type_id":"4","last_reported":1708265150,"current_range_meters":10400,"station_id":"ce4bhch2rcd13ifvqeug","pricing_plan_id":"cebpf4jnsgd1na2vs0mg"},{"bike_id":"736ed48c-431c-4780-8bd4-c97b2fc11f6d","system_id":"levelo_inurba_marseille","lat":43.28613,"lon":5.35102,"is_reserved":false,"is_disabled":false,"rental_uris":{"android":"levelo://app?vid=736ed48c-431c-4780-8bd4-c97b2fc11f6d","ios":"levelo://app?vid=736ed48c-431c-4780-8bd4-c97b2fc11f6d"},"vehicle_type_id":"4","last_reported":1708265150,"current_range_meters":0,"station_id":"ce4bhch2rcd13ifvqeug","pricing_plan_id":"cebpf4jnsgd1na2vs0mg"},{"bike_id":"33074e67-affc-4d78-862b-7c256850c44b","system_id":"levelo_inurba_marseille","lat":43.28613,"lon":5.35101,"is_reserved":false,"is_disabled":false,"rental_uris":{"android":"levelo://app?vid=33074e67-affc-4d78-862b-7c256850c44b","ios":"levelo://app?vid=33074e67-affc-4d78-862b-7c256850c44b"},"vehicle_type_id":"4","last_reported":1708265150,"current_range_meters":15200,"station_id":"ce4bhch2rcd13ifvqeug","pricing_plan_id":"cebpf4jnsgd1na2vs0mg"},{"bike_id":"8e45a7b3-b58e-49a3-80a1-9faafd72fb79","system_id":"levelo_inurba_marseille","lat":43.286104,"lon":5.351062,"is_reserved":false,"is_disabled":false,"rental_uris":{"android":"levelo://app?vid=8e45a7b3-b58e-49a3-80a1-9faafd72fb79","ios":"levelo://app?vid=8e45a7b3-b58e-49a3-80a1-9faafd72fb79"},"vehicle_type_id":"4","last_reported":1708265150,"current_range_meters":23200,"station_id":"ce4bhch2rcd13ifvqeug","pricing_plan_id":"cebpf4jnsgd1na2vs0mg"},{"bike_id":"2e6f644f-2f83-4263-b145-8d30e1e7ffef","system_id":"levelo_inurba_marseille","lat":43.285856,"lon":5.350771,"is_reserved":false,"is_disabled":false,"rental_uris":{"android":"levelo://app?vid=2e6f644f-2f83-4263-b145-8d30e1e7ffef","ios":"levelo://app?vid=2e6f644f-2f83-4263-b145-8d30e1e7ffef"},"vehicle_type_id":"4","last_reported":1708265150,"current_range_meters":12000,"station_id":"ce4bhch2rcd13ifvqeug","pricing_plan_id":"cebpf4jnsgd1na2vs0mg"},{"bike_id":"219e7d0c-e47b-49c4-96cd-658aba7e2c5d","system_id":"levelo_inurba_marseille","lat":43.28612,"lon":5.35097,"is_reserved":false,"is_disabled":false,"rental_uris":{"android":"levelo://app?vid=219e7d0c-e47b-49c4-96cd-658aba7e2c5d","ios":"levelo://app?vid=219e7d0c-e47b-49c4-96cd-658aba7e2c5d"},"vehicle_type_id":"4","last_reported":1708265150,"current_range_meters":6800,"station_id":"ce4bhch2rcd13ifvqeug","pricing_plan_id":"cebpf4jnsgd1na2vs0mg"},{"bike_id":"afe3e53d-d5d5-4025-a013-bbe5be2ca354","system_id":"levelo_inurba_marseille","lat":43.285856,"lon":5.350771,"is_reserved":false,"is_disabled":false,"rental_uris":{"android":"levelo://app?vid=afe3e53d-d5d5-4025-a013-bbe5be2ca354","ios":"levelo://app?vid=afe3e53d-d5d5-4025-a013-bbe5be2ca354"},"vehicle_type_id":"4","last_reported":1708265150,"current_range_meters":2400,"station_id":"ce4bhch2rcd13ifvqeug","pricing_plan_id":"cebpf4jnsgd1na2vs0mg"},{"bike_id":"5207f06c-ff1e-4f07-bcd6-2301d7ff545d","system_id":"levelo_inurba_marseille","lat":43.28606,"lon":5.351,"is_reserved":false,"is_disabled":false,"rental_uris":{"android":"levelo://app?vid=5207f06c-ff1e-4f07-bcd6-2301d7ff545d","ios":"levelo://app?vid=5207f06c-ff1e-4f07-bcd6-2301d7ff545d"},"vehicle_type_id":"4","last_reported":1708265150,"current_range_meters":0,"station_id":"ce4bhch2rcd13ifvqeug","pricing_plan_id":"cebpf4jnsgd1na2vs0mg"},{"bike_id":"f398a054-af79-4392-9ca0-664506092570","system_id":"levelo_inurba_marseille","lat":43.283998,"lon":5.375062,"is_reserved":false,"is_disabled":false,"rental_uris":{"android":"levelo://app?vid=f398a054-af79-4392-9ca0-664506092570","ios":"levelo://app?vid=f398a054-af79-4392-9ca0-664506092570"},"vehicle_type_id":"4","last_reported":1708265150,"current_range_meters":0,"station_id":"ce4bh412rcd13ifvqds0","pricing_plan_id":"cebpf4jnsgd1na2vs0mg"},{"bike_id":"88def49c-33f0-40c4-b514-2e0bb4735b9f","system_id":"levelo_inurba_marseille","lat":43.283998,"lon":5.375062,"is_reserved":false,"is_disabled":false,"rental_uris":{"android":"levelo://app?vid=88def49c-33f0-40c4-b514-2e0bb4735b9f","ios":"levelo://app?vid=88def49c-33f0-40c4-b514-2e0bb4735b9f"},"vehicle_type_id":"4","last_reported":1708265150,"current_range_meters":9600,"station_id":"ce4bh412rcd13ifvqds0","pricing_plan_id":"cebpf4jnsgd1na2vs0mg"},{"bike_id":"b2b5c8b0-fa2c-4463-a885-c11687bb2381","system_id":"levelo_inurba_marseille","lat":43.283998,"lon":5.375062,"is_reserved":false,"is_disabled":false,"rental_uris":{"android":"levelo://app?vid=b2b5c8b0-fa2c-4463-a885-c11687bb2381","ios":"levelo://app?vid=b2b5c8b0-fa2c-4463-a885-c11687bb2381"},"vehicle_type_id":"4","last_reported":1708265150,"current_range_meters":10800,"station_id":"ce4bh412rcd13ifvqds0","pricing_plan_id":"cebpf4jnsgd1na2vs0mg"},{"bike_id":"23b82773-1742-47ed-8a6b-54af62a0393c","system_id":"levelo_inurba_marseille","lat":43.283998,"lon":5.375062,"is_reserved":false,"is_disabled":false,"rental_uris":{"android":"levelo://app?vid=23b82773-1742-47ed-8a6b-54af62a0393c","ios":"levelo://app?vid=23b82773-1742-47ed-8a6b-54af62a0393c"},"vehicle_type_id":"4","last_reported":1708265150,"current_range_meters":4000,"station_id":"ce4bh412rcd13ifvqds0","pricing_plan_id":"cebpf4jnsgd1na2vs0mg"},{"bike_id":"bdfa2e0e-f796-460a-a86c-d0289b8a2197","system_id":"levelo_inurba_marseille","lat":43.283998,"lon":5.375062,"is_reserved":false,"is_disabled":false,"rental_uris":{"android":"levelo://app?vid=bdfa2e0e-f796-460a-a86c-d0289b8a2197","ios":"levelo://app?vid=bdfa2e0e-f796-460a-a86c-d0289b8a2197"},"vehicle_type_id":"4","last_reported":1708265150,"current_range_meters":8400,"station_id":"ce4bh412rcd13ifvqds0","pricing_plan_id":"cebpf4jnsgd1na2vs0mg"},{"bike_id":"b9da291e-694c-4a7c-aa43-5a23c0ed0e50","system_id":"levelo_inurba_marseille","lat":43.283998,"lon":5.375062,"is_reserved":false,"is_disabled":false,"rental_uris":{"android":"levelo://app?vid=b9da291e-694c-4a7c-aa43-5a23c0ed0e50","ios":"levelo://app?vid=b9da291e-694c-4a7c-aa43-5a23c0ed0e50"},"vehicle_type_id":"4","last_reported":1708265150,"current_range_meters":1200,"station_id":"ce4bh412rcd13ifvqds0","pricing_plan_id":"cebpf4jnsgd1na2vs0mg"},{"bike_id":"b02dd3cd-8eec-4d91-b27c-c62dcc351596","system_id":"levelo_inurba_marseille","lat":43.286516,"lon":5.385845,"is_reserved":false,"is_disabled":false,"rental_uris":{"android":"levelo://app?vid=b02dd3cd-8eec-4d91-b27c-c62dcc351596","ios":"levelo://app?vid=b02dd3cd-8eec-4d91-b27c-c62dcc351596"},"vehicle_type_id":"4","last_reported":1708265150,"current_range_meters":25200,"station_id":"","pricing_plan_id":"cebpf4jnsgd1na2vs0mg"},{"bike_id":"0f791e0b-8d1f-45d5-b91b-977fb184fe87","system_id":"levelo_inurba_marseille","lat":43.286595,"lon":5.386795,"is_reserved":false,"is_disabled":false,"rental_uris":{"android":"levelo://app?vid=0f791e0b-8d1f-45d5-b91b-977fb184fe87","ios":"levelo://app?vid=0f791e0b-8d1f-45d5-b91b-977fb184fe87"},"vehicle_type_id":"4","last_reported":1708265150,"current_range_meters":12800,"station_id":"ce4bh492rcd13ifvqdug","pricing_plan_id":"cebpf4jnsgd1na2vs0mg"},{"bike_id":"c94f8edf-18bd-4374-b876-22019d736e08","system_id":"levelo_inurba_marseille","lat":43.286595,"lon":5.386795,"is_reserved":false,"is_disabled":false,"rental_uris":{"android":"levelo://app?vid=c94f8edf-18bd-4374-b876-22019d736e08","ios":"levelo://app?vid=c94f8edf-18bd-4374-b876-22019d736e08"},"vehicle_type_id":"4","last_reported":1708265150,"current_range_meters":10000,"station_id":"ce4bh492rcd13ifvqdug","pricing_plan_id":"cebpf4jnsgd1na2vs0mg"},{"bike_id":"81421012-561a-45b1-b8b2-9b18559a56db","system_id":"levelo_inurba_marseille","lat":43.33712,"lon":5.39182,"is_reserved":false,"is_disabled":false,"rental_uris":{"android":"levelo://app?vid=81421012-561a-45b1-b8b2-9b18559a56db","ios":"levelo://app?vid=81421012-561a-45b1-b8b2-9b18559a56db"},"vehicle_type_id":"4","last_reported":1708265150,"current_range_meters":14000,"station_id":"ce4bhr92rcd13ifvqhsg","pricing_plan_id":"cebpf4jnsgd1na2vs0mg"},{"bike_id":"db8d03b5-3f76-40d2-87a2-5cf2f4c25844","system_id":"levelo_inurba_marseille","lat":43.33716,"lon":5.3918,"is_reserved":false,"is_disabled":false,"rental_uris":{"android":"levelo://app?vid=db8d03b5-3f76-40d2-87a2-5cf2f4c25844","ios":"levelo://app?vid=db8d03b5-3f76-40d2-87a2-5cf2f4c25844"},"vehicle_type_id":"4","last_reported":1708265150,"current_range_meters":6400,"station_id":"ce4bhr92rcd13ifvqhsg","pricing_plan_id":"cebpf4jnsgd1na2vs0mg"},{"bike_id":"2028b7c4-82be-4b53-a272-17f44c135dbb","system_id":"levelo_inurba_marseille","lat":43.33717,"lon":5.391857,"is_reserved":false,"is_disabled":false,"rental_uris":{"android":"levelo://app?vid=2028b7c4-82be-4b53-a272-17f44c135dbb","ios":"levelo://app?vid=2028b7c4-82be-4b53-a272-17f44c135dbb"},"vehicle_type_id":"4","last_reported":1708265150,"current_range_meters":7600,"station_id":"ce4bhr92rcd13ifvqhsg","pricing_plan_id":"cebpf4jnsgd1na2vs0mg"},{"bike_id":"c90e1de2-a680-4ee3-b9b3-8b80202b10da","system_id":"levelo_inurba_marseille","lat":43.337218,"lon":5.39178,"is_reserved":false,"is_disabled":false,"rental_uris":{"android":"levelo://app?vid=c90e1de2-a680-4ee3-b9b3-8b80202b10da","ios":"levelo://app?vid=c90e1de2-a680-4ee3-b9b3-8b80202b10da"},"vehicle_type_id":"4","last_reported":1708265150,"current_range_meters":0,"station_id":"ce4bhr92rcd13ifvqhsg","pricing_plan_id":"cebpf4jnsgd1na2vs0mg"},{"bike_id":"d3891c37-96f6-470b-9578-ba50f59cc466","system_id":"levelo_inurba_marseille","lat":43.337211,"lon":5.391797,"is_reserved":false,"is_disabled":false,"rental_uris":{"android":"levelo://app?vid=d3891c37-96f6-470b-9578-ba50f59cc466","ios":"levelo://app?vid=d3891c37-96f6-470b-9578-ba50f59cc466"},"vehicle_type_id":"4","last_reported":1708265150,"current_range_meters":14400,"station_id":"ce4bhr92rcd13ifvqhsg","pricing_plan_id":"cebpf4jnsgd1na2vs0mg"},{"bike_id":"bb068a02-9360-4908-9f26-c34bebbfb287","system_id":"levelo_inurba_marseille","lat":43.33724,"lon":5.3919,"is_reserved":false,"is_disabled":false,"rental_uris":{"android":"levelo://app?vid=bb068a02-9360-4908-9f26-c34bebbfb287","ios":"levelo://app?vid=bb068a02-9360-4908-9f26-c34bebbfb287"},"vehicle_type_id":"4","last_reported":1708265150,"current_range_meters":24800,"station_id":"ce4bhr92rcd13ifvqhsg","pricing_plan_id":"cebpf4jnsgd1na2vs0mg"},{"bike_id":"b7e3cf4c-c26e-4756-b710-e1ef682c6522","system_id":"levelo_inurba_marseille","lat":43.284793,"lon":5.384113,"is_reserved":false,"is_disabled":false,"rental_uris":{"android":"levelo://app?vid=b7e3cf4c-c26e-4756-b710-e1ef682c6522","ios":"levelo://app?vid=b7e3cf4c-c26e-4756-b710-e1ef682c6522"},"vehicle_type_id":"4","last_reported":1708265150,"current_range_meters":2000,"station_id":"ce4bh512rcd13ifvqe3g","pricing_plan_id":"cebpf4jnsgd1na2vs0mg"},{"bike_id":"15ff5bec-6947-42c7-a643-4a3e210e7322","system_id":"levelo_inurba_marseille","lat":43.28846,"lon":5.39327,"is_reserved":false,"is_disabled":false,"rental_uris":{"android":"levelo://app?vid=15ff5bec-6947-42c7-a643-4a3e210e7322","ios":"levelo://app?vid=15ff5bec-6947-42c7-a643-4a3e210e7322"},"vehicle_type_id":"4","last_reported":1708265150,"current_range_meters":0,"station_id":"ce4bh2p2rcd13ifvqdi0","pricing_plan_id":"cebpf4jnsgd1na2vs0mg"},{"bike_id":"3a4ad94b-7651-4485-95ec-b3de55080366","system_id":"levelo_inurba_marseille","lat":43.32394,"lon":5.40657,"is_reserved":false,"is_disabled":false,"rental_uris":{"android":"levelo://app?vid=3a4ad94b-7651-4485-95ec-b3de55080366","ios":"levelo://app?vid=3a4ad94b-7651-4485-95ec-b3de55080366"},"vehicle_type_id":"4","last_reported":1708265150,"current_range_meters":12000,"station_id":"","pricing_plan_id":"cebpf4jnsgd1na2vs0mg"},{"bike_id":"7184f236-1af8-427a-9755-86bff0e2517b","system_id":"levelo_inurba_marseille","lat":43.284219,"lon":5.3497,"is_reserved":false,"is_disabled":false,"rental_uris":{"android":"levelo://app?vid=7184f236-1af8-427a-9755-86bff0e2517b","ios":"levelo://app?vid=7184f236-1af8-427a-9755-86bff0e2517b"},"vehicle_type_id":"4","last_reported":1708265150,"current_range_meters":0,"station_id":"ce4bhbh2rcd13ifvqepg","pricing_plan_id":"cebpf4jnsgd1na2vs0mg"},{"bike_id":"6a596ba6-5e6e-4b41-9ce2-2a3597114815","system_id":"levelo_inurba_marseille","lat":43.28432,"lon":5.34992,"is_reserved":false,"is_disabled":false,"rental_uris":{"android":"levelo://app?vid=6a596ba6-5e6e-4b41-9ce2-2a3597114815","ios":"levelo://app?vid=6a596ba6-5e6e-4b41-9ce2-2a3597114815"},"vehicle_type_id":"4","last_reported":1708265150,"current_range_meters":23600,"station_id":"ce4bhbh2rcd13ifvqepg","pricing_plan_id":"cebpf4jnsgd1na2vs0mg"},{"bike_id":"fbf41d03-0209-46f4-9308-27c3b03c8839","system_id":"levelo_inurba_marseille","lat":43.284318,"lon":5.349901,"is_reserved":false,"is_disabled":false,"rental_uris":{"android":"levelo://app?vid=fbf41d03-0209-46f4-9308-27c3b03c8839","ios":"levelo://app?vid=fbf41d03-0209-46f4-9308-27c3b03c8839"},"vehicle_type_id":"4","last_reported":1708265150,"current_range_meters":30000,"station_id":"ce4bhbh2rcd13ifvqepg","pricing_plan_id":"cebpf4jnsgd1na2vs0mg"},{"bike_id":"749e65bf-a351-403e-b87f-83c41f82eb12","system_id":"levelo_inurba_marseille","lat":43.28424,"lon":5.34986,"is_reserved":false,"is_disabled":false,"rental_uris":{"android":"levelo://app?vid=749e65bf-a351-403e-b87f-83c41f82eb12","ios":"levelo://app?vid=749e65bf-a351-403e-b87f-83c41f82eb12"},"vehicle_type_id":"4","last_reported":1708265150,"current_range_meters":8800,"station_id":"ce4bhbh2rcd13ifvqepg","pricing_plan_id":"cebpf4jnsgd1na2vs0mg"},{"bike_id":"0c7d3bd0-8143-498e-8cab-fbd9f32bddbe","system_id":"levelo_inurba_marseille","lat":43.284217,"lon":5.349697,"is_reserved":false,"is_disabled":false,"rental_uris":{"android":"levelo://app?vid=0c7d3bd0-8143-498e-8cab-fbd9f32bddbe","ios":"levelo://app?vid=0c7d3bd0-8143-498e-8cab-fbd9f32bddbe"},"vehicle_type_id":"4","last_reported":1708265150,"current_range_meters":22400,"station_id":"ce4bhbh2rcd13ifvqepg","pricing_plan_id":"cebpf4jnsgd1na2vs0mg"},{"bike_id":"16146783-1544-4fdd-b961-914c8444c408","system_id":"levelo_inurba_marseille","lat":43.283498,"lon":5.380948,"is_reserved":false,"is_disabled":false,"rental_uris":{"android":"levelo://app?vid=16146783-1544-4fdd-b961-914c8444c408","ios":"levelo://app?vid=16146783-1544-4fdd-b961-914c8444c408"},"vehicle_type_id":"4","last_reported":1708265150,"current_range_meters":17200,"station_id":"ce4bh412rcd13ifvqdr0","pricing_plan_id":"cebpf4jnsgd1na2vs0mg"},{"bike_id":"471583c0-51c9-4dc4-881a-3702b6d5ed8e","system_id":"levelo_inurba_marseille","lat":43.28423,"lon":5.3498,"is_reserved":false,"is_disabled":false,"rental_uris":{"android":"levelo://app?vid=471583c0-51c9-4dc4-881a-3702b6d5ed8e","ios":"levelo://app?vid=471583c0-51c9-4dc4-881a-3702b6d5ed8e"},"vehicle_type_id":"4","last_reported":1708265150,"current_range_meters":4000,"station_id":"ce4bhbh2rcd13ifvqepg","pricing_plan_id":"cebpf4jnsgd1na2vs0mg"},{"bike_id":"ae54c40c-fd4b-49a1-bd1b-1b690e5216a5","system_id":"levelo_inurba_marseille","lat":43.284219,"lon":5.3497,"is_reserved":false,"is_disabled":false,"rental_uris":{"android":"levelo://app?vid=ae54c40c-fd4b-49a1-bd1b-1b690e5216a5","ios":"levelo://app?vid=ae54c40c-fd4b-49a1-bd1b-1b690e5216a5"},"vehicle_type_id":"4","last_reported":1708265150,"current_range_meters":30800,"station_id":"ce4bhbh2rcd13ifvqepg","pricing_plan_id":"cebpf4jnsgd1na2vs0mg"},{"bike_id":"69d03a92-e334-4ce3-ae43-b5fd13ebaaf1","system_id":"levelo_inurba_marseille","lat":43.28419,"lon":5.34988,"is_reserved":false,"is_disabled":false,"rental_uris":{"android":"levelo://app?vid=69d03a92-e334-4ce3-ae43-b5fd13ebaaf1","ios":"levelo://app?vid=69d03a92-e334-4ce3-ae43-b5fd13ebaaf1"},"vehicle_type_id":"4","last_reported":1708265150,"current_range_meters":2400,"station_id":"ce4bhbh2rcd13ifvqepg","pricing_plan_id":"cebpf4jnsgd1na2vs0mg"},{"bike_id":"0ec9af22-90ce-4be7-b18f-54d7ca278b0f","system_id":"levelo_inurba_marseille","lat":43.284219,"lon":5.3497,"is_reserved":false,"is_disabled":false,"rental_uris":{"android":"levelo://app?vid=0ec9af22-90ce-4be7-b18f-54d7ca278b0f","ios":"levelo://app?vid=0ec9af22-90ce-4be7-b18f-54d7ca278b0f"},"vehicle_type_id":"4","last_reported":1708265150,"current_range_meters":16000,"station_id":"ce4bhbh2rcd13ifvqepg","pricing_plan_id":"cebpf4jnsgd1na2vs0mg"},{"bike_id":"13788d8e-3e66-428d-9287-27c04f2d1913","system_id":"levelo_inurba_marseille","lat":43.284217,"lon":5.349697,"is_reserved":false,"is_disabled":false,"rental_uris":{"android":"levelo://app?vid=13788d8e-3e66-428d-9287-27c04f2d1913","ios":"levelo://app?vid=13788d8e-3e66-428d-9287-27c04f2d1913"},"vehicle_type_id":"4","last_reported":1708265150,"current_range_meters":23600,"station_id":"ce4bhbh2rcd13ifvqepg","pricing_plan_id":"cebpf4jnsgd1na2vs0mg"},{"bike_id":"ee2a811c-0847-4521-bc98-c6a1189370c3","system_id":"levelo_inurba_marseille","lat":43.28416,"lon":5.3499,"is_reserved":false,"is_disabled":false,"rental_uris":{"android":"levelo://app?vid=ee2a811c-0847-4521-bc98-c6a1189370c3","ios":"levelo://app?vid=ee2a811c-0847-4521-bc98-c6a1189370c3"},"vehicle_type_id":"4","last_reported":1708265150,"current_range_meters":25200,"station_id":"ce4bhbh2rcd13ifvqepg","pricing_plan_id":"cebpf4jnsgd1na2vs0mg"},{"bike_id":"d026000f-5b9d-422e-aa18-bea03f418955","system_id":"levelo_inurba_marseille","lat":43.284219,"lon":5.3497,"is_reserved":false,"is_disabled":false,"rental_uris":{"android":"levelo://app?vid=d026000f-5b9d-422e-aa18-bea03f418955","ios":"levelo://app?vid=d026000f-5b9d-422e-aa18-bea03f418955"},"vehicle_type_id":"4","last_reported":1708265150,"current_range_meters":31600,"station_id":"ce4bhbh2rcd13ifvqepg","pricing_plan_id":"cebpf4jnsgd1na2vs0mg"},{"bike_id":"244c8065-9e6f-4fad-8f08-f0df99c67766","system_id":"levelo_inurba_marseille","lat":43.284217,"lon":5.349697,"is_reserved":false,"is_disabled":false,"rental_uris":{"android":"levelo://app?vid=244c8065-9e6f-4fad-8f08-f0df99c67766","ios":"levelo://app?vid=244c8065-9e6f-4fad-8f08-f0df99c67766"},"vehicle_type_id":"4","last_reported":1708265150,"current_range_meters":26800,"station_id":"ce4bhbh2rcd13ifvqepg","pricing_plan_id":"cebpf4jnsgd1na2vs0mg"},{"bike_id":"a4a4b2c1-7815-4c6f-9591-1f3023d0eec6","system_id":"levelo_inurba_marseille","lat":43.28418,"lon":5.34977,"is_reserved":false,"is_disabled":false,"rental_uris":{"android":"levelo://app?vid=a4a4b2c1-7815-4c6f-9591-1f3023d0eec6","ios":"levelo://app?vid=a4a4b2c1-7815-4c6f-9591-1f3023d0eec6"},"vehicle_type_id":"4","last_reported":1708265150,"current_range_meters":400,"station_id":"ce4bhbh2rcd13ifvqepg","pricing_plan_id":"cebpf4jnsgd1na2vs0mg"},{"bike_id":"63766d49-9cb6-4421-82a8-b2d7097e102f","system_id":"levelo_inurba_marseille","lat":43.2842,"lon":5.3497,"is_reserved":false,"is_disabled":false,"rental_uris":{"android":"levelo://app?vid=63766d49-9cb6-4421-82a8-b2d7097e102f","ios":"levelo://app?vid=63766d49-9cb6-4421-82a8-b2d7097e102f"},"vehicle_type_id":"4","last_reported":1708265150,"current_range_meters":24000,"station_id":"ce4bhbh2rcd13ifvqepg","pricing_plan_id":"cebpf4jnsgd1na2vs0mg"},{"bike_id":"8348b0dd-2853-4998-a091-15e0513787fe","system_id":"levelo_inurba_marseille","lat":43.28418,"lon":5.34971,"is_reserved":false,"is_disabled":false,"rental_uris":{"android":"levelo://app?vid=8348b0dd-2853-4998-a091-15e0513787fe","ios":"levelo://app?vid=8348b0dd-2853-4998-a091-15e0513787fe"},"vehicle_type_id":"4","last_reported":1708265150,"current_range_meters":18400,"station_id":"ce4bhbh2rcd13ifvqepg","pricing_plan_id":"cebpf4jnsgd1na2vs0mg"},{"bike_id":"d8498ab5-1b09-4e10-96a9-812bb9c59eae","system_id":"levelo_inurba_marseille","lat":43.284134,"lon":5.349811,"is_reserved":false,"is_disabled":false,"rental_uris":{"android":"levelo://app?vid=d8498ab5-1b09-4e10-96a9-812bb9c59eae","ios":"levelo://app?vid=d8498ab5-1b09-4e10-96a9-812bb9c59eae"},"vehicle_type_id":"4","last_reported":1708265150,"current_range_meters":14800,"station_id":"ce4bhbh2rcd13ifvqepg","pricing_plan_id":"cebpf4jnsgd1na2vs0mg"},{"bike_id":"0a8f0859-3698-4ab3-b776-d4f34ad40732","system_id":"levelo_inurba_marseille","lat":43.284123,"lon":5.349847,"is_reserved":false,"is_disabled":false,"rental_uris":{"android":"levelo://app?vid=0a8f0859-3698-4ab3-b776-d4f34ad40732","ios":"levelo://app?vid=0a8f0859-3698-4ab3-b776-d4f34ad40732"},"vehicle_type_id":"4","last_reported":1708265150,"current_range_meters":8800,"station_id":"ce4bhbh2rcd13ifvqepg","pricing_plan_id":"cebpf4jnsgd1na2vs0mg"},{"bike_id":"050a90b9-882e-4e1f-ae8e-25d171729cdb","system_id":"levelo_inurba_marseille","lat":43.284137,"lon":5.349776,"is_reserved":false,"is_disabled":false,"rental_uris":{"android":"levelo://app?vid=050a90b9-882e-4e1f-ae8e-25d171729cdb","ios":"levelo://app?vid=050a90b9-882e-4e1f-ae8e-25d171729cdb"},"vehicle_type_id":"4","last_reported":1708265150,"current_range_meters":5600,"station_id":"","pricing_plan_id":"cebpf4jnsgd1na2vs0mg"},{"bike_id":"db550f14-fbb8-421d-bba3-e6420d494b24","system_id":"levelo_inurba_marseille","lat":43.28414,"lon":5.349737,"is_reserved":false,"is_disabled":false,"rental_uris":{"android":"levelo://app?vid=db550f14-fbb8-421d-bba3-e6420d494b24","ios":"levelo://app?vid=db550f14-fbb8-421d-bba3-e6420d494b24"},"vehicle_type_id":"4","last_reported":1708265150,"current_range_meters":15200,"station_id":"ce4bhbh2rcd13ifvqepg","pricing_plan_id":"cebpf4jnsgd1na2vs0mg"},{"bike_id":"bda475e5-0447-4289-9537-2aa3a4a21e4c","system_id":"levelo_inurba_marseille","lat":43.28414,"lon":5.3497,"is_reserved":false,"is_disabled":false,"rental_uris":{"android":"levelo://app?vid=bda475e5-0447-4289-9537-2aa3a4a21e4c","ios":"levelo://app?vid=bda475e5-0447-4289-9537-2aa3a4a21e4c"},"vehicle_type_id":"4","last_reported":1708265150,"current_range_meters":12800,"station_id":"ce4bhbh2rcd13ifvqepg","pricing_plan_id":"cebpf4jnsgd1na2vs0mg"},{"bike_id":"22f57d4a-74ec-4d57-b258-aa88991f1a10","system_id":"levelo_inurba_marseille","lat":43.28411,"lon":5.34979,"is_reserved":false,"is_disabled":false,"rental_uris":{"android":"levelo://app?vid=22f57d4a-74ec-4d57-b258-aa88991f1a10","ios":"levelo://app?vid=22f57d4a-74ec-4d57-b258-aa88991f1a10"},"vehicle_type_id":"4","last_reported":1708265150,"current_range_meters":7200,"station_id":"ce4bhbh2rcd13ifvqepg","pricing_plan_id":"cebpf4jnsgd1na2vs0mg"},{"bike_id":"ff728e5f-37e4-41d8-b80a-848010c26ef9","system_id":"levelo_inurba_marseille","lat":43.284217,"lon":5.349697,"is_reserved":false,"is_disabled":false,"rental_uris":{"android":"levelo://app?vid=ff728e5f-37e4-41d8-b80a-848010c26ef9","ios":"levelo://app?vid=ff728e5f-37e4-41d8-b80a-848010c26ef9"},"vehicle_type_id":"4","last_reported":1708265150,"current_range_meters":24800,"station_id":"ce4bhbh2rcd13ifvqepg","pricing_plan_id":"cebpf4jnsgd1na2vs0mg"},{"bike_id":"697c2f95-5e9f-4b83-af2e-257ed52db633","system_id":"levelo_inurba_marseille","lat":43.284105,"lon":5.349752,"is_reserved":false,"is_disabled":false,"rental_uris":{"android":"levelo://app?vid=697c2f95-5e9f-4b83-af2e-257ed52db633","ios":"levelo://app?vid=697c2f95-5e9f-4b83-af2e-257ed52db633"},"vehicle_type_id":"4","last_reported":1708265150,"current_range_meters":17600,"station_id":"ce4bhbh2rcd13ifvqepg","pricing_plan_id":"cebpf4jnsgd1na2vs0mg"},{"bike_id":"40919512-13e7-4bce-835f-742f0684ad5e","system_id":"levelo_inurba_marseille","lat":43.2841,"lon":5.34976,"is_reserved":false,"is_disabled":false,"rental_uris":{"android":"levelo://app?vid=40919512-13e7-4bce-835f-742f0684ad5e","ios":"levelo://app?vid=40919512-13e7-4bce-835f-742f0684ad5e"},"vehicle_type_id":"4","last_reported":1708265150,"current_range_meters":25200,"station_id":"ce4bhbh2rcd13ifvqepg","pricing_plan_id":"cebpf4jnsgd1na2vs0mg"},{"bike_id":"5bb6925c-ae02-4042-bcb7-37427aef73cd","system_id":"levelo_inurba_marseille","lat":43.284091,"lon":5.34977,"is_reserved":false,"is_disabled":false,"rental_uris":{"android":"levelo://app?vid=5bb6925c-ae02-4042-bcb7-37427aef73cd","ios":"levelo://app?vid=5bb6925c-ae02-4042-bcb7-37427aef73cd"},"vehicle_type_id":"4","last_reported":1708265150,"current_range_meters":18400,"station_id":"ce4bhbh2rcd13ifvqepg","pricing_plan_id":"cebpf4jnsgd1na2vs0mg"},{"bike_id":"e3b18c93-6146-49a0-8e6b-63c9ec7a4a14","system_id":"levelo_inurba_marseille","lat":43.28409,"lon":5.34975,"is_reserved":false,"is_disabled":false,"rental_uris":{"android":"levelo://app?vid=e3b18c93-6146-49a0-8e6b-63c9ec7a4a14","ios":"levelo://app?vid=e3b18c93-6146-49a0-8e6b-63c9ec7a4a14"},"vehicle_type_id":"4","last_reported":1708265150,"current_range_meters":0,"station_id":"ce4bhbh2rcd13ifvqepg","pricing_plan_id":"cebpf4jnsgd1na2vs0mg"},{"bike_id":"1f6b37e1-b9af-4aed-8b82-26ecdf55f542","system_id":"levelo_inurba_marseille","lat":43.28405,"lon":5.34981,"is_reserved":false,"is_disabled":false,"rental_uris":{"android":"levelo://app?vid=1f6b37e1-b9af-4aed-8b82-26ecdf55f542","ios":"levelo://app?vid=1f6b37e1-b9af-4aed-8b82-26ecdf55f542"},"vehicle_type_id":"4","last_reported":1708265150,"current_range_meters":12400,"station_id":"ce4bhbh2rcd13ifvqepg","pricing_plan_id":"cebpf4jnsgd1na2vs0mg"},{"bike_id":"045568c0-84c2-4118-af99-79d27f0f6839","system_id":"levelo_inurba_marseille","lat":43.28403,"lon":5.34975,"is_reserved":false,"is_disabled":false,"rental_uris":{"android":"levelo://app?vid=045568c0-84c2-4118-af99-79d27f0f6839","ios":"levelo://app?vid=045568c0-84c2-4118-af99-79d27f0f6839"},"vehicle_type_id":"4","last_reported":1708265150,"current_range_meters":19600,"station_id":"ce4bhbh2rcd13ifvqepg","pricing_plan_id":"cebpf4jnsgd1na2vs0mg"},{"bike_id":"b4799a43-485a-4968-b1b6-07b6638cbaac","system_id":"levelo_inurba_marseille","lat":43.283905,"lon":5.349876,"is_reserved":false,"is_disabled":false,"rental_uris":{"android":"levelo://app?vid=b4799a43-485a-4968-b1b6-07b6638cbaac","ios":"levelo://app?vid=b4799a43-485a-4968-b1b6-07b6638cbaac"},"vehicle_type_id":"4","last_reported":1708265150,"current_range_meters":17200,"station_id":"ce4bhbh2rcd13ifvqepg","pricing_plan_id":"cebpf4jnsgd1na2vs0mg"},{"bike_id":"56c25737-a3ab-430e-9244-838fcda1ad87","system_id":"levelo_inurba_marseille","lat":43.29276,"lon":5.401228,"is_reserved":false,"is_disabled":false,"rental_uris":{"android":"levelo://app?vid=56c25737-a3ab-430e-9244-838fcda1ad87","ios":"levelo://app?vid=56c25737-a3ab-430e-9244-838fcda1ad87"},"vehicle_type_id":"4","last_reported":1708265150,"current_range_meters":8400,"station_id":"ce4bh312rcd13ifvqdk0","pricing_plan_id":"cebpf4jnsgd1na2vs0mg"},{"bike_id":"79651963-7997-4fe6-9dbf-fd5e1e8ec4b9","system_id":"levelo_inurba_marseille","lat":43.29272,"lon":5.40128,"is_reserved":false,"is_disabled":false,"rental_uris":{"android":"levelo://app?vid=79651963-7997-4fe6-9dbf-fd5e1e8ec4b9","ios":"levelo://app?vid=79651963-7997-4fe6-9dbf-fd5e1e8ec4b9"},"vehicle_type_id":"4","last_reported":1708265150,"current_range_meters":0,"station_id":"ce4bh312rcd13ifvqdk0","pricing_plan_id":"cebpf4jnsgd1na2vs0mg"},{"bike_id":"57c71b04-1b08-4b6d-a562-62dbd4af9863","system_id":"levelo_inurba_marseille","lat":43.282813,"lon":5.350748,"is_reserved":false,"is_disabled":false,"rental_uris":{"android":"levelo://app?vid=57c71b04-1b08-4b6d-a562-62dbd4af9863","ios":"levelo://app?vid=57c71b04-1b08-4b6d-a562-62dbd4af9863"},"vehicle_type_id":"4","last_reported":1708265150,"current_range_meters":13200,"station_id":"ce4bhbp2rcd13ifvqerg","pricing_plan_id":"cebpf4jnsgd1na2vs0mg"},{"bike_id":"8680ccc8-18cc-4d0b-b434-b8433c69caf7","system_id":"levelo_inurba_marseille","lat":43.28279,"lon":5.35076,"is_reserved":false,"is_disabled":false,"rental_uris":{"android":"levelo://app?vid=8680ccc8-18cc-4d0b-b434-b8433c69caf7","ios":"levelo://app?vid=8680ccc8-18cc-4d0b-b434-b8433c69caf7"},"vehicle_type_id":"4","last_reported":1708265150,"current_range_meters":10000,"station_id":"ce4bhbp2rcd13ifvqerg","pricing_plan_id":"cebpf4jnsgd1na2vs0mg"},{"bike_id":"08f5a888-1690-4d71-8e2e-5fd249b59b08","system_id":"levelo_inurba_marseille","lat":43.28278,"lon":5.35073,"is_reserved":false,"is_disabled":false,"rental_uris":{"android":"levelo://app?vid=08f5a888-1690-4d71-8e2e-5fd249b59b08","ios":"levelo://app?vid=08f5a888-1690-4d71-8e2e-5fd249b59b08"},"vehicle_type_id":"4","last_reported":1708265150,"current_range_meters":16400,"station_id":"ce4bhbp2rcd13ifvqerg","pricing_plan_id":"cebpf4jnsgd1na2vs0mg"},{"bike_id":"2252b233-632a-41a2-bb61-0f7377d5a7da","system_id":"levelo_inurba_marseille","lat":43.28276,"lon":5.35078,"is_reserved":false,"is_disabled":false,"rental_uris":{"android":"levelo://app?vid=2252b233-632a-41a2-bb61-0f7377d5a7da","ios":"levelo://app?vid=2252b233-632a-41a2-bb61-0f7377d5a7da"},"vehicle_type_id":"4","last_reported":1708265150,"current_range_meters":26000,"station_id":"ce4bhbp2rcd13ifvqerg","pricing_plan_id":"cebpf4jnsgd1na2vs0mg"},{"bike_id":"fcf6d23f-edea-44d4-ab36-06d1228d75cc","system_id":"levelo_inurba_marseille","lat":43.28277,"lon":5.350697,"is_reserved":false,"is_disabled":false,"rental_uris":{"android":"levelo://app?vid=fcf6d23f-edea-44d4-ab36-06d1228d75cc","ios":"levelo://app?vid=fcf6d23f-edea-44d4-ab36-06d1228d75cc"},"vehicle_type_id":"4","last_reported":1708265150,"current_range_meters":0,"station_id":"ce4bhbp2rcd13ifvqerg","pricing_plan_id":"cebpf4jnsgd1na2vs0mg"},{"bike_id":"46f6f4d6-6b08-4303-97a9-aa5ee50d3ecc","system_id":"levelo_inurba_marseille","lat":43.282754,"lon":5.350744,"is_reserved":false,"is_disabled":false,"rental_uris":{"android":"levelo://app?vid=46f6f4d6-6b08-4303-97a9-aa5ee50d3ecc","ios":"levelo://app?vid=46f6f4d6-6b08-4303-97a9-aa5ee50d3ecc"},"vehicle_type_id":"4","last_reported":1708265150,"current_range_meters":22400,"station_id":"ce4bhbp2rcd13ifvqerg","pricing_plan_id":"cebpf4jnsgd1na2vs0mg"},{"bike_id":"3719102d-f9a0-4cab-b706-41f3acdafc89","system_id":"levelo_inurba_marseille","lat":43.282744,"lon":5.350533,"is_reserved":false,"is_disabled":false,"rental_uris":{"android":"levelo://app?vid=3719102d-f9a0-4cab-b706-41f3acdafc89","ios":"levelo://app?vid=3719102d-f9a0-4cab-b706-41f3acdafc89"},"vehicle_type_id":"4","last_reported":1708265150,"current_range_meters":28400,"station_id":"ce4bhbp2rcd13ifvqerg","pricing_plan_id":"cebpf4jnsgd1na2vs0mg"},{"bike_id":"b59f87ec-7d2e-49a9-ae0c-388b5344f302","system_id":"levelo_inurba_marseille","lat":43.282744,"lon":5.350533,"is_reserved":false,"is_disabled":false,"rental_uris":{"android":"levelo://app?vid=b59f87ec-7d2e-49a9-ae0c-388b5344f302","ios":"levelo://app?vid=b59f87ec-7d2e-49a9-ae0c-388b5344f302"},"vehicle_type_id":"4","last_reported":1708265150,"current_range_meters":6800,"station_id":"ce4bhbp2rcd13ifvqerg","pricing_plan_id":"cebpf4jnsgd1na2vs0mg"},{"bike_id":"39aca743-2e81-461a-8b21-678849739d58","system_id":"levelo_inurba_marseille","lat":43.28277,"lon":5.35064,"is_reserved":false,"is_disabled":false,"rental_uris":{"android":"levelo://app?vid=39aca743-2e81-461a-8b21-678849739d58","ios":"levelo://app?vid=39aca743-2e81-461a-8b21-678849739d58"},"vehicle_type_id":"4","last_reported":1708265150,"current_range_meters":11600,"station_id":"ce4bhbp2rcd13ifvqerg","pricing_plan_id":"cebpf4jnsgd1na2vs0mg"},{"bike_id":"40a5de94-2180-4e57-9194-960eed637043","system_id":"levelo_inurba_marseille","lat":43.282744,"lon":5.350533,"is_reserved":false,"is_disabled":false,"rental_uris":{"android":"levelo://app?vid=40a5de94-2180-4e57-9194-960eed637043","ios":"levelo://app?vid=40a5de94-2180-4e57-9194-960eed637043"},"vehicle_type_id":"4","last_reported":1708265150,"current_range_meters":0,"station_id":"ce4bhbp2rcd13ifvqerg","pricing_plan_id":"cebpf4jnsgd1na2vs0mg"},{"bike_id":"5d5ffa69-e2ae-4aee-be02-75810eeda3e8","system_id":"levelo_inurba_marseille","lat":43.282754,"lon":5.350519,"is_reserved":false,"is_disabled":false,"rental_uris":{"android":"levelo://app?vid=5d5ffa69-e2ae-4aee-be02-75810eeda3e8","ios":"levelo://app?vid=5d5ffa69-e2ae-4aee-be02-75810eeda3e8"},"vehicle_type_id":"4","last_reported":1708265150,"current_range_meters":0,"station_id":"ce4bhbp2rcd13ifvqerg","pricing_plan_id":"cebpf4jnsgd1na2vs0mg"},{"bike_id":"eca42b92-bea4-4532-ace4-1249a7cee1d5","system_id":"levelo_inurba_marseille","lat":43.282744,"lon":5.350533,"is_reserved":false,"is_disabled":false,"rental_uris":{"android":"levelo://app?vid=eca42b92-bea4-4532-ace4-1249a7cee1d5","ios":"levelo://app?vid=eca42b92-bea4-4532-ace4-1249a7cee1d5"},"vehicle_type_id":"4","last_reported":1708265150,"current_range_meters":6000,"station_id":"ce4bhbp2rcd13ifvqerg","pricing_plan_id":"cebpf4jnsgd1na2vs0mg"},{"bike_id":"9c4cf630-efb5-4a9b-9f83-2710f4b7f242","system_id":"levelo_inurba_marseille","lat":43.28275,"lon":5.35066,"is_reserved":false,"is_disabled":false,"rental_uris":{"android":"levelo://app?vid=9c4cf630-efb5-4a9b-9f83-2710f4b7f242","ios":"levelo://app?vid=9c4cf630-efb5-4a9b-9f83-2710f4b7f242"},"vehicle_type_id":"4","last_reported":1708265150,"current_range_meters":5600,"station_id":"ce4bhbp2rcd13ifvqerg","pricing_plan_id":"cebpf4jnsgd1na2vs0mg"},{"bike_id":"b22a5def-e5ba-408b-a7b3-63d260bafd07","system_id":"levelo_inurba_marseille","lat":43.282728,"lon":5.350699,"is_reserved":false,"is_disabled":false,"rental_uris":{"android":"levelo://app?vid=b22a5def-e5ba-408b-a7b3-63d260bafd07","ios":"levelo://app?vid=b22a5def-e5ba-408b-a7b3-63d260bafd07"},"vehicle_type_id":"4","last_reported":1708265150,"current_range_meters":22400,"station_id":"ce4bhbp2rcd13ifvqerg","pricing_plan_id":"cebpf4jnsgd1na2vs0mg"},{"bike_id":"807ca37d-3324-41ad-af17-3a55c08c1dbc","system_id":"levelo_inurba_marseille","lat":43.282704,"lon":5.35077,"is_reserved":false,"is_disabled":false,"rental_uris":{"android":"levelo://app?vid=807ca37d-3324-41ad-af17-3a55c08c1dbc","ios":"levelo://app?vid=807ca37d-3324-41ad-af17-3a55c08c1dbc"},"vehicle_type_id":"4","last_reported":1708265150,"current_range_meters":0,"station_id":"ce4bhbp2rcd13ifvqerg","pricing_plan_id":"cebpf4jnsgd1na2vs0mg"},{"bike_id":"2eac7e7c-9efe-4d3b-b658-372fa8149126","system_id":"levelo_inurba_marseille","lat":43.282733,"lon":5.350652,"is_reserved":false,"is_disabled":false,"rental_uris":{"android":"levelo://app?vid=2eac7e7c-9efe-4d3b-b658-372fa8149126","ios":"levelo://app?vid=2eac7e7c-9efe-4d3b-b658-372fa8149126"},"vehicle_type_id":"4","last_reported":1708265150,"current_range_meters":26000,"station_id":"ce4bhbp2rcd13ifvqerg","pricing_plan_id":"cebpf4jnsgd1na2vs0mg"},{"bike_id":"998517e3-b7e6-48f2-9dac-0adab517d813","system_id":"levelo_inurba_marseille","lat":43.282744,"lon":5.350533,"is_reserved":false,"is_disabled":false,"rental_uris":{"android":"levelo://app?vid=998517e3-b7e6-48f2-9dac-0adab517d813","ios":"levelo://app?vid=998517e3-b7e6-48f2-9dac-0adab517d813"},"vehicle_type_id":"4","last_reported":1708265150,"current_range_meters":3200,"station_id":"ce4bhbp2rcd13ifvqerg","pricing_plan_id":"cebpf4jnsgd1na2vs0mg"},{"bike_id":"4bd9bbb9-67d7-405a-82d2-d7b9f60da869","system_id":"levelo_inurba_marseille","lat":43.28269,"lon":5.350739,"is_reserved":false,"is_disabled":false,"rental_uris":{"android":"levelo://app?vid=4bd9bbb9-67d7-405a-82d2-d7b9f60da869","ios":"levelo://app?vid=4bd9bbb9-67d7-405a-82d2-d7b9f60da869"},"vehicle_type_id":"4","last_reported":1708265150,"current_range_meters":2400,"station_id":"ce4bhbp2rcd13ifvqerg","pricing_plan_id":"cebpf4jnsgd1na2vs0mg"},{"bike_id":"31d1e181-e271-4b32-9459-1c08d55ae4a4","system_id":"levelo_inurba_marseille","lat":43.28271,"lon":5.350636,"is_reserved":false,"is_disabled":false,"rental_uris":{"android":"levelo://app?vid=31d1e181-e271-4b32-9459-1c08d55ae4a4","ios":"levelo://app?vid=31d1e181-e271-4b32-9459-1c08d55ae4a4"},"vehicle_type_id":"4","last_reported":1708265150,"current_range_meters":400,"station_id":"ce4bhbp2rcd13ifvqerg","pricing_plan_id":"cebpf4jnsgd1na2vs0mg"},{"bike_id":"c68c0be3-8298-4601-93e7-d7ad7e4462cc","system_id":"levelo_inurba_marseille","lat":43.282754,"lon":5.350519,"is_reserved":false,"is_disabled":false,"rental_uris":{"android":"levelo://app?vid=c68c0be3-8298-4601-93e7-d7ad7e4462cc","ios":"levelo://app?vid=c68c0be3-8298-4601-93e7-d7ad7e4462cc"},"vehicle_type_id":"4","last_reported":1708265150,"current_range_meters":31200,"station_id":"ce4bhbp2rcd13ifvqerg","pricing_plan_id":"cebpf4jnsgd1na2vs0mg"},{"bike_id":"0dd4394c-2b34-40d8-8790-9edd61c50e64","system_id":"levelo_inurba_marseille","lat":43.282744,"lon":5.350533,"is_reserved":false,"is_disabled":false,"rental_uris":{"android":"levelo://app?vid=0dd4394c-2b34-40d8-8790-9edd61c50e64","ios":"levelo://app?vid=0dd4394c-2b34-40d8-8790-9edd61c50e64"},"vehicle_type_id":"4","last_reported":1708265150,"current_range_meters":0,"station_id":"ce4bhbp2rcd13ifvqerg","pricing_plan_id":"cebpf4jnsgd1na2vs0mg"},{"bike_id":"bc69af4f-11c4-493f-b185-60ea46987ffc","system_id":"levelo_inurba_marseille","lat":43.282744,"lon":5.350533,"is_reserved":false,"is_disabled":false,"rental_uris":{"android":"levelo://app?vid=bc69af4f-11c4-493f-b185-60ea46987ffc","ios":"levelo://app?vid=bc69af4f-11c4-493f-b185-60ea46987ffc"},"vehicle_type_id":"4","last_reported":1708265150,"current_range_meters":16000,"station_id":"ce4bhbp2rcd13ifvqerg","pricing_plan_id":"cebpf4jnsgd1na2vs0mg"},{"bike_id":"bfce0030-e225-44aa-959e-b9963140baae","system_id":"levelo_inurba_marseille","lat":43.28266,"lon":5.35067,"is_reserved":false,"is_disabled":false,"rental_uris":{"android":"levelo://app?vid=bfce0030-e225-44aa-959e-b9963140baae","ios":"levelo://app?vid=bfce0030-e225-44aa-959e-b9963140baae"},"vehicle_type_id":"4","last_reported":1708265150,"current_range_meters":30000,"station_id":"ce4bhbp2rcd13ifvqerg","pricing_plan_id":"cebpf4jnsgd1na2vs0mg"},{"bike_id":"c9ebba26-7ab1-4f43-81dc-02fb38a0782c","system_id":"levelo_inurba_marseille","lat":43.282691,"lon":5.350562,"is_reserved":false,"is_disabled":false,"rental_uris":{"android":"levelo://app?vid=c9ebba26-7ab1-4f43-81dc-02fb38a0782c","ios":"levelo://app?vid=c9ebba26-7ab1-4f43-81dc-02fb38a0782c"},"vehicle_type_id":"4","last_reported":1708265150,"current_range_meters":4000,"station_id":"ce4bhbp2rcd13ifvqerg","pricing_plan_id":"cebpf4jnsgd1na2vs0mg"},{"bike_id":"8544d083-af67-4177-9564-c0b70200c822","system_id":"levelo_inurba_marseille","lat":43.282744,"lon":5.350533,"is_reserved":false,"is_disabled":false,"rental_uris":{"android":"levelo://app?vid=8544d083-af67-4177-9564-c0b70200c822","ios":"levelo://app?vid=8544d083-af67-4177-9564-c0b70200c822"},"vehicle_type_id":"4","last_reported":1708265150,"current_range_meters":800,"station_id":"ce4bhbp2rcd13ifvqerg","pricing_plan_id":"cebpf4jnsgd1na2vs0mg"},{"bike_id":"aef71039-4b90-4edc-b556-5bee27e2b4bf","system_id":"levelo_inurba_marseille","lat":43.282666,"lon":5.350644,"is_reserved":false,"is_disabled":false,"rental_uris":{"android":"levelo://app?vid=aef71039-4b90-4edc-b556-5bee27e2b4bf","ios":"levelo://app?vid=aef71039-4b90-4edc-b556-5bee27e2b4bf"},"vehicle_type_id":"4","last_reported":1708265150,"current_range_meters":5600,"station_id":"ce4bhbp2rcd13ifvqerg","pricing_plan_id":"cebpf4jnsgd1na2vs0mg"},{"bike_id":"6443f7e7-0707-4b00-ad63-9182c38935db","system_id":"levelo_inurba_marseille","lat":43.283502,"lon":5.386471,"is_reserved":false,"is_disabled":false,"rental_uris":{"android":"levelo://app?vid=6443f7e7-0707-4b00-ad63-9182c38935db","ios":"levelo://app?vid=6443f7e7-0707-4b00-ad63-9182c38935db"},"vehicle_type_id":"4","last_reported":1708265150,"current_range_meters":31200,"station_id":"ce4bh492rcd13ifvqdvg","pricing_plan_id":"cebpf4jnsgd1na2vs0mg"},{"bike_id":"d3cf6326-0304-420a-8cf1-5ffd7651d98f","system_id":"levelo_inurba_marseille","lat":43.28266,"lon":5.35061,"is_reserved":false,"is_disabled":false,"rental_uris":{"android":"levelo://app?vid=d3cf6326-0304-420a-8cf1-5ffd7651d98f","ios":"levelo://app?vid=d3cf6326-0304-420a-8cf1-5ffd7651d98f"},"vehicle_type_id":"4","last_reported":1708265150,"current_range_meters":16000,"station_id":"ce4bhbp2rcd13ifvqerg","pricing_plan_id":"cebpf4jnsgd1na2vs0mg"},{"bike_id":"9c24efd9-ff60-41fa-9edc-7a69480b17fb","system_id":"levelo_inurba_marseille","lat":43.28266,"lon":5.35061,"is_reserved":false,"is_disabled":false,"rental_uris":{"android":"levelo://app?vid=9c24efd9-ff60-41fa-9edc-7a69480b17fb","ios":"levelo://app?vid=9c24efd9-ff60-41fa-9edc-7a69480b17fb"},"vehicle_type_id":"4","last_reported":1708265150,"current_range_meters":400,"station_id":"ce4bhbp2rcd13ifvqerg","pricing_plan_id":"cebpf4jnsgd1na2vs0mg"},{"bike_id":"25032bde-d4f1-46e9-ac1e-04e33a457e84","system_id":"levelo_inurba_marseille","lat":43.28266,"lon":5.3506,"is_reserved":false,"is_disabled":false,"rental_uris":{"android":"levelo://app?vid=25032bde-d4f1-46e9-ac1e-04e33a457e84","ios":"levelo://app?vid=25032bde-d4f1-46e9-ac1e-04e33a457e84"},"vehicle_type_id":"4","last_reported":1708265150,"current_range_meters":1200,"station_id":"ce4bhbp2rcd13ifvqerg","pricing_plan_id":"cebpf4jnsgd1na2vs0mg"},{"bike_id":"27ed4a8b-2169-4b50-9286-df8cc613be4f","system_id":"levelo_inurba_marseille","lat":43.28265,"lon":5.35061,"is_reserved":false,"is_disabled":false,"rental_uris":{"android":"levelo://app?vid=27ed4a8b-2169-4b50-9286-df8cc613be4f","ios":"levelo://app?vid=27ed4a8b-2169-4b50-9286-df8cc613be4f"},"vehicle_type_id":"4","last_reported":1708265150,"current_range_meters":1600,"station_id":"ce4bhbp2rcd13ifvqerg","pricing_plan_id":"cebpf4jnsgd1na2vs0mg"},{"bike_id":"9597ae51-a495-43ed-b72e-aecd9bf22742","system_id":"levelo_inurba_marseille","lat":43.28265,"lon":5.35059,"is_reserved":false,"is_disabled":false,"rental_uris":{"android":"levelo://app?vid=9597ae51-a495-43ed-b72e-aecd9bf22742","ios":"levelo://app?vid=9597ae51-a495-43ed-b72e-aecd9bf22742"},"vehicle_type_id":"4","last_reported":1708265150,"current_range_meters":10800,"station_id":"ce4bhbp2rcd13ifvqerg","pricing_plan_id":"cebpf4jnsgd1na2vs0mg"},{"bike_id":"3625325f-4f86-48c2-8755-26dc23a36ed0","system_id":"levelo_inurba_marseille","lat":43.28263,"lon":5.3506,"is_reserved":false,"is_disabled":false,"rental_uris":{"android":"levelo://app?vid=3625325f-4f86-48c2-8755-26dc23a36ed0","ios":"levelo://app?vid=3625325f-4f86-48c2-8755-26dc23a36ed0"},"vehicle_type_id":"4","last_reported":1708265150,"current_range_meters":13200,"station_id":"ce4bhbp2rcd13ifvqerg","pricing_plan_id":"cebpf4jnsgd1na2vs0mg"},{"bike_id":"32bb3f61-4729-423c-929a-acb0cba05e43","system_id":"levelo_inurba_marseille","lat":43.28263,"lon":5.35058,"is_reserved":false,"is_disabled":false,"rental_uris":{"android":"levelo://app?vid=32bb3f61-4729-423c-929a-acb0cba05e43","ios":"levelo://app?vid=32bb3f61-4729-423c-929a-acb0cba05e43"},"vehicle_type_id":"4","last_reported":1708265150,"current_range_meters":16400,"station_id":"ce4bhbp2rcd13ifvqerg","pricing_plan_id":"cebpf4jnsgd1na2vs0mg"},{"bike_id":"0b0133ec-fb12-4a4e-9f86-5666f1e141a9","system_id":"levelo_inurba_marseille","lat":43.290345,"lon":5.38646,"is_reserved":false,"is_disabled":false,"rental_uris":{"android":"levelo://app?vid=0b0133ec-fb12-4a4e-9f86-5666f1e141a9","ios":"levelo://app?vid=0b0133ec-fb12-4a4e-9f86-5666f1e141a9"},"vehicle_type_id":"4","last_reported":1708265150,"current_range_meters":14000,"station_id":"ce4bh4p2rcd13ifvqe0g","pricing_plan_id":"cebpf4jnsgd1na2vs0mg"},{"bike_id":"1c9dc87e-4dbb-4448-a3fc-3d4b2448c35d","system_id":"levelo_inurba_marseille","lat":43.28262,"lon":5.3506,"is_reserved":false,"is_disabled":false,"rental_uris":{"android":"levelo://app?vid=1c9dc87e-4dbb-4448-a3fc-3d4b2448c35d","ios":"levelo://app?vid=1c9dc87e-4dbb-4448-a3fc-3d4b2448c35d"},"vehicle_type_id":"4","last_reported":1708265150,"current_range_meters":15200,"station_id":"ce4bhbp2rcd13ifvqerg","pricing_plan_id":"cebpf4jnsgd1na2vs0mg"},{"bike_id":"d9d6acd9-fe52-4c18-883c-ead375716d3e","system_id":"levelo_inurba_marseille","lat":43.28261,"lon":5.3506,"is_reserved":false,"is_disabled":false,"rental_uris":{"android":"levelo://app?vid=d9d6acd9-fe52-4c18-883c-ead375716d3e","ios":"levelo://app?vid=d9d6acd9-fe52-4c18-883c-ead375716d3e"},"vehicle_type_id":"4","last_reported":1708265150,"current_range_meters":26800,"station_id":"ce4bhbp2rcd13ifvqerg","pricing_plan_id":"cebpf4jnsgd1na2vs0mg"},{"bike_id":"b570d8a5-b72d-4689-a60f-0ca6166645d5","system_id":"levelo_inurba_marseille","lat":43.2804,"lon":5.36936,"is_reserved":false,"is_disabled":false,"rental_uris":{"android":"levelo://app?vid=b570d8a5-b72d-4689-a60f-0ca6166645d5","ios":"levelo://app?vid=b570d8a5-b72d-4689-a60f-0ca6166645d5"},"vehicle_type_id":"4","last_reported":1708265150,"current_range_meters":3200,"station_id":"ce4bha12rcd13ifvqef0","pricing_plan_id":"cebpf4jnsgd1na2vs0mg"},